{"requestParameters":{"date":"2018/04/02","walkSpeed":"1.33","walkReluctance":"2.0","fromPlace":"48.320734,-71.129163","maxWalkDistance":"3000","waitReluctance":"1.0","carSpeed":"33","numItineraries":"3","waitAtBeginningFactor":"0.4","mode":"TRANSIT,WALK","ignoreRealtimeUpdates":"false","stairsReluctance":"2.0","toPlace":"48.339143,-71.139211","time":"17:0:00"},"plan":{"date":1522702800000,"from":{"name":"Origin","lon":-71.129163,"lat":48.320734,"orig":"","vertexType":"NORMAL"},"to":{"name":"Destination","lon":-71.139211,"lat":48.339143,"orig":"","vertexType":"NORMAL"},"itineraries":[{"duration":969,"startTime":1522702935000,"endTime":1522703904000,"walkTime":776,"transitTime":191,"waitingTime":2,"walkDistance":1012.8582180422984,"walkLimitExceeded":false,"elevationLost":0.0,"elevationGained":0.0,"transfers":0,"legs":[{"startTime":1522702935000,"endTime":1522703339000,"departureDelay":0,"arrivalDelay":0,"realTime":false,"distance":528.2260000000001,"pathway":false,"mode":"WALK","route":"","agencyTimeZoneOffset":-14400000,"interlineWithPreviousLeg":false,"from":{"name":"Origin","lon":-71.129163,"lat":48.320734,"departure":1522702935000,"orig":"","vertexType":"NORMAL"},"to":{"name":"ch. Portage Roches N / Caravanes","stopId":"1:1779","stopCode":"1779","lon":-71.138324,"lat":48.31808,"arrival":1522703339000,"departure":1522703340000,"zoneId":"NA","stopIndex":12,"stopSequence":13,"vertexType":"TRANSIT"},"legGeometry":{"points":"w_|eHbedqLqAtDmAlD_BpEkBjFhDdDrApA@@","length":8},"rentedBike":false,"transitLeg":false,"duration":404.0,"steps":[{"distance":359.09000000000003,"relativeDirection":"DEPART","streetName":"Rue du Boulevard","absoluteDirection":"NORTHWEST","stayOn":false,"area":false,"bogusName":false,"lon":-71.1331396,"lat":48.317561100000006,"elevation":[]},{"distance":169.136,"relativeDirection":"LEFT","streetName":"Chemin du Portage-des-Roches Nord","absoluteDirection":"SOUTHWEST","stayOn":false,"area":false,"bogusName":false,"lon":-71.1371469,"lat":48.3193853,"elevation":[]}]},{"startTime":1522703340000,"endTime":1522703531000,"departureDelay":0,"arrivalDelay":0,"realTime":false,"distance":2955.073753681425,"pathway":false,"mode":"BUS","route":"60","agencyName":"Société de Transport du Saguenay","agencyUrl":"http://ville.saguenay.ca/fr/services-aux-citoyens/transport-sts","agencyTimeZoneOffset":-14400000,"routeColor":"00FFFF","routeType":3,"routeId":"1:60","routeTextColor":"000000","interlineWithPreviousLeg":false,"tripBlockId":"107","headsign":"Terminus Chicoutimi","agencyId":"0","tripId":"1:218824","serviceDate":"20180402","from":{"name":"ch. Portage Roches N / Caravanes","stopId":"1:1779","stopCode":"1779","lon":-71.138324,"lat":48.31808,"arrival":1522703339000,"departure":1522703340000,"zoneId":"NA","stopIndex":12,"stopSequence":13,"vertexType":"TRANSIT"},"to":{"name":"ch. St-Pierre (no. 4983)","stopId":"1:1780","stopCode":"1780","lon":-71.140905,"lat":48.342684,"arrival":1522703531000,"departure":1522703532000,"zoneId":"NA","stopIndex":16,"stopSequence":17,"vertexType":"TRANSIT"},"legGeometry":{"points":"cc|eH|eeqLcD{Cw@{@]]i@i@w@gA_@e@e@UmAc@sHmAaIiA_BAM?cADsJn@gAPkAZODcAl@}@j@w@x@ML_BlB_B`DiAlDsBdH_AfCq@zAQ^S\\{BtD}BxCyAvAyA`AqDtAiCn@yD\\w@DKAOCw@c@EAcRwRe@]_AWMAgJeB{BKe@LGD","length":50},"routeShortName":"60","routeLongName":"Portage des Roches Nord","rentedBike":false,"transitLeg":true,"duration":191.0,"steps":[]},{"startTime":1522703532000,"endTime":1522703904000,"departureDelay":0,"arrivalDelay":0,"realTime":false,"distance":484.545,"pathway":false,"mode":"WALK","route":"","agencyTimeZoneOffset":-14400000,"interlineWithPreviousLeg":false,"from":{"name":"ch. St-Pierre (no. 4983)","stopId":"1:1780","stopCode":"1780","lon":-71.140905,"lat":48.342684,"arrival":1522703531000,"departure":1522703532000,"zoneId":"NA","stopIndex":16,"stopSequence":17,"vertexType":"TRANSIT"},"to":{"name":"Destination","lon":-71.139211,"lat":48.339143,"arrival":1522703904000,"orig":"","vertexType":"NORMAL"},"legGeometry":{"points":"q|`fHfveqLLIVKRAT?x@H|JdBtAqGp@sCVV","length":10},"rentedBike":false,"transitLeg":false,"duration":372.0,"steps":[{"distance":294.271,"relativeDirection":"DEPART","streetName":"Rang Saint-Pierre","absoluteDirection":"SOUTH","stayOn":false,"area":false,"bogusName":false,"lon":-71.14099244524219,"lat":48.34265747703429,"elevation":[]},{"distance":173.825,"relativeDirection":"LEFT","streetName":"Rue du Rivage","absoluteDirection":"SOUTHEAST","stayOn":false,"area":false,"bogusName":false,"lon":-71.1414357,"lat":48.3400557,"elevation":[]},{"distance":16.449,"relativeDirection":"RIGHT","streetName":"Chemin des Puits","absoluteDirection":"SOUTHWEST","stayOn":false,"area":false,"bogusName":false,"lon":-71.1393207,"lat":48.3393724,"elevation":[]}]}],"tooSloped":false},{"duration":1024,"startTime":1522708335000,"endTime":1522709359000,"walkTime":776,"transitTime":246,"waitingTime":2,"walkDistance":1012.8582180422984,"walkLimitExceeded":false,"elevationLost":0.0,"elevationGained":0.0,"transfers":0,"legs":[{"startTime":1522708335000,"endTime":1522708739000,"departureDelay":0,"arrivalDelay":0,"realTime":false,"distance":528.2260000000001,"pathway":false,"mode":"WALK","route":"","agencyTimeZoneOffset":-14400000,"interlineWithPreviousLeg":false,"from":{"name":"Origin","lon":-71.129163,"lat":48.320734,"departure":1522708335000,"orig":"","vertexType":"NORMAL"},"to":{"name":"ch. Portage Roches N / Caravanes","stopId":"1:1779","stopCode":"1779","lon":-71.138324,"lat":48.31808,"arrival":1522708739000,"departure":1522708740000,"zoneId":"NA","stopIndex":11,"stopSequence":12,"vertexType":"TRANSIT"},"legGeometry":{"points":"w_|eHbedqLqAtDmAlD_BpEkBjFhDdDrApA@@","length":8},"rentedBike":false,"transitLeg":false,"duration":404.0,"steps":[{"distance":359.09000000000003,"relativeDirection":"DEPART","streetName":"Rue du Boulevard","absoluteDirection":"NORTHWEST","stayOn":false,"area":false,"bogusName":false,"lon":-71.1331396,"lat":48.317561100000006,"elevation":[]},{"distance":169.136,"relativeDirection":"LEFT","streetName":"Chemin du Portage-des-Roches Nord","absoluteDirection":"SOUTHWEST","stayOn":false,"area":false,"bogusName":false,"lon":-71.1371469,"lat":48.3193853,"elevation":[]}]},{"startTime":1522708740000,"endTime":1522708986000,"departureDelay":0,"arrivalDelay":0,"realTime":false,"distance":2955.073753681425,"pathway":false,"mode":"BUS","route":"60","agencyName":"Société de Transport du Saguenay","agencyUrl":"http://ville.saguenay.ca/fr/services-aux-citoyens/transport-sts","agencyTimeZoneOffset":-14400000,"routeColor":"00FFFF","routeType":3,"routeId":"1:60","routeTextColor":"000000","interlineWithPreviousLeg":false,"tripBlockId":"53","headsign":"Costco","agencyId":"0","tripId":"1:218477","serviceDate":"20180402","from":{"name":"ch. Portage Roches N / Caravanes","stopId":"1:1779","stopCode":"1779","lon":-71.138324,"lat":48.31808,"arrival":1522708739000,"departure":1522708740000,"zoneId":"NA","stopIndex":11,"stopSequence":12,"vertexType":"TRANSIT"},"to":{"name":"ch. St-Pierre (no. 4983)","stopId":"1:1780","stopCode":"1780","lon":-71.140905,"lat":48.342684,"arrival":1522708986000,"departure":1522708987000,"zoneId":"NA","stopIndex":15,"stopSequence":16,"vertexType":"TRANSIT"},"legGeometry":{"points":"cc|eH|eeqLcD{Cw@{@]]i@i@w@gA_@e@e@UmAc@sHmAaIiA_BAM?cADsJn@gAPkAZODcAl@}@j@w@x@ML_BlB_B`DiAlDsBdH_AfCq@zAQ^S\\{BtD}BxCyAvAyA`AqDtAiCn@yD\\w@DKAOCw@c@EAcRwRe@]_AWMAgJeB{BKe@LGD","length":50},"routeShortName":"60","routeLongName":"Portage des Roches Nord","rentedBike":false,"transitLeg":true,"duration":246.0,"steps":[]},{"startTime":1522708987000,"endTime":1522709359000,"departureDelay":0,"arrivalDelay":0,"realTime":false,"distance":484.545,"pathway":false,"mode":"WALK","route":"","agencyTimeZoneOffset":-14400000,"interlineWithPreviousLeg":false,"from":{"name":"ch. St-Pierre (no. 4983)","stopId":"1:1780","stopCode":"1780","lon":-71.140905,"lat":48.342684,"arrival":1522708986000,"departure":1522708987000,"zoneId":"NA","stopIndex":15,"stopSequence":16,"vertexType":"TRANSIT"},"to":{"name":"Destination","lon":-71.139211,"lat":48.339143,"arrival":1522709359000,"orig":"","vertexType":"NORMAL"},"legGeometry":{"points":"q|`fHfveqLLIVKRAT?x@H|JdBtAqGp@sCVV","length":10},"rentedBike":false,"transitLeg":false,"duration":372.0,"steps":[{"distance":294.271,"relativeDirection":"DEPART","streetName":"Rang Saint-Pierre","absoluteDirection":"SOUTH","stayOn":false,"area":false,"bogusName":false,"lon":-71.14099244524219,"lat":48.34265747703429,"elevation":[]},{"distance":173.825,"relativeDirection":"LEFT","streetName":"Rue du Rivage","absoluteDirection":"SOUTHEAST","stayOn":false,"area":false,"bogusName":false,"lon":-71.1414357,"lat":48.3400557,"elevation":[]},{"distance":16.449,"relativeDirection":"RIGHT","streetName":"Chemin des Puits","absoluteDirection":"SOUTHWEST","stayOn":false,"area":false,"bogusName":false,"lon":-71.1393207,"lat":48.3393724,"elevation":[]}]}],"tooSloped":false}]},"debugOutput":{"precalculationTime":2,"pathCalculationTime":26,"pathTimes":[1,7],"renderingTime":0,"totalTime":28,"timedOut":false},"elevationMetadata":{"ellipsoidToGeoidDifference":-28.885904201182168,"geoidElevation":false}}