{"requestParameters":{"date":"2018/04/02","walkSpeed":"1.33","walkReluctance":"2.0","fromPlace":"48.397376,-71.065937","maxWalkDistance":"3000","waitReluctance":"1.0","carSpeed":"33","numItineraries":"3","waitAtBeginningFactor":"0.4","mode":"TRANSIT,WALK","ignoreRealtimeUpdates":"false","stairsReluctance":"2.0","toPlace":"48.408707,-71.05524699","time":"15:40:00"},"plan":{"date":1522698000000,"from":{"name":"Origin","lon":-71.065937,"lat":48.397376,"orig":"","vertexType":"NORMAL"},"to":{"name":"Destination","lon":-71.05524699,"lat":48.408707,"orig":"","vertexType":"NORMAL"},"itineraries":[{"duration":1151,"startTime":1522698000000,"endTime":1522699151000,"walkTime":1151,"transitTime":0,"waitingTime":0,"walkDistance":1504.0519323284736,"walkLimitExceeded":false,"elevationLost":0.0,"elevationGained":0.0,"transfers":0,"legs":[{"startTime":1522698000000,"endTime":1522699151000,"departureDelay":0,"arrivalDelay":0,"realTime":false,"distance":1503.979,"pathway":false,"mode":"WALK","route":"","agencyTimeZoneOffset":-14400000,"interlineWithPreviousLeg":false,"from":{"name":"Origin","lon":-71.065937,"lat":48.397376,"departure":1522698000000,"orig":"","vertexType":"NORMAL"},"to":{"name":"Destination","lon":-71.05524699,"lat":48.408707,"arrival":1522699151000,"orig":"","vertexType":"NORMAL"},"legGeometry":{"points":"}rkfHvawpLwGcKOQGIW]eB_CoCqDqH_H{DqDMKWWkBeBiFwEiE_EMK}DqD{FkFKKO`@OOaA_A","length":21},"rentedBike":false,"transitLeg":false,"duration":1151.0,"steps":[{"distance":1503.979,"relativeDirection":"DEPART","streetName":"Boulevard Talbot","absoluteDirection":"NORTHEAST","stayOn":false,"area":false,"bogusName":false,"lon":-71.06603572562051,"lat":48.39743618006877,"elevation":[]}]}],"tooSloped":false},{"duration":601,"startTime":1522698679000,"endTime":1522699280000,"walkTime":416,"transitTime":183,"waitingTime":2,"walkDistance":529.6068872146607,"walkLimitExceeded":false,"elevationLost":0.0,"elevationGained":0.0,"transfers":0,"legs":[{"startTime":1522698679000,"endTime":1522698716000,"departureDelay":0,"arrivalDelay":0,"realTime":false,"distance":48.452,"pathway":false,"mode":"WALK","route":"","agencyTimeZoneOffset":-14400000,"interlineWithPreviousLeg":false,"from":{"name":"Origin","lon":-71.065937,"lat":48.397376,"departure":1522698679000,"orig":"","vertexType":"NORMAL"},"to":{"name":"boul. Talbot (no. 1775)","stopId":"1:50","stopCode":"50","lon":-71.066348,"lat":48.397035,"arrival":1522698716000,"departure":1522698717000,"zoneId":"NA","stopIndex":8,"stopSequence":9,"vertexType":"TRANSIT"},"legGeometry":{"points":"}rkfHvawpL~@vA","length":2},"rentedBike":false,"transitLeg":false,"duration":37.0,"steps":[{"distance":48.452,"relativeDirection":"DEPART","streetName":"Boulevard Talbot","absoluteDirection":"SOUTHWEST","stayOn":false,"area":false,"bogusName":false,"lon":-71.06603572562051,"lat":48.39743618006877,"elevation":[]}]},{"startTime":1522698717000,"endTime":1522698900000,"departureDelay":0,"arrivalDelay":0,"realTime":false,"distance":1175.9909538814168,"pathway":false,"mode":"BUS","route":"175","agencyName":"Société de Transport du Saguenay","agencyUrl":"http://ville.saguenay.ca/fr/services-aux-citoyens/transport-sts","agencyTimeZoneOffset":-14400000,"routeColor":"FF00FF","routeType":3,"routeId":"1:175","routeTextColor":"FFFFFF","interlineWithPreviousLeg":false,"tripBlockId":"10","headsign":"Terminus Chicoutimi","agencyId":"0","tripId":"1:217445","serviceDate":"20180402","from":{"name":"boul. Talbot (no. 1775)","stopId":"1:50","stopCode":"50","lon":-71.066348,"lat":48.397035,"arrival":1522698716000,"departure":1522698717000,"zoneId":"NA","stopIndex":8,"stopSequence":9,"vertexType":"TRANSIT"},"to":{"name":"Place Royaume","stopId":"1:1801","stopCode":"1801","lon":-71.057017,"lat":48.405588,"arrival":1522698900000,"departure":1522698901000,"zoneId":"NA","stopIndex":10,"stopSequence":11,"vertexType":"TRANSIT"},"legGeometry":{"points":"_qkfHtdwpLqJ_N}FkImPkOuO{N","length":5},"routeShortName":"175","routeLongName":"Term. Chic / Costco","rentedBike":false,"transitLeg":true,"duration":183.0,"steps":[]},{"startTime":1522698901000,"endTime":1522699280000,"departureDelay":0,"arrivalDelay":0,"realTime":false,"distance":481.05,"pathway":false,"mode":"WALK","route":"","agencyTimeZoneOffset":-14400000,"interlineWithPreviousLeg":false,"from":{"name":"Place Royaume","stopId":"1:1801","stopCode":"1801","lon":-71.057017,"lat":48.405588,"arrival":1522698900000,"departure":1522698901000,"zoneId":"NA","stopIndex":10,"stopSequence":11,"vertexType":"TRANSIT"},"to":{"name":"Destination","lon":-71.05524699,"lat":48.408707,"arrival":1522699280000,"orig":"","vertexType":"NORMAL"},"legGeometry":{"points":"memfHriupL`@{A[Yo@|BEJIZKIqD}CaA_AkE{DOOaA_A","length":12},"rentedBike":false,"transitLeg":false,"duration":379.0,"steps":[{"distance":56.66,"relativeDirection":"DEPART","streetName":"parking aisle","absoluteDirection":"SOUTHEAST","stayOn":false,"area":false,"bogusName":true,"lon":-71.0570537,"lat":48.405519700000006,"elevation":[]},{"distance":71.053,"relativeDirection":"LEFT","streetName":"service road","absoluteDirection":"NORTHWEST","stayOn":true,"area":false,"bogusName":true,"lon":-71.0564657,"lat":48.405483000000004,"elevation":[]},{"distance":353.337,"relativeDirection":"RIGHT","streetName":"Boulevard Talbot","absoluteDirection":"NORTHEAST","stayOn":false,"area":false,"bogusName":false,"lon":-71.05729810000001,"lat":48.4058038,"elevation":[]}]}],"tooSloped":false},{"duration":601,"startTime":1522699579000,"endTime":1522700180000,"walkTime":416,"transitTime":183,"waitingTime":2,"walkDistance":529.6068872146607,"walkLimitExceeded":false,"elevationLost":0.0,"elevationGained":0.0,"transfers":0,"legs":[{"startTime":1522699579000,"endTime":1522699616000,"departureDelay":0,"arrivalDelay":0,"realTime":false,"distance":48.452,"pathway":false,"mode":"WALK","route":"","agencyTimeZoneOffset":-14400000,"interlineWithPreviousLeg":false,"from":{"name":"Origin","lon":-71.065937,"lat":48.397376,"departure":1522699579000,"orig":"","vertexType":"NORMAL"},"to":{"name":"boul. Talbot (no. 1775)","stopId":"1:50","stopCode":"50","lon":-71.066348,"lat":48.397035,"arrival":1522699616000,"departure":1522699617000,"zoneId":"NA","stopIndex":8,"stopSequence":9,"vertexType":"TRANSIT"},"legGeometry":{"points":"}rkfHvawpL~@vA","length":2},"rentedBike":false,"transitLeg":false,"duration":37.0,"steps":[{"distance":48.452,"relativeDirection":"DEPART","streetName":"Boulevard Talbot","absoluteDirection":"SOUTHWEST","stayOn":false,"area":false,"bogusName":false,"lon":-71.06603572562051,"lat":48.39743618006877,"elevation":[]}]},{"startTime":1522699617000,"endTime":1522699800000,"departureDelay":0,"arrivalDelay":0,"realTime":false,"distance":1175.9909538814168,"pathway":false,"mode":"BUS","route":"175","agencyName":"Société de Transport du Saguenay","agencyUrl":"http://ville.saguenay.ca/fr/services-aux-citoyens/transport-sts","agencyTimeZoneOffset":-14400000,"routeColor":"FF00FF","routeType":3,"routeId":"1:175","routeTextColor":"FFFFFF","interlineWithPreviousLeg":false,"tripBlockId":"77","headsign":"Terminus Chicoutimi","agencyId":"0","tripId":"1:218636","serviceDate":"20180402","from":{"name":"boul. Talbot (no. 1775)","stopId":"1:50","stopCode":"50","lon":-71.066348,"lat":48.397035,"arrival":1522699616000,"departure":1522699617000,"zoneId":"NA","stopIndex":8,"stopSequence":9,"vertexType":"TRANSIT"},"to":{"name":"Place Royaume","stopId":"1:1801","stopCode":"1801","lon":-71.057017,"lat":48.405588,"arrival":1522699800000,"departure":1522699801000,"zoneId":"NA","stopIndex":10,"stopSequence":11,"vertexType":"TRANSIT"},"legGeometry":{"points":"_qkfHtdwpLqJ_N}FkImPkOuO{N","length":5},"routeShortName":"175","routeLongName":"Term. Chic / Costco","rentedBike":false,"transitLeg":true,"duration":183.0,"steps":[]},{"startTime":1522699801000,"endTime":1522700180000,"departureDelay":0,"arrivalDelay":0,"realTime":false,"distance":481.05,"pathway":false,"mode":"WALK","route":"","agencyTimeZoneOffset":-14400000,"interlineWithPreviousLeg":false,"from":{"name":"Place Royaume","stopId":"1:1801","stopCode":"1801","lon":-71.057017,"lat":48.405588,"arrival":1522699800000,"departure":1522699801000,"zoneId":"NA","stopIndex":10,"stopSequence":11,"vertexType":"TRANSIT"},"to":{"name":"Destination","lon":-71.05524699,"lat":48.408707,"arrival":1522700180000,"orig":"","vertexType":"NORMAL"},"legGeometry":{"points":"memfHriupL`@{A[Yo@|BEJIZKIqD}CaA_AkE{DOOaA_A","length":12},"rentedBike":false,"transitLeg":false,"duration":379.0,"steps":[{"distance":56.66,"relativeDirection":"DEPART","streetName":"parking aisle","absoluteDirection":"SOUTHEAST","stayOn":false,"area":false,"bogusName":true,"lon":-71.0570537,"lat":48.405519700000006,"elevation":[]},{"distance":71.053,"relativeDirection":"LEFT","streetName":"service road","absoluteDirection":"NORTHWEST","stayOn":true,"area":false,"bogusName":true,"lon":-71.0564657,"lat":48.405483000000004,"elevation":[]},{"distance":353.337,"relativeDirection":"RIGHT","streetName":"Boulevard Talbot","absoluteDirection":"NORTHEAST","stayOn":false,"area":false,"bogusName":false,"lon":-71.05729810000001,"lat":48.4058038,"elevation":[]}]}],"tooSloped":false}]},"debugOutput":{"precalculationTime":34,"pathCalculationTime":19,"pathTimes":[12,3,4],"renderingTime":0,"totalTime":53,"timedOut":false},"elevationMetadata":{"ellipsoidToGeoidDifference":-28.885904201182168,"geoidElevation":false}}