{"requestParameters":{"date":"2018/04/02","walkSpeed":"1.33","walkReluctance":"2.0","fromPlace":"48.411103,-71.05284299","maxWalkDistance":"3000","waitReluctance":"1.0","carSpeed":"33","numItineraries":"3","waitAtBeginningFactor":"0.4","mode":"TRANSIT,WALK","ignoreRealtimeUpdates":"false","stairsReluctance":"2.0","toPlace":"48.325054,-71.136755","time":"12:30:00"},"plan":{"date":1522686600000,"from":{"name":"Origin","lon":-71.05284299,"lat":48.411103,"orig":"","vertexType":"NORMAL"},"to":{"name":"Destination","lon":-71.136755,"lat":48.325054,"orig":"","vertexType":"NORMAL"},"itineraries":[{"duration":4107,"startTime":1522695280000,"endTime":1522699387000,"walkTime":893,"transitTime":1532,"waitingTime":1682,"walkDistance":1164.1415338309232,"walkLimitExceeded":false,"elevationLost":0.0,"elevationGained":0.0,"transfers":1,"legs":[{"startTime":1522695280000,"endTime":1522695482000,"departureDelay":0,"arrivalDelay":0,"realTime":false,"distance":262.082,"pathway":false,"mode":"WALK","route":"","agencyTimeZoneOffset":-14400000,"interlineWithPreviousLeg":false,"from":{"name":"Origin","lon":-71.05284299,"lat":48.411103,"departure":1522695280000,"orig":"","vertexType":"NORMAL"},"to":{"name":"boul. Université / Murdock","stopId":"1:80","stopCode":"80","lon":-71.050111,"lat":48.411498,"arrival":1522695482000,"departure":1522695483000,"zoneId":"NA","stopIndex":14,"stopSequence":15,"vertexType":"TRANSIT"},"legGeometry":{"points":"ggnfHxltpLwDwDo@s@Na@|AmE","length":5},"rentedBike":false,"transitLeg":false,"duration":202.0,"steps":[{"distance":155.127,"relativeDirection":"DEPART","streetName":"Boulevard Talbot","absoluteDirection":"NORTHEAST","stayOn":false,"area":false,"bogusName":false,"lon":-71.05244879271228,"lat":48.41092802695448,"elevation":[]},{"distance":106.955,"relativeDirection":"RIGHT","streetName":"Boulevard de l'Université","absoluteDirection":"SOUTHEAST","stayOn":false,"area":false,"bogusName":false,"lon":-71.051266,"lat":48.412081,"elevation":[]}]},{"startTime":1522695483000,"endTime":1522696320000,"departureDelay":0,"arrivalDelay":0,"realTime":false,"distance":4824.216177226569,"pathway":false,"mode":"BUS","route":"175","agencyName":"Société de Transport du Saguenay","agencyUrl":"http://ville.saguenay.ca/fr/services-aux-citoyens/transport-sts","agencyTimeZoneOffset":-14400000,"routeColor":"FF00FF","routeType":3,"routeId":"1:175","routeTextColor":"FFFFFF","interlineWithPreviousLeg":false,"tripBlockId":"7","headsign":"Costco","agencyId":"0","tripId":"1:217337","serviceDate":"20180402","from":{"name":"boul. Université / Murdock","stopId":"1:80","stopCode":"80","lon":-71.050111,"lat":48.411498,"arrival":1522695482000,"departure":1522695483000,"zoneId":"NA","stopIndex":14,"stopSequence":15,"vertexType":"TRANSIT"},"to":{"name":"COSTCO","stopId":"1:1710","stopCode":"1710","lon":-71.085767,"lat":48.382333,"arrival":1522696320000,"departure":1522698000000,"zoneId":"NA","stopIndex":30,"stopSequence":31,"vertexType":"TRANSIT"},"legGeometry":{"points":"aknfH~}spLr@sBhCsKz@dAjB|@dM`GzCvAXrCr@~Gx@]PEr@ObACn@FrBb@|@Ch@Kx@U~HsB^KZ|DJpII~Fa@rFUzBi@bDUxAm@nCcAlDM^RTfD`DjF`FjCrCrAvAbCfDjIfMdAzAfFpHd@n@nC`DlXv[b@f@mCtHv@v@p@r@_@p@uAcBjDoJhAzApBrBrFvGjDdEbD|DZb@~DrEbDfDrA~ApLbNpG|GyCtHwBcC","length":62},"routeShortName":"175","routeLongName":"Term. Chic / Costco","rentedBike":false,"transitLeg":true,"duration":837.0,"steps":[]},{"startTime":1522698000000,"endTime":1522698695000,"departureDelay":0,"arrivalDelay":0,"realTime":false,"distance":11639.021774451778,"pathway":false,"mode":"BUS","route":"60","agencyName":"Société de Transport du Saguenay","agencyUrl":"http://ville.saguenay.ca/fr/services-aux-citoyens/transport-sts","agencyTimeZoneOffset":-14400000,"routeColor":"00FFFF","routeType":3,"routeId":"1:60","routeTextColor":"000000","interlineWithPreviousLeg":false,"tripBlockId":"95","headsign":"chemin Portageurs","agencyId":"0","tripId":"1:218716","serviceDate":"20180402","from":{"name":"COSTCO","stopId":"1:1710","stopCode":"1710","lon":-71.085767,"lat":48.382333,"arrival":1522696320000,"departure":1522698000000,"zoneId":"NA","stopIndex":0,"stopSequence":1,"vertexType":"TRANSIT"},"to":{"name":"ch. Portage Roches N / Caravanes","stopId":"1:2165","stopCode":"2165","lon":-71.138438,"lat":48.318142,"arrival":1522698695000,"departure":1522698696000,"zoneId":"NA","stopIndex":9,"stopSequence":10,"vertexType":"TRANSIT"},"legGeometry":{"points":"uthfHh}zpLoB}Bs@`BjChDZbB`@x@iDvI}@fC_AvC[jAi@`CUbBUxBUdCIlD]to@K`IEt@ElBQlEMrBWvDa@jEq@nFa@rC_AnFi@bCo@pCiAbEyCdJNZPTfApA~DjFxFfFzAdBbA`BlA|Bt@z@z@x@zAhAbBjAfKlGz@~@vApBbApAbDdDdExDLJpIjIvAzBlBdDbAbBfAtAt@|@|@~@tHhHhBlCrCfFx@fAT^bA`AjC~BdI~JpGjHt@bA`AdAvb@xf@`EvEjFjFxAtAd@j@l@z@xC`Fn@v@NNNJ^Xj@Xv@Zz@ZND`@Lx@Rp@LXDrDH|@?p@?VCN?D?VK`@ONIZUVS^]Zc@t@wATs@P}@F_@Jm@JcA@QPsA\\uBXuAdAqDLe@H]zAuHd@kBzAuFXy@NYXg@f@g@|@{@dAy@vC{Br@m@RQRWVa@b@_AdC}Gn@aBl@{Aj@oATe@b@i@\\Y\\Qd@QvDy@r@Ud@Up@i@Z[X]^i@LUL_@^gAxGgUVaAPq@PaAL{@Fq@@eACoBKwFAiCD_AFe@V_AbVqq@Pw@bl@bm@~A|AtE|DnEnDjDdCf`@vVbCdBnAfAjClCsA|DuGjR\\\\v@z@`DxC","length":175},"routeShortName":"60","routeLongName":"Portage des Roches Nord","rentedBike":false,"transitLeg":true,"duration":695.0,"steps":[]},{"startTime":1522698696000,"endTime":1522699387000,"departureDelay":0,"arrivalDelay":0,"realTime":false,"distance":901.946,"pathway":false,"mode":"WALK","route":"","agencyTimeZoneOffset":-14400000,"interlineWithPreviousLeg":false,"from":{"name":"ch. Portage Roches N / Caravanes","stopId":"1:2165","stopCode":"2165","lon":-71.138438,"lat":48.318142,"arrival":1522698695000,"departure":1522698696000,"zoneId":"NA","stopIndex":9,"stopSequence":10,"vertexType":"TRANSIT"},"to":{"name":"Destination","lon":-71.136755,"lat":48.325054,"arrival":1522699387000,"orig":"","vertexType":"NORMAL"},"legGeometry":{"points":"ec|eH|eeqLsAqAiDeDoFuFkNwAiF]IA@xDoBPs@D","length":10},"rentedBike":false,"transitLeg":false,"duration":691.0,"steps":[{"distance":167.936,"relativeDirection":"DEPART","streetName":"Chemin du Portage-des-Roches Nord","absoluteDirection":"NORTHEAST","stayOn":false,"area":false,"bogusName":false,"lon":-71.1383844897798,"lat":48.31811893678663,"elevation":[]},{"distance":573.112,"relativeDirection":"CONTINUE","streetName":"Rang Saint-Pierre","absoluteDirection":"NORTHEAST","stayOn":false,"area":false,"bogusName":false,"lon":-71.1371469,"lat":48.3193853,"elevation":[]},{"distance":68.863,"relativeDirection":"LEFT","streetName":"Rue Tremblay","absoluteDirection":"WEST","stayOn":false,"area":false,"bogusName":false,"lon":-71.1353158,"lat":48.3242648,"elevation":[]},{"distance":92.035,"relativeDirection":"RIGHT","streetName":"Rue Daniel","absoluteDirection":"NORTH","stayOn":false,"area":false,"bogusName":false,"lon":-71.136247,"lat":48.324251700000005,"elevation":[]}]}],"tooSloped":false},{"duration":3960,"startTime":1522696353000,"endTime":1522700313000,"walkTime":1908,"transitTime":2050,"waitingTime":2,"walkDistance":2502.3931278162854,"walkLimitExceeded":false,"elevationLost":0.0,"elevationGained":0.0,"transfers":0,"legs":[{"startTime":1522696353000,"endTime":1522697235000,"departureDelay":0,"arrivalDelay":0,"realTime":false,"distance":1163.2310000000002,"pathway":false,"mode":"WALK","route":"","agencyTimeZoneOffset":-14400000,"interlineWithPreviousLeg":false,"from":{"name":"Origin","lon":-71.05284299,"lat":48.411103,"departure":1522696353000,"orig":"","vertexType":"NORMAL"},"to":{"name":"boul. Talbot (no. 1494) (Tim-Horton)","stopId":"1:1854","stopCode":"1854","lon":-71.060941,"lat":48.402118,"arrival":1522697235000,"departure":1522697236000,"zoneId":"NA","stopIndex":2,"stopSequence":3,"vertexType":"TRANSIT"},"legGeometry":{"points":"ggnfHxltpLtAvAlAhANNhD`DdE`ENNjEzD`A~@pD|CJHtAlAtEjEjF~EPPVTfDbD","length":17},"rentedBike":false,"transitLeg":false,"duration":882.0,"steps":[{"distance":1163.2310000000002,"relativeDirection":"DEPART","streetName":"Boulevard Talbot","absoluteDirection":"SOUTHWEST","stayOn":false,"area":false,"bogusName":false,"lon":-71.05244879271228,"lat":48.41092802695448,"elevation":[]}]},{"startTime":1522697236000,"endTime":1522697700000,"departureDelay":0,"arrivalDelay":0,"realTime":false,"distance":2880.056948678177,"pathway":false,"mode":"BUS","route":"208S","agencyName":"Société de Transport du Saguenay","agencyUrl":"http://ville.saguenay.ca/fr/services-aux-citoyens/transport-sts","agencyTimeZoneOffset":-14400000,"routeColor":"8B0000","routeType":3,"routeId":"1:208S","routeTextColor":"FFFFFF","interlineWithPreviousLeg":false,"tripBlockId":"107","headsign":"Costco","agencyId":"0","tripId":"1:218820","serviceDate":"20180402","from":{"name":"boul. Talbot (no. 1494) (Tim-Horton)","stopId":"1:1854","stopCode":"1854","lon":-71.060941,"lat":48.402118,"arrival":1522697235000,"departure":1522697236000,"zoneId":"NA","stopIndex":2,"stopSequence":3,"vertexType":"TRANSIT"},"to":{"name":"COSTCO","stopId":"1:1710","stopCode":"1710","lon":-71.085767,"lat":48.382333,"arrival":1522697700000,"departure":1522698000000,"zoneId":"NA","stopIndex":10,"stopSequence":11,"vertexType":"TRANSIT"},"legGeometry":{"points":"_plfHjavpLjF`FjCrCrAvAbCfDjIfMdAzAfFpHd@n@nC`DlXv[j@n@dEfErFvGjDdEbD|DZb@~DrEbDfDrA~AhD~DfGbHpG|GyCtHwBcC","length":25},"routeShortName":"208S","routeLongName":"Séminaire - Laterrière","rentedBike":false,"transitLeg":true,"duration":464.0,"steps":[]},{"startTime":1522698000000,"endTime":1522699286000,"departureDelay":0,"arrivalDelay":0,"realTime":false,"distance":15975.577016052177,"pathway":false,"mode":"BUS","route":"62","agencyName":"Société de Transport du Saguenay","agencyUrl":"http://ville.saguenay.ca/fr/services-aux-citoyens/transport-sts","agencyTimeZoneOffset":-14400000,"routeColor":"00FFFF","routeType":3,"routeId":"1:62","routeTextColor":"000000","interlineWithPreviousLeg":true,"tripBlockId":"107","headsign":"Barrage Port. Roches","agencyId":"0","tripId":"1:218821","serviceDate":"20180402","from":{"name":"COSTCO","stopId":"1:1710","stopCode":"1710","lon":-71.085767,"lat":48.382333,"arrival":1522697700000,"departure":1522698000000,"zoneId":"NA","stopIndex":0,"stopSequence":1,"vertexType":"TRANSIT"},"to":{"name":"Boulevard (no. 1557)","stopId":"1:1727","stopCode":"1727","lon":-71.130354,"lat":48.316355,"arrival":1522699286000,"departure":1522699287000,"zoneId":"NA","stopIndex":21,"stopSequence":22,"vertexType":"TRANSIT"},"legGeometry":{"points":"uthfHh}zpLoB}Bs@`BjChDZbB`@x@PNlFwMHWbFmMBc@~d@skANe@Jk@H_AD_ABuADs@Hk@Lc@N_@X_@ZYbAq@pA]hDuA~UqLAEjJ_EjRiIrJeEdCmAbAs@rAkAbCyC|@cB|@sBpEkN|cA}`D~@wCz@~@~GjH|^d`@fNxNng@di@dJrJ`aAtcA`@d@RZJVNn@Dr@nAp_@HzAHx@ZxAlDzN|DlPjIn]P~@JbB@b@?b@IdAiA|KObAU`A_HfTCDt_AzaA^h@BFDTBV?VATADwBlGCPCl@Jt@pBnG^pBFd@DlAEdCGhCElAg@pG?nAF~@PnAVxAp@lF^`B^dAxAnC@@pAzAr@lAPp@Lj@Dh@HjB@fAWzFA~BQAOAQGWMk@k@QSM[M_@IY_@_AQWSO_DcBUEYLa@VWLYPyGrNeC`GoAzBw@t@kCvBkBvAg@`@[\\g@t@i@bACF}AlEkHvSwIrVgDpJ_KjY","length":141},"routeShortName":"62","routeLongName":"Portage des Roches Sud","rentedBike":false,"transitLeg":true,"duration":1286.0,"steps":[]},{"startTime":1522699287000,"endTime":1522700313000,"departureDelay":0,"arrivalDelay":0,"realTime":false,"distance":1339.0610000000001,"pathway":false,"mode":"WALK","route":"","agencyTimeZoneOffset":-14400000,"interlineWithPreviousLeg":false,"from":{"name":"Boulevard (no. 1557)","stopId":"1:1727","stopCode":"1727","lon":-71.130354,"lat":48.316355,"arrival":1522699286000,"departure":1522699287000,"zoneId":"NA","stopIndex":21,"stopSequence":22,"vertexType":"TRANSIT"},"to":{"name":"Destination","lon":-71.136755,"lat":48.325054,"arrival":1522700313000,"orig":"","vertexType":"NORMAL"},"legGeometry":{"points":"yw{eHbtcqL?@aDfJ}@bC]p@qAtDmAlD_BpEkBjFoFuFkNwAiF]IA@xDoBPs@D","length":16},"rentedBike":false,"transitLeg":false,"duration":1026.0,"steps":[{"distance":605.051,"relativeDirection":"DEPART","streetName":"Rue du Boulevard","absoluteDirection":"NORTHWEST","stayOn":false,"area":false,"bogusName":false,"lon":-71.13041854024458,"lat":48.31629135907617,"elevation":[]},{"distance":573.112,"relativeDirection":"RIGHT","streetName":"Rang Saint-Pierre","absoluteDirection":"NORTHEAST","stayOn":false,"area":false,"bogusName":false,"lon":-71.1371469,"lat":48.3193853,"elevation":[]},{"distance":68.863,"relativeDirection":"LEFT","streetName":"Rue Tremblay","absoluteDirection":"WEST","stayOn":false,"area":false,"bogusName":false,"lon":-71.1353158,"lat":48.3242648,"elevation":[]},{"distance":92.035,"relativeDirection":"RIGHT","streetName":"Rue Daniel","absoluteDirection":"NORTH","stayOn":false,"area":false,"bogusName":false,"lon":-71.136247,"lat":48.324251700000005,"elevation":[]}]}],"tooSloped":false},{"duration":5176,"startTime":1522703757000,"endTime":1522708933000,"walkTime":337,"transitTime":4837,"waitingTime":2,"walkDistance":428.93338345531083,"walkLimitExceeded":false,"elevationLost":0.0,"elevationGained":0.0,"transfers":0,"legs":[{"startTime":1522703757000,"endTime":1522703959000,"departureDelay":0,"arrivalDelay":0,"realTime":false,"distance":262.082,"pathway":false,"mode":"WALK","route":"","agencyTimeZoneOffset":-14400000,"interlineWithPreviousLeg":false,"from":{"name":"Origin","lon":-71.05284299,"lat":48.411103,"departure":1522703757000,"orig":"","vertexType":"NORMAL"},"to":{"name":"boul. Université / Murdock","stopId":"1:80","stopCode":"80","lon":-71.050111,"lat":48.411498,"arrival":1522703959000,"departure":1522703960000,"zoneId":"NA","stopIndex":11,"stopSequence":12,"vertexType":"TRANSIT"},"legGeometry":{"points":"ggnfHxltpLwDwDo@s@Na@|AmE","length":5},"rentedBike":false,"transitLeg":false,"duration":202.0,"steps":[{"distance":155.127,"relativeDirection":"DEPART","streetName":"Boulevard Talbot","absoluteDirection":"NORTHEAST","stayOn":false,"area":false,"bogusName":false,"lon":-71.05244879271228,"lat":48.41092802695448,"elevation":[]},{"distance":106.955,"relativeDirection":"RIGHT","streetName":"Boulevard de l'Université","absoluteDirection":"SOUTHEAST","stayOn":false,"area":false,"bogusName":false,"lon":-71.051266,"lat":48.412081,"elevation":[]}]},{"startTime":1522703960000,"endTime":1522706700000,"departureDelay":0,"arrivalDelay":0,"realTime":false,"distance":33254.18259501158,"pathway":false,"mode":"BUS","route":"21S","agencyName":"Société de Transport du Saguenay","agencyUrl":"http://ville.saguenay.ca/fr/services-aux-citoyens/transport-sts","agencyTimeZoneOffset":-14400000,"routeColor":"8B0000","routeType":3,"routeId":"1:21S","routeTextColor":"FFFFFF","interlineWithPreviousLeg":false,"tripBlockId":"53","headsign":"Costco","agencyId":"0","tripId":"1:218475","serviceDate":"20180402","from":{"name":"boul. Université / Murdock","stopId":"1:80","stopCode":"80","lon":-71.050111,"lat":48.411498,"arrival":1522703959000,"departure":1522703960000,"zoneId":"NA","stopIndex":11,"stopSequence":12,"vertexType":"TRANSIT"},"to":{"name":"COSTCO","stopId":"1:1710","stopCode":"1710","lon":-71.085767,"lat":48.382333,"arrival":1522706700000,"departure":1522707000000,"zoneId":"NA","stopIndex":76,"stopSequence":77,"vertexType":"TRANSIT"},"legGeometry":{"points":"cknfH|}spLbB}Eh@sBh@qCPcANoAPqBFyAFsA@q@CeBKkDc@cIsF_{@QqBe@cHc@aEeC_Oa@iDk@iIKWvAo@^WXQdDeD|IqJp@u@l@_Ah@{@f@{@FMn@uAt@iBpAgDpQoe@nKwXlGoPlA_DjAsD~@aENy@jCeO\\{ANi@l@cBt@aBr@kAdAuAlEsFtAwBHM`B}CdAmCvEgMrEaMhCeHhJ}VjH{RpBqFzJcXfAwCfAmCfCqGzHeSjJeVhOe`@xI}TvNc_@`ImS`JqU~HkS~Mo]|JiWdKwWpNy^zJcWfPcb@d@{AxBgHnCoJtEgPJ[jA{DpAyDl@uA?AnAcCnQsYxKqQfAoBx@_B`LsWtEsKzLcYzDaJ\\m@^g@b@_@d@[xDyAbFiBvBw@tAc@nDoAiAcJK_Ag@eCEIEKv@CD@FBBBLf@Jh@?FF~@?JABADA@IF[ZhAbJoDnAuAb@l@fFpC|UH`@^dBv@fEn@rDBLXtBd@fEDVlAtL\\`Ft@dLb@zIz@`Rd@~J@XFz@ZrDvBfP|AjLtDbWXxANbAFdBtEl]L`ANdBJrCBhB?lBElBGhAIjAMrAS~AaBfKOvAOvAEpA?\\Ah@?r@@l@Dp@Dv@Ft@RnAP~@Tz@vKb^f@bBz@~CZrAl@xCXdBPz@j@~E|AvObBfQh@fGTbEJfEChE?^KvGIpBSfDIvAg@zFq@dGi@rCc@`B_@lAu@~Ba@fA_@~@eW`l@aPz^wB|E}A|Eg@rCe@jDk@~IcAtSS|CSbCIx@UvB]bCm@rDoAxFi@rByBpGSl@uRvh@eD`JUt@Qr@YjBIbAG|@E~@CpA?xADvArA`Q`BnThCz\\V|HCBCBCDADCBAFAD?DAF?F?D?F?D@D?F@D@DBD@D@BBDBBB@BBB@B@D@B?B@z@lHjAzOH`BB`CEnBQzBa@jCc@~AcXbs@{@lCmcAv_DeFzO}@rB}@bBcCxCsAjAcAr@eClAqJbEoF~BsJdEuJdEAC{TpJmHjCiEhAHz@d@pGE~@I`AKh@Od@_e@rkAUReFdMIXyCtHuBaC","length":303},"routeShortName":"21S","routeLongName":"Term. Chic -> Cégep / UQAC -> Costco","rentedBike":false,"transitLeg":true,"duration":2740.0,"steps":[]},{"startTime":1522707000000,"endTime":1522708140000,"departureDelay":0,"arrivalDelay":0,"realTime":false,"distance":16977.80039447218,"pathway":false,"mode":"BUS","route":"60","agencyName":"Société de Transport du Saguenay","agencyUrl":"http://ville.saguenay.ca/fr/services-aux-citoyens/transport-sts","agencyTimeZoneOffset":-14400000,"routeColor":"00FFFF","routeType":3,"routeId":"1:60","routeTextColor":"000000","interlineWithPreviousLeg":true,"tripBlockId":"53","headsign":"Camping Rocaille","agencyId":"0","tripId":"1:218476","serviceDate":"20180402","from":{"name":"COSTCO","stopId":"1:1710","stopCode":"1710","lon":-71.085767,"lat":48.382333,"arrival":1522706700000,"departure":1522707000000,"zoneId":"NA","stopIndex":0,"stopSequence":1,"vertexType":"TRANSIT"},"to":{"name":"Camping La Rocaille (ch. Portage Roches N)","stopId":"1:1771","stopCode":"1771","lon":-71.201087,"lat":48.308942,"arrival":1522708140000,"departure":1522708140000,"zoneId":"NA","stopIndex":20,"stopSequence":21,"vertexType":"TRANSIT"},"legGeometry":{"points":"uthfHh}zpLoB}Bs@`BjChDZbB`@x@iDvI}@fC_AvC[jAi@`CUbBUxBUdCIlD]to@K`IEt@ElBQlEMrBWvDa@jEq@nFa@rC_AnFi@bCo@pCiAbEyCdJNZPTfApA~DjFxFfFzAdBbA`BlA|Bt@z@z@x@zAhAbBjAfKlGz@~@vApBbApAbDdDdExDLJpIjIvAzBlBdDbAbBfAtAt@|@|@~@tHhHhBlCrCfFx@fAT^bA`AjC~BdI~JpGjHt@bA`AdAvb@xf@`EvEjFjFxAtAd@j@l@z@xC`Fn@v@NNNJ^Xj@Xv@Zz@ZND`@Lx@Rp@LXDrDH|@?p@?VCN?D?VK`@ONIZUVS^]Zc@t@wATs@P}@F_@Jm@JcA@QPsA\\uBXuAdAqDLe@H]zAuHd@kBzAuFXy@NYXg@f@g@|@{@dAy@vC{Br@m@RQRWVa@b@_AdC}Gn@aBl@{Aj@oATe@b@i@\\Y\\Qd@QvDy@r@Ud@Up@i@Z[X]^i@LUL_@^gAxGgUVaAPq@PaAL{@Fq@@eACoBKwFAiCD_AFe@V_AbVqq@Pw@bl@bm@~A|AtE|DnEnDjDdCf`@vVbCdBnAfAjClCsA|DuGjR\\\\v@z@`DxCnAjA|@|@|@l@nFhCjBjA`CfBfB`BzBfDnBvCn@lAl@pAVbAlAxGHb@^|Bh@jERtBBVJjALzB?~EAnFE`J@R@fCDn@LbAp@hCt@nBVf@r@~@j@v@l@tA`@dAp@nAHLh@t@b@r@ZvA\\lCF~@@dAMtDFdBHz@zArJl@vDNr@Rr@DH`@`At@jAh@d@hBfB`@n@n@fBn@tD\\bELz@ZjAjC~Fv@zBf@|BXt@dBpCHN^z@N~@A|@UtB?~BHlARrAJvALdEJzDKhFWtC}AdPuCl^u@vHc@`C]jB_BvJe@|Bo@rBYr@Sf@kFpP]|Ao@lDAH[|A]`AoAfCg@dB","length":271},"routeShortName":"60","routeLongName":"Portage des Roches Nord","rentedBike":false,"transitLeg":true,"duration":1140.0,"steps":[]},{"startTime":1522708140000,"endTime":1522708797000,"departureDelay":0,"arrivalDelay":0,"realTime":false,"distance":6073.097645746458,"pathway":false,"mode":"BUS","route":"60","agencyName":"Société de Transport du Saguenay","agencyUrl":"http://ville.saguenay.ca/fr/services-aux-citoyens/transport-sts","agencyTimeZoneOffset":-14400000,"routeColor":"00FFFF","routeType":3,"routeId":"1:60","routeTextColor":"000000","interlineWithPreviousLeg":true,"tripBlockId":"53","headsign":"Costco","agencyId":"0","tripId":"1:218477","serviceDate":"20180402","from":{"name":"Camping La Rocaille (ch. Portage Roches N)","stopId":"1:2157","stopCode":"2157","lon":-71.201179,"lat":48.308852,"arrival":1522708140000,"departure":1522708140000,"zoneId":"NA","stopIndex":0,"stopSequence":1,"vertexType":"TRANSIT"},"to":{"name":"Ch.St-Pierre/Tremblay","stopId":"1:464","stopCode":"464","lon":-71.135282,"lat":48.32421,"arrival":1522708797000,"departure":1522708798000,"zoneId":"NA","stopIndex":12,"stopSequence":13,"vertexType":"TRANSIT"},"legGeometry":{"points":"sizeHbnqqLh@gBnAgC\\aAZ}A@In@mD\\}AjFqPTk@Vo@n@sBd@}B~AwJ\\kBb@aCt@wHtCm^|AePVuCJiFK{DMeEKwASsAImA?_CTuB@}@O_Aa@_AGKeBqCYu@g@}Bw@{BkC_G[kAM{@]cEo@uDo@gBa@o@iBgBi@e@u@kAa@aACGUu@Os@m@wD{AsJI{@GeBLuDAeAG_A]mC[wAc@s@g@s@KOq@oAa@eAm@uAk@w@s@_AWg@u@oBq@iCMcAEo@AiCAQDaJ@oF?_FM{BKoACSSuBi@kE_@_CIa@mAyGWcAm@qAo@mAmBuC}BiDgBaBaCgBkBkAoFiC}@m@}@}@mAiAcD{Cw@{@]]i@i@w@gA_@e@e@UmAc@sHmAaIiA_BA","length":108},"routeShortName":"60","routeLongName":"Portage des Roches Nord","rentedBike":false,"transitLeg":true,"duration":657.0,"steps":[]},{"startTime":1522708798000,"endTime":1522708933000,"departureDelay":0,"arrivalDelay":0,"realTime":false,"distance":166.748,"pathway":false,"mode":"WALK","route":"","agencyTimeZoneOffset":-14400000,"interlineWithPreviousLeg":false,"from":{"name":"Ch.St-Pierre/Tremblay","stopId":"1:464","stopCode":"464","lon":-71.135282,"lat":48.32421,"arrival":1522708797000,"departure":1522708798000,"zoneId":"NA","stopIndex":12,"stopSequence":13,"vertexType":"TRANSIT"},"to":{"name":"Destination","lon":-71.136755,"lat":48.325054,"arrival":1522708933000,"orig":"","vertexType":"NORMAL"},"legGeometry":{"points":"ii}eHxrdqLIA@xDoBPs@D","length":5},"rentedBike":false,"transitLeg":false,"duration":135.0,"steps":[{"distance":5.85,"relativeDirection":"DEPART","streetName":"Rang Saint-Pierre","absoluteDirection":"NORTH","stayOn":false,"area":false,"bogusName":false,"lon":-71.13532273828515,"lat":48.32421238409645,"elevation":[]},{"distance":68.863,"relativeDirection":"LEFT","streetName":"Rue Tremblay","absoluteDirection":"WEST","stayOn":false,"area":false,"bogusName":false,"lon":-71.1353158,"lat":48.3242648,"elevation":[]},{"distance":92.035,"relativeDirection":"RIGHT","streetName":"Rue Daniel","absoluteDirection":"NORTH","stayOn":false,"area":false,"bogusName":false,"lon":-71.136247,"lat":48.324251700000005,"elevation":[]}]}],"tooSloped":false}]},"debugOutput":{"precalculationTime":25,"pathCalculationTime":110,"pathTimes":[45,32,33],"renderingTime":1,"totalTime":136,"timedOut":false},"elevationMetadata":{"ellipsoidToGeoidDifference":-28.885904201182168,"geoidElevation":false}}