{"requestParameters":{"date":"2018/04/02","walkSpeed":"1.33","walkReluctance":"2.0","fromPlace":"48.315626,-71.140175","maxWalkDistance":"3000","waitReluctance":"1.0","carSpeed":"33","numItineraries":"3","waitAtBeginningFactor":"0.4","mode":"TRANSIT,WALK","ignoreRealtimeUpdates":"false","stairsReluctance":"2.0","toPlace":"48.310695,-71.15586799","time":"17:45:00"},"plan":{"date":1522705500000,"from":{"name":"Origin","lon":-71.140175,"lat":48.315626,"orig":"","vertexType":"NORMAL"},"to":{"name":"Destination","lon":-71.15586799,"lat":48.310695,"orig":"","vertexType":"NORMAL"},"itineraries":[{"duration":1048,"startTime":1522705500000,"endTime":1522706548000,"walkTime":1048,"transitTime":0,"waitingTime":0,"walkDistance":1382.9650300747999,"walkLimitExceeded":false,"elevationLost":0.0,"elevationGained":0.0,"transfers":0,"legs":[{"startTime":1522705500000,"endTime":1522706548000,"departureDelay":0,"arrivalDelay":0,"realTime":false,"distance":1382.953,"pathway":false,"mode":"WALK","route":"","agencyTimeZoneOffset":-14400000,"interlineWithPreviousLeg":false,"from":{"name":"Origin","lon":-71.140175,"lat":48.315626,"departure":1522705500000,"orig":"","vertexType":"NORMAL"},"to":{"name":"Destination","lon":-71.15586799,"lat":48.310695,"arrival":1522706548000,"orig":"","vertexType":"NORMAL"},"legGeometry":{"points":"us{eHfqeqLtHrFrBnCFHhBdCxB`GfArH?@dBnL@`@?HXzHCxI??CvI?X?@??RtG~AfFLP","length":21},"rentedBike":false,"transitLeg":false,"duration":1048.0,"steps":[{"distance":1382.953,"relativeDirection":"DEPART","streetName":"Chemin du Portage-des-Roches Nord","absoluteDirection":"SOUTHWEST","stayOn":false,"area":false,"bogusName":false,"lon":-71.14019803659463,"lat":48.31563401080648,"elevation":[]}]}],"tooSloped":false},{"duration":468,"startTime":1522707510000,"endTime":1522707978000,"walkTime":394,"transitTime":72,"waitingTime":2,"walkDistance":516.6740902243994,"walkLimitExceeded":false,"elevationLost":0.0,"elevationGained":0.0,"transfers":0,"legs":[{"startTime":1522707510000,"endTime":1522707742000,"departureDelay":0,"arrivalDelay":0,"realTime":false,"distance":302.09900000000005,"pathway":false,"mode":"WALK","route":"","agencyTimeZoneOffset":-14400000,"interlineWithPreviousLeg":false,"from":{"name":"Origin","lon":-71.140175,"lat":48.315626,"departure":1522707510000,"orig":"","vertexType":"NORMAL"},"to":{"name":"ch. Portage Roches N / Gingras","stopId":"1:1768","stopCode":"1768","lon":-71.142305,"lat":48.313614,"arrival":1522707742000,"departure":1522707743000,"zoneId":"NA","stopIndex":10,"stopSequence":11,"vertexType":"TRANSIT"},"legGeometry":{"points":"us{eHfqeqLtHrFrBnCFHUb@","length":5},"rentedBike":false,"transitLeg":false,"duration":232.0,"steps":[{"distance":284.052,"relativeDirection":"DEPART","streetName":"Chemin du Portage-des-Roches Nord","absoluteDirection":"SOUTHWEST","stayOn":false,"area":false,"bogusName":false,"lon":-71.14019803659463,"lat":48.31563401080648,"elevation":[]},{"distance":18.047,"relativeDirection":"RIGHT","streetName":"Rue Gingras","absoluteDirection":"NORTHWEST","stayOn":false,"area":false,"bogusName":false,"lon":-71.1421871,"lat":48.3134625,"elevation":[]}]},{"startTime":1522707743000,"endTime":1522707815000,"departureDelay":0,"arrivalDelay":0,"realTime":false,"distance":874.5838690429438,"pathway":false,"mode":"BUS","route":"60","agencyName":"Société de Transport du Saguenay","agencyUrl":"http://ville.saguenay.ca/fr/services-aux-citoyens/transport-sts","agencyTimeZoneOffset":-14400000,"routeColor":"00FFFF","routeType":3,"routeId":"1:60","routeTextColor":"000000","interlineWithPreviousLeg":false,"tripBlockId":"53","headsign":"Camping Rocaille","agencyId":"0","tripId":"1:218476","serviceDate":"20180402","from":{"name":"ch. Portage Roches N / Gingras","stopId":"1:1768","stopCode":"1768","lon":-71.142305,"lat":48.313614,"arrival":1522707742000,"departure":1522707743000,"zoneId":"NA","stopIndex":10,"stopSequence":11,"vertexType":"TRANSIT"},"to":{"name":"ch. Portage Roches N / Kiwanis","stopId":"1:2163","stopCode":"2163","lon":-71.153262,"lat":48.311443,"arrival":1522707815000,"departure":1522707816000,"zoneId":"NA","stopIndex":14,"stopSequence":15,"vertexType":"TRANSIT"},"legGeometry":{"points":"wf{eHz}eqLnBvCn@lAl@pAVbAlAxGHb@^|Bh@jERtBBVJjALzB?~EAnFE`J@R","length":17},"routeShortName":"60","routeLongName":"Portage des Roches Nord","rentedBike":false,"transitLeg":true,"duration":72.0,"steps":[]},{"startTime":1522707816000,"endTime":1522707978000,"departureDelay":0,"arrivalDelay":0,"realTime":false,"distance":214.539,"pathway":false,"mode":"WALK","route":"","agencyTimeZoneOffset":-14400000,"interlineWithPreviousLeg":false,"from":{"name":"ch. Portage Roches N / Kiwanis","stopId":"1:2163","stopCode":"2163","lon":-71.153262,"lat":48.311443,"arrival":1522707815000,"departure":1522707816000,"zoneId":"NA","stopIndex":14,"stopSequence":15,"vertexType":"TRANSIT"},"to":{"name":"Destination","lon":-71.15586799,"lat":48.310695,"arrival":1522707978000,"orig":"","vertexType":"NORMAL"},"legGeometry":{"points":"}xzeHxbhqLRtG~AfFLP","length":4},"rentedBike":false,"transitLeg":false,"duration":162.0,"steps":[{"distance":214.539,"relativeDirection":"DEPART","streetName":"Chemin du Portage-des-Roches Nord","absoluteDirection":"WEST","stayOn":false,"area":false,"bogusName":false,"lon":-71.15324821917227,"lat":48.31135508344553,"elevation":[]}]}],"tooSloped":false}]},"debugOutput":{"precalculationTime":2,"pathCalculationTime":6,"pathTimes":[1,3,2],"renderingTime":1,"totalTime":9,"timedOut":false},"elevationMetadata":{"ellipsoidToGeoidDifference":-28.885904201182168,"geoidElevation":false}}