{"requestParameters":{"date":"2018/04/02","walkSpeed":"1.33","walkReluctance":"2.0","fromPlace":"48.311664,-71.14449","maxWalkDistance":"3000","waitReluctance":"1.0","carSpeed":"33","numItineraries":"3","waitAtBeginningFactor":"0.4","mode":"TRANSIT,WALK","ignoreRealtimeUpdates":"false","stairsReluctance":"2.0","toPlace":"48.306393,-71.111569","time":"8:30:00"},"plan":{"date":1522672200000,"from":{"name":"Origin","lon":-71.14449,"lat":48.311664,"orig":"","vertexType":"NORMAL"},"to":{"name":"Destination","lon":-71.111569,"lat":48.306393,"orig":"","vertexType":"NORMAL"},"itineraries":[{"duration":2683,"startTime":1522683332000,"endTime":1522686015000,"walkTime":2675,"transitTime":6,"waitingTime":2,"walkDistance":3517.3959097723737,"walkLimitExceeded":false,"elevationLost":0.0,"elevationGained":0.0,"transfers":0,"legs":[{"startTime":1522683332000,"endTime":1522685608000,"departureDelay":0,"arrivalDelay":0,"realTime":false,"distance":2992.3119999999994,"pathway":false,"mode":"WALK","route":"","agencyTimeZoneOffset":-14400000,"interlineWithPreviousLeg":false,"from":{"name":"Origin","lon":-71.14449,"lat":48.311664,"departure":1522683332000,"orig":"","vertexType":"NORMAL"},"to":{"name":"Boulevard (no. 1017)","stopId":"1:1723","stopCode":"1723","lon":-71.115166,"lat":48.309087,"arrival":1522685608000,"departure":1522685609000,"zoneId":"NA","stopIndex":15,"stopSequence":16,"vertexType":"TRANSIT"},"legGeometry":{"points":"c~zeHxmfqL[{ByBaGiBeCGIsBoCiLmIyEyByAoAeAcAAAsAqAiDeDjBkF~AqElAmDpAuD\\q@|@cC`DgJ?A|JoY?CbDiJ@CzEmNpBuFFQlHuSf@yA@AXq@`@q@zAiCj@s@PM","length":36},"rentedBike":false,"transitLeg":false,"duration":2276.0,"steps":[{"distance":1002.4770000000001,"relativeDirection":"DEPART","streetName":"Chemin du Portage-des-Roches Nord","absoluteDirection":"EAST","stayOn":false,"area":false,"bogusName":false,"lon":-71.14476349364355,"lat":48.31218138457687,"elevation":[]},{"distance":1989.835,"relativeDirection":"RIGHT","streetName":"Rue du Boulevard","absoluteDirection":"SOUTHEAST","stayOn":false,"area":false,"bogusName":false,"lon":-71.1371469,"lat":48.3193853,"elevation":[]}]},{"startTime":1522685609000,"endTime":1522685615000,"departureDelay":0,"arrivalDelay":0,"realTime":false,"distance":116.2132659900447,"pathway":false,"mode":"BUS","route":"62","agencyName":"Société de Transport du Saguenay","agencyUrl":"http://ville.saguenay.ca/fr/services-aux-citoyens/transport-sts","agencyTimeZoneOffset":-14400000,"routeColor":"00FFFF","routeType":3,"routeId":"1:62","routeTextColor":"000000","interlineWithPreviousLeg":false,"tripBlockId":"73","headsign":"Costco","agencyId":"0","tripId":"1:218619","serviceDate":"20180402","from":{"name":"Boulevard (no. 1017)","stopId":"1:1723","stopCode":"1723","lon":-71.115166,"lat":48.309087,"arrival":1522685608000,"departure":1522685609000,"zoneId":"NA","stopIndex":15,"stopSequence":16,"vertexType":"TRANSIT"},"to":{"name":"Boulevard (no. 1063)","stopId":"1:1724","stopCode":"1724","lon":-71.116159,"lat":48.309897,"arrival":1522685615000,"departure":1522685616000,"zoneId":"NA","stopIndex":16,"stopSequence":17,"vertexType":"TRANSIT"},"legGeometry":{"points":"qjzeHlu`qLg@`@[\\g@t@i@bACF","length":6},"routeShortName":"62","routeLongName":"Portage des Roches Sud","rentedBike":false,"transitLeg":true,"duration":6.0,"steps":[]},{"startTime":1522685616000,"endTime":1522686015000,"departureDelay":0,"arrivalDelay":0,"realTime":false,"distance":525.02,"pathway":false,"mode":"WALK","route":"","agencyTimeZoneOffset":-14400000,"interlineWithPreviousLeg":false,"from":{"name":"Boulevard (no. 1063)","stopId":"1:1724","stopCode":"1724","lon":-71.116159,"lat":48.309897,"arrival":1522685615000,"departure":1522685616000,"zoneId":"NA","stopIndex":16,"stopSequence":17,"vertexType":"TRANSIT"},"to":{"name":"Destination","lon":-71.111569,"lat":48.306393,"arrival":1522686015000,"orig":"","vertexType":"NORMAL"},"legGeometry":{"points":"kozeHt{`qLzAiCj@s@PMBCjGcFp@y@d@u@jAwC^w@h@qAj@iA","length":12},"rentedBike":false,"transitLeg":false,"duration":399.0,"steps":[{"distance":525.02,"relativeDirection":"DEPART","streetName":"Rue du Boulevard","absoluteDirection":"SOUTHEAST","stayOn":false,"area":false,"bogusName":false,"lon":-71.11626536838774,"lat":48.309826270495236,"elevation":[]}]}],"tooSloped":false},{"duration":1559,"startTime":1522686575000,"endTime":1522688134000,"walkTime":1378,"transitTime":179,"waitingTime":2,"walkDistance":1803.306097741486,"walkLimitExceeded":false,"elevationLost":0.0,"elevationGained":0.0,"transfers":0,"legs":[{"startTime":1522686575000,"endTime":1522687799000,"departureDelay":0,"arrivalDelay":0,"realTime":false,"distance":1607.0310000000002,"pathway":false,"mode":"WALK","route":"","agencyTimeZoneOffset":-14400000,"interlineWithPreviousLeg":false,"from":{"name":"Origin","lon":-71.14449,"lat":48.311664,"departure":1522686575000,"orig":"","vertexType":"NORMAL"},"to":{"name":"Boulevard (no. 1557)","stopId":"1:2127","stopCode":"2127","lon":-71.130498,"lat":48.316221,"arrival":1522687799000,"departure":1522687800000,"zoneId":"NA","stopIndex":7,"stopSequence":8,"vertexType":"TRANSIT"},"legGeometry":{"points":"c~zeHxmfqL[{ByBaGiBeCGIsBoCiLmIyEyByAoAeAcAAAsAqAiDeDjBkF~AqElAmDpAuD\\q@|@cC`DgJ","length":20},"rentedBike":false,"transitLeg":false,"duration":1224.0,"steps":[{"distance":1002.4770000000001,"relativeDirection":"DEPART","streetName":"Chemin du Portage-des-Roches Nord","absoluteDirection":"EAST","stayOn":false,"area":false,"bogusName":false,"lon":-71.14476349364355,"lat":48.31218138457687,"elevation":[]},{"distance":604.5540000000001,"relativeDirection":"RIGHT","streetName":"Rue du Boulevard","absoluteDirection":"SOUTHEAST","stayOn":false,"area":false,"bogusName":false,"lon":-71.1371469,"lat":48.3193853,"elevation":[]}]},{"startTime":1522687800000,"endTime":1522687979000,"departureDelay":0,"arrivalDelay":0,"realTime":false,"distance":1776.1606211812295,"pathway":false,"mode":"BUS","route":"60","agencyName":"Société de Transport du Saguenay","agencyUrl":"http://ville.saguenay.ca/fr/services-aux-citoyens/transport-sts","agencyTimeZoneOffset":-14400000,"routeColor":"00FFFF","routeType":3,"routeId":"1:60","routeTextColor":"000000","interlineWithPreviousLeg":false,"tripBlockId":"73","headsign":"Costco","agencyId":"0","tripId":"1:218620","serviceDate":"20180402","from":{"name":"Boulevard (no. 1557)","stopId":"1:2127","stopCode":"2127","lon":-71.130498,"lat":48.316221,"arrival":1522687799000,"departure":1522687800000,"zoneId":"NA","stopIndex":7,"stopSequence":8,"vertexType":"TRANSIT"},"to":{"name":"Notre-Dame / Gauthier","stopId":"1:1737","stopCode":"1737","lon":-71.110501,"lat":48.307493,"arrival":1522687979000,"departure":1522687980000,"zoneId":"NA","stopIndex":13,"stopSequence":14,"vertexType":"TRANSIT"},"legGeometry":{"points":"uw{eHhtcqL`KqYbDiJpIeV|IcWv@{Bh@cAf@u@Z]l@e@dBsAjCwBv@u@nA{BdCaGOOqAoBwA{B[i@","length":19},"routeShortName":"60","routeLongName":"Portage des Roches Nord","rentedBike":false,"transitLeg":true,"duration":179.0,"steps":[]},{"startTime":1522687980000,"endTime":1522688134000,"departureDelay":0,"arrivalDelay":0,"realTime":false,"distance":196.186,"pathway":false,"mode":"WALK","route":"","agencyTimeZoneOffset":-14400000,"interlineWithPreviousLeg":false,"from":{"name":"Notre-Dame / Gauthier","stopId":"1:1737","stopCode":"1737","lon":-71.110501,"lat":48.307493,"arrival":1522687979000,"departure":1522687980000,"zoneId":"NA","stopIndex":13,"stopSequence":14,"vertexType":"TRANSIT"},"to":{"name":"Destination","lon":-71.111569,"lat":48.306393,"arrival":1522688134000,"orig":"","vertexType":"NORMAL"},"legGeometry":{"points":"cazeHdx_qLFLNVvDbGj@iA","length":5},"rentedBike":false,"transitLeg":false,"duration":154.0,"steps":[{"distance":160.031,"relativeDirection":"DEPART","streetName":"Rue Notre-Dame","absoluteDirection":"SOUTHWEST","stayOn":false,"area":false,"bogusName":false,"lon":-71.11058814414332,"lat":48.30754888257977,"elevation":[]},{"distance":36.155,"relativeDirection":"LEFT","streetName":"Rue du Boulevard","absoluteDirection":"SOUTHEAST","stayOn":false,"area":false,"bogusName":false,"lon":-71.1120744,"lat":48.306503000000006,"elevation":[]}]}],"tooSloped":false},{"duration":1468,"startTime":1522698907000,"endTime":1522700375000,"walkTime":1378,"transitTime":88,"waitingTime":2,"walkDistance":1803.306097741486,"walkLimitExceeded":false,"elevationLost":0.0,"elevationGained":0.0,"transfers":0,"legs":[{"startTime":1522698907000,"endTime":1522700131000,"departureDelay":0,"arrivalDelay":0,"realTime":false,"distance":1607.0310000000002,"pathway":false,"mode":"WALK","route":"","agencyTimeZoneOffset":-14400000,"interlineWithPreviousLeg":false,"from":{"name":"Origin","lon":-71.14449,"lat":48.311664,"departure":1522698907000,"orig":"","vertexType":"NORMAL"},"to":{"name":"Boulevard (no. 1557)","stopId":"1:2127","stopCode":"2127","lon":-71.130498,"lat":48.316221,"arrival":1522700131000,"departure":1522700132000,"zoneId":"NA","stopIndex":8,"stopSequence":9,"vertexType":"TRANSIT"},"legGeometry":{"points":"c~zeHxmfqL[{ByBaGiBeCGIsBoCiLmIyEyByAoAeAcAAAsAqAiDeDjBkF~AqElAmDpAuD\\q@|@cC`DgJ","length":20},"rentedBike":false,"transitLeg":false,"duration":1224.0,"steps":[{"distance":1002.4770000000001,"relativeDirection":"DEPART","streetName":"Chemin du Portage-des-Roches Nord","absoluteDirection":"EAST","stayOn":false,"area":false,"bogusName":false,"lon":-71.14476349364355,"lat":48.31218138457687,"elevation":[]},{"distance":604.5540000000001,"relativeDirection":"RIGHT","streetName":"Rue du Boulevard","absoluteDirection":"SOUTHEAST","stayOn":false,"area":false,"bogusName":false,"lon":-71.1371469,"lat":48.3193853,"elevation":[]}]},{"startTime":1522700132000,"endTime":1522700220000,"departureDelay":0,"arrivalDelay":0,"realTime":false,"distance":1776.1606211812295,"pathway":false,"mode":"BUS","route":"62","agencyName":"Société de Transport du Saguenay","agencyUrl":"http://ville.saguenay.ca/fr/services-aux-citoyens/transport-sts","agencyTimeZoneOffset":-14400000,"routeColor":"00FFFF","routeType":3,"routeId":"1:62","routeTextColor":"000000","interlineWithPreviousLeg":false,"tripBlockId":"107","headsign":"Costco","agencyId":"0","tripId":"1:218822","serviceDate":"20180402","from":{"name":"Boulevard (no. 1557)","stopId":"1:2127","stopCode":"2127","lon":-71.130498,"lat":48.316221,"arrival":1522700131000,"departure":1522700132000,"zoneId":"NA","stopIndex":8,"stopSequence":9,"vertexType":"TRANSIT"},"to":{"name":"Notre-Dame / Gauthier","stopId":"1:1737","stopCode":"1737","lon":-71.110501,"lat":48.307493,"arrival":1522700220000,"departure":1522700221000,"zoneId":"NA","stopIndex":14,"stopSequence":15,"vertexType":"TRANSIT"},"legGeometry":{"points":"uw{eHhtcqL`KqYbDiJpIeV|IcWv@{Bh@cAf@u@Z]l@e@dBsAjCwBv@u@nA{BdCaGOOqAoBwA{B[i@","length":19},"routeShortName":"62","routeLongName":"Portage des Roches Sud","rentedBike":false,"transitLeg":true,"duration":88.0,"steps":[]},{"startTime":1522700221000,"endTime":1522700375000,"departureDelay":0,"arrivalDelay":0,"realTime":false,"distance":196.186,"pathway":false,"mode":"WALK","route":"","agencyTimeZoneOffset":-14400000,"interlineWithPreviousLeg":false,"from":{"name":"Notre-Dame / Gauthier","stopId":"1:1737","stopCode":"1737","lon":-71.110501,"lat":48.307493,"arrival":1522700220000,"departure":1522700221000,"zoneId":"NA","stopIndex":14,"stopSequence":15,"vertexType":"TRANSIT"},"to":{"name":"Destination","lon":-71.111569,"lat":48.306393,"arrival":1522700375000,"orig":"","vertexType":"NORMAL"},"legGeometry":{"points":"cazeHdx_qLFLNVvDbGj@iA","length":5},"rentedBike":false,"transitLeg":false,"duration":154.0,"steps":[{"distance":160.031,"relativeDirection":"DEPART","streetName":"Rue Notre-Dame","absoluteDirection":"SOUTHWEST","stayOn":false,"area":false,"bogusName":false,"lon":-71.11058814414332,"lat":48.30754888257977,"elevation":[]},{"distance":36.155,"relativeDirection":"LEFT","streetName":"Rue du Boulevard","absoluteDirection":"SOUTHEAST","stayOn":false,"area":false,"bogusName":false,"lon":-71.1120744,"lat":48.306503000000006,"elevation":[]}]}],"tooSloped":false}]},"debugOutput":{"precalculationTime":2,"pathCalculationTime":13,"pathTimes":[5,5,3],"renderingTime":0,"totalTime":15,"timedOut":false},"elevationMetadata":{"ellipsoidToGeoidDifference":-28.885904201182168,"geoidElevation":false}}