{"requestParameters":{"date":"2018/04/02","walkSpeed":"1.33","walkReluctance":"2.0","fromPlace":"48.315626,-71.140175","maxWalkDistance":"3000","waitReluctance":"1.0","carSpeed":"33","numItineraries":"3","waitAtBeginningFactor":"0.4","mode":"TRANSIT,WALK","ignoreRealtimeUpdates":"false","stairsReluctance":"2.0","toPlace":"48.309501,-71.11339599","time":"7:40:00"},"plan":{"date":1522669200000,"from":{"name":"Origin","lon":-71.140175,"lat":48.315626,"orig":"","vertexType":"NORMAL"},"to":{"name":"Destination","lon":-71.11339599,"lat":48.309501,"orig":"","vertexType":"NORMAL"},"itineraries":[{"duration":1993,"startTime":1522669200000,"endTime":1522671193000,"walkTime":1993,"transitTime":0,"waitingTime":0,"walkDistance":2610.1267368374342,"walkLimitExceeded":false,"elevationLost":0.0,"elevationGained":0.0,"transfers":0,"legs":[{"startTime":1522669200000,"endTime":1522671193000,"departureDelay":0,"arrivalDelay":0,"realTime":false,"distance":2609.9819999999995,"pathway":false,"mode":"WALK","route":"","agencyTimeZoneOffset":-14400000,"interlineWithPreviousLeg":false,"from":{"name":"Origin","lon":-71.140175,"lat":48.315626,"departure":1522669200000,"orig":"","vertexType":"NORMAL"},"to":{"name":"Destination","lon":-71.11339599,"lat":48.309501,"arrival":1522671193000,"orig":"","vertexType":"NORMAL"},"legGeometry":{"points":"us{eHfqeqLsByAyEyByAoAeAcAAAsAqAiDeDjBkF~AqElAmDpAuD\\q@|@cC`DgJ?A|JoY?CbDiJ@CzEmNpBuFFQlHuSf@yAwBqB`BqEvB}Cs@cB","length":29},"rentedBike":false,"transitLeg":false,"duration":1993.0,"steps":[{"distance":476.2099999999999,"relativeDirection":"DEPART","streetName":"Chemin du Portage-des-Roches Nord","absoluteDirection":"NORTHEAST","stayOn":false,"area":false,"bogusName":false,"lon":-71.14019803659463,"lat":48.31563401080648,"elevation":[]},{"distance":1824.4360000000001,"relativeDirection":"RIGHT","streetName":"Rue du Boulevard","absoluteDirection":"SOUTHEAST","stayOn":false,"area":false,"bogusName":false,"lon":-71.1371469,"lat":48.3193853,"elevation":[]},{"distance":79.487,"relativeDirection":"LEFT","streetName":"Rue de la culture","absoluteDirection":"NORTHEAST","stayOn":false,"area":false,"bogusName":false,"lon":-71.11677710000001,"lat":48.3101312,"elevation":[]},{"distance":183.303,"relativeDirection":"RIGHT","streetName":"Rue de la Moisson","absoluteDirection":"SOUTHEAST","stayOn":false,"area":false,"bogusName":false,"lon":-71.1162046,"lat":48.3107362,"elevation":[]},{"distance":46.546,"relativeDirection":"LEFT","streetName":"rue de la Moisson","absoluteDirection":"NORTHEAST","stayOn":false,"area":false,"bogusName":false,"lon":-71.1143612,"lat":48.309649900000004,"elevation":[]}]}],"tooSloped":false},{"duration":1186,"startTime":1522686974000,"endTime":1522688160000,"walkTime":1071,"transitTime":113,"waitingTime":2,"walkDistance":1391.8083533788977,"walkLimitExceeded":false,"elevationLost":0.0,"elevationGained":0.0,"transfers":0,"legs":[{"startTime":1522686974000,"endTime":1522687799000,"departureDelay":0,"arrivalDelay":0,"realTime":false,"distance":1080.764,"pathway":false,"mode":"WALK","route":"","agencyTimeZoneOffset":-14400000,"interlineWithPreviousLeg":false,"from":{"name":"Origin","lon":-71.140175,"lat":48.315626,"departure":1522686974000,"orig":"","vertexType":"NORMAL"},"to":{"name":"Boulevard (no. 1557)","stopId":"1:2127","stopCode":"2127","lon":-71.130498,"lat":48.316221,"arrival":1522687799000,"departure":1522687800000,"zoneId":"NA","stopIndex":7,"stopSequence":8,"vertexType":"TRANSIT"},"legGeometry":{"points":"us{eHfqeqLsByAyEyByAoAeAcAAAsAqAiDeDjBkF~AqElAmDpAuD\\q@|@cC`DgJ","length":15},"rentedBike":false,"transitLeg":false,"duration":825.0,"steps":[{"distance":476.2099999999999,"relativeDirection":"DEPART","streetName":"Chemin du Portage-des-Roches Nord","absoluteDirection":"NORTHEAST","stayOn":false,"area":false,"bogusName":false,"lon":-71.14019803659463,"lat":48.31563401080648,"elevation":[]},{"distance":604.5540000000001,"relativeDirection":"RIGHT","streetName":"Rue du Boulevard","absoluteDirection":"SOUTHEAST","stayOn":false,"area":false,"bogusName":false,"lon":-71.1371469,"lat":48.3193853,"elevation":[]}]},{"startTime":1522687800000,"endTime":1522687913000,"departureDelay":0,"arrivalDelay":0,"realTime":false,"distance":1220.5701870851256,"pathway":false,"mode":"BUS","route":"60","agencyName":"Société de Transport du Saguenay","agencyUrl":"http://ville.saguenay.ca/fr/services-aux-citoyens/transport-sts","agencyTimeZoneOffset":-14400000,"routeColor":"00FFFF","routeType":3,"routeId":"1:60","routeTextColor":"000000","interlineWithPreviousLeg":false,"tripBlockId":"73","headsign":"Costco","agencyId":"0","tripId":"1:218620","serviceDate":"20180402","from":{"name":"Boulevard (no. 1557)","stopId":"1:2127","stopCode":"2127","lon":-71.130498,"lat":48.316221,"arrival":1522687799000,"departure":1522687800000,"zoneId":"NA","stopIndex":7,"stopSequence":8,"vertexType":"TRANSIT"},"to":{"name":"Boulevard / Culture","stopId":"1:1736","stopCode":"1736","lon":-71.116866,"lat":48.310034,"arrival":1522687913000,"departure":1522687914000,"zoneId":"NA","stopIndex":11,"stopSequence":12,"vertexType":"TRANSIT"},"legGeometry":{"points":"uw{eHhtcqL`KqYbDiJpIeV|IcW","length":5},"routeShortName":"60","routeLongName":"Portage des Roches Nord","rentedBike":false,"transitLeg":true,"duration":113.0,"steps":[]},{"startTime":1522687914000,"endTime":1522688160000,"departureDelay":0,"arrivalDelay":0,"realTime":false,"distance":310.90299999999996,"pathway":false,"mode":"WALK","route":"","agencyTimeZoneOffset":-14400000,"interlineWithPreviousLeg":false,"from":{"name":"Boulevard / Culture","stopId":"1:1736","stopCode":"1736","lon":-71.116866,"lat":48.310034,"arrival":1522687913000,"departure":1522687914000,"zoneId":"NA","stopIndex":11,"stopSequence":12,"vertexType":"TRANSIT"},"to":{"name":"Destination","lon":-71.11339599,"lat":48.309501,"arrival":1522688160000,"orig":"","vertexType":"NORMAL"},"legGeometry":{"points":"gqzeHx~`qLA@wBqB`BqEvB}Cs@cB","length":6},"rentedBike":false,"transitLeg":false,"duration":246.0,"steps":[{"distance":1.567,"relativeDirection":"DEPART","streetName":"Rue du Boulevard","absoluteDirection":"NORTHWEST","stayOn":false,"area":false,"bogusName":false,"lon":-71.1167604981061,"lat":48.31012243914006,"elevation":[]},{"distance":79.487,"relativeDirection":"RIGHT","streetName":"Rue de la culture","absoluteDirection":"NORTHEAST","stayOn":false,"area":false,"bogusName":false,"lon":-71.11677710000001,"lat":48.3101312,"elevation":[]},{"distance":183.303,"relativeDirection":"RIGHT","streetName":"Rue de la Moisson","absoluteDirection":"SOUTHEAST","stayOn":false,"area":false,"bogusName":false,"lon":-71.1162046,"lat":48.3107362,"elevation":[]},{"distance":46.546,"relativeDirection":"LEFT","streetName":"rue de la Moisson","absoluteDirection":"NORTHEAST","stayOn":false,"area":false,"bogusName":false,"lon":-71.1143612,"lat":48.309649900000004,"elevation":[]}]}],"tooSloped":false}]},"debugOutput":{"precalculationTime":2,"pathCalculationTime":13,"pathTimes":[4,5,4],"renderingTime":0,"totalTime":15,"timedOut":false},"elevationMetadata":{"ellipsoidToGeoidDifference":-28.885904201182168,"geoidElevation":false}}