{"requestParameters":{"date":"2018/04/02","walkSpeed":"1.33","walkReluctance":"2.0","fromPlace":"48.406641,-71.058372","maxWalkDistance":"3000","waitReluctance":"1.0","carSpeed":"33","numItineraries":"3","waitAtBeginningFactor":"0.4","mode":"TRANSIT,WALK","ignoreRealtimeUpdates":"false","stairsReluctance":"2.0","toPlace":"48.44667,-71.038195","time":"9:45:00"},"plan":{"date":1522676700000,"from":{"name":"Origin","lon":-71.058372,"lat":48.406641,"orig":"","vertexType":"NORMAL"},"to":{"name":"Destination","lon":-71.038195,"lat":48.44667,"orig":"","vertexType":"NORMAL"},"itineraries":[{"duration":2229,"startTime":1522677107000,"endTime":1522679336000,"walkTime":459,"transitTime":1468,"waitingTime":302,"walkDistance":574.3466691675221,"walkLimitExceeded":false,"elevationLost":0.0,"elevationGained":0.0,"transfers":1,"legs":[{"startTime":1522677107000,"endTime":1522677299000,"departureDelay":0,"arrivalDelay":0,"realTime":false,"distance":232.897,"pathway":false,"mode":"WALK","route":"","agencyTimeZoneOffset":-14400000,"interlineWithPreviousLeg":false,"from":{"name":"Origin","lon":-71.058372,"lat":48.406641,"departure":1522677107000,"orig":"","vertexType":"NORMAL"},"to":{"name":"Place Royaume","stopId":"1:1801","stopCode":"1801","lon":-71.057017,"lat":48.405588,"arrival":1522677299000,"departure":1522677300000,"zoneId":"NA","stopIndex":10,"stopSequence":11,"vertexType":"TRANSIT"},"legGeometry":{"points":"kkmfH`oupLBB^V\\CDIFO\\eAJ]HWH[DKn@}BZXa@zA","length":14},"rentedBike":false,"transitLeg":false,"duration":192.0,"steps":[{"distance":105.184,"relativeDirection":"DEPART","streetName":"parking aisle","absoluteDirection":"SOUTHWEST","stayOn":false,"area":false,"bogusName":false,"lon":-71.05792823187457,"lat":48.40646381876084,"elevation":[]},{"distance":71.053,"relativeDirection":"CONTINUE","streetName":"service road","absoluteDirection":"SOUTHEAST","stayOn":false,"area":false,"bogusName":true,"lon":-71.05729810000001,"lat":48.4058038,"elevation":[]},{"distance":56.66,"relativeDirection":"RIGHT","streetName":"parking aisle","absoluteDirection":"SOUTHWEST","stayOn":true,"area":false,"bogusName":true,"lon":-71.0564657,"lat":48.405483000000004,"elevation":[]}]},{"startTime":1522677300000,"endTime":1522678200000,"departureDelay":0,"arrivalDelay":0,"realTime":false,"distance":4188.036446582453,"pathway":false,"mode":"BUS","route":"175","agencyName":"Société de Transport du Saguenay","agencyUrl":"http://ville.saguenay.ca/fr/services-aux-citoyens/transport-sts","agencyTimeZoneOffset":-14400000,"routeColor":"FF00FF","routeType":3,"routeId":"1:175","routeTextColor":"FFFFFF","interlineWithPreviousLeg":false,"tripBlockId":"10","headsign":"Terminus Chicoutimi","agencyId":"0","tripId":"1:217433","serviceDate":"20180402","from":{"name":"Place Royaume","stopId":"1:1801","stopCode":"1801","lon":-71.057017,"lat":48.405588,"arrival":1522677299000,"departure":1522677300000,"zoneId":"NA","stopIndex":10,"stopSequence":11,"vertexType":"TRANSIT"},"to":{"name":"Terminus Chicoutimi","stopId":"1:1289","stopCode":"1289","lon":-71.066163,"lat":48.428677,"arrival":1522678200000,"departure":1522678500000,"zoneId":"NA","stopIndex":27,"stopSequence":28,"vertexType":"TRANSIT"},"legGeometry":{"points":"sfmfH`kupL_U_TcNgNcBcB{E`Jc@x@qG~@{BlAk@XgSrQqB_GAeFiEeEOt@gAeA_A_ATm@yAwAgBeBqDnL@nBF`@f@|C[dCuAfB]xAs@OmCmCmEkE]a@g@i@ZiGTmEl@oLaEe@cFk@?pH?tJDvBPjMB~Bo@PQDRbFKdGMhIOvIK|EQpHoCQEdC","length":51},"routeShortName":"175","routeLongName":"Term. Chic / Costco","rentedBike":false,"transitLeg":true,"duration":900.0,"steps":[]},{"startTime":1522678500000,"endTime":1522679068000,"departureDelay":0,"arrivalDelay":0,"realTime":false,"distance":3453.8411754787335,"pathway":false,"mode":"BUS","route":"24","agencyName":"Société de Transport du Saguenay","agencyUrl":"http://ville.saguenay.ca/fr/services-aux-citoyens/transport-sts","agencyTimeZoneOffset":-14400000,"routeColor":"00FF00","routeType":3,"routeId":"1:24","routeTextColor":"000000","interlineWithPreviousLeg":false,"tripBlockId":"5","headsign":"Terminus Chicoutimi","agencyId":"0","tripId":"1:217257","serviceDate":"20180402","from":{"name":"Terminus Chicoutimi","stopId":"1:1289","stopCode":"1289","lon":-71.066163,"lat":48.428677,"arrival":1522678200000,"departure":1522678500000,"zoneId":"NA","stopIndex":0,"stopSequence":1,"vertexType":"TRANSIT"},"to":{"name":"Thibeault / Diamant","stopId":"1:815","stopCode":"815","lon":-71.042731,"lat":48.446755,"arrival":1522679068000,"departure":1522679069000,"zoneId":"NA","stopIndex":11,"stopSequence":12,"vertexType":"TRANSIT"},"legGeometry":{"points":"evqfHzcwpLg@?EhBO~GoBKCp@O\\WjGOfGCRK^KJMHQB_AMg@Gm\\wO]i@wAyA_@WUKMEwEm@Js@Da@??@@??@?@???@???@?@??A@???@A@??A@??A@A??@A?A??@A?A?A?A@A?A???A?A?A???A?A?A?A???A?AAA?A???AAA?A??AA?AA??AA??A??AA??A??AA?A???A????q@C{AAaB?mAEcAGs@OoAa@sB[kAYcASq@Ok@Qq@Ku@MoBKmAa@eHi@FKC_@I??iE}Ah@}DH}@?c@Ea@[_BA?My@Cm@?Y@g@Hu@b@sD\\_DBSyHsC_@MBQA}@IwAUoAcAkCWo@qDgJg@cBk@uBi@sC]aCWwCiKuDwQuGDWbAoGV{AxG~B","length":145},"routeShortName":"24","routeLongName":"Saint-Luc","rentedBike":false,"transitLeg":true,"duration":568.0,"steps":[]},{"startTime":1522679069000,"endTime":1522679336000,"departureDelay":0,"arrivalDelay":0,"realTime":false,"distance":341.28200000000004,"pathway":false,"mode":"WALK","route":"","agencyTimeZoneOffset":-14400000,"interlineWithPreviousLeg":false,"from":{"name":"Thibeault / Diamant","stopId":"1:815","stopCode":"815","lon":-71.042731,"lat":48.446755,"arrival":1522679068000,"departure":1522679069000,"zoneId":"NA","stopIndex":11,"stopSequence":12,"vertexType":"TRANSIT"},"to":{"name":"Destination","lon":-71.038195,"lat":48.44667,"arrival":1522679336000,"orig":"","vertexType":"NORMAL"},"legGeometry":{"points":"agufHrorpLLD`@_DBYAa@M}CMwCEq@Cc@A_@AOAM?O?K@GBUDSJs@D_@He@","length":20},"rentedBike":false,"transitLeg":false,"duration":267.0,"steps":[{"distance":9.031,"relativeDirection":"DEPART","streetName":"Rue Thibeault","absoluteDirection":"SOUTH","stayOn":false,"area":false,"bogusName":false,"lon":-71.04265067831268,"lat":48.446737444504414,"elevation":[]},{"distance":332.251,"relativeDirection":"LEFT","streetName":"Rue du Diamant","absoluteDirection":"EAST","stayOn":false,"area":false,"bogusName":false,"lon":-71.04268900000001,"lat":48.446660300000005,"elevation":[]}]}],"tooSloped":false},{"duration":2229,"startTime":1522678907000,"endTime":1522681136000,"walkTime":459,"transitTime":1468,"waitingTime":302,"walkDistance":574.3466691675221,"walkLimitExceeded":false,"elevationLost":0.0,"elevationGained":0.0,"transfers":1,"legs":[{"startTime":1522678907000,"endTime":1522679099000,"departureDelay":0,"arrivalDelay":0,"realTime":false,"distance":232.897,"pathway":false,"mode":"WALK","route":"","agencyTimeZoneOffset":-14400000,"interlineWithPreviousLeg":false,"from":{"name":"Origin","lon":-71.058372,"lat":48.406641,"departure":1522678907000,"orig":"","vertexType":"NORMAL"},"to":{"name":"Place Royaume","stopId":"1:1801","stopCode":"1801","lon":-71.057017,"lat":48.405588,"arrival":1522679099000,"departure":1522679100000,"zoneId":"NA","stopIndex":10,"stopSequence":11,"vertexType":"TRANSIT"},"legGeometry":{"points":"kkmfH`oupLBB^V\\CDIFO\\eAJ]HWH[DKn@}BZXa@zA","length":14},"rentedBike":false,"transitLeg":false,"duration":192.0,"steps":[{"distance":105.184,"relativeDirection":"DEPART","streetName":"parking aisle","absoluteDirection":"SOUTHWEST","stayOn":false,"area":false,"bogusName":false,"lon":-71.05792823187457,"lat":48.40646381876084,"elevation":[]},{"distance":71.053,"relativeDirection":"CONTINUE","streetName":"service road","absoluteDirection":"SOUTHEAST","stayOn":false,"area":false,"bogusName":true,"lon":-71.05729810000001,"lat":48.4058038,"elevation":[]},{"distance":56.66,"relativeDirection":"RIGHT","streetName":"parking aisle","absoluteDirection":"SOUTHWEST","stayOn":true,"area":false,"bogusName":true,"lon":-71.0564657,"lat":48.405483000000004,"elevation":[]}]},{"startTime":1522679100000,"endTime":1522680000000,"departureDelay":0,"arrivalDelay":0,"realTime":false,"distance":4188.036446582453,"pathway":false,"mode":"BUS","route":"175","agencyName":"Société de Transport du Saguenay","agencyUrl":"http://ville.saguenay.ca/fr/services-aux-citoyens/transport-sts","agencyTimeZoneOffset":-14400000,"routeColor":"FF00FF","routeType":3,"routeId":"1:175","routeTextColor":"FFFFFF","interlineWithPreviousLeg":false,"tripBlockId":"9","headsign":"Terminus Chicoutimi","agencyId":"0","tripId":"1:217399","serviceDate":"20180402","from":{"name":"Place Royaume","stopId":"1:1801","stopCode":"1801","lon":-71.057017,"lat":48.405588,"arrival":1522679099000,"departure":1522679100000,"zoneId":"NA","stopIndex":10,"stopSequence":11,"vertexType":"TRANSIT"},"to":{"name":"Terminus Chicoutimi","stopId":"1:1289","stopCode":"1289","lon":-71.066163,"lat":48.428677,"arrival":1522680000000,"departure":1522680300000,"zoneId":"NA","stopIndex":27,"stopSequence":28,"vertexType":"TRANSIT"},"legGeometry":{"points":"sfmfH`kupL_U_TcNgNcBcB{E`Jc@x@qG~@{BlAk@XgSrQqB_GAeFiEeEOt@gAeA_A_ATm@yAwAgBeBqDnL@nBF`@f@|C[dCuAfB]xAs@OmCmCmEkE]a@g@i@ZiGTmEl@oLaEe@cFk@?pH?tJDvBPjMB~Bo@PQDRbFKdGMhIOvIK|EQpHoCQEdC","length":51},"routeShortName":"175","routeLongName":"Term. Chic / Costco","rentedBike":false,"transitLeg":true,"duration":900.0,"steps":[]},{"startTime":1522680300000,"endTime":1522680868000,"departureDelay":0,"arrivalDelay":0,"realTime":false,"distance":3453.8411754787335,"pathway":false,"mode":"BUS","route":"24","agencyName":"Société de Transport du Saguenay","agencyUrl":"http://ville.saguenay.ca/fr/services-aux-citoyens/transport-sts","agencyTimeZoneOffset":-14400000,"routeColor":"00FF00","routeType":3,"routeId":"1:24","routeTextColor":"000000","interlineWithPreviousLeg":false,"tripBlockId":"4","headsign":"Terminus Chicoutimi","agencyId":"0","tripId":"1:217231","serviceDate":"20180402","from":{"name":"Terminus Chicoutimi","stopId":"1:1289","stopCode":"1289","lon":-71.066163,"lat":48.428677,"arrival":1522680000000,"departure":1522680300000,"zoneId":"NA","stopIndex":0,"stopSequence":1,"vertexType":"TRANSIT"},"to":{"name":"Thibeault / Diamant","stopId":"1:815","stopCode":"815","lon":-71.042731,"lat":48.446755,"arrival":1522680868000,"departure":1522680869000,"zoneId":"NA","stopIndex":11,"stopSequence":12,"vertexType":"TRANSIT"},"legGeometry":{"points":"evqfHzcwpLg@?EhBO~GoBKCp@O\\WjGOfGCRK^KJMHQB_AMg@Gm\\wO]i@wAyA_@WUKMEwEm@Js@Da@??@@??@?@???@???@?@??A@???@A@??A@??A@A??@A?A??@A?A?A?A@A?A???A?A?A???A?A?A?A???A?AAA?A???AAA?A??AA?AA??AA??A??AA??A??AA?A???A????q@C{AAaB?mAEcAGs@OoAa@sB[kAYcASq@Ok@Qq@Ku@MoBKmAa@eHi@FKC_@I??iE}Ah@}DH}@?c@Ea@[_BA?My@Cm@?Y@g@Hu@b@sD\\_DBSyHsC_@MBQA}@IwAUoAcAkCWo@qDgJg@cBk@uBi@sC]aCWwCiKuDwQuGDWbAoGV{AxG~B","length":145},"routeShortName":"24","routeLongName":"Saint-Luc","rentedBike":false,"transitLeg":true,"duration":568.0,"steps":[]},{"startTime":1522680869000,"endTime":1522681136000,"departureDelay":0,"arrivalDelay":0,"realTime":false,"distance":341.28200000000004,"pathway":false,"mode":"WALK","route":"","agencyTimeZoneOffset":-14400000,"interlineWithPreviousLeg":false,"from":{"name":"Thibeault / Diamant","stopId":"1:815","stopCode":"815","lon":-71.042731,"lat":48.446755,"arrival":1522680868000,"departure":1522680869000,"zoneId":"NA","stopIndex":11,"stopSequence":12,"vertexType":"TRANSIT"},"to":{"name":"Destination","lon":-71.038195,"lat":48.44667,"arrival":1522681136000,"orig":"","vertexType":"NORMAL"},"legGeometry":{"points":"agufHrorpLLD`@_DBYAa@M}CMwCEq@Cc@A_@AOAM?O?K@GBUDSJs@D_@He@","length":20},"rentedBike":false,"transitLeg":false,"duration":267.0,"steps":[{"distance":9.031,"relativeDirection":"DEPART","streetName":"Rue Thibeault","absoluteDirection":"SOUTH","stayOn":false,"area":false,"bogusName":false,"lon":-71.04265067831268,"lat":48.446737444504414,"elevation":[]},{"distance":332.251,"relativeDirection":"LEFT","streetName":"Rue du Diamant","absoluteDirection":"EAST","stayOn":false,"area":false,"bogusName":false,"lon":-71.04268900000001,"lat":48.446660300000005,"elevation":[]}]}],"tooSloped":false},{"duration":2674,"startTime":1522680262000,"endTime":1522682936000,"walkTime":503,"transitTime":1929,"waitingTime":242,"walkDistance":642.9070526276729,"walkLimitExceeded":false,"elevationLost":0.0,"elevationGained":0.0,"transfers":1,"legs":[{"startTime":1522680262000,"endTime":1522680498000,"departureDelay":0,"arrivalDelay":0,"realTime":false,"distance":301.504,"pathway":false,"mode":"WALK","route":"","agencyTimeZoneOffset":-14400000,"interlineWithPreviousLeg":false,"from":{"name":"Origin","lon":-71.058372,"lat":48.406641,"departure":1522680262000,"orig":"","vertexType":"NORMAL"},"to":{"name":"Place du Saguenay (Champs-Élysées)","stopId":"1:571","stopCode":"571","lon":-71.055824,"lat":48.408307,"arrival":1522680498000,"departure":1522680499000,"zoneId":"NA","stopIndex":12,"stopSequence":13,"vertexType":"TRANSIT"},"legGeometry":{"points":"kkmfH`oupLo@k@Ms@i@i@kAoA]UCAi@[gAe@u@a@]]\\}@","length":12},"rentedBike":false,"transitLeg":false,"duration":236.0,"steps":[{"distance":272.973,"relativeDirection":"DEPART","streetName":"parking aisle","absoluteDirection":"NORTHEAST","stayOn":false,"area":false,"bogusName":false,"lon":-71.05792823187457,"lat":48.40646381876084,"elevation":[]},{"distance":28.531,"relativeDirection":"RIGHT","streetName":"Rue des Champs-Élysées","absoluteDirection":"SOUTHEAST","stayOn":false,"area":false,"bogusName":false,"lon":-71.0560683,"lat":48.4085206,"elevation":[]}]},{"startTime":1522680499000,"endTime":1522681860000,"departureDelay":0,"arrivalDelay":0,"realTime":false,"distance":8492.902354570804,"pathway":false,"mode":"BUS","route":"12","agencyName":"Société de Transport du Saguenay","agencyUrl":"http://ville.saguenay.ca/fr/services-aux-citoyens/transport-sts","agencyTimeZoneOffset":-14400000,"routeColor":"556B2F","routeType":3,"routeId":"1:12","routeTextColor":"FFFFFF","interlineWithPreviousLeg":false,"tripBlockId":"29","headsign":"Terminus Chicoutimi","agencyId":"0","tripId":"1:218060","serviceDate":"20180402","from":{"name":"Place du Saguenay (Champs-Élysées)","stopId":"1:571","stopCode":"571","lon":-71.055824,"lat":48.408307,"arrival":1522680498000,"departure":1522680499000,"zoneId":"NA","stopIndex":12,"stopSequence":13,"vertexType":"TRANSIT"},"to":{"name":"Terminus Chicoutimi","stopId":"1:1289","stopCode":"1289","lon":-71.066163,"lat":48.428677,"arrival":1522681860000,"departure":1522682100000,"zoneId":"NA","stopIndex":33,"stopSequence":34,"vertexType":"TRANSIT"},"legGeometry":{"points":"{vmfH|aupLxFoNlCyGa@yFYkD}CyA}KmFgD_BgAgBn@kFD_NoIgrAmD_WcAaLaDHoDJi`@wVoAbDbA|AnBU|B|AfBlAyLtKoGxFcFqDkJaHgEoDmDwC_TqQsBeB{HjWfAvAfM|O|FlHmB`IgA|Cy@`UYzHZvMR~Hr@~ZPvHsCrMFxf@|ApJj@nDDl]BvZdCXJhC","length":50},"routeShortName":"12","routeLongName":"Rivière du Moulin","rentedBike":false,"transitLeg":true,"duration":1361.0,"steps":[]},{"startTime":1522682100000,"endTime":1522682668000,"departureDelay":0,"arrivalDelay":0,"realTime":false,"distance":3453.8411754787335,"pathway":false,"mode":"BUS","route":"24","agencyName":"Société de Transport du Saguenay","agencyUrl":"http://ville.saguenay.ca/fr/services-aux-citoyens/transport-sts","agencyTimeZoneOffset":-14400000,"routeColor":"00FF00","routeType":3,"routeId":"1:24","routeTextColor":"000000","interlineWithPreviousLeg":false,"tripBlockId":"5","headsign":"Terminus Chicoutimi","agencyId":"0","tripId":"1:217259","serviceDate":"20180402","from":{"name":"Terminus Chicoutimi","stopId":"1:1289","stopCode":"1289","lon":-71.066163,"lat":48.428677,"arrival":1522681860000,"departure":1522682100000,"zoneId":"NA","stopIndex":0,"stopSequence":1,"vertexType":"TRANSIT"},"to":{"name":"Thibeault / Diamant","stopId":"1:815","stopCode":"815","lon":-71.042731,"lat":48.446755,"arrival":1522682668000,"departure":1522682669000,"zoneId":"NA","stopIndex":11,"stopSequence":12,"vertexType":"TRANSIT"},"legGeometry":{"points":"evqfHzcwpLg@?EhBO~GoBKCp@O\\WjGOfGCRK^KJMHQB_AMg@Gm\\wO]i@wAyA_@WUKMEwEm@Js@Da@??@@??@?@???@???@?@??A@???@A@??A@??A@A??@A?A??@A?A?A?A@A?A???A?A?A???A?A?A?A???A?AAA?A???AAA?A??AA?AA??AA??A??AA??A??AA?A???A????q@C{AAaB?mAEcAGs@OoAa@sB[kAYcASq@Ok@Qq@Ku@MoBKmAa@eHi@FKC_@I??iE}Ah@}DH}@?c@Ea@[_BA?My@Cm@?Y@g@Hu@b@sD\\_DBSyHsC_@MBQA}@IwAUoAcAkCWo@qDgJg@cBk@uBi@sC]aCWwCiKuDwQuGDWbAoGV{AxG~B","length":145},"routeShortName":"24","routeLongName":"Saint-Luc","rentedBike":false,"transitLeg":true,"duration":568.0,"steps":[]},{"startTime":1522682669000,"endTime":1522682936000,"departureDelay":0,"arrivalDelay":0,"realTime":false,"distance":341.28200000000004,"pathway":false,"mode":"WALK","route":"","agencyTimeZoneOffset":-14400000,"interlineWithPreviousLeg":false,"from":{"name":"Thibeault / Diamant","stopId":"1:815","stopCode":"815","lon":-71.042731,"lat":48.446755,"arrival":1522682668000,"departure":1522682669000,"zoneId":"NA","stopIndex":11,"stopSequence":12,"vertexType":"TRANSIT"},"to":{"name":"Destination","lon":-71.038195,"lat":48.44667,"arrival":1522682936000,"orig":"","vertexType":"NORMAL"},"legGeometry":{"points":"agufHrorpLLD`@_DBYAa@M}CMwCEq@Cc@A_@AOAM?O?K@GBUDSJs@D_@He@","length":20},"rentedBike":false,"transitLeg":false,"duration":267.0,"steps":[{"distance":9.031,"relativeDirection":"DEPART","streetName":"Rue Thibeault","absoluteDirection":"SOUTH","stayOn":false,"area":false,"bogusName":false,"lon":-71.04265067831268,"lat":48.446737444504414,"elevation":[]},{"distance":332.251,"relativeDirection":"LEFT","streetName":"Rue du Diamant","absoluteDirection":"EAST","stayOn":false,"area":false,"bogusName":false,"lon":-71.04268900000001,"lat":48.446660300000005,"elevation":[]}]}],"tooSloped":false}]},"debugOutput":{"precalculationTime":20,"pathCalculationTime":56,"pathTimes":[20,13,23],"renderingTime":1,"totalTime":77,"timedOut":false},"elevationMetadata":{"ellipsoidToGeoidDifference":-28.885904201182168,"geoidElevation":false}}