{"requestParameters":{"date":"2018/04/02","walkSpeed":"1.33","walkReluctance":"2.0","fromPlace":"48.40924,-71.05257199","maxWalkDistance":"3000","waitReluctance":"1.0","carSpeed":"33","numItineraries":"3","waitAtBeginningFactor":"0.4","mode":"TRANSIT,WALK","ignoreRealtimeUpdates":"false","stairsReluctance":"2.0","toPlace":"48.312714,-71.210491","time":"9:55:00"},"plan":{"date":1522677300000,"from":{"name":"Origin","lon":-71.05257199,"lat":48.40924,"orig":"","vertexType":"NORMAL"},"to":{"name":"Destination","lon":-71.210491,"lat":48.312714,"orig":"","vertexType":"NORMAL"},"itineraries":[{"duration":4203,"startTime":1522695186000,"endTime":1522699389000,"walkTime":530,"transitTime":1991,"waitingTime":1682,"walkDistance":683.9230375918866,"walkLimitExceeded":false,"elevationLost":0.0,"elevationGained":0.0,"transfers":1,"legs":[{"startTime":1522695186000,"endTime":1522695588000,"departureDelay":0,"arrivalDelay":0,"realTime":false,"distance":520.6610000000001,"pathway":false,"mode":"WALK","route":"","agencyTimeZoneOffset":-14400000,"interlineWithPreviousLeg":false,"from":{"name":"Origin","lon":-71.05257199,"lat":48.40924,"departure":1522695186000,"orig":"","vertexType":"NORMAL"},"to":{"name":"Émile Girardin / Roitelets","stopId":"1:253","stopCode":"253","lon":-71.050677,"lat":48.406726,"arrival":1522695588000,"departure":1522695589000,"zoneId":"NA","stopIndex":17,"stopSequence":18,"vertexType":"TRANSIT"},"legGeometry":{"points":"i|mfHvltpLz@z@t@mBRMJBbAdARJLEPc@RYTGRJxAdCPUfAuAbAaA{@qEGo@AGAK","length":20},"rentedBike":false,"transitLeg":false,"duration":402.0,"steps":[{"distance":301.759,"relativeDirection":"DEPART","streetName":"service road","absoluteDirection":"SOUTHWEST","stayOn":false,"area":false,"bogusName":false,"lon":-71.05243235337889,"lat":48.40917865676581,"elevation":[]},{"distance":108.804,"relativeDirection":"LEFT","streetName":"Rue des Champs-Élysées","absoluteDirection":"SOUTHEAST","stayOn":false,"area":false,"bogusName":false,"lon":-71.05289400000001,"lat":48.4070874,"elevation":[]},{"distance":110.09799999999998,"relativeDirection":"LEFT","streetName":"Rue Émile-Girardin","absoluteDirection":"NORTHEAST","stayOn":false,"area":false,"bogusName":false,"lon":-71.05202630000001,"lat":48.4062974,"elevation":[]}]},{"startTime":1522695589000,"endTime":1522696320000,"departureDelay":0,"arrivalDelay":0,"realTime":false,"distance":4204.686550914487,"pathway":false,"mode":"BUS","route":"175","agencyName":"Société de Transport du Saguenay","agencyUrl":"http://ville.saguenay.ca/fr/services-aux-citoyens/transport-sts","agencyTimeZoneOffset":-14400000,"routeColor":"FF00FF","routeType":3,"routeId":"1:175","routeTextColor":"FFFFFF","interlineWithPreviousLeg":false,"tripBlockId":"7","headsign":"Costco","agencyId":"0","tripId":"1:217337","serviceDate":"20180402","from":{"name":"Émile Girardin / Roitelets","stopId":"1:253","stopCode":"253","lon":-71.050677,"lat":48.406726,"arrival":1522695588000,"departure":1522695589000,"zoneId":"NA","stopIndex":17,"stopSequence":18,"vertexType":"TRANSIT"},"to":{"name":"COSTCO","stopId":"1:1710","stopCode":"1710","lon":-71.085767,"lat":48.382333,"arrival":1522696320000,"departure":1522698000000,"zoneId":"NA","stopIndex":30,"stopSequence":31,"vertexType":"TRANSIT"},"legGeometry":{"points":"_lmfHhatpLr@~Gx@]PEr@ObACn@FrBb@|@Ch@Kx@U~HsB^KZ|DJpII~Fa@rFUzBi@bDUxAm@nCcAlDM^RTfD`DjF`FjCrCrAvAbCfDjIfMdAzAfFpHd@n@nC`DlXv[b@f@mCtHv@v@p@r@_@p@uAcBjDoJhAzApBrBrFvGjDdEbD|DZb@~DrEbDfDrA~ApLbNpG|GyCtHwBcC","length":55},"routeShortName":"175","routeLongName":"Term. Chic / Costco","rentedBike":false,"transitLeg":true,"duration":731.0,"steps":[]},{"startTime":1522698000000,"endTime":1522699260000,"departureDelay":0,"arrivalDelay":0,"realTime":false,"distance":17761.01599245124,"pathway":false,"mode":"BUS","route":"60","agencyName":"Société de Transport du Saguenay","agencyUrl":"http://ville.saguenay.ca/fr/services-aux-citoyens/transport-sts","agencyTimeZoneOffset":-14400000,"routeColor":"00FFFF","routeType":3,"routeId":"1:60","routeTextColor":"000000","interlineWithPreviousLeg":false,"tripBlockId":"95","headsign":"chemin Portageurs","agencyId":"0","tripId":"1:218716","serviceDate":"20180402","from":{"name":"COSTCO","stopId":"1:1710","stopCode":"1710","lon":-71.085767,"lat":48.382333,"arrival":1522696320000,"departure":1522698000000,"zoneId":"NA","stopIndex":0,"stopSequence":1,"vertexType":"TRANSIT"},"to":{"name":"Ch. des Portageurs (fin)","stopId":"1:1845","stopCode":"1845","lon":-71.210804,"lat":48.311743,"arrival":1522699260000,"departure":1522699261000,"zoneId":"NA","stopIndex":21,"stopSequence":22,"vertexType":"TRANSIT"},"legGeometry":{"points":"uthfHh}zpLoB}Bs@`BjChDZbB`@x@iDvI}@fC_AvC[jAi@`CUbBUxBUdCIlD]to@K`IEt@ElBQlEMrBWvDa@jEq@nFa@rC_AnFi@bCo@pCiAbEyCdJNZPTfApA~DjFxFfFzAdBbA`BlA|Bt@z@z@x@zAhAbBjAfKlGz@~@vApBbApAbDdDdExDLJpIjIvAzBlBdDbAbBfAtAt@|@|@~@tHhHhBlCrCfFx@fAT^bA`AjC~BdI~JpGjHt@bA`AdAvb@xf@`EvEjFjFxAtAd@j@l@z@xC`Fn@v@NNNJ^Xj@Xv@Zz@ZND`@Lx@Rp@LXDrDH|@?p@?VCN?D?VK`@ONIZUVS^]Zc@t@wATs@P}@F_@Jm@JcA@QPsA\\uBXuAdAqDLe@H]zAuHd@kBzAuFXy@NYXg@f@g@|@{@dAy@vC{Br@m@RQRWVa@b@_AdC}Gn@aBl@{Aj@oATe@b@i@\\Y\\Qd@QvDy@r@Ud@Up@i@Z[X]^i@LUL_@^gAxGgUVaAPq@PaAL{@Fq@@eACoBKwFAiCD_AFe@V_AbVqq@Pw@bl@bm@~A|AtE|DnEnDjDdCf`@vVbCdBnAfAjClCsA|DuGjR\\\\v@z@`DxCnAjA|@|@|@l@nFhCjBjA`CfBfB`BzBfDnBvCn@lAl@pAVbAlAxGHb@^|Bh@jERtBBVJjALzB?~EAnFE`J@R@fCDn@LbAp@hCt@nBVf@r@~@j@v@l@tA`@dAp@nAHLh@t@b@r@ZvA\\lCF~@@dAMtDFdBHz@zArJl@vDNr@Rr@DH`@`At@jAh@d@hBfB`@n@n@fBn@tD\\bELz@ZjAjC~Fv@zBf@|BXt@dBpCHN^z@N~@A|@UtB?~BHlARrAJvALdEJzDKhFWtC}AdPuCl^u@vHc@`C]jB_BvJe@|Bo@rBYr@Sf@kFpP]|Ao@lDAH[|A]`AoAfCg@dBQh@aChKG|@?fBFjARlBDl@Gx@c@hCCvAB~@Z`BD`@?^Gd@o@`Bg@t@yD|Dm@|@U`@??g@v@Ob@Ch@MJ","length":296},"routeShortName":"60","routeLongName":"Portage des Roches Nord","rentedBike":false,"transitLeg":true,"duration":1260.0,"steps":[]},{"startTime":1522699261000,"endTime":1522699389000,"departureDelay":0,"arrivalDelay":0,"realTime":false,"distance":163.197,"pathway":false,"mode":"WALK","route":"","agencyTimeZoneOffset":-14400000,"interlineWithPreviousLeg":false,"from":{"name":"Ch. des Portageurs (fin)","stopId":"1:1845","stopCode":"1845","lon":-71.210804,"lat":48.311743,"arrival":1522699260000,"departure":1522699261000,"zoneId":"NA","stopIndex":21,"stopSequence":22,"vertexType":"TRANSIT"},"to":{"name":"Destination","lon":-71.210491,"lat":48.312714,"arrival":1522699389000,"orig":"","vertexType":"NORMAL"},"legGeometry":{"points":"{zzeHlksqLJMB_@Nc@e@o@c@?c@t@eAzA","length":8},"rentedBike":false,"transitLeg":false,"duration":128.0,"steps":[{"distance":7.773,"relativeDirection":"DEPART","streetName":"Rue Lagacé","absoluteDirection":"SOUTHEAST","stayOn":false,"area":false,"bogusName":false,"lon":-71.21094090810189,"lat":48.31166106447717,"elevation":[]},{"distance":28.32,"relativeDirection":"SLIGHTLY_LEFT","streetName":"Chemin du Portage-des-Roches Nord","absoluteDirection":"EAST","stayOn":false,"area":false,"bogusName":false,"lon":-71.2108706,"lat":48.311609100000005,"elevation":[]},{"distance":127.104,"relativeDirection":"LEFT","streetName":"Chemin des Portageurs","absoluteDirection":"NORTHEAST","stayOn":false,"area":false,"bogusName":false,"lon":-71.210533,"lat":48.3115023,"elevation":[]}]}],"tooSloped":false},{"duration":3837,"startTime":1522696386000,"endTime":1522700223000,"walkTime":1331,"transitTime":2504,"waitingTime":2,"walkDistance":1726.5937669106218,"walkLimitExceeded":false,"elevationLost":0.0,"elevationGained":0.0,"transfers":0,"legs":[{"startTime":1522696386000,"endTime":1522697235000,"departureDelay":0,"arrivalDelay":0,"realTime":false,"distance":1097.272,"pathway":false,"mode":"WALK","route":"","agencyTimeZoneOffset":-14400000,"interlineWithPreviousLeg":false,"from":{"name":"Origin","lon":-71.05257199,"lat":48.40924,"departure":1522696386000,"orig":"","vertexType":"NORMAL"},"to":{"name":"boul. Talbot (no. 1494) (Tim-Horton)","stopId":"1:1854","stopCode":"1854","lon":-71.060941,"lat":48.402118,"arrival":1522697235000,"departure":1522697236000,"zoneId":"NA","stopIndex":2,"stopSequence":3,"vertexType":"TRANSIT"},"legGeometry":{"points":"i|mfHvltpLz@z@INo@jBM\\E\\?VDVpF`FJJzFjF|DpDIZtAlAtEjEjF~EPPVTfDbD","length":19},"rentedBike":false,"transitLeg":false,"duration":849.0,"steps":[{"distance":139.72,"relativeDirection":"DEPART","streetName":"service road","absoluteDirection":"SOUTHWEST","stayOn":false,"area":false,"bogusName":false,"lon":-71.05243235337889,"lat":48.40917865676581,"elevation":[]},{"distance":957.552,"relativeDirection":"LEFT","streetName":"Boulevard Talbot","absoluteDirection":"SOUTHWEST","stayOn":false,"area":false,"bogusName":false,"lon":-71.0538959,"lat":48.4092308,"elevation":[]}]},{"startTime":1522697236000,"endTime":1522697700000,"departureDelay":0,"arrivalDelay":0,"realTime":false,"distance":2880.056948678177,"pathway":false,"mode":"BUS","route":"208S","agencyName":"Société de Transport du Saguenay","agencyUrl":"http://ville.saguenay.ca/fr/services-aux-citoyens/transport-sts","agencyTimeZoneOffset":-14400000,"routeColor":"8B0000","routeType":3,"routeId":"1:208S","routeTextColor":"FFFFFF","interlineWithPreviousLeg":false,"tripBlockId":"107","headsign":"Costco","agencyId":"0","tripId":"1:218820","serviceDate":"20180402","from":{"name":"boul. Talbot (no. 1494) (Tim-Horton)","stopId":"1:1854","stopCode":"1854","lon":-71.060941,"lat":48.402118,"arrival":1522697235000,"departure":1522697236000,"zoneId":"NA","stopIndex":2,"stopSequence":3,"vertexType":"TRANSIT"},"to":{"name":"COSTCO","stopId":"1:1710","stopCode":"1710","lon":-71.085767,"lat":48.382333,"arrival":1522697700000,"departure":1522698000000,"zoneId":"NA","stopIndex":10,"stopSequence":11,"vertexType":"TRANSIT"},"legGeometry":{"points":"_plfHjavpLjF`FjCrCrAvAbCfDjIfMdAzAfFpHd@n@nC`DlXv[j@n@dEfErFvGjDdEbD|DZb@~DrEbDfDrA~AhD~DfGbHpG|GyCtHwBcC","length":25},"routeShortName":"208S","routeLongName":"Séminaire - Laterrière","rentedBike":false,"transitLeg":true,"duration":464.0,"steps":[]},{"startTime":1522698000000,"endTime":1522699740000,"departureDelay":0,"arrivalDelay":0,"realTime":false,"distance":22608.684859330016,"pathway":false,"mode":"BUS","route":"62","agencyName":"Société de Transport du Saguenay","agencyUrl":"http://ville.saguenay.ca/fr/services-aux-citoyens/transport-sts","agencyTimeZoneOffset":-14400000,"routeColor":"00FFFF","routeType":3,"routeId":"1:62","routeTextColor":"000000","interlineWithPreviousLeg":true,"tripBlockId":"107","headsign":"Barrage Port. Roches","agencyId":"0","tripId":"1:218821","serviceDate":"20180402","from":{"name":"COSTCO","stopId":"1:1710","stopCode":"1710","lon":-71.085767,"lat":48.382333,"arrival":1522697700000,"departure":1522698000000,"zoneId":"NA","stopIndex":0,"stopSequence":1,"vertexType":"TRANSIT"},"to":{"name":"Ch. Portage des Roches S (fin)","stopId":"1:1730","stopCode":"1730","lon":-71.213513,"lat":48.307829,"arrival":1522699740000,"departure":1522699741000,"zoneId":"NA","stopIndex":27,"stopSequence":28,"vertexType":"TRANSIT"},"legGeometry":{"points":"uthfHh}zpLoB}Bs@`BjChDZbB`@x@PNlFwMHWbFmMBc@~d@skANe@Jk@H_AD_ABuADs@Hk@Lc@N_@X_@ZYbAq@pA]hDuA~UqLAEjJ_EjRiIrJeEdCmAbAs@rAkAbCyC|@cB|@sBpEkN|cA}`D~@wCz@~@~GjH|^d`@fNxNng@di@dJrJ`aAtcA`@d@RZJVNn@Dr@nAp_@HzAHx@ZxAlDzN|DlPjIn]P~@JbB@b@?b@IdAiA|KObAU`A_HfTCDt_AzaA^h@BFDTBV?VATADwBlGCPCl@Jt@pBnG^pBFd@DlAEdCGhCElAg@pG?nAF~@PnAVxAp@lF^`B^dAxAnC@@pAzAr@lAPp@Lj@Dh@HjB@fAWzFA~BQAOAQGWMk@k@QSM[M_@IY_@_AQWSO_DcBUEYLa@VWLYPyGrNeC`GoAzBw@t@kCvBkBvAg@`@[\\g@t@i@bACF}AlEkHvSwIrVgDpJ_KjYkAhDqDjJzCrCpI`Jpb@zb@g@zAUz@[bA?b@@~@J|@v@zDxAnGxAjFbBjFr@|AtBzEf@rAd@|AdA~Df@tBv@xE^xCh@nHVdDHnAl@lJ^xEp@nHTnAXdA`AlCjAdC\\l@fAhA|@x@d@^JFdBlAnDrCzAnBr@dAl@`Ah@nAb@rALl@PtAJrCBt@BfKBr@Dn@Fh@Jr@`AnEPhADdABn@@xACx@OxBo@xGm@jHy@nLQhBmDfVQfBElBOnDSpBQjAWhA]dA_AbDWtAGbAE`DCx@G~@WlBObAq@tC]bB_@hDIbA]zDOtCQ~A[`BOh@_AxBiCpFoAtC_@|@CF{A`EM`@K`@YrAK`AGv@Cz@?tBB|BCdBCl@k@jFY`BUtAMd@]`BiBvHW|AOlAKbAMtBGtAI`C?rAD|A@b@@D@Fg@b@","length":265},"routeShortName":"62","routeLongName":"Portage des Roches Sud","rentedBike":false,"transitLeg":true,"duration":1740.0,"steps":[]},{"startTime":1522699741000,"endTime":1522700223000,"departureDelay":0,"arrivalDelay":0,"realTime":false,"distance":629.115,"pathway":false,"mode":"WALK","route":"","agencyTimeZoneOffset":-14400000,"interlineWithPreviousLeg":false,"from":{"name":"Ch. Portage des Roches S (fin)","stopId":"1:1730","stopCode":"1730","lon":-71.213513,"lat":48.307829,"arrival":1522699740000,"departure":1522699741000,"zoneId":"NA","stopIndex":27,"stopSequence":28,"vertexType":"TRANSIT"},"to":{"name":"Destination","lon":-71.210491,"lat":48.312714,"arrival":1522700223000,"orig":"","vertexType":"NORMAL"},"legGeometry":{"points":"sbzeHzysqLm@aAuBiDaGiBwHkBSIIOB_@Nc@e@o@c@?c@t@eAzA","length":13},"rentedBike":false,"transitLeg":false,"duration":482.0,"steps":[{"distance":473.691,"relativeDirection":"DEPART","streetName":"Chemin du Portage-des-Roches Nord","absoluteDirection":"NORTHEAST","stayOn":false,"area":false,"bogusName":false,"lon":-71.213258,"lat":48.307782,"elevation":[]},{"distance":28.32,"relativeDirection":"RIGHT","streetName":"Chemin du Portage-des-Roches Nord","absoluteDirection":"EAST","stayOn":true,"area":false,"bogusName":false,"lon":-71.2108706,"lat":48.311609100000005,"elevation":[]},{"distance":127.104,"relativeDirection":"LEFT","streetName":"Chemin des Portageurs","absoluteDirection":"NORTHEAST","stayOn":false,"area":false,"bogusName":false,"lon":-71.210533,"lat":48.3115023,"elevation":[]}]}],"tooSloped":false},{"duration":5294,"startTime":1522703569000,"endTime":1522708863000,"walkTime":1112,"transitTime":4180,"waitingTime":2,"walkDistance":1452.5903458601977,"walkLimitExceeded":false,"elevationLost":0.0,"elevationGained":0.0,"transfers":0,"legs":[{"startTime":1522703569000,"endTime":1522703959000,"departureDelay":0,"arrivalDelay":0,"realTime":false,"distance":498.82800000000003,"pathway":false,"mode":"WALK","route":"","agencyTimeZoneOffset":-14400000,"interlineWithPreviousLeg":false,"from":{"name":"Origin","lon":-71.05257199,"lat":48.40924,"departure":1522703569000,"orig":"","vertexType":"NORMAL"},"to":{"name":"boul. Université / Murdock","stopId":"1:80","stopCode":"80","lon":-71.050111,"lat":48.411498,"arrival":1522703959000,"departure":1522703960000,"zoneId":"NA","stopIndex":11,"stopSequence":12,"vertexType":"TRANSIT"},"legGeometry":{"points":"i|mfHvltpL{@{@ADu@rBc@hAEJkDmDcDgDy@}@MK|AmE","length":11},"rentedBike":false,"transitLeg":false,"duration":390.0,"steps":[{"distance":133.45100000000002,"relativeDirection":"DEPART","streetName":"service road","absoluteDirection":"NORTHEAST","stayOn":false,"area":false,"bogusName":false,"lon":-71.05243235337889,"lat":48.40917865676581,"elevation":[]},{"distance":274.079,"relativeDirection":"RIGHT","streetName":"Boulevard Talbot","absoluteDirection":"NORTHEAST","stayOn":false,"area":false,"bogusName":false,"lon":-71.0531788,"lat":48.4099639,"elevation":[]},{"distance":91.298,"relativeDirection":"RIGHT","streetName":"Boulevard de l'Université","absoluteDirection":"SOUTHEAST","stayOn":false,"area":false,"bogusName":false,"lon":-71.0510904,"lat":48.412002,"elevation":[]}]},{"startTime":1522703960000,"endTime":1522706700000,"departureDelay":0,"arrivalDelay":0,"realTime":false,"distance":33254.18259501158,"pathway":false,"mode":"BUS","route":"21S","agencyName":"Société de Transport du Saguenay","agencyUrl":"http://ville.saguenay.ca/fr/services-aux-citoyens/transport-sts","agencyTimeZoneOffset":-14400000,"routeColor":"8B0000","routeType":3,"routeId":"1:21S","routeTextColor":"FFFFFF","interlineWithPreviousLeg":false,"tripBlockId":"53","headsign":"Costco","agencyId":"0","tripId":"1:218475","serviceDate":"20180402","from":{"name":"boul. Université / Murdock","stopId":"1:80","stopCode":"80","lon":-71.050111,"lat":48.411498,"arrival":1522703959000,"departure":1522703960000,"zoneId":"NA","stopIndex":11,"stopSequence":12,"vertexType":"TRANSIT"},"to":{"name":"COSTCO","stopId":"1:1710","stopCode":"1710","lon":-71.085767,"lat":48.382333,"arrival":1522706700000,"departure":1522707000000,"zoneId":"NA","stopIndex":76,"stopSequence":77,"vertexType":"TRANSIT"},"legGeometry":{"points":"cknfH|}spLbB}Eh@sBh@qCPcANoAPqBFyAFsA@q@CeBKkDc@cIsF_{@QqBe@cHc@aEeC_Oa@iDk@iIKWvAo@^WXQdDeD|IqJp@u@l@_Ah@{@f@{@FMn@uAt@iBpAgDpQoe@nKwXlGoPlA_DjAsD~@aENy@jCeO\\{ANi@l@cBt@aBr@kAdAuAlEsFtAwBHM`B}CdAmCvEgMrEaMhCeHhJ}VjH{RpBqFzJcXfAwCfAmCfCqGzHeSjJeVhOe`@xI}TvNc_@`ImS`JqU~HkS~Mo]|JiWdKwWpNy^zJcWfPcb@d@{AxBgHnCoJtEgPJ[jA{DpAyDl@uA?AnAcCnQsYxKqQfAoBx@_B`LsWtEsKzLcYzDaJ\\m@^g@b@_@d@[xDyAbFiBvBw@tAc@nDoAiAcJK_Ag@eCEIEKv@CD@FBBBLf@Jh@?FF~@?JABADA@IF[ZhAbJoDnAuAb@l@fFpC|UH`@^dBv@fEn@rDBLXtBd@fEDVlAtL\\`Ft@dLb@zIz@`Rd@~J@XFz@ZrDvBfP|AjLtDbWXxANbAFdBtEl]L`ANdBJrCBhB?lBElBGhAIjAMrAS~AaBfKOvAOvAEpA?\\Ah@?r@@l@Dp@Dv@Ft@RnAP~@Tz@vKb^f@bBz@~CZrAl@xCXdBPz@j@~E|AvObBfQh@fGTbEJfEChE?^KvGIpBSfDIvAg@zFq@dGi@rCc@`B_@lAu@~Ba@fA_@~@eW`l@aPz^wB|E}A|Eg@rCe@jDk@~IcAtSS|CSbCIx@UvB]bCm@rDoAxFi@rByBpGSl@uRvh@eD`JUt@Qr@YjBIbAG|@E~@CpA?xADvArA`Q`BnThCz\\V|HCBCBCDADCBAFAD?DAF?F?D?F?D@D?F@D@DBD@D@BBDBBB@BBB@B@D@B?B@z@lHjAzOH`BB`CEnBQzBa@jCc@~AcXbs@{@lCmcAv_DeFzO}@rB}@bBcCxCsAjAcAr@eClAqJbEoF~BsJdEuJdEAC{TpJmHjCiEhAHz@d@pGE~@I`AKh@Od@_e@rkAUReFdMIXyCtHuBaC","length":303},"routeShortName":"21S","routeLongName":"Term. Chic -> Cégep / UQAC -> Costco","rentedBike":false,"transitLeg":true,"duration":2740.0,"steps":[]},{"startTime":1522707000000,"endTime":1522708140000,"departureDelay":0,"arrivalDelay":0,"realTime":false,"distance":16977.80039447218,"pathway":false,"mode":"BUS","route":"60","agencyName":"Société de Transport du Saguenay","agencyUrl":"http://ville.saguenay.ca/fr/services-aux-citoyens/transport-sts","agencyTimeZoneOffset":-14400000,"routeColor":"00FFFF","routeType":3,"routeId":"1:60","routeTextColor":"000000","interlineWithPreviousLeg":true,"tripBlockId":"53","headsign":"Camping Rocaille","agencyId":"0","tripId":"1:218476","serviceDate":"20180402","from":{"name":"COSTCO","stopId":"1:1710","stopCode":"1710","lon":-71.085767,"lat":48.382333,"arrival":1522706700000,"departure":1522707000000,"zoneId":"NA","stopIndex":0,"stopSequence":1,"vertexType":"TRANSIT"},"to":{"name":"Camping La Rocaille (ch. Portage Roches N)","stopId":"1:1771","stopCode":"1771","lon":-71.201087,"lat":48.308942,"arrival":1522708140000,"departure":1522708141000,"zoneId":"NA","stopIndex":20,"stopSequence":21,"vertexType":"TRANSIT"},"legGeometry":{"points":"uthfHh}zpLoB}Bs@`BjChDZbB`@x@iDvI}@fC_AvC[jAi@`CUbBUxBUdCIlD]to@K`IEt@ElBQlEMrBWvDa@jEq@nFa@rC_AnFi@bCo@pCiAbEyCdJNZPTfApA~DjFxFfFzAdBbA`BlA|Bt@z@z@x@zAhAbBjAfKlGz@~@vApBbApAbDdDdExDLJpIjIvAzBlBdDbAbBfAtAt@|@|@~@tHhHhBlCrCfFx@fAT^bA`AjC~BdI~JpGjHt@bA`AdAvb@xf@`EvEjFjFxAtAd@j@l@z@xC`Fn@v@NNNJ^Xj@Xv@Zz@ZND`@Lx@Rp@LXDrDH|@?p@?VCN?D?VK`@ONIZUVS^]Zc@t@wATs@P}@F_@Jm@JcA@QPsA\\uBXuAdAqDLe@H]zAuHd@kBzAuFXy@NYXg@f@g@|@{@dAy@vC{Br@m@RQRWVa@b@_AdC}Gn@aBl@{Aj@oATe@b@i@\\Y\\Qd@QvDy@r@Ud@Up@i@Z[X]^i@LUL_@^gAxGgUVaAPq@PaAL{@Fq@@eACoBKwFAiCD_AFe@V_AbVqq@Pw@bl@bm@~A|AtE|DnEnDjDdCf`@vVbCdBnAfAjClCsA|DuGjR\\\\v@z@`DxCnAjA|@|@|@l@nFhCjBjA`CfBfB`BzBfDnBvCn@lAl@pAVbAlAxGHb@^|Bh@jERtBBVJjALzB?~EAnFE`J@R@fCDn@LbAp@hCt@nBVf@r@~@j@v@l@tA`@dAp@nAHLh@t@b@r@ZvA\\lCF~@@dAMtDFdBHz@zArJl@vDNr@Rr@DH`@`At@jAh@d@hBfB`@n@n@fBn@tD\\bELz@ZjAjC~Fv@zBf@|BXt@dBpCHN^z@N~@A|@UtB?~BHlARrAJvALdEJzDKhFWtC}AdPuCl^u@vHc@`C]jB_BvJe@|Bo@rBYr@Sf@kFpP]|Ao@lDAH[|A]`AoAfCg@dB","length":271},"routeShortName":"60","routeLongName":"Portage des Roches Nord","rentedBike":false,"transitLeg":true,"duration":1140.0,"steps":[]},{"startTime":1522708141000,"endTime":1522708863000,"departureDelay":0,"arrivalDelay":0,"realTime":false,"distance":953.624,"pathway":false,"mode":"WALK","route":"","agencyTimeZoneOffset":-14400000,"interlineWithPreviousLeg":false,"from":{"name":"Camping La Rocaille (ch. Portage Roches N)","stopId":"1:1771","stopCode":"1771","lon":-71.201087,"lat":48.308942,"arrival":1522708140000,"departure":1522708141000,"zoneId":"NA","stopIndex":20,"stopSequence":21,"vertexType":"TRANSIT"},"to":{"name":"Destination","lon":-71.210491,"lat":48.312714,"arrival":1522708863000,"orig":"","vertexType":"NORMAL"},"legGeometry":{"points":"sizeH~mqqLA@iA~Dq@rCUnAKnABrAHrALlAFvAO|AUlAGj@Ch@@^Db@d@|CKbAm@tAoAbBgBlBoAtAeApBe@o@c@?c@t@eAzA","length":27},"rentedBike":false,"transitLeg":false,"duration":722.0,"steps":[{"distance":826.52,"relativeDirection":"DEPART","streetName":"Chemin du Portage-des-Roches Nord","absoluteDirection":"NORTHWEST","stayOn":false,"area":false,"bogusName":false,"lon":-71.20111731093256,"lat":48.30890807723477,"elevation":[]},{"distance":127.104,"relativeDirection":"RIGHT","streetName":"Chemin des Portageurs","absoluteDirection":"NORTHEAST","stayOn":false,"area":false,"bogusName":false,"lon":-71.210533,"lat":48.3115023,"elevation":[]}]}],"tooSloped":false}]},"debugOutput":{"precalculationTime":19,"pathCalculationTime":106,"pathTimes":[39,34,33],"renderingTime":1,"totalTime":126,"timedOut":false},"elevationMetadata":{"ellipsoidToGeoidDifference":-28.885904201182168,"geoidElevation":false}}