{"requestParameters":{"date":"2018/04/02","walkSpeed":"1.33","walkReluctance":"2.0","fromPlace":"48.311899,-71.116354","maxWalkDistance":"3000","waitReluctance":"1.0","carSpeed":"33","numItineraries":"3","waitAtBeginningFactor":"0.4","mode":"TRANSIT,WALK","ignoreRealtimeUpdates":"false","stairsReluctance":"2.0","toPlace":"48.400525,-71.121189","time":"7:30:00"},"plan":{"date":1522668600000,"from":{"name":"Origin","lon":-71.116354,"lat":48.311899,"orig":"","vertexType":"NORMAL"},"to":{"name":"Destination","lon":-71.121189,"lat":48.400525,"orig":"","vertexType":"NORMAL"},"itineraries":[{"duration":2929,"startTime":1522685337000,"endTime":1522688266000,"walkTime":853,"transitTime":1726,"waitingTime":350,"walkDistance":1108.2817518748352,"walkLimitExceeded":false,"elevationLost":0.0,"elevationGained":0.0,"transfers":1,"legs":[{"startTime":1522685337000,"endTime":1522685619000,"departureDelay":0,"arrivalDelay":0,"realTime":false,"distance":355.24799999999993,"pathway":false,"mode":"WALK","route":"","agencyTimeZoneOffset":-14400000,"interlineWithPreviousLeg":false,"from":{"name":"Origin","lon":-71.116354,"lat":48.311899,"departure":1522685337000,"orig":"","vertexType":"NORMAL"},"to":{"name":"Boulevard / Culture","stopId":"1:319","stopCode":"319","lon":-71.117175,"lat":48.310379,"arrival":1522685619000,"departure":1522685620000,"zoneId":"NA","stopIndex":17,"stopSequence":18,"vertexType":"TRANSIT"},"legGeometry":{"points":"i{zeHh}`qLM\\YdAJx@dAOv@LdB{EvBpBg@xA","length":9},"rentedBike":false,"transitLeg":false,"duration":282.0,"steps":[{"distance":65.608,"relativeDirection":"DEPART","streetName":"Rue du Seigle","absoluteDirection":"NORTHWEST","stayOn":false,"area":false,"bogusName":false,"lon":-71.11652619472528,"lat":48.311731511288194,"elevation":[]},{"distance":170.296,"relativeDirection":"LEFT","streetName":"Rue de la Moisson","absoluteDirection":"SOUTH","stayOn":false,"area":false,"bogusName":false,"lon":-71.1173156,"lat":48.3118788,"elevation":[]},{"distance":79.487,"relativeDirection":"RIGHT","streetName":"Rue de la culture","absoluteDirection":"SOUTHWEST","stayOn":false,"area":false,"bogusName":false,"lon":-71.1162046,"lat":48.3107362,"elevation":[]},{"distance":39.857,"relativeDirection":"RIGHT","streetName":"Rue du Boulevard","absoluteDirection":"NORTHWEST","stayOn":false,"area":false,"bogusName":false,"lon":-71.11677710000001,"lat":48.3101312,"elevation":[]}]},{"startTime":1522685620000,"endTime":1522686944000,"departureDelay":0,"arrivalDelay":0,"realTime":false,"distance":11887.686813683576,"pathway":false,"mode":"BUS","route":"62","agencyName":"Société de Transport du Saguenay","agencyUrl":"http://ville.saguenay.ca/fr/services-aux-citoyens/transport-sts","agencyTimeZoneOffset":-14400000,"routeColor":"00FFFF","routeType":3,"routeId":"1:62","routeTextColor":"000000","interlineWithPreviousLeg":false,"tripBlockId":"73","headsign":"Costco","agencyId":"0","tripId":"1:218619","serviceDate":"20180402","from":{"name":"Boulevard / Culture","stopId":"1:319","stopCode":"319","lon":-71.117175,"lat":48.310379,"arrival":1522685619000,"departure":1522685620000,"zoneId":"NA","stopIndex":17,"stopSequence":18,"vertexType":"TRANSIT"},"to":{"name":"boul. Royaume (no. 1460)","stopId":"1:267","stopCode":"267","lon":-71.1185,"lat":48.388791,"arrival":1522686944000,"departure":1522687292000,"zoneId":"NA","stopIndex":35,"stopSequence":36,"vertexType":"TRANSIT"},"legGeometry":{"points":"irzeH|aaqLkHvSwIrVgDpJ_KjYkAhDqDjJsA|DuGjRi@i@w@gA_@e@e@UmAc@sHmAaIiA_BAM?cADsJn@gAPkAZODcAl@}@j@w@x@ML_BlB_B`DiAlDsBdH_AfCq@zAQ^S\\{BtD}BxCyAvAyA`AqDtAiCn@yD\\w@DKAOCw@c@EAcRwRe@]_AWMAgJeB{BKe@LGDeAj@kAx@cEnC_BlAoAxAeB`DsBbIQbAiAhHk@tFMlAKzAYhCOnCKdDWjGKlAMxAa@vCWnAoBbFkH~Si@lAc@j@WNcAf@{@HiCYcBc@m@Wq@Iu@Qy@_@qBeAkAu@uAm@mImCsA_@yDs@qGk@eB[o@KWCgASaA]cBkAgPsN_FkEwAgAwAsAgAyBe@gBU}AAEMmB_@aEUaB_AeE}BqIy@mCmD{JsAuCu@_Ao@u@y@y@MOsIoKeHaKkEuFSYuAcBqA_BkDgDoBuA{JsFgKgEoBo@aAS_CAeDR}Ej@yHP{BMgBYwC{@kGoCsBs@wAUqAUaCM[eF_@{IE_B?{BBsA@]LkCHaAf@}D\\mBZkA@EXaAxBkGzFmO","length":160},"routeShortName":"62","routeLongName":"Portage des Roches Sud","rentedBike":false,"transitLeg":true,"duration":1324.0,"steps":[]},{"startTime":1522687292000,"endTime":1522687694000,"departureDelay":0,"arrivalDelay":0,"realTime":false,"distance":1725.231775052247,"pathway":false,"mode":"BUS","route":"11","agencyName":"Société de Transport du Saguenay","agencyUrl":"http://ville.saguenay.ca/fr/services-aux-citoyens/transport-sts","agencyTimeZoneOffset":-14400000,"routeColor":"FF0000","routeType":3,"routeId":"1:11","routeTextColor":"FFFFFF","interlineWithPreviousLeg":false,"tripBlockId":"37","headsign":"Terminus Chicoutimi","agencyId":"0","tripId":"1:218315","serviceDate":"20180402","from":{"name":"boul. Royaume (no. 1460)","stopId":"1:267","stopCode":"267","lon":-71.1185,"lat":48.388791,"arrival":1522686944000,"departure":1522687292000,"zoneId":"NA","stopIndex":3,"stopSequence":4,"vertexType":"TRANSIT"},"to":{"name":"Bersimis / Outardes","stopId":"1:98","stopCode":"98","lon":-71.115315,"lat":48.396831,"arrival":1522687694000,"departure":1522687695000,"zoneId":"NA","stopIndex":8,"stopSequence":9,"vertexType":"TRANSIT"},"legGeometry":{"points":"i}ifHfiaqLnDmJzByFO[Q]yBsBiMqLKIsFyFMQ}AuBuCgEmGaISV[|@Qj@K`@AFSlAYvBc@nCi@lCyE`T}@dE","length":24},"routeShortName":"11","routeLongName":"Chic/Faubourg via St-Paul","rentedBike":false,"transitLeg":true,"duration":402.0,"steps":[]},{"startTime":1522687695000,"endTime":1522688266000,"departureDelay":0,"arrivalDelay":0,"realTime":false,"distance":752.883,"pathway":false,"mode":"WALK","route":"","agencyTimeZoneOffset":-14400000,"interlineWithPreviousLeg":false,"from":{"name":"Bersimis / Outardes","stopId":"1:98","stopCode":"98","lon":-71.115315,"lat":48.396831,"arrival":1522687694000,"departure":1522687695000,"zoneId":"NA","stopIndex":8,"stopSequence":9,"vertexType":"TRANSIT"},"to":{"name":"Destination","lon":-71.121189,"lat":48.400525,"arrival":1522688266000,"orig":"","vertexType":"NORMAL"},"legGeometry":{"points":"unkfH`v`qLsLfi@ETuHyE","length":4},"rentedBike":false,"transitLeg":false,"duration":571.0,"steps":[{"distance":563.3770000000001,"relativeDirection":"DEPART","streetName":"Rue Bersimis","absoluteDirection":"NORTHWEST","stayOn":false,"area":false,"bogusName":false,"lon":-71.11536712532182,"lat":48.39675954632351,"elevation":[]},{"distance":189.506,"relativeDirection":"RIGHT","streetName":"Rue de la Grande","absoluteDirection":"NORTHEAST","stayOn":false,"area":false,"bogusName":false,"lon":-71.1222348,"lat":48.398968200000006,"elevation":[]}]}],"tooSloped":false},{"duration":4666,"startTime":1522687658000,"endTime":1522692324000,"walkTime":365,"transitTime":3699,"waitingTime":602,"walkDistance":458.32499247646,"walkLimitExceeded":false,"elevationLost":0.0,"elevationGained":0.0,"transfers":2,"legs":[{"startTime":1522687658000,"endTime":1522687912000,"departureDelay":0,"arrivalDelay":0,"realTime":false,"distance":316.95799999999997,"pathway":false,"mode":"WALK","route":"","agencyTimeZoneOffset":-14400000,"interlineWithPreviousLeg":false,"from":{"name":"Origin","lon":-71.116354,"lat":48.311899,"departure":1522687658000,"orig":"","vertexType":"NORMAL"},"to":{"name":"Boulevard / Culture","stopId":"1:1736","stopCode":"1736","lon":-71.116866,"lat":48.310034,"arrival":1522687912000,"departure":1522687913000,"zoneId":"NA","stopIndex":11,"stopSequence":12,"vertexType":"TRANSIT"},"legGeometry":{"points":"i{zeHh}`qLM\\YdAJx@dAOv@LdB{EvBpB@A","length":9},"rentedBike":false,"transitLeg":false,"duration":254.0,"steps":[{"distance":65.608,"relativeDirection":"DEPART","streetName":"Rue du Seigle","absoluteDirection":"NORTHWEST","stayOn":false,"area":false,"bogusName":false,"lon":-71.11652619472528,"lat":48.311731511288194,"elevation":[]},{"distance":170.296,"relativeDirection":"LEFT","streetName":"Rue de la Moisson","absoluteDirection":"SOUTH","stayOn":false,"area":false,"bogusName":false,"lon":-71.1173156,"lat":48.3118788,"elevation":[]},{"distance":79.487,"relativeDirection":"RIGHT","streetName":"Rue de la culture","absoluteDirection":"SOUTHWEST","stayOn":false,"area":false,"bogusName":false,"lon":-71.1162046,"lat":48.3107362,"elevation":[]},{"distance":1.567,"relativeDirection":"LEFT","streetName":"Rue du Boulevard","absoluteDirection":"SOUTHEAST","stayOn":false,"area":false,"bogusName":false,"lon":-71.11677710000001,"lat":48.3101312,"elevation":[]}]},{"startTime":1522687913000,"endTime":1522689000000,"departureDelay":0,"arrivalDelay":0,"realTime":false,"distance":11233.520438122154,"pathway":false,"mode":"BUS","route":"60","agencyName":"Société de Transport du Saguenay","agencyUrl":"http://ville.saguenay.ca/fr/services-aux-citoyens/transport-sts","agencyTimeZoneOffset":-14400000,"routeColor":"00FFFF","routeType":3,"routeId":"1:60","routeTextColor":"000000","interlineWithPreviousLeg":false,"tripBlockId":"73","headsign":"Costco","agencyId":"0","tripId":"1:218620","serviceDate":"20180402","from":{"name":"Boulevard / Culture","stopId":"1:1736","stopCode":"1736","lon":-71.116866,"lat":48.310034,"arrival":1522687912000,"departure":1522687913000,"zoneId":"NA","stopIndex":11,"stopSequence":12,"vertexType":"TRANSIT"},"to":{"name":"COSTCO","stopId":"1:1710","stopCode":"1710","lon":-71.085767,"lat":48.382333,"arrival":1522689000000,"departure":1522689300000,"zoneId":"NA","stopIndex":29,"stopSequence":30,"vertexType":"TRANSIT"},"legGeometry":{"points":"_qzeHb_aqLv@{Bh@cAf@u@Z]l@e@dBsAjCwBv@u@nA{BdCaGOOqAoBwA{B[i@kF{IyAwDSe@U_@o@eAkDwDoF}Fa@u@iIeQ}Qi`@_@s@a@y@}@_D_Im]y@eCgCwGsDyI]}@_@y@Sc@QSW[mBuAk@Y_@KiAe@a_@_KsUsEcAg@a@YEEcFyFsUsWmB_CqB_CeFoGmAuBi@oAEKiAsBsA{A_As@gEeCy@k@iBkBgGuG[Ya@_@qFuEg@e@qAeB{BcDq@{@iAsAgYc[qJkKyN{Ok@o@{BoAc@Sm@lBcFzO}@rB}@bBcCxCsAjAcAr@eClAsJdEoF~BsJdEsJbE@D_VpLiDtAqA\\cAp@[XY^O^Mb@Ij@Er@CtAE~@I~@Kj@Od@_e@rkAUReFdMIXyCtHwBcC","length":109},"routeShortName":"60","routeLongName":"Portage des Roches Nord","rentedBike":false,"transitLeg":true,"duration":1087.0,"steps":[]},{"startTime":1522689300000,"endTime":1522690800000,"departureDelay":0,"arrivalDelay":0,"realTime":false,"distance":7720.38554651896,"pathway":false,"mode":"BUS","route":"175","agencyName":"Société de Transport du Saguenay","agencyUrl":"http://ville.saguenay.ca/fr/services-aux-citoyens/transport-sts","agencyTimeZoneOffset":-14400000,"routeColor":"FF00FF","routeType":3,"routeId":"1:175","routeTextColor":"FFFFFF","interlineWithPreviousLeg":false,"tripBlockId":"9","headsign":"Terminus Chicoutimi","agencyId":"0","tripId":"1:217405","serviceDate":"20180402","from":{"name":"COSTCO","stopId":"1:1710","stopCode":"1710","lon":-71.085767,"lat":48.382333,"arrival":1522689000000,"departure":1522689300000,"zoneId":"NA","stopIndex":0,"stopSequence":1,"vertexType":"TRANSIT"},"to":{"name":"Terminus Chicoutimi","stopId":"1:1289","stopCode":"1289","lon":-71.066163,"lat":48.428677,"arrival":1522690800000,"departure":1522691100000,"zoneId":"NA","stopIndex":27,"stopSequence":28,"vertexType":"TRANSIT"},"legGeometry":{"points":"euhfHt|zpL_BiBsCoDwCqDrCsGN_@uEoFoEiFUWSUqCwC]a@{ByC{@cAkJuKoAwA_CeCeExJ~AlB`@mAu@k@}@q@|C}Iw@}@aO_QkEsEiAoAgEsFkFsHqJ_N}FkImPkOuO{N_U_TcNgNcBcB{E`Jc@x@qG~@{BlAk@XgSrQqB_GAeFiEeEOt@gAeA_A_ATm@yAwAgBeBqDnL@nBF`@f@|C[dCuAfB]xAs@OmCmCmEkE]a@g@i@ZiGTmEl@oLaEe@cFk@?pH?tJDvBPjMB~Bo@PQDRbFKdGMhIOvIK|EQpHoCQEdC","length":83},"routeShortName":"175","routeLongName":"Term. Chic / Costco","rentedBike":false,"transitLeg":true,"duration":1500.0,"steps":[]},{"startTime":1522691100000,"endTime":1522692212000,"departureDelay":0,"arrivalDelay":0,"realTime":false,"distance":6648.1812050144035,"pathway":false,"mode":"BUS","route":"11","agencyName":"Société de Transport du Saguenay","agencyUrl":"http://ville.saguenay.ca/fr/services-aux-citoyens/transport-sts","agencyTimeZoneOffset":-14400000,"routeColor":"FF0000","routeType":3,"routeId":"1:11","routeTextColor":"FFFFFF","interlineWithPreviousLeg":false,"tripBlockId":"35","headsign":"Boul.Royaume/St-Pierre","agencyId":"0","tripId":"1:218256","serviceDate":"20180402","from":{"name":"Terminus Chicoutimi","stopId":"1:1289","stopCode":"1289","lon":-71.066163,"lat":48.428677,"arrival":1522690800000,"departure":1522691100000,"zoneId":"NA","stopIndex":0,"stopSequence":1,"vertexType":"TRANSIT"},"to":{"name":"Manic / Grande","stopId":"1:481","stopCode":"481","lon":-71.120188,"lat":48.401528,"arrival":1522692212000,"departure":1522692213000,"zoneId":"NA","stopIndex":22,"stopSequence":23,"vertexType":"TRANSIT"},"legGeometry":{"points":"evqfHzcwpLk@?UhKfIh@dKp@GnDIfDOtEE~@Ff@x@rEF~@CbAALO~ADRNJXBr@DfGRPBPJLN@@FPFTBX?TE`BhBR@?J@NELKFOlAiDL[bA`AfIjIbGdGzDzD`A~An@`ApApBpClEvJrOR\\bAfBLa@t@]LjAVvAVbAVv@^bAXj@b@t@xEtGh@r@n@x@FDjA|AlBpCnJ|NNTX`@V`@eCtHpFjH{FhPcB|Ft@|CEAdCnEdHKrBz@lGiQ|CyI~IrJtAzAmKrWsE`LzJjL|P}d@Ri@hCpEpBdCHJzPrR_AhC}Ppd@KZkDxJq@`CyGfZ","length":95},"routeShortName":"11","routeLongName":"Chic/Faubourg via St-Paul","rentedBike":false,"transitLeg":true,"duration":1112.0,"steps":[]},{"startTime":1522692213000,"endTime":1522692324000,"departureDelay":0,"arrivalDelay":0,"realTime":false,"distance":141.22,"pathway":false,"mode":"WALK","route":"","agencyTimeZoneOffset":-14400000,"interlineWithPreviousLeg":false,"from":{"name":"Manic / Grande","stopId":"1:481","stopCode":"481","lon":-71.120188,"lat":48.401528,"arrival":1522692212000,"departure":1522692213000,"zoneId":"NA","stopIndex":22,"stopSequence":23,"vertexType":"TRANSIT"},"to":{"name":"Destination","lon":-71.121189,"lat":48.400525,"arrival":1522692324000,"orig":"","vertexType":"NORMAL"},"legGeometry":{"points":"ellfHltaqLKd@jEpC","length":3},"rentedBike":false,"transitLeg":false,"duration":111.0,"steps":[{"distance":15.454,"relativeDirection":"DEPART","streetName":"Rue de la Manic","absoluteDirection":"NORTHWEST","stayOn":false,"area":false,"bogusName":false,"lon":-71.12022834092811,"lat":48.40147292261392,"elevation":[]},{"distance":125.766,"relativeDirection":"LEFT","streetName":"Rue de la Grande","absoluteDirection":"SOUTHWEST","stayOn":false,"area":false,"bogusName":false,"lon":-71.1204166,"lat":48.4015337,"elevation":[]}]}],"tooSloped":false},{"duration":3705,"startTime":1522699932000,"endTime":1522703637000,"walkTime":2050,"transitTime":1653,"waitingTime":2,"walkDistance":2667.2853383382703,"walkLimitExceeded":false,"elevationLost":0.0,"elevationGained":0.0,"transfers":0,"legs":[{"startTime":1522699932000,"endTime":1522700186000,"departureDelay":0,"arrivalDelay":0,"realTime":false,"distance":316.95799999999997,"pathway":false,"mode":"WALK","route":"","agencyTimeZoneOffset":-14400000,"interlineWithPreviousLeg":false,"from":{"name":"Origin","lon":-71.116354,"lat":48.311899,"departure":1522699932000,"orig":"","vertexType":"NORMAL"},"to":{"name":"Boulevard / Culture","stopId":"1:1736","stopCode":"1736","lon":-71.116866,"lat":48.310034,"arrival":1522700186000,"departure":1522700187000,"zoneId":"NA","stopIndex":12,"stopSequence":13,"vertexType":"TRANSIT"},"legGeometry":{"points":"i{zeHh}`qLM\\YdAJx@dAOv@LdB{EvBpB@A","length":9},"rentedBike":false,"transitLeg":false,"duration":254.0,"steps":[{"distance":65.608,"relativeDirection":"DEPART","streetName":"Rue du Seigle","absoluteDirection":"NORTHWEST","stayOn":false,"area":false,"bogusName":false,"lon":-71.11652619472528,"lat":48.311731511288194,"elevation":[]},{"distance":170.296,"relativeDirection":"LEFT","streetName":"Rue de la Moisson","absoluteDirection":"SOUTH","stayOn":false,"area":false,"bogusName":false,"lon":-71.1173156,"lat":48.3118788,"elevation":[]},{"distance":79.487,"relativeDirection":"RIGHT","streetName":"Rue de la culture","absoluteDirection":"SOUTHWEST","stayOn":false,"area":false,"bogusName":false,"lon":-71.1162046,"lat":48.3107362,"elevation":[]},{"distance":1.567,"relativeDirection":"LEFT","streetName":"Rue du Boulevard","absoluteDirection":"SOUTHEAST","stayOn":false,"area":false,"bogusName":false,"lon":-71.11677710000001,"lat":48.3101312,"elevation":[]}]},{"startTime":1522700187000,"endTime":1522701240000,"departureDelay":0,"arrivalDelay":0,"realTime":false,"distance":11233.520438122154,"pathway":false,"mode":"BUS","route":"62","agencyName":"Société de Transport du Saguenay","agencyUrl":"http://ville.saguenay.ca/fr/services-aux-citoyens/transport-sts","agencyTimeZoneOffset":-14400000,"routeColor":"00FFFF","routeType":3,"routeId":"1:62","routeTextColor":"000000","interlineWithPreviousLeg":false,"tripBlockId":"107","headsign":"Costco","agencyId":"0","tripId":"1:218822","serviceDate":"20180402","from":{"name":"Boulevard / Culture","stopId":"1:1736","stopCode":"1736","lon":-71.116866,"lat":48.310034,"arrival":1522700186000,"departure":1522700187000,"zoneId":"NA","stopIndex":12,"stopSequence":13,"vertexType":"TRANSIT"},"to":{"name":"COSTCO","stopId":"1:1710","stopCode":"1710","lon":-71.085767,"lat":48.382333,"arrival":1522701240000,"departure":1522701600000,"zoneId":"NA","stopIndex":30,"stopSequence":31,"vertexType":"TRANSIT"},"legGeometry":{"points":"_qzeHb_aqLv@{Bh@cAf@u@Z]l@e@dBsAjCwBv@u@nA{BdCaGOOqAoBwA{B[i@kF{IyAwDSe@U_@o@eAkDwDoF}Fa@u@iIeQ}Qi`@_@s@a@y@}@_D_Im]y@eCgCwGsDyI]}@_@y@Sc@QSW[mBuAk@Y_@KiAe@a_@_KsUsEcAg@a@YEEcFyFsUsWmB_CqB_CeFoGmAuBi@oAEKiAsBsA{A_As@gEeCy@k@iBkBgGuG[Ya@_@qFuEg@e@qAeB{BcDq@{@iAsAgYc[qJkKyN{Ok@o@{BoAc@Sm@lBcFzO}@rB}@bBcCxCsAjAcAr@eClAsJdEoF~BsJdEsJbEAC{TpJmHjCiEhAHz@d@pGE~@I~@Kj@Od@_e@rkAUReFdMIXyCtHwBcC","length":103},"routeShortName":"62","routeLongName":"Portage des Roches Sud","rentedBike":false,"transitLeg":true,"duration":1053.0,"steps":[]},{"startTime":1522701600000,"endTime":1522701840000,"departureDelay":0,"arrivalDelay":0,"realTime":false,"distance":2271.403230666254,"pathway":false,"mode":"BUS","route":"60","agencyName":"Société de Transport du Saguenay","agencyUrl":"http://ville.saguenay.ca/fr/services-aux-citoyens/transport-sts","agencyTimeZoneOffset":-14400000,"routeColor":"00FFFF","routeType":3,"routeId":"1:60","routeTextColor":"000000","interlineWithPreviousLeg":true,"tripBlockId":"107","headsign":"chemin Portageurs","agencyId":"0","tripId":"1:218823","serviceDate":"20180402","from":{"name":"COSTCO","stopId":"1:1710","stopCode":"1710","lon":-71.085767,"lat":48.382333,"arrival":1522701240000,"departure":1522701600000,"zoneId":"NA","stopIndex":0,"stopSequence":1,"vertexType":"TRANSIT"},"to":{"name":"St-Paul / boul. Royaume","stopId":"1:1607","stopCode":"1607","lon":-71.115594,"lat":48.387321,"arrival":1522701840000,"departure":1522701841000,"zoneId":"NA","stopIndex":1,"stopSequence":2,"vertexType":"TRANSIT"},"legGeometry":{"points":"uthfHh}zpLoB}Bs@`BjChDZbB`@x@iDvI}@fC_AvC[jAi@`CUbBUxBUdCIlD]to@K`IEt@ElBQlEMrBWvDa@jEq@nFa@rC_AnFi@bCo@pCiAbEyCdJNZPT","length":32},"routeShortName":"60","routeLongName":"Portage des Roches Nord","rentedBike":false,"transitLeg":true,"duration":240.0,"steps":[]},{"startTime":1522701841000,"endTime":1522703637000,"departureDelay":0,"arrivalDelay":0,"realTime":false,"distance":2350.0919999999996,"pathway":false,"mode":"WALK","route":"","agencyTimeZoneOffset":-14400000,"interlineWithPreviousLeg":false,"from":{"name":"St-Paul / boul. Royaume","stopId":"1:1607","stopCode":"1607","lon":-71.115594,"lat":48.387321,"arrival":1522701840000,"departure":1522701841000,"zoneId":"NA","stopIndex":1,"stopSequence":2,"vertexType":"TRANSIT"},"to":{"name":"Destination","lon":-71.121189,"lat":48.400525,"arrival":1522703637000,"orig":"","vertexType":"NORMAL"},"legGeometry":{"points":"gtifHzv`qL@EHUYKKMaHwGyEmEa@_@qCgCu@}@eBoBIKyC_EqC{D]e@aEaFERm@nBK\\AFi@`FeHt[A@k@fCQz@sLfi@ETuHyE","length":28},"rentedBike":false,"transitLeg":false,"duration":1796.0,"steps":[{"distance":12.721,"relativeDirection":"DEPART","streetName":"Boulevard du Royaume Ouest","absoluteDirection":"SOUTHEAST","stayOn":false,"area":false,"bogusName":false,"lon":-71.11549227863343,"lat":48.38740979253505,"elevation":[]},{"distance":966.9380000000001,"relativeDirection":"LEFT","streetName":"Boulevard Saint-Paul","absoluteDirection":"NORTH","stayOn":false,"area":false,"bogusName":false,"lon":-71.1153551,"lat":48.3873406,"elevation":[]},{"distance":1180.9270000000001,"relativeDirection":"LEFT","streetName":"Rue Bersimis","absoluteDirection":"NORTHWEST","stayOn":false,"area":false,"bogusName":false,"lon":-71.1078057,"lat":48.394420100000005,"elevation":[]},{"distance":189.506,"relativeDirection":"RIGHT","streetName":"Rue de la Grande","absoluteDirection":"NORTHEAST","stayOn":false,"area":false,"bogusName":false,"lon":-71.1222348,"lat":48.398968200000006,"elevation":[]}]}],"tooSloped":false}]},"debugOutput":{"precalculationTime":2,"pathCalculationTime":15,"pathTimes":[7,6,2],"renderingTime":0,"totalTime":17,"timedOut":false},"elevationMetadata":{"ellipsoidToGeoidDifference":-28.885904201182168,"geoidElevation":false}}