{"requestParameters":{"date":"2018/04/02","walkSpeed":"1.33","walkReluctance":"2.0","fromPlace":"48.423148,-71.052406","maxWalkDistance":"3000","waitReluctance":"1.0","carSpeed":"33","numItineraries":"3","waitAtBeginningFactor":"0.4","mode":"TRANSIT,WALK","ignoreRealtimeUpdates":"false","stairsReluctance":"2.0","toPlace":"48.311792,-71.116123","time":"10:0:00"},"plan":{"date":1522677600000,"from":{"name":"Origin","lon":-71.052406,"lat":48.423148,"orig":"","vertexType":"NORMAL"},"to":{"name":"Destination","lon":-71.116123,"lat":48.311792,"orig":"","vertexType":"NORMAL"},"itineraries":[{"duration":3568,"startTime":1522682348000,"endTime":1522685916000,"walkTime":506,"transitTime":2280,"waitingTime":782,"walkDistance":632.2946090163091,"walkLimitExceeded":false,"elevationLost":0.0,"elevationGained":0.0,"transfers":1,"legs":[{"startTime":1522682348000,"endTime":1522682559000,"departureDelay":0,"arrivalDelay":0,"realTime":false,"distance":256.03600000000006,"pathway":false,"mode":"WALK","route":"","agencyTimeZoneOffset":-14400000,"interlineWithPreviousLeg":false,"from":{"name":"Origin","lon":-71.052406,"lat":48.423148,"departure":1522682348000,"orig":"","vertexType":"NORMAL"},"to":{"name":"Cégep de Chicoutimi (voie réservée)","stopId":"1:75","stopCode":"75","lon":-71.055283,"lat":48.422761,"arrival":1522682559000,"departure":1522682560000,"zoneId":"NA","stopIndex":9,"stopSequence":10,"vertexType":"TRANSIT"},"legGeometry":{"points":"qspfHpltpL?n@CVWrBOpAP`AN`ANnCJAZELAFh@","length":12},"rentedBike":false,"transitLeg":false,"duration":211.0,"steps":[{"distance":239.42900000000003,"relativeDirection":"DEPART","streetName":"service road","absoluteDirection":"WEST","stayOn":false,"area":false,"bogusName":false,"lon":-71.05240568397582,"lat":48.423135724671475,"elevation":[]},{"distance":16.607,"relativeDirection":"RIGHT","streetName":"Chemin Saint Thomas","absoluteDirection":"WEST","stayOn":false,"area":false,"bogusName":false,"lon":-71.0550802,"lat":48.4228351,"elevation":[]}]},{"startTime":1522682560000,"endTime":1522683720000,"departureDelay":0,"arrivalDelay":0,"realTime":false,"distance":6334.221206958508,"pathway":false,"mode":"BUS","route":"175","agencyName":"Société de Transport du Saguenay","agencyUrl":"http://ville.saguenay.ca/fr/services-aux-citoyens/transport-sts","agencyTimeZoneOffset":-14400000,"routeColor":"FF00FF","routeType":3,"routeId":"1:175","routeTextColor":"FFFFFF","interlineWithPreviousLeg":false,"tripBlockId":"6","headsign":"Costco","agencyId":"0","tripId":"1:217294","serviceDate":"20180402","from":{"name":"Cégep de Chicoutimi (voie réservée)","stopId":"1:75","stopCode":"75","lon":-71.055283,"lat":48.422761,"arrival":1522682559000,"departure":1522682560000,"zoneId":"NA","stopIndex":9,"stopSequence":10,"vertexType":"TRANSIT"},"to":{"name":"COSTCO","stopId":"1:1710","stopCode":"1710","lon":-71.085767,"lat":48.382333,"arrival":1522683720000,"departure":1522684500000,"zoneId":"NA","stopIndex":30,"stopSequence":31,"vertexType":"TRANSIT"},"legGeometry":{"points":"oqpfHr~tpLC]g@yEzDuLbBbBvAxAMx@|@v@`A~@Xw@~D~DPxFZtA~ApE`N{LpFmEb@[ROl@[vDQXKfA[|@q@fAsBlEmMr@sBhCsKz@dAjB|@dM`GzCvAXrCr@~Gx@]PEr@ObACn@FrBb@|@Ch@Kx@U~HsB^KZ|DJpII~Fa@rFUzBi@bDUxAm@nCcAlDM^RTfD`DjF`FjCrCrAvAbCfDjIfMdAzAfFpHd@n@nC`DlXv[b@f@mCtHv@v@p@r@_@p@uAcBjDoJhAzApBrBrFvGjDdEbD|DZb@~DrEbDfDrA~ApLbNpG|GyCtHwBcC","length":86},"routeShortName":"175","routeLongName":"Term. Chic / Costco","rentedBike":false,"transitLeg":true,"duration":1160.0,"steps":[]},{"startTime":1522684500000,"endTime":1522685620000,"departureDelay":0,"arrivalDelay":0,"realTime":false,"distance":14795.97921397807,"pathway":false,"mode":"BUS","route":"62","agencyName":"Société de Transport du Saguenay","agencyUrl":"http://ville.saguenay.ca/fr/services-aux-citoyens/transport-sts","agencyTimeZoneOffset":-14400000,"routeColor":"00FFFF","routeType":3,"routeId":"1:62","routeTextColor":"000000","interlineWithPreviousLeg":false,"tripBlockId":"73","headsign":"Costco","agencyId":"0","tripId":"1:218619","serviceDate":"20180402","from":{"name":"COSTCO","stopId":"1:1710","stopCode":"1710","lon":-71.085767,"lat":48.382333,"arrival":1522683720000,"departure":1522684500000,"zoneId":"NA","stopIndex":0,"stopSequence":1,"vertexType":"TRANSIT"},"to":{"name":"Boulevard / Culture","stopId":"1:319","stopCode":"319","lon":-71.117175,"lat":48.310379,"arrival":1522685620000,"departure":1522685621000,"zoneId":"NA","stopIndex":17,"stopSequence":18,"vertexType":"TRANSIT"},"legGeometry":{"points":"uthfHh}zpLUYyAcBs@`BjChDJn@Nr@`@x@PNlFwMHWbFmMBc@~d@skANe@Jk@H_AD_ABuADs@Hk@Lc@N_@X_@ZYbAq@pA]hDuA~UqLAEjJ_EjRiIrJeEdCmAbAs@rAkAbCyC|@cB|@sBpEkN|cA}`D~@wCz@~@~GjH|^d`@fNxNng@di@dJrJ`aAtcA`@d@RZJVNn@Dr@nAp_@HzAHx@ZxAlDzN|DlPjIn]P~@JbB@b@?b@IdAiA|KObAU`A_HfTCDt_AzaA^h@BFDTBV?VATADwBlGCPCl@Jt@pBnG^pBFd@DlAEdCGhCElAg@pG?nAF~@PnAVxAp@lF^`B^dAxAnC@@pAzAr@lAPp@Lj@Dh@HjB@fAWzFA~BQAOAQGWMk@k@QSM[M_@IY_@_AQWSO_DcBUEYLa@VWLYPyGrNeC`GoAzBw@t@kCvBkBvAg@`@[\\g@t@i@bACF}AlE","length":139},"routeShortName":"62","routeLongName":"Portage des Roches Sud","rentedBike":false,"transitLeg":true,"duration":1120.0,"steps":[]},{"startTime":1522685621000,"endTime":1522685916000,"departureDelay":0,"arrivalDelay":0,"realTime":false,"distance":376.065,"pathway":false,"mode":"WALK","route":"","agencyTimeZoneOffset":-14400000,"interlineWithPreviousLeg":false,"from":{"name":"Boulevard / Culture","stopId":"1:319","stopCode":"319","lon":-71.117175,"lat":48.310379,"arrival":1522685620000,"departure":1522685621000,"zoneId":"NA","stopIndex":17,"stopSequence":18,"vertexType":"TRANSIT"},"to":{"name":"Destination","lon":-71.116123,"lat":48.311792,"arrival":1522685916000,"orig":"","vertexType":"NORMAL"},"legGeometry":{"points":"qrzeHtaaqLf@yAwBqBeBzEw@MeANKy@XeAb@kA","length":9},"rentedBike":false,"transitLeg":false,"duration":295.0,"steps":[{"distance":39.857,"relativeDirection":"DEPART","streetName":"Rue du Boulevard","absoluteDirection":"SOUTHEAST","stayOn":false,"area":false,"bogusName":false,"lon":-71.11722134605982,"lat":48.310334116525226,"elevation":[]},{"distance":79.487,"relativeDirection":"LEFT","streetName":"Rue de la culture","absoluteDirection":"NORTHEAST","stayOn":false,"area":false,"bogusName":false,"lon":-71.11677710000001,"lat":48.3101312,"elevation":[]},{"distance":170.296,"relativeDirection":"LEFT","streetName":"Rue de la Moisson","absoluteDirection":"NORTHWEST","stayOn":false,"area":false,"bogusName":false,"lon":-71.1162046,"lat":48.3107362,"elevation":[]},{"distance":86.425,"relativeDirection":"RIGHT","streetName":"Rue du Seigle","absoluteDirection":"EAST","stayOn":false,"area":false,"bogusName":false,"lon":-71.1173156,"lat":48.3118788,"elevation":[]}]}],"tooSloped":false},{"duration":3133,"startTime":1522685048000,"endTime":1522688181000,"walkTime":478,"transitTime":1873,"waitingTime":782,"walkDistance":594.0019774374466,"walkLimitExceeded":false,"elevationLost":0.0,"elevationGained":0.0,"transfers":1,"legs":[{"startTime":1522685048000,"endTime":1522685259000,"departureDelay":0,"arrivalDelay":0,"realTime":false,"distance":256.03600000000006,"pathway":false,"mode":"WALK","route":"","agencyTimeZoneOffset":-14400000,"interlineWithPreviousLeg":false,"from":{"name":"Origin","lon":-71.052406,"lat":48.423148,"departure":1522685048000,"orig":"","vertexType":"NORMAL"},"to":{"name":"Cégep de Chicoutimi (voie réservée)","stopId":"1:75","stopCode":"75","lon":-71.055283,"lat":48.422761,"arrival":1522685259000,"departure":1522685260000,"zoneId":"NA","stopIndex":9,"stopSequence":10,"vertexType":"TRANSIT"},"legGeometry":{"points":"qspfHpltpL?n@CVWrBOpAP`AN`ANnCJAZELAFh@","length":12},"rentedBike":false,"transitLeg":false,"duration":211.0,"steps":[{"distance":239.42900000000003,"relativeDirection":"DEPART","streetName":"service road","absoluteDirection":"WEST","stayOn":false,"area":false,"bogusName":false,"lon":-71.05240568397582,"lat":48.423135724671475,"elevation":[]},{"distance":16.607,"relativeDirection":"RIGHT","streetName":"Chemin Saint Thomas","absoluteDirection":"WEST","stayOn":false,"area":false,"bogusName":false,"lon":-71.0550802,"lat":48.4228351,"elevation":[]}]},{"startTime":1522685260000,"endTime":1522686420000,"departureDelay":0,"arrivalDelay":0,"realTime":false,"distance":6334.221206958508,"pathway":false,"mode":"BUS","route":"175","agencyName":"Société de Transport du Saguenay","agencyUrl":"http://ville.saguenay.ca/fr/services-aux-citoyens/transport-sts","agencyTimeZoneOffset":-14400000,"routeColor":"FF00FF","routeType":3,"routeId":"1:175","routeTextColor":"FFFFFF","interlineWithPreviousLeg":false,"tripBlockId":"78","headsign":"Costco","agencyId":"0","tripId":"1:218643","serviceDate":"20180402","from":{"name":"Cégep de Chicoutimi (voie réservée)","stopId":"1:75","stopCode":"75","lon":-71.055283,"lat":48.422761,"arrival":1522685259000,"departure":1522685260000,"zoneId":"NA","stopIndex":9,"stopSequence":10,"vertexType":"TRANSIT"},"to":{"name":"COSTCO","stopId":"1:1710","stopCode":"1710","lon":-71.085767,"lat":48.382333,"arrival":1522686420000,"departure":1522687200000,"zoneId":"NA","stopIndex":30,"stopSequence":31,"vertexType":"TRANSIT"},"legGeometry":{"points":"oqpfHr~tpLC]g@yEzDuLbBbBvAxAMx@|@v@`A~@Xw@~D~DPxFZtA~ApE`N{LpFmEb@[ROl@[vDQXKfA[|@q@fAsBlEmMr@sBhCsKz@dAjB|@dM`GzCvAXrCr@~Gx@]PEr@ObACn@FrBb@|@Ch@Kx@U~HsB^KZ|DJpII~Fa@rFUzBi@bDUxAm@nCcAlDM^RTfD`DjF`FjCrCrAvAbCfDjIfMdAzAfFpHd@n@nC`DlXv[b@f@mCtHv@v@p@r@_@p@uAcBjDoJhAzApBrBrFvGjDdEbD|DZb@~DrEbDfDrA~ApLbNpG|GyCtHwBcC","length":86},"routeShortName":"175","routeLongName":"Term. Chic / Costco","rentedBike":false,"transitLeg":true,"duration":1160.0,"steps":[]},{"startTime":1522687200000,"endTime":1522687913000,"departureDelay":0,"arrivalDelay":0,"realTime":false,"distance":12422.394472284284,"pathway":false,"mode":"BUS","route":"60","agencyName":"Société de Transport du Saguenay","agencyUrl":"http://ville.saguenay.ca/fr/services-aux-citoyens/transport-sts","agencyTimeZoneOffset":-14400000,"routeColor":"00FFFF","routeType":3,"routeId":"1:60","routeTextColor":"000000","interlineWithPreviousLeg":false,"tripBlockId":"73","headsign":"Costco","agencyId":"0","tripId":"1:218620","serviceDate":"20180402","from":{"name":"COSTCO","stopId":"1:1710","stopCode":"1710","lon":-71.085767,"lat":48.382333,"arrival":1522686420000,"departure":1522687200000,"zoneId":"NA","stopIndex":0,"stopSequence":1,"vertexType":"TRANSIT"},"to":{"name":"Boulevard / Culture","stopId":"1:1736","stopCode":"1736","lon":-71.116866,"lat":48.310034,"arrival":1522687913000,"departure":1522687914000,"zoneId":"NA","stopIndex":11,"stopSequence":12,"vertexType":"TRANSIT"},"legGeometry":{"points":"uthfHh}zpLoB}Bs@`BjChDZbB`@x@iDvI}@fC_AvC[jAi@`CUbBUxBUdCIlD]to@K`IEt@ElBQlEMrBWvDa@jEq@nFa@rC_AnFi@bCo@pCiAbEEFsC|INZxAfB~DjFxFfFzAdBbA`BlA|Bt@z@z@x@zAhAbBjAfKlGz@~@vApBbApAbDdDdExDLJpIjIvAzBlBdDbAbBfAtAt@|@|@~@tHhHhBlCrCfFx@fAT^bA`AjC~BdI~JpGjHt@bA`AdAvb@xf@`EvEjFjFxAtAd@j@l@z@xC`Fn@v@NNNJ^Xj@Xv@Zz@ZND`@Lx@Rp@LXDrDH|@?p@?VCN?D?VK`@ONIZUVS^]Zc@t@wATs@P}@F_@Jm@JcA@QPsA\\uBXuAdAqDLe@H]zAuHd@kBzAuFXy@NYXg@f@g@|@{@dAy@vC{Br@m@RQRWVa@b@_AdC}Gn@aBl@{Aj@oATe@b@i@\\Y\\Qd@QvDy@r@Ud@Up@i@Z[X]^i@LUL_@^gAxGgUVaAPq@PaAL{@Fq@@eACoBKwFAiCD_AFe@V_AbVqq@Pw@bl@bm@~A|AtE|DnEnDjDdCf`@vVbCdBnAfAjClCpDkJjAgD`KqYbDiJpIeV|IcW","length":176},"routeShortName":"60","routeLongName":"Portage des Roches Nord","rentedBike":false,"transitLeg":true,"duration":713.0,"steps":[]},{"startTime":1522687914000,"endTime":1522688181000,"departureDelay":0,"arrivalDelay":0,"realTime":false,"distance":337.775,"pathway":false,"mode":"WALK","route":"","agencyTimeZoneOffset":-14400000,"interlineWithPreviousLeg":false,"from":{"name":"Boulevard / Culture","stopId":"1:1736","stopCode":"1736","lon":-71.116866,"lat":48.310034,"arrival":1522687913000,"departure":1522687914000,"zoneId":"NA","stopIndex":11,"stopSequence":12,"vertexType":"TRANSIT"},"to":{"name":"Destination","lon":-71.116123,"lat":48.311792,"arrival":1522688181000,"orig":"","vertexType":"NORMAL"},"legGeometry":{"points":"gqzeHx~`qLA@wBqBeBzEw@MeANKy@XeAb@kA","length":9},"rentedBike":false,"transitLeg":false,"duration":267.0,"steps":[{"distance":1.567,"relativeDirection":"DEPART","streetName":"Rue du Boulevard","absoluteDirection":"NORTHWEST","stayOn":false,"area":false,"bogusName":false,"lon":-71.1167604981061,"lat":48.31012243914006,"elevation":[]},{"distance":79.487,"relativeDirection":"RIGHT","streetName":"Rue de la culture","absoluteDirection":"NORTHEAST","stayOn":false,"area":false,"bogusName":false,"lon":-71.11677710000001,"lat":48.3101312,"elevation":[]},{"distance":170.296,"relativeDirection":"LEFT","streetName":"Rue de la Moisson","absoluteDirection":"NORTHWEST","stayOn":false,"area":false,"bogusName":false,"lon":-71.1162046,"lat":48.3107362,"elevation":[]},{"distance":86.425,"relativeDirection":"RIGHT","streetName":"Rue du Seigle","absoluteDirection":"EAST","stayOn":false,"area":false,"bogusName":false,"lon":-71.1173156,"lat":48.3118788,"elevation":[]}]}],"tooSloped":false},{"duration":3714,"startTime":1522695795000,"endTime":1522699509000,"walkTime":1326,"transitTime":2386,"waitingTime":2,"walkDistance":1698.5074436000705,"walkLimitExceeded":false,"elevationLost":0.0,"elevationGained":0.0,"transfers":0,"legs":[{"startTime":1522695795000,"endTime":1522696826000,"departureDelay":0,"arrivalDelay":0,"realTime":false,"distance":1322.1650000000002,"pathway":false,"mode":"WALK","route":"","agencyTimeZoneOffset":-14400000,"interlineWithPreviousLeg":false,"from":{"name":"Origin","lon":-71.052406,"lat":48.423148,"departure":1522695795000,"orig":"","vertexType":"NORMAL"},"to":{"name":"Chabanel / Sydenham","stopId":"1:351","stopCode":"351","lon":-71.038949,"lat":48.41822,"arrival":1522696826000,"departure":1522696827000,"zoneId":"NA","stopIndex":1,"stopSequence":2,"vertexType":"TRANSIT"},"legGeometry":{"points":"qspfHpltpL?g@CcBIUMc@[Q]QXcCKGe@[KIBg@Ha@Ry@r@E|@Yh@g@FE`A_A\\a@n@wAl@eBn@cBRk@nBoFnAgDFSNa@nAoDJ[L_@HYnAkDVu@t@uBhAmDzCiJ{@{@","length":38},"rentedBike":false,"transitLeg":false,"duration":1031.0,"steps":[{"distance":162.836,"relativeDirection":"DEPART","streetName":"service road","absoluteDirection":"EAST","stayOn":false,"area":false,"bogusName":false,"lon":-71.05240568397582,"lat":48.423135724671475,"elevation":[]},{"distance":37.986,"relativeDirection":"LEFT","streetName":"road","absoluteDirection":"NORTHEAST","stayOn":false,"area":false,"bogusName":true,"lon":-71.0505725,"lat":48.4234394,"elevation":[]},{"distance":52.897,"relativeDirection":"RIGHT","streetName":"path","absoluteDirection":"EAST","stayOn":true,"area":false,"bogusName":true,"lon":-71.0503491,"lat":48.423747000000006,"elevation":[]},{"distance":1029.27,"relativeDirection":"RIGHT","streetName":"Chemin Sydenham","absoluteDirection":"SOUTH","stayOn":false,"area":false,"bogusName":false,"lon":-71.0496871,"lat":48.42357620000001,"elevation":[]},{"distance":39.176,"relativeDirection":"LEFT","streetName":"Rue Chabanel","absoluteDirection":"NORTHEAST","stayOn":false,"area":false,"bogusName":false,"lon":-71.03911190000001,"lat":48.417869,"elevation":[]}]},{"startTime":1522696827000,"endTime":1522697700000,"departureDelay":0,"arrivalDelay":0,"realTime":false,"distance":5296.805845747442,"pathway":false,"mode":"BUS","route":"208S","agencyName":"Société de Transport du Saguenay","agencyUrl":"http://ville.saguenay.ca/fr/services-aux-citoyens/transport-sts","agencyTimeZoneOffset":-14400000,"routeColor":"8B0000","routeType":3,"routeId":"1:208S","routeTextColor":"FFFFFF","interlineWithPreviousLeg":false,"tripBlockId":"107","headsign":"Costco","agencyId":"0","tripId":"1:218820","serviceDate":"20180402","from":{"name":"Chabanel / Sydenham","stopId":"1:351","stopCode":"351","lon":-71.038949,"lat":48.41822,"arrival":1522696826000,"departure":1522696827000,"zoneId":"NA","stopIndex":1,"stopSequence":2,"vertexType":"TRANSIT"},"to":{"name":"COSTCO","stopId":"1:1710","stopCode":"1710","lon":-71.085767,"lat":48.382333,"arrival":1522697700000,"departure":1522698000000,"zoneId":"NA","stopIndex":10,"stopSequence":11,"vertexType":"TRANSIT"},"legGeometry":{"points":"qtofHzwqpLx@x@}JpZGLMb@|CfBhAn@nCtBrAjAbj@xk@nCjCLJ`j@lg@RTfD`DjF`FjCrCrAvAbCfDjIfMdAzAfFpHd@n@nC`DlXv[j@n@dEfErFvGjDdEbD|DZb@~DrEbDfDrA~AhD~DfGbHpG|GyCtHwBcC","length":39},"routeShortName":"208S","routeLongName":"Séminaire - Laterrière","rentedBike":false,"transitLeg":true,"duration":873.0,"steps":[]},{"startTime":1522698000000,"endTime":1522699213000,"departureDelay":0,"arrivalDelay":0,"realTime":false,"distance":14795.97921397807,"pathway":false,"mode":"BUS","route":"62","agencyName":"Société de Transport du Saguenay","agencyUrl":"http://ville.saguenay.ca/fr/services-aux-citoyens/transport-sts","agencyTimeZoneOffset":-14400000,"routeColor":"00FFFF","routeType":3,"routeId":"1:62","routeTextColor":"000000","interlineWithPreviousLeg":true,"tripBlockId":"107","headsign":"Barrage Port. Roches","agencyId":"0","tripId":"1:218821","serviceDate":"20180402","from":{"name":"COSTCO","stopId":"1:1710","stopCode":"1710","lon":-71.085767,"lat":48.382333,"arrival":1522697700000,"departure":1522698000000,"zoneId":"NA","stopIndex":0,"stopSequence":1,"vertexType":"TRANSIT"},"to":{"name":"Boulevard / Culture","stopId":"1:319","stopCode":"319","lon":-71.117175,"lat":48.310379,"arrival":1522699213000,"departure":1522699214000,"zoneId":"NA","stopIndex":17,"stopSequence":18,"vertexType":"TRANSIT"},"legGeometry":{"points":"uthfHh}zpLoB}Bs@`BjChDZbB`@x@PNlFwMHWbFmMBc@~d@skANe@Jk@H_AD_ABuADs@Hk@Lc@N_@X_@ZYbAq@pA]hDuA~UqLAEjJ_EjRiIrJeEdCmAbAs@rAkAbCyC|@cB|@sBpEkN|cA}`D~@wCz@~@~GjH|^d`@fNxNng@di@dJrJ`aAtcA`@d@RZJVNn@Dr@nAp_@HzAHx@ZxAlDzN|DlPjIn]P~@JbB@b@?b@IdAiA|KObAU`A_HfTCDt_AzaA^h@BFDTBV?VATADwBlGCPCl@Jt@pBnG^pBFd@DlAEdCGhCElAg@pG?nAF~@PnAVxAp@lF^`B^dAxAnC@@pAzAr@lAPp@Lj@Dh@HjB@fAWzFA~BQAOAQGWMk@k@QSM[M_@IY_@_AQWSO_DcBUEYLa@VWLYPyGrNeC`GoAzBw@t@kCvBkBvAg@`@[\\g@t@i@bACF}AlE","length":137},"routeShortName":"62","routeLongName":"Portage des Roches Sud","rentedBike":false,"transitLeg":true,"duration":1213.0,"steps":[]},{"startTime":1522699214000,"endTime":1522699509000,"departureDelay":0,"arrivalDelay":0,"realTime":false,"distance":376.065,"pathway":false,"mode":"WALK","route":"","agencyTimeZoneOffset":-14400000,"interlineWithPreviousLeg":false,"from":{"name":"Boulevard / Culture","stopId":"1:319","stopCode":"319","lon":-71.117175,"lat":48.310379,"arrival":1522699213000,"departure":1522699214000,"zoneId":"NA","stopIndex":17,"stopSequence":18,"vertexType":"TRANSIT"},"to":{"name":"Destination","lon":-71.116123,"lat":48.311792,"arrival":1522699509000,"orig":"","vertexType":"NORMAL"},"legGeometry":{"points":"qrzeHtaaqLf@yAwBqBeBzEw@MeANKy@XeAb@kA","length":9},"rentedBike":false,"transitLeg":false,"duration":295.0,"steps":[{"distance":39.857,"relativeDirection":"DEPART","streetName":"Rue du Boulevard","absoluteDirection":"SOUTHEAST","stayOn":false,"area":false,"bogusName":false,"lon":-71.11722134605982,"lat":48.310334116525226,"elevation":[]},{"distance":79.487,"relativeDirection":"LEFT","streetName":"Rue de la culture","absoluteDirection":"NORTHEAST","stayOn":false,"area":false,"bogusName":false,"lon":-71.11677710000001,"lat":48.3101312,"elevation":[]},{"distance":170.296,"relativeDirection":"LEFT","streetName":"Rue de la Moisson","absoluteDirection":"NORTHWEST","stayOn":false,"area":false,"bogusName":false,"lon":-71.1162046,"lat":48.3107362,"elevation":[]},{"distance":86.425,"relativeDirection":"RIGHT","streetName":"Rue du Seigle","absoluteDirection":"EAST","stayOn":false,"area":false,"bogusName":false,"lon":-71.1173156,"lat":48.3118788,"elevation":[]}]}],"tooSloped":false}]},"debugOutput":{"precalculationTime":21,"pathCalculationTime":103,"pathTimes":[39,32,32],"renderingTime":1,"totalTime":125,"timedOut":false},"elevationMetadata":{"ellipsoidToGeoidDifference":-28.885904201182168,"geoidElevation":false}}