{"requestParameters":{"date":"2018/04/02","walkSpeed":"1.33","walkReluctance":"2.0","fromPlace":"48.312934,-71.150506","maxWalkDistance":"3000","waitReluctance":"1.0","carSpeed":"33","numItineraries":"3","waitAtBeginningFactor":"0.4","mode":"TRANSIT,WALK","ignoreRealtimeUpdates":"false","stairsReluctance":"2.0","toPlace":"48.315672,-71.133713","time":"7:0:00"},"plan":{"date":1522666800000,"from":{"name":"Origin","lon":-71.150506,"lat":48.312934,"orig":"","vertexType":"NORMAL"},"to":{"name":"Destination","lon":-71.133713,"lat":48.315672,"orig":"","vertexType":"NORMAL"},"itineraries":[{"duration":1165,"startTime":1522666827000,"endTime":1522667992000,"walkTime":1098,"transitTime":65,"waitingTime":2,"walkDistance":1435.6617368390484,"walkLimitExceeded":false,"elevationLost":0.0,"elevationGained":0.0,"transfers":0,"legs":[{"startTime":1522666827000,"endTime":1522667454000,"departureDelay":0,"arrivalDelay":0,"realTime":false,"distance":822.5900000000001,"pathway":false,"mode":"WALK","route":"","agencyTimeZoneOffset":-14400000,"interlineWithPreviousLeg":false,"from":{"name":"Origin","lon":-71.150506,"lat":48.312934,"departure":1522666827000,"orig":"","vertexType":"NORMAL"},"to":{"name":"ch. Portage Roches N / Gingras","stopId":"1:2154","stopCode":"2154","lon":-71.142163,"lat":48.313522,"arrival":1522667454000,"departure":1522667455000,"zoneId":"NA","stopIndex":11,"stopSequence":12,"vertexType":"TRANSIT"},"legGeometry":{"points":"e`{eH~pgqLqAmUk@oBw@cAcCw@yDsDTeBTk@tCwD|AmCTc@GI","length":12},"rentedBike":false,"transitLeg":false,"duration":627.0,"steps":[{"distance":556.556,"relativeDirection":"DEPART","streetName":"Rue Potvin","absoluteDirection":"EAST","stayOn":false,"area":false,"bogusName":false,"lon":-71.15039746684992,"lat":48.31251475990318,"elevation":[]},{"distance":259.79400000000004,"relativeDirection":"RIGHT","streetName":"Rue Gingras","absoluteDirection":"EAST","stayOn":false,"area":false,"bogusName":false,"lon":-71.1447251,"lat":48.3150132,"elevation":[]},{"distance":6.24,"relativeDirection":"LEFT","streetName":"Chemin du Portage-des-Roches Nord","absoluteDirection":"NORTHEAST","stayOn":false,"area":false,"bogusName":false,"lon":-71.1421871,"lat":48.3134625,"elevation":[]}]},{"startTime":1522667455000,"endTime":1522667520000,"departureDelay":0,"arrivalDelay":0,"realTime":false,"distance":580.9166662552981,"pathway":false,"mode":"BUS","route":"60","agencyName":"Société de Transport du Saguenay","agencyUrl":"http://ville.saguenay.ca/fr/services-aux-citoyens/transport-sts","agencyTimeZoneOffset":-14400000,"routeColor":"00FFFF","routeType":3,"routeId":"1:60","routeTextColor":"000000","interlineWithPreviousLeg":false,"tripBlockId":"103","headsign":"Costco","agencyId":"0","tripId":"1:218790","serviceDate":"20180402","from":{"name":"ch. Portage Roches N / Gingras","stopId":"1:2154","stopCode":"2154","lon":-71.142163,"lat":48.313522,"arrival":1522667454000,"departure":1522667455000,"zoneId":"NA","stopIndex":11,"stopSequence":12,"vertexType":"TRANSIT"},"to":{"name":"ch. Portage Roches N / Caravanes","stopId":"1:1779","stopCode":"1779","lon":-71.138324,"lat":48.31808,"arrival":1522667520000,"departure":1522667521000,"zoneId":"NA","stopIndex":12,"stopSequence":13,"vertexType":"TRANSIT"},"legGeometry":{"points":"uf{eH|}eqL}BiDgBaBaCgBkBkAoFiC}@m@}@}@mAiA","length":9},"routeShortName":"60","routeLongName":"Portage des Roches Nord","rentedBike":false,"transitLeg":true,"duration":65.0,"steps":[]},{"startTime":1522667521000,"endTime":1522667992000,"departureDelay":0,"arrivalDelay":0,"realTime":false,"distance":612.977,"pathway":false,"mode":"WALK","route":"","agencyTimeZoneOffset":-14400000,"interlineWithPreviousLeg":false,"from":{"name":"ch. Portage Roches N / Caravanes","stopId":"1:1779","stopCode":"1779","lon":-71.138324,"lat":48.31808,"arrival":1522667520000,"departure":1522667521000,"zoneId":"NA","stopIndex":12,"stopSequence":13,"vertexType":"TRANSIT"},"to":{"name":"Destination","lon":-71.133713,"lat":48.315672,"arrival":1522667992000,"orig":"","vertexType":"NORMAL"},"legGeometry":{"points":"cc|eH~eeqLAAsAqAiDeDjBkF~AqElAmDpAuD\\q@|@cC","length":10},"rentedBike":false,"transitLeg":false,"duration":471.0,"steps":[{"distance":169.136,"relativeDirection":"DEPART","streetName":"Chemin du Portage-des-Roches Nord","absoluteDirection":"NORTHEAST","stayOn":false,"area":false,"bogusName":false,"lon":-71.1383933196475,"lat":48.31810987724029,"elevation":[]},{"distance":443.841,"relativeDirection":"RIGHT","streetName":"Rue du Boulevard","absoluteDirection":"SOUTHEAST","stayOn":false,"area":false,"bogusName":false,"lon":-71.1371469,"lat":48.3193853,"elevation":[]}]}],"tooSloped":false},{"duration":1540,"startTime":1522666800000,"endTime":1522668340000,"walkTime":1540,"transitTime":0,"waitingTime":0,"walkDistance":2020.5663684179108,"walkLimitExceeded":false,"elevationLost":0.0,"elevationGained":0.0,"transfers":0,"legs":[{"startTime":1522666800000,"endTime":1522668340000,"departureDelay":0,"arrivalDelay":0,"realTime":false,"distance":2020.469,"pathway":false,"mode":"WALK","route":"","agencyTimeZoneOffset":-14400000,"interlineWithPreviousLeg":false,"from":{"name":"Origin","lon":-71.150506,"lat":48.312934,"departure":1522666800000,"orig":"","vertexType":"NORMAL"},"to":{"name":"Destination","lon":-71.133713,"lat":48.315672,"arrival":1522668340000,"orig":"","vertexType":"NORMAL"},"legGeometry":{"points":"e`{eH~pgqLqAmUk@oBw@cAcCw@yDsDTeBTk@tCwD|AmCTc@GIsBoCiLmIyEyByAoAeAcAAAsAqAiDeDjBkF~AqElAmDpAuD\\q@|@cC","length":26},"rentedBike":false,"transitLeg":false,"duration":1540.0,"steps":[{"distance":556.556,"relativeDirection":"DEPART","streetName":"Rue Potvin","absoluteDirection":"EAST","stayOn":false,"area":false,"bogusName":false,"lon":-71.15039746684992,"lat":48.31251475990318,"elevation":[]},{"distance":259.79400000000004,"relativeDirection":"RIGHT","streetName":"Rue Gingras","absoluteDirection":"EAST","stayOn":false,"area":false,"bogusName":false,"lon":-71.1447251,"lat":48.3150132,"elevation":[]},{"distance":760.278,"relativeDirection":"LEFT","streetName":"Chemin du Portage-des-Roches Nord","absoluteDirection":"NORTHEAST","stayOn":false,"area":false,"bogusName":false,"lon":-71.1421871,"lat":48.3134625,"elevation":[]},{"distance":443.841,"relativeDirection":"RIGHT","streetName":"Rue du Boulevard","absoluteDirection":"SOUTHEAST","stayOn":false,"area":false,"bogusName":false,"lon":-71.1371469,"lat":48.3193853,"elevation":[]}]}],"tooSloped":false}]},"debugOutput":{"precalculationTime":1,"pathCalculationTime":6,"pathTimes":[1,2,3],"renderingTime":0,"totalTime":7,"timedOut":false},"elevationMetadata":{"ellipsoidToGeoidDifference":-28.885904201182168,"geoidElevation":false}}