{"requestParameters":{"date":"2018/04/02","walkSpeed":"1.33","walkReluctance":"2.0","fromPlace":"48.309498,-71.11380099","maxWalkDistance":"3000","waitReluctance":"1.0","carSpeed":"33","numItineraries":"3","waitAtBeginningFactor":"0.4","mode":"TRANSIT,WALK","ignoreRealtimeUpdates":"false","stairsReluctance":"2.0","toPlace":"48.314435,-71.145981","time":"11:30:00"},"plan":{"date":1522683000000,"from":{"name":"Origin","lon":-71.11380099,"lat":48.309498,"orig":"","vertexType":"NORMAL"},"to":{"name":"Destination","lon":-71.145981,"lat":48.314435,"orig":"","vertexType":"NORMAL"},"itineraries":[{"duration":1410,"startTime":1522685363000,"endTime":1522686773000,"walkTime":1328,"transitTime":80,"waitingTime":2,"walkDistance":1727.3135338276966,"walkLimitExceeded":false,"elevationLost":0.0,"elevationGained":0.0,"transfers":0,"legs":[{"startTime":1522685363000,"endTime":1522685619000,"departureDelay":0,"arrivalDelay":0,"realTime":false,"distance":325.23,"pathway":false,"mode":"WALK","route":"","agencyTimeZoneOffset":-14400000,"interlineWithPreviousLeg":false,"from":{"name":"Origin","lon":-71.11380099,"lat":48.309498,"departure":1522685363000,"orig":"","vertexType":"NORMAL"},"to":{"name":"Boulevard / Culture","stopId":"1:319","stopCode":"319","lon":-71.117175,"lat":48.310379,"arrival":1522685619000,"departure":1522685620000,"zoneId":"NA","stopIndex":17,"stopSequence":18,"vertexType":"TRANSIT"},"legGeometry":{"points":"aozeHfn`qLXp@wB|CaBpEvBpBg@xA","length":6},"rentedBike":false,"transitLeg":false,"duration":256.0,"steps":[{"distance":22.583,"relativeDirection":"DEPART","streetName":"rue de la Moisson","absoluteDirection":"SOUTHWEST","stayOn":false,"area":false,"bogusName":false,"lon":-71.1141189653664,"lat":48.30977355347037,"elevation":[]},{"distance":183.303,"relativeDirection":"RIGHT","streetName":"Rue de la Moisson","absoluteDirection":"NORTHWEST","stayOn":false,"area":false,"bogusName":false,"lon":-71.1143612,"lat":48.309649900000004,"elevation":[]},{"distance":79.487,"relativeDirection":"LEFT","streetName":"Rue de la culture","absoluteDirection":"SOUTHWEST","stayOn":false,"area":false,"bogusName":false,"lon":-71.1162046,"lat":48.3107362,"elevation":[]},{"distance":39.857,"relativeDirection":"RIGHT","streetName":"Rue du Boulevard","absoluteDirection":"NORTHWEST","stayOn":false,"area":false,"bogusName":false,"lon":-71.11677710000001,"lat":48.3101312,"elevation":[]}]},{"startTime":1522685620000,"endTime":1522685700000,"departureDelay":0,"arrivalDelay":0,"realTime":false,"distance":1506.89279421089,"pathway":false,"mode":"BUS","route":"62","agencyName":"Société de Transport du Saguenay","agencyUrl":"http://ville.saguenay.ca/fr/services-aux-citoyens/transport-sts","agencyTimeZoneOffset":-14400000,"routeColor":"00FFFF","routeType":3,"routeId":"1:62","routeTextColor":"000000","interlineWithPreviousLeg":false,"tripBlockId":"73","headsign":"Costco","agencyId":"0","tripId":"1:218619","serviceDate":"20180402","from":{"name":"Boulevard / Culture","stopId":"1:319","stopCode":"319","lon":-71.117175,"lat":48.310379,"arrival":1522685619000,"departure":1522685620000,"zoneId":"NA","stopIndex":17,"stopSequence":18,"vertexType":"TRANSIT"},"to":{"name":"Boulevard / boul. Talbot","stopId":"1:1767","stopCode":"1767","lon":-71.134005,"lat":48.318019,"arrival":1522685700000,"departure":1522685701000,"zoneId":"NA","stopIndex":22,"stopSequence":23,"vertexType":"TRANSIT"},"legGeometry":{"points":"irzeH|aaqLkHvSwIrVgDpJ_KjYkAhDqDjJsA|D","length":8},"routeShortName":"62","routeLongName":"Portage des Roches Sud","rentedBike":false,"transitLeg":true,"duration":80.0,"steps":[]},{"startTime":1522685701000,"endTime":1522686773000,"departureDelay":0,"arrivalDelay":0,"realTime":false,"distance":1401.87,"pathway":false,"mode":"WALK","route":"","agencyTimeZoneOffset":-14400000,"interlineWithPreviousLeg":false,"from":{"name":"Boulevard / boul. Talbot","stopId":"1:1767","stopCode":"1767","lon":-71.134005,"lat":48.318019,"arrival":1522685700000,"departure":1522685701000,"zoneId":"NA","stopIndex":22,"stopSequence":23,"vertexType":"TRANSIT"},"to":{"name":"Destination","lon":-71.145981,"lat":48.314435,"arrival":1522686773000,"orig":"","vertexType":"NORMAL"},"legGeometry":{"points":"ib|eHxjdqLmAlD_BpEkBjFhDdDrApA@@dAbAxAnAxExBhLlIrBnCFHUb@}AlCuCvDUj@UdB|CvC","length":19},"rentedBike":false,"transitLeg":false,"duration":1072.0,"steps":[{"distance":277.524,"relativeDirection":"DEPART","streetName":"Rue du Boulevard","absoluteDirection":"NORTHWEST","stayOn":false,"area":false,"bogusName":false,"lon":-71.13404981163029,"lat":48.317975470719105,"elevation":[]},{"distance":760.278,"relativeDirection":"LEFT","streetName":"Chemin du Portage-des-Roches Nord","absoluteDirection":"SOUTHWEST","stayOn":false,"area":false,"bogusName":false,"lon":-71.1371469,"lat":48.3193853,"elevation":[]},{"distance":259.79400000000004,"relativeDirection":"RIGHT","streetName":"Rue Gingras","absoluteDirection":"NORTHWEST","stayOn":false,"area":false,"bogusName":false,"lon":-71.1421871,"lat":48.3134625,"elevation":[]},{"distance":104.274,"relativeDirection":"LEFT","streetName":"Rue Potvin","absoluteDirection":"SOUTHWEST","stayOn":false,"area":false,"bogusName":false,"lon":-71.1447251,"lat":48.3150132,"elevation":[]}]}],"tooSloped":false},{"duration":2611,"startTime":1522686972000,"endTime":1522689583000,"walkTime":2594,"transitTime":15,"waitingTime":2,"walkDistance":3396.3595488650963,"walkLimitExceeded":false,"elevationLost":0.0,"elevationGained":0.0,"transfers":0,"legs":[{"startTime":1522686972000,"endTime":1522687834000,"departureDelay":0,"arrivalDelay":0,"realTime":false,"distance":1124.8870000000002,"pathway":false,"mode":"WALK","route":"","agencyTimeZoneOffset":-14400000,"interlineWithPreviousLeg":false,"from":{"name":"Origin","lon":-71.11380099,"lat":48.309498,"departure":1522686972000,"orig":"","vertexType":"NORMAL"},"to":{"name":"Boulevard (no. 1400)","stopId":"1:1734","stopCode":"1734","lon":-71.126248,"lat":48.314294,"arrival":1522687834000,"departure":1522687835000,"zoneId":"NA","stopIndex":8,"stopSequence":9,"vertexType":"TRANSIT"},"legGeometry":{"points":"aozeHfn`qLXp@wB|CaBpEvBpBg@xAmHtSGPqBtF{ElNABcDhJ","length":12},"rentedBike":false,"transitLeg":false,"duration":862.0,"steps":[{"distance":22.583,"relativeDirection":"DEPART","streetName":"rue de la Moisson","absoluteDirection":"SOUTHWEST","stayOn":false,"area":false,"bogusName":false,"lon":-71.1141189653664,"lat":48.30977355347037,"elevation":[]},{"distance":183.303,"relativeDirection":"RIGHT","streetName":"Rue de la Moisson","absoluteDirection":"NORTHWEST","stayOn":false,"area":false,"bogusName":false,"lon":-71.1143612,"lat":48.309649900000004,"elevation":[]},{"distance":79.487,"relativeDirection":"LEFT","streetName":"Rue de la culture","absoluteDirection":"SOUTHWEST","stayOn":false,"area":false,"bogusName":false,"lon":-71.1162046,"lat":48.3107362,"elevation":[]},{"distance":839.514,"relativeDirection":"RIGHT","streetName":"Rue du Boulevard","absoluteDirection":"NORTHWEST","stayOn":false,"area":false,"bogusName":false,"lon":-71.11677710000001,"lat":48.3101312,"elevation":[]}]},{"startTime":1522687835000,"endTime":1522687850000,"departureDelay":0,"arrivalDelay":0,"realTime":false,"distance":162.03324486074084,"pathway":false,"mode":"BUS","route":"60","agencyName":"Société de Transport du Saguenay","agencyUrl":"http://ville.saguenay.ca/fr/services-aux-citoyens/transport-sts","agencyTimeZoneOffset":-14400000,"routeColor":"00FFFF","routeType":3,"routeId":"1:60","routeTextColor":"000000","interlineWithPreviousLeg":false,"tripBlockId":"73","headsign":"Costco","agencyId":"0","tripId":"1:218620","serviceDate":"20180402","from":{"name":"Boulevard (no. 1400)","stopId":"1:1734","stopCode":"1734","lon":-71.126248,"lat":48.314294,"arrival":1522687834000,"departure":1522687835000,"zoneId":"NA","stopIndex":8,"stopSequence":9,"vertexType":"TRANSIT"},"to":{"name":"Boulevard (no. 1339)","stopId":"1:2126","stopCode":"2126","lon":-71.124402,"lat":48.313509,"arrival":1522687850000,"departure":1522687851000,"zoneId":"NA","stopIndex":9,"stopSequence":10,"vertexType":"TRANSIT"},"legGeometry":{"points":"sk{eHvybqLbDiJ","length":2},"routeShortName":"60","routeLongName":"Portage des Roches Nord","rentedBike":false,"transitLeg":true,"duration":15.0,"steps":[]},{"startTime":1522687851000,"endTime":1522689583000,"departureDelay":0,"arrivalDelay":0,"realTime":false,"distance":2271.2529999999997,"pathway":false,"mode":"WALK","route":"","agencyTimeZoneOffset":-14400000,"interlineWithPreviousLeg":false,"from":{"name":"Boulevard (no. 1339)","stopId":"1:2126","stopCode":"2126","lon":-71.124402,"lat":48.313509,"arrival":1522687850000,"departure":1522687851000,"zoneId":"NA","stopIndex":9,"stopSequence":10,"vertexType":"TRANSIT"},"to":{"name":"Destination","lon":-71.145981,"lat":48.314435,"arrival":1522689583000,"orig":"","vertexType":"NORMAL"},"legGeometry":{"points":"wf{eHdnbqLcDhJ?B}JnY?@aDfJ}@bC]p@qAtDmAlD_BpEkBjFhDdDrApA@@dAbAxAnAxExBhLlIrBnCFHUb@}AlCuCvDUj@UdB|CvC","length":27},"rentedBike":false,"transitLeg":false,"duration":1732.0,"steps":[{"distance":1146.907,"relativeDirection":"DEPART","streetName":"Rue du Boulevard","absoluteDirection":"NORTHWEST","stayOn":false,"area":false,"bogusName":false,"lon":-71.1243434802747,"lat":48.31356671073391,"elevation":[]},{"distance":760.278,"relativeDirection":"LEFT","streetName":"Chemin du Portage-des-Roches Nord","absoluteDirection":"SOUTHWEST","stayOn":false,"area":false,"bogusName":false,"lon":-71.1371469,"lat":48.3193853,"elevation":[]},{"distance":259.79400000000004,"relativeDirection":"RIGHT","streetName":"Rue Gingras","absoluteDirection":"NORTHWEST","stayOn":false,"area":false,"bogusName":false,"lon":-71.1421871,"lat":48.3134625,"elevation":[]},{"distance":104.274,"relativeDirection":"LEFT","streetName":"Rue Potvin","absoluteDirection":"SOUTHWEST","stayOn":false,"area":false,"bogusName":false,"lon":-71.1447251,"lat":48.3150132,"elevation":[]}]}],"tooSloped":false},{"duration":1750,"startTime":1522697259000,"endTime":1522699009000,"walkTime":1665,"transitTime":83,"waitingTime":2,"walkDistance":2178.452616536623,"walkLimitExceeded":false,"elevationLost":0.0,"elevationGained":0.0,"transfers":0,"legs":[{"startTime":1522697259000,"endTime":1522698659000,"departureDelay":0,"arrivalDelay":0,"realTime":false,"distance":1832.285,"pathway":false,"mode":"WALK","route":"","agencyTimeZoneOffset":-14400000,"interlineWithPreviousLeg":false,"from":{"name":"Origin","lon":-71.11380099,"lat":48.309498,"departure":1522697259000,"orig":"","vertexType":"NORMAL"},"to":{"name":"Boulevard / boul. Talbot","stopId":"1:1767","stopCode":"1767","lon":-71.134005,"lat":48.318019,"arrival":1522698659000,"departure":1522698660000,"zoneId":"NA","stopIndex":8,"stopSequence":9,"vertexType":"TRANSIT"},"legGeometry":{"points":"aozeHfn`qLXp@wB|CaBpEvBpBg@xAmHtSGPqBtF{ElNABcDhJ?B}JnY?@aDfJ}@bC]p@qAtD","length":19},"rentedBike":false,"transitLeg":false,"duration":1400.0,"steps":[{"distance":22.583,"relativeDirection":"DEPART","streetName":"rue de la Moisson","absoluteDirection":"SOUTHWEST","stayOn":false,"area":false,"bogusName":false,"lon":-71.1141189653664,"lat":48.30977355347037,"elevation":[]},{"distance":183.303,"relativeDirection":"RIGHT","streetName":"Rue de la Moisson","absoluteDirection":"NORTHWEST","stayOn":false,"area":false,"bogusName":false,"lon":-71.1143612,"lat":48.309649900000004,"elevation":[]},{"distance":79.487,"relativeDirection":"LEFT","streetName":"Rue de la culture","absoluteDirection":"SOUTHWEST","stayOn":false,"area":false,"bogusName":false,"lon":-71.1162046,"lat":48.3107362,"elevation":[]},{"distance":1546.912,"relativeDirection":"RIGHT","streetName":"Rue du Boulevard","absoluteDirection":"NORTHWEST","stayOn":false,"area":false,"bogusName":false,"lon":-71.11677710000001,"lat":48.3101312,"elevation":[]}]},{"startTime":1522698660000,"endTime":1522698743000,"departureDelay":0,"arrivalDelay":0,"realTime":false,"distance":907.1077242794298,"pathway":false,"mode":"BUS","route":"60","agencyName":"Société de Transport du Saguenay","agencyUrl":"http://ville.saguenay.ca/fr/services-aux-citoyens/transport-sts","agencyTimeZoneOffset":-14400000,"routeColor":"00FFFF","routeType":3,"routeId":"1:60","routeTextColor":"000000","interlineWithPreviousLeg":false,"tripBlockId":"95","headsign":"chemin Portageurs","agencyId":"0","tripId":"1:218716","serviceDate":"20180402","from":{"name":"Boulevard / boul. Talbot","stopId":"1:1767","stopCode":"1767","lon":-71.134005,"lat":48.318019,"arrival":1522698659000,"departure":1522698660000,"zoneId":"NA","stopIndex":8,"stopSequence":9,"vertexType":"TRANSIT"},"to":{"name":"ch. Portage Roches N / Gingras","stopId":"1:1768","stopCode":"1768","lon":-71.142305,"lat":48.313614,"arrival":1522698743000,"departure":1522698744000,"zoneId":"NA","stopIndex":10,"stopSequence":11,"vertexType":"TRANSIT"},"legGeometry":{"points":"gb|eHzjdqLuGjR\\\\v@z@`DxCnAjA|@|@|@l@nFhCjBjA`CfBfB`BzBfD","length":13},"routeShortName":"60","routeLongName":"Portage des Roches Nord","rentedBike":false,"transitLeg":true,"duration":83.0,"steps":[]},{"startTime":1522698744000,"endTime":1522699009000,"departureDelay":0,"arrivalDelay":0,"realTime":false,"distance":346.021,"pathway":false,"mode":"WALK","route":"","agencyTimeZoneOffset":-14400000,"interlineWithPreviousLeg":false,"from":{"name":"ch. Portage Roches N / Gingras","stopId":"1:1768","stopCode":"1768","lon":-71.142305,"lat":48.313614,"arrival":1522698743000,"departure":1522698744000,"zoneId":"NA","stopIndex":10,"stopSequence":11,"vertexType":"TRANSIT"},"to":{"name":"Destination","lon":-71.145981,"lat":48.314435,"arrival":1522699009000,"orig":"","vertexType":"NORMAL"},"legGeometry":{"points":"yf{eHx~eqL}AlCuCvDUj@UdB|CvC","length":6},"rentedBike":false,"transitLeg":false,"duration":265.0,"steps":[{"distance":241.747,"relativeDirection":"DEPART","streetName":"Rue Gingras","absoluteDirection":"NORTHWEST","stayOn":false,"area":false,"bogusName":false,"lon":-71.14236054933559,"lat":48.313576675882,"elevation":[]},{"distance":104.274,"relativeDirection":"LEFT","streetName":"Rue Potvin","absoluteDirection":"SOUTHWEST","stayOn":false,"area":false,"bogusName":false,"lon":-71.1447251,"lat":48.3150132,"elevation":[]}]}],"tooSloped":false}]},"debugOutput":{"precalculationTime":2,"pathCalculationTime":12,"pathTimes":[5,5,2],"renderingTime":1,"totalTime":15,"timedOut":false},"elevationMetadata":{"ellipsoidToGeoidDifference":-28.885904201182168,"geoidElevation":false}}