{"requestParameters":{"date":"2018/04/02","walkSpeed":"1.33","walkReluctance":"2.0","fromPlace":"48.311199,-71.115981","maxWalkDistance":"3000","waitReluctance":"1.0","carSpeed":"33","numItineraries":"3","waitAtBeginningFactor":"0.4","mode":"TRANSIT,WALK","ignoreRealtimeUpdates":"false","stairsReluctance":"2.0","toPlace":"48.410863,-71.067079","time":"6:45:00"},"plan":{"date":1522665900000,"from":{"name":"Origin","lon":-71.115981,"lat":48.311199,"orig":"","vertexType":"NORMAL"},"to":{"name":"Destination","lon":-71.067079,"lat":48.410863,"orig":"","vertexType":"NORMAL"},"itineraries":[{"duration":2587,"startTime":1522667029000,"endTime":1522669616000,"walkTime":747,"transitTime":1658,"waitingTime":182,"walkDistance":954.2976766846087,"walkLimitExceeded":false,"elevationLost":0.0,"elevationGained":0.0,"transfers":1,"legs":[{"startTime":1522667029000,"endTime":1522667361000,"departureDelay":0,"arrivalDelay":0,"realTime":false,"distance":421.9509999999999,"pathway":false,"mode":"WALK","route":"","agencyTimeZoneOffset":-14400000,"interlineWithPreviousLeg":false,"from":{"name":"Origin","lon":-71.115981,"lat":48.311199,"departure":1522667029000,"orig":"","vertexType":"NORMAL"},"to":{"name":"Boulevard / Culture","stopId":"1:319","stopCode":"319","lon":-71.117175,"lat":48.310379,"arrival":1522667361000,"departure":1522667362000,"zoneId":"NA","stopIndex":13,"stopSequence":14,"vertexType":"TRANSIT"},"legGeometry":{"points":"eyzeHtx`qLqApDYdAJx@dAOv@LdB{EvBpBg@xA","length":9},"rentedBike":false,"transitLeg":false,"duration":332.0,"steps":[{"distance":132.311,"relativeDirection":"DEPART","streetName":"Rue du Seigle","absoluteDirection":"NORTHWEST","stayOn":false,"area":false,"bogusName":false,"lon":-71.11578163605166,"lat":48.311392920731116,"elevation":[]},{"distance":170.296,"relativeDirection":"LEFT","streetName":"Rue de la Moisson","absoluteDirection":"SOUTH","stayOn":false,"area":false,"bogusName":false,"lon":-71.1173156,"lat":48.3118788,"elevation":[]},{"distance":79.487,"relativeDirection":"RIGHT","streetName":"Rue de la culture","absoluteDirection":"SOUTHWEST","stayOn":false,"area":false,"bogusName":false,"lon":-71.1162046,"lat":48.3107362,"elevation":[]},{"distance":39.857,"relativeDirection":"RIGHT","streetName":"Rue du Boulevard","absoluteDirection":"NORTHWEST","stayOn":false,"area":false,"bogusName":false,"lon":-71.11677710000001,"lat":48.3101312,"elevation":[]}]},{"startTime":1522667362000,"endTime":1522668300000,"departureDelay":0,"arrivalDelay":0,"realTime":false,"distance":12326.316398270084,"pathway":false,"mode":"BUS","route":"64","agencyName":"Société de Transport du Saguenay","agencyUrl":"http://ville.saguenay.ca/fr/services-aux-citoyens/transport-sts","agencyTimeZoneOffset":-14400000,"routeColor":"00FFFF","routeType":3,"routeId":"1:64","routeTextColor":"000000","interlineWithPreviousLeg":false,"tripBlockId":"45","headsign":"Costco","agencyId":"0","tripId":"1:218380","serviceDate":"20180402","from":{"name":"Boulevard / Culture","stopId":"1:319","stopCode":"319","lon":-71.117175,"lat":48.310379,"arrival":1522667361000,"departure":1522667362000,"zoneId":"NA","stopIndex":13,"stopSequence":14,"vertexType":"TRANSIT"},"to":{"name":"COSTCO","stopId":"1:1710","stopCode":"1710","lon":-71.085767,"lat":48.382333,"arrival":1522668300000,"departure":1522668480000,"zoneId":"NA","stopIndex":25,"stopSequence":26,"vertexType":"TRANSIT"},"legGeometry":{"points":"irzeH|aaqLkHvSwIrVgDpJ_KjYkAhDyCxHgDcDqAgA_Aq@_BiAwe@qZsCcCyHkH}k@em@Wv@Qv@cVpq@W~@Gd@E~@@hCJvFBnBAdAGp@Mz@Q`AQp@W`AyGfU_@fAM^MT_@h@Y\\[Zq@h@e@Ts@TwDx@e@P]P]Xc@h@Ud@k@nAm@zAo@`BeC|Gc@~@W`@SVSPs@l@wCzBeAx@}@z@g@f@Yf@OXYx@{AtFe@jB{AtHI\\Md@eApDYtA]tBQrAANKdAKl@G^Q|@Ur@u@vA[b@_@\\WR[TOHODi@TE?O?WBq@?}@?sDIYEq@My@Sa@MOE{@[w@[k@Ya@[MIOOo@w@yCaFm@{@e@k@yAuAkFkFaEwEub@wf@ACaAcAu@cAqGkHeI_KkC_CcAaAU_@y@gAsCgFiBmCuHiH}@_Au@}@gAuAcAcBmBeDwA{BqIkIMKeEyDcDeDcAqAwAqB{@_AgKmG[UcD_C{@y@u@{@mA}BcAaB{AeByFgF_EkFyAgBnAwDdAmDDSrBuIh@cC~@sFb@qCn@oF`@kEX{DLqBPkEDoBDs@LkIXco@FiDPmCToBVkBd@yBZmA~@uCjAoCRYtCyHQOa@y@[cBv@kB_@a@","length":177},"routeShortName":"64","routeLongName":"Ch. St-Isidore / Rang St-Paul","rentedBike":false,"transitLeg":true,"duration":938.0,"steps":[]},{"startTime":1522668480000,"endTime":1522669200000,"departureDelay":0,"arrivalDelay":0,"realTime":false,"distance":4746.469666667854,"pathway":false,"mode":"BUS","route":"71S","agencyName":"Société de Transport du Saguenay","agencyUrl":"http://ville.saguenay.ca/fr/services-aux-citoyens/transport-sts","agencyTimeZoneOffset":-14400000,"routeColor":"8B0000","routeType":3,"routeId":"1:71S","routeTextColor":"FFFFFF","interlineWithPreviousLeg":false,"tripBlockId":"103","headsign":"École Lafontaine","agencyId":"0","tripId":"1:218791","serviceDate":"20180402","from":{"name":"COSTCO","stopId":"1:1710","stopCode":"1710","lon":-71.085767,"lat":48.382333,"arrival":1522668300000,"departure":1522668480000,"zoneId":"NA","stopIndex":0,"stopSequence":1,"vertexType":"TRANSIT"},"to":{"name":"École secondaire de l'Odyssé Dominique-Racine (Bégin)","stopId":"1:1905","stopCode":"1905","lon":-71.0666,"lat":48.412335,"arrival":1522669200000,"departure":1522669201000,"zoneId":"NA","stopIndex":9,"stopSequence":10,"vertexType":"TRANSIT"},"legGeometry":{"points":"uthfHh}zpLgBsB{CyDwCqDrCsGN_@{DmEY_@k@s@cDwDUWSUqCwC]a@{ByCgLyM_HaIiU{WqDeEkDwE_DwEkJgNW_@gEqFyG_Hch@ue@Qb@qBhFi@nAwEzLSPUJyCf@wNhBq@NcAf@o@r@Yj@_AnCkBpFILTRd@b@jAdA`C`CbAfA^Vt@DfAJv@p@dC~BRRNV@FC^uA|D","length":56},"routeShortName":"71S","routeLongName":"COSTCO vers L.Conan/D.Racine/Oasis/Lafon","rentedBike":false,"transitLeg":true,"duration":720.0,"steps":[]},{"startTime":1522669201000,"endTime":1522669616000,"departureDelay":0,"arrivalDelay":0,"realTime":false,"distance":532.126,"pathway":false,"mode":"WALK","route":"","agencyTimeZoneOffset":-14400000,"interlineWithPreviousLeg":false,"from":{"name":"École secondaire de l'Odyssé Dominique-Racine (Bégin)","stopId":"1:1905","stopCode":"1905","lon":-71.0666,"lat":48.412335,"arrival":1522669200000,"departure":1522669201000,"zoneId":"NA","stopIndex":9,"stopSequence":10,"vertexType":"TRANSIT"},"to":{"name":"Destination","lon":-71.067079,"lat":48.410863,"arrival":1522669616000,"orig":"","vertexType":"NORMAL"},"legGeometry":{"points":"gonfHhfwpLtByElANbAFl@CCLLv@V|@~DfAg@lAWl@Ya@q@W[Ia@YQ_@","length":16},"rentedBike":false,"transitLeg":false,"duration":415.0,"steps":[{"distance":103.493,"relativeDirection":"DEPART","streetName":"Rue Georges-Vanier","absoluteDirection":"SOUTHEAST","stayOn":false,"area":false,"bogusName":false,"lon":-71.06676203439534,"lat":48.41220322430814,"elevation":[]},{"distance":270.66,"relativeDirection":"RIGHT","streetName":"bike path","absoluteDirection":"SOUTH","stayOn":false,"area":false,"bogusName":true,"lon":-71.0656757,"lat":48.4116147,"elevation":[]},{"distance":57.382999999999996,"relativeDirection":"RIGHT","streetName":"Rue Don Bosco","absoluteDirection":"NORTHWEST","stayOn":false,"area":false,"bogusName":false,"lon":-71.06679700000001,"lat":48.409527700000005,"elevation":[]},{"distance":100.59,"relativeDirection":"RIGHT","streetName":"service road","absoluteDirection":"NORTHEAST","stayOn":false,"area":false,"bogusName":false,"lon":-71.0674104,"lat":48.4098446,"elevation":[]}]}],"tooSloped":false},{"duration":3220,"startTime":1522666882000,"endTime":1522670102000,"walkTime":1615,"transitTime":1603,"waitingTime":2,"walkDistance":2080.5233684130703,"walkLimitExceeded":false,"elevationLost":0.0,"elevationGained":0.0,"transfers":0,"legs":[{"startTime":1522666882000,"endTime":1522667186000,"departureDelay":0,"arrivalDelay":0,"realTime":false,"distance":383.66099999999994,"pathway":false,"mode":"WALK","route":"","agencyTimeZoneOffset":-14400000,"interlineWithPreviousLeg":false,"from":{"name":"Origin","lon":-71.115981,"lat":48.311199,"departure":1522666882000,"orig":"","vertexType":"NORMAL"},"to":{"name":"Boulevard / Culture","stopId":"1:1736","stopCode":"1736","lon":-71.116866,"lat":48.310034,"arrival":1522667186000,"departure":1522667187000,"zoneId":"NA","stopIndex":12,"stopSequence":13,"vertexType":"TRANSIT"},"legGeometry":{"points":"eyzeHtx`qLqApDYdAJx@dAOv@LdB{EvBpB@A","length":9},"rentedBike":false,"transitLeg":false,"duration":304.0,"steps":[{"distance":132.311,"relativeDirection":"DEPART","streetName":"Rue du Seigle","absoluteDirection":"NORTHWEST","stayOn":false,"area":false,"bogusName":false,"lon":-71.11578163605166,"lat":48.311392920731116,"elevation":[]},{"distance":170.296,"relativeDirection":"LEFT","streetName":"Rue de la Moisson","absoluteDirection":"SOUTH","stayOn":false,"area":false,"bogusName":false,"lon":-71.1173156,"lat":48.3118788,"elevation":[]},{"distance":79.487,"relativeDirection":"RIGHT","streetName":"Rue de la culture","absoluteDirection":"SOUTHWEST","stayOn":false,"area":false,"bogusName":false,"lon":-71.1162046,"lat":48.3107362,"elevation":[]},{"distance":1.567,"relativeDirection":"LEFT","streetName":"Rue du Boulevard","absoluteDirection":"SOUTHEAST","stayOn":false,"area":false,"bogusName":false,"lon":-71.11677710000001,"lat":48.3101312,"elevation":[]}]},{"startTime":1522667187000,"endTime":1522668300000,"departureDelay":0,"arrivalDelay":0,"realTime":false,"distance":11233.520438122154,"pathway":false,"mode":"BUS","route":"62","agencyName":"Société de Transport du Saguenay","agencyUrl":"http://ville.saguenay.ca/fr/services-aux-citoyens/transport-sts","agencyTimeZoneOffset":-14400000,"routeColor":"00FFFF","routeType":3,"routeId":"1:62","routeTextColor":"000000","interlineWithPreviousLeg":false,"tripBlockId":"99","headsign":"Costco","agencyId":"0","tripId":"1:218749","serviceDate":"20180402","from":{"name":"Boulevard / Culture","stopId":"1:1736","stopCode":"1736","lon":-71.116866,"lat":48.310034,"arrival":1522667186000,"departure":1522667187000,"zoneId":"NA","stopIndex":12,"stopSequence":13,"vertexType":"TRANSIT"},"to":{"name":"COSTCO","stopId":"1:1710","stopCode":"1710","lon":-71.085767,"lat":48.382333,"arrival":1522668300000,"departure":1522668480000,"zoneId":"NA","stopIndex":30,"stopSequence":31,"vertexType":"TRANSIT"},"legGeometry":{"points":"_qzeHb_aqLv@{Bh@cAf@u@Z]l@e@dBsAjCwBv@u@nA{BdCaGOOqAoBwA{B[i@kF{IyAwDSe@U_@o@eAkDwDoF}Fa@u@iIeQ}Qi`@_@s@a@y@}@_D_Im]y@eCgCwGsDyI]}@_@y@Sc@QSW[mBuAk@Y_@KiAe@a_@_KsUsEcAg@a@YEEcFyFsUsWmB_CqB_CeFoGmAuBi@oAEKiAsBsA{A_As@gEeCy@k@iBkBgGuG[Ya@_@qFuEg@e@qAeB{BcDq@{@iAsAgYc[qJkKyN{Ok@o@{BoAc@Sm@lBcFzO}@rB}@bBcCxCsAjAcAr@eClAsJdEoF~BsJdEsJbEAC{TpJmHjCiEhAHz@d@pGE~@I~@Kj@Od@_e@rkAUReFdMIXyCtHwBcC","length":103},"routeShortName":"62","routeLongName":"Portage des Roches Sud","rentedBike":false,"transitLeg":true,"duration":1113.0,"steps":[]},{"startTime":1522668480000,"endTime":1522668790000,"departureDelay":0,"arrivalDelay":0,"realTime":false,"distance":2483.9055823634867,"pathway":false,"mode":"BUS","route":"72S","agencyName":"Société de Transport du Saguenay","agencyUrl":"http://ville.saguenay.ca/fr/services-aux-citoyens/transport-sts","agencyTimeZoneOffset":-14400000,"routeColor":"8B0000","routeType":3,"routeId":"1:72S","routeTextColor":"FFFFFF","interlineWithPreviousLeg":true,"tripBlockId":"99","headsign":"Terminus Chicoutimi","agencyId":"0","tripId":"1:218750","serviceDate":"20180402","from":{"name":"COSTCO","stopId":"1:1710","stopCode":"1710","lon":-71.085767,"lat":48.382333,"arrival":1522668300000,"departure":1522668480000,"zoneId":"NA","stopIndex":0,"stopSequence":1,"vertexType":"TRANSIT"},"to":{"name":"boul. Talbot / Laurentides","stopId":"1:51","stopCode":"51","lon":-71.063914,"lat":48.398861,"arrival":1522668790000,"departure":1522668791000,"zoneId":"NA","stopIndex":7,"stopSequence":8,"vertexType":"TRANSIT"},"legGeometry":{"points":"wthfHd}zpLmByBsCoDwCqDrCsGN_@{DmEY_@k@s@cDwDUWSUqCwC]a@{ByCgLyM_HaIiU{WqDeEkDwE_DwEkJgN","length":22},"routeShortName":"72S","routeLongName":"COSTCO vers Séminaire / UQAC / Cégep","rentedBike":false,"transitLeg":true,"duration":310.0,"steps":[]},{"startTime":1522668791000,"endTime":1522670102000,"departureDelay":0,"arrivalDelay":0,"realTime":false,"distance":1696.6149999999998,"pathway":false,"mode":"WALK","route":"","agencyTimeZoneOffset":-14400000,"interlineWithPreviousLeg":false,"from":{"name":"boul. Talbot / Laurentides","stopId":"1:51","stopCode":"51","lon":-71.063914,"lat":48.398861,"arrival":1522668790000,"departure":1522668791000,"zoneId":"NA","stopIndex":7,"stopSequence":8,"vertexType":"TRANSIT"},"to":{"name":"Destination","lon":-71.067079,"lat":48.410863,"arrival":1522670102000,"orig":"","vertexType":"NORMAL"},"legGeometry":{"points":"e|kfH`uvpLGIW]eB_CoCqDqH_H{DqDMKMZMV_ArBwBxFeA~BaAjAKJkAbA}@v@SDcA~@CB?@gAvA{@dCm@|AGNgBxEGNELqB{BiAnCeHXWl@Ya@q@W[Ia@YQ_@","length":37},"rentedBike":false,"transitLeg":false,"duration":1311.0,"steps":[{"distance":534.158,"relativeDirection":"DEPART","streetName":"Boulevard Talbot","absoluteDirection":"NORTHEAST","stayOn":false,"area":false,"bogusName":false,"lon":-71.06400548628389,"lat":48.398911410972886,"elevation":[]},{"distance":732.3359999999999,"relativeDirection":"LEFT","streetName":"Rue des Saguenéens","absoluteDirection":"NORTHWEST","stayOn":false,"area":false,"bogusName":false,"lon":-71.0598825,"lat":48.402847200000004,"elevation":[]},{"distance":77.658,"relativeDirection":"RIGHT","streetName":"path","absoluteDirection":"NORTHEAST","stayOn":false,"area":false,"bogusName":true,"lon":-71.0669515,"lat":48.4073198,"elevation":[]},{"distance":230.146,"relativeDirection":"LEFT","streetName":"Rue Duhaime","absoluteDirection":"NORTHWEST","stayOn":false,"area":false,"bogusName":false,"lon":-71.0663385,"lat":48.4078874,"elevation":[]},{"distance":21.727,"relativeDirection":"LEFT","streetName":"Rue Don Bosco","absoluteDirection":"NORTHWEST","stayOn":false,"area":false,"bogusName":false,"lon":-71.0671829,"lat":48.4097206,"elevation":[]},{"distance":100.59,"relativeDirection":"RIGHT","streetName":"service road","absoluteDirection":"NORTHEAST","stayOn":false,"area":false,"bogusName":false,"lon":-71.0674104,"lat":48.4098446,"elevation":[]}]}],"tooSloped":false},{"duration":4033,"startTime":1522685287000,"endTime":1522689320000,"walkTime":1551,"transitTime":2180,"waitingTime":302,"walkDistance":1967.6550075041798,"walkLimitExceeded":false,"elevationLost":0.0,"elevationGained":0.0,"transfers":1,"legs":[{"startTime":1522685287000,"endTime":1522685619000,"departureDelay":0,"arrivalDelay":0,"realTime":false,"distance":421.9509999999999,"pathway":false,"mode":"WALK","route":"","agencyTimeZoneOffset":-14400000,"interlineWithPreviousLeg":false,"from":{"name":"Origin","lon":-71.115981,"lat":48.311199,"departure":1522685287000,"orig":"","vertexType":"NORMAL"},"to":{"name":"Boulevard / Culture","stopId":"1:319","stopCode":"319","lon":-71.117175,"lat":48.310379,"arrival":1522685619000,"departure":1522685620000,"zoneId":"NA","stopIndex":17,"stopSequence":18,"vertexType":"TRANSIT"},"legGeometry":{"points":"eyzeHtx`qLqApDYdAJx@dAOv@LdB{EvBpBg@xA","length":9},"rentedBike":false,"transitLeg":false,"duration":332.0,"steps":[{"distance":132.311,"relativeDirection":"DEPART","streetName":"Rue du Seigle","absoluteDirection":"NORTHWEST","stayOn":false,"area":false,"bogusName":false,"lon":-71.11578163605166,"lat":48.311392920731116,"elevation":[]},{"distance":170.296,"relativeDirection":"LEFT","streetName":"Rue de la Moisson","absoluteDirection":"SOUTH","stayOn":false,"area":false,"bogusName":false,"lon":-71.1173156,"lat":48.3118788,"elevation":[]},{"distance":79.487,"relativeDirection":"RIGHT","streetName":"Rue de la culture","absoluteDirection":"SOUTHWEST","stayOn":false,"area":false,"bogusName":false,"lon":-71.1162046,"lat":48.3107362,"elevation":[]},{"distance":39.857,"relativeDirection":"RIGHT","streetName":"Rue du Boulevard","absoluteDirection":"NORTHWEST","stayOn":false,"area":false,"bogusName":false,"lon":-71.11677710000001,"lat":48.3101312,"elevation":[]}]},{"startTime":1522685620000,"endTime":1522687200000,"departureDelay":0,"arrivalDelay":0,"realTime":false,"distance":14428.841087416513,"pathway":false,"mode":"BUS","route":"62","agencyName":"Société de Transport du Saguenay","agencyUrl":"http://ville.saguenay.ca/fr/services-aux-citoyens/transport-sts","agencyTimeZoneOffset":-14400000,"routeColor":"00FFFF","routeType":3,"routeId":"1:62","routeTextColor":"000000","interlineWithPreviousLeg":false,"tripBlockId":"73","headsign":"Costco","agencyId":"0","tripId":"1:218619","serviceDate":"20180402","from":{"name":"Boulevard / Culture","stopId":"1:319","stopCode":"319","lon":-71.117175,"lat":48.310379,"arrival":1522685619000,"departure":1522685620000,"zoneId":"NA","stopIndex":17,"stopSequence":18,"vertexType":"TRANSIT"},"to":{"name":"COSTCO","stopId":"1:1710","stopCode":"1710","lon":-71.085767,"lat":48.382333,"arrival":1522687200000,"departure":1522687500000,"zoneId":"NA","stopIndex":37,"stopSequence":38,"vertexType":"TRANSIT"},"legGeometry":{"points":"irzeH|aaqLkHvSwIrVgDpJ_KjYkAhDqDjJsA|DuGjRi@i@w@gA_@e@e@UmAc@sHmAaIiA_BAM?cADsJn@gAPkAZODcAl@}@j@w@x@ML_BlB_B`DiAlDsBdH_AfCq@zAQ^S\\{BtD}BxCyAvAyA`AqDtAiCn@yD\\w@DKAOCw@c@EAcRwRe@]_AWMAgJeB{BKe@LGDeAj@kAx@cEnC_BlAoAxAeB`DsBbIQbAiAhHk@tFMlAKzAYhCOnCKdDWjGKlAMxAa@vCWnAoBbFkH~Si@lAc@j@WNcAf@{@HiCYcBc@m@Wq@Iu@Qy@_@qBeAkAu@uAm@mImCsA_@yDs@qGk@eB[o@KWCgASaA]cBkAgPsN_FkEwAgAwAsAgAyBe@gBU}AAEMmB_@aEUaB_AeE}BqIy@mCmD{JsAuCu@_Ao@u@y@y@MOsIoKeHaKkEuFSYuAcBqA_BkDgDoBuA{JsFgKgEoBo@aAS_CAeDR}Ej@yHP{BMgBYwC{@kGoCsBs@wAUqAUaCM[eF_@{IE_B?{BBsA@]LkCHaAf@}D\\mBZkA@EXaAxBkGzFmOfD}ItBmFL[nAwDdAmDDSrBuIh@cC~@sFb@qCn@oF`@kEX{DLqBPkEDoBDs@LkIXco@FiDPmCToBVkBd@yBZmA~@uCjAoCRYtCyHQOa@y@Os@Ko@v@kB_@a@","length":195},"routeShortName":"62","routeLongName":"Portage des Roches Sud","rentedBike":false,"transitLeg":true,"duration":1580.0,"steps":[]},{"startTime":1522687500000,"endTime":1522688100000,"departureDelay":0,"arrivalDelay":0,"realTime":false,"distance":3532.3490999365067,"pathway":false,"mode":"BUS","route":"175","agencyName":"Société de Transport du Saguenay","agencyUrl":"http://ville.saguenay.ca/fr/services-aux-citoyens/transport-sts","agencyTimeZoneOffset":-14400000,"routeColor":"FF00FF","routeType":3,"routeId":"1:175","routeTextColor":"FFFFFF","interlineWithPreviousLeg":false,"tripBlockId":"10","headsign":"Terminus Chicoutimi","agencyId":"0","tripId":"1:217439","serviceDate":"20180402","from":{"name":"COSTCO","stopId":"1:1710","stopCode":"1710","lon":-71.085767,"lat":48.382333,"arrival":1522687200000,"departure":1522687500000,"zoneId":"NA","stopIndex":0,"stopSequence":1,"vertexType":"TRANSIT"},"to":{"name":"Place Royaume","stopId":"1:1801","stopCode":"1801","lon":-71.057017,"lat":48.405588,"arrival":1522688100000,"departure":1522688101000,"zoneId":"NA","stopIndex":10,"stopSequence":11,"vertexType":"TRANSIT"},"legGeometry":{"points":"euhfHt|zpL_BiBsCoDwCqDrCsGN_@uEoFoEiFUWSUqCwC]a@{ByC{@cAkJuKoAwA_CeCeExJ~AlB`@mAu@k@}@q@|C}Iw@}@aO_QkEsEiAoAgEsFkFsHqJ_N}FkImPkOuO{N","length":33},"routeShortName":"175","routeLongName":"Term. Chic / Costco","rentedBike":false,"transitLeg":true,"duration":600.0,"steps":[]},{"startTime":1522688101000,"endTime":1522689320000,"departureDelay":0,"arrivalDelay":0,"realTime":false,"distance":1545.251,"pathway":false,"mode":"WALK","route":"","agencyTimeZoneOffset":-14400000,"interlineWithPreviousLeg":false,"from":{"name":"Place Royaume","stopId":"1:1801","stopCode":"1801","lon":-71.057017,"lat":48.405588,"arrival":1522688100000,"departure":1522688101000,"zoneId":"NA","stopIndex":10,"stopSequence":11,"vertexType":"TRANSIT"},"to":{"name":"Destination","lon":-71.067079,"lat":48.410863,"arrival":1522689320000,"orig":"","vertexType":"NORMAL"},"legGeometry":{"points":"memfHriupL`@{A[Yo@|BEJIZKIqD}CaA_Aw@jC]UCA]v@Qd@MIYSc@YcAvCmA~CsArDDBj@d@d@`@pAfAqC|Hk@fBG`ACZAvAHr@~@jGlAx@aDbJg@lAWl@Ya@q@W[Ia@YQ_@","length":40},"rentedBike":false,"transitLeg":false,"duration":1219.0,"steps":[{"distance":56.66,"relativeDirection":"DEPART","streetName":"parking aisle","absoluteDirection":"SOUTHEAST","stayOn":false,"area":false,"bogusName":true,"lon":-71.0570537,"lat":48.405519700000006,"elevation":[]},{"distance":71.053,"relativeDirection":"LEFT","streetName":"service road","absoluteDirection":"NORTHWEST","stayOn":true,"area":false,"bogusName":true,"lon":-71.0564657,"lat":48.405483000000004,"elevation":[]},{"distance":166.422,"relativeDirection":"RIGHT","streetName":"Boulevard Talbot","absoluteDirection":"NORTHEAST","stayOn":false,"area":false,"bogusName":false,"lon":-71.05729810000001,"lat":48.4058038,"elevation":[]},{"distance":171.709,"relativeDirection":"LEFT","streetName":"parking aisle","absoluteDirection":"NORTHWEST","stayOn":false,"area":false,"bogusName":true,"lon":-71.0561383,"lat":48.40708720000001,"elevation":[]},{"distance":221.909,"relativeDirection":"LEFT","streetName":"Rue Plamondon","absoluteDirection":"NORTHWEST","stayOn":false,"area":false,"bogusName":false,"lon":-71.05690750000001,"lat":48.408151600000004,"elevation":[]},{"distance":109.532,"relativeDirection":"LEFT","streetName":"Rue Bizet","absoluteDirection":"SOUTHWEST","stayOn":false,"area":false,"bogusName":false,"lon":-71.0593601,"lat":48.4093053,"elevation":[]},{"distance":430.196,"relativeDirection":"RIGHT","streetName":"Rue Belleau","absoluteDirection":"NORTHWEST","stayOn":false,"area":false,"bogusName":false,"lon":-71.0601022,"lat":48.4084523,"elevation":[]},{"distance":217.18,"relativeDirection":"RIGHT","streetName":"Rue Don Bosco","absoluteDirection":"NORTHWEST","stayOn":false,"area":false,"bogusName":false,"lon":-71.06501420000001,"lat":48.408712400000006,"elevation":[]},{"distance":100.59,"relativeDirection":"RIGHT","streetName":"service road","absoluteDirection":"NORTHEAST","stayOn":false,"area":false,"bogusName":false,"lon":-71.0674104,"lat":48.4098446,"elevation":[]}]}],"tooSloped":false}]},"debugOutput":{"precalculationTime":27,"pathCalculationTime":17,"pathTimes":[7,6,3],"renderingTime":0,"totalTime":44,"timedOut":false},"elevationMetadata":{"ellipsoidToGeoidDifference":-28.885904201182168,"geoidElevation":false}}