{"requestParameters":{"date":"2018/04/02","walkSpeed":"1.33","walkReluctance":"2.0","fromPlace":"48.336351,-71.14490999","maxWalkDistance":"3000","waitReluctance":"1.0","carSpeed":"33","numItineraries":"3","waitAtBeginningFactor":"0.4","mode":"TRANSIT,WALK","ignoreRealtimeUpdates":"false","stairsReluctance":"2.0","toPlace":"48.306162,-71.110484","time":"12:50:00"},"plan":{"date":1522687800000,"from":{"name":"Origin","lon":-71.14490999,"lat":48.336351,"orig":"","vertexType":"NORMAL"},"to":{"name":"Destination","lon":-71.110484,"lat":48.306162,"orig":"","vertexType":"NORMAL"},"itineraries":[{"duration":2353,"startTime":1522697999000,"endTime":1522700352000,"walkTime":2263,"transitTime":88,"waitingTime":2,"walkDistance":2973.8239022520606,"walkLimitExceeded":false,"elevationLost":0.0,"elevationGained":0.0,"transfers":0,"legs":[{"startTime":1522697999000,"endTime":1522700131000,"departureDelay":0,"arrivalDelay":0,"realTime":false,"distance":2805.3679999999995,"pathway":false,"mode":"WALK","route":"","agencyTimeZoneOffset":-14400000,"interlineWithPreviousLeg":false,"from":{"name":"Origin","lon":-71.14490999,"lat":48.336351,"departure":1522697999000,"orig":"","vertexType":"NORMAL"},"to":{"name":"Boulevard (no. 1557)","stopId":"1:2127","stopCode":"2127","lon":-71.130498,"lat":48.316221,"arrival":1522700131000,"departure":1522700132000,"zoneId":"NA","stopIndex":8,"stopSequence":9,"vertexType":"TRANSIT"},"legGeometry":{"points":"cu_fHrnfqLf@^j@NtAIhCc@dFgAbBq@vB_B`AeARSpDaF`AeBVk@~@cCpAyDrAsEpAaEd@aAjAiBf@o@V[BEJIx@w@~@m@jAs@p@QbAUpAKnKk@H@hF\\jNvAnFtFjBkF~AqElAmDpAuD\\q@|@cC`DgJ","length":41},"rentedBike":false,"transitLeg":false,"duration":2132.0,"steps":[{"distance":2200.8139999999994,"relativeDirection":"DEPART","streetName":"Rang Saint-Pierre","absoluteDirection":"SOUTHWEST","stayOn":false,"area":false,"bogusName":false,"lon":-71.1448915238083,"lat":48.3363441866017,"elevation":[]},{"distance":604.5540000000001,"relativeDirection":"LEFT","streetName":"Rue du Boulevard","absoluteDirection":"SOUTHEAST","stayOn":false,"area":false,"bogusName":false,"lon":-71.1371469,"lat":48.3193853,"elevation":[]}]},{"startTime":1522700132000,"endTime":1522700220000,"departureDelay":0,"arrivalDelay":0,"realTime":false,"distance":1776.1606211812295,"pathway":false,"mode":"BUS","route":"62","agencyName":"Société de Transport du Saguenay","agencyUrl":"http://ville.saguenay.ca/fr/services-aux-citoyens/transport-sts","agencyTimeZoneOffset":-14400000,"routeColor":"00FFFF","routeType":3,"routeId":"1:62","routeTextColor":"000000","interlineWithPreviousLeg":false,"tripBlockId":"107","headsign":"Costco","agencyId":"0","tripId":"1:218822","serviceDate":"20180402","from":{"name":"Boulevard (no. 1557)","stopId":"1:2127","stopCode":"2127","lon":-71.130498,"lat":48.316221,"arrival":1522700131000,"departure":1522700132000,"zoneId":"NA","stopIndex":8,"stopSequence":9,"vertexType":"TRANSIT"},"to":{"name":"Notre-Dame / Gauthier","stopId":"1:1737","stopCode":"1737","lon":-71.110501,"lat":48.307493,"arrival":1522700220000,"departure":1522700221000,"zoneId":"NA","stopIndex":14,"stopSequence":15,"vertexType":"TRANSIT"},"legGeometry":{"points":"uw{eHhtcqL`KqYbDiJpIeV|IcWv@{Bh@cAf@u@Z]l@e@dBsAjCwBv@u@nA{BdCaGOOqAoBwA{B[i@","length":19},"routeShortName":"62","routeLongName":"Portage des Roches Sud","rentedBike":false,"transitLeg":true,"duration":88.0,"steps":[]},{"startTime":1522700221000,"endTime":1522700352000,"departureDelay":0,"arrivalDelay":0,"realTime":false,"distance":168.34500000000003,"pathway":false,"mode":"WALK","route":"","agencyTimeZoneOffset":-14400000,"interlineWithPreviousLeg":false,"from":{"name":"Notre-Dame / Gauthier","stopId":"1:1737","stopCode":"1737","lon":-71.110501,"lat":48.307493,"arrival":1522700220000,"departure":1522700221000,"zoneId":"NA","stopIndex":14,"stopSequence":15,"vertexType":"TRANSIT"},"to":{"name":"Destination","lon":-71.110484,"lat":48.306162,"arrival":1522700352000,"orig":"","vertexType":"NORMAL"},"legGeometry":{"points":"cazeHdx_qLFLNVt@}@~@w@tAi@b@I","length":7},"rentedBike":false,"transitLeg":false,"duration":131.0,"steps":[{"distance":19.652,"relativeDirection":"DEPART","streetName":"Rue Notre-Dame","absoluteDirection":"SOUTHWEST","stayOn":false,"area":false,"bogusName":false,"lon":-71.11058814414332,"lat":48.30754888257977,"elevation":[]},{"distance":148.693,"relativeDirection":"LEFT","streetName":"Rue Gauthier","absoluteDirection":"SOUTHEAST","stayOn":false,"area":false,"bogusName":false,"lon":-71.1107748,"lat":48.3074231,"elevation":[]}]}],"tooSloped":false},{"duration":3676,"startTime":1522699635000,"endTime":1522703311000,"walkTime":1044,"transitTime":2630,"waitingTime":2,"walkDistance":1366.0540150341728,"walkLimitExceeded":false,"elevationLost":0.0,"elevationGained":0.0,"transfers":0,"legs":[{"startTime":1522699635000,"endTime":1522700169000,"departureDelay":0,"arrivalDelay":0,"realTime":false,"distance":702.513,"pathway":false,"mode":"WALK","route":"","agencyTimeZoneOffset":-14400000,"interlineWithPreviousLeg":false,"from":{"name":"Origin","lon":-71.14490999,"lat":48.336351,"departure":1522699635000,"orig":"","vertexType":"NORMAL"},"to":{"name":"ch. St-Pierre / ch. Bouleaux","stopId":"1:1781","stopCode":"1781","lon":-71.141396,"lat":48.330881,"arrival":1522700169000,"departure":1522700170000,"zoneId":"NA","stopIndex":15,"stopSequence":16,"vertexType":"TRANSIT"},"legGeometry":{"points":"cu_fHrnfqLf@^j@NtAIhCc@dFgAbBq@vB_B`AeARSpDaF`AeBVk@","length":13},"rentedBike":false,"transitLeg":false,"duration":534.0,"steps":[{"distance":702.513,"relativeDirection":"DEPART","streetName":"Rang Saint-Pierre","absoluteDirection":"SOUTHWEST","stayOn":false,"area":false,"bogusName":false,"lon":-71.1448915238083,"lat":48.3363441866017,"elevation":[]}]},{"startTime":1522700170000,"endTime":1522700940000,"departureDelay":0,"arrivalDelay":0,"realTime":false,"distance":11302.735865051769,"pathway":false,"mode":"BUS","route":"60","agencyName":"Société de Transport du Saguenay","agencyUrl":"http://ville.saguenay.ca/fr/services-aux-citoyens/transport-sts","agencyTimeZoneOffset":-14400000,"routeColor":"00FFFF","routeType":3,"routeId":"1:60","routeTextColor":"000000","interlineWithPreviousLeg":false,"tripBlockId":"95","headsign":"Costco","agencyId":"0","tripId":"1:218717","serviceDate":"20180402","from":{"name":"ch. St-Pierre / ch. Bouleaux","stopId":"1:1781","stopCode":"1781","lon":-71.141396,"lat":48.330881,"arrival":1522700169000,"departure":1522700170000,"zoneId":"NA","stopIndex":15,"stopSequence":16,"vertexType":"TRANSIT"},"to":{"name":"COSTCO","stopId":"1:1710","stopCode":"1710","lon":-71.085767,"lat":48.382333,"arrival":1522700940000,"departure":1522701600000,"zoneId":"NA","stopIndex":27,"stopSequence":28,"vertexType":"TRANSIT"},"legGeometry":{"points":"kr~eHnyeqLQ^S\\{BtD}BxCyAvAyA`AqDtAiCn@yD\\w@DKAOCw@c@EAcRwRe@]_AWMAgJeB{BKe@LGDeAj@kAx@cEnC_BlAoAxAeB`DsBbIQbAiAhHk@tFMlAKzAYhCOnCKdDWjGKlAMxAa@vCWnAoBbFkH~Si@lAc@j@WNcAf@{@HiCYcBc@m@Wq@Iu@Qy@_@qBeAkAu@uAm@mImCsA_@yDs@qGk@eB[o@KWCgASaA]cBkAgPsN_FkEwAgAwAsAgAyBe@gBU}AAEMmB_@aEUaB_AeE}BqIy@mCmD{JsAuCu@_Ao@u@y@y@MOsIoKeHaKkEuFSYuAcBqA_BkDgDoBuA{JsFgKgEoBo@aAS_CAeDR}Ej@yHP{BMgBYwC{@kGoCsBs@wAUqAUaCM[eF_@{IE_B?{BBsA@]LkCHaAf@}D\\mBZkA@EXaAxBkGzFmOfD}ItBmFL[nAwDdAmDDSrBuIh@cC~@sFb@qCn@oF`@kEX{DLqBPkEDoBDs@LkIXco@FiDPmCToBVkBd@yBZmA~@uCjAoCRYtCyHQOa@y@[cBv@kB_@a@","length":162},"routeShortName":"60","routeLongName":"Portage des Roches Nord","rentedBike":false,"transitLeg":true,"duration":770.0,"steps":[]},{"startTime":1522701600000,"endTime":1522702800000,"departureDelay":0,"arrivalDelay":0,"realTime":false,"distance":14587.470779787487,"pathway":false,"mode":"BUS","route":"62","agencyName":"Société de Transport du Saguenay","agencyUrl":"http://ville.saguenay.ca/fr/services-aux-citoyens/transport-sts","agencyTimeZoneOffset":-14400000,"routeColor":"00FFFF","routeType":3,"routeId":"1:62","routeTextColor":"000000","interlineWithPreviousLeg":true,"tripBlockId":"95","headsign":"Barrage Port. Roches","agencyId":"0","tripId":"1:218718","serviceDate":"20180402","from":{"name":"COSTCO","stopId":"1:1710","stopCode":"1710","lon":-71.085767,"lat":48.382333,"arrival":1522700940000,"departure":1522701600000,"zoneId":"NA","stopIndex":0,"stopSequence":1,"vertexType":"TRANSIT"},"to":{"name":"Boulevard (no. 1017)","stopId":"1:1723","stopCode":"1723","lon":-71.115166,"lat":48.309087,"arrival":1522702800000,"departure":1522702801000,"zoneId":"NA","stopIndex":15,"stopSequence":16,"vertexType":"TRANSIT"},"legGeometry":{"points":"uthfHh}zpLoB}Bs@`BjChDZbB`@x@PNlFwMHWbFmMBc@~d@skANe@Jk@H_AD_ABuADs@Hk@Lc@N_@X_@ZYbAq@pA]hDuA~UqLAEjJ_EjRiIrJeEdCmAbAs@rAkAbCyC|@cB|@sBpEkN|cA}`D~@wCz@~@~GjH|^d`@fNxNng@di@dJrJ`aAtcA`@d@RZJVNn@Dr@nAp_@HzAHx@ZxAlDzN|DlPjIn]P~@JbB@b@?b@IdAiA|KObAU`A_HfTCDt_AzaA^h@BFDTBV?VATADwBlGCPCl@Jt@pBnG^pBFd@DlAEdCGhCElAg@pG?nAF~@PnAVxAp@lF^`B^dAxAnC@@pAzAr@lAPp@Lj@Dh@HjB@fAWzFA~BQAOAQGWMk@k@QSM[M_@IY_@_AQWSO_DcBUEYLa@VWLYPyGrNeC`GoAzBw@t@kCvBkBvA","length":131},"routeShortName":"62","routeLongName":"Portage des Roches Sud","rentedBike":false,"transitLeg":true,"duration":1200.0,"steps":[]},{"startTime":1522702801000,"endTime":1522703311000,"departureDelay":0,"arrivalDelay":0,"realTime":false,"distance":663.435,"pathway":false,"mode":"WALK","route":"","agencyTimeZoneOffset":-14400000,"interlineWithPreviousLeg":false,"from":{"name":"Boulevard (no. 1017)","stopId":"1:1723","stopCode":"1723","lon":-71.115166,"lat":48.309087,"arrival":1522702800000,"departure":1522702801000,"zoneId":"NA","stopIndex":15,"stopSequence":16,"vertexType":"TRANSIT"},"to":{"name":"Destination","lon":-71.110484,"lat":48.306162,"arrival":1522703311000,"orig":"","vertexType":"NORMAL"},"legGeometry":{"points":"qjzeHhu`qLBCjGcFp@y@d@u@jAwC^w@h@qAwDcGt@}@~@w@tAi@b@I","length":13},"rentedBike":false,"transitLeg":false,"duration":510.0,"steps":[{"distance":374.363,"relativeDirection":"DEPART","streetName":"Rue du Boulevard","absoluteDirection":"SOUTHEAST","stayOn":false,"area":false,"bogusName":false,"lon":-71.11524463993662,"lat":48.30905749725426,"elevation":[]},{"distance":140.379,"relativeDirection":"LEFT","streetName":"Rue Notre-Dame","absoluteDirection":"NORTHEAST","stayOn":false,"area":false,"bogusName":false,"lon":-71.1120744,"lat":48.306503000000006,"elevation":[]},{"distance":148.693,"relativeDirection":"RIGHT","streetName":"Rue Gauthier","absoluteDirection":"SOUTHEAST","stayOn":false,"area":false,"bogusName":false,"lon":-71.1107748,"lat":48.3074231,"elevation":[]}]}],"tooSloped":false},{"duration":2353,"startTime":1522701539000,"endTime":1522703892000,"walkTime":2263,"transitTime":88,"waitingTime":2,"walkDistance":2973.8239022520606,"walkLimitExceeded":false,"elevationLost":0.0,"elevationGained":0.0,"transfers":0,"legs":[{"startTime":1522701539000,"endTime":1522703671000,"departureDelay":0,"arrivalDelay":0,"realTime":false,"distance":2805.3679999999995,"pathway":false,"mode":"WALK","route":"","agencyTimeZoneOffset":-14400000,"interlineWithPreviousLeg":false,"from":{"name":"Origin","lon":-71.14490999,"lat":48.336351,"departure":1522701539000,"orig":"","vertexType":"NORMAL"},"to":{"name":"Boulevard (no. 1557)","stopId":"1:2127","stopCode":"2127","lon":-71.130498,"lat":48.316221,"arrival":1522703671000,"departure":1522703672000,"zoneId":"NA","stopIndex":8,"stopSequence":9,"vertexType":"TRANSIT"},"legGeometry":{"points":"cu_fHrnfqLf@^j@NtAIhCc@dFgAbBq@vB_B`AeARSpDaF`AeBVk@~@cCpAyDrAsEpAaEd@aAjAiBf@o@V[BEJIx@w@~@m@jAs@p@QbAUpAKnKk@H@hF\\jNvAnFtFjBkF~AqElAmDpAuD\\q@|@cC`DgJ","length":41},"rentedBike":false,"transitLeg":false,"duration":2132.0,"steps":[{"distance":2200.8139999999994,"relativeDirection":"DEPART","streetName":"Rang Saint-Pierre","absoluteDirection":"SOUTHWEST","stayOn":false,"area":false,"bogusName":false,"lon":-71.1448915238083,"lat":48.3363441866017,"elevation":[]},{"distance":604.5540000000001,"relativeDirection":"LEFT","streetName":"Rue du Boulevard","absoluteDirection":"SOUTHEAST","stayOn":false,"area":false,"bogusName":false,"lon":-71.1371469,"lat":48.3193853,"elevation":[]}]},{"startTime":1522703672000,"endTime":1522703760000,"departureDelay":0,"arrivalDelay":0,"realTime":false,"distance":1776.1606211812295,"pathway":false,"mode":"BUS","route":"62","agencyName":"Société de Transport du Saguenay","agencyUrl":"http://ville.saguenay.ca/fr/services-aux-citoyens/transport-sts","agencyTimeZoneOffset":-14400000,"routeColor":"00FFFF","routeType":3,"routeId":"1:62","routeTextColor":"000000","interlineWithPreviousLeg":false,"tripBlockId":"95","headsign":"Costco","agencyId":"0","tripId":"1:218719","serviceDate":"20180402","from":{"name":"Boulevard (no. 1557)","stopId":"1:2127","stopCode":"2127","lon":-71.130498,"lat":48.316221,"arrival":1522703671000,"departure":1522703672000,"zoneId":"NA","stopIndex":8,"stopSequence":9,"vertexType":"TRANSIT"},"to":{"name":"Notre-Dame / Gauthier","stopId":"1:1737","stopCode":"1737","lon":-71.110501,"lat":48.307493,"arrival":1522703760000,"departure":1522703761000,"zoneId":"NA","stopIndex":14,"stopSequence":15,"vertexType":"TRANSIT"},"legGeometry":{"points":"uw{eHhtcqL`KqYbDiJpIeV|IcWv@{Bh@cAf@u@Z]l@e@dBsAjCwBv@u@nA{BdCaGOOqAoBwA{B[i@","length":19},"routeShortName":"62","routeLongName":"Portage des Roches Sud","rentedBike":false,"transitLeg":true,"duration":88.0,"steps":[]},{"startTime":1522703761000,"endTime":1522703892000,"departureDelay":0,"arrivalDelay":0,"realTime":false,"distance":168.34500000000003,"pathway":false,"mode":"WALK","route":"","agencyTimeZoneOffset":-14400000,"interlineWithPreviousLeg":false,"from":{"name":"Notre-Dame / Gauthier","stopId":"1:1737","stopCode":"1737","lon":-71.110501,"lat":48.307493,"arrival":1522703760000,"departure":1522703761000,"zoneId":"NA","stopIndex":14,"stopSequence":15,"vertexType":"TRANSIT"},"to":{"name":"Destination","lon":-71.110484,"lat":48.306162,"arrival":1522703892000,"orig":"","vertexType":"NORMAL"},"legGeometry":{"points":"cazeHdx_qLFLNVt@}@~@w@tAi@b@I","length":7},"rentedBike":false,"transitLeg":false,"duration":131.0,"steps":[{"distance":19.652,"relativeDirection":"DEPART","streetName":"Rue Notre-Dame","absoluteDirection":"SOUTHWEST","stayOn":false,"area":false,"bogusName":false,"lon":-71.11058814414332,"lat":48.30754888257977,"elevation":[]},{"distance":148.693,"relativeDirection":"LEFT","streetName":"Rue Gauthier","absoluteDirection":"SOUTHEAST","stayOn":false,"area":false,"bogusName":false,"lon":-71.1107748,"lat":48.3074231,"elevation":[]}]}],"tooSloped":false}]},"debugOutput":{"precalculationTime":1,"pathCalculationTime":11,"pathTimes":[3,4,4],"renderingTime":0,"totalTime":12,"timedOut":false},"elevationMetadata":{"ellipsoidToGeoidDifference":-28.885904201182168,"geoidElevation":false}}