{"requestParameters":{"date":"2018/04/02","walkSpeed":"1.33","walkReluctance":"2.0","fromPlace":"48.309501,-71.11339599","maxWalkDistance":"3000","waitReluctance":"1.0","carSpeed":"33","numItineraries":"3","waitAtBeginningFactor":"0.4","mode":"TRANSIT,WALK","ignoreRealtimeUpdates":"false","stairsReluctance":"2.0","toPlace":"48.327344,-71.143892","time":"15:50:00"},"plan":{"date":1522698600000,"from":{"name":"Origin","lon":-71.11339599,"lat":48.309501,"orig":"","vertexType":"NORMAL"},"to":{"name":"Destination","lon":-71.143892,"lat":48.327344,"orig":"","vertexType":"NORMAL"},"itineraries":[{"duration":1618,"startTime":1522698938000,"endTime":1522700556000,"walkTime":1281,"transitTime":166,"waitingTime":171,"walkDistance":1680.9846541317359,"walkLimitExceeded":false,"elevationLost":0.0,"elevationGained":0.0,"transfers":1,"legs":[{"startTime":1522698938000,"endTime":1522699212000,"departureDelay":0,"arrivalDelay":0,"realTime":false,"distance":349.193,"pathway":false,"mode":"WALK","route":"","agencyTimeZoneOffset":-14400000,"interlineWithPreviousLeg":false,"from":{"name":"Origin","lon":-71.11339599,"lat":48.309501,"departure":1522698938000,"orig":"","vertexType":"NORMAL"},"to":{"name":"Boulevard / Culture","stopId":"1:319","stopCode":"319","lon":-71.117175,"lat":48.310379,"arrival":1522699212000,"departure":1522699213000,"zoneId":"NA","stopIndex":17,"stopSequence":18,"vertexType":"TRANSIT"},"legGeometry":{"points":"{ozeHtl`qLr@bBwB|CaBpEvBpBg@xA","length":6},"rentedBike":false,"transitLeg":false,"duration":274.0,"steps":[{"distance":46.546,"relativeDirection":"DEPART","streetName":"rue de la Moisson","absoluteDirection":"SOUTHWEST","stayOn":false,"area":false,"bogusName":false,"lon":-71.11386191877811,"lat":48.309904767996606,"elevation":[]},{"distance":183.303,"relativeDirection":"RIGHT","streetName":"Rue de la Moisson","absoluteDirection":"NORTHWEST","stayOn":false,"area":false,"bogusName":false,"lon":-71.1143612,"lat":48.309649900000004,"elevation":[]},{"distance":79.487,"relativeDirection":"LEFT","streetName":"Rue de la culture","absoluteDirection":"SOUTHWEST","stayOn":false,"area":false,"bogusName":false,"lon":-71.1162046,"lat":48.3107362,"elevation":[]},{"distance":39.857,"relativeDirection":"RIGHT","streetName":"Rue du Boulevard","absoluteDirection":"NORTHWEST","stayOn":false,"area":false,"bogusName":false,"lon":-71.11677710000001,"lat":48.3101312,"elevation":[]}]},{"startTime":1522699213000,"endTime":1522699286000,"departureDelay":0,"arrivalDelay":0,"realTime":false,"distance":1179.597802074107,"pathway":false,"mode":"BUS","route":"62","agencyName":"Société de Transport du Saguenay","agencyUrl":"http://ville.saguenay.ca/fr/services-aux-citoyens/transport-sts","agencyTimeZoneOffset":-14400000,"routeColor":"00FFFF","routeType":3,"routeId":"1:62","routeTextColor":"000000","interlineWithPreviousLeg":false,"tripBlockId":"107","headsign":"Barrage Port. Roches","agencyId":"0","tripId":"1:218821","serviceDate":"20180402","from":{"name":"Boulevard / Culture","stopId":"1:319","stopCode":"319","lon":-71.117175,"lat":48.310379,"arrival":1522699212000,"departure":1522699213000,"zoneId":"NA","stopIndex":17,"stopSequence":18,"vertexType":"TRANSIT"},"to":{"name":"Boulevard (no. 1557)","stopId":"1:1727","stopCode":"1727","lon":-71.130354,"lat":48.316355,"arrival":1522699286000,"departure":1522699286000,"zoneId":"NA","stopIndex":21,"stopSequence":22,"vertexType":"TRANSIT"},"legGeometry":{"points":"irzeH|aaqLkHvSwIrVgDpJ_KjY","length":5},"routeShortName":"62","routeLongName":"Portage des Roches Sud","rentedBike":false,"transitLeg":true,"duration":73.0,"steps":[]},{"startTime":1522699286000,"endTime":1522699871000,"departureDelay":0,"arrivalDelay":0,"realTime":false,"distance":774.1870000000001,"pathway":false,"mode":"WALK","route":"","agencyTimeZoneOffset":-14400000,"interlineWithPreviousLeg":false,"from":{"name":"Boulevard (no. 1557)","stopId":"1:1727","stopCode":"1727","lon":-71.130354,"lat":48.316355,"arrival":1522699286000,"departure":1522699286000,"zoneId":"NA","stopIndex":21,"stopSequence":22,"vertexType":"TRANSIT"},"to":{"name":"ch. Portage Roches N / Caravanes","stopId":"1:1779","stopCode":"1779","lon":-71.138324,"lat":48.31808,"arrival":1522699871000,"departure":1522700040000,"zoneId":"NA","stopIndex":12,"stopSequence":13,"vertexType":"TRANSIT"},"legGeometry":{"points":"yw{eHbtcqL?@aDfJ}@bC]p@qAtDmAlD_BpEkBjFhDdDrApA@@","length":12},"rentedBike":false,"transitLeg":false,"duration":585.0,"steps":[{"distance":605.051,"relativeDirection":"DEPART","streetName":"Rue du Boulevard","absoluteDirection":"NORTHWEST","stayOn":false,"area":false,"bogusName":false,"lon":-71.13041854024458,"lat":48.31629135907617,"elevation":[]},{"distance":169.136,"relativeDirection":"LEFT","streetName":"Chemin du Portage-des-Roches Nord","absoluteDirection":"SOUTHWEST","stayOn":false,"area":false,"bogusName":false,"lon":-71.1371469,"lat":48.3193853,"elevation":[]}]},{"startTime":1522700040000,"endTime":1522700133000,"departureDelay":0,"arrivalDelay":0,"realTime":false,"distance":1179.2205777895742,"pathway":false,"mode":"BUS","route":"60","agencyName":"Société de Transport du Saguenay","agencyUrl":"http://ville.saguenay.ca/fr/services-aux-citoyens/transport-sts","agencyTimeZoneOffset":-14400000,"routeColor":"00FFFF","routeType":3,"routeId":"1:60","routeTextColor":"000000","interlineWithPreviousLeg":false,"tripBlockId":"95","headsign":"Costco","agencyId":"0","tripId":"1:218717","serviceDate":"20180402","from":{"name":"ch. Portage Roches N / Caravanes","stopId":"1:1779","stopCode":"1779","lon":-71.138324,"lat":48.31808,"arrival":1522699871000,"departure":1522700040000,"zoneId":"NA","stopIndex":12,"stopSequence":13,"vertexType":"TRANSIT"},"to":{"name":"ch. St-Pierre / Peupliers","stopId":"1:409","stopCode":"409","lon":-71.136508,"lat":48.328279,"arrival":1522700133000,"departure":1522700134000,"zoneId":"NA","stopIndex":14,"stopSequence":15,"vertexType":"TRANSIT"},"legGeometry":{"points":"cc|eH|eeqLcD{Cw@{@]]i@i@w@gA_@e@e@UmAc@sHmAaIiA_BAM?cADsJn@gAPkAZODcAl@}@j@w@x@","length":21},"routeShortName":"60","routeLongName":"Portage des Roches Nord","rentedBike":false,"transitLeg":true,"duration":93.0,"steps":[]},{"startTime":1522700134000,"endTime":1522700556000,"departureDelay":0,"arrivalDelay":0,"realTime":false,"distance":557.4929999999999,"pathway":false,"mode":"WALK","route":"","agencyTimeZoneOffset":-14400000,"interlineWithPreviousLeg":false,"from":{"name":"ch. St-Pierre / Peupliers","stopId":"1:409","stopCode":"409","lon":-71.136508,"lat":48.328279,"arrival":1522700133000,"departure":1522700134000,"zoneId":"NA","stopIndex":14,"stopSequence":15,"vertexType":"TRANSIT"},"to":{"name":"Destination","lon":-71.143892,"lat":48.327344,"arrival":1522700556000,"orig":"","vertexType":"NORMAL"},"legGeometry":{"points":"qb~eHpzdqLKHCDWZrAtDn@jCT~BHvBZnC`@tALvBK`B_@|A_@bAc@`ASn@","length":16},"rentedBike":false,"transitLeg":false,"duration":422.0,"steps":[{"distance":27.105999999999998,"relativeDirection":"DEPART","streetName":"Rang Saint-Pierre","absoluteDirection":"NORTHWEST","stayOn":false,"area":false,"bogusName":false,"lon":-71.13656143963804,"lat":48.32825685809407,"elevation":[]},{"distance":530.387,"relativeDirection":"LEFT","streetName":"Rue Josué","absoluteDirection":"SOUTHWEST","stayOn":false,"area":false,"bogusName":false,"lon":-71.1367804,"lat":48.328452000000006,"elevation":[]}]}],"tooSloped":false},{"duration":3895,"startTime":1522699940000,"endTime":1522703835000,"walkTime":668,"transitTime":3225,"waitingTime":2,"walkDistance":868.5042706731981,"walkLimitExceeded":false,"elevationLost":0.0,"elevationGained":0.0,"transfers":0,"legs":[{"startTime":1522699940000,"endTime":1522700186000,"departureDelay":0,"arrivalDelay":0,"realTime":false,"distance":310.903,"pathway":false,"mode":"WALK","route":"","agencyTimeZoneOffset":-14400000,"interlineWithPreviousLeg":false,"from":{"name":"Origin","lon":-71.11339599,"lat":48.309501,"departure":1522699940000,"orig":"","vertexType":"NORMAL"},"to":{"name":"Boulevard / Culture","stopId":"1:1736","stopCode":"1736","lon":-71.116866,"lat":48.310034,"arrival":1522700186000,"departure":1522700187000,"zoneId":"NA","stopIndex":12,"stopSequence":13,"vertexType":"TRANSIT"},"legGeometry":{"points":"{ozeHtl`qLr@bBwB|CaBpEvBpB@A","length":6},"rentedBike":false,"transitLeg":false,"duration":246.0,"steps":[{"distance":46.546,"relativeDirection":"DEPART","streetName":"rue de la Moisson","absoluteDirection":"SOUTHWEST","stayOn":false,"area":false,"bogusName":false,"lon":-71.11386191877811,"lat":48.309904767996606,"elevation":[]},{"distance":183.303,"relativeDirection":"RIGHT","streetName":"Rue de la Moisson","absoluteDirection":"NORTHWEST","stayOn":false,"area":false,"bogusName":false,"lon":-71.1143612,"lat":48.309649900000004,"elevation":[]},{"distance":79.487,"relativeDirection":"LEFT","streetName":"Rue de la culture","absoluteDirection":"SOUTHWEST","stayOn":false,"area":false,"bogusName":false,"lon":-71.1162046,"lat":48.3107362,"elevation":[]},{"distance":1.567,"relativeDirection":"LEFT","streetName":"Rue du Boulevard","absoluteDirection":"SOUTHEAST","stayOn":false,"area":false,"bogusName":false,"lon":-71.11677710000001,"lat":48.3101312,"elevation":[]}]},{"startTime":1522700187000,"endTime":1522701240000,"departureDelay":0,"arrivalDelay":0,"realTime":false,"distance":11233.520438122154,"pathway":false,"mode":"BUS","route":"62","agencyName":"Société de Transport du Saguenay","agencyUrl":"http://ville.saguenay.ca/fr/services-aux-citoyens/transport-sts","agencyTimeZoneOffset":-14400000,"routeColor":"00FFFF","routeType":3,"routeId":"1:62","routeTextColor":"000000","interlineWithPreviousLeg":false,"tripBlockId":"107","headsign":"Costco","agencyId":"0","tripId":"1:218822","serviceDate":"20180402","from":{"name":"Boulevard / Culture","stopId":"1:1736","stopCode":"1736","lon":-71.116866,"lat":48.310034,"arrival":1522700186000,"departure":1522700187000,"zoneId":"NA","stopIndex":12,"stopSequence":13,"vertexType":"TRANSIT"},"to":{"name":"COSTCO","stopId":"1:1710","stopCode":"1710","lon":-71.085767,"lat":48.382333,"arrival":1522701240000,"departure":1522701600000,"zoneId":"NA","stopIndex":30,"stopSequence":31,"vertexType":"TRANSIT"},"legGeometry":{"points":"_qzeHb_aqLv@{Bh@cAf@u@Z]l@e@dBsAjCwBv@u@nA{BdCaGOOqAoBwA{B[i@kF{IyAwDSe@U_@o@eAkDwDoF}Fa@u@iIeQ}Qi`@_@s@a@y@}@_D_Im]y@eCgCwGsDyI]}@_@y@Sc@QSW[mBuAk@Y_@KiAe@a_@_KsUsEcAg@a@YEEcFyFsUsWmB_CqB_CeFoGmAuBi@oAEKiAsBsA{A_As@gEeCy@k@iBkBgGuG[Ya@_@qFuEg@e@qAeB{BcDq@{@iAsAgYc[qJkKyN{Ok@o@{BoAc@Sm@lBcFzO}@rB}@bBcCxCsAjAcAr@eClAsJdEoF~BsJdEsJbEAC{TpJmHjCiEhAHz@d@pGE~@I~@Kj@Od@_e@rkAUReFdMIXyCtHwBcC","length":103},"routeShortName":"62","routeLongName":"Portage des Roches Sud","rentedBike":false,"transitLeg":true,"duration":1053.0,"steps":[]},{"startTime":1522701600000,"endTime":1522702860000,"departureDelay":0,"arrivalDelay":0,"realTime":false,"distance":17761.01599245124,"pathway":false,"mode":"BUS","route":"60","agencyName":"Société de Transport du Saguenay","agencyUrl":"http://ville.saguenay.ca/fr/services-aux-citoyens/transport-sts","agencyTimeZoneOffset":-14400000,"routeColor":"00FFFF","routeType":3,"routeId":"1:60","routeTextColor":"000000","interlineWithPreviousLeg":true,"tripBlockId":"107","headsign":"chemin Portageurs","agencyId":"0","tripId":"1:218823","serviceDate":"20180402","from":{"name":"COSTCO","stopId":"1:1710","stopCode":"1710","lon":-71.085767,"lat":48.382333,"arrival":1522701240000,"departure":1522701600000,"zoneId":"NA","stopIndex":0,"stopSequence":1,"vertexType":"TRANSIT"},"to":{"name":"Ch. des Portageurs (fin)","stopId":"1:1845","stopCode":"1845","lon":-71.210804,"lat":48.311743,"arrival":1522702860000,"departure":1522702920000,"zoneId":"NA","stopIndex":21,"stopSequence":22,"vertexType":"TRANSIT"},"legGeometry":{"points":"uthfHh}zpLoB}Bs@`BjChDZbB`@x@iDvI}@fC_AvC[jAi@`CUbBUxBUdCIlD]to@K`IEt@ElBQlEMrBWvDa@jEq@nFa@rC_AnFi@bCo@pCiAbEyCdJNZPTfApA~DjFxFfFzAdBbA`BlA|Bt@z@z@x@zAhAbBjAfKlGz@~@vApBbApAbDdDdExDLJpIjIvAzBlBdDbAbBfAtAt@|@|@~@tHhHhBlCrCfFx@fAT^bA`AjC~BdI~JpGjHt@bA`AdAvb@xf@`EvEjFjFxAtAd@j@l@z@xC`Fn@v@NNNJ^Xj@Xv@Zz@ZND`@Lx@Rp@LXDrDH|@?p@?VCN?D?VK`@ONIZUVS^]Zc@t@wATs@P}@F_@Jm@JcA@QPsA\\uBXuAdAqDLe@H]zAuHd@kBzAuFXy@NYXg@f@g@|@{@dAy@vC{Br@m@RQRWVa@b@_AdC}Gn@aBl@{Aj@oATe@b@i@\\Y\\Qd@QvDy@r@Ud@Up@i@Z[X]^i@LUL_@^gAxGgUVaAPq@PaAL{@Fq@@eACoBKwFAiCD_AFe@V_AbVqq@Pw@bl@bm@~A|AtE|DnEnDjDdCf`@vVbCdBnAfAjClCsA|DuGjR\\\\v@z@`DxCnAjA|@|@|@l@nFhCjBjA`CfBfB`BzBfDnBvCn@lAl@pAVbAlAxGHb@^|Bh@jERtBBVJjALzB?~EAnFE`J@R@fCDn@LbAp@hCt@nBVf@r@~@j@v@l@tA`@dAp@nAHLh@t@b@r@ZvA\\lCF~@@dAMtDFdBHz@zArJl@vDNr@Rr@DH`@`At@jAh@d@hBfB`@n@n@fBn@tD\\bELz@ZjAjC~Fv@zBf@|BXt@dBpCHN^z@N~@A|@UtB?~BHlARrAJvALdEJzDKhFWtC}AdPuCl^u@vHc@`C]jB_BvJe@|Bo@rBYr@Sf@kFpP]|Ao@lDAH[|A]`AoAfCg@dBQh@aChKG|@?fBFjARlBDl@Gx@c@hCCvAB~@Z`BD`@?^Gd@o@`Bg@t@yD|Dm@|@U`@??g@v@Ob@Ch@MJ","length":296},"routeShortName":"60","routeLongName":"Portage des Roches Nord","rentedBike":false,"transitLeg":true,"duration":1260.0,"steps":[]},{"startTime":1522702920000,"endTime":1522703412000,"departureDelay":0,"arrivalDelay":0,"realTime":false,"distance":7315.583895455762,"pathway":false,"mode":"BUS","route":"60","agencyName":"Société de Transport du Saguenay","agencyUrl":"http://ville.saguenay.ca/fr/services-aux-citoyens/transport-sts","agencyTimeZoneOffset":-14400000,"routeColor":"00FFFF","routeType":3,"routeId":"1:60","routeTextColor":"000000","interlineWithPreviousLeg":true,"tripBlockId":"107","headsign":"Terminus Chicoutimi","agencyId":"0","tripId":"1:218824","serviceDate":"20180402","from":{"name":"Ch. des Portageurs (fin)","stopId":"1:1845","stopCode":"1845","lon":-71.210804,"lat":48.311743,"arrival":1522702860000,"departure":1522702920000,"zoneId":"NA","stopIndex":0,"stopSequence":1,"vertexType":"TRANSIT"},"to":{"name":"ch. St-Pierre / Peupliers","stopId":"1:409","stopCode":"409","lon":-71.136508,"lat":48.328279,"arrival":1522703412000,"departure":1522703413000,"zoneId":"NA","stopIndex":14,"stopSequence":15,"vertexType":"TRANSIT"},"legGeometry":{"points":"{zzeHlksqLJMB_@Ne@`@o@DITa@l@}@xD}Df@u@n@aBFe@?_@Ea@[aBC_ABwAb@iCFy@Em@SmBGkA?gBF}@`CiKNg@h@gBnAgC\\aAZ}A@In@mD\\}AjFqPTk@Vo@n@sBd@}B~AwJ\\kBb@aCt@wHtCm^|AePVuCJiFK{DMeEKwASsAImA?_CTuB@}@O_Aa@_AGKeBqCYu@g@}Bw@{BkC_G[kAM{@]cEo@uDo@gBa@o@iBgBi@e@u@kAa@aACGUu@Os@m@wD{AsJI{@GeBLuDAeAG_A]mC[wAc@s@g@s@KOq@oAa@eAm@uAk@w@s@_AWg@u@oBq@iCMcAEo@AiCAQDaJ@oF?_FM{BKoACSSuBi@kE_@_CIa@mAyGWcAm@qAo@mAmBuC}BiDgBaBaCgBkBkAoFiC}@m@}@}@mAiAcD{Cw@{@]]i@i@w@gA_@e@e@UmAc@sHmAaIiA_BAM?cADsJn@gAPkAZODcAl@}@j@w@x@","length":142},"routeShortName":"60","routeLongName":"Portage des Roches Nord","rentedBike":false,"transitLeg":true,"duration":492.0,"steps":[]},{"startTime":1522703413000,"endTime":1522703835000,"departureDelay":0,"arrivalDelay":0,"realTime":false,"distance":557.4929999999999,"pathway":false,"mode":"WALK","route":"","agencyTimeZoneOffset":-14400000,"interlineWithPreviousLeg":false,"from":{"name":"ch. St-Pierre / Peupliers","stopId":"1:409","stopCode":"409","lon":-71.136508,"lat":48.328279,"arrival":1522703412000,"departure":1522703413000,"zoneId":"NA","stopIndex":14,"stopSequence":15,"vertexType":"TRANSIT"},"to":{"name":"Destination","lon":-71.143892,"lat":48.327344,"arrival":1522703835000,"orig":"","vertexType":"NORMAL"},"legGeometry":{"points":"qb~eHpzdqLKHCDWZrAtDn@jCT~BHvBZnC`@tALvBK`B_@|A_@bAc@`ASn@","length":16},"rentedBike":false,"transitLeg":false,"duration":422.0,"steps":[{"distance":27.105999999999998,"relativeDirection":"DEPART","streetName":"Rang Saint-Pierre","absoluteDirection":"NORTHWEST","stayOn":false,"area":false,"bogusName":false,"lon":-71.13656143963804,"lat":48.32825685809407,"elevation":[]},{"distance":530.387,"relativeDirection":"LEFT","streetName":"Rue Josué","absoluteDirection":"SOUTHWEST","stayOn":false,"area":false,"bogusName":false,"lon":-71.1367804,"lat":48.328452000000006,"elevation":[]}]}],"tooSloped":false},{"duration":2017,"startTime":1522702538000,"endTime":1522704555000,"walkTime":1942,"transitTime":73,"waitingTime":2,"walkDistance":2545.16702255126,"walkLimitExceeded":false,"elevationLost":0.0,"elevationGained":0.0,"transfers":0,"legs":[{"startTime":1522702538000,"endTime":1522702812000,"departureDelay":0,"arrivalDelay":0,"realTime":false,"distance":349.193,"pathway":false,"mode":"WALK","route":"","agencyTimeZoneOffset":-14400000,"interlineWithPreviousLeg":false,"from":{"name":"Origin","lon":-71.11339599,"lat":48.309501,"departure":1522702538000,"orig":"","vertexType":"NORMAL"},"to":{"name":"Boulevard / Culture","stopId":"1:319","stopCode":"319","lon":-71.117175,"lat":48.310379,"arrival":1522702812000,"departure":1522702813000,"zoneId":"NA","stopIndex":17,"stopSequence":18,"vertexType":"TRANSIT"},"legGeometry":{"points":"{ozeHtl`qLr@bBwB|CaBpEvBpBg@xA","length":6},"rentedBike":false,"transitLeg":false,"duration":274.0,"steps":[{"distance":46.546,"relativeDirection":"DEPART","streetName":"rue de la Moisson","absoluteDirection":"SOUTHWEST","stayOn":false,"area":false,"bogusName":false,"lon":-71.11386191877811,"lat":48.309904767996606,"elevation":[]},{"distance":183.303,"relativeDirection":"RIGHT","streetName":"Rue de la Moisson","absoluteDirection":"NORTHWEST","stayOn":false,"area":false,"bogusName":false,"lon":-71.1143612,"lat":48.309649900000004,"elevation":[]},{"distance":79.487,"relativeDirection":"LEFT","streetName":"Rue de la culture","absoluteDirection":"SOUTHWEST","stayOn":false,"area":false,"bogusName":false,"lon":-71.1162046,"lat":48.3107362,"elevation":[]},{"distance":39.857,"relativeDirection":"RIGHT","streetName":"Rue du Boulevard","absoluteDirection":"NORTHWEST","stayOn":false,"area":false,"bogusName":false,"lon":-71.11677710000001,"lat":48.3101312,"elevation":[]}]},{"startTime":1522702813000,"endTime":1522702886000,"departureDelay":0,"arrivalDelay":0,"realTime":false,"distance":1179.597802074107,"pathway":false,"mode":"BUS","route":"62","agencyName":"Société de Transport du Saguenay","agencyUrl":"http://ville.saguenay.ca/fr/services-aux-citoyens/transport-sts","agencyTimeZoneOffset":-14400000,"routeColor":"00FFFF","routeType":3,"routeId":"1:62","routeTextColor":"000000","interlineWithPreviousLeg":false,"tripBlockId":"95","headsign":"Barrage Port. Roches","agencyId":"0","tripId":"1:218718","serviceDate":"20180402","from":{"name":"Boulevard / Culture","stopId":"1:319","stopCode":"319","lon":-71.117175,"lat":48.310379,"arrival":1522702812000,"departure":1522702813000,"zoneId":"NA","stopIndex":17,"stopSequence":18,"vertexType":"TRANSIT"},"to":{"name":"Boulevard (no. 1557)","stopId":"1:1727","stopCode":"1727","lon":-71.130354,"lat":48.316355,"arrival":1522702886000,"departure":1522702887000,"zoneId":"NA","stopIndex":21,"stopSequence":22,"vertexType":"TRANSIT"},"legGeometry":{"points":"irzeH|aaqLkHvSwIrVgDpJ_KjY","length":5},"routeShortName":"62","routeLongName":"Portage des Roches Sud","rentedBike":false,"transitLeg":true,"duration":73.0,"steps":[]},{"startTime":1522702887000,"endTime":1522704555000,"departureDelay":0,"arrivalDelay":0,"realTime":false,"distance":2195.8149999999996,"pathway":false,"mode":"WALK","route":"","agencyTimeZoneOffset":-14400000,"interlineWithPreviousLeg":false,"from":{"name":"Boulevard (no. 1557)","stopId":"1:1727","stopCode":"1727","lon":-71.130354,"lat":48.316355,"arrival":1522702886000,"departure":1522702887000,"zoneId":"NA","stopIndex":21,"stopSequence":22,"vertexType":"TRANSIT"},"to":{"name":"Destination","lon":-71.143892,"lat":48.327344,"arrival":1522704555000,"orig":"","vertexType":"NORMAL"},"legGeometry":{"points":"yw{eHbtcqL?@aDfJ}@bC]p@qAtDmAlD_BpEkBjFoFuFkNwAiF]IAoKj@qAJcATq@PkAr@_Al@y@v@KHCDWZrAtDn@jCT~BHvBZnC`@tALvBK`B_@|A_@bAc@`ASn@","length":35},"rentedBike":false,"transitLeg":false,"duration":1668.0,"steps":[{"distance":605.051,"relativeDirection":"DEPART","streetName":"Rue du Boulevard","absoluteDirection":"NORTHWEST","stayOn":false,"area":false,"bogusName":false,"lon":-71.13041854024458,"lat":48.31629135907617,"elevation":[]},{"distance":1060.377,"relativeDirection":"RIGHT","streetName":"Rang Saint-Pierre","absoluteDirection":"NORTHEAST","stayOn":false,"area":false,"bogusName":false,"lon":-71.1371469,"lat":48.3193853,"elevation":[]},{"distance":530.387,"relativeDirection":"LEFT","streetName":"Rue Josué","absoluteDirection":"SOUTHWEST","stayOn":false,"area":false,"bogusName":false,"lon":-71.1367804,"lat":48.328452000000006,"elevation":[]}]}],"tooSloped":false}]},"debugOutput":{"precalculationTime":1,"pathCalculationTime":13,"pathTimes":[5,6,2],"renderingTime":0,"totalTime":14,"timedOut":false},"elevationMetadata":{"ellipsoidToGeoidDifference":-28.885904201182168,"geoidElevation":false}}