{"requestParameters":{"date":"2018/04/02","walkSpeed":"1.33","walkReluctance":"2.0","fromPlace":"48.327344,-71.143892","maxWalkDistance":"3000","waitReluctance":"1.0","carSpeed":"33","numItineraries":"3","waitAtBeginningFactor":"0.4","mode":"TRANSIT,WALK","ignoreRealtimeUpdates":"false","stairsReluctance":"2.0","toPlace":"48.418157,-71.04802499","time":"13:30:00"},"plan":{"date":1522690200000,"from":{"name":"Origin","lon":-71.143892,"lat":48.327344,"orig":"","vertexType":"NORMAL"},"to":{"name":"Destination","lon":-71.04802499,"lat":48.418157,"orig":"","vertexType":"NORMAL"},"itineraries":[{"duration":2703,"startTime":1522699710000,"endTime":1522702413000,"walkTime":874,"transitTime":1767,"waitingTime":62,"walkDistance":1116.7347819496347,"walkLimitExceeded":false,"elevationLost":0.0,"elevationGained":0.0,"transfers":1,"legs":[{"startTime":1522699710000,"endTime":1522700132000,"departureDelay":0,"arrivalDelay":0,"realTime":false,"distance":557.4929999999999,"pathway":false,"mode":"WALK","route":"","agencyTimeZoneOffset":-14400000,"interlineWithPreviousLeg":false,"from":{"name":"Origin","lon":-71.143892,"lat":48.327344,"departure":1522699710000,"orig":"","vertexType":"NORMAL"},"to":{"name":"ch. St-Pierre / Peupliers","stopId":"1:409","stopCode":"409","lon":-71.136508,"lat":48.328279,"arrival":1522700132000,"departure":1522700133000,"zoneId":"NA","stopIndex":14,"stopSequence":15,"vertexType":"TRANSIT"},"legGeometry":{"points":"m`~eHjdfqLRo@b@aA^cA^}AJaBMwBa@uA[oCIwBU_Co@kCsAuDV[BEJI","length":16},"rentedBike":false,"transitLeg":false,"duration":422.0,"steps":[{"distance":530.387,"relativeDirection":"DEPART","streetName":"Rue Josué","absoluteDirection":"SOUTHEAST","stayOn":false,"area":false,"bogusName":false,"lon":-71.1432521,"lat":48.3279122,"elevation":[]},{"distance":27.105999999999998,"relativeDirection":"RIGHT","streetName":"Rang Saint-Pierre","absoluteDirection":"SOUTHEAST","stayOn":false,"area":false,"bogusName":false,"lon":-71.1367804,"lat":48.328452000000006,"elevation":[]}]},{"startTime":1522700133000,"endTime":1522700940000,"departureDelay":0,"arrivalDelay":0,"realTime":false,"distance":11765.651542125428,"pathway":false,"mode":"BUS","route":"60","agencyName":"Société de Transport du Saguenay","agencyUrl":"http://ville.saguenay.ca/fr/services-aux-citoyens/transport-sts","agencyTimeZoneOffset":-14400000,"routeColor":"00FFFF","routeType":3,"routeId":"1:60","routeTextColor":"000000","interlineWithPreviousLeg":false,"tripBlockId":"95","headsign":"Costco","agencyId":"0","tripId":"1:218717","serviceDate":"20180402","from":{"name":"ch. St-Pierre / Peupliers","stopId":"1:409","stopCode":"409","lon":-71.136508,"lat":48.328279,"arrival":1522700132000,"departure":1522700133000,"zoneId":"NA","stopIndex":14,"stopSequence":15,"vertexType":"TRANSIT"},"to":{"name":"COSTCO","stopId":"1:1710","stopCode":"1710","lon":-71.085767,"lat":48.382333,"arrival":1522700940000,"departure":1522701000000,"zoneId":"NA","stopIndex":27,"stopSequence":28,"vertexType":"TRANSIT"},"legGeometry":{"points":"mb~eHxzdqLML_BlB_B`DiAlDsBdH_AfCq@zAQ^S\\{BtD}BxCyAvAyA`AqDtAiCn@yD\\w@DKAOCw@c@EAcRwRe@]_AWMAgJeB{BKe@LGDeAj@kAx@cEnC_BlAoAxAeB`DsBbIQbAiAhHk@tFMlAKzAYhCOnCKdDWjGKlAMxAa@vCWnAoBbFkH~Si@lAc@j@WNcAf@{@HiCYcBc@m@Wq@Iu@Qy@_@qBeAkAu@uAm@mImCsA_@yDs@qGk@eB[o@KWCgASaA]cBkAgPsN_FkEwAgAwAsAgAyBe@gBU}AAEMmB_@aEUaB_AeE}BqIy@mCmD{JsAuCu@_Ao@u@y@y@MOsIoKeHaKkEuFSYuAcBqA_BkDgDoBuA{JsFgKgEoBo@aAS_CAeDR}Ej@yHP{BMgBYwC{@kGoCsBs@wAUqAUaCM[eF_@{IE_B?{BBsA@]LkCHaAf@}D\\mBZkA@EXaAxBkGzFmOfD}ItBmFL[nAwDdAmDDSrBuIh@cC~@sFb@qCn@oF`@kEX{DLqBPkEDoBDs@LkIXco@FiDPmCToBVkBd@yBZmA~@uCjAoCRYtCyHQOa@y@[cBv@kB_@a@","length":169},"routeShortName":"60","routeLongName":"Portage des Roches Nord","rentedBike":false,"transitLeg":true,"duration":807.0,"steps":[]},{"startTime":1522701000000,"endTime":1522701960000,"departureDelay":0,"arrivalDelay":0,"realTime":false,"distance":5396.059122561201,"pathway":false,"mode":"BUS","route":"175","agencyName":"Société de Transport du Saguenay","agencyUrl":"http://ville.saguenay.ca/fr/services-aux-citoyens/transport-sts","agencyTimeZoneOffset":-14400000,"routeColor":"FF00FF","routeType":3,"routeId":"1:175","routeTextColor":"FFFFFF","interlineWithPreviousLeg":false,"tripBlockId":"80","headsign":"Terminus Chicoutimi","agencyId":"0","tripId":"1:218655","serviceDate":"20180402","from":{"name":"COSTCO","stopId":"1:1710","stopCode":"1710","lon":-71.085767,"lat":48.382333,"arrival":1522700940000,"departure":1522701000000,"zoneId":"NA","stopIndex":0,"stopSequence":1,"vertexType":"TRANSIT"},"to":{"name":"Terminus UQAC","stopId":"1:1670","stopCode":"1670","lon":-71.053369,"lat":48.420903,"arrival":1522701960000,"departure":1522701961000,"zoneId":"NA","stopIndex":14,"stopSequence":15,"vertexType":"TRANSIT"},"legGeometry":{"points":"euhfHt|zpL_BiBsCoDwCqDrCsGN_@uEoFoEiFUWSUqCwC]a@{ByC{@cAkJuKoAwA_CeCeExJ~AlB`@mAu@k@}@q@|C}Iw@}@aO_QkEsEiAoAgEsFkFsHqJ_N}FkImPkOuO{N_U_TcNgNcBcB{E`Jc@x@qG~@{BlAk@XgSrQqB_GAeFiEeEOt@gAeA","length":47},"routeShortName":"175","routeLongName":"Term. Chic / Costco","rentedBike":false,"transitLeg":true,"duration":960.0,"steps":[]},{"startTime":1522701961000,"endTime":1522702413000,"departureDelay":0,"arrivalDelay":0,"realTime":false,"distance":559.079,"pathway":false,"mode":"WALK","route":"","agencyTimeZoneOffset":-14400000,"interlineWithPreviousLeg":false,"from":{"name":"Terminus UQAC","stopId":"1:1670","stopCode":"1670","lon":-71.053369,"lat":48.420903,"arrival":1522701960000,"departure":1522701961000,"zoneId":"NA","stopIndex":14,"stopSequence":15,"vertexType":"TRANSIT"},"to":{"name":"Destination","lon":-71.04802499,"lat":48.418157,"arrival":1522702413000,"orig":"","vertexType":"NORMAL"},"legGeometry":{"points":"sepfHrrtpLbA`ATq@f@wAd@wATs@X{@`@iACCVw@Ts@JWVw@X{@\\qAJ_@Fc@A_@Bo@j@}A`@gATOZKNWBGEM","length":26},"rentedBike":false,"transitLeg":false,"duration":452.0,"steps":[{"distance":552.492,"relativeDirection":"DEPART","streetName":"service road","absoluteDirection":"SOUTHWEST","stayOn":false,"area":false,"bogusName":true,"lon":-71.0533724395415,"lat":48.420904465432976,"elevation":[]},{"distance":6.587,"relativeDirection":"LEFT","streetName":"Rue d'Alma","absoluteDirection":"NORTHEAST","stayOn":false,"area":false,"bogusName":false,"lon":-71.0481062,"lat":48.418131,"elevation":[]}]}],"tooSloped":false},{"duration":4849,"startTime":1522698464000,"endTime":1522703313000,"walkTime":2119,"transitTime":2068,"waitingTime":662,"walkDistance":2754.605646609809,"walkLimitExceeded":false,"elevationLost":0.0,"elevationGained":0.0,"transfers":1,"legs":[{"startTime":1522698464000,"endTime":1522700131000,"departureDelay":0,"arrivalDelay":0,"realTime":false,"distance":2195.318,"pathway":false,"mode":"WALK","route":"","agencyTimeZoneOffset":-14400000,"interlineWithPreviousLeg":false,"from":{"name":"Origin","lon":-71.143892,"lat":48.327344,"departure":1522698464000,"orig":"","vertexType":"NORMAL"},"to":{"name":"Boulevard (no. 1557)","stopId":"1:2127","stopCode":"2127","lon":-71.130498,"lat":48.316221,"arrival":1522700131000,"departure":1522700132000,"zoneId":"NA","stopIndex":8,"stopSequence":9,"vertexType":"TRANSIT"},"legGeometry":{"points":"m`~eHjdfqLRo@b@aA^cA^}AJaBMwBa@uA[oCIwBU_Co@kCsAuDV[BEJIx@w@~@m@jAs@p@QbAUpAKnKk@H@hF\\jNvAnFtFjBkF~AqElAmDpAuD\\q@|@cC`DgJ","length":34},"rentedBike":false,"transitLeg":false,"duration":1667.0,"steps":[{"distance":530.387,"relativeDirection":"DEPART","streetName":"Rue Josué","absoluteDirection":"SOUTHEAST","stayOn":false,"area":false,"bogusName":false,"lon":-71.1432521,"lat":48.3279122,"elevation":[]},{"distance":1060.377,"relativeDirection":"RIGHT","streetName":"Rang Saint-Pierre","absoluteDirection":"SOUTHEAST","stayOn":false,"area":false,"bogusName":false,"lon":-71.1367804,"lat":48.328452000000006,"elevation":[]},{"distance":604.5540000000001,"relativeDirection":"LEFT","streetName":"Rue du Boulevard","absoluteDirection":"SOUTHEAST","stayOn":false,"area":false,"bogusName":false,"lon":-71.1371469,"lat":48.3193853,"elevation":[]}]},{"startTime":1522700132000,"endTime":1522701240000,"departureDelay":0,"arrivalDelay":0,"realTime":false,"distance":12454.09062520728,"pathway":false,"mode":"BUS","route":"62","agencyName":"Société de Transport du Saguenay","agencyUrl":"http://ville.saguenay.ca/fr/services-aux-citoyens/transport-sts","agencyTimeZoneOffset":-14400000,"routeColor":"00FFFF","routeType":3,"routeId":"1:62","routeTextColor":"000000","interlineWithPreviousLeg":false,"tripBlockId":"107","headsign":"Costco","agencyId":"0","tripId":"1:218822","serviceDate":"20180402","from":{"name":"Boulevard (no. 1557)","stopId":"1:2127","stopCode":"2127","lon":-71.130498,"lat":48.316221,"arrival":1522700131000,"departure":1522700132000,"zoneId":"NA","stopIndex":8,"stopSequence":9,"vertexType":"TRANSIT"},"to":{"name":"COSTCO","stopId":"1:1710","stopCode":"1710","lon":-71.085767,"lat":48.382333,"arrival":1522701240000,"departure":1522701900000,"zoneId":"NA","stopIndex":30,"stopSequence":31,"vertexType":"TRANSIT"},"legGeometry":{"points":"uw{eHhtcqL`KqYbDiJpIeV|IcWv@{Bh@cAf@u@Z]l@e@dBsAjCwBv@u@nA{BdCaGOOqAoBwA{B[i@kF{IyAwDSe@U_@o@eAkDwDoF}Fa@u@iIeQ}Qi`@_@s@a@y@}@_D_Im]y@eCgCwGsDyI]}@_@y@Sc@QSW[mBuAk@Y_@KiAe@a_@_KsUsEcAg@a@YEEcFyFsUsWmB_CqB_CeFoGmAuBi@oAEKiAsBsA{A_As@gEeCy@k@iBkBgGuG[Ya@_@qFuEg@e@qAeB{BcDq@{@iAsAgYc[qJkKyN{Ok@o@{BoAc@Sm@lBcFzO}@rB}@bBcCxCsAjAcAr@eClAsJdEoF~BsJdEsJbEAC{TpJmHjCiEhAHz@d@pGE~@I~@Kj@Od@_e@rkAUReFdMIXyCtHwBcC","length":107},"routeShortName":"62","routeLongName":"Portage des Roches Sud","rentedBike":false,"transitLeg":true,"duration":1108.0,"steps":[]},{"startTime":1522701900000,"endTime":1522702860000,"departureDelay":0,"arrivalDelay":0,"realTime":false,"distance":5396.059122561201,"pathway":false,"mode":"BUS","route":"175","agencyName":"Société de Transport du Saguenay","agencyUrl":"http://ville.saguenay.ca/fr/services-aux-citoyens/transport-sts","agencyTimeZoneOffset":-14400000,"routeColor":"FF00FF","routeType":3,"routeId":"1:175","routeTextColor":"FFFFFF","interlineWithPreviousLeg":false,"tripBlockId":"11","headsign":"Terminus Chicoutimi","agencyId":"0","tripId":"1:217482","serviceDate":"20180402","from":{"name":"COSTCO","stopId":"1:1710","stopCode":"1710","lon":-71.085767,"lat":48.382333,"arrival":1522701240000,"departure":1522701900000,"zoneId":"NA","stopIndex":0,"stopSequence":1,"vertexType":"TRANSIT"},"to":{"name":"Terminus UQAC","stopId":"1:1670","stopCode":"1670","lon":-71.053369,"lat":48.420903,"arrival":1522702860000,"departure":1522702861000,"zoneId":"NA","stopIndex":14,"stopSequence":15,"vertexType":"TRANSIT"},"legGeometry":{"points":"euhfHt|zpL_BiBsCoDwCqDrCsGN_@uEoFoEiFUWSUqCwC]a@{ByC{@cAkJuKoAwA_CeCeExJ~AlB`@mAu@k@}@q@|C}Iw@}@aO_QkEsEiAoAgEsFkFsHqJ_N}FkImPkOuO{N_U_TcNgNcBcB{E`Jc@x@qG~@{BlAk@XgSrQqB_GAeFiEeEOt@gAeA","length":47},"routeShortName":"175","routeLongName":"Term. Chic / Costco","rentedBike":false,"transitLeg":true,"duration":960.0,"steps":[]},{"startTime":1522702861000,"endTime":1522703313000,"departureDelay":0,"arrivalDelay":0,"realTime":false,"distance":559.079,"pathway":false,"mode":"WALK","route":"","agencyTimeZoneOffset":-14400000,"interlineWithPreviousLeg":false,"from":{"name":"Terminus UQAC","stopId":"1:1670","stopCode":"1670","lon":-71.053369,"lat":48.420903,"arrival":1522702860000,"departure":1522702861000,"zoneId":"NA","stopIndex":14,"stopSequence":15,"vertexType":"TRANSIT"},"to":{"name":"Destination","lon":-71.04802499,"lat":48.418157,"arrival":1522703313000,"orig":"","vertexType":"NORMAL"},"legGeometry":{"points":"sepfHrrtpLbA`ATq@f@wAd@wATs@X{@`@iACCVw@Ts@JWVw@X{@\\qAJ_@Fc@A_@Bo@j@}A`@gATOZKNWBGEM","length":26},"rentedBike":false,"transitLeg":false,"duration":452.0,"steps":[{"distance":552.492,"relativeDirection":"DEPART","streetName":"service road","absoluteDirection":"SOUTHWEST","stayOn":false,"area":false,"bogusName":true,"lon":-71.0533724395415,"lat":48.420904465432976,"elevation":[]},{"distance":6.587,"relativeDirection":"LEFT","streetName":"Rue d'Alma","absoluteDirection":"NORTHEAST","stayOn":false,"area":false,"bogusName":false,"lon":-71.0481062,"lat":48.418131,"elevation":[]}]}],"tooSloped":false},{"duration":3299,"startTime":1522702989000,"endTime":1522706288000,"walkTime":759,"transitTime":1878,"waitingTime":662,"walkDistance":986.3187218016484,"walkLimitExceeded":false,"elevationLost":0.0,"elevationGained":0.0,"transfers":1,"legs":[{"startTime":1522702989000,"endTime":1522703411000,"departureDelay":0,"arrivalDelay":0,"realTime":false,"distance":557.4929999999999,"pathway":false,"mode":"WALK","route":"","agencyTimeZoneOffset":-14400000,"interlineWithPreviousLeg":false,"from":{"name":"Origin","lon":-71.143892,"lat":48.327344,"departure":1522702989000,"orig":"","vertexType":"NORMAL"},"to":{"name":"ch. St-Pierre / Peupliers","stopId":"1:409","stopCode":"409","lon":-71.136508,"lat":48.328279,"arrival":1522703411000,"departure":1522703412000,"zoneId":"NA","stopIndex":14,"stopSequence":15,"vertexType":"TRANSIT"},"legGeometry":{"points":"m`~eHjdfqLRo@b@aA^cA^}AJaBMwBa@uA[oCIwBU_Co@kCsAuDV[BEJI","length":16},"rentedBike":false,"transitLeg":false,"duration":422.0,"steps":[{"distance":530.387,"relativeDirection":"DEPART","streetName":"Rue Josué","absoluteDirection":"SOUTHEAST","stayOn":false,"area":false,"bogusName":false,"lon":-71.1432521,"lat":48.3279122,"elevation":[]},{"distance":27.105999999999998,"relativeDirection":"RIGHT","streetName":"Rang Saint-Pierre","absoluteDirection":"SOUTHEAST","stayOn":false,"area":false,"bogusName":false,"lon":-71.1367804,"lat":48.328452000000006,"elevation":[]}]},{"startTime":1522703412000,"endTime":1522704840000,"departureDelay":0,"arrivalDelay":0,"realTime":false,"distance":15372.355256986975,"pathway":false,"mode":"BUS","route":"60","agencyName":"Société de Transport du Saguenay","agencyUrl":"http://ville.saguenay.ca/fr/services-aux-citoyens/transport-sts","agencyTimeZoneOffset":-14400000,"routeColor":"00FFFF","routeType":3,"routeId":"1:60","routeTextColor":"000000","interlineWithPreviousLeg":false,"tripBlockId":"107","headsign":"Terminus Chicoutimi","agencyId":"0","tripId":"1:218824","serviceDate":"20180402","from":{"name":"ch. St-Pierre / Peupliers","stopId":"1:409","stopCode":"409","lon":-71.136508,"lat":48.328279,"arrival":1522703411000,"departure":1522703412000,"zoneId":"NA","stopIndex":14,"stopSequence":15,"vertexType":"TRANSIT"},"to":{"name":"Terminus Chicoutimi","stopId":"1:1289","stopCode":"1289","lon":-71.066163,"lat":48.428677,"arrival":1522704840000,"departure":1522705500000,"zoneId":"NA","stopIndex":34,"stopSequence":35,"vertexType":"TRANSIT"},"legGeometry":{"points":"mb~eHxzdqLML_BlB_B`DiAlDsBdH_AfCq@zAQ^S\\{BtD}BxCyAvAyA`AqDtAiCn@yD\\w@DKAOCw@c@EAcRwRe@]_AWMAgJeB{BKe@LGDeAj@kAx@cEnC_BlAoAxAeB`DsBbIQbAiAhHk@tFMlAKzAYhCOnCKdDWjGKlAMxAa@vCWnAoBbFkH~Si@lAc@j@WNcAf@{@HiCYcBc@m@Wq@Iu@Qy@_@qBeAkAu@uAm@mImCsA_@yDs@qGk@eB[o@KWCgASaA]cBkAgPsN_FkEwAgAwAsAgAyBe@gBU}AAEMmB_@aEUaB_AeE}BqIy@mCmD{JsAuCu@_Ao@u@y@y@MOsIoKeHaKkEuFSYuAcBqA_BkDgDoBuA{JsFgKgEoBo@aAS_CAeDR}Ej@yHP{BMgBYwC{@kGoCsBs@wAUqAUaCM[eF_@{IE_B?{BBsA@]LkCHaAf@}D\\mBZkA@EXaAxBkGzFmOfD}I\\{@dBsE[g@}BuBEE_IuHeCaCWUcBiBaJgL_KkMiDgDYUwK_MgKqLGGuGwHoB_C_DqDwGwHkKwLmG{H}D_GoJqNeEkGYc@qFoIcAcBk@_B[mAg@wDo@wDo@mBcBkDwFgI_B{Bw@kAgJsJkJmJwFsFsEuFyA{BwAqAwA_@aDQwNjACmCeDHkBFJiEPiI@kAeAKiAGi@EPmHCoBh@]","length":194},"routeShortName":"60","routeLongName":"Portage des Roches Nord","rentedBike":false,"transitLeg":true,"duration":1428.0,"steps":[]},{"startTime":1522705500000,"endTime":1522705950000,"departureDelay":0,"arrivalDelay":0,"realTime":false,"distance":2054.5895961408355,"pathway":false,"mode":"BUS","route":"10","agencyName":"Société de Transport du Saguenay","agencyUrl":"http://ville.saguenay.ca/fr/services-aux-citoyens/transport-sts","agencyTimeZoneOffset":-14400000,"routeColor":"0000FF","routeType":3,"routeId":"1:10","routeTextColor":"FFFFFF","interlineWithPreviousLeg":false,"tripBlockId":"26","headsign":"Terminus UQAC","agencyId":"0","tripId":"1:217986","serviceDate":"20180402","from":{"name":"Terminus Chicoutimi","stopId":"1:1289","stopCode":"1289","lon":-71.066163,"lat":48.428677,"arrival":1522704840000,"departure":1522705500000,"zoneId":"NA","stopIndex":0,"stopSequence":1,"vertexType":"TRANSIT"},"to":{"name":"nouveau","stopId":"1:2286","stopCode":"2286","lon":-71.045129,"lat":48.420344,"arrival":1522705950000,"departure":1522705951000,"zoneId":"NA","stopIndex":8,"stopSequence":9,"vertexType":"TRANSIT"},"legGeometry":{"points":"svqfHnbwpLDmCdDZ\\kO`@mQBuCD}DQ_ECk@^Cd@QWkL?m@IuF@gA?eH?cAEuEDO^AjD`@B@rEf@T_FjBXpDd@hCObDaCfCaHbFqN","length":30},"routeShortName":"10","routeLongName":"Notre-Dame du Saguenay","rentedBike":false,"transitLeg":true,"duration":450.0,"steps":[]},{"startTime":1522705951000,"endTime":1522706288000,"departureDelay":0,"arrivalDelay":0,"realTime":false,"distance":428.737,"pathway":false,"mode":"WALK","route":"","agencyTimeZoneOffset":-14400000,"interlineWithPreviousLeg":false,"from":{"name":"nouveau","stopId":"1:2286","stopCode":"2286","lon":-71.045129,"lat":48.420344,"arrival":1522705950000,"departure":1522705951000,"zoneId":"NA","stopIndex":8,"stopSequence":9,"vertexType":"TRANSIT"},"to":{"name":"Destination","lon":-71.04802499,"lat":48.418157,"arrival":1522706288000,"orig":"","vertexType":"NORMAL"},"legGeometry":{"points":"{bpfHf~rpLNa@vEdDLFbAn@VRTTr@t@f@j@bA`AaAzCAd@FR","length":13},"rentedBike":false,"transitLeg":false,"duration":337.0,"steps":[{"distance":15.305,"relativeDirection":"DEPART","streetName":"Chemin Sydenham","absoluteDirection":"SOUTHEAST","stayOn":false,"area":false,"bogusName":false,"lon":-71.04499801128695,"lat":48.42046535770786,"elevation":[]},{"distance":322.36300000000006,"relativeDirection":"RIGHT","streetName":"Rue des Hospitalières","absoluteDirection":"SOUTHWEST","stayOn":false,"area":false,"bogusName":false,"lon":-71.0448294,"lat":48.420385200000005,"elevation":[]},{"distance":91.069,"relativeDirection":"RIGHT","streetName":"Rue d'Alma","absoluteDirection":"NORTHWEST","stayOn":false,"area":false,"bogusName":false,"lon":-71.04696630000001,"lat":48.4178653,"elevation":[]}]}],"tooSloped":false}]},"debugOutput":{"precalculationTime":22,"pathCalculationTime":11,"pathTimes":[3,5,3],"renderingTime":0,"totalTime":33,"timedOut":false},"elevationMetadata":{"ellipsoidToGeoidDifference":-28.885904201182168,"geoidElevation":false}}