{"requestParameters":{"date":"2018/04/02","walkSpeed":"1.33","walkReluctance":"2.0","fromPlace":"48.412329,-71.079293","maxWalkDistance":"3000","waitReluctance":"1.0","carSpeed":"33","numItineraries":"3","waitAtBeginningFactor":"0.4","mode":"TRANSIT,WALK","ignoreRealtimeUpdates":"false","stairsReluctance":"2.0","toPlace":"48.417941,-71.070198","time":"12:30:00"},"plan":{"date":1522686600000,"from":{"name":"Origin","lon":-71.079293,"lat":48.412329,"orig":"","vertexType":"NORMAL"},"to":{"name":"Destination","lon":-71.070198,"lat":48.417941,"orig":"","vertexType":"NORMAL"},"itineraries":[{"duration":1124,"startTime":1522686640000,"endTime":1522687764000,"walkTime":1063,"transitTime":59,"waitingTime":2,"walkDistance":1379.504300747998,"walkLimitExceeded":false,"elevationLost":0.0,"elevationGained":0.0,"transfers":0,"legs":[{"startTime":1522686640000,"endTime":1522686735000,"departureDelay":0,"arrivalDelay":0,"realTime":false,"distance":120.399,"pathway":false,"mode":"WALK","route":"","agencyTimeZoneOffset":-14400000,"interlineWithPreviousLeg":false,"from":{"name":"Origin","lon":-71.079293,"lat":48.412329,"departure":1522686640000,"orig":"","vertexType":"NORMAL"},"to":{"name":"Boily / Garnier","stopId":"1:1567","stopCode":"1567","lon":-71.080057,"lat":48.411756,"arrival":1522686735000,"departure":1522686736000,"zoneId":"NA","stopIndex":15,"stopSequence":16,"vertexType":"TRANSIT"},"legGeometry":{"points":"aqnfHdtypLIx@vAXZVl@\\B@","length":6},"rentedBike":false,"transitLeg":false,"duration":95.0,"steps":[{"distance":22.602,"relativeDirection":"DEPART","streetName":"Rue Montmagny","absoluteDirection":"WEST","stayOn":false,"area":false,"bogusName":false,"lon":-71.07922338747093,"lat":48.412492675574335,"elevation":[]},{"distance":97.797,"relativeDirection":"LEFT","streetName":"Rue Boily","absoluteDirection":"SOUTH","stayOn":false,"area":false,"bogusName":false,"lon":-71.0795181,"lat":48.4125479,"elevation":[]}]},{"startTime":1522686736000,"endTime":1522686795000,"departureDelay":0,"arrivalDelay":0,"realTime":false,"distance":239.47895223475888,"pathway":false,"mode":"BUS","route":"14","agencyName":"Société de Transport du Saguenay","agencyUrl":"http://ville.saguenay.ca/fr/services-aux-citoyens/transport-sts","agencyTimeZoneOffset":-14400000,"routeColor":"C0C000","routeType":3,"routeId":"1:14","routeTextColor":"000000","interlineWithPreviousLeg":false,"tripBlockId":"32","headsign":"Talbot / Barrette","agencyId":"0","tripId":"1:218158","serviceDate":"20180402","from":{"name":"Boily / Garnier","stopId":"1:1567","stopCode":"1567","lon":-71.080057,"lat":48.411756,"arrival":1522686735000,"departure":1522686736000,"zoneId":"NA","stopIndex":15,"stopSequence":16,"vertexType":"TRANSIT"},"to":{"name":"Jolliet / Garnier","stopId":"1:4292","stopCode":"4292","lon":-71.077836,"lat":48.410186,"arrival":1522686795000,"departure":1522686796000,"zoneId":"NA","stopIndex":16,"stopSequence":17,"vertexType":"TRANSIT"},"legGeometry":{"points":"elnfHnxypLvAz@z@{DrCoITT","length":5},"routeShortName":"14","routeLongName":"Coopérative","rentedBike":false,"transitLeg":true,"duration":59.0,"steps":[]},{"startTime":1522686796000,"endTime":1522687764000,"departureDelay":0,"arrivalDelay":0,"realTime":false,"distance":1258.985,"pathway":false,"mode":"WALK","route":"","agencyTimeZoneOffset":-14400000,"interlineWithPreviousLeg":false,"from":{"name":"Jolliet / Garnier","stopId":"1:4292","stopCode":"4292","lon":-71.077836,"lat":48.410186,"arrival":1522686795000,"departure":1522686796000,"zoneId":"NA","stopIndex":16,"stopSequence":17,"vertexType":"TRANSIT"},"to":{"name":"Destination","lon":-71.070198,"lat":48.417941,"arrival":1522687764000,"orig":"","vertexType":"NORMAL"},"legGeometry":{"points":"gbnfHrjypLAAUUeCyBi@g@kBkBQyBa@sF_@kFASkEoIuBeE{BuEeEUaAEaBE}CKsBIAPGl@Q`@[l@]lA","length":23},"rentedBike":false,"transitLeg":false,"duration":968.0,"steps":[{"distance":1162.819,"relativeDirection":"DEPART","streetName":"Rue Jolliet","absoluteDirection":"NORTHEAST","stayOn":false,"area":false,"bogusName":false,"lon":-71.07769299697226,"lat":48.41012465107878,"elevation":[]},{"distance":96.166,"relativeDirection":"LEFT","streetName":"service road","absoluteDirection":"WEST","stayOn":false,"area":false,"bogusName":false,"lon":-71.0690988,"lat":48.4175072,"elevation":[]}]}],"tooSloped":false},{"duration":1171,"startTime":1522686600000,"endTime":1522687771000,"walkTime":1171,"transitTime":0,"waitingTime":0,"walkDistance":1501.2545338276964,"walkLimitExceeded":false,"elevationLost":0.0,"elevationGained":0.0,"transfers":0,"legs":[{"startTime":1522686600000,"endTime":1522687771000,"departureDelay":0,"arrivalDelay":0,"realTime":false,"distance":1501.0410000000002,"pathway":false,"mode":"WALK","route":"","agencyTimeZoneOffset":-14400000,"interlineWithPreviousLeg":false,"from":{"name":"Origin","lon":-71.079293,"lat":48.412329,"departure":1522686600000,"orig":"","vertexType":"NORMAL"},"to":{"name":"Destination","lon":-71.070198,"lat":48.417941,"arrival":1522687771000,"orig":"","vertexType":"NORMAL"},"legGeometry":{"points":"aqnfHdtypLIx@OE}Aw@u@s@GGoBiCqCeCcAaA]]o@k@i@g@o@m@oEkEYWd@qA}AeBkAqAwA{AuA}AqAuAeAkAKM}A}An@}AfBwEZi@PSVa@V[FE\\Y^Y^Kn@MV?b@BN?APGl@Q`@[l@]lA","length":43},"rentedBike":false,"transitLeg":false,"duration":1171.0,"steps":[{"distance":22.602,"relativeDirection":"DEPART","streetName":"Rue Montmagny","absoluteDirection":"WEST","stayOn":false,"area":false,"bogusName":false,"lon":-71.07922338747093,"lat":48.412492675574335,"elevation":[]},{"distance":592.0300000000001,"relativeDirection":"RIGHT","streetName":"Rue Boily","absoluteDirection":"NORTH","stayOn":false,"area":false,"bogusName":false,"lon":-71.0795181,"lat":48.4125479,"elevation":[]},{"distance":36.581,"relativeDirection":"RIGHT","streetName":"Rue Des Oblats Est","absoluteDirection":"SOUTHEAST","stayOn":false,"area":false,"bogusName":false,"lon":-71.07527490000001,"lat":48.4170462,"elevation":[]},{"distance":409.582,"relativeDirection":"LEFT","streetName":"Rue Des Eudistes","absoluteDirection":"NORTHEAST","stayOn":false,"area":false,"bogusName":false,"lon":-71.07486750000001,"lat":48.4168588,"elevation":[]},{"distance":344.08000000000004,"relativeDirection":"RIGHT","streetName":"Rue Jolliet","absoluteDirection":"SOUTHEAST","stayOn":false,"area":false,"bogusName":false,"lon":-71.07166600000001,"lat":48.4198673,"elevation":[]},{"distance":96.166,"relativeDirection":"RIGHT","streetName":"service road","absoluteDirection":"WEST","stayOn":false,"area":false,"bogusName":false,"lon":-71.0690988,"lat":48.4175072,"elevation":[]}]}],"tooSloped":false},{"duration":713,"startTime":1522687817000,"endTime":1522688530000,"walkTime":513,"transitTime":198,"waitingTime":2,"walkDistance":655.3003834553106,"walkLimitExceeded":false,"elevationLost":0.0,"elevationGained":0.0,"transfers":0,"legs":[{"startTime":1522687817000,"endTime":1522687914000,"departureDelay":0,"arrivalDelay":0,"realTime":false,"distance":123.206,"pathway":false,"mode":"WALK","route":"","agencyTimeZoneOffset":-14400000,"interlineWithPreviousLeg":false,"from":{"name":"Origin","lon":-71.079293,"lat":48.412329,"departure":1522687817000,"orig":"","vertexType":"NORMAL"},"to":{"name":"Boily / Courtois","stopId":"1:1562","stopCode":"1562","lon":-71.078889,"lat":48.413341,"arrival":1522687914000,"departure":1522687915000,"zoneId":"NA","stopIndex":22,"stopSequence":23,"vertexType":"TRANSIT"},"legGeometry":{"points":"aqnfHdtypLIx@OE}Aw@u@s@","length":5},"rentedBike":false,"transitLeg":false,"duration":97.0,"steps":[{"distance":22.602,"relativeDirection":"DEPART","streetName":"Rue Montmagny","absoluteDirection":"WEST","stayOn":false,"area":false,"bogusName":false,"lon":-71.07922338747093,"lat":48.412492675574335,"elevation":[]},{"distance":100.604,"relativeDirection":"RIGHT","streetName":"Rue Boily","absoluteDirection":"NORTH","stayOn":false,"area":false,"bogusName":false,"lon":-71.0795181,"lat":48.4125479,"elevation":[]}]},{"startTime":1522687915000,"endTime":1522688113000,"departureDelay":0,"arrivalDelay":0,"realTime":false,"distance":942.3801624242545,"pathway":false,"mode":"BUS","route":"14","agencyName":"Société de Transport du Saguenay","agencyUrl":"http://ville.saguenay.ca/fr/services-aux-citoyens/transport-sts","agencyTimeZoneOffset":-14400000,"routeColor":"C0C000","routeType":3,"routeId":"1:14","routeTextColor":"000000","interlineWithPreviousLeg":false,"tripBlockId":"33","headsign":"Terminus Chicoutimi","agencyId":"0","tripId":"1:218184","serviceDate":"20180402","from":{"name":"Boily / Courtois","stopId":"1:1562","stopCode":"1562","lon":-71.078889,"lat":48.413341,"arrival":1522687914000,"departure":1522687915000,"zoneId":"NA","stopIndex":22,"stopSequence":23,"vertexType":"TRANSIT"},"to":{"name":"Jolliet / Audet","stopId":"1:522","stopCode":"522","lon":-71.07278,"lat":48.420244,"arrival":1522688113000,"departure":1522688114000,"zoneId":"NA","stopIndex":27,"stopSequence":28,"vertexType":"TRANSIT"},"legGeometry":{"points":"ovnfHlrypLEEsBkCqFgF{IiI][aBhE}@}@oBmBwE{EwE{Ej@mB","length":12},"routeShortName":"14","routeLongName":"Coopérative","rentedBike":false,"transitLeg":true,"duration":198.0,"steps":[]},{"startTime":1522688114000,"endTime":1522688530000,"departureDelay":0,"arrivalDelay":0,"realTime":false,"distance":531.991,"pathway":false,"mode":"WALK","route":"","agencyTimeZoneOffset":-14400000,"interlineWithPreviousLeg":false,"from":{"name":"Jolliet / Audet","stopId":"1:522","stopCode":"522","lon":-71.07278,"lat":48.420244,"arrival":1522688113000,"departure":1522688114000,"zoneId":"NA","stopIndex":27,"stopSequence":28,"vertexType":"TRANSIT"},"to":{"name":"Destination","lon":-71.070198,"lat":48.417941,"arrival":1522688530000,"orig":"","vertexType":"NORMAL"},"legGeometry":{"points":"cbpfHfkxpLZ}@bAkCn@}AfBwEZi@PSVa@V[FE\\Y^Y^Kn@MV?b@BN?APGl@Q`@[l@]lA","length":22},"rentedBike":false,"transitLeg":false,"duration":416.0,"steps":[{"distance":435.82499999999993,"relativeDirection":"DEPART","streetName":"Rue Jolliet","absoluteDirection":"SOUTHEAST","stayOn":false,"area":false,"bogusName":false,"lon":-71.07267835560184,"lat":48.420345859294756,"elevation":[]},{"distance":96.166,"relativeDirection":"RIGHT","streetName":"service road","absoluteDirection":"WEST","stayOn":false,"area":false,"bogusName":false,"lon":-71.0690988,"lat":48.4175072,"elevation":[]}]}],"tooSloped":false}]},"debugOutput":{"precalculationTime":29,"pathCalculationTime":15,"pathTimes":[9,4,2],"renderingTime":1,"totalTime":45,"timedOut":false},"elevationMetadata":{"ellipsoidToGeoidDifference":-28.885904201182168,"geoidElevation":false}}