{"requestParameters":{"date":"2018/04/02","walkSpeed":"1.33","walkReluctance":"2.0","fromPlace":"48.426905,-71.048929","maxWalkDistance":"3000","waitReluctance":"1.0","carSpeed":"33","numItineraries":"3","waitAtBeginningFactor":"0.4","mode":"TRANSIT,WALK","ignoreRealtimeUpdates":"false","stairsReluctance":"2.0","toPlace":"48.421361,-71.10571899","time":"16:15:00"},"plan":{"date":1522700100000,"from":{"name":"Origin","lon":-71.048929,"lat":48.426905,"orig":"","vertexType":"NORMAL"},"to":{"name":"Destination","lon":-71.10571899,"lat":48.421361,"orig":"","vertexType":"NORMAL"},"itineraries":[{"duration":2199,"startTime":1522700878000,"endTime":1522703077000,"walkTime":1477,"transitTime":720,"waitingTime":2,"walkDistance":1900.8495112715964,"walkLimitExceeded":false,"elevationLost":0.0,"elevationGained":0.0,"transfers":0,"legs":[{"startTime":1522700878000,"endTime":1522701899000,"departureDelay":0,"arrivalDelay":0,"realTime":false,"distance":1311.518,"pathway":false,"mode":"WALK","route":"","agencyTimeZoneOffset":-14400000,"interlineWithPreviousLeg":false,"from":{"name":"Origin","lon":-71.048929,"lat":48.426905,"departure":1522700878000,"orig":"","vertexType":"NORMAL"},"to":{"name":"Terminus Chicoutimi","stopId":"1:1289","stopCode":"1289","lon":-71.066163,"lat":48.428677,"arrival":1522701899000,"departure":1522701900000,"zoneId":"NA","stopIndex":0,"stopSequence":1,"vertexType":"TRANSIT"},"legGeometry":{"points":"wkqfHn~spLmAMIBCJAvEArADrF@jBB~BDdDLfEB|ADdCo@N]FFj@LhA?lB?JCrBA~@C~@EtAKpFAl@?RCv@IxEAh@GpBAXAj@SzHc@MKESAcAK","length":37},"rentedBike":false,"transitLeg":false,"duration":1021.0,"steps":[{"distance":49.551,"relativeDirection":"DEPART","streetName":"Rue Saint-Vallier","absoluteDirection":"NORTH","stayOn":false,"area":false,"bogusName":false,"lon":-71.05015383380092,"lat":48.4270029418696,"elevation":[]},{"distance":512.886,"relativeDirection":"LEFT","streetName":"Rue de l'Hôtel-Dieu","absoluteDirection":"WEST","stayOn":false,"area":false,"bogusName":false,"lon":-71.0501002,"lat":48.4274445,"elevation":[]},{"distance":43.488,"relativeDirection":"RIGHT","streetName":"Rue Labrecque","absoluteDirection":"NORTH","stayOn":false,"area":false,"bogusName":false,"lon":-71.0570361,"lat":48.4272799,"elevation":[]},{"distance":628.3860000000001,"relativeDirection":"LEFT","streetName":"Rue Racine Est","absoluteDirection":"WEST","stayOn":false,"area":false,"bogusName":false,"lon":-71.0571547,"lat":48.427663,"elevation":[]},{"distance":77.207,"relativeDirection":"RIGHT","streetName":"Rue Morin","absoluteDirection":"NORTH","stayOn":false,"area":false,"bogusName":false,"lon":-71.0656238,"lat":48.4279449,"elevation":[]}]},{"startTime":1522701900000,"endTime":1522702620000,"departureDelay":0,"arrivalDelay":0,"realTime":false,"distance":4440.510942259597,"pathway":false,"mode":"BUS","route":"16","agencyName":"Société de Transport du Saguenay","agencyUrl":"http://ville.saguenay.ca/fr/services-aux-citoyens/transport-sts","agencyTimeZoneOffset":-14400000,"routeColor":"00FF00","routeType":3,"routeId":"1:16","routeTextColor":"000000","interlineWithPreviousLeg":false,"tripBlockId":"35","headsign":"Faubourg Sagamie","agencyId":"0","tripId":"1:218262","serviceDate":"20180402","from":{"name":"Terminus Chicoutimi","stopId":"1:1289","stopCode":"1289","lon":-71.066163,"lat":48.428677,"arrival":1522701899000,"departure":1522701900000,"zoneId":"NA","stopIndex":0,"stopSequence":1,"vertexType":"TRANSIT"},"to":{"name":"Rioux / Desgagné","stopId":"1:609","stopCode":"609","lon":-71.100439,"lat":48.42301,"arrival":1522702620000,"departure":1522702621000,"zoneId":"NA","stopIndex":23,"stopSequence":24,"vertexType":"TRANSIT"},"legGeometry":{"points":"evqfHzcwpLg@?AXCnAO~GxDVhCP~M~@jDTOrHKdGE^E~BQnIMhGAxCD~@Df@DVDZd@zBBLDJJNHHHDJBn@HCxAHdAFX@DFj@@b@Ab@SvAe@p@{EnEEB{@w@m@o@aDeDIKCMCM?SL}A?A@WCYi@mDOu@Wm@EIMSSWaAcAuAcBq@f@URa@d@u@`A}BzCV`DX~C@HFT^v@bA|AZ^`Av@\\`@Zf@pAvCtD`JJTrAtCpAjC@BvA|CvA~Ci@zAqD`KyDrKyF|Og@tAr@r@h@^jA\\\\Nt@\\PHf@RVDXEROR[p@iBr@uBJQLIDCNEr@lERbBFzA@LFbFN`A^r@bB|AlC`BDBz@t@eAjD|@x@","length":116},"routeShortName":"16","routeLongName":"Côte de la Réserve","rentedBike":false,"transitLeg":true,"duration":720.0,"steps":[]},{"startTime":1522702621000,"endTime":1522703077000,"departureDelay":0,"arrivalDelay":0,"realTime":false,"distance":589.1270000000001,"pathway":false,"mode":"WALK","route":"","agencyTimeZoneOffset":-14400000,"interlineWithPreviousLeg":false,"from":{"name":"Rioux / Desgagné","stopId":"1:609","stopCode":"609","lon":-71.100439,"lat":48.42301,"arrival":1522702620000,"departure":1522702621000,"zoneId":"NA","stopIndex":23,"stopSequence":24,"vertexType":"TRANSIT"},"to":{"name":"Destination","lon":-71.10571899,"lat":48.421361,"arrival":1522703077000,"orig":"","vertexType":"NORMAL"},"legGeometry":{"points":"qrpfHdx}pLvClCz@t@|AxAl@l@zCzCDBHJBFBF?N?HmBjGgB|F","length":14},"rentedBike":false,"transitLeg":false,"duration":456.0,"steps":[{"distance":362.50800000000004,"relativeDirection":"DEPART","streetName":"Rue Rioux","absoluteDirection":"SOUTHWEST","stayOn":false,"area":false,"bogusName":false,"lon":-71.10034784478613,"lat":48.42297248541416,"elevation":[]},{"distance":226.619,"relativeDirection":"SLIGHTLY_RIGHT","streetName":"Rue Philips","absoluteDirection":"NORTHWEST","stayOn":false,"area":false,"bogusName":false,"lon":-71.10307250000001,"lat":48.420317000000004,"elevation":[]}]}],"tooSloped":false},{"duration":2199,"startTime":1522702678000,"endTime":1522704877000,"walkTime":1477,"transitTime":720,"waitingTime":2,"walkDistance":1900.8495112715964,"walkLimitExceeded":false,"elevationLost":0.0,"elevationGained":0.0,"transfers":0,"legs":[{"startTime":1522702678000,"endTime":1522703699000,"departureDelay":0,"arrivalDelay":0,"realTime":false,"distance":1311.518,"pathway":false,"mode":"WALK","route":"","agencyTimeZoneOffset":-14400000,"interlineWithPreviousLeg":false,"from":{"name":"Origin","lon":-71.048929,"lat":48.426905,"departure":1522702678000,"orig":"","vertexType":"NORMAL"},"to":{"name":"Terminus Chicoutimi","stopId":"1:1289","stopCode":"1289","lon":-71.066163,"lat":48.428677,"arrival":1522703699000,"departure":1522703700000,"zoneId":"NA","stopIndex":0,"stopSequence":1,"vertexType":"TRANSIT"},"legGeometry":{"points":"wkqfHn~spLmAMIBCJAvEArADrF@jBB~BDdDLfEB|ADdCo@N]FFj@LhA?lB?JCrBA~@C~@EtAKpFAl@?RCv@IxEAh@GpBAXAj@SzHc@MKESAcAK","length":37},"rentedBike":false,"transitLeg":false,"duration":1021.0,"steps":[{"distance":49.551,"relativeDirection":"DEPART","streetName":"Rue Saint-Vallier","absoluteDirection":"NORTH","stayOn":false,"area":false,"bogusName":false,"lon":-71.05015383380092,"lat":48.4270029418696,"elevation":[]},{"distance":512.886,"relativeDirection":"LEFT","streetName":"Rue de l'Hôtel-Dieu","absoluteDirection":"WEST","stayOn":false,"area":false,"bogusName":false,"lon":-71.0501002,"lat":48.4274445,"elevation":[]},{"distance":43.488,"relativeDirection":"RIGHT","streetName":"Rue Labrecque","absoluteDirection":"NORTH","stayOn":false,"area":false,"bogusName":false,"lon":-71.0570361,"lat":48.4272799,"elevation":[]},{"distance":628.3860000000001,"relativeDirection":"LEFT","streetName":"Rue Racine Est","absoluteDirection":"WEST","stayOn":false,"area":false,"bogusName":false,"lon":-71.0571547,"lat":48.427663,"elevation":[]},{"distance":77.207,"relativeDirection":"RIGHT","streetName":"Rue Morin","absoluteDirection":"NORTH","stayOn":false,"area":false,"bogusName":false,"lon":-71.0656238,"lat":48.4279449,"elevation":[]}]},{"startTime":1522703700000,"endTime":1522704420000,"departureDelay":0,"arrivalDelay":0,"realTime":false,"distance":4440.510942259597,"pathway":false,"mode":"BUS","route":"16","agencyName":"Société de Transport du Saguenay","agencyUrl":"http://ville.saguenay.ca/fr/services-aux-citoyens/transport-sts","agencyTimeZoneOffset":-14400000,"routeColor":"00FF00","routeType":3,"routeId":"1:16","routeTextColor":"000000","interlineWithPreviousLeg":false,"tripBlockId":"37","headsign":"Faubourg Sagamie","agencyId":"0","tripId":"1:218324","serviceDate":"20180402","from":{"name":"Terminus Chicoutimi","stopId":"1:1289","stopCode":"1289","lon":-71.066163,"lat":48.428677,"arrival":1522703699000,"departure":1522703700000,"zoneId":"NA","stopIndex":0,"stopSequence":1,"vertexType":"TRANSIT"},"to":{"name":"Rioux / Desgagné","stopId":"1:609","stopCode":"609","lon":-71.100439,"lat":48.42301,"arrival":1522704420000,"departure":1522704421000,"zoneId":"NA","stopIndex":23,"stopSequence":24,"vertexType":"TRANSIT"},"legGeometry":{"points":"evqfHzcwpLg@?AXCnAO~GxDVhCP~M~@jDTOrHKdGE^E~BQnIMhGAxCD~@Df@DVDZd@zBBLDJJNHHHDJBn@HCxAHdAFX@DFj@@b@Ab@SvAe@p@{EnEEB{@w@m@o@aDeDIKCMCM?SL}A?A@WCYi@mDOu@Wm@EIMSSWaAcAuAcBq@f@URa@d@u@`A}BzCV`DX~C@HFT^v@bA|AZ^`Av@\\`@Zf@pAvCtD`JJTrAtCpAjC@BvA|CvA~Ci@zAqD`KyDrKyF|Og@tAr@r@h@^jA\\\\Nt@\\PHf@RVDXEROR[p@iBr@uBJQLIDCNEr@lERbBFzA@LFbFN`A^r@bB|AlC`BDBz@t@eAjD|@x@","length":116},"routeShortName":"16","routeLongName":"Côte de la Réserve","rentedBike":false,"transitLeg":true,"duration":720.0,"steps":[]},{"startTime":1522704421000,"endTime":1522704877000,"departureDelay":0,"arrivalDelay":0,"realTime":false,"distance":589.1270000000001,"pathway":false,"mode":"WALK","route":"","agencyTimeZoneOffset":-14400000,"interlineWithPreviousLeg":false,"from":{"name":"Rioux / Desgagné","stopId":"1:609","stopCode":"609","lon":-71.100439,"lat":48.42301,"arrival":1522704420000,"departure":1522704421000,"zoneId":"NA","stopIndex":23,"stopSequence":24,"vertexType":"TRANSIT"},"to":{"name":"Destination","lon":-71.10571899,"lat":48.421361,"arrival":1522704877000,"orig":"","vertexType":"NORMAL"},"legGeometry":{"points":"qrpfHdx}pLvClCz@t@|AxAl@l@zCzCDBHJBFBF?N?HmBjGgB|F","length":14},"rentedBike":false,"transitLeg":false,"duration":456.0,"steps":[{"distance":362.50800000000004,"relativeDirection":"DEPART","streetName":"Rue Rioux","absoluteDirection":"SOUTHWEST","stayOn":false,"area":false,"bogusName":false,"lon":-71.10034784478613,"lat":48.42297248541416,"elevation":[]},{"distance":226.619,"relativeDirection":"SLIGHTLY_RIGHT","streetName":"Rue Philips","absoluteDirection":"NORTHWEST","stayOn":false,"area":false,"bogusName":false,"lon":-71.10307250000001,"lat":48.420317000000004,"elevation":[]}]}],"tooSloped":false},{"duration":2199,"startTime":1522704478000,"endTime":1522706677000,"walkTime":1477,"transitTime":720,"waitingTime":2,"walkDistance":1900.8495112715964,"walkLimitExceeded":false,"elevationLost":0.0,"elevationGained":0.0,"transfers":0,"legs":[{"startTime":1522704478000,"endTime":1522705499000,"departureDelay":0,"arrivalDelay":0,"realTime":false,"distance":1311.518,"pathway":false,"mode":"WALK","route":"","agencyTimeZoneOffset":-14400000,"interlineWithPreviousLeg":false,"from":{"name":"Origin","lon":-71.048929,"lat":48.426905,"departure":1522704478000,"orig":"","vertexType":"NORMAL"},"to":{"name":"Terminus Chicoutimi","stopId":"1:1289","stopCode":"1289","lon":-71.066163,"lat":48.428677,"arrival":1522705499000,"departure":1522705500000,"zoneId":"NA","stopIndex":0,"stopSequence":1,"vertexType":"TRANSIT"},"legGeometry":{"points":"wkqfHn~spLmAMIBCJAvEArADrF@jBB~BDdDLfEB|ADdCo@N]FFj@LhA?lB?JCrBA~@C~@EtAKpFAl@?RCv@IxEAh@GpBAXAj@SzHc@MKESAcAK","length":37},"rentedBike":false,"transitLeg":false,"duration":1021.0,"steps":[{"distance":49.551,"relativeDirection":"DEPART","streetName":"Rue Saint-Vallier","absoluteDirection":"NORTH","stayOn":false,"area":false,"bogusName":false,"lon":-71.05015383380092,"lat":48.4270029418696,"elevation":[]},{"distance":512.886,"relativeDirection":"LEFT","streetName":"Rue de l'Hôtel-Dieu","absoluteDirection":"WEST","stayOn":false,"area":false,"bogusName":false,"lon":-71.0501002,"lat":48.4274445,"elevation":[]},{"distance":43.488,"relativeDirection":"RIGHT","streetName":"Rue Labrecque","absoluteDirection":"NORTH","stayOn":false,"area":false,"bogusName":false,"lon":-71.0570361,"lat":48.4272799,"elevation":[]},{"distance":628.3860000000001,"relativeDirection":"LEFT","streetName":"Rue Racine Est","absoluteDirection":"WEST","stayOn":false,"area":false,"bogusName":false,"lon":-71.0571547,"lat":48.427663,"elevation":[]},{"distance":77.207,"relativeDirection":"RIGHT","streetName":"Rue Morin","absoluteDirection":"NORTH","stayOn":false,"area":false,"bogusName":false,"lon":-71.0656238,"lat":48.4279449,"elevation":[]}]},{"startTime":1522705500000,"endTime":1522706220000,"departureDelay":0,"arrivalDelay":0,"realTime":false,"distance":4440.510942259597,"pathway":false,"mode":"BUS","route":"16","agencyName":"Société de Transport du Saguenay","agencyUrl":"http://ville.saguenay.ca/fr/services-aux-citoyens/transport-sts","agencyTimeZoneOffset":-14400000,"routeColor":"00FF00","routeType":3,"routeId":"1:16","routeTextColor":"000000","interlineWithPreviousLeg":false,"tripBlockId":"34","headsign":"Faubourg Sagamie","agencyId":"0","tripId":"1:218229","serviceDate":"20180402","from":{"name":"Terminus Chicoutimi","stopId":"1:1289","stopCode":"1289","lon":-71.066163,"lat":48.428677,"arrival":1522705499000,"departure":1522705500000,"zoneId":"NA","stopIndex":0,"stopSequence":1,"vertexType":"TRANSIT"},"to":{"name":"Rioux / Desgagné","stopId":"1:609","stopCode":"609","lon":-71.100439,"lat":48.42301,"arrival":1522706220000,"departure":1522706221000,"zoneId":"NA","stopIndex":23,"stopSequence":24,"vertexType":"TRANSIT"},"legGeometry":{"points":"evqfHzcwpLg@?AXCnAO~GxDVhCP~M~@jDTOrHKdGE^E~BQnIMhGAxCD~@Df@DVDZd@zBBLDJJNHHHDJBn@HCxAHdAFX@DFj@@b@Ab@SvAe@p@{EnEEB{@w@m@o@aDeDIKCMCM?SL}A?A@WCYi@mDOu@Wm@EIMSSWaAcAuAcBq@f@URa@d@u@`A}BzCV`DX~C@HFT^v@bA|AZ^`Av@\\`@Zf@pAvCtD`JJTrAtCpAjC@BvA|CvA~Ci@zAqD`KyDrKyF|Og@tAr@r@h@^jA\\\\Nt@\\PHf@RVDXEROR[p@iBr@uBJQLIDCNEr@lERbBFzA@LFbFN`A^r@bB|AlC`BDBz@t@eAjD|@x@","length":116},"routeShortName":"16","routeLongName":"Côte de la Réserve","rentedBike":false,"transitLeg":true,"duration":720.0,"steps":[]},{"startTime":1522706221000,"endTime":1522706677000,"departureDelay":0,"arrivalDelay":0,"realTime":false,"distance":589.1270000000001,"pathway":false,"mode":"WALK","route":"","agencyTimeZoneOffset":-14400000,"interlineWithPreviousLeg":false,"from":{"name":"Rioux / Desgagné","stopId":"1:609","stopCode":"609","lon":-71.100439,"lat":48.42301,"arrival":1522706220000,"departure":1522706221000,"zoneId":"NA","stopIndex":23,"stopSequence":24,"vertexType":"TRANSIT"},"to":{"name":"Destination","lon":-71.10571899,"lat":48.421361,"arrival":1522706677000,"orig":"","vertexType":"NORMAL"},"legGeometry":{"points":"qrpfHdx}pLvClCz@t@|AxAl@l@zCzCDBHJBFBF?N?HmBjGgB|F","length":14},"rentedBike":false,"transitLeg":false,"duration":456.0,"steps":[{"distance":362.50800000000004,"relativeDirection":"DEPART","streetName":"Rue Rioux","absoluteDirection":"SOUTHWEST","stayOn":false,"area":false,"bogusName":false,"lon":-71.10034784478613,"lat":48.42297248541416,"elevation":[]},{"distance":226.619,"relativeDirection":"SLIGHTLY_RIGHT","streetName":"Rue Philips","absoluteDirection":"NORTHWEST","stayOn":false,"area":false,"bogusName":false,"lon":-71.10307250000001,"lat":48.420317000000004,"elevation":[]}]}],"tooSloped":false}]},"debugOutput":{"precalculationTime":16,"pathCalculationTime":45,"pathTimes":[21,11,13],"renderingTime":0,"totalTime":61,"timedOut":false},"elevationMetadata":{"ellipsoidToGeoidDifference":-28.885904201182168,"geoidElevation":false}}