{"requestParameters":{"date":"2018/04/02","walkSpeed":"1.33","walkReluctance":"2.0","fromPlace":"48.398331,-71.106716","maxWalkDistance":"3000","waitReluctance":"1.0","carSpeed":"33","numItineraries":"3","waitAtBeginningFactor":"0.4","mode":"TRANSIT,WALK","ignoreRealtimeUpdates":"false","stairsReluctance":"2.0","toPlace":"48.41844,-71.075039","time":"12:0:00"},"plan":{"date":1522684800000,"from":{"name":"Origin","lon":-71.106716,"lat":48.398331,"orig":"","vertexType":"NORMAL"},"to":{"name":"Destination","lon":-71.075039,"lat":48.41844,"orig":"","vertexType":"NORMAL"},"itineraries":[{"duration":931,"startTime":1522686102000,"endTime":1522687033000,"walkTime":504,"transitTime":425,"waitingTime":2,"walkDistance":640.8895789431228,"walkLimitExceeded":false,"elevationLost":0.0,"elevationGained":0.0,"transfers":0,"legs":[{"startTime":1522686102000,"endTime":1522686362000,"departureDelay":0,"arrivalDelay":0,"realTime":false,"distance":337.20500000000004,"pathway":false,"mode":"WALK","route":"","agencyTimeZoneOffset":-14400000,"interlineWithPreviousLeg":false,"from":{"name":"Origin","lon":-71.106716,"lat":48.398331,"departure":1522686102000,"orig":"","vertexType":"NORMAL"},"to":{"name":"boul. St-Paul / Actionnaires","stopId":"1:270","stopCode":"270","lon":-71.10171,"lat":48.399676,"arrival":1522686362000,"departure":1522686363000,"zoneId":"NA","stopIndex":10,"stopSequence":11,"vertexType":"TRANSIT"},"legGeometry":{"points":"o~kfHxu~pL\\g@tBeHJ_@SWgFaG","length":6},"rentedBike":false,"transitLeg":false,"duration":260.0,"steps":[{"distance":162.673,"relativeDirection":"DEPART","streetName":"Rue Cossette","absoluteDirection":"SOUTHEAST","stayOn":false,"area":false,"bogusName":false,"lon":-71.10508110687712,"lat":48.399283188794854,"elevation":[]},{"distance":174.532,"relativeDirection":"LEFT","streetName":"Boulevard Saint-Paul","absoluteDirection":"NORTHEAST","stayOn":false,"area":false,"bogusName":false,"lon":-71.1032527,"lat":48.3984814,"elevation":[]}]},{"startTime":1522686363000,"endTime":1522686788000,"departureDelay":0,"arrivalDelay":0,"realTime":false,"distance":2807.8683185892173,"pathway":false,"mode":"BUS","route":"11","agencyName":"Société de Transport du Saguenay","agencyUrl":"http://ville.saguenay.ca/fr/services-aux-citoyens/transport-sts","agencyTimeZoneOffset":-14400000,"routeColor":"FF0000","routeType":3,"routeId":"1:11","routeTextColor":"FFFFFF","interlineWithPreviousLeg":false,"tripBlockId":"35","headsign":"Terminus Chicoutimi","agencyId":"0","tripId":"1:218253","serviceDate":"20180402","from":{"name":"boul. St-Paul / Actionnaires","stopId":"1:270","stopCode":"270","lon":-71.10171,"lat":48.399676,"arrival":1522686362000,"departure":1522686363000,"zoneId":"NA","stopIndex":10,"stopSequence":11,"vertexType":"TRANSIT"},"to":{"name":"Saint-Paul / Saint-Henri","stopId":"1:1893","stopCode":"1893","lon":-71.078125,"lat":48.418447,"arrival":1522686788000,"departure":1522686789000,"zoneId":"NA","stopIndex":21,"stopSequence":22,"vertexType":"TRANSIT"},"legGeometry":{"points":"ealfHfa~pLgKsLqMgOmAbDAVSl@y@vBeCuCoCaDkDuE_@g@{FwGOMnA}CnA_DJWu@iAW[S[yI{MmBqC{@wAQUw@gAsDiF_B_CQYa@cA[_AUy@YcBOgAYHu@\\M`@cAiBuAyBkHgL{C{E}AcCc@o@q@gAOWwCyC","length":44},"routeShortName":"11","routeLongName":"Chic/Faubourg via St-Paul","rentedBike":false,"transitLeg":true,"duration":425.0,"steps":[]},{"startTime":1522686789000,"endTime":1522687033000,"departureDelay":0,"arrivalDelay":0,"realTime":false,"distance":303.553,"pathway":false,"mode":"WALK","route":"","agencyTimeZoneOffset":-14400000,"interlineWithPreviousLeg":false,"from":{"name":"Saint-Paul / Saint-Henri","stopId":"1:1893","stopCode":"1893","lon":-71.078125,"lat":48.418447,"arrival":1522686788000,"departure":1522686789000,"zoneId":"NA","stopIndex":21,"stopSequence":22,"vertexType":"TRANSIT"},"to":{"name":"Destination","lon":-71.075039,"lat":48.41844,"arrival":1522687033000,"orig":"","vertexType":"NORMAL"},"legGeometry":{"points":"qvofH|mypLACa@a@y@{@j@}Ax@aCHU`AoCg@i@WYTo@","length":11},"rentedBike":false,"transitLeg":false,"duration":244.0,"steps":[{"distance":63.125,"relativeDirection":"DEPART","streetName":"Rue Saint-Paul","absoluteDirection":"NORTHEAST","stayOn":false,"area":false,"bogusName":false,"lon":-71.07822159015404,"lat":48.41849227688058,"elevation":[]},{"distance":174.846,"relativeDirection":"RIGHT","streetName":"Rue Saint-Henri","absoluteDirection":"SOUTHEAST","stayOn":false,"area":false,"bogusName":false,"lon":-71.07773680000001,"lat":48.418960000000006,"elevation":[]},{"distance":43.818,"relativeDirection":"LEFT","streetName":"Rue Caron","absoluteDirection":"NORTHEAST","stayOn":false,"area":false,"bogusName":false,"lon":-71.0757816,"lat":48.4180719,"elevation":[]},{"distance":21.764,"relativeDirection":"RIGHT","streetName":"Rue Crémazie","absoluteDirection":"SOUTHEAST","stayOn":false,"area":false,"bogusName":false,"lon":-71.07544320000001,"lat":48.418395700000005,"elevation":[]}]}],"tooSloped":false},{"duration":931,"startTime":1522687902000,"endTime":1522688833000,"walkTime":504,"transitTime":425,"waitingTime":2,"walkDistance":640.8895789431228,"walkLimitExceeded":false,"elevationLost":0.0,"elevationGained":0.0,"transfers":0,"legs":[{"startTime":1522687902000,"endTime":1522688162000,"departureDelay":0,"arrivalDelay":0,"realTime":false,"distance":337.20500000000004,"pathway":false,"mode":"WALK","route":"","agencyTimeZoneOffset":-14400000,"interlineWithPreviousLeg":false,"from":{"name":"Origin","lon":-71.106716,"lat":48.398331,"departure":1522687902000,"orig":"","vertexType":"NORMAL"},"to":{"name":"boul. St-Paul / Actionnaires","stopId":"1:270","stopCode":"270","lon":-71.10171,"lat":48.399676,"arrival":1522688162000,"departure":1522688163000,"zoneId":"NA","stopIndex":10,"stopSequence":11,"vertexType":"TRANSIT"},"legGeometry":{"points":"o~kfHxu~pL\\g@tBeHJ_@SWgFaG","length":6},"rentedBike":false,"transitLeg":false,"duration":260.0,"steps":[{"distance":162.673,"relativeDirection":"DEPART","streetName":"Rue Cossette","absoluteDirection":"SOUTHEAST","stayOn":false,"area":false,"bogusName":false,"lon":-71.10508110687712,"lat":48.399283188794854,"elevation":[]},{"distance":174.532,"relativeDirection":"LEFT","streetName":"Boulevard Saint-Paul","absoluteDirection":"NORTHEAST","stayOn":false,"area":false,"bogusName":false,"lon":-71.1032527,"lat":48.3984814,"elevation":[]}]},{"startTime":1522688163000,"endTime":1522688588000,"departureDelay":0,"arrivalDelay":0,"realTime":false,"distance":2807.8683185892173,"pathway":false,"mode":"BUS","route":"11","agencyName":"Société de Transport du Saguenay","agencyUrl":"http://ville.saguenay.ca/fr/services-aux-citoyens/transport-sts","agencyTimeZoneOffset":-14400000,"routeColor":"FF0000","routeType":3,"routeId":"1:11","routeTextColor":"FFFFFF","interlineWithPreviousLeg":false,"tripBlockId":"37","headsign":"Terminus Chicoutimi","agencyId":"0","tripId":"1:218315","serviceDate":"20180402","from":{"name":"boul. St-Paul / Actionnaires","stopId":"1:270","stopCode":"270","lon":-71.10171,"lat":48.399676,"arrival":1522688162000,"departure":1522688163000,"zoneId":"NA","stopIndex":10,"stopSequence":11,"vertexType":"TRANSIT"},"to":{"name":"Saint-Paul / Saint-Henri","stopId":"1:1893","stopCode":"1893","lon":-71.078125,"lat":48.418447,"arrival":1522688588000,"departure":1522688589000,"zoneId":"NA","stopIndex":21,"stopSequence":22,"vertexType":"TRANSIT"},"legGeometry":{"points":"ealfHfa~pLgKsLqMgOmAbDAVSl@y@vBeCuCoCaDkDuE_@g@{FwGOMnA}CnA_DJWu@iAW[S[yI{MmBqC{@wAQUw@gAsDiF_B_CQYa@cA[_AUy@YcBOgAYHu@\\M`@cAiBuAyBkHgL{C{E}AcCc@o@q@gAOWwCyC","length":44},"routeShortName":"11","routeLongName":"Chic/Faubourg via St-Paul","rentedBike":false,"transitLeg":true,"duration":425.0,"steps":[]},{"startTime":1522688589000,"endTime":1522688833000,"departureDelay":0,"arrivalDelay":0,"realTime":false,"distance":303.553,"pathway":false,"mode":"WALK","route":"","agencyTimeZoneOffset":-14400000,"interlineWithPreviousLeg":false,"from":{"name":"Saint-Paul / Saint-Henri","stopId":"1:1893","stopCode":"1893","lon":-71.078125,"lat":48.418447,"arrival":1522688588000,"departure":1522688589000,"zoneId":"NA","stopIndex":21,"stopSequence":22,"vertexType":"TRANSIT"},"to":{"name":"Destination","lon":-71.075039,"lat":48.41844,"arrival":1522688833000,"orig":"","vertexType":"NORMAL"},"legGeometry":{"points":"qvofH|mypLACa@a@y@{@j@}Ax@aCHU`AoCg@i@WYTo@","length":11},"rentedBike":false,"transitLeg":false,"duration":244.0,"steps":[{"distance":63.125,"relativeDirection":"DEPART","streetName":"Rue Saint-Paul","absoluteDirection":"NORTHEAST","stayOn":false,"area":false,"bogusName":false,"lon":-71.07822159015404,"lat":48.41849227688058,"elevation":[]},{"distance":174.846,"relativeDirection":"RIGHT","streetName":"Rue Saint-Henri","absoluteDirection":"SOUTHEAST","stayOn":false,"area":false,"bogusName":false,"lon":-71.07773680000001,"lat":48.418960000000006,"elevation":[]},{"distance":43.818,"relativeDirection":"LEFT","streetName":"Rue Caron","absoluteDirection":"NORTHEAST","stayOn":false,"area":false,"bogusName":false,"lon":-71.0757816,"lat":48.4180719,"elevation":[]},{"distance":21.764,"relativeDirection":"RIGHT","streetName":"Rue Crémazie","absoluteDirection":"SOUTHEAST","stayOn":false,"area":false,"bogusName":false,"lon":-71.07544320000001,"lat":48.418395700000005,"elevation":[]}]}],"tooSloped":false},{"duration":931,"startTime":1522689702000,"endTime":1522690633000,"walkTime":504,"transitTime":425,"waitingTime":2,"walkDistance":640.8895789431228,"walkLimitExceeded":false,"elevationLost":0.0,"elevationGained":0.0,"transfers":0,"legs":[{"startTime":1522689702000,"endTime":1522689962000,"departureDelay":0,"arrivalDelay":0,"realTime":false,"distance":337.20500000000004,"pathway":false,"mode":"WALK","route":"","agencyTimeZoneOffset":-14400000,"interlineWithPreviousLeg":false,"from":{"name":"Origin","lon":-71.106716,"lat":48.398331,"departure":1522689702000,"orig":"","vertexType":"NORMAL"},"to":{"name":"boul. St-Paul / Actionnaires","stopId":"1:270","stopCode":"270","lon":-71.10171,"lat":48.399676,"arrival":1522689962000,"departure":1522689963000,"zoneId":"NA","stopIndex":10,"stopSequence":11,"vertexType":"TRANSIT"},"legGeometry":{"points":"o~kfHxu~pL\\g@tBeHJ_@SWgFaG","length":6},"rentedBike":false,"transitLeg":false,"duration":260.0,"steps":[{"distance":162.673,"relativeDirection":"DEPART","streetName":"Rue Cossette","absoluteDirection":"SOUTHEAST","stayOn":false,"area":false,"bogusName":false,"lon":-71.10508110687712,"lat":48.399283188794854,"elevation":[]},{"distance":174.532,"relativeDirection":"LEFT","streetName":"Boulevard Saint-Paul","absoluteDirection":"NORTHEAST","stayOn":false,"area":false,"bogusName":false,"lon":-71.1032527,"lat":48.3984814,"elevation":[]}]},{"startTime":1522689963000,"endTime":1522690388000,"departureDelay":0,"arrivalDelay":0,"realTime":false,"distance":2807.8683185892173,"pathway":false,"mode":"BUS","route":"11","agencyName":"Société de Transport du Saguenay","agencyUrl":"http://ville.saguenay.ca/fr/services-aux-citoyens/transport-sts","agencyTimeZoneOffset":-14400000,"routeColor":"FF0000","routeType":3,"routeId":"1:11","routeTextColor":"FFFFFF","interlineWithPreviousLeg":false,"tripBlockId":"34","headsign":"Terminus Chicoutimi","agencyId":"0","tripId":"1:218220","serviceDate":"20180402","from":{"name":"boul. St-Paul / Actionnaires","stopId":"1:270","stopCode":"270","lon":-71.10171,"lat":48.399676,"arrival":1522689962000,"departure":1522689963000,"zoneId":"NA","stopIndex":10,"stopSequence":11,"vertexType":"TRANSIT"},"to":{"name":"Saint-Paul / Saint-Henri","stopId":"1:1893","stopCode":"1893","lon":-71.078125,"lat":48.418447,"arrival":1522690388000,"departure":1522690389000,"zoneId":"NA","stopIndex":21,"stopSequence":22,"vertexType":"TRANSIT"},"legGeometry":{"points":"ealfHfa~pLgKsLqMgOmAbDAVSl@y@vBeCuCoCaDkDuE_@g@{FwGOMnA}CnA_DJWu@iAW[S[yI{MmBqC{@wAQUw@gAsDiF_B_CQYa@cA[_AUy@YcBOgAYHu@\\M`@cAiBuAyBkHgL{C{E}AcCc@o@q@gAOWwCyC","length":44},"routeShortName":"11","routeLongName":"Chic/Faubourg via St-Paul","rentedBike":false,"transitLeg":true,"duration":425.0,"steps":[]},{"startTime":1522690389000,"endTime":1522690633000,"departureDelay":0,"arrivalDelay":0,"realTime":false,"distance":303.553,"pathway":false,"mode":"WALK","route":"","agencyTimeZoneOffset":-14400000,"interlineWithPreviousLeg":false,"from":{"name":"Saint-Paul / Saint-Henri","stopId":"1:1893","stopCode":"1893","lon":-71.078125,"lat":48.418447,"arrival":1522690388000,"departure":1522690389000,"zoneId":"NA","stopIndex":21,"stopSequence":22,"vertexType":"TRANSIT"},"to":{"name":"Destination","lon":-71.075039,"lat":48.41844,"arrival":1522690633000,"orig":"","vertexType":"NORMAL"},"legGeometry":{"points":"qvofH|mypLACa@a@y@{@j@}Ax@aCHU`AoCg@i@WYTo@","length":11},"rentedBike":false,"transitLeg":false,"duration":244.0,"steps":[{"distance":63.125,"relativeDirection":"DEPART","streetName":"Rue Saint-Paul","absoluteDirection":"NORTHEAST","stayOn":false,"area":false,"bogusName":false,"lon":-71.07822159015404,"lat":48.41849227688058,"elevation":[]},{"distance":174.846,"relativeDirection":"RIGHT","streetName":"Rue Saint-Henri","absoluteDirection":"SOUTHEAST","stayOn":false,"area":false,"bogusName":false,"lon":-71.07773680000001,"lat":48.418960000000006,"elevation":[]},{"distance":43.818,"relativeDirection":"LEFT","streetName":"Rue Caron","absoluteDirection":"NORTHEAST","stayOn":false,"area":false,"bogusName":false,"lon":-71.0757816,"lat":48.4180719,"elevation":[]},{"distance":21.764,"relativeDirection":"RIGHT","streetName":"Rue Crémazie","absoluteDirection":"SOUTHEAST","stayOn":false,"area":false,"bogusName":false,"lon":-71.07544320000001,"lat":48.418395700000005,"elevation":[]}]}],"tooSloped":false}]},"debugOutput":{"precalculationTime":19,"pathCalculationTime":16,"pathTimes":[6,7,3],"renderingTime":0,"totalTime":35,"timedOut":false},"elevationMetadata":{"ellipsoidToGeoidDifference":-28.885904201182168,"geoidElevation":false}}