{"requestParameters":{"date":"2018/04/02","walkSpeed":"1.33","walkReluctance":"2.0","fromPlace":"48.426905,-71.048929","maxWalkDistance":"3000","waitReluctance":"1.0","carSpeed":"33","numItineraries":"3","waitAtBeginningFactor":"0.4","mode":"TRANSIT,WALK","ignoreRealtimeUpdates":"false","stairsReluctance":"2.0","toPlace":"48.414606,-71.080778","time":"8:30:00"},"plan":{"date":1522672200000,"from":{"name":"Origin","lon":-71.048929,"lat":48.426905,"orig":"","vertexType":"NORMAL"},"to":{"name":"Destination","lon":-71.080778,"lat":48.414606,"orig":"","vertexType":"NORMAL"},"itineraries":[{"duration":1564,"startTime":1522672424000,"endTime":1522673988000,"walkTime":542,"transitTime":720,"waitingTime":302,"walkDistance":683.7169999951598,"walkLimitExceeded":false,"elevationLost":0.0,"elevationGained":0.0,"transfers":1,"legs":[{"startTime":1522672424000,"endTime":1522672499000,"departureDelay":0,"arrivalDelay":0,"realTime":false,"distance":89.05600000000001,"pathway":false,"mode":"WALK","route":"","agencyTimeZoneOffset":-14400000,"interlineWithPreviousLeg":false,"from":{"name":"Origin","lon":-71.048929,"lat":48.426905,"departure":1522672424000,"orig":"","vertexType":"NORMAL"},"to":{"name":"Hôpital de Chicoutimi (Saint-Vallier)","stopId":"1:410","stopCode":"410","lon":-71.050193,"lat":48.426282,"arrival":1522672499000,"departure":1522672500000,"zoneId":"NA","stopIndex":14,"stopSequence":15,"vertexType":"TRANSIT"},"legGeometry":{"points":"wkqfHn~spLB?pBTF?J_@F?","length":6},"rentedBike":false,"transitLeg":false,"duration":75.0,"steps":[{"distance":70.68700000000001,"relativeDirection":"DEPART","streetName":"Rue Saint-Vallier","absoluteDirection":"SOUTH","stayOn":false,"area":false,"bogusName":false,"lon":-71.05015383380092,"lat":48.4270029418696,"elevation":[]},{"distance":13.926,"relativeDirection":"LEFT","streetName":"path","absoluteDirection":"SOUTHEAST","stayOn":false,"area":false,"bogusName":true,"lon":-71.05026840000001,"lat":48.426371800000005,"elevation":[]},{"distance":4.443,"relativeDirection":"RIGHT","streetName":"service road","absoluteDirection":"SOUTH","stayOn":true,"area":false,"bogusName":true,"lon":-71.0501005,"lat":48.426314600000005,"elevation":[]}]},{"startTime":1522672500000,"endTime":1522672800000,"departureDelay":0,"arrivalDelay":0,"realTime":false,"distance":1235.9935925040847,"pathway":false,"mode":"BUS","route":"10","agencyName":"Société de Transport du Saguenay","agencyUrl":"http://ville.saguenay.ca/fr/services-aux-citoyens/transport-sts","agencyTimeZoneOffset":-14400000,"routeColor":"0000FF","routeType":3,"routeId":"1:10","routeTextColor":"FFFFFF","interlineWithPreviousLeg":false,"tripBlockId":"27","headsign":"Terminus Chicoutimi","agencyId":"0","tripId":"1:218003","serviceDate":"20180402","from":{"name":"Hôpital de Chicoutimi (Saint-Vallier)","stopId":"1:410","stopCode":"410","lon":-71.050193,"lat":48.426282,"arrival":1522672499000,"departure":1522672500000,"zoneId":"NA","stopIndex":14,"stopSequence":15,"vertexType":"TRANSIT"},"to":{"name":"Terminus Chicoutimi","stopId":"1:1289","stopCode":"1289","lon":-71.066163,"lat":48.428677,"arrival":1522672800000,"departure":1522673100000,"zoneId":"NA","stopIndex":21,"stopSequence":22,"vertexType":"TRANSIT"},"legGeometry":{"points":"igqfHj_tpLAAuEg@MDENF|GAjJDzBDdDLdHFbCo@RUFRbFG|FApAMvFa@tPOnHqBOIjDc@Q","length":22},"routeShortName":"10","routeLongName":"Notre-Dame du Saguenay","rentedBike":false,"transitLeg":true,"duration":300.0,"steps":[]},{"startTime":1522673100000,"endTime":1522673520000,"departureDelay":0,"arrivalDelay":0,"realTime":false,"distance":2314.629061111065,"pathway":false,"mode":"BUS","route":"11","agencyName":"Société de Transport du Saguenay","agencyUrl":"http://ville.saguenay.ca/fr/services-aux-citoyens/transport-sts","agencyTimeZoneOffset":-14400000,"routeColor":"FF0000","routeType":3,"routeId":"1:11","routeTextColor":"FFFFFF","interlineWithPreviousLeg":false,"tripBlockId":"34","headsign":"Boul.Royaume/St-Pierre","agencyId":"0","tripId":"1:218211","serviceDate":"20180402","from":{"name":"Terminus Chicoutimi","stopId":"1:1289","stopCode":"1289","lon":-71.066163,"lat":48.428677,"arrival":1522672800000,"departure":1522673100000,"zoneId":"NA","stopIndex":0,"stopSequence":1,"vertexType":"TRANSIT"},"to":{"name":"Saint-Paul / Saint-Augustin","stopId":"1:426","stopCode":"426","lon":-71.084129,"lat":48.414194,"arrival":1522673520000,"departure":1522673521000,"zoneId":"NA","stopIndex":12,"stopSequence":13,"vertexType":"TRANSIT"},"legGeometry":{"points":"evqfHzcwpLk@?UhKfIh@dKp@GnDIfDOtEE~@Ff@x@rEF~@CbAALO~ADRNJXBr@DfGRPBPJLN@@FPFTBX?TE`BhBR@?J@NELKFOlAiDL[bA`AfIjIbGdGzDzD`A~An@`ApApBpClEvJrO","length":46},"routeShortName":"11","routeLongName":"Chic/Faubourg via St-Paul","rentedBike":false,"transitLeg":true,"duration":420.0,"steps":[]},{"startTime":1522673521000,"endTime":1522673988000,"departureDelay":0,"arrivalDelay":0,"realTime":false,"distance":594.511,"pathway":false,"mode":"WALK","route":"","agencyTimeZoneOffset":-14400000,"interlineWithPreviousLeg":false,"from":{"name":"Saint-Paul / Saint-Augustin","stopId":"1:426","stopCode":"426","lon":-71.084129,"lat":48.414194,"arrival":1522673520000,"departure":1522673521000,"zoneId":"NA","stopIndex":12,"stopSequence":13,"vertexType":"TRANSIT"},"to":{"name":"Destination","lon":-71.080778,"lat":48.414606,"arrival":1522673988000,"orig":"","vertexType":"NORMAL"},"legGeometry":{"points":"k{nfHjrzpLfAfBPTHWd@WRKZQHCnAi@f@YnAoB[]sCeDs@w@_BkBaA}A[g@c@cA","length":18},"rentedBike":false,"transitLeg":false,"duration":467.0,"steps":[{"distance":68.066,"relativeDirection":"DEPART","streetName":"Rue Saint-Paul","absoluteDirection":"SOUTHWEST","stayOn":false,"area":false,"bogusName":false,"lon":-71.08405531431303,"lat":48.4141469515624,"elevation":[]},{"distance":67.896,"relativeDirection":"LEFT","streetName":"Rue Saint-Augustin","absoluteDirection":"SOUTHEAST","stayOn":false,"area":false,"bogusName":false,"lon":-71.0846811,"lat":48.413698000000004,"elevation":[]},{"distance":131.483,"relativeDirection":"CONTINUE","streetName":"Rue Garnier","absoluteDirection":"SOUTH","stayOn":false,"area":false,"bogusName":false,"lon":-71.0842714,"lat":48.413164,"elevation":[]},{"distance":327.066,"relativeDirection":"LEFT","streetName":"Rue Louis Fréchette","absoluteDirection":"NORTHEAST","stayOn":false,"area":false,"bogusName":false,"lon":-71.08337680000001,"lat":48.4121686,"elevation":[]}]}],"tooSloped":false},{"duration":1404,"startTime":1522672882000,"endTime":1522674286000,"walkTime":642,"transitTime":760,"waitingTime":2,"walkDistance":819.0574436049103,"walkLimitExceeded":false,"elevationLost":0.0,"elevationGained":0.0,"transfers":0,"legs":[{"startTime":1522672882000,"endTime":1522673336000,"departureDelay":0,"arrivalDelay":0,"realTime":false,"distance":575.595,"pathway":false,"mode":"WALK","route":"","agencyTimeZoneOffset":-14400000,"interlineWithPreviousLeg":false,"from":{"name":"Origin","lon":-71.048929,"lat":48.426905,"departure":1522672882000,"orig":"","vertexType":"NORMAL"},"to":{"name":"Bégin / Jacques-Cartier","stopId":"1:67","stopCode":"67","lon":-71.055431,"lat":48.425501,"arrival":1522673336000,"departure":1522673337000,"zoneId":"NA","stopIndex":4,"stopSequence":5,"vertexType":"TRANSIT"},"legGeometry":{"points":"wkqfHn~spLmAMIBCJAvEArADrF@jBxAtABB`A|@h@`@ZVz@r@p@p@`@`@b@b@KZ","length":18},"rentedBike":false,"transitLeg":false,"duration":454.0,"steps":[{"distance":49.551,"relativeDirection":"DEPART","streetName":"Rue Saint-Vallier","absoluteDirection":"NORTH","stayOn":false,"area":false,"bogusName":false,"lon":-71.05015383380092,"lat":48.4270029418696,"elevation":[]},{"distance":245.608,"relativeDirection":"LEFT","streetName":"Rue de l'Hôtel-Dieu","absoluteDirection":"WEST","stayOn":false,"area":false,"bogusName":false,"lon":-71.0501002,"lat":48.4274445,"elevation":[]},{"distance":268.39099999999996,"relativeDirection":"LEFT","streetName":"Rue Bégin","absoluteDirection":"SOUTHWEST","stayOn":false,"area":false,"bogusName":false,"lon":-71.0534231,"lat":48.4274435,"elevation":[]},{"distance":12.045,"relativeDirection":"RIGHT","streetName":"Rue Gaudreault","absoluteDirection":"NORTHWEST","stayOn":false,"area":false,"bogusName":false,"lon":-71.0553392,"lat":48.4253936,"elevation":[]}]},{"startTime":1522673337000,"endTime":1522674097000,"departureDelay":0,"arrivalDelay":0,"realTime":false,"distance":3159.4862038589076,"pathway":false,"mode":"BUS","route":"14","agencyName":"Société de Transport du Saguenay","agencyUrl":"http://ville.saguenay.ca/fr/services-aux-citoyens/transport-sts","agencyTimeZoneOffset":-14400000,"routeColor":"C0C000","routeType":3,"routeId":"1:14","routeTextColor":"000000","interlineWithPreviousLeg":false,"tripBlockId":"30","headsign":"Talbot / Barrette","agencyId":"0","tripId":"1:218091","serviceDate":"20180402","from":{"name":"Bégin / Jacques-Cartier","stopId":"1:67","stopCode":"67","lon":-71.055431,"lat":48.425501,"arrival":1522673336000,"departure":1522673337000,"zoneId":"NA","stopIndex":4,"stopSequence":5,"vertexType":"TRANSIT"},"to":{"name":"Boily / Courtois","stopId":"1:1563","stopCode":"1563","lon":-71.079091,"lat":48.413422,"arrival":1522674097000,"departure":1522674098000,"zoneId":"NA","stopIndex":14,"stopSequence":15,"vertexType":"TRANSIT"},"legGeometry":{"points":"_bqfHr~tpLvIrIn@n@\\iATg@v@_ATg@LmABg@Is@c@iEAm@bAcDTcAtA{DJI|AxAvAvAQv@~@z@dA`ATq@`E~DL`@E`Ex@hDd@`B}FtFaAzAm@xAe@jCa@nDiAbm@SpKM`H]vBhDVzCTcAvCO^bEbEzK`LfBeEtK`KhAdAnCbCvBpC","length":47},"routeShortName":"14","routeLongName":"Coopérative","rentedBike":false,"transitLeg":true,"duration":760.0,"steps":[]},{"startTime":1522674098000,"endTime":1522674286000,"departureDelay":0,"arrivalDelay":0,"realTime":false,"distance":243.33499999999998,"pathway":false,"mode":"WALK","route":"","agencyTimeZoneOffset":-14400000,"interlineWithPreviousLeg":false,"from":{"name":"Boily / Courtois","stopId":"1:1563","stopCode":"1563","lon":-71.079091,"lat":48.413422,"arrival":1522674097000,"departure":1522674098000,"zoneId":"NA","stopIndex":14,"stopSequence":15,"vertexType":"TRANSIT"},"to":{"name":"Destination","lon":-71.080778,"lat":48.414606,"arrival":1522674286000,"orig":"","vertexType":"NORMAL"},"legGeometry":{"points":"cwnfH`sypLUp@OdBFnDo@Xs@x@[g@c@cA","length":8},"rentedBike":false,"transitLeg":false,"duration":188.0,"steps":[{"distance":125.826,"relativeDirection":"DEPART","streetName":"Rue Courtois","absoluteDirection":"NORTHWEST","stayOn":false,"area":false,"bogusName":false,"lon":-71.07904838776378,"lat":48.41346486314096,"elevation":[]},{"distance":64.968,"relativeDirection":"RIGHT","streetName":"Rue Pouliot","absoluteDirection":"NORTH","stayOn":false,"area":false,"bogusName":false,"lon":-71.0806855,"lat":48.413610600000005,"elevation":[]},{"distance":52.541,"relativeDirection":"RIGHT","streetName":"Rue Louis Fréchette","absoluteDirection":"NORTHEAST","stayOn":false,"area":false,"bogusName":false,"lon":-71.0811017,"lat":48.414118900000005,"elevation":[]}]}],"tooSloped":false},{"duration":1404,"startTime":1522674682000,"endTime":1522676086000,"walkTime":642,"transitTime":760,"waitingTime":2,"walkDistance":819.0574436049103,"walkLimitExceeded":false,"elevationLost":0.0,"elevationGained":0.0,"transfers":0,"legs":[{"startTime":1522674682000,"endTime":1522675136000,"departureDelay":0,"arrivalDelay":0,"realTime":false,"distance":575.595,"pathway":false,"mode":"WALK","route":"","agencyTimeZoneOffset":-14400000,"interlineWithPreviousLeg":false,"from":{"name":"Origin","lon":-71.048929,"lat":48.426905,"departure":1522674682000,"orig":"","vertexType":"NORMAL"},"to":{"name":"Bégin / Jacques-Cartier","stopId":"1:67","stopCode":"67","lon":-71.055431,"lat":48.425501,"arrival":1522675136000,"departure":1522675137000,"zoneId":"NA","stopIndex":4,"stopSequence":5,"vertexType":"TRANSIT"},"legGeometry":{"points":"wkqfHn~spLmAMIBCJAvEArADrF@jBxAtABB`A|@h@`@ZVz@r@p@p@`@`@b@b@KZ","length":18},"rentedBike":false,"transitLeg":false,"duration":454.0,"steps":[{"distance":49.551,"relativeDirection":"DEPART","streetName":"Rue Saint-Vallier","absoluteDirection":"NORTH","stayOn":false,"area":false,"bogusName":false,"lon":-71.05015383380092,"lat":48.4270029418696,"elevation":[]},{"distance":245.608,"relativeDirection":"LEFT","streetName":"Rue de l'Hôtel-Dieu","absoluteDirection":"WEST","stayOn":false,"area":false,"bogusName":false,"lon":-71.0501002,"lat":48.4274445,"elevation":[]},{"distance":268.39099999999996,"relativeDirection":"LEFT","streetName":"Rue Bégin","absoluteDirection":"SOUTHWEST","stayOn":false,"area":false,"bogusName":false,"lon":-71.0534231,"lat":48.4274435,"elevation":[]},{"distance":12.045,"relativeDirection":"RIGHT","streetName":"Rue Gaudreault","absoluteDirection":"NORTHWEST","stayOn":false,"area":false,"bogusName":false,"lon":-71.0553392,"lat":48.4253936,"elevation":[]}]},{"startTime":1522675137000,"endTime":1522675897000,"departureDelay":0,"arrivalDelay":0,"realTime":false,"distance":3159.4862038589076,"pathway":false,"mode":"BUS","route":"14","agencyName":"Société de Transport du Saguenay","agencyUrl":"http://ville.saguenay.ca/fr/services-aux-citoyens/transport-sts","agencyTimeZoneOffset":-14400000,"routeColor":"C0C000","routeType":3,"routeId":"1:14","routeTextColor":"000000","interlineWithPreviousLeg":false,"tripBlockId":"32","headsign":"Talbot / Barrette","agencyId":"0","tripId":"1:218152","serviceDate":"20180402","from":{"name":"Bégin / Jacques-Cartier","stopId":"1:67","stopCode":"67","lon":-71.055431,"lat":48.425501,"arrival":1522675136000,"departure":1522675137000,"zoneId":"NA","stopIndex":4,"stopSequence":5,"vertexType":"TRANSIT"},"to":{"name":"Boily / Courtois","stopId":"1:1563","stopCode":"1563","lon":-71.079091,"lat":48.413422,"arrival":1522675897000,"departure":1522675898000,"zoneId":"NA","stopIndex":14,"stopSequence":15,"vertexType":"TRANSIT"},"legGeometry":{"points":"_bqfHr~tpLvIrIn@n@\\iATg@v@_ATg@LmABg@Is@c@iEAm@bAcDTcAtA{DJI|AxAvAvAQv@~@z@dA`ATq@`E~DL`@E`Ex@hDd@`B}FtFaAzAm@xAe@jCa@nDiAbm@SpKM`H]vBhDVzCTcAvCO^bEbEzK`LfBeEtK`KhAdAnCbCvBpC","length":47},"routeShortName":"14","routeLongName":"Coopérative","rentedBike":false,"transitLeg":true,"duration":760.0,"steps":[]},{"startTime":1522675898000,"endTime":1522676086000,"departureDelay":0,"arrivalDelay":0,"realTime":false,"distance":243.33499999999998,"pathway":false,"mode":"WALK","route":"","agencyTimeZoneOffset":-14400000,"interlineWithPreviousLeg":false,"from":{"name":"Boily / Courtois","stopId":"1:1563","stopCode":"1563","lon":-71.079091,"lat":48.413422,"arrival":1522675897000,"departure":1522675898000,"zoneId":"NA","stopIndex":14,"stopSequence":15,"vertexType":"TRANSIT"},"to":{"name":"Destination","lon":-71.080778,"lat":48.414606,"arrival":1522676086000,"orig":"","vertexType":"NORMAL"},"legGeometry":{"points":"cwnfH`sypLUp@OdBFnDo@Xs@x@[g@c@cA","length":8},"rentedBike":false,"transitLeg":false,"duration":188.0,"steps":[{"distance":125.826,"relativeDirection":"DEPART","streetName":"Rue Courtois","absoluteDirection":"NORTHWEST","stayOn":false,"area":false,"bogusName":false,"lon":-71.07904838776378,"lat":48.41346486314096,"elevation":[]},{"distance":64.968,"relativeDirection":"RIGHT","streetName":"Rue Pouliot","absoluteDirection":"NORTH","stayOn":false,"area":false,"bogusName":false,"lon":-71.0806855,"lat":48.413610600000005,"elevation":[]},{"distance":52.541,"relativeDirection":"RIGHT","streetName":"Rue Louis Fréchette","absoluteDirection":"NORTHEAST","stayOn":false,"area":false,"bogusName":false,"lon":-71.0811017,"lat":48.414118900000005,"elevation":[]}]}],"tooSloped":false}]},"debugOutput":{"precalculationTime":25,"pathCalculationTime":29,"pathTimes":[17,5,7],"renderingTime":0,"totalTime":54,"timedOut":false},"elevationMetadata":{"ellipsoidToGeoidDifference":-28.885904201182168,"geoidElevation":false}}