{"requestParameters":{"date":"2018/04/02","walkSpeed":"1.33","walkReluctance":"2.0","fromPlace":"48.404434,-71.073585","maxWalkDistance":"3000","waitReluctance":"1.0","carSpeed":"33","numItineraries":"3","waitAtBeginningFactor":"0.4","mode":"TRANSIT,WALK","ignoreRealtimeUpdates":"false","stairsReluctance":"2.0","toPlace":"48.414505,-71.082993","time":"16:50:00"},"plan":{"date":1522702200000,"from":{"name":"Origin","lon":-71.073585,"lat":48.404434,"orig":"","vertexType":"NORMAL"},"to":{"name":"Destination","lon":-71.082993,"lat":48.414505,"orig":"","vertexType":"NORMAL"},"itineraries":[{"duration":1489,"startTime":1522702200000,"endTime":1522703689000,"walkTime":1489,"transitTime":0,"waitingTime":0,"walkDistance":1918.9549248049336,"walkLimitExceeded":false,"elevationLost":0.0,"elevationGained":0.0,"transfers":0,"legs":[{"startTime":1522702200000,"endTime":1522703689000,"departureDelay":0,"arrivalDelay":0,"realTime":false,"distance":1918.7350000000001,"pathway":false,"mode":"WALK","route":"","agencyTimeZoneOffset":-14400000,"interlineWithPreviousLeg":false,"from":{"name":"Origin","lon":-71.073585,"lat":48.404434,"departure":1522702200000,"orig":"","vertexType":"NORMAL"},"to":{"name":"Destination","lon":-71.082993,"lat":48.414505,"arrival":1522703689000,"orig":"","vertexType":"NORMAL"},"legGeometry":{"points":"{~lfH|pxpL?XBpAXr@HTU\\g@p@a@pAMzAUpC??Gf@WbAW`AyEpQ??YdAsCs@ICMCyE}CWQ_@k@CEoAkBqEkEAAUUmClIgAzD{@vDWzBY`D{@fDoAnBg@XoAh@IB[PSJe@VIVQUgAgBg@y@Yc@i@{@","length":47},"rentedBike":false,"transitLeg":false,"duration":1489.0,"steps":[{"distance":73.90899999999999,"relativeDirection":"DEPART","streetName":"Rue Bégin","absoluteDirection":"WEST","stayOn":false,"area":false,"bogusName":false,"lon":-71.07358876207644,"lat":48.404469898207,"elevation":[]},{"distance":523.6,"relativeDirection":"RIGHT","streetName":"Rue Ballantyne","absoluteDirection":"NORTHWEST","stayOn":false,"area":false,"bogusName":false,"lon":-71.07449910000001,"lat":48.4042602,"elevation":[]},{"distance":489.171,"relativeDirection":"RIGHT","streetName":"Rue Jolliet","absoluteDirection":"NORTH","stayOn":false,"area":false,"bogusName":false,"lon":-71.08068800000001,"lat":48.406426800000006,"elevation":[]},{"distance":613.328,"relativeDirection":"LEFT","streetName":"Rue Garnier","absoluteDirection":"NORTHWEST","stayOn":false,"area":false,"bogusName":false,"lon":-71.0775766,"lat":48.4102442,"elevation":[]},{"distance":67.896,"relativeDirection":"CONTINUE","streetName":"Rue Saint-Augustin","absoluteDirection":"NORTH","stayOn":false,"area":false,"bogusName":false,"lon":-71.0842714,"lat":48.413164,"elevation":[]},{"distance":150.831,"relativeDirection":"RIGHT","streetName":"Rue Saint-Paul","absoluteDirection":"NORTHEAST","stayOn":false,"area":false,"bogusName":false,"lon":-71.0846811,"lat":48.413698000000004,"elevation":[]}]}],"tooSloped":false},{"duration":1837,"startTime":1522702348000,"endTime":1522704185000,"walkTime":136,"transitTime":1279,"waitingTime":422,"walkDistance":168.96890225367395,"walkLimitExceeded":false,"elevationLost":0.0,"elevationGained":0.0,"transfers":1,"legs":[{"startTime":1522702348000,"endTime":1522702420000,"departureDelay":0,"arrivalDelay":0,"realTime":false,"distance":86.143,"pathway":false,"mode":"WALK","route":"","agencyTimeZoneOffset":-14400000,"interlineWithPreviousLeg":false,"from":{"name":"Origin","lon":-71.073585,"lat":48.404434,"departure":1522702348000,"orig":"","vertexType":"NORMAL"},"to":{"name":"Angoulême / Bégin","stopId":"1:53","stopCode":"53","lon":-71.073604,"lat":48.405143,"arrival":1522702420000,"departure":1522702421000,"zoneId":"NA","stopIndex":18,"stopSequence":19,"vertexType":"TRANSIT"},"legGeometry":{"points":"{~lfH|pxpL?XyBB@W","length":4},"rentedBike":false,"transitLeg":false,"duration":72.0,"steps":[{"distance":9.289,"relativeDirection":"DEPART","streetName":"Rue Bégin","absoluteDirection":"WEST","stayOn":false,"area":false,"bogusName":false,"lon":-71.07358876207644,"lat":48.404469898207,"elevation":[]},{"distance":67.789,"relativeDirection":"RIGHT","streetName":"Rue d'Angoulème","absoluteDirection":"NORTH","stayOn":false,"area":false,"bogusName":false,"lon":-71.0737143,"lat":48.404464100000006,"elevation":[]},{"distance":9.065,"relativeDirection":"RIGHT","streetName":"Rue R. E. Joron","absoluteDirection":"EAST","stayOn":false,"area":false,"bogusName":false,"lon":-71.073734,"lat":48.4050736,"elevation":[]}]},{"startTime":1522702421000,"endTime":1522703280000,"departureDelay":0,"arrivalDelay":0,"realTime":false,"distance":4464.524105661683,"pathway":false,"mode":"BUS","route":"15","agencyName":"Société de Transport du Saguenay","agencyUrl":"http://ville.saguenay.ca/fr/services-aux-citoyens/transport-sts","agencyTimeZoneOffset":-14400000,"routeColor":"FF00FF","routeType":3,"routeId":"1:15","routeTextColor":"FFFFFF","interlineWithPreviousLeg":false,"tripBlockId":"32","headsign":"Terminus Chicoutimi","agencyId":"0","tripId":"1:218167","serviceDate":"20180402","from":{"name":"Angoulême / Bégin","stopId":"1:53","stopCode":"53","lon":-71.073604,"lat":48.405143,"arrival":1522702420000,"departure":1522702421000,"zoneId":"NA","stopIndex":18,"stopSequence":19,"vertexType":"TRANSIT"},"to":{"name":"Terminus Chicoutimi","stopId":"1:1289","stopCode":"1289","lon":-71.066163,"lat":48.428677,"arrival":1522703280000,"departure":1522703700000,"zoneId":"NA","stopIndex":39,"stopSequence":40,"vertexType":"TRANSIT"},"legGeometry":{"points":"acmfH`rxpLw@FiG}@iDwAECcCcBo@y@sEeGe@o@qAa@m@MoB?C@}BZwAc@oA_Bs@gDCKZ{Di@QECc@_@sAkAoBwB_EcE{A_BoAmAk@o@cCaCkIkIaJaJUUwBaCj@wCjAsCzGoG_CoHL{D_@kAqD{CQr@iAcAy@w@L{@wAuA_B_B_EpLDh@NbBVvCIxBg@`Am@l@Sb@a@rAqDqDmEkE]a@kAqAU|@WnKG|DGxDOdPKvJU|F?XQlJC~@ChAIzEcCOaIi@VwL","length":74},"routeShortName":"15","routeLongName":"Term. Chic / Costco","rentedBike":false,"transitLeg":true,"duration":859.0,"steps":[]},{"startTime":1522703700000,"endTime":1522704120000,"departureDelay":0,"arrivalDelay":0,"realTime":false,"distance":2314.629061111065,"pathway":false,"mode":"BUS","route":"11","agencyName":"Société de Transport du Saguenay","agencyUrl":"http://ville.saguenay.ca/fr/services-aux-citoyens/transport-sts","agencyTimeZoneOffset":-14400000,"routeColor":"FF0000","routeType":3,"routeId":"1:11","routeTextColor":"FFFFFF","interlineWithPreviousLeg":false,"tripBlockId":"36","headsign":"Boul.Royaume/St-Pierre","agencyId":"0","tripId":"1:218298","serviceDate":"20180402","from":{"name":"Terminus Chicoutimi","stopId":"1:1289","stopCode":"1289","lon":-71.066163,"lat":48.428677,"arrival":1522703280000,"departure":1522703700000,"zoneId":"NA","stopIndex":0,"stopSequence":1,"vertexType":"TRANSIT"},"to":{"name":"Saint-Paul / Saint-Augustin","stopId":"1:426","stopCode":"426","lon":-71.084129,"lat":48.414194,"arrival":1522704120000,"departure":1522704121000,"zoneId":"NA","stopIndex":12,"stopSequence":13,"vertexType":"TRANSIT"},"legGeometry":{"points":"evqfHzcwpLk@?UhKfIh@dKp@GnDIfDOtEE~@Ff@x@rEF~@CbAALO~ADRNJXBr@DfGRPBPJLN@@FPFTBX?TE`BhBR@?J@NELKFOlAiDL[bA`AfIjIbGdGzDzD`A~An@`ApApBpClEvJrO","length":46},"routeShortName":"11","routeLongName":"Chic/Faubourg via St-Paul","rentedBike":false,"transitLeg":true,"duration":420.0,"steps":[]},{"startTime":1522704121000,"endTime":1522704185000,"departureDelay":0,"arrivalDelay":0,"realTime":false,"distance":82.765,"pathway":false,"mode":"WALK","route":"","agencyTimeZoneOffset":-14400000,"interlineWithPreviousLeg":false,"from":{"name":"Saint-Paul / Saint-Augustin","stopId":"1:426","stopCode":"426","lon":-71.084129,"lat":48.414194,"arrival":1522704120000,"departure":1522704121000,"zoneId":"NA","stopIndex":12,"stopSequence":13,"vertexType":"TRANSIT"},"to":{"name":"Destination","lon":-71.082993,"lat":48.414505,"arrival":1522704185000,"orig":"","vertexType":"NORMAL"},"legGeometry":{"points":"k{nfHjrzpLg@y@Yc@i@{@","length":4},"rentedBike":false,"transitLeg":false,"duration":64.0,"steps":[{"distance":82.765,"relativeDirection":"DEPART","streetName":"Rue Saint-Paul","absoluteDirection":"NORTHEAST","stayOn":false,"area":false,"bogusName":false,"lon":-71.08405531431303,"lat":48.4141469515624,"elevation":[]}]}],"tooSloped":false},{"duration":877,"startTime":1522703718000,"endTime":1522704595000,"walkTime":618,"transitTime":257,"waitingTime":2,"walkDistance":784.4883082666979,"walkLimitExceeded":false,"elevationLost":0.0,"elevationGained":0.0,"transfers":0,"legs":[{"startTime":1522703718000,"endTime":1522703819000,"departureDelay":0,"arrivalDelay":0,"realTime":false,"distance":127.47299999999998,"pathway":false,"mode":"WALK","route":"","agencyTimeZoneOffset":-14400000,"interlineWithPreviousLeg":false,"from":{"name":"Origin","lon":-71.073585,"lat":48.404434,"departure":1522703718000,"orig":"","vertexType":"NORMAL"},"to":{"name":"Bégin / Ballantyne","stopId":"1:451","stopCode":"451","lon":-71.07501,"lat":48.403916,"arrival":1522703819000,"departure":1522703820000,"zoneId":"NA","stopIndex":15,"stopSequence":16,"vertexType":"TRANSIT"},"legGeometry":{"points":"{~lfH|pxpL?XBpAXr@HT~@lB","length":6},"rentedBike":false,"transitLeg":false,"duration":101.0,"steps":[{"distance":127.47299999999998,"relativeDirection":"DEPART","streetName":"Rue Bégin","absoluteDirection":"WEST","stayOn":false,"area":false,"bogusName":false,"lon":-71.07358876207644,"lat":48.404469898207,"elevation":[]}]},{"startTime":1522703820000,"endTime":1522704077000,"departureDelay":0,"arrivalDelay":0,"realTime":false,"distance":1195.1969242982457,"pathway":false,"mode":"BUS","route":"14","agencyName":"Société de Transport du Saguenay","agencyUrl":"http://ville.saguenay.ca/fr/services-aux-citoyens/transport-sts","agencyTimeZoneOffset":-14400000,"routeColor":"C0C000","routeType":3,"routeId":"1:14","routeTextColor":"000000","interlineWithPreviousLeg":false,"tripBlockId":"31","headsign":"Terminus Chicoutimi","agencyId":"0","tripId":"1:218143","serviceDate":"20180402","from":{"name":"Bégin / Ballantyne","stopId":"1:451","stopCode":"451","lon":-71.07501,"lat":48.403916,"arrival":1522703819000,"departure":1522703820000,"zoneId":"NA","stopIndex":15,"stopSequence":16,"vertexType":"TRANSIT"},"to":{"name":"Boily / Garnier","stopId":"1:1561","stopCode":"1561","lon":-71.0798,"lat":48.4117,"arrival":1522704077000,"departure":1522704078000,"zoneId":"NA","stopIndex":21,"stopSequence":22,"vertexType":"TRANSIT"},"legGeometry":{"points":"y{lfHfzxpLy@uB}@rAa@nAc@lFEf@mGvUYfAqCs@ICMCqFmDc@s@mAkBuEoESUgAhDiAfD}@zDyAcA","length":20},"routeShortName":"14","routeLongName":"Coopérative","rentedBike":false,"transitLeg":true,"duration":257.0,"steps":[]},{"startTime":1522704078000,"endTime":1522704595000,"departureDelay":0,"arrivalDelay":0,"realTime":false,"distance":656.8920000000002,"pathway":false,"mode":"WALK","route":"","agencyTimeZoneOffset":-14400000,"interlineWithPreviousLeg":false,"from":{"name":"Boily / Garnier","stopId":"1:1561","stopCode":"1561","lon":-71.0798,"lat":48.4117,"arrival":1522704077000,"departure":1522704078000,"zoneId":"NA","stopIndex":21,"stopSequence":22,"vertexType":"TRANSIT"},"to":{"name":"Destination","lon":-71.082993,"lat":48.414505,"arrival":1522704595000,"orig":"","vertexType":"NORMAL"},"legGeometry":{"points":"ilnfHnxypLB@nAr@{@vDWzBY`D{@fDoAnBg@XoAh@IB[PSJe@VIVQUgAgBg@y@Yc@i@{@","length":20},"rentedBike":false,"transitLeg":false,"duration":517.0,"steps":[{"distance":51.092999999999996,"relativeDirection":"DEPART","streetName":"Rue Boily","absoluteDirection":"SOUTHWEST","stayOn":false,"area":false,"bogusName":false,"lon":-71.07991450023346,"lat":48.4117325016581,"elevation":[]},{"distance":387.072,"relativeDirection":"RIGHT","streetName":"Rue Garnier","absoluteDirection":"NORTHWEST","stayOn":false,"area":false,"bogusName":false,"lon":-71.0801867,"lat":48.41131,"elevation":[]},{"distance":67.896,"relativeDirection":"CONTINUE","streetName":"Rue Saint-Augustin","absoluteDirection":"NORTH","stayOn":false,"area":false,"bogusName":false,"lon":-71.0842714,"lat":48.413164,"elevation":[]},{"distance":150.831,"relativeDirection":"RIGHT","streetName":"Rue Saint-Paul","absoluteDirection":"NORTHEAST","stayOn":false,"area":false,"bogusName":false,"lon":-71.0846811,"lat":48.413698000000004,"elevation":[]}]}],"tooSloped":false}]},"debugOutput":{"precalculationTime":26,"pathCalculationTime":26,"pathTimes":[14,5,7],"renderingTime":0,"totalTime":52,"timedOut":false},"elevationMetadata":{"ellipsoidToGeoidDifference":-28.885904201182168,"geoidElevation":false}}