{"requestParameters":{"date":"2018/04/02","walkSpeed":"1.33","walkReluctance":"2.0","fromPlace":"48.385144,-71.106543","maxWalkDistance":"3000","waitReluctance":"1.0","carSpeed":"33","numItineraries":"3","waitAtBeginningFactor":"0.4","mode":"TRANSIT,WALK","ignoreRealtimeUpdates":"false","stairsReluctance":"2.0","toPlace":"48.414185,-71.062455","time":"17:0:00"},"plan":{"date":1522702800000,"from":{"name":"Origin","lon":-71.106543,"lat":48.385144,"orig":"","vertexType":"NORMAL"},"to":{"name":"Destination","lon":-71.062455,"lat":48.414185,"orig":"","vertexType":"NORMAL"},"itineraries":[{"duration":3002,"startTime":1522702975000,"endTime":1522705977000,"walkTime":1736,"transitTime":1264,"waitingTime":2,"walkDistance":2239.9537819464085,"walkLimitExceeded":false,"elevationLost":0.0,"elevationGained":0.0,"transfers":0,"legs":[{"startTime":1522702975000,"endTime":1522703575000,"departureDelay":0,"arrivalDelay":0,"realTime":false,"distance":791.0340000000001,"pathway":false,"mode":"WALK","route":"","agencyTimeZoneOffset":-14400000,"interlineWithPreviousLeg":false,"from":{"name":"Origin","lon":-71.106543,"lat":48.385144,"departure":1522702975000,"orig":"","vertexType":"NORMAL"},"to":{"name":"boul. St-Paul (no. 2315)","stopId":"1:35","stopCode":"35","lon":-71.114414,"lat":48.388104,"arrival":1522703575000,"departure":1522703576000,"zoneId":"NA","stopIndex":4,"stopSequence":5,"vertexType":"TRANSIT"},"legGeometry":{"points":"sdifHl__qL_@vEiA`JG\\a@|Bq@zDuBfJiChIi@|AEJoCiC","length":11},"rentedBike":false,"transitLeg":false,"duration":600.0,"steps":[{"distance":695.863,"relativeDirection":"DEPART","streetName":"Boulevard du Royaume Ouest","absoluteDirection":"WEST","stayOn":false,"area":false,"bogusName":false,"lon":-71.1066208343481,"lat":48.384905339652136,"elevation":[]},{"distance":95.171,"relativeDirection":"RIGHT","streetName":"Boulevard Saint-Paul","absoluteDirection":"NORTHEAST","stayOn":false,"area":false,"bogusName":false,"lon":-71.1151799,"lat":48.387413300000006,"elevation":[]}]},{"startTime":1522703576000,"endTime":1522704840000,"departureDelay":0,"arrivalDelay":0,"realTime":false,"distance":5824.578456429,"pathway":false,"mode":"BUS","route":"11","agencyName":"Société de Transport du Saguenay","agencyUrl":"http://ville.saguenay.ca/fr/services-aux-citoyens/transport-sts","agencyTimeZoneOffset":-14400000,"routeColor":"FF0000","routeType":3,"routeId":"1:11","routeTextColor":"FFFFFF","interlineWithPreviousLeg":false,"tripBlockId":"34","headsign":"Terminus Chicoutimi","agencyId":"0","tripId":"1:218228","serviceDate":"20180402","from":{"name":"boul. St-Paul (no. 2315)","stopId":"1:35","stopCode":"35","lon":-71.114414,"lat":48.388104,"arrival":1522703575000,"departure":1522703576000,"zoneId":"NA","stopIndex":4,"stopSequence":5,"vertexType":"TRANSIT"},"to":{"name":"Dubuc / Lapointe","stopId":"1:1578","stopCode":"1578","lon":-71.075709,"lat":48.421825,"arrival":1522704840000,"departure":1522704841000,"zoneId":"NA","stopIndex":23,"stopSequence":24,"vertexType":"TRANSIT"},"legGeometry":{"points":"yxifHpp`qLiMqLKIsFyFMQ}AuBuCgEmGaISV[|@Qj@K`@AFSlAYvBc@nCi@lCyE`T}@dEoLxh@GLIHI@KAgN{IhHu[p@aCjDyJfQie@`AmCJ[kXi[gKsLqMgOmAbDAVSl@y@vBeCuCoCaDkDuE_@g@{FwGOMnA}CnA_DJWu@iAW[S[yI{MmBqC{@wAQUw@gAsDiF_B_CQYa@cA[_AUy@YcBOgAYHu@\\M`@cAiBuAyBkHgL{C{E}AcCc@o@q@gAOWwCyCyGyG_IaIs@rB","length":78},"routeShortName":"11","routeLongName":"Chic/Faubourg via St-Paul","rentedBike":false,"transitLeg":true,"duration":1264.0,"steps":[]},{"startTime":1522704841000,"endTime":1522705977000,"departureDelay":0,"arrivalDelay":0,"realTime":false,"distance":1448.657,"pathway":false,"mode":"WALK","route":"","agencyTimeZoneOffset":-14400000,"interlineWithPreviousLeg":false,"from":{"name":"Dubuc / Lapointe","stopId":"1:1578","stopCode":"1578","lon":-71.075709,"lat":48.421825,"arrival":1522704840000,"departure":1522704841000,"zoneId":"NA","stopIndex":23,"stopSequence":24,"vertexType":"TRANSIT"},"to":{"name":"Destination","lon":-71.062455,"lat":48.414185,"arrival":1522705977000,"orig":"","vertexType":"NORMAL"},"legGeometry":{"points":"ckpfHn~xpLx@uBf@}AXq@Pa@FEFCDCBG@I@K?MESfA_CNc@`@mAZ}@bAkCn@}AfBwEZi@PSVa@V[FE\\Y^Y^Kn@MXy@d@oBn@oB\\y@dAUt@yBdAwCFSjAeDo@m@j@kB??FQNi@bA}FhCbCpAqD","length":46},"rentedBike":false,"transitLeg":false,"duration":1136.0,"steps":[{"distance":95.247,"relativeDirection":"DEPART","streetName":"Rue Dubuc","absoluteDirection":"SOUTHEAST","stayOn":false,"area":false,"bogusName":false,"lon":-71.07575486184759,"lat":48.42178360403269,"elevation":[]},{"distance":78.343,"relativeDirection":"CONTINUE","streetName":"path","absoluteDirection":"SOUTHEAST","stayOn":false,"area":false,"bogusName":true,"lon":-71.07469880000001,"lat":48.4212916,"elevation":[]},{"distance":505.5630000000001,"relativeDirection":"RIGHT","streetName":"Rue Jolliet","absoluteDirection":"SOUTHEAST","stayOn":false,"area":false,"bogusName":false,"lon":-71.07388590000001,"lat":48.420954200000004,"elevation":[]},{"distance":188.869,"relativeDirection":"LEFT","streetName":"path","absoluteDirection":"SOUTHEAST","stayOn":false,"area":false,"bogusName":true,"lon":-71.069079,"lat":48.417887500000006,"elevation":[]},{"distance":205.419,"relativeDirection":"LEFT","streetName":"Rue Dubé","absoluteDirection":"SOUTHEAST","stayOn":false,"area":false,"bogusName":false,"lon":-71.0672681,"lat":48.416826400000005,"elevation":[]},{"distance":30.953,"relativeDirection":"LEFT","streetName":"Rue Bégin","absoluteDirection":"NORTHEAST","stayOn":false,"area":false,"bogusName":false,"lon":-71.06496530000001,"lat":48.4157887,"elevation":[]},{"distance":173.619,"relativeDirection":"RIGHT","streetName":"Rue des Champs-Élysées","absoluteDirection":"SOUTHEAST","stayOn":false,"area":false,"bogusName":false,"lon":-71.0647342,"lat":48.416021,"elevation":[]},{"distance":90.944,"relativeDirection":"RIGHT","streetName":"Rue Georges-Vanier","absoluteDirection":"SOUTHWEST","stayOn":false,"area":false,"bogusName":false,"lon":-71.0626228,"lat":48.4153431,"elevation":[]},{"distance":79.7,"relativeDirection":"LEFT","streetName":"Rue Hector-Champagne","absoluteDirection":"SOUTHEAST","stayOn":false,"area":false,"bogusName":false,"lon":-71.0632818,"lat":48.414652000000004,"elevation":[]}]}],"tooSloped":false},{"duration":3050,"startTime":1522703512000,"endTime":1522706562000,"walkTime":985,"transitTime":1403,"waitingTime":662,"walkDistance":1282.746218040685,"walkLimitExceeded":false,"elevationLost":0.0,"elevationGained":0.0,"transfers":1,"legs":[{"startTime":1522703512000,"endTime":1522704112000,"departureDelay":0,"arrivalDelay":0,"realTime":false,"distance":791.0340000000001,"pathway":false,"mode":"WALK","route":"","agencyTimeZoneOffset":-14400000,"interlineWithPreviousLeg":false,"from":{"name":"Origin","lon":-71.106543,"lat":48.385144,"departure":1522703512000,"orig":"","vertexType":"NORMAL"},"to":{"name":"boul. St-Paul (no. 2315)","stopId":"1:35","stopCode":"35","lon":-71.114414,"lat":48.388104,"arrival":1522704112000,"departure":1522704113000,"zoneId":"NA","stopIndex":26,"stopSequence":27,"vertexType":"TRANSIT"},"legGeometry":{"points":"sdifHl__qL_@vEiA`JG\\a@|Bq@zDuBfJiChIi@|AEJoCiC","length":11},"rentedBike":false,"transitLeg":false,"duration":600.0,"steps":[{"distance":695.863,"relativeDirection":"DEPART","streetName":"Boulevard du Royaume Ouest","absoluteDirection":"WEST","stayOn":false,"area":false,"bogusName":false,"lon":-71.1066208343481,"lat":48.384905339652136,"elevation":[]},{"distance":95.171,"relativeDirection":"RIGHT","streetName":"Boulevard Saint-Paul","absoluteDirection":"NORTHEAST","stayOn":false,"area":false,"bogusName":false,"lon":-71.1151799,"lat":48.387413300000006,"elevation":[]}]},{"startTime":1522704113000,"endTime":1522704840000,"departureDelay":0,"arrivalDelay":0,"realTime":false,"distance":5836.618766715064,"pathway":false,"mode":"BUS","route":"60","agencyName":"Société de Transport du Saguenay","agencyUrl":"http://ville.saguenay.ca/fr/services-aux-citoyens/transport-sts","agencyTimeZoneOffset":-14400000,"routeColor":"00FFFF","routeType":3,"routeId":"1:60","routeTextColor":"000000","interlineWithPreviousLeg":false,"tripBlockId":"107","headsign":"Terminus Chicoutimi","agencyId":"0","tripId":"1:218824","serviceDate":"20180402","from":{"name":"boul. St-Paul (no. 2315)","stopId":"1:35","stopCode":"35","lon":-71.114414,"lat":48.388104,"arrival":1522704112000,"departure":1522704113000,"zoneId":"NA","stopIndex":26,"stopSequence":27,"vertexType":"TRANSIT"},"to":{"name":"Terminus Chicoutimi","stopId":"1:1289","stopCode":"1289","lon":-71.066163,"lat":48.428677,"arrival":1522704840000,"departure":1522705500000,"zoneId":"NA","stopIndex":34,"stopSequence":35,"vertexType":"TRANSIT"},"legGeometry":{"points":"{xifHtp`qL_IuHeCaCWUcBiBaJgL_KkMiDgDYUwK_MgKqLGGuGwHoB_C_DqDwGwHkKwLmG{H}D_GoJqNeEkGYc@qFoIcAcBk@_B[mAg@wDo@wDo@mBcBkDwFgI_B{Bw@kAgJsJkJmJwFsFsEuFyA{BwAqAwA_@aDQwNjACmCeDHkBFJiEPiI@kAeAKiAGi@EPmHCoBh@]","length":54},"routeShortName":"60","routeLongName":"Portage des Roches Nord","rentedBike":false,"transitLeg":true,"duration":727.0,"steps":[]},{"startTime":1522705500000,"endTime":1522706176000,"departureDelay":0,"arrivalDelay":0,"realTime":false,"distance":2869.9991643422795,"pathway":false,"mode":"BUS","route":"15","agencyName":"Société de Transport du Saguenay","agencyUrl":"http://ville.saguenay.ca/fr/services-aux-citoyens/transport-sts","agencyTimeZoneOffset":-14400000,"routeColor":"FF00FF","routeType":3,"routeId":"1:15","routeTextColor":"FFFFFF","interlineWithPreviousLeg":false,"tripBlockId":"31","headsign":"Talbot / Barrette","agencyId":"0","tripId":"1:218144","serviceDate":"20180402","from":{"name":"Terminus Chicoutimi","stopId":"1:1289","stopCode":"1289","lon":-71.066163,"lat":48.428677,"arrival":1522704840000,"departure":1522705500000,"zoneId":"NA","stopIndex":0,"stopSequence":1,"vertexType":"TRANSIT"},"to":{"name":"Bégin / Youville","stopId":"1:2004","stopCode":"2004","lon":-71.066018,"lat":48.414996,"arrival":1522706176000,"departure":1522706177000,"zoneId":"NA","stopIndex":11,"stopSequence":12,"vertexType":"TRANSIT"},"legGeometry":{"points":"evqfHpbwpLPiCjKx@HiEZkS\\aSN_K^eIrBpBvIpIr@r@\\mBfAaA`@gBOkB_@uF|DyL|DpDQ|@|@z@bA`ATw@dD~Ch@fA@`E~AjGuH`Iy@bBi@dCbEdEjJlJ`HbHlJpJ","length":33},"routeShortName":"15","routeLongName":"Term. Chic / Costco","rentedBike":false,"transitLeg":true,"duration":676.0,"steps":[]},{"startTime":1522706177000,"endTime":1522706562000,"departureDelay":0,"arrivalDelay":0,"realTime":false,"distance":491.575,"pathway":false,"mode":"WALK","route":"","agencyTimeZoneOffset":-14400000,"interlineWithPreviousLeg":false,"from":{"name":"Bégin / Youville","stopId":"1:2004","stopCode":"2004","lon":-71.066018,"lat":48.414996,"arrival":1522706176000,"departure":1522706177000,"zoneId":"NA","stopIndex":11,"stopSequence":12,"vertexType":"TRANSIT"},"to":{"name":"Destination","lon":-71.062455,"lat":48.414185,"arrival":1522706562000,"orig":"","vertexType":"NORMAL"},"legGeometry":{"points":"e`ofHn`wpLCCGGsCqCMOo@m@j@kB??FQNi@bA}FhCbCpAqD","length":13},"rentedBike":false,"transitLeg":false,"duration":385.0,"steps":[{"distance":147.31199999999998,"relativeDirection":"DEPART","streetName":"Rue Bégin","absoluteDirection":"NORTHEAST","stayOn":false,"area":false,"bogusName":false,"lon":-71.06583413783413,"lat":48.4149155049481,"elevation":[]},{"distance":173.619,"relativeDirection":"RIGHT","streetName":"Rue des Champs-Élysées","absoluteDirection":"SOUTHEAST","stayOn":false,"area":false,"bogusName":false,"lon":-71.0647342,"lat":48.416021,"elevation":[]},{"distance":90.944,"relativeDirection":"RIGHT","streetName":"Rue Georges-Vanier","absoluteDirection":"SOUTHWEST","stayOn":false,"area":false,"bogusName":false,"lon":-71.0626228,"lat":48.4153431,"elevation":[]},{"distance":79.7,"relativeDirection":"LEFT","streetName":"Rue Hector-Champagne","absoluteDirection":"SOUTHEAST","stayOn":false,"area":false,"bogusName":false,"lon":-71.0632818,"lat":48.414652000000004,"elevation":[]}]}],"tooSloped":false},{"duration":2617,"startTime":1522704509000,"endTime":1522707126000,"walkTime":1368,"transitTime":1247,"waitingTime":2,"walkDistance":1762.4438721708073,"walkLimitExceeded":false,"elevationLost":0.0,"elevationGained":0.0,"transfers":0,"legs":[{"startTime":1522704509000,"endTime":1522705061000,"departureDelay":0,"arrivalDelay":0,"realTime":false,"distance":723.839,"pathway":false,"mode":"WALK","route":"","agencyTimeZoneOffset":-14400000,"interlineWithPreviousLeg":false,"from":{"name":"Origin","lon":-71.106543,"lat":48.385144,"departure":1522704509000,"orig":"","vertexType":"NORMAL"},"to":{"name":"St-Paul / boul. Royaume","stopId":"1:1607","stopCode":"1607","lon":-71.115594,"lat":48.387321,"arrival":1522705061000,"departure":1522705062000,"zoneId":"NA","stopIndex":24,"stopSequence":25,"vertexType":"TRANSIT"},"legGeometry":{"points":"sdifHl__qL_@vEiA`JG\\a@|Bq@zDuBfJiChIi@|AEJLb@ITAD","length":13},"rentedBike":false,"transitLeg":false,"duration":552.0,"steps":[{"distance":723.839,"relativeDirection":"DEPART","streetName":"Boulevard du Royaume Ouest","absoluteDirection":"WEST","stayOn":false,"area":false,"bogusName":false,"lon":-71.1066208343481,"lat":48.384905339652136,"elevation":[]}]},{"startTime":1522705062000,"endTime":1522705260000,"departureDelay":0,"arrivalDelay":0,"realTime":false,"distance":2300.5169255036058,"pathway":false,"mode":"BUS","route":"2","agencyName":"Société de Transport du Saguenay","agencyUrl":"http://ville.saguenay.ca/fr/services-aux-citoyens/transport-sts","agencyTimeZoneOffset":-14400000,"routeColor":"FF0000","routeType":3,"routeId":"1:2","routeTextColor":"FFFFFF","interlineWithPreviousLeg":false,"tripBlockId":"9","headsign":"Costco","agencyId":"0","tripId":"1:217413","serviceDate":"20180402","from":{"name":"St-Paul / boul. Royaume","stopId":"1:1607","stopCode":"1607","lon":-71.115594,"lat":48.387321,"arrival":1522705061000,"departure":1522705062000,"zoneId":"NA","stopIndex":24,"stopSequence":25,"vertexType":"TRANSIT"},"to":{"name":"COSTCO","stopId":"1:1710","stopCode":"1710","lon":-71.085767,"lat":48.382333,"arrival":1522705260000,"departure":1522705500000,"zoneId":"NA","stopIndex":28,"stopSequence":29,"vertexType":"TRANSIT"},"legGeometry":{"points":"ctifH`w`qLz@{B|G}WVyBfB_OrBsTDa]?sD`@uc@tBcJz@yDtI}UaCcC","length":13},"routeShortName":"2","routeLongName":"Chic/Jonq via Boul. Royaume","rentedBike":false,"transitLeg":true,"duration":198.0,"steps":[]},{"startTime":1522705500000,"endTime":1522706309000,"departureDelay":0,"arrivalDelay":0,"realTime":false,"distance":4786.245368767243,"pathway":false,"mode":"BUS","route":"175","agencyName":"Société de Transport du Saguenay","agencyUrl":"http://ville.saguenay.ca/fr/services-aux-citoyens/transport-sts","agencyTimeZoneOffset":-14400000,"routeColor":"FF00FF","routeType":3,"routeId":"1:175","routeTextColor":"FFFFFF","interlineWithPreviousLeg":true,"tripBlockId":"9","headsign":"Terminus Chicoutimi","agencyId":"0","tripId":"1:217414","serviceDate":"20180402","from":{"name":"COSTCO","stopId":"1:1710","stopCode":"1710","lon":-71.085767,"lat":48.382333,"arrival":1522705260000,"departure":1522705500000,"zoneId":"NA","stopIndex":0,"stopSequence":1,"vertexType":"TRANSIT"},"to":{"name":"Polyclinique du Saguenay (boul. Université)","stopId":"1:61","stopCode":"61","lon":-71.053728,"lat":48.415424,"arrival":1522706309000,"departure":1522706310000,"zoneId":"NA","stopIndex":13,"stopSequence":14,"vertexType":"TRANSIT"},"legGeometry":{"points":"euhfHt|zpL_BiBsCoDwCqDrCsGN_@uEoFoEiFUWSUqCwC]a@{ByC{@cAkJuKoAwA_CeCeExJ~AlB`@mAu@k@}@q@|C}Iw@}@aO_QkEsEiAoAgEsFkFsHqJ_N}FkImPkOuO{N_U_TcNgNcBcB{E`Jc@x@qG~@{BlA","length":40},"routeShortName":"175","routeLongName":"Term. Chic / Costco","rentedBike":false,"transitLeg":true,"duration":809.0,"steps":[]},{"startTime":1522706310000,"endTime":1522707126000,"departureDelay":0,"arrivalDelay":0,"realTime":false,"distance":1038.306,"pathway":false,"mode":"WALK","route":"","agencyTimeZoneOffset":-14400000,"interlineWithPreviousLeg":false,"from":{"name":"Polyclinique du Saguenay (boul. Université)","stopId":"1:61","stopCode":"61","lon":-71.053728,"lat":48.415424,"arrival":1522706309000,"departure":1522706310000,"zoneId":"NA","stopIndex":13,"stopSequence":14,"vertexType":"TRANSIT"},"to":{"name":"Destination","lon":-71.062455,"lat":48.414185,"arrival":1522707126000,"orig":"","vertexType":"NORMAL"},"legGeometry":{"points":"gcofHbutpLaBvAKHPh@FVVp@Rr@cBvAUt@[dA`A~@p@j@fAz@|A|@|@n@Qf@WtAIf@@`ADhB`@~ADTnAdB^e@bAq@~@OHfCkDxJ","length":28},"rentedBike":false,"transitLeg":false,"duration":816.0,"steps":[{"distance":71.131,"relativeDirection":"DEPART","streetName":"Boulevard de l'Université","absoluteDirection":"NORTHWEST","stayOn":false,"area":false,"bogusName":false,"lon":-71.05377815383544,"lat":48.415404134793874,"elevation":[]},{"distance":72.972,"relativeDirection":"LEFT","streetName":"Rue Nobel","absoluteDirection":"SOUTHWEST","stayOn":false,"area":false,"bogusName":false,"lon":-71.0542688,"lat":48.4159547,"elevation":[]},{"distance":118.658,"relativeDirection":"RIGHT","streetName":"Rue Thomas-Edison","absoluteDirection":"NORTHWEST","stayOn":false,"area":false,"bogusName":false,"lon":-71.05510070000001,"lat":48.415600100000006,"elevation":[]},{"distance":217.5,"relativeDirection":"LEFT","streetName":"Rue Graham-Bell","absoluteDirection":"SOUTHWEST","stayOn":false,"area":false,"bogusName":false,"lon":-71.05616500000001,"lat":48.4163584,"elevation":[]},{"distance":237.467,"relativeDirection":"RIGHT","streetName":"Rue Marguerite-Tellier","absoluteDirection":"NORTHWEST","stayOn":false,"area":false,"bogusName":false,"lon":-71.0575589,"lat":48.4146378,"elevation":[]},{"distance":101.312,"relativeDirection":"LEFT","streetName":"Rue des Champs-Élysées","absoluteDirection":"SOUTHEAST","stayOn":false,"area":false,"bogusName":false,"lon":-71.0603414,"lat":48.4142597,"elevation":[]},{"distance":219.266,"relativeDirection":"RIGHT","streetName":"Rue Hector-Champagne","absoluteDirection":"WEST","stayOn":false,"area":false,"bogusName":false,"lon":-71.05982560000001,"lat":48.4134334,"elevation":[]}]}],"tooSloped":false}]},"debugOutput":{"precalculationTime":25,"pathCalculationTime":16,"pathTimes":[10,4,2],"renderingTime":0,"totalTime":41,"timedOut":false},"elevationMetadata":{"ellipsoidToGeoidDifference":-28.885904201182168,"geoidElevation":false}}