{"requestParameters":{"date":"2018/04/02","walkSpeed":"1.33","walkReluctance":"2.0","fromPlace":"48.413859,-71.061018","maxWalkDistance":"3000","waitReluctance":"1.0","carSpeed":"33","numItineraries":"3","waitAtBeginningFactor":"0.4","mode":"TRANSIT,WALK","ignoreRealtimeUpdates":"false","stairsReluctance":"2.0","toPlace":"48.426592,-71.068244","time":"6:15:00"},"plan":{"date":1522664100000,"from":{"name":"Origin","lon":-71.061018,"lat":48.413859,"orig":"","vertexType":"NORMAL"},"to":{"name":"Destination","lon":-71.068244,"lat":48.426592,"orig":"","vertexType":"NORMAL"},"itineraries":[{"duration":1476,"startTime":1522664100000,"endTime":1522665576000,"walkTime":1476,"transitTime":0,"waitingTime":0,"walkDistance":1891.2064586390836,"walkLimitExceeded":false,"elevationLost":0.0,"elevationGained":0.0,"transfers":0,"legs":[{"startTime":1522664100000,"endTime":1522665576000,"departureDelay":0,"arrivalDelay":0,"realTime":false,"distance":1890.9730000000002,"pathway":false,"mode":"WALK","route":"","agencyTimeZoneOffset":-14400000,"interlineWithPreviousLeg":false,"from":{"name":"Origin","lon":-71.061018,"lat":48.413859,"departure":1522664100000,"orig":"","vertexType":"NORMAL"},"to":{"name":"Destination","lon":-71.068244,"lat":48.426592,"arrival":1522665576000,"orig":"","vertexType":"NORMAL"},"legGeometry":{"points":"qxnfHlcvpL_EbLiCcCcA|FOh@GP??k@jBn@l@kAdDGReAvCu@xBeAT]x@o@nBe@nBYx@o@L_@J]DGBy@VYJ{@@e@BiBO]DSCgCQkBOMAQASAs@Eu@EyAGe@C{BOm@Eg@ESAYCkCO[CC?uAKC?aCO{@GiAIBcA","length":52},"rentedBike":false,"transitLeg":false,"duration":1476.0,"steps":[{"distance":187.642,"relativeDirection":"DEPART","streetName":"Rue Hector-Champagne","absoluteDirection":"NORTHWEST","stayOn":false,"area":false,"bogusName":false,"lon":-71.0611862998225,"lat":48.41369640716344,"elevation":[]},{"distance":90.944,"relativeDirection":"RIGHT","streetName":"Rue Georges-Vanier","absoluteDirection":"NORTHEAST","stayOn":false,"area":false,"bogusName":false,"lon":-71.0632818,"lat":48.414652000000004,"elevation":[]},{"distance":173.619,"relativeDirection":"LEFT","streetName":"Rue des Champs-Élysées","absoluteDirection":"WEST","stayOn":false,"area":false,"bogusName":false,"lon":-71.0626228,"lat":48.4153431,"elevation":[]},{"distance":30.953,"relativeDirection":"LEFT","streetName":"Rue Bégin","absoluteDirection":"SOUTHWEST","stayOn":false,"area":false,"bogusName":false,"lon":-71.0647342,"lat":48.416021,"elevation":[]},{"distance":205.419,"relativeDirection":"RIGHT","streetName":"Rue Dubé","absoluteDirection":"NORTHWEST","stayOn":false,"area":false,"bogusName":false,"lon":-71.06496530000001,"lat":48.4157887,"elevation":[]},{"distance":188.869,"relativeDirection":"RIGHT","streetName":"path","absoluteDirection":"NORTH","stayOn":false,"area":false,"bogusName":true,"lon":-71.0672681,"lat":48.416826400000005,"elevation":[]},{"distance":100.197,"relativeDirection":"RIGHT","streetName":"Rue Jolliet","absoluteDirection":"NORTH","stayOn":false,"area":false,"bogusName":false,"lon":-71.069079,"lat":48.417887500000006,"elevation":[]},{"distance":888.392,"relativeDirection":"CONTINUE","streetName":"Rue Sainte-Anne","absoluteDirection":"NORTH","stayOn":false,"area":false,"bogusName":false,"lon":-71.0693796,"lat":48.418765,"elevation":[]},{"distance":24.938,"relativeDirection":"RIGHT","streetName":"Rue Jacques-Cartier Est","absoluteDirection":"EAST","stayOn":false,"area":false,"bogusName":false,"lon":-71.0685709,"lat":48.426721,"elevation":[]}]}],"tooSloped":false},{"duration":760,"startTime":1522667830000,"endTime":1522668590000,"walkTime":462,"transitTime":296,"waitingTime":2,"walkDistance":591.8684210488105,"walkLimitExceeded":false,"elevationLost":0.0,"elevationGained":0.0,"transfers":0,"legs":[{"startTime":1522667830000,"endTime":1522668253000,"departureDelay":0,"arrivalDelay":0,"realTime":false,"distance":540.297,"pathway":false,"mode":"WALK","route":"","agencyTimeZoneOffset":-14400000,"interlineWithPreviousLeg":false,"from":{"name":"Origin","lon":-71.061018,"lat":48.413859,"departure":1522667830000,"orig":"","vertexType":"NORMAL"},"to":{"name":"Résidence Funéraire (Bégin)","stopId":"1:582","stopCode":"582","lon":-71.063981,"lat":48.416642,"arrival":1522668253000,"departure":1522668254000,"zoneId":"NA","stopIndex":37,"stopSequence":38,"vertexType":"TRANSIT"},"legGeometry":{"points":"qxnfHlcvpL_EbLiCcCcA|FOh@GP??k@jBGE}AaB]Y","length":11},"rentedBike":false,"transitLeg":false,"duration":423.0,"steps":[{"distance":187.642,"relativeDirection":"DEPART","streetName":"Rue Hector-Champagne","absoluteDirection":"NORTHWEST","stayOn":false,"area":false,"bogusName":false,"lon":-71.0611862998225,"lat":48.41369640716344,"elevation":[]},{"distance":90.944,"relativeDirection":"RIGHT","streetName":"Rue Georges-Vanier","absoluteDirection":"NORTHEAST","stayOn":false,"area":false,"bogusName":false,"lon":-71.0632818,"lat":48.414652000000004,"elevation":[]},{"distance":173.619,"relativeDirection":"LEFT","streetName":"Rue des Champs-Élysées","absoluteDirection":"WEST","stayOn":false,"area":false,"bogusName":false,"lon":-71.0626228,"lat":48.4153431,"elevation":[]},{"distance":88.092,"relativeDirection":"RIGHT","streetName":"Rue Bégin","absoluteDirection":"NORTHEAST","stayOn":false,"area":false,"bogusName":false,"lon":-71.0647342,"lat":48.416021,"elevation":[]}]},{"startTime":1522668254000,"endTime":1522668550000,"departureDelay":0,"arrivalDelay":0,"realTime":false,"distance":2121.5592663684156,"pathway":false,"mode":"BUS","route":"105S","agencyName":"Société de Transport du Saguenay","agencyUrl":"http://ville.saguenay.ca/fr/services-aux-citoyens/transport-sts","agencyTimeZoneOffset":-14400000,"routeColor":"8B0000","routeType":3,"routeId":"1:105S","routeTextColor":"FFFFFF","interlineWithPreviousLeg":false,"tripBlockId":"39","headsign":"Terminus Chicoutimi","agencyId":"0","tripId":"1:218335","serviceDate":"20180402","from":{"name":"Résidence Funéraire (Bégin)","stopId":"1:582","stopCode":"582","lon":-71.063981,"lat":48.416642,"arrival":1522668253000,"departure":1522668254000,"zoneId":"NA","stopIndex":37,"stopSequence":38,"vertexType":"TRANSIT"},"to":{"name":"Jacques-Cartier / Tessier","stopId":"1:62","stopCode":"62","lon":-71.067531,"lat":48.426736,"arrival":1522668550000,"departure":1522668551000,"zoneId":"NA","stopIndex":46,"stopSequence":47,"vertexType":"TRANSIT"},"legGeometry":{"points":"kkofHvuvpLkIkIaJaJUUiCwCw@q@aD_D}MyMmEkE]a@kAqAU|@WnKG|DGxDOdPKvJU|F?XQlJC~@ChA","length":22},"routeShortName":"105S","routeLongName":"Terminus Chicoutimi via Bégin","rentedBike":false,"transitLeg":true,"duration":296.0,"steps":[]},{"startTime":1522668551000,"endTime":1522668590000,"departureDelay":0,"arrivalDelay":0,"realTime":false,"distance":51.453,"pathway":false,"mode":"WALK","route":"","agencyTimeZoneOffset":-14400000,"interlineWithPreviousLeg":false,"from":{"name":"Jacques-Cartier / Tessier","stopId":"1:62","stopCode":"62","lon":-71.067531,"lat":48.426736,"arrival":1522668550000,"departure":1522668551000,"zoneId":"NA","stopIndex":46,"stopSequence":47,"vertexType":"TRANSIT"},"to":{"name":"Destination","lon":-71.068244,"lat":48.426592,"arrival":1522668590000,"orig":"","vertexType":"NORMAL"},"legGeometry":{"points":"uiqfHbkwpLEnB?Z","length":3},"rentedBike":false,"transitLeg":false,"duration":39.0,"steps":[{"distance":51.453,"relativeDirection":"DEPART","streetName":"Rue Jacques-Cartier Est","absoluteDirection":"WEST","stayOn":false,"area":false,"bogusName":false,"lon":-71.0675380239516,"lat":48.42667414840684,"elevation":[]}]}],"tooSloped":false},{"duration":995,"startTime":1522668038000,"endTime":1522669033000,"walkTime":462,"transitTime":531,"waitingTime":2,"walkDistance":591.8684210488105,"walkLimitExceeded":false,"elevationLost":0.0,"elevationGained":0.0,"transfers":0,"legs":[{"startTime":1522668038000,"endTime":1522668461000,"departureDelay":0,"arrivalDelay":0,"realTime":false,"distance":540.297,"pathway":false,"mode":"WALK","route":"","agencyTimeZoneOffset":-14400000,"interlineWithPreviousLeg":false,"from":{"name":"Origin","lon":-71.061018,"lat":48.413859,"departure":1522668038000,"orig":"","vertexType":"NORMAL"},"to":{"name":"Résidence Funéraire (Bégin)","stopId":"1:582","stopCode":"582","lon":-71.063981,"lat":48.416642,"arrival":1522668461000,"departure":1522668462000,"zoneId":"NA","stopIndex":26,"stopSequence":27,"vertexType":"TRANSIT"},"legGeometry":{"points":"qxnfHlcvpL_EbLiCcCcA|FOh@GP??k@jBGE}AaB]Y","length":11},"rentedBike":false,"transitLeg":false,"duration":423.0,"steps":[{"distance":187.642,"relativeDirection":"DEPART","streetName":"Rue Hector-Champagne","absoluteDirection":"NORTHWEST","stayOn":false,"area":false,"bogusName":false,"lon":-71.0611862998225,"lat":48.41369640716344,"elevation":[]},{"distance":90.944,"relativeDirection":"RIGHT","streetName":"Rue Georges-Vanier","absoluteDirection":"NORTHEAST","stayOn":false,"area":false,"bogusName":false,"lon":-71.0632818,"lat":48.414652000000004,"elevation":[]},{"distance":173.619,"relativeDirection":"LEFT","streetName":"Rue des Champs-Élysées","absoluteDirection":"WEST","stayOn":false,"area":false,"bogusName":false,"lon":-71.0626228,"lat":48.4153431,"elevation":[]},{"distance":88.092,"relativeDirection":"RIGHT","streetName":"Rue Bégin","absoluteDirection":"NORTHEAST","stayOn":false,"area":false,"bogusName":false,"lon":-71.0647342,"lat":48.416021,"elevation":[]}]},{"startTime":1522668462000,"endTime":1522668993000,"departureDelay":0,"arrivalDelay":0,"realTime":false,"distance":2633.3963294084288,"pathway":false,"mode":"BUS","route":"15","agencyName":"Société de Transport du Saguenay","agencyUrl":"http://ville.saguenay.ca/fr/services-aux-citoyens/transport-sts","agencyTimeZoneOffset":-14400000,"routeColor":"FF00FF","routeType":3,"routeId":"1:15","routeTextColor":"FFFFFF","interlineWithPreviousLeg":false,"tripBlockId":"30","headsign":"Terminus Chicoutimi","agencyId":"0","tripId":"1:218088","serviceDate":"20180402","from":{"name":"Résidence Funéraire (Bégin)","stopId":"1:582","stopCode":"582","lon":-71.063981,"lat":48.416642,"arrival":1522668461000,"departure":1522668462000,"zoneId":"NA","stopIndex":26,"stopSequence":27,"vertexType":"TRANSIT"},"to":{"name":"Jacques-Cartier / Tessier","stopId":"1:62","stopCode":"62","lon":-71.067531,"lat":48.426736,"arrival":1522668993000,"departure":1522668994000,"zoneId":"NA","stopIndex":37,"stopSequence":38,"vertexType":"TRANSIT"},"legGeometry":{"points":"kkofHvuvpLkIkIaJaJUUwBaCj@wCjAsCzGoG_CoHL{D_@kAqD{CQr@iAcAy@w@L{@wAuA_B_B_EpLDh@NbBVvCIxBg@`Am@l@Sb@a@rAqDqDmEkE]a@kAqAU|@WnKG|DGxDOdPKvJU|F?XQlJC~@ChA","length":42},"routeShortName":"15","routeLongName":"Term. Chic / Costco","rentedBike":false,"transitLeg":true,"duration":531.0,"steps":[]},{"startTime":1522668994000,"endTime":1522669033000,"departureDelay":0,"arrivalDelay":0,"realTime":false,"distance":51.453,"pathway":false,"mode":"WALK","route":"","agencyTimeZoneOffset":-14400000,"interlineWithPreviousLeg":false,"from":{"name":"Jacques-Cartier / Tessier","stopId":"1:62","stopCode":"62","lon":-71.067531,"lat":48.426736,"arrival":1522668993000,"departure":1522668994000,"zoneId":"NA","stopIndex":37,"stopSequence":38,"vertexType":"TRANSIT"},"to":{"name":"Destination","lon":-71.068244,"lat":48.426592,"arrival":1522669033000,"orig":"","vertexType":"NORMAL"},"legGeometry":{"points":"uiqfHbkwpLEnB?Z","length":3},"rentedBike":false,"transitLeg":false,"duration":39.0,"steps":[{"distance":51.453,"relativeDirection":"DEPART","streetName":"Rue Jacques-Cartier Est","absoluteDirection":"WEST","stayOn":false,"area":false,"bogusName":false,"lon":-71.0675380239516,"lat":48.42667414840684,"elevation":[]}]}],"tooSloped":false}]},"debugOutput":{"precalculationTime":41,"pathCalculationTime":46,"pathTimes":[20,12,14],"renderingTime":0,"totalTime":87,"timedOut":false},"elevationMetadata":{"ellipsoidToGeoidDifference":-28.885904201182168,"geoidElevation":false}}