{"requestParameters":{"date":"2018/04/02","walkSpeed":"1.33","walkReluctance":"2.0","fromPlace":"48.42921,-71.02399099","maxWalkDistance":"3000","waitReluctance":"1.0","carSpeed":"33","numItineraries":"3","waitAtBeginningFactor":"0.4","mode":"TRANSIT,WALK","ignoreRealtimeUpdates":"false","stairsReluctance":"2.0","toPlace":"48.414185,-71.062455","time":"21:30:00"},"plan":{"date":1522719000000,"from":{"name":"Origin","lon":-71.02399099,"lat":48.42921,"orig":"","vertexType":"NORMAL"},"to":{"name":"Destination","lon":-71.062455,"lat":48.414185,"orig":"","vertexType":"NORMAL"},"itineraries":[{"duration":2812,"startTime":1522719123000,"endTime":1522721935000,"walkTime":2531,"transitTime":279,"waitingTime":2,"walkDistance":3242.8553308131163,"walkLimitExceeded":false,"elevationLost":0.0,"elevationGained":0.0,"transfers":0,"legs":[{"startTime":1522719123000,"endTime":1522721420000,"departureDelay":0,"arrivalDelay":0,"realTime":false,"distance":2944.4449999999993,"pathway":false,"mode":"WALK","route":"","agencyTimeZoneOffset":-14400000,"interlineWithPreviousLeg":false,"from":{"name":"Origin","lon":-71.02399099,"lat":48.42921,"departure":1522719123000,"orig":"","vertexType":"NORMAL"},"to":{"name":"Résidence de l' UQAC","stopId":"1:1928","stopCode":"1928","lon":-71.052293,"lat":48.421532,"arrival":1522721420000,"departure":1522721421000,"zoneId":"NA","stopIndex":1,"stopSequence":2,"vertexType":"TRANSIT"},"legGeometry":{"points":"_yqfHtynpLJJJJhBdB|@t@~@v@YdAeC`JENi@rBI\\Sv@ABCLk@bBg@~@_@r@Ab@Ax@AjBGdBEjBAd@IpDG~@ARAV?@MfCAXAREf@@vAFfAd@zHJjA?@Dp@L~AHpAJxALhBFx@BXLtD@zJEpC?@ALA|@hCGhBIL?x@d@b@RRJJF\\@h@IfA?p@FXN`@b@T\\Jh@AXe@pG~@z@J|@OzCHBfAj@i@jAGDF`@BZDNl@jB@T@VEz@b@DnBX\\FjAZ?^DbABDp@XLFJHd@ZJFXNV^h@l@ZVb@`@nAlAVPRPb@^TRLJTT@@","length":106},"rentedBike":false,"transitLeg":false,"duration":2297.0,"steps":[{"distance":167.31400000000002,"relativeDirection":"DEPART","streetName":"Rue des Ormes","absoluteDirection":"SOUTHWEST","stayOn":false,"area":false,"bogusName":false,"lon":-71.02378624230292,"lat":48.42912829669872,"elevation":[]},{"distance":1426.9920000000002,"relativeDirection":"RIGHT","streetName":"Boulevard du Saguenay Est","absoluteDirection":"NORTHWEST","stayOn":false,"area":false,"bogusName":false,"lon":-71.02496810000001,"lat":48.427844500000006,"elevation":[]},{"distance":218.841,"relativeDirection":"LEFT","streetName":"Rue du Bon-Conseil","absoluteDirection":"SOUTH","stayOn":false,"area":false,"bogusName":false,"lon":-71.0433845,"lat":48.429314600000005,"elevation":[]},{"distance":418.005,"relativeDirection":"SLIGHTLY_LEFT","streetName":"path","absoluteDirection":"SOUTH","stayOn":false,"area":false,"bogusName":true,"lon":-71.0436803,"lat":48.427398100000005,"elevation":[]},{"distance":206.47199999999998,"relativeDirection":"LEFT","streetName":"service road","absoluteDirection":"SOUTH","stayOn":true,"area":false,"bogusName":true,"lon":-71.0471993,"lat":48.4258536,"elevation":[]},{"distance":19.537,"relativeDirection":"LEFT","streetName":"path","absoluteDirection":"SOUTH","stayOn":true,"area":false,"bogusName":true,"lon":-71.0493017,"lat":48.4253823,"elevation":[]},{"distance":123.78800000000001,"relativeDirection":"CONTINUE","streetName":"Chemin Sydenham","absoluteDirection":"SOUTH","stayOn":false,"area":false,"bogusName":false,"lon":-71.04933630000001,"lat":48.425208100000006,"elevation":[]},{"distance":37.224000000000004,"relativeDirection":"RIGHT","streetName":"road","absoluteDirection":"WEST","stayOn":false,"area":false,"bogusName":true,"lon":-71.0496408,"lat":48.424114100000004,"elevation":[]},{"distance":263.87899999999996,"relativeDirection":"LEFT","streetName":"road","absoluteDirection":"SOUTH","stayOn":true,"area":false,"bogusName":true,"lon":-71.0501431,"lat":48.4240852,"elevation":[]},{"distance":62.393,"relativeDirection":"CONTINUE","streetName":"Chemin Saint Thomas","absoluteDirection":"SOUTHWEST","stayOn":false,"area":false,"bogusName":false,"lon":-71.051902,"lat":48.4220343,"elevation":[]}]},{"startTime":1522721421000,"endTime":1522721700000,"departureDelay":0,"arrivalDelay":0,"realTime":false,"distance":1400.6801627561886,"pathway":false,"mode":"BUS","route":"12","agencyName":"Société de Transport du Saguenay","agencyUrl":"http://ville.saguenay.ca/fr/services-aux-citoyens/transport-sts","agencyTimeZoneOffset":-14400000,"routeColor":"556B2F","routeType":3,"routeId":"1:12","routeTextColor":"FFFFFF","interlineWithPreviousLeg":false,"tripBlockId":"26","headsign":"Terminus Chicoutimi","agencyId":"0","tripId":"1:217995","serviceDate":"20180402","from":{"name":"Résidence de l' UQAC","stopId":"1:1928","stopCode":"1928","lon":-71.052293,"lat":48.421532,"arrival":1522721420000,"departure":1522721421000,"zoneId":"NA","stopIndex":1,"stopSequence":2,"vertexType":"TRANSIT"},"to":{"name":"Champs-Élysées / Bégin","stopId":"1:566","stopCode":"566","lon":-71.064237,"lat":48.415762,"arrival":1522721700000,"departure":1522721701000,"zoneId":"NA","stopIndex":7,"stopSequence":8,"vertexType":"TRANSIT"},"legGeometry":{"points":"wipfHjltpLaB{A}DrL?jCv@fCa@nDaC`D~E`F~MfNjJnJ~GbHnCpCv@iB","length":13},"routeShortName":"12","routeLongName":"Rivière du Moulin","rentedBike":false,"transitLeg":true,"duration":279.0,"steps":[]},{"startTime":1522721701000,"endTime":1522721935000,"departureDelay":0,"arrivalDelay":0,"realTime":false,"distance":297.978,"pathway":false,"mode":"WALK","route":"","agencyTimeZoneOffset":-14400000,"interlineWithPreviousLeg":false,"from":{"name":"Champs-Élysées / Bégin","stopId":"1:566","stopCode":"566","lon":-71.064237,"lat":48.415762,"arrival":1522721700000,"departure":1522721701000,"zoneId":"NA","stopIndex":7,"stopSequence":8,"vertexType":"TRANSIT"},"to":{"name":"Destination","lon":-71.062455,"lat":48.414185,"arrival":1522721935000,"orig":"","vertexType":"NORMAL"},"legGeometry":{"points":"weofHfvvpL??FQNi@bA}FhCbCpAqD","length":7},"rentedBike":false,"transitLeg":false,"duration":234.0,"steps":[{"distance":127.334,"relativeDirection":"DEPART","streetName":"Rue des Champs-Élysées","absoluteDirection":"SOUTHEAST","stayOn":false,"area":false,"bogusName":false,"lon":-71.06419656014225,"lat":48.415806692432525,"elevation":[]},{"distance":90.944,"relativeDirection":"RIGHT","streetName":"Rue Georges-Vanier","absoluteDirection":"SOUTHWEST","stayOn":false,"area":false,"bogusName":false,"lon":-71.0626228,"lat":48.4153431,"elevation":[]},{"distance":79.7,"relativeDirection":"LEFT","streetName":"Rue Hector-Champagne","absoluteDirection":"SOUTHEAST","stayOn":false,"area":false,"bogusName":false,"lon":-71.0632818,"lat":48.414652000000004,"elevation":[]}]}],"tooSloped":false},{"duration":1967,"startTime":1522720795000,"endTime":1522722762000,"walkTime":629,"transitTime":1096,"waitingTime":242,"walkDistance":801.6565488667096,"walkLimitExceeded":false,"elevationLost":0.0,"elevationGained":0.0,"transfers":1,"legs":[{"startTime":1522720795000,"endTime":1522721039000,"departureDelay":0,"arrivalDelay":0,"realTime":false,"distance":309.9119999999999,"pathway":false,"mode":"WALK","route":"","agencyTimeZoneOffset":-14400000,"interlineWithPreviousLeg":false,"from":{"name":"Origin","lon":-71.02399099,"lat":48.42921,"departure":1522720795000,"orig":"","vertexType":"NORMAL"},"to":{"name":"nouveau","stopId":"1:2304","stopCode":"2304","lon":-71.026011,"lat":48.430204,"arrival":1522721039000,"departure":1522721040000,"zoneId":"NA","stopIndex":25,"stopSequence":26,"vertexType":"TRANSIT"},"legGeometry":{"points":"_yqfHtynpLmBaBkAxDa@rA[hA_@fBz@z@LL","length":8},"rentedBike":false,"transitLeg":false,"duration":244.0,"steps":[{"distance":70.443,"relativeDirection":"DEPART","streetName":"Rue des Ormes","absoluteDirection":"NORTHEAST","stayOn":false,"area":false,"bogusName":false,"lon":-71.02378624230292,"lat":48.42912829669872,"elevation":[]},{"distance":190.40499999999997,"relativeDirection":"LEFT","streetName":"Rue des Cèdres","absoluteDirection":"NORTHWEST","stayOn":false,"area":false,"bogusName":false,"lon":-71.02329420000001,"lat":48.4296712,"elevation":[]},{"distance":49.06399999999999,"relativeDirection":"LEFT","streetName":"Rue Arthur-Hamel","absoluteDirection":"SOUTHWEST","stayOn":false,"area":false,"bogusName":false,"lon":-71.02553040000001,"lat":48.430521000000006,"elevation":[]}]},{"startTime":1522721040000,"endTime":1522721460000,"departureDelay":0,"arrivalDelay":0,"realTime":false,"distance":2984.04482847883,"pathway":false,"mode":"BUS","route":"12","agencyName":"Société de Transport du Saguenay","agencyUrl":"http://ville.saguenay.ca/fr/services-aux-citoyens/transport-sts","agencyTimeZoneOffset":-14400000,"routeColor":"556B2F","routeType":3,"routeId":"1:12","routeTextColor":"FFFFFF","interlineWithPreviousLeg":false,"tripBlockId":"29","headsign":"Terminus Chicoutimi","agencyId":"0","tripId":"1:218082","serviceDate":"20180402","from":{"name":"nouveau","stopId":"1:2304","stopCode":"2304","lon":-71.026011,"lat":48.430204,"arrival":1522721039000,"departure":1522721040000,"zoneId":"NA","stopIndex":25,"stopSequence":26,"vertexType":"TRANSIT"},"to":{"name":"Terminus Chicoutimi","stopId":"1:1289","stopCode":"1289","lon":-71.066163,"lat":48.428677,"arrival":1522721460000,"departure":1522721700000,"zoneId":"NA","stopIndex":33,"stopSequence":34,"vertexType":"TRANSIT"},"legGeometry":{"points":"i~qfHzdopL|FlHmB`IgA|Cy@`UYzHZvMR~Hr@~ZPvHsCrMFxf@|ApJj@nDDl]BvZdCXJhC","length":18},"routeShortName":"12","routeLongName":"Rivière du Moulin","rentedBike":false,"transitLeg":true,"duration":420.0,"steps":[]},{"startTime":1522721700000,"endTime":1522722376000,"departureDelay":0,"arrivalDelay":0,"realTime":false,"distance":2869.9991643422795,"pathway":false,"mode":"BUS","route":"15","agencyName":"Société de Transport du Saguenay","agencyUrl":"http://ville.saguenay.ca/fr/services-aux-citoyens/transport-sts","agencyTimeZoneOffset":-14400000,"routeColor":"FF00FF","routeType":3,"routeId":"1:15","routeTextColor":"FFFFFF","interlineWithPreviousLeg":false,"tripBlockId":"33","headsign":"Talbot / Barrette","agencyId":"0","tripId":"1:218203","serviceDate":"20180402","from":{"name":"Terminus Chicoutimi","stopId":"1:1289","stopCode":"1289","lon":-71.066163,"lat":48.428677,"arrival":1522721460000,"departure":1522721700000,"zoneId":"NA","stopIndex":0,"stopSequence":1,"vertexType":"TRANSIT"},"to":{"name":"Bégin / Youville","stopId":"1:2004","stopCode":"2004","lon":-71.066018,"lat":48.414996,"arrival":1522722376000,"departure":1522722377000,"zoneId":"NA","stopIndex":11,"stopSequence":12,"vertexType":"TRANSIT"},"legGeometry":{"points":"evqfHpbwpLPiCjKx@HiEZkS\\aSN_K^eIrBpBvIpIr@r@\\mBfAaA`@gBOkB_@uF|DyL|DpDQ|@|@z@bA`ATw@dD~Ch@fA@`E~AjGuH`Iy@bBi@dCbEdEjJlJ`HbHlJpJ","length":33},"routeShortName":"15","routeLongName":"Term. Chic / Costco","rentedBike":false,"transitLeg":true,"duration":676.0,"steps":[]},{"startTime":1522722377000,"endTime":1522722762000,"departureDelay":0,"arrivalDelay":0,"realTime":false,"distance":491.575,"pathway":false,"mode":"WALK","route":"","agencyTimeZoneOffset":-14400000,"interlineWithPreviousLeg":false,"from":{"name":"Bégin / Youville","stopId":"1:2004","stopCode":"2004","lon":-71.066018,"lat":48.414996,"arrival":1522722376000,"departure":1522722377000,"zoneId":"NA","stopIndex":11,"stopSequence":12,"vertexType":"TRANSIT"},"to":{"name":"Destination","lon":-71.062455,"lat":48.414185,"arrival":1522722762000,"orig":"","vertexType":"NORMAL"},"legGeometry":{"points":"e`ofHn`wpLCCGGsCqCMOo@m@j@kB??FQNi@bA}FhCbCpAqD","length":13},"rentedBike":false,"transitLeg":false,"duration":385.0,"steps":[{"distance":147.31199999999998,"relativeDirection":"DEPART","streetName":"Rue Bégin","absoluteDirection":"NORTHEAST","stayOn":false,"area":false,"bogusName":false,"lon":-71.06583413783413,"lat":48.4149155049481,"elevation":[]},{"distance":173.619,"relativeDirection":"RIGHT","streetName":"Rue des Champs-Élysées","absoluteDirection":"SOUTHEAST","stayOn":false,"area":false,"bogusName":false,"lon":-71.0647342,"lat":48.416021,"elevation":[]},{"distance":90.944,"relativeDirection":"RIGHT","streetName":"Rue Georges-Vanier","absoluteDirection":"SOUTHWEST","stayOn":false,"area":false,"bogusName":false,"lon":-71.0626228,"lat":48.4153431,"elevation":[]},{"distance":79.7,"relativeDirection":"LEFT","streetName":"Rue Hector-Champagne","absoluteDirection":"SOUTHEAST","stayOn":false,"area":false,"bogusName":false,"lon":-71.0632818,"lat":48.414652000000004,"elevation":[]}]}],"tooSloped":false},{"duration":2812,"startTime":1522720923000,"endTime":1522723735000,"walkTime":2531,"transitTime":279,"waitingTime":2,"walkDistance":3242.8553308131163,"walkLimitExceeded":false,"elevationLost":0.0,"elevationGained":0.0,"transfers":0,"legs":[{"startTime":1522720923000,"endTime":1522723220000,"departureDelay":0,"arrivalDelay":0,"realTime":false,"distance":2944.4449999999993,"pathway":false,"mode":"WALK","route":"","agencyTimeZoneOffset":-14400000,"interlineWithPreviousLeg":false,"from":{"name":"Origin","lon":-71.02399099,"lat":48.42921,"departure":1522720923000,"orig":"","vertexType":"NORMAL"},"to":{"name":"Résidence de l' UQAC","stopId":"1:1928","stopCode":"1928","lon":-71.052293,"lat":48.421532,"arrival":1522723220000,"departure":1522723221000,"zoneId":"NA","stopIndex":1,"stopSequence":2,"vertexType":"TRANSIT"},"legGeometry":{"points":"_yqfHtynpLJJJJhBdB|@t@~@v@YdAeC`JENi@rBI\\Sv@ABCLk@bBg@~@_@r@Ab@Ax@AjBGdBEjBAd@IpDG~@ARAV?@MfCAXAREf@@vAFfAd@zHJjA?@Dp@L~AHpAJxALhBFx@BXLtD@zJEpC?@ALA|@hCGhBIL?x@d@b@RRJJF\\@h@IfA?p@FXN`@b@T\\Jh@AXe@pG~@z@J|@OzCHBfAj@i@jAGDF`@BZDNl@jB@T@VEz@b@DnBX\\FjAZ?^DbABDp@XLFJHd@ZJFXNV^h@l@ZVb@`@nAlAVPRPb@^TRLJTT@@","length":106},"rentedBike":false,"transitLeg":false,"duration":2297.0,"steps":[{"distance":167.31400000000002,"relativeDirection":"DEPART","streetName":"Rue des Ormes","absoluteDirection":"SOUTHWEST","stayOn":false,"area":false,"bogusName":false,"lon":-71.02378624230292,"lat":48.42912829669872,"elevation":[]},{"distance":1426.9920000000002,"relativeDirection":"RIGHT","streetName":"Boulevard du Saguenay Est","absoluteDirection":"NORTHWEST","stayOn":false,"area":false,"bogusName":false,"lon":-71.02496810000001,"lat":48.427844500000006,"elevation":[]},{"distance":218.841,"relativeDirection":"LEFT","streetName":"Rue du Bon-Conseil","absoluteDirection":"SOUTH","stayOn":false,"area":false,"bogusName":false,"lon":-71.0433845,"lat":48.429314600000005,"elevation":[]},{"distance":418.005,"relativeDirection":"SLIGHTLY_LEFT","streetName":"path","absoluteDirection":"SOUTH","stayOn":false,"area":false,"bogusName":true,"lon":-71.0436803,"lat":48.427398100000005,"elevation":[]},{"distance":206.47199999999998,"relativeDirection":"LEFT","streetName":"service road","absoluteDirection":"SOUTH","stayOn":true,"area":false,"bogusName":true,"lon":-71.0471993,"lat":48.4258536,"elevation":[]},{"distance":19.537,"relativeDirection":"LEFT","streetName":"path","absoluteDirection":"SOUTH","stayOn":true,"area":false,"bogusName":true,"lon":-71.0493017,"lat":48.4253823,"elevation":[]},{"distance":123.78800000000001,"relativeDirection":"CONTINUE","streetName":"Chemin Sydenham","absoluteDirection":"SOUTH","stayOn":false,"area":false,"bogusName":false,"lon":-71.04933630000001,"lat":48.425208100000006,"elevation":[]},{"distance":37.224000000000004,"relativeDirection":"RIGHT","streetName":"road","absoluteDirection":"WEST","stayOn":false,"area":false,"bogusName":true,"lon":-71.0496408,"lat":48.424114100000004,"elevation":[]},{"distance":263.87899999999996,"relativeDirection":"LEFT","streetName":"road","absoluteDirection":"SOUTH","stayOn":true,"area":false,"bogusName":true,"lon":-71.0501431,"lat":48.4240852,"elevation":[]},{"distance":62.393,"relativeDirection":"CONTINUE","streetName":"Chemin Saint Thomas","absoluteDirection":"SOUTHWEST","stayOn":false,"area":false,"bogusName":false,"lon":-71.051902,"lat":48.4220343,"elevation":[]}]},{"startTime":1522723221000,"endTime":1522723500000,"departureDelay":0,"arrivalDelay":0,"realTime":false,"distance":1400.6801627561886,"pathway":false,"mode":"BUS","route":"12","agencyName":"Société de Transport du Saguenay","agencyUrl":"http://ville.saguenay.ca/fr/services-aux-citoyens/transport-sts","agencyTimeZoneOffset":-14400000,"routeColor":"556B2F","routeType":3,"routeId":"1:12","routeTextColor":"FFFFFF","interlineWithPreviousLeg":false,"tripBlockId":"29","headsign":"Terminus Chicoutimi","agencyId":"0","tripId":"1:218084","serviceDate":"20180402","from":{"name":"Résidence de l' UQAC","stopId":"1:1928","stopCode":"1928","lon":-71.052293,"lat":48.421532,"arrival":1522723220000,"departure":1522723221000,"zoneId":"NA","stopIndex":1,"stopSequence":2,"vertexType":"TRANSIT"},"to":{"name":"Champs-Élysées / Bégin","stopId":"1:566","stopCode":"566","lon":-71.064237,"lat":48.415762,"arrival":1522723500000,"departure":1522723501000,"zoneId":"NA","stopIndex":7,"stopSequence":8,"vertexType":"TRANSIT"},"legGeometry":{"points":"wipfHjltpLaB{A}DrL?jCv@fCa@nDaC`D~E`F~MfNjJnJ~GbHnCpCv@iB","length":13},"routeShortName":"12","routeLongName":"Rivière du Moulin","rentedBike":false,"transitLeg":true,"duration":279.0,"steps":[]},{"startTime":1522723501000,"endTime":1522723735000,"departureDelay":0,"arrivalDelay":0,"realTime":false,"distance":297.978,"pathway":false,"mode":"WALK","route":"","agencyTimeZoneOffset":-14400000,"interlineWithPreviousLeg":false,"from":{"name":"Champs-Élysées / Bégin","stopId":"1:566","stopCode":"566","lon":-71.064237,"lat":48.415762,"arrival":1522723500000,"departure":1522723501000,"zoneId":"NA","stopIndex":7,"stopSequence":8,"vertexType":"TRANSIT"},"to":{"name":"Destination","lon":-71.062455,"lat":48.414185,"arrival":1522723735000,"orig":"","vertexType":"NORMAL"},"legGeometry":{"points":"weofHfvvpL??FQNi@bA}FhCbCpAqD","length":7},"rentedBike":false,"transitLeg":false,"duration":234.0,"steps":[{"distance":127.334,"relativeDirection":"DEPART","streetName":"Rue des Champs-Élysées","absoluteDirection":"SOUTHEAST","stayOn":false,"area":false,"bogusName":false,"lon":-71.06419656014225,"lat":48.415806692432525,"elevation":[]},{"distance":90.944,"relativeDirection":"RIGHT","streetName":"Rue Georges-Vanier","absoluteDirection":"SOUTHWEST","stayOn":false,"area":false,"bogusName":false,"lon":-71.0626228,"lat":48.4153431,"elevation":[]},{"distance":79.7,"relativeDirection":"LEFT","streetName":"Rue Hector-Champagne","absoluteDirection":"SOUTHEAST","stayOn":false,"area":false,"bogusName":false,"lon":-71.0632818,"lat":48.414652000000004,"elevation":[]}]}],"tooSloped":false}]},"debugOutput":{"precalculationTime":28,"pathCalculationTime":22,"pathTimes":[13,5,4],"renderingTime":1,"totalTime":51,"timedOut":false},"elevationMetadata":{"ellipsoidToGeoidDifference":-28.885904201182168,"geoidElevation":false}}