{"requestParameters":{"date":"2018/04/02","walkSpeed":"1.33","walkReluctance":"2.0","fromPlace":"48.39082,-71.073186","maxWalkDistance":"3000","waitReluctance":"1.0","carSpeed":"33","numItineraries":"3","waitAtBeginningFactor":"0.4","mode":"TRANSIT,WALK","ignoreRealtimeUpdates":"false","stairsReluctance":"2.0","toPlace":"48.411201,-71.060097","time":"12:0:00"},"plan":{"date":1522684800000,"from":{"name":"Origin","lon":-71.073186,"lat":48.39082,"orig":"","vertexType":"NORMAL"},"to":{"name":"Destination","lon":-71.060097,"lat":48.411201,"orig":"","vertexType":"NORMAL"},"itineraries":[{"duration":1066,"startTime":1522685091000,"endTime":1522686157000,"walkTime":759,"transitTime":305,"waitingTime":2,"walkDistance":953.8934887138835,"walkLimitExceeded":false,"elevationLost":0.0,"elevationGained":0.0,"transfers":0,"legs":[{"startTime":1522685091000,"endTime":1522685094000,"departureDelay":0,"arrivalDelay":0,"realTime":false,"distance":3.42,"pathway":false,"mode":"WALK","route":"","agencyTimeZoneOffset":-14400000,"interlineWithPreviousLeg":false,"from":{"name":"Origin","lon":-71.073186,"lat":48.39082,"departure":1522685091000,"orig":"","vertexType":"NORMAL"},"to":{"name":"boul. Talbot / Soeurs","stopId":"1:38","stopCode":"38","lon":-71.073496,"lat":48.390935,"arrival":1522685094000,"departure":1522685095000,"zoneId":"NA","stopIndex":6,"stopSequence":7,"vertexType":"TRANSIT"},"legGeometry":{"points":"yjjfH|pxpLBD","length":2},"rentedBike":false,"transitLeg":false,"duration":3.0,"steps":[{"distance":3.42,"relativeDirection":"DEPART","streetName":"Boulevard Talbot","absoluteDirection":"SOUTHWEST","stayOn":false,"area":false,"bogusName":false,"lon":-71.07358739800073,"lat":48.39101857376674,"elevation":[]}]},{"startTime":1522685095000,"endTime":1522685400000,"departureDelay":0,"arrivalDelay":0,"realTime":false,"distance":2035.6786123135798,"pathway":false,"mode":"BUS","route":"175","agencyName":"Société de Transport du Saguenay","agencyUrl":"http://ville.saguenay.ca/fr/services-aux-citoyens/transport-sts","agencyTimeZoneOffset":-14400000,"routeColor":"FF00FF","routeType":3,"routeId":"1:175","routeTextColor":"FFFFFF","interlineWithPreviousLeg":false,"tripBlockId":"81","headsign":"Terminus Chicoutimi","agencyId":"0","tripId":"1:218659","serviceDate":"20180402","from":{"name":"boul. Talbot / Soeurs","stopId":"1:38","stopCode":"38","lon":-71.073496,"lat":48.390935,"arrival":1522685094000,"departure":1522685095000,"zoneId":"NA","stopIndex":6,"stopSequence":7,"vertexType":"TRANSIT"},"to":{"name":"Place Royaume","stopId":"1:1801","stopCode":"1801","lon":-71.057017,"lat":48.405588,"arrival":1522685400000,"departure":1522685401000,"zoneId":"NA","stopIndex":10,"stopSequence":11,"vertexType":"TRANSIT"},"legGeometry":{"points":"sjjfH`qxpLaO_QkEsEiAoAgEsFkFsHqJ_N}FkImPkOuO{N","length":10},"routeShortName":"175","routeLongName":"Term. Chic / Costco","rentedBike":false,"transitLeg":true,"duration":305.0,"steps":[]},{"startTime":1522685401000,"endTime":1522686157000,"departureDelay":0,"arrivalDelay":0,"realTime":false,"distance":950.2280000000002,"pathway":false,"mode":"WALK","route":"","agencyTimeZoneOffset":-14400000,"interlineWithPreviousLeg":false,"from":{"name":"Place Royaume","stopId":"1:1801","stopCode":"1801","lon":-71.057017,"lat":48.405588,"arrival":1522685400000,"departure":1522685401000,"zoneId":"NA","stopIndex":10,"stopSequence":11,"vertexType":"TRANSIT"},"to":{"name":"Destination","lon":-71.060097,"lat":48.411201,"arrival":1522686157000,"orig":"","vertexType":"NORMAL"},"legGeometry":{"points":"memfHriupL`@{A[Yo@|BEJIZKIqD}CaA_Aw@jC]UCAi@[gAe@u@a@]]O`@M\\e@`AmCbHa@|@?@o@|Aa@`@wC^DpBOn@S`@","length":28},"rentedBike":false,"transitLeg":false,"duration":756.0,"steps":[{"distance":56.66,"relativeDirection":"DEPART","streetName":"parking aisle","absoluteDirection":"SOUTHEAST","stayOn":false,"area":false,"bogusName":true,"lon":-71.0570537,"lat":48.405519700000006,"elevation":[]},{"distance":71.053,"relativeDirection":"LEFT","streetName":"service road","absoluteDirection":"NORTHWEST","stayOn":true,"area":false,"bogusName":true,"lon":-71.0564657,"lat":48.405483000000004,"elevation":[]},{"distance":166.422,"relativeDirection":"RIGHT","streetName":"Boulevard Talbot","absoluteDirection":"NORTHEAST","stayOn":false,"area":false,"bogusName":false,"lon":-71.05729810000001,"lat":48.4058038,"elevation":[]},{"distance":200.471,"relativeDirection":"LEFT","streetName":"parking aisle","absoluteDirection":"NORTHWEST","stayOn":false,"area":false,"bogusName":true,"lon":-71.0561383,"lat":48.40708720000001,"elevation":[]},{"distance":377.195,"relativeDirection":"LEFT","streetName":"Rue des Champs-Élysées","absoluteDirection":"NORTHWEST","stayOn":false,"area":false,"bogusName":false,"lon":-71.0560683,"lat":48.4085206,"elevation":[]},{"distance":78.427,"relativeDirection":"LEFT","streetName":"Rue de Longchamp","absoluteDirection":"WEST","stayOn":false,"area":false,"bogusName":false,"lon":-71.05929110000001,"lat":48.4109186,"elevation":[]}]}],"tooSloped":false},{"duration":1066,"startTime":1522685991000,"endTime":1522687057000,"walkTime":759,"transitTime":305,"waitingTime":2,"walkDistance":953.8934887138835,"walkLimitExceeded":false,"elevationLost":0.0,"elevationGained":0.0,"transfers":0,"legs":[{"startTime":1522685991000,"endTime":1522685994000,"departureDelay":0,"arrivalDelay":0,"realTime":false,"distance":3.42,"pathway":false,"mode":"WALK","route":"","agencyTimeZoneOffset":-14400000,"interlineWithPreviousLeg":false,"from":{"name":"Origin","lon":-71.073186,"lat":48.39082,"departure":1522685991000,"orig":"","vertexType":"NORMAL"},"to":{"name":"boul. Talbot / Soeurs","stopId":"1:38","stopCode":"38","lon":-71.073496,"lat":48.390935,"arrival":1522685994000,"departure":1522685995000,"zoneId":"NA","stopIndex":6,"stopSequence":7,"vertexType":"TRANSIT"},"legGeometry":{"points":"yjjfH|pxpLBD","length":2},"rentedBike":false,"transitLeg":false,"duration":3.0,"steps":[{"distance":3.42,"relativeDirection":"DEPART","streetName":"Boulevard Talbot","absoluteDirection":"SOUTHWEST","stayOn":false,"area":false,"bogusName":false,"lon":-71.07358739800073,"lat":48.39101857376674,"elevation":[]}]},{"startTime":1522685995000,"endTime":1522686300000,"departureDelay":0,"arrivalDelay":0,"realTime":false,"distance":2035.6786123135798,"pathway":false,"mode":"BUS","route":"175","agencyName":"Société de Transport du Saguenay","agencyUrl":"http://ville.saguenay.ca/fr/services-aux-citoyens/transport-sts","agencyTimeZoneOffset":-14400000,"routeColor":"FF00FF","routeType":3,"routeId":"1:175","routeTextColor":"FFFFFF","interlineWithPreviousLeg":false,"tripBlockId":"11","headsign":"Terminus Chicoutimi","agencyId":"0","tripId":"1:217473","serviceDate":"20180402","from":{"name":"boul. Talbot / Soeurs","stopId":"1:38","stopCode":"38","lon":-71.073496,"lat":48.390935,"arrival":1522685994000,"departure":1522685995000,"zoneId":"NA","stopIndex":6,"stopSequence":7,"vertexType":"TRANSIT"},"to":{"name":"Place Royaume","stopId":"1:1801","stopCode":"1801","lon":-71.057017,"lat":48.405588,"arrival":1522686300000,"departure":1522686301000,"zoneId":"NA","stopIndex":10,"stopSequence":11,"vertexType":"TRANSIT"},"legGeometry":{"points":"sjjfH`qxpLaO_QkEsEiAoAgEsFkFsHqJ_N}FkImPkOuO{N","length":10},"routeShortName":"175","routeLongName":"Term. Chic / Costco","rentedBike":false,"transitLeg":true,"duration":305.0,"steps":[]},{"startTime":1522686301000,"endTime":1522687057000,"departureDelay":0,"arrivalDelay":0,"realTime":false,"distance":950.2280000000002,"pathway":false,"mode":"WALK","route":"","agencyTimeZoneOffset":-14400000,"interlineWithPreviousLeg":false,"from":{"name":"Place Royaume","stopId":"1:1801","stopCode":"1801","lon":-71.057017,"lat":48.405588,"arrival":1522686300000,"departure":1522686301000,"zoneId":"NA","stopIndex":10,"stopSequence":11,"vertexType":"TRANSIT"},"to":{"name":"Destination","lon":-71.060097,"lat":48.411201,"arrival":1522687057000,"orig":"","vertexType":"NORMAL"},"legGeometry":{"points":"memfHriupL`@{A[Yo@|BEJIZKIqD}CaA_Aw@jC]UCAi@[gAe@u@a@]]O`@M\\e@`AmCbHa@|@?@o@|Aa@`@wC^DpBOn@S`@","length":28},"rentedBike":false,"transitLeg":false,"duration":756.0,"steps":[{"distance":56.66,"relativeDirection":"DEPART","streetName":"parking aisle","absoluteDirection":"SOUTHEAST","stayOn":false,"area":false,"bogusName":true,"lon":-71.0570537,"lat":48.405519700000006,"elevation":[]},{"distance":71.053,"relativeDirection":"LEFT","streetName":"service road","absoluteDirection":"NORTHWEST","stayOn":true,"area":false,"bogusName":true,"lon":-71.0564657,"lat":48.405483000000004,"elevation":[]},{"distance":166.422,"relativeDirection":"RIGHT","streetName":"Boulevard Talbot","absoluteDirection":"NORTHEAST","stayOn":false,"area":false,"bogusName":false,"lon":-71.05729810000001,"lat":48.4058038,"elevation":[]},{"distance":200.471,"relativeDirection":"LEFT","streetName":"parking aisle","absoluteDirection":"NORTHWEST","stayOn":false,"area":false,"bogusName":true,"lon":-71.0561383,"lat":48.40708720000001,"elevation":[]},{"distance":377.195,"relativeDirection":"LEFT","streetName":"Rue des Champs-Élysées","absoluteDirection":"NORTHWEST","stayOn":false,"area":false,"bogusName":false,"lon":-71.0560683,"lat":48.4085206,"elevation":[]},{"distance":78.427,"relativeDirection":"LEFT","streetName":"Rue de Longchamp","absoluteDirection":"WEST","stayOn":false,"area":false,"bogusName":false,"lon":-71.05929110000001,"lat":48.4109186,"elevation":[]}]}],"tooSloped":false},{"duration":1066,"startTime":1522686891000,"endTime":1522687957000,"walkTime":759,"transitTime":305,"waitingTime":2,"walkDistance":953.8934887138835,"walkLimitExceeded":false,"elevationLost":0.0,"elevationGained":0.0,"transfers":0,"legs":[{"startTime":1522686891000,"endTime":1522686894000,"departureDelay":0,"arrivalDelay":0,"realTime":false,"distance":3.42,"pathway":false,"mode":"WALK","route":"","agencyTimeZoneOffset":-14400000,"interlineWithPreviousLeg":false,"from":{"name":"Origin","lon":-71.073186,"lat":48.39082,"departure":1522686891000,"orig":"","vertexType":"NORMAL"},"to":{"name":"boul. Talbot / Soeurs","stopId":"1:38","stopCode":"38","lon":-71.073496,"lat":48.390935,"arrival":1522686894000,"departure":1522686895000,"zoneId":"NA","stopIndex":6,"stopSequence":7,"vertexType":"TRANSIT"},"legGeometry":{"points":"yjjfH|pxpLBD","length":2},"rentedBike":false,"transitLeg":false,"duration":3.0,"steps":[{"distance":3.42,"relativeDirection":"DEPART","streetName":"Boulevard Talbot","absoluteDirection":"SOUTHWEST","stayOn":false,"area":false,"bogusName":false,"lon":-71.07358739800073,"lat":48.39101857376674,"elevation":[]}]},{"startTime":1522686895000,"endTime":1522687200000,"departureDelay":0,"arrivalDelay":0,"realTime":false,"distance":2035.6786123135798,"pathway":false,"mode":"BUS","route":"175","agencyName":"Société de Transport du Saguenay","agencyUrl":"http://ville.saguenay.ca/fr/services-aux-citoyens/transport-sts","agencyTimeZoneOffset":-14400000,"routeColor":"FF00FF","routeType":3,"routeId":"1:175","routeTextColor":"FFFFFF","interlineWithPreviousLeg":false,"tripBlockId":"78","headsign":"Terminus Chicoutimi","agencyId":"0","tripId":"1:218644","serviceDate":"20180402","from":{"name":"boul. Talbot / Soeurs","stopId":"1:38","stopCode":"38","lon":-71.073496,"lat":48.390935,"arrival":1522686894000,"departure":1522686895000,"zoneId":"NA","stopIndex":6,"stopSequence":7,"vertexType":"TRANSIT"},"to":{"name":"Place Royaume","stopId":"1:1801","stopCode":"1801","lon":-71.057017,"lat":48.405588,"arrival":1522687200000,"departure":1522687201000,"zoneId":"NA","stopIndex":10,"stopSequence":11,"vertexType":"TRANSIT"},"legGeometry":{"points":"sjjfH`qxpLaO_QkEsEiAoAgEsFkFsHqJ_N}FkImPkOuO{N","length":10},"routeShortName":"175","routeLongName":"Term. Chic / Costco","rentedBike":false,"transitLeg":true,"duration":305.0,"steps":[]},{"startTime":1522687201000,"endTime":1522687957000,"departureDelay":0,"arrivalDelay":0,"realTime":false,"distance":950.2280000000002,"pathway":false,"mode":"WALK","route":"","agencyTimeZoneOffset":-14400000,"interlineWithPreviousLeg":false,"from":{"name":"Place Royaume","stopId":"1:1801","stopCode":"1801","lon":-71.057017,"lat":48.405588,"arrival":1522687200000,"departure":1522687201000,"zoneId":"NA","stopIndex":10,"stopSequence":11,"vertexType":"TRANSIT"},"to":{"name":"Destination","lon":-71.060097,"lat":48.411201,"arrival":1522687957000,"orig":"","vertexType":"NORMAL"},"legGeometry":{"points":"memfHriupL`@{A[Yo@|BEJIZKIqD}CaA_Aw@jC]UCAi@[gAe@u@a@]]O`@M\\e@`AmCbHa@|@?@o@|Aa@`@wC^DpBOn@S`@","length":28},"rentedBike":false,"transitLeg":false,"duration":756.0,"steps":[{"distance":56.66,"relativeDirection":"DEPART","streetName":"parking aisle","absoluteDirection":"SOUTHEAST","stayOn":false,"area":false,"bogusName":true,"lon":-71.0570537,"lat":48.405519700000006,"elevation":[]},{"distance":71.053,"relativeDirection":"LEFT","streetName":"service road","absoluteDirection":"NORTHWEST","stayOn":true,"area":false,"bogusName":true,"lon":-71.0564657,"lat":48.405483000000004,"elevation":[]},{"distance":166.422,"relativeDirection":"RIGHT","streetName":"Boulevard Talbot","absoluteDirection":"NORTHEAST","stayOn":false,"area":false,"bogusName":false,"lon":-71.05729810000001,"lat":48.4058038,"elevation":[]},{"distance":200.471,"relativeDirection":"LEFT","streetName":"parking aisle","absoluteDirection":"NORTHWEST","stayOn":false,"area":false,"bogusName":true,"lon":-71.0561383,"lat":48.40708720000001,"elevation":[]},{"distance":377.195,"relativeDirection":"LEFT","streetName":"Rue des Champs-Élysées","absoluteDirection":"NORTHWEST","stayOn":false,"area":false,"bogusName":false,"lon":-71.0560683,"lat":48.4085206,"elevation":[]},{"distance":78.427,"relativeDirection":"LEFT","streetName":"Rue de Longchamp","absoluteDirection":"WEST","stayOn":false,"area":false,"bogusName":false,"lon":-71.05929110000001,"lat":48.4109186,"elevation":[]}]}],"tooSloped":false}]},"debugOutput":{"precalculationTime":31,"pathCalculationTime":18,"pathTimes":[11,3,4],"renderingTime":1,"totalTime":50,"timedOut":false},"elevationMetadata":{"ellipsoidToGeoidDifference":-28.885904201182168,"geoidElevation":false}}