{"requestParameters":{"date":"2018/04/02","walkSpeed":"1.33","walkReluctance":"2.0","fromPlace":"48.394842,-71.069822","maxWalkDistance":"3000","waitReluctance":"1.0","carSpeed":"33","numItineraries":"3","waitAtBeginningFactor":"0.4","mode":"TRANSIT,WALK","ignoreRealtimeUpdates":"false","stairsReluctance":"2.0","toPlace":"48.39082,-71.073186","time":"11:30:00"},"plan":{"date":1522683000000,"from":{"name":"Origin","lon":-71.069822,"lat":48.394842,"orig":"","vertexType":"NORMAL"},"to":{"name":"Destination","lon":-71.073186,"lat":48.39082,"orig":"","vertexType":"NORMAL"},"itineraries":[{"duration":403,"startTime":1522683000000,"endTime":1522683403000,"walkTime":403,"transitTime":0,"waitingTime":0,"walkDistance":523.6009172910739,"walkLimitExceeded":false,"elevationLost":0.0,"elevationGained":0.0,"transfers":0,"legs":[{"startTime":1522683000000,"endTime":1522683403000,"departureDelay":0,"arrivalDelay":0,"realTime":false,"distance":523.534,"pathway":false,"mode":"WALK","route":"","agencyTimeZoneOffset":-14400000,"interlineWithPreviousLeg":false,"from":{"name":"Origin","lon":-71.069822,"lat":48.394842,"departure":1522683000000,"orig":"","vertexType":"NORMAL"},"to":{"name":"Destination","lon":-71.073186,"lat":48.39082,"arrival":1522683403000,"orig":"","vertexType":"NORMAL"},"legGeometry":{"points":"gbkfHlxwpLdCvCNPNNPc@JLrEjFlAxAfGdH","length":9},"rentedBike":false,"transitLeg":false,"duration":403.0,"steps":[{"distance":523.534,"relativeDirection":"DEPART","streetName":"Boulevard Talbot","absoluteDirection":"SOUTHWEST","stayOn":false,"area":false,"bogusName":false,"lon":-71.0696629939185,"lat":48.394762527211206,"elevation":[]}]}],"tooSloped":false},{"duration":203,"startTime":1522683328000,"endTime":1522683531000,"walkTime":113,"transitTime":88,"waitingTime":2,"walkDistance":137.01229323091135,"walkLimitExceeded":false,"elevationLost":0.0,"elevationGained":0.0,"transfers":0,"legs":[{"startTime":1522683328000,"endTime":1522683359000,"departureDelay":0,"arrivalDelay":0,"realTime":false,"distance":40.37,"pathway":false,"mode":"WALK","route":"","agencyTimeZoneOffset":-14400000,"interlineWithPreviousLeg":false,"from":{"name":"Origin","lon":-71.069822,"lat":48.394842,"departure":1522683328000,"orig":"","vertexType":"NORMAL"},"to":{"name":"boul. Talbot (no. 1870)","stopId":"1:1556","stopCode":"1556","lon":-71.069429,"lat":48.3951,"arrival":1522683359000,"departure":1522683360000,"zoneId":"NA","stopIndex":24,"stopSequence":25,"vertexType":"TRANSIT"},"legGeometry":{"points":"gbkfHlxwpLy@aA","length":2},"rentedBike":false,"transitLeg":false,"duration":31.0,"steps":[{"distance":40.37,"relativeDirection":"DEPART","streetName":"Boulevard Talbot","absoluteDirection":"NORTHEAST","stayOn":false,"area":false,"bogusName":false,"lon":-71.0696629939185,"lat":48.394762527211206,"elevation":[]}]},{"startTime":1522683360000,"endTime":1522683448000,"departureDelay":0,"arrivalDelay":0,"realTime":false,"distance":566.2888708661153,"pathway":false,"mode":"BUS","route":"175","agencyName":"Société de Transport du Saguenay","agencyUrl":"http://ville.saguenay.ca/fr/services-aux-citoyens/transport-sts","agencyTimeZoneOffset":-14400000,"routeColor":"FF00FF","routeType":3,"routeId":"1:175","routeTextColor":"FFFFFF","interlineWithPreviousLeg":false,"tripBlockId":"6","headsign":"Costco","agencyId":"0","tripId":"1:217294","serviceDate":"20180402","from":{"name":"boul. Talbot (no. 1870)","stopId":"1:1556","stopCode":"1556","lon":-71.069429,"lat":48.3951,"arrival":1522683359000,"departure":1522683360000,"zoneId":"NA","stopIndex":24,"stopSequence":25,"vertexType":"TRANSIT"},"to":{"name":"boul. Talbot / Soeurs (Canac Marquis)","stopId":"1:71","stopCode":"71","lon":-71.074009,"lat":48.391015,"arrival":1522683448000,"departure":1522683449000,"zoneId":"NA","stopIndex":25,"stopSequence":26,"vertexType":"TRANSIT"},"legGeometry":{"points":"_dkfHhvwpLlXv[","length":2},"routeShortName":"175","routeLongName":"Term. Chic / Costco","rentedBike":false,"transitLeg":true,"duration":88.0,"steps":[]},{"startTime":1522683449000,"endTime":1522683531000,"departureDelay":0,"arrivalDelay":0,"realTime":false,"distance":96.575,"pathway":false,"mode":"WALK","route":"","agencyTimeZoneOffset":-14400000,"interlineWithPreviousLeg":false,"from":{"name":"boul. Talbot / Soeurs (Canac Marquis)","stopId":"1:71","stopCode":"71","lon":-71.074009,"lat":48.391015,"arrival":1522683448000,"departure":1522683449000,"zoneId":"NA","stopIndex":25,"stopSequence":26,"vertexType":"TRANSIT"},"to":{"name":"Destination","lon":-71.073186,"lat":48.39082,"arrival":1522683531000,"orig":"","vertexType":"NORMAL"},"legGeometry":{"points":"ojjfHzrxpLl@r@N_@cAkACE","length":5},"rentedBike":false,"transitLeg":false,"duration":82.0,"steps":[{"distance":31.82,"relativeDirection":"DEPART","streetName":"Boulevard Talbot","absoluteDirection":"SOUTHWEST","stayOn":false,"area":false,"bogusName":false,"lon":-71.07389765515089,"lat":48.39096061304423,"elevation":[]},{"distance":64.755,"relativeDirection":"UTURN_LEFT","streetName":"Boulevard Talbot","absoluteDirection":"NORTHEAST","stayOn":true,"area":false,"bogusName":false,"lon":-71.0739954,"lat":48.3906549,"elevation":[]}]}],"tooSloped":false},{"duration":203,"startTime":1522685128000,"endTime":1522685331000,"walkTime":113,"transitTime":88,"waitingTime":2,"walkDistance":137.01229323091135,"walkLimitExceeded":false,"elevationLost":0.0,"elevationGained":0.0,"transfers":0,"legs":[{"startTime":1522685128000,"endTime":1522685159000,"departureDelay":0,"arrivalDelay":0,"realTime":false,"distance":40.37,"pathway":false,"mode":"WALK","route":"","agencyTimeZoneOffset":-14400000,"interlineWithPreviousLeg":false,"from":{"name":"Origin","lon":-71.069822,"lat":48.394842,"departure":1522685128000,"orig":"","vertexType":"NORMAL"},"to":{"name":"boul. Talbot (no. 1870)","stopId":"1:1556","stopCode":"1556","lon":-71.069429,"lat":48.3951,"arrival":1522685159000,"departure":1522685160000,"zoneId":"NA","stopIndex":24,"stopSequence":25,"vertexType":"TRANSIT"},"legGeometry":{"points":"gbkfHlxwpLy@aA","length":2},"rentedBike":false,"transitLeg":false,"duration":31.0,"steps":[{"distance":40.37,"relativeDirection":"DEPART","streetName":"Boulevard Talbot","absoluteDirection":"NORTHEAST","stayOn":false,"area":false,"bogusName":false,"lon":-71.0696629939185,"lat":48.394762527211206,"elevation":[]}]},{"startTime":1522685160000,"endTime":1522685248000,"departureDelay":0,"arrivalDelay":0,"realTime":false,"distance":566.2888708661153,"pathway":false,"mode":"BUS","route":"175","agencyName":"Société de Transport du Saguenay","agencyUrl":"http://ville.saguenay.ca/fr/services-aux-citoyens/transport-sts","agencyTimeZoneOffset":-14400000,"routeColor":"FF00FF","routeType":3,"routeId":"1:175","routeTextColor":"FFFFFF","interlineWithPreviousLeg":false,"tripBlockId":"7","headsign":"Costco","agencyId":"0","tripId":"1:217331","serviceDate":"20180402","from":{"name":"boul. Talbot (no. 1870)","stopId":"1:1556","stopCode":"1556","lon":-71.069429,"lat":48.3951,"arrival":1522685159000,"departure":1522685160000,"zoneId":"NA","stopIndex":24,"stopSequence":25,"vertexType":"TRANSIT"},"to":{"name":"boul. Talbot / Soeurs (Canac Marquis)","stopId":"1:71","stopCode":"71","lon":-71.074009,"lat":48.391015,"arrival":1522685248000,"departure":1522685249000,"zoneId":"NA","stopIndex":25,"stopSequence":26,"vertexType":"TRANSIT"},"legGeometry":{"points":"_dkfHhvwpLlXv[","length":2},"routeShortName":"175","routeLongName":"Term. Chic / Costco","rentedBike":false,"transitLeg":true,"duration":88.0,"steps":[]},{"startTime":1522685249000,"endTime":1522685331000,"departureDelay":0,"arrivalDelay":0,"realTime":false,"distance":96.575,"pathway":false,"mode":"WALK","route":"","agencyTimeZoneOffset":-14400000,"interlineWithPreviousLeg":false,"from":{"name":"boul. Talbot / Soeurs (Canac Marquis)","stopId":"1:71","stopCode":"71","lon":-71.074009,"lat":48.391015,"arrival":1522685248000,"departure":1522685249000,"zoneId":"NA","stopIndex":25,"stopSequence":26,"vertexType":"TRANSIT"},"to":{"name":"Destination","lon":-71.073186,"lat":48.39082,"arrival":1522685331000,"orig":"","vertexType":"NORMAL"},"legGeometry":{"points":"ojjfHzrxpLl@r@N_@cAkACE","length":5},"rentedBike":false,"transitLeg":false,"duration":82.0,"steps":[{"distance":31.82,"relativeDirection":"DEPART","streetName":"Boulevard Talbot","absoluteDirection":"SOUTHWEST","stayOn":false,"area":false,"bogusName":false,"lon":-71.07389765515089,"lat":48.39096061304423,"elevation":[]},{"distance":64.755,"relativeDirection":"UTURN_LEFT","streetName":"Boulevard Talbot","absoluteDirection":"NORTHEAST","stayOn":true,"area":false,"bogusName":false,"lon":-71.0739954,"lat":48.3906549,"elevation":[]}]}],"tooSloped":false}]},"debugOutput":{"precalculationTime":22,"pathCalculationTime":14,"pathTimes":[3,6,5],"renderingTime":0,"totalTime":36,"timedOut":false},"elevationMetadata":{"ellipsoidToGeoidDifference":-28.885904201182168,"geoidElevation":false}}