{"requestParameters":{"date":"2018/04/02","walkSpeed":"1.33","walkReluctance":"2.0","fromPlace":"48.407764,-71.05336099","maxWalkDistance":"3000","waitReluctance":"1.0","carSpeed":"33","numItineraries":"3","waitAtBeginningFactor":"0.4","mode":"TRANSIT,WALK","ignoreRealtimeUpdates":"false","stairsReluctance":"2.0","toPlace":"48.413404,-71.062324","time":"16:0:00"},"plan":{"date":1522699200000,"from":{"name":"Origin","lon":-71.05336099,"lat":48.407764,"orig":"","vertexType":"NORMAL"},"to":{"name":"Destination","lon":-71.062324,"lat":48.413404,"orig":"","vertexType":"NORMAL"},"itineraries":[{"duration":768,"startTime":1522699200000,"endTime":1522699968000,"walkTime":768,"transitTime":0,"waitingTime":0,"walkDistance":993.0222857122114,"walkLimitExceeded":false,"elevationLost":0.0,"elevationGained":0.0,"transfers":0,"legs":[{"startTime":1522699200000,"endTime":1522699968000,"departureDelay":0,"arrivalDelay":0,"realTime":false,"distance":992.9580000000001,"pathway":false,"mode":"WALK","route":"","agencyTimeZoneOffset":-14400000,"interlineWithPreviousLeg":false,"from":{"name":"Origin","lon":-71.05336099,"lat":48.407764,"departure":1522699200000,"orig":"","vertexType":"NORMAL"},"to":{"name":"Destination","lon":-71.062324,"lat":48.413404,"arrival":1522699968000,"orig":"","vertexType":"NORMAL"},"legGeometry":{"points":"iqmfHpttpLOd@s@pBk@~AIRO`@GPm@|A]|@O`@M\\e@`AmCbHa@|@?@o@|Aa@`@wC^DpBOn@[n@YNm@FeEh@a@\\]~@oBxF","length":27},"rentedBike":false,"transitLeg":false,"duration":768.0,"steps":[{"distance":592.216,"relativeDirection":"DEPART","streetName":"Rue des Champs-Élysées","absoluteDirection":"NORTHWEST","stayOn":false,"area":false,"bogusName":false,"lon":-71.05368099215146,"lat":48.40741320776311,"elevation":[]},{"distance":400.742,"relativeDirection":"LEFT","streetName":"Rue de Longchamp","absoluteDirection":"WEST","stayOn":false,"area":false,"bogusName":false,"lon":-71.05929110000001,"lat":48.4109186,"elevation":[]}]}],"tooSloped":false},{"duration":493,"startTime":1522699556000,"endTime":1522700049000,"walkTime":408,"transitTime":83,"waitingTime":2,"walkDistance":523.4760150341732,"walkLimitExceeded":false,"elevationLost":0.0,"elevationGained":0.0,"transfers":0,"legs":[{"startTime":1522699556000,"endTime":1522699619000,"departureDelay":0,"arrivalDelay":0,"realTime":false,"distance":81.135,"pathway":false,"mode":"WALK","route":"","agencyTimeZoneOffset":-14400000,"interlineWithPreviousLeg":false,"from":{"name":"Origin","lon":-71.05336099,"lat":48.407764,"departure":1522699556000,"orig":"","vertexType":"NORMAL"},"to":{"name":"Place du Royaume (Champs-Élysées)","stopId":"1:193","stopCode":"193","lon":-71.052659,"lat":48.407065,"arrival":1522699619000,"departure":1522699620000,"zoneId":"NA","stopIndex":28,"stopSequence":29,"vertexType":"TRANSIT"},"legGeometry":{"points":"iqmfHpttpLp@yBNc@PU","length":4},"rentedBike":false,"transitLeg":false,"duration":63.0,"steps":[{"distance":81.135,"relativeDirection":"DEPART","streetName":"Rue des Champs-Élysées","absoluteDirection":"SOUTHEAST","stayOn":false,"area":false,"bogusName":false,"lon":-71.05368099215146,"lat":48.40741320776311,"elevation":[]}]},{"startTime":1522699620000,"endTime":1522699703000,"departureDelay":0,"arrivalDelay":0,"realTime":false,"distance":700.218224476123,"pathway":false,"mode":"BUS","route":"12","agencyName":"Société de Transport du Saguenay","agencyUrl":"http://ville.saguenay.ca/fr/services-aux-citoyens/transport-sts","agencyTimeZoneOffset":-14400000,"routeColor":"556B2F","routeType":3,"routeId":"1:12","routeTextColor":"FFFFFF","interlineWithPreviousLeg":false,"tripBlockId":"27","headsign":"Terminus UQAC","agencyId":"0","tripId":"1:218018","serviceDate":"20180402","from":{"name":"Place du Royaume (Champs-Élysées)","stopId":"1:193","stopCode":"193","lon":-71.052659,"lat":48.407065,"arrival":1522699619000,"departure":1522699620000,"zoneId":"NA","stopIndex":28,"stopSequence":29,"vertexType":"TRANSIT"},"to":{"name":"Champs-Élysées / Longchamp","stopId":"1:585","stopCode":"585","lon":-71.05927,"lat":48.411297,"arrival":1522699703000,"departure":1522699704000,"zoneId":"NA","stopIndex":30,"stopSequence":31,"vertexType":"TRANSIT"},"legGeometry":{"points":"comfHbntpLcP~b@iHhD","length":3},"routeShortName":"12","routeLongName":"Rivière du Moulin","rentedBike":false,"transitLeg":true,"duration":83.0,"steps":[]},{"startTime":1522699704000,"endTime":1522700049000,"departureDelay":0,"arrivalDelay":0,"realTime":false,"distance":442.235,"pathway":false,"mode":"WALK","route":"","agencyTimeZoneOffset":-14400000,"interlineWithPreviousLeg":false,"from":{"name":"Champs-Élysées / Longchamp","stopId":"1:585","stopCode":"585","lon":-71.05927,"lat":48.411297,"arrival":1522699703000,"departure":1522699704000,"zoneId":"NA","stopIndex":30,"stopSequence":31,"vertexType":"TRANSIT"},"to":{"name":"Destination","lon":-71.062324,"lat":48.413404,"arrival":1522700049000,"orig":"","vertexType":"NORMAL"},"legGeometry":{"points":"oinfH`xupLhAMDpBOn@[n@YNm@FeEh@a@\\]~@oBxF","length":11},"rentedBike":false,"transitLeg":false,"duration":345.0,"steps":[{"distance":41.493,"relativeDirection":"DEPART","streetName":"Rue des Champs-Élysées","absoluteDirection":"SOUTH","stayOn":false,"area":false,"bogusName":false,"lon":-71.05936604598011,"lat":48.4112884241138,"elevation":[]},{"distance":400.742,"relativeDirection":"RIGHT","streetName":"Rue de Longchamp","absoluteDirection":"WEST","stayOn":false,"area":false,"bogusName":false,"lon":-71.05929110000001,"lat":48.4109186,"elevation":[]}]}],"tooSloped":false},{"duration":493,"startTime":1522701356000,"endTime":1522701849000,"walkTime":408,"transitTime":83,"waitingTime":2,"walkDistance":523.4760150341732,"walkLimitExceeded":false,"elevationLost":0.0,"elevationGained":0.0,"transfers":0,"legs":[{"startTime":1522701356000,"endTime":1522701419000,"departureDelay":0,"arrivalDelay":0,"realTime":false,"distance":81.135,"pathway":false,"mode":"WALK","route":"","agencyTimeZoneOffset":-14400000,"interlineWithPreviousLeg":false,"from":{"name":"Origin","lon":-71.05336099,"lat":48.407764,"departure":1522701356000,"orig":"","vertexType":"NORMAL"},"to":{"name":"Place du Royaume (Champs-Élysées)","stopId":"1:193","stopCode":"193","lon":-71.052659,"lat":48.407065,"arrival":1522701419000,"departure":1522701420000,"zoneId":"NA","stopIndex":28,"stopSequence":29,"vertexType":"TRANSIT"},"legGeometry":{"points":"iqmfHpttpLp@yBNc@PU","length":4},"rentedBike":false,"transitLeg":false,"duration":63.0,"steps":[{"distance":81.135,"relativeDirection":"DEPART","streetName":"Rue des Champs-Élysées","absoluteDirection":"SOUTHEAST","stayOn":false,"area":false,"bogusName":false,"lon":-71.05368099215146,"lat":48.40741320776311,"elevation":[]}]},{"startTime":1522701420000,"endTime":1522701503000,"departureDelay":0,"arrivalDelay":0,"realTime":false,"distance":700.218224476123,"pathway":false,"mode":"BUS","route":"12","agencyName":"Société de Transport du Saguenay","agencyUrl":"http://ville.saguenay.ca/fr/services-aux-citoyens/transport-sts","agencyTimeZoneOffset":-14400000,"routeColor":"556B2F","routeType":3,"routeId":"1:12","routeTextColor":"FFFFFF","interlineWithPreviousLeg":false,"tripBlockId":"28","headsign":"Terminus UQAC","agencyId":"0","tripId":"1:218045","serviceDate":"20180402","from":{"name":"Place du Royaume (Champs-Élysées)","stopId":"1:193","stopCode":"193","lon":-71.052659,"lat":48.407065,"arrival":1522701419000,"departure":1522701420000,"zoneId":"NA","stopIndex":28,"stopSequence":29,"vertexType":"TRANSIT"},"to":{"name":"Champs-Élysées / Longchamp","stopId":"1:585","stopCode":"585","lon":-71.05927,"lat":48.411297,"arrival":1522701503000,"departure":1522701504000,"zoneId":"NA","stopIndex":30,"stopSequence":31,"vertexType":"TRANSIT"},"legGeometry":{"points":"comfHbntpLcP~b@iHhD","length":3},"routeShortName":"12","routeLongName":"Rivière du Moulin","rentedBike":false,"transitLeg":true,"duration":83.0,"steps":[]},{"startTime":1522701504000,"endTime":1522701849000,"departureDelay":0,"arrivalDelay":0,"realTime":false,"distance":442.235,"pathway":false,"mode":"WALK","route":"","agencyTimeZoneOffset":-14400000,"interlineWithPreviousLeg":false,"from":{"name":"Champs-Élysées / Longchamp","stopId":"1:585","stopCode":"585","lon":-71.05927,"lat":48.411297,"arrival":1522701503000,"departure":1522701504000,"zoneId":"NA","stopIndex":30,"stopSequence":31,"vertexType":"TRANSIT"},"to":{"name":"Destination","lon":-71.062324,"lat":48.413404,"arrival":1522701849000,"orig":"","vertexType":"NORMAL"},"legGeometry":{"points":"oinfH`xupLhAMDpBOn@[n@YNm@FeEh@a@\\]~@oBxF","length":11},"rentedBike":false,"transitLeg":false,"duration":345.0,"steps":[{"distance":41.493,"relativeDirection":"DEPART","streetName":"Rue des Champs-Élysées","absoluteDirection":"SOUTH","stayOn":false,"area":false,"bogusName":false,"lon":-71.05936604598011,"lat":48.4112884241138,"elevation":[]},{"distance":400.742,"relativeDirection":"RIGHT","streetName":"Rue de Longchamp","absoluteDirection":"WEST","stayOn":false,"area":false,"bogusName":false,"lon":-71.05929110000001,"lat":48.4109186,"elevation":[]}]}],"tooSloped":false}]},"debugOutput":{"precalculationTime":40,"pathCalculationTime":22,"pathTimes":[13,4,5],"renderingTime":0,"totalTime":62,"timedOut":false},"elevationMetadata":{"ellipsoidToGeoidDifference":-28.885904201182168,"geoidElevation":false}}