{"requestParameters":{"date":"2018/04/02","walkSpeed":"1.33","walkReluctance":"2.0","fromPlace":"48.393429,-71.052785","maxWalkDistance":"3000","waitReluctance":"1.0","carSpeed":"33","numItineraries":"3","waitAtBeginningFactor":"0.4","mode":"TRANSIT,WALK","ignoreRealtimeUpdates":"false","stairsReluctance":"2.0","toPlace":"48.41151,-71.057736","time":"16:40:00"},"plan":{"date":1522701600000,"from":{"name":"Origin","lon":-71.052785,"lat":48.393429,"orig":"","vertexType":"NORMAL"},"to":{"name":"Destination","lon":-71.057736,"lat":48.41151,"orig":"","vertexType":"NORMAL"},"itineraries":[{"duration":1324,"startTime":1522701780000,"endTime":1522703104000,"walkTime":972,"transitTime":350,"waitingTime":2,"walkDistance":1246.0439097675337,"walkLimitExceeded":false,"elevationLost":0.0,"elevationGained":0.0,"transfers":0,"legs":[{"startTime":1522701780000,"endTime":1522701834000,"departureDelay":0,"arrivalDelay":0,"realTime":false,"distance":64.247,"pathway":false,"mode":"WALK","route":"","agencyTimeZoneOffset":-14400000,"interlineWithPreviousLeg":false,"from":{"name":"Origin","lon":-71.052785,"lat":48.393429,"departure":1522701780000,"orig":"","vertexType":"NORMAL"},"to":{"name":"Roitelets / Faucons","stopId":"1:1545","stopCode":"1545","lon":-71.052988,"lat":48.392905,"arrival":1522701834000,"departure":1522701835000,"zoneId":"NA","stopIndex":4,"stopSequence":5,"vertexType":"TRANSIT"},"legGeometry":{"points":"}yjfHpptpL|ABJ?@M","length":4},"rentedBike":false,"transitLeg":false,"duration":54.0,"steps":[{"distance":51.815,"relativeDirection":"DEPART","streetName":"Rue des Hiboux","absoluteDirection":"SOUTH","stayOn":false,"area":false,"bogusName":false,"lon":-71.05304818906814,"lat":48.39343343682691,"elevation":[]},{"distance":6.628,"relativeDirection":"CONTINUE","streetName":"Rue des Faucons","absoluteDirection":"SOUTH","stayOn":false,"area":false,"bogusName":false,"lon":-71.053066,"lat":48.392967600000006,"elevation":[]},{"distance":5.804,"relativeDirection":"LEFT","streetName":"bike path","absoluteDirection":"EAST","stayOn":false,"area":false,"bogusName":true,"lon":-71.0530677,"lat":48.392908000000006,"elevation":[]}]},{"startTime":1522701835000,"endTime":1522702185000,"departureDelay":0,"arrivalDelay":0,"realTime":false,"distance":2208.519827807343,"pathway":false,"mode":"BUS","route":"15","agencyName":"Société de Transport du Saguenay","agencyUrl":"http://ville.saguenay.ca/fr/services-aux-citoyens/transport-sts","agencyTimeZoneOffset":-14400000,"routeColor":"FF00FF","routeType":3,"routeId":"1:15","routeTextColor":"FFFFFF","interlineWithPreviousLeg":false,"tripBlockId":"32","headsign":"Terminus Chicoutimi","agencyId":"0","tripId":"1:218167","serviceDate":"20180402","from":{"name":"Roitelets / Faucons","stopId":"1:1545","stopCode":"1545","lon":-71.052988,"lat":48.392905,"arrival":1522701834000,"departure":1522701835000,"zoneId":"NA","stopIndex":4,"stopSequence":5,"vertexType":"TRANSIT"},"to":{"name":"Saguenéens  / Bach","stopId":"1:575","stopCode":"575","lon":-71.061104,"lat":48.403689,"arrival":1522702185000,"departure":1522702186000,"zoneId":"NA","stopIndex":12,"stopSequence":13,"vertexType":"TRANSIT"},"legGeometry":{"points":"{vjfHdptpL@]Cu@GcAKu@Q_ASo@a@y@a@o@MOUUeCqBiDsDqE{EiAcAcB_AqBgA_AQaBSaBG_@Bu@FG?h@fNKnDpCfBkAzDgA}@y@q@sDy@GAeGT~@~KKrKyAnL[hBUxAm@nCcAlDeCvG","length":40},"routeShortName":"15","routeLongName":"Term. Chic / Costco","rentedBike":false,"transitLeg":true,"duration":350.0,"steps":[]},{"startTime":1522702186000,"endTime":1522703104000,"departureDelay":0,"arrivalDelay":0,"realTime":false,"distance":1181.583,"pathway":false,"mode":"WALK","route":"","agencyTimeZoneOffset":-14400000,"interlineWithPreviousLeg":false,"from":{"name":"Saguenéens  / Bach","stopId":"1:575","stopCode":"575","lon":-71.061104,"lat":48.403689,"arrival":1522702185000,"departure":1522702186000,"zoneId":"NA","stopIndex":12,"stopSequence":13,"vertexType":"TRANSIT"},"to":{"name":"Destination","lon":-71.057736,"lat":48.41151,"arrival":1522703104000,"orig":"","vertexType":"NORMAL"},"legGeometry":{"points":"wylfHfcvpLgAnC}EuEeE}Dw@q@wAoAgGsF][YWMKbAwCgBgBe@`AmCbH{AuA{@@gETa@@","length":18},"rentedBike":false,"transitLeg":false,"duration":918.0,"steps":[{"distance":66.956,"relativeDirection":"DEPART","streetName":"Rue des Saguenéens","absoluteDirection":"NORTHWEST","stayOn":false,"area":false,"bogusName":false,"lon":-71.0611521754673,"lat":48.403646208471976,"elevation":[]},{"distance":587.6930000000001,"relativeDirection":"RIGHT","streetName":"Rue Bach","absoluteDirection":"NORTHEAST","stayOn":false,"area":false,"bogusName":false,"lon":-71.06187870000001,"lat":48.404006700000004,"elevation":[]},{"distance":67.359,"relativeDirection":"RIGHT","streetName":"Rue Plamondon","absoluteDirection":"SOUTHEAST","stayOn":false,"area":false,"bogusName":false,"lon":-71.05766410000001,"lat":48.408490300000004,"elevation":[]},{"distance":69.905,"relativeDirection":"LEFT","streetName":"Rue Plamondon","absoluteDirection":"NORTHEAST","stayOn":true,"area":false,"bogusName":false,"lon":-71.05690750000001,"lat":48.408151600000004,"elevation":[]},{"distance":166.095,"relativeDirection":"LEFT","streetName":"Rue des Champs-Élysées","absoluteDirection":"NORTHWEST","stayOn":false,"area":false,"bogusName":false,"lon":-71.0563831,"lat":48.4086751,"elevation":[]},{"distance":205.04399999999998,"relativeDirection":"RIGHT","streetName":"Rue Chopin","absoluteDirection":"NORTHEAST","stayOn":false,"area":false,"bogusName":false,"lon":-71.0581732,"lat":48.4095789,"elevation":[]},{"distance":18.531,"relativeDirection":"CONTINUE","streetName":"path","absoluteDirection":"NORTH","stayOn":false,"area":false,"bogusName":false,"lon":-71.0578622,"lat":48.411338,"elevation":[]}]}],"tooSloped":false},{"duration":1720,"startTime":1522701761000,"endTime":1522703481000,"walkTime":1630,"transitTime":88,"waitingTime":2,"walkDistance":2105.734473676483,"walkLimitExceeded":false,"elevationLost":0.0,"elevationGained":0.0,"transfers":0,"legs":[{"startTime":1522701761000,"endTime":1522703191000,"departureDelay":0,"arrivalDelay":0,"realTime":false,"distance":1852.5320000000002,"pathway":false,"mode":"WALK","route":"","agencyTimeZoneOffset":-14400000,"interlineWithPreviousLeg":false,"from":{"name":"Origin","lon":-71.052785,"lat":48.393429,"departure":1522701761000,"orig":"","vertexType":"NORMAL"},"to":{"name":"Émile Girardin / Roitelets","stopId":"1:253","stopCode":"253","lon":-71.050677,"lat":48.406726,"arrival":1522703191000,"departure":1522703192000,"zoneId":"NA","stopIndex":27,"stopSequence":28,"vertexType":"TRANSIT"},"legGeometry":{"points":"}yjfHpptpL|ABIgDc@qBa@mAO[[q@U]qA}@eBaBsBsBwGaHqAiAq@c@c@UkCw@y@KwAIoA@s@FcALu@PQD{Af@yCtAk@VcDrAqCdA}Cz@C@_@JwErA}A\\cCj@OTMTM`@?fACb@AK","length":40},"rentedBike":false,"transitLeg":false,"duration":1430.0,"steps":[{"distance":51.815,"relativeDirection":"DEPART","streetName":"Rue des Hiboux","absoluteDirection":"SOUTH","stayOn":false,"area":false,"bogusName":false,"lon":-71.05304818906814,"lat":48.39343343682691,"elevation":[]},{"distance":1718.4170000000001,"relativeDirection":"LEFT","streetName":"Rue Des Roitelets","absoluteDirection":"EAST","stayOn":false,"area":false,"bogusName":false,"lon":-71.053066,"lat":48.392967600000006,"elevation":[]},{"distance":38.282,"relativeDirection":"SLIGHTLY_LEFT","streetName":"link","absoluteDirection":"NORTHWEST","stayOn":false,"area":false,"bogusName":true,"lon":-71.0497612,"lat":48.4064046,"elevation":[]},{"distance":44.018,"relativeDirection":"SLIGHTLY_LEFT","streetName":"Rue Émile-Girardin","absoluteDirection":"WEST","stayOn":false,"area":false,"bogusName":false,"lon":-71.0501581,"lat":48.406621400000006,"elevation":[]}]},{"startTime":1522703192000,"endTime":1522703280000,"departureDelay":0,"arrivalDelay":0,"realTime":false,"distance":673.7190513037447,"pathway":false,"mode":"BUS","route":"12","agencyName":"Société de Transport du Saguenay","agencyUrl":"http://ville.saguenay.ca/fr/services-aux-citoyens/transport-sts","agencyTimeZoneOffset":-14400000,"routeColor":"556B2F","routeType":3,"routeId":"1:12","routeTextColor":"FFFFFF","interlineWithPreviousLeg":false,"tripBlockId":"27","headsign":"Terminus UQAC","agencyId":"0","tripId":"1:218020","serviceDate":"20180402","from":{"name":"Émile Girardin / Roitelets","stopId":"1:253","stopCode":"253","lon":-71.050677,"lat":48.406726,"arrival":1522703191000,"departure":1522703192000,"zoneId":"NA","stopIndex":27,"stopSequence":28,"vertexType":"TRANSIT"},"to":{"name":"Champs-Élysées / Chopin","stopId":"1:584","stopCode":"584","lon":-71.058412,"lat":48.409805,"arrival":1522703280000,"departure":1522703281000,"zoneId":"NA","stopIndex":29,"stopSequence":30,"vertexType":"TRANSIT"},"legGeometry":{"points":"_mmfHvatpLcAjKcP~b@","length":3},"routeShortName":"12","routeLongName":"Rivière du Moulin","rentedBike":false,"transitLeg":true,"duration":88.0,"steps":[]},{"startTime":1522703281000,"endTime":1522703481000,"departureDelay":0,"arrivalDelay":0,"realTime":false,"distance":252.96300000000002,"pathway":false,"mode":"WALK","route":"","agencyTimeZoneOffset":-14400000,"interlineWithPreviousLeg":false,"from":{"name":"Champs-Élysées / Chopin","stopId":"1:584","stopCode":"584","lon":-71.058412,"lat":48.409805,"arrival":1522703280000,"departure":1522703281000,"zoneId":"NA","stopIndex":29,"stopSequence":30,"vertexType":"TRANSIT"},"to":{"name":"Destination","lon":-71.057736,"lat":48.41151,"arrival":1522703481000,"orig":"","vertexType":"NORMAL"},"legGeometry":{"points":"{_nfHprupL`@}@{AuA{@@gETa@@","length":6},"rentedBike":false,"transitLeg":false,"duration":200.0,"steps":[{"distance":29.388,"relativeDirection":"DEPART","streetName":"Rue des Champs-Élysées","absoluteDirection":"SOUTHEAST","stayOn":false,"area":false,"bogusName":false,"lon":-71.05848639303342,"lat":48.40974208921815,"elevation":[]},{"distance":205.04399999999998,"relativeDirection":"LEFT","streetName":"Rue Chopin","absoluteDirection":"NORTHEAST","stayOn":false,"area":false,"bogusName":false,"lon":-71.0581732,"lat":48.4095789,"elevation":[]},{"distance":18.531,"relativeDirection":"CONTINUE","streetName":"path","absoluteDirection":"NORTH","stayOn":false,"area":false,"bogusName":false,"lon":-71.0578622,"lat":48.411338,"elevation":[]}]}],"tooSloped":false},{"duration":1324,"startTime":1522703580000,"endTime":1522704904000,"walkTime":972,"transitTime":350,"waitingTime":2,"walkDistance":1246.0439097675337,"walkLimitExceeded":false,"elevationLost":0.0,"elevationGained":0.0,"transfers":0,"legs":[{"startTime":1522703580000,"endTime":1522703634000,"departureDelay":0,"arrivalDelay":0,"realTime":false,"distance":64.247,"pathway":false,"mode":"WALK","route":"","agencyTimeZoneOffset":-14400000,"interlineWithPreviousLeg":false,"from":{"name":"Origin","lon":-71.052785,"lat":48.393429,"departure":1522703580000,"orig":"","vertexType":"NORMAL"},"to":{"name":"Roitelets / Faucons","stopId":"1:1545","stopCode":"1545","lon":-71.052988,"lat":48.392905,"arrival":1522703634000,"departure":1522703635000,"zoneId":"NA","stopIndex":4,"stopSequence":5,"vertexType":"TRANSIT"},"legGeometry":{"points":"}yjfHpptpL|ABJ?@M","length":4},"rentedBike":false,"transitLeg":false,"duration":54.0,"steps":[{"distance":51.815,"relativeDirection":"DEPART","streetName":"Rue des Hiboux","absoluteDirection":"SOUTH","stayOn":false,"area":false,"bogusName":false,"lon":-71.05304818906814,"lat":48.39343343682691,"elevation":[]},{"distance":6.628,"relativeDirection":"CONTINUE","streetName":"Rue des Faucons","absoluteDirection":"SOUTH","stayOn":false,"area":false,"bogusName":false,"lon":-71.053066,"lat":48.392967600000006,"elevation":[]},{"distance":5.804,"relativeDirection":"LEFT","streetName":"bike path","absoluteDirection":"EAST","stayOn":false,"area":false,"bogusName":true,"lon":-71.0530677,"lat":48.392908000000006,"elevation":[]}]},{"startTime":1522703635000,"endTime":1522703985000,"departureDelay":0,"arrivalDelay":0,"realTime":false,"distance":2208.519827807343,"pathway":false,"mode":"BUS","route":"15","agencyName":"Société de Transport du Saguenay","agencyUrl":"http://ville.saguenay.ca/fr/services-aux-citoyens/transport-sts","agencyTimeZoneOffset":-14400000,"routeColor":"FF00FF","routeType":3,"routeId":"1:15","routeTextColor":"FFFFFF","interlineWithPreviousLeg":false,"tripBlockId":"30","headsign":"Terminus Chicoutimi","agencyId":"0","tripId":"1:218108","serviceDate":"20180402","from":{"name":"Roitelets / Faucons","stopId":"1:1545","stopCode":"1545","lon":-71.052988,"lat":48.392905,"arrival":1522703634000,"departure":1522703635000,"zoneId":"NA","stopIndex":4,"stopSequence":5,"vertexType":"TRANSIT"},"to":{"name":"Saguenéens  / Bach","stopId":"1:575","stopCode":"575","lon":-71.061104,"lat":48.403689,"arrival":1522703985000,"departure":1522703986000,"zoneId":"NA","stopIndex":12,"stopSequence":13,"vertexType":"TRANSIT"},"legGeometry":{"points":"{vjfHdptpL@]Cu@GcAKu@Q_ASo@a@y@a@o@MOUUeCqBiDsDqE{EiAcAcB_AqBgA_AQaBSaBG_@Bu@FG?h@fNKnDpCfBkAzDgA}@y@q@sDy@GAeGT~@~KKrKyAnL[hBUxAm@nCcAlDeCvG","length":40},"routeShortName":"15","routeLongName":"Term. Chic / Costco","rentedBike":false,"transitLeg":true,"duration":350.0,"steps":[]},{"startTime":1522703986000,"endTime":1522704904000,"departureDelay":0,"arrivalDelay":0,"realTime":false,"distance":1181.583,"pathway":false,"mode":"WALK","route":"","agencyTimeZoneOffset":-14400000,"interlineWithPreviousLeg":false,"from":{"name":"Saguenéens  / Bach","stopId":"1:575","stopCode":"575","lon":-71.061104,"lat":48.403689,"arrival":1522703985000,"departure":1522703986000,"zoneId":"NA","stopIndex":12,"stopSequence":13,"vertexType":"TRANSIT"},"to":{"name":"Destination","lon":-71.057736,"lat":48.41151,"arrival":1522704904000,"orig":"","vertexType":"NORMAL"},"legGeometry":{"points":"wylfHfcvpLgAnC}EuEeE}Dw@q@wAoAgGsF][YWMKbAwCgBgBe@`AmCbH{AuA{@@gETa@@","length":18},"rentedBike":false,"transitLeg":false,"duration":918.0,"steps":[{"distance":66.956,"relativeDirection":"DEPART","streetName":"Rue des Saguenéens","absoluteDirection":"NORTHWEST","stayOn":false,"area":false,"bogusName":false,"lon":-71.0611521754673,"lat":48.403646208471976,"elevation":[]},{"distance":587.6930000000001,"relativeDirection":"RIGHT","streetName":"Rue Bach","absoluteDirection":"NORTHEAST","stayOn":false,"area":false,"bogusName":false,"lon":-71.06187870000001,"lat":48.404006700000004,"elevation":[]},{"distance":67.359,"relativeDirection":"RIGHT","streetName":"Rue Plamondon","absoluteDirection":"SOUTHEAST","stayOn":false,"area":false,"bogusName":false,"lon":-71.05766410000001,"lat":48.408490300000004,"elevation":[]},{"distance":69.905,"relativeDirection":"LEFT","streetName":"Rue Plamondon","absoluteDirection":"NORTHEAST","stayOn":true,"area":false,"bogusName":false,"lon":-71.05690750000001,"lat":48.408151600000004,"elevation":[]},{"distance":166.095,"relativeDirection":"LEFT","streetName":"Rue des Champs-Élysées","absoluteDirection":"NORTHWEST","stayOn":false,"area":false,"bogusName":false,"lon":-71.0563831,"lat":48.4086751,"elevation":[]},{"distance":205.04399999999998,"relativeDirection":"RIGHT","streetName":"Rue Chopin","absoluteDirection":"NORTHEAST","stayOn":false,"area":false,"bogusName":false,"lon":-71.0581732,"lat":48.4095789,"elevation":[]},{"distance":18.531,"relativeDirection":"CONTINUE","streetName":"path","absoluteDirection":"NORTH","stayOn":false,"area":false,"bogusName":false,"lon":-71.0578622,"lat":48.411338,"elevation":[]}]}],"tooSloped":false}]},"debugOutput":{"precalculationTime":30,"pathCalculationTime":25,"pathTimes":[13,6,6],"renderingTime":0,"totalTime":55,"timedOut":false},"elevationMetadata":{"ellipsoidToGeoidDifference":-28.885904201182168,"geoidElevation":false}}