{"requestParameters":{"date":"2018/04/02","walkSpeed":"1.33","walkReluctance":"2.0","fromPlace":"48.417529,-71.06634099","maxWalkDistance":"3000","waitReluctance":"1.0","carSpeed":"33","numItineraries":"3","waitAtBeginningFactor":"0.4","mode":"TRANSIT,WALK","ignoreRealtimeUpdates":"false","stairsReluctance":"2.0","toPlace":"48.411349,-71.057411","time":"16:0:00"},"plan":{"date":1522699200000,"from":{"name":"Origin","lon":-71.06634099,"lat":48.417529,"orig":"","vertexType":"NORMAL"},"to":{"name":"Destination","lon":-71.057411,"lat":48.411349,"orig":"","vertexType":"NORMAL"},"itineraries":[{"duration":1194,"startTime":1522699200000,"endTime":1522700394000,"walkTime":1194,"transitTime":0,"waitingTime":0,"walkDistance":1527.8384360813707,"walkLimitExceeded":false,"elevationLost":0.0,"elevationGained":0.0,"transfers":0,"legs":[{"startTime":1522699200000,"endTime":1522700394000,"departureDelay":0,"arrivalDelay":0,"realTime":false,"distance":1527.5640000000003,"pathway":false,"mode":"WALK","route":"","agencyTimeZoneOffset":-14400000,"interlineWithPreviousLeg":false,"from":{"name":"Origin","lon":-71.06634099,"lat":48.417529,"departure":1522699200000,"orig":"","vertexType":"NORMAL"},"to":{"name":"Destination","lon":-71.057411,"lat":48.411349,"arrival":1522700394000,"orig":"","vertexType":"NORMAL"},"legGeometry":{"points":"csofHncwpL?z@?ZKf@Q\\TDPJPVB~ALp@J\\PDn@oB\\y@dAUt@yBdAwCFSjAeDo@m@j@kB??FQNi@bA}FnAoDd@qA??hAcDXa@oAeBEUa@_BEiBAaANBpBMzA]|D}@z@Q\\If@_@BIbAtAFIxAGXy@","length":47},"rentedBike":false,"transitLeg":false,"duration":1194.0,"steps":[{"distance":295.39,"relativeDirection":"DEPART","streetName":"path","absoluteDirection":"WEST","stayOn":false,"area":false,"bogusName":false,"lon":-71.0663178281057,"lat":48.41794050813485,"elevation":[]},{"distance":205.419,"relativeDirection":"LEFT","streetName":"Rue Dubé","absoluteDirection":"SOUTHEAST","stayOn":false,"area":false,"bogusName":false,"lon":-71.0672681,"lat":48.416826400000005,"elevation":[]},{"distance":30.953,"relativeDirection":"LEFT","streetName":"Rue Bégin","absoluteDirection":"NORTHEAST","stayOn":false,"area":false,"bogusName":false,"lon":-71.06496530000001,"lat":48.4157887,"elevation":[]},{"distance":381.059,"relativeDirection":"RIGHT","streetName":"Rue des Champs-Élysées","absoluteDirection":"SOUTHEAST","stayOn":false,"area":false,"bogusName":false,"lon":-71.0647342,"lat":48.416021,"elevation":[]},{"distance":170.211,"relativeDirection":"LEFT","streetName":"Rue Marguerite-Tellier","absoluteDirection":"NORTHEAST","stayOn":false,"area":false,"bogusName":false,"lon":-71.0603414,"lat":48.4142597,"elevation":[]},{"distance":313.03499999999997,"relativeDirection":"RIGHT","streetName":"Rue Thérèse-Casgrain","absoluteDirection":"SOUTH","stayOn":false,"area":false,"bogusName":false,"lon":-71.0583806,"lat":48.4148926,"elevation":[]},{"distance":105.095,"relativeDirection":"RIGHT","streetName":"path","absoluteDirection":"SOUTHWEST","stayOn":false,"area":false,"bogusName":true,"lon":-71.0575299,"lat":48.412162300000006,"elevation":[]},{"distance":26.402,"relativeDirection":"LEFT","streetName":"Rue Massenet","absoluteDirection":"SOUTHEAST","stayOn":false,"area":false,"bogusName":false,"lon":-71.0578622,"lat":48.411338,"elevation":[]}]}],"tooSloped":false},{"duration":546,"startTime":1522699920000,"endTime":1522700466000,"walkTime":364,"transitTime":180,"waitingTime":2,"walkDistance":463.974781951248,"walkLimitExceeded":false,"elevationLost":0.0,"elevationGained":0.0,"transfers":0,"legs":[{"startTime":1522699920000,"endTime":1522700073000,"departureDelay":0,"arrivalDelay":0,"realTime":false,"distance":202.452,"pathway":false,"mode":"WALK","route":"","agencyTimeZoneOffset":-14400000,"interlineWithPreviousLeg":false,"from":{"name":"Origin","lon":-71.06634099,"lat":48.417529,"departure":1522699920000,"orig":"","vertexType":"NORMAL"},"to":{"name":"Bégin (no. 825)","stopId":"1:2005","stopCode":"2005","lon":-71.064205,"lat":48.41684,"arrival":1522700073000,"departure":1522700074000,"zoneId":"NA","stopIndex":6,"stopSequence":7,"vertexType":"TRANSIT"},"legGeometry":{"points":"csofHncwpL@KBk@Hy@p@gAlAiBzA_B","length":7},"rentedBike":false,"transitLeg":false,"duration":153.0,"steps":[{"distance":202.452,"relativeDirection":"DEPART","streetName":"path","absoluteDirection":"EAST","stayOn":false,"area":false,"bogusName":false,"lon":-71.0663178281057,"lat":48.41794050813485,"elevation":[]}]},{"startTime":1522700074000,"endTime":1522700254000,"departureDelay":0,"arrivalDelay":0,"realTime":false,"distance":960.9296936322487,"pathway":false,"mode":"BUS","route":"12","agencyName":"Société de Transport du Saguenay","agencyUrl":"http://ville.saguenay.ca/fr/services-aux-citoyens/transport-sts","agencyTimeZoneOffset":-14400000,"routeColor":"556B2F","routeType":3,"routeId":"1:12","routeTextColor":"FFFFFF","interlineWithPreviousLeg":false,"tripBlockId":"26","headsign":"Terminus Chicoutimi","agencyId":"0","tripId":"1:217983","serviceDate":"20180402","from":{"name":"Bégin (no. 825)","stopId":"1:2005","stopCode":"2005","lon":-71.064205,"lat":48.41684,"arrival":1522700073000,"departure":1522700074000,"zoneId":"NA","stopIndex":6,"stopSequence":7,"vertexType":"TRANSIT"},"to":{"name":"Champs-Élysées / Chopin","stopId":"1:570","stopCode":"570","lon":-71.058565,"lat":48.409684,"arrival":1522700254000,"departure":1522700255000,"zoneId":"NA","stopIndex":11,"stopSequence":12,"vertexType":"TRANSIT"},"legGeometry":{"points":"wkofHfuvpLnCpCv@iBlAgIdCmFbAqDtBeCjFm@`Gs@hFo@xAmB","length":11},"routeShortName":"12","routeLongName":"Rivière du Moulin","rentedBike":false,"transitLeg":true,"duration":180.0,"steps":[]},{"startTime":1522700255000,"endTime":1522700466000,"departureDelay":0,"arrivalDelay":0,"realTime":false,"distance":261.40999999999997,"pathway":false,"mode":"WALK","route":"","agencyTimeZoneOffset":-14400000,"interlineWithPreviousLeg":false,"from":{"name":"Champs-Élysées / Chopin","stopId":"1:570","stopCode":"570","lon":-71.058565,"lat":48.409684,"arrival":1522700254000,"departure":1522700255000,"zoneId":"NA","stopIndex":11,"stopSequence":12,"vertexType":"TRANSIT"},"to":{"name":"Destination","lon":-71.057411,"lat":48.411349,"arrival":1522700466000,"orig":"","vertexType":"NORMAL"},"legGeometry":{"points":"{_nfHrrupL?A`@}@{AuA{@@gETXy@","length":7},"rentedBike":false,"transitLeg":false,"duration":211.0,"steps":[{"distance":29.964000000000002,"relativeDirection":"DEPART","streetName":"Rue des Champs-Élysées","absoluteDirection":"SOUTHEAST","stayOn":false,"area":false,"bogusName":false,"lon":-71.0584925285131,"lat":48.409745286109604,"elevation":[]},{"distance":205.04399999999998,"relativeDirection":"LEFT","streetName":"Rue Chopin","absoluteDirection":"NORTHEAST","stayOn":false,"area":false,"bogusName":false,"lon":-71.0581732,"lat":48.4095789,"elevation":[]},{"distance":26.402,"relativeDirection":"HARD_RIGHT","streetName":"Rue Massenet","absoluteDirection":"SOUTHEAST","stayOn":false,"area":false,"bogusName":false,"lon":-71.0578622,"lat":48.411338,"elevation":[]}]}],"tooSloped":false},{"duration":546,"startTime":1522701720000,"endTime":1522702266000,"walkTime":364,"transitTime":180,"waitingTime":2,"walkDistance":463.974781951248,"walkLimitExceeded":false,"elevationLost":0.0,"elevationGained":0.0,"transfers":0,"legs":[{"startTime":1522701720000,"endTime":1522701873000,"departureDelay":0,"arrivalDelay":0,"realTime":false,"distance":202.452,"pathway":false,"mode":"WALK","route":"","agencyTimeZoneOffset":-14400000,"interlineWithPreviousLeg":false,"from":{"name":"Origin","lon":-71.06634099,"lat":48.417529,"departure":1522701720000,"orig":"","vertexType":"NORMAL"},"to":{"name":"Bégin (no. 825)","stopId":"1:2005","stopCode":"2005","lon":-71.064205,"lat":48.41684,"arrival":1522701873000,"departure":1522701874000,"zoneId":"NA","stopIndex":6,"stopSequence":7,"vertexType":"TRANSIT"},"legGeometry":{"points":"csofHncwpL@KBk@Hy@p@gAlAiBzA_B","length":7},"rentedBike":false,"transitLeg":false,"duration":153.0,"steps":[{"distance":202.452,"relativeDirection":"DEPART","streetName":"path","absoluteDirection":"EAST","stayOn":false,"area":false,"bogusName":false,"lon":-71.0663178281057,"lat":48.41794050813485,"elevation":[]}]},{"startTime":1522701874000,"endTime":1522702054000,"departureDelay":0,"arrivalDelay":0,"realTime":false,"distance":960.9296936322487,"pathway":false,"mode":"BUS","route":"12","agencyName":"Société de Transport du Saguenay","agencyUrl":"http://ville.saguenay.ca/fr/services-aux-citoyens/transport-sts","agencyTimeZoneOffset":-14400000,"routeColor":"556B2F","routeType":3,"routeId":"1:12","routeTextColor":"FFFFFF","interlineWithPreviousLeg":false,"tripBlockId":"29","headsign":"Terminus Chicoutimi","agencyId":"0","tripId":"1:218072","serviceDate":"20180402","from":{"name":"Bégin (no. 825)","stopId":"1:2005","stopCode":"2005","lon":-71.064205,"lat":48.41684,"arrival":1522701873000,"departure":1522701874000,"zoneId":"NA","stopIndex":6,"stopSequence":7,"vertexType":"TRANSIT"},"to":{"name":"Champs-Élysées / Chopin","stopId":"1:570","stopCode":"570","lon":-71.058565,"lat":48.409684,"arrival":1522702054000,"departure":1522702055000,"zoneId":"NA","stopIndex":11,"stopSequence":12,"vertexType":"TRANSIT"},"legGeometry":{"points":"wkofHfuvpLnCpCv@iBlAgIdCmFbAqDtBeCjFm@`Gs@hFo@xAmB","length":11},"routeShortName":"12","routeLongName":"Rivière du Moulin","rentedBike":false,"transitLeg":true,"duration":180.0,"steps":[]},{"startTime":1522702055000,"endTime":1522702266000,"departureDelay":0,"arrivalDelay":0,"realTime":false,"distance":261.40999999999997,"pathway":false,"mode":"WALK","route":"","agencyTimeZoneOffset":-14400000,"interlineWithPreviousLeg":false,"from":{"name":"Champs-Élysées / Chopin","stopId":"1:570","stopCode":"570","lon":-71.058565,"lat":48.409684,"arrival":1522702054000,"departure":1522702055000,"zoneId":"NA","stopIndex":11,"stopSequence":12,"vertexType":"TRANSIT"},"to":{"name":"Destination","lon":-71.057411,"lat":48.411349,"arrival":1522702266000,"orig":"","vertexType":"NORMAL"},"legGeometry":{"points":"{_nfHrrupL?A`@}@{AuA{@@gETXy@","length":7},"rentedBike":false,"transitLeg":false,"duration":211.0,"steps":[{"distance":29.964000000000002,"relativeDirection":"DEPART","streetName":"Rue des Champs-Élysées","absoluteDirection":"SOUTHEAST","stayOn":false,"area":false,"bogusName":false,"lon":-71.0584925285131,"lat":48.409745286109604,"elevation":[]},{"distance":205.04399999999998,"relativeDirection":"LEFT","streetName":"Rue Chopin","absoluteDirection":"NORTHEAST","stayOn":false,"area":false,"bogusName":false,"lon":-71.0581732,"lat":48.4095789,"elevation":[]},{"distance":26.402,"relativeDirection":"HARD_RIGHT","streetName":"Rue Massenet","absoluteDirection":"SOUTHEAST","stayOn":false,"area":false,"bogusName":false,"lon":-71.0578622,"lat":48.411338,"elevation":[]}]}],"tooSloped":false}]},"debugOutput":{"precalculationTime":41,"pathCalculationTime":20,"pathTimes":[11,4,5],"renderingTime":0,"totalTime":61,"timedOut":false},"elevationMetadata":{"ellipsoidToGeoidDifference":-28.885904201182168,"geoidElevation":false}}