{"requestParameters":{"date":"2018/04/02","walkSpeed":"1.33","walkReluctance":"2.0","fromPlace":"48.427068,-71.06877","maxWalkDistance":"3000","waitReluctance":"1.0","carSpeed":"33","numItineraries":"3","waitAtBeginningFactor":"0.4","mode":"TRANSIT,WALK","ignoreRealtimeUpdates":"false","stairsReluctance":"2.0","toPlace":"48.411754,-71.062967","time":"12:0:00"},"plan":{"date":1522684800000,"from":{"name":"Origin","lon":-71.06877,"lat":48.427068,"orig":"","vertexType":"NORMAL"},"to":{"name":"Destination","lon":-71.062967,"lat":48.411754,"orig":"","vertexType":"NORMAL"},"itineraries":[{"duration":1867,"startTime":1522684800000,"endTime":1522686667000,"walkTime":1867,"transitTime":0,"waitingTime":0,"walkDistance":2404.4002481122584,"walkLimitExceeded":false,"elevationLost":0.0,"elevationGained":0.0,"transfers":0,"legs":[{"startTime":1522684800000,"endTime":1522686667000,"departureDelay":0,"arrivalDelay":0,"realTime":false,"distance":2404.151,"pathway":false,"mode":"WALK","route":"","agencyTimeZoneOffset":-14400000,"interlineWithPreviousLeg":false,"from":{"name":"Origin","lon":-71.06877,"lat":48.427068,"departure":1522684800000,"orig":"","vertexType":"NORMAL"},"to":{"name":"Destination","lon":-71.062967,"lat":48.411754,"arrival":1522686667000,"orig":"","vertexType":"NORMAL"},"legGeometry":{"points":"clqfHlqwpLn@BR@hAHz@F`CNB?tAJB?ZBjCNXBR@f@Dl@DzBNd@BxAFt@Dr@DR@P@L@jBNfCPRB\\EhBNd@Cz@AXKx@WFC\\E^Kn@MXy@d@oBn@oB\\y@dAUt@yBdAwCFSjAeDo@m@j@kB??FQNi@bA}FhCbC~B|BvFiP\\_A`@]dEi@X|Ei@bBKTg@tAQf@","length":62},"rentedBike":false,"transitLeg":false,"duration":1867.0,"steps":[{"distance":926.202,"relativeDirection":"DEPART","streetName":"Rue Sainte-Anne","absoluteDirection":"SOUTH","stayOn":false,"area":false,"bogusName":false,"lon":-71.06854315733501,"lat":48.42706052825821,"elevation":[]},{"distance":100.197,"relativeDirection":"CONTINUE","streetName":"Rue Jolliet","absoluteDirection":"SOUTH","stayOn":false,"area":false,"bogusName":false,"lon":-71.0693796,"lat":48.418765,"elevation":[]},{"distance":188.869,"relativeDirection":"LEFT","streetName":"path","absoluteDirection":"SOUTHEAST","stayOn":false,"area":false,"bogusName":true,"lon":-71.069079,"lat":48.417887500000006,"elevation":[]},{"distance":205.419,"relativeDirection":"LEFT","streetName":"Rue Dubé","absoluteDirection":"SOUTHEAST","stayOn":false,"area":false,"bogusName":false,"lon":-71.0672681,"lat":48.416826400000005,"elevation":[]},{"distance":30.953,"relativeDirection":"LEFT","streetName":"Rue Bégin","absoluteDirection":"NORTHEAST","stayOn":false,"area":false,"bogusName":false,"lon":-71.06496530000001,"lat":48.4157887,"elevation":[]},{"distance":173.619,"relativeDirection":"RIGHT","streetName":"Rue des Champs-Élysées","absoluteDirection":"SOUTHEAST","stayOn":false,"area":false,"bogusName":false,"lon":-71.0647342,"lat":48.416021,"elevation":[]},{"distance":175.709,"relativeDirection":"RIGHT","streetName":"Rue Georges-Vanier","absoluteDirection":"SOUTHWEST","stayOn":false,"area":false,"bogusName":false,"lon":-71.0626228,"lat":48.4153431,"elevation":[]},{"distance":409.407,"relativeDirection":"LEFT","streetName":"Rue de Longchamp","absoluteDirection":"SOUTHEAST","stayOn":false,"area":false,"bogusName":false,"lon":-71.0639159,"lat":48.4140164,"elevation":[]},{"distance":193.776,"relativeDirection":"RIGHT","streetName":"Rue du Carrousel","absoluteDirection":"WEST","stayOn":false,"area":false,"bogusName":false,"lon":-71.0604631,"lat":48.411461,"elevation":[]}]}],"tooSloped":false},{"duration":1710,"startTime":1522685519000,"endTime":1522687229000,"walkTime":1102,"transitTime":606,"waitingTime":2,"walkDistance":1419.8047443545217,"walkLimitExceeded":false,"elevationLost":0.0,"elevationGained":0.0,"transfers":0,"legs":[{"startTime":1522685519000,"endTime":1522685769000,"departureDelay":0,"arrivalDelay":0,"realTime":false,"distance":319.78400000000005,"pathway":false,"mode":"WALK","route":"","agencyTimeZoneOffset":-14400000,"interlineWithPreviousLeg":false,"from":{"name":"Origin","lon":-71.06877,"lat":48.427068,"departure":1522685519000,"orig":"","vertexType":"NORMAL"},"to":{"name":"Jacques-Cartier / Morin","stopId":"1:70","stopCode":"70","lon":-71.064766,"lat":48.426469,"arrival":1522685769000,"departure":1522685770000,"zoneId":"NA","stopIndex":1,"stopSequence":2,"vertexType":"TRANSIT"},"legGeometry":{"points":"clqfHlqwpLn@BR@B_BDoBBwABaAJeEDwC@s@","length":10},"rentedBike":false,"transitLeg":false,"duration":250.0,"steps":[{"distance":37.81,"relativeDirection":"DEPART","streetName":"Rue Sainte-Anne","absoluteDirection":"SOUTH","stayOn":false,"area":false,"bogusName":false,"lon":-71.06854315733501,"lat":48.42706052825821,"elevation":[]},{"distance":281.97400000000005,"relativeDirection":"LEFT","streetName":"Rue Jacques-Cartier Est","absoluteDirection":"EAST","stayOn":false,"area":false,"bogusName":false,"lon":-71.0685709,"lat":48.426721,"elevation":[]}]},{"startTime":1522685770000,"endTime":1522686376000,"departureDelay":0,"arrivalDelay":0,"realTime":false,"distance":2603.7200523316915,"pathway":false,"mode":"BUS","route":"15","agencyName":"Société de Transport du Saguenay","agencyUrl":"http://ville.saguenay.ca/fr/services-aux-citoyens/transport-sts","agencyTimeZoneOffset":-14400000,"routeColor":"FF00FF","routeType":3,"routeId":"1:15","routeTextColor":"FFFFFF","interlineWithPreviousLeg":false,"tripBlockId":"33","headsign":"Talbot / Barrette","agencyId":"0","tripId":"1:218183","serviceDate":"20180402","from":{"name":"Jacques-Cartier / Morin","stopId":"1:70","stopCode":"70","lon":-71.064766,"lat":48.426469,"arrival":1522685769000,"departure":1522685770000,"zoneId":"NA","stopIndex":1,"stopSequence":2,"vertexType":"TRANSIT"},"to":{"name":"Bégin / Youville","stopId":"1:2004","stopCode":"2004","lon":-71.066018,"lat":48.414996,"arrival":1522686376000,"departure":1522686377000,"zoneId":"NA","stopIndex":11,"stopSequence":12,"vertexType":"TRANSIT"},"legGeometry":{"points":"}hqfHvyvpLZkS\\aSN_K^eIrBpBvIpIr@r@\\mBfAaA`@gBOkB_@uF|DyL|DpDQ|@|@z@bA`ATw@dD~Ch@fA@`E~AjGuH`Iy@bBi@dCbEdEjJlJ`HbHlJpJ","length":30},"routeShortName":"15","routeLongName":"Term. Chic / Costco","rentedBike":false,"transitLeg":true,"duration":606.0,"steps":[]},{"startTime":1522686377000,"endTime":1522687229000,"departureDelay":0,"arrivalDelay":0,"realTime":false,"distance":1099.823,"pathway":false,"mode":"WALK","route":"","agencyTimeZoneOffset":-14400000,"interlineWithPreviousLeg":false,"from":{"name":"Bégin / Youville","stopId":"1:2004","stopCode":"2004","lon":-71.066018,"lat":48.414996,"arrival":1522686376000,"departure":1522686377000,"zoneId":"NA","stopIndex":11,"stopSequence":12,"vertexType":"TRANSIT"},"to":{"name":"Destination","lon":-71.062967,"lat":48.411754,"arrival":1522687229000,"orig":"","vertexType":"NORMAL"},"legGeometry":{"points":"e`ofHn`wpLCCGGsCqCMOo@m@j@kB??FQNi@bA}FhCbC~B|BvFiP\\_A`@]dEi@X|Ei@bBKTg@tAQf@","length":22},"rentedBike":false,"transitLeg":false,"duration":852.0,"steps":[{"distance":147.31199999999998,"relativeDirection":"DEPART","streetName":"Rue Bégin","absoluteDirection":"NORTHEAST","stayOn":false,"area":false,"bogusName":false,"lon":-71.06583413783413,"lat":48.4149155049481,"elevation":[]},{"distance":173.619,"relativeDirection":"RIGHT","streetName":"Rue des Champs-Élysées","absoluteDirection":"SOUTHEAST","stayOn":false,"area":false,"bogusName":false,"lon":-71.0647342,"lat":48.416021,"elevation":[]},{"distance":175.709,"relativeDirection":"RIGHT","streetName":"Rue Georges-Vanier","absoluteDirection":"SOUTHWEST","stayOn":false,"area":false,"bogusName":false,"lon":-71.0626228,"lat":48.4153431,"elevation":[]},{"distance":409.407,"relativeDirection":"LEFT","streetName":"Rue de Longchamp","absoluteDirection":"SOUTHEAST","stayOn":false,"area":false,"bogusName":false,"lon":-71.0639159,"lat":48.4140164,"elevation":[]},{"distance":193.776,"relativeDirection":"RIGHT","streetName":"Rue du Carrousel","absoluteDirection":"WEST","stayOn":false,"area":false,"bogusName":false,"lon":-71.0604631,"lat":48.411461,"elevation":[]}]}],"tooSloped":false},{"duration":2003,"startTime":1522685387000,"endTime":1522687390000,"walkTime":598,"transitTime":1403,"waitingTime":2,"walkDistance":761.3459248065469,"walkLimitExceeded":false,"elevationLost":0.0,"elevationGained":0.0,"transfers":0,"legs":[{"startTime":1522685387000,"endTime":1522685699000,"departureDelay":0,"arrivalDelay":0,"realTime":false,"distance":399.1,"pathway":false,"mode":"WALK","route":"","agencyTimeZoneOffset":-14400000,"interlineWithPreviousLeg":false,"from":{"name":"Origin","lon":-71.06877,"lat":48.427068,"departure":1522685387000,"orig":"","vertexType":"NORMAL"},"to":{"name":"Terminus Chicoutimi","stopId":"1:1289","stopCode":"1289","lon":-71.066163,"lat":48.428677,"arrival":1522685699000,"departure":1522685700000,"zoneId":"NA","stopIndex":0,"stopSequence":1,"vertexType":"TRANSIT"},"legGeometry":{"points":"clqfHlqwpLA?y@CA?GAg@C}AKDwD@k@@w@PuGc@MKESAcAK","length":15},"rentedBike":false,"transitLeg":false,"duration":312.0,"steps":[{"distance":114.21799999999999,"relativeDirection":"DEPART","streetName":"Rue Sainte-Anne","absoluteDirection":"NORTH","stayOn":false,"area":false,"bogusName":false,"lon":-71.06854315733501,"lat":48.42706052825821,"elevation":[]},{"distance":207.675,"relativeDirection":"RIGHT","streetName":"Rue Racine Est","absoluteDirection":"EAST","stayOn":false,"area":false,"bogusName":false,"lon":-71.06843,"lat":48.42808470000001,"elevation":[]},{"distance":77.207,"relativeDirection":"LEFT","streetName":"Rue Morin","absoluteDirection":"NORTH","stayOn":false,"area":false,"bogusName":false,"lon":-71.0656238,"lat":48.4279449,"elevation":[]}]},{"startTime":1522685700000,"endTime":1522687103000,"departureDelay":0,"arrivalDelay":0,"realTime":false,"distance":9099.469382060015,"pathway":false,"mode":"BUS","route":"12","agencyName":"Société de Transport du Saguenay","agencyUrl":"http://ville.saguenay.ca/fr/services-aux-citoyens/transport-sts","agencyTimeZoneOffset":-14400000,"routeColor":"556B2F","routeType":3,"routeId":"1:12","routeTextColor":"FFFFFF","interlineWithPreviousLeg":false,"tripBlockId":"28","headsign":"Terminus UQAC","agencyId":"0","tripId":"1:218037","serviceDate":"20180402","from":{"name":"Terminus Chicoutimi","stopId":"1:1289","stopCode":"1289","lon":-71.066163,"lat":48.428677,"arrival":1522685699000,"departure":1522685700000,"zoneId":"NA","stopIndex":0,"stopSequence":1,"vertexType":"TRANSIT"},"to":{"name":"Champs-Élysées / Longchamp","stopId":"1:585","stopCode":"585","lon":-71.05927,"lat":48.411297,"arrival":1522687103000,"departure":1522687104000,"zoneId":"NA","stopIndex":30,"stopSequence":31,"vertexType":"TRANSIT"},"legGeometry":{"points":"evqfHpbwpLpFcj@IaKmFy^_DaZz@u]SeV}@aNs@gKToKd@gTnCyHkGuLqFqJ_DeFf@iIvGsKlIrH`JlH`EfDnOdIdGlGjL|BzBiLv@}L`b@fNvVvrCdRvMcAjKcP~b@iHhD","length":31},"routeShortName":"12","routeLongName":"Rivière du Moulin","rentedBike":false,"transitLeg":true,"duration":1403.0,"steps":[]},{"startTime":1522687104000,"endTime":1522687390000,"departureDelay":0,"arrivalDelay":0,"realTime":false,"distance":362.076,"pathway":false,"mode":"WALK","route":"","agencyTimeZoneOffset":-14400000,"interlineWithPreviousLeg":false,"from":{"name":"Champs-Élysées / Longchamp","stopId":"1:585","stopCode":"585","lon":-71.05927,"lat":48.411297,"arrival":1522687103000,"departure":1522687104000,"zoneId":"NA","stopIndex":30,"stopSequence":31,"vertexType":"TRANSIT"},"to":{"name":"Destination","lon":-71.062967,"lat":48.411754,"arrival":1522687390000,"orig":"","vertexType":"NORMAL"},"legGeometry":{"points":"oinfH`xupLhAMDpBOn@[n@YNm@FX|Ei@bBKTg@tAQf@","length":12},"rentedBike":false,"transitLeg":false,"duration":286.0,"steps":[{"distance":41.493,"relativeDirection":"DEPART","streetName":"Rue des Champs-Élysées","absoluteDirection":"SOUTH","stayOn":false,"area":false,"bogusName":false,"lon":-71.05936604598011,"lat":48.4112884241138,"elevation":[]},{"distance":126.807,"relativeDirection":"RIGHT","streetName":"Rue de Longchamp","absoluteDirection":"WEST","stayOn":false,"area":false,"bogusName":false,"lon":-71.05929110000001,"lat":48.4109186,"elevation":[]},{"distance":193.776,"relativeDirection":"LEFT","streetName":"Rue du Carrousel","absoluteDirection":"WEST","stayOn":false,"area":false,"bogusName":false,"lon":-71.0604631,"lat":48.411461,"elevation":[]}]}],"tooSloped":false}]},"debugOutput":{"precalculationTime":37,"pathCalculationTime":44,"pathTimes":[19,14,11],"renderingTime":0,"totalTime":81,"timedOut":false},"elevationMetadata":{"ellipsoidToGeoidDifference":-28.885904201182168,"geoidElevation":false}}