{"requestParameters":{"date":"2018/04/02","walkSpeed":"1.33","walkReluctance":"2.0","fromPlace":"48.403952,-71.054642","maxWalkDistance":"3000","waitReluctance":"1.0","carSpeed":"33","numItineraries":"3","waitAtBeginningFactor":"0.4","mode":"TRANSIT,WALK","ignoreRealtimeUpdates":"false","stairsReluctance":"2.0","toPlace":"48.449002,-71.067462","time":"22:24:00"},"plan":{"date":1522722240000,"from":{"name":"Origin","lon":-71.054642,"lat":48.403952,"orig":"","vertexType":"NORMAL"},"to":{"name":"Destination","lon":-71.067462,"lat":48.449002,"orig":"","vertexType":"NORMAL"},"itineraries":[{"duration":3487,"startTime":1522723739000,"endTime":1522727226000,"walkTime":2585,"transitTime":900,"waitingTime":2,"walkDistance":3284.386857120499,"walkLimitExceeded":false,"elevationLost":0.0,"elevationGained":0.0,"transfers":0,"legs":[{"startTime":1522723739000,"endTime":1522724099000,"departureDelay":0,"arrivalDelay":0,"realTime":false,"distance":446.63599999999997,"pathway":false,"mode":"WALK","route":"","agencyTimeZoneOffset":-14400000,"interlineWithPreviousLeg":false,"from":{"name":"Origin","lon":-71.054642,"lat":48.403952,"departure":1522723739000,"orig":"","vertexType":"NORMAL"},"to":{"name":"Place Royaume","stopId":"1:1801","stopCode":"1801","lon":-71.057017,"lat":48.405588,"arrival":1522724099000,"departure":1522724100000,"zoneId":"NA","stopIndex":10,"stopSequence":11,"vertexType":"TRANSIT"},"legGeometry":{"points":"{zlfHhytpLJPNVVq@PCk@vDmBtGYWGGUCCCYU]Y[YYWq@tBa@zA","length":17},"rentedBike":false,"transitLeg":false,"duration":360.0,"steps":[{"distance":55.269,"relativeDirection":"DEPART","streetName":"parking aisle","absoluteDirection":"SOUTHWEST","stayOn":false,"area":false,"bogusName":false,"lon":-71.05444515294332,"lat":48.40382759190054,"elevation":[]},{"distance":191.916,"relativeDirection":"HARD_RIGHT","streetName":"path","absoluteDirection":"WEST","stayOn":false,"area":false,"bogusName":true,"lon":-71.0543818,"lat":48.403475,"elevation":[]},{"distance":109.13299999999998,"relativeDirection":"RIGHT","streetName":"service road","absoluteDirection":"NORTHEAST","stayOn":true,"area":false,"bogusName":true,"lon":-71.0566984,"lat":48.4042426,"elevation":[]},{"distance":90.318,"relativeDirection":"LEFT","streetName":"parking aisle","absoluteDirection":"NORTHWEST","stayOn":true,"area":false,"bogusName":true,"lon":-71.05600720000001,"lat":48.4050992,"elevation":[]}]},{"startTime":1522724100000,"endTime":1522725000000,"departureDelay":0,"arrivalDelay":0,"realTime":false,"distance":4188.036446582453,"pathway":false,"mode":"BUS","route":"175","agencyName":"Société de Transport du Saguenay","agencyUrl":"http://ville.saguenay.ca/fr/services-aux-citoyens/transport-sts","agencyTimeZoneOffset":-14400000,"routeColor":"FF00FF","routeType":3,"routeId":"1:175","routeTextColor":"FFFFFF","interlineWithPreviousLeg":false,"tripBlockId":"11","headsign":"Terminus Chicoutimi","agencyId":"0","tripId":"1:217494","serviceDate":"20180402","from":{"name":"Place Royaume","stopId":"1:1801","stopCode":"1801","lon":-71.057017,"lat":48.405588,"arrival":1522724099000,"departure":1522724100000,"zoneId":"NA","stopIndex":10,"stopSequence":11,"vertexType":"TRANSIT"},"to":{"name":"Terminus Chicoutimi","stopId":"1:1289","stopCode":"1289","lon":-71.066163,"lat":48.428677,"arrival":1522725000000,"departure":1522725001000,"zoneId":"NA","stopIndex":27,"stopSequence":28,"vertexType":"TRANSIT"},"legGeometry":{"points":"sfmfH`kupL_U_TcNgNcBcB{E`Jc@x@qG~@{BlAk@XgSrQqB_GAeFiEeEOt@gAeA_A_ATm@yAwAgBeBqDnL@nBF`@f@|C[dCuAfB]xAs@OmCmCmEkE]a@g@i@ZiGTmEl@oLaEe@cFk@?pH?tJDvBPjMB~Bo@PQDRbFKdGMhIOvIK|EQpHoCQEdC","length":51},"routeShortName":"175","routeLongName":"Term. Chic / Costco","rentedBike":false,"transitLeg":true,"duration":900.0,"steps":[]},{"startTime":1522725001000,"endTime":1522727226000,"departureDelay":0,"arrivalDelay":0,"realTime":false,"distance":2837.058,"pathway":false,"mode":"WALK","route":"","agencyTimeZoneOffset":-14400000,"interlineWithPreviousLeg":false,"from":{"name":"Terminus Chicoutimi","stopId":"1:1289","stopCode":"1289","lon":-71.066163,"lat":48.428677,"arrival":1522725000000,"departure":1522725001000,"zoneId":"NA","stopIndex":27,"stopSequence":28,"vertexType":"TRANSIT"},"to":{"name":"Destination","lon":-71.067462,"lat":48.449002,"arrival":1522727226000,"orig":"","vertexType":"NORMAL"},"legGeometry":{"points":"{uqfHb~vpL_BMOAa@CILKJ[TaAn@@FDX?\\CTEb@GHCb@C|@ALEDCBCr@DBBBElBEp@e]uBQuBMBQFoAPIGWVe@f@ECc@?_AQ[EwBK?DCDADC@E@CACACCAC?AAG?EK?e@^u@x@wAbCw@tA[l@Yj@Sd@i@z@c@z@c@WmCLgAqF]ByDq@iDoAmBq@GAIFELGJAHCFAFAXeCr@PnBeAPc@@KAOAe@a@_@YOMqAgA{BeBm@i@eBwAkAaA}BqBaAhGKRMFIAGA_Bo@@G","length":96},"rentedBike":false,"transitLeg":false,"duration":2225.0,"steps":[{"distance":81.079,"relativeDirection":"DEPART","streetName":"Rue Morin","absoluteDirection":"NORTH","stayOn":false,"area":false,"bogusName":false,"lon":-71.0654590096484,"lat":48.428628638946556,"elevation":[]},{"distance":259.336,"relativeDirection":"LEFT","streetName":"path","absoluteDirection":"NORTHWEST","stayOn":false,"area":false,"bogusName":true,"lon":-71.0653539,"lat":48.4293544,"elevation":[]},{"distance":538.684,"relativeDirection":"RIGHT","streetName":"Pont de Sainte-Anne","absoluteDirection":"NORTH","stayOn":false,"area":false,"bogusName":false,"lon":-71.0682024,"lat":48.4301132,"elevation":[]},{"distance":114.291,"relativeDirection":"RIGHT","streetName":"bike path","absoluteDirection":"EAST","stayOn":false,"area":false,"bogusName":true,"lon":-71.0676151,"lat":48.434942,"elevation":[]},{"distance":41.536,"relativeDirection":"SLIGHTLY_LEFT","streetName":"link","absoluteDirection":"NORTHWEST","stayOn":false,"area":false,"bogusName":true,"lon":-71.06713590000001,"lat":48.435644700000005,"elevation":[]},{"distance":142.163,"relativeDirection":"RIGHT","streetName":"Rue du Pont","absoluteDirection":"NORTH","stayOn":false,"area":false,"bogusName":false,"lon":-71.06745260000001,"lat":48.4359534,"elevation":[]},{"distance":28.474,"relativeDirection":"CIRCLE_CLOCKWISE","streetName":"Rue Roussel","absoluteDirection":"NORTHWEST","exit":"2","stayOn":false,"area":false,"bogusName":false,"lon":-71.06725250000001,"lat":48.4372217,"elevation":[]},{"distance":6.516,"relativeDirection":"LEFT","streetName":"R 172","absoluteDirection":"NORTH","stayOn":false,"area":false,"bogusName":true,"lon":-71.0672278,"lat":48.4373869,"elevation":[]},{"distance":236.639,"relativeDirection":"SLIGHTLY_LEFT","streetName":"R 172","absoluteDirection":"NORTHWEST","stayOn":true,"area":false,"bogusName":true,"lon":-71.0672291,"lat":48.4374455,"elevation":[]},{"distance":62.283,"relativeDirection":"CONTINUE","streetName":"Boulevard Sainte-Geneviève","absoluteDirection":"NORTHWEST","stayOn":false,"area":false,"bogusName":false,"lon":-71.0694016,"lat":48.4389935,"elevation":[]},{"distance":199.08,"relativeDirection":"RIGHT","streetName":"path","absoluteDirection":"NORTHEAST","stayOn":false,"area":false,"bogusName":true,"lon":-71.07000330000001,"lat":48.4393862,"elevation":[]},{"distance":288.789,"relativeDirection":"LEFT","streetName":"Rue Saint-Nicolas","absoluteDirection":"NORTH","stayOn":false,"area":false,"bogusName":false,"lon":-71.06874350000001,"lat":48.4406393,"elevation":[]},{"distance":38.33,"relativeDirection":"LEFT","streetName":"Rue Riel","absoluteDirection":"NORTHWEST","stayOn":false,"area":false,"bogusName":false,"lon":-71.06785640000001,"lat":48.4431554,"elevation":[]},{"distance":77.517,"relativeDirection":"RIGHT","streetName":"path","absoluteDirection":"NORTH","stayOn":false,"area":false,"bogusName":true,"lon":-71.0682821,"lat":48.443321000000005,"elevation":[]},{"distance":42.345,"relativeDirection":"LEFT","streetName":"Rue Delisle","absoluteDirection":"WEST","stayOn":false,"area":false,"bogusName":false,"lon":-71.0685442,"lat":48.4439961,"elevation":[]},{"distance":486.721,"relativeDirection":"RIGHT","streetName":"Rue Constantin","absoluteDirection":"NORTH","stayOn":false,"area":false,"bogusName":false,"lon":-71.069103,"lat":48.4439088,"elevation":[]},{"distance":189.568,"relativeDirection":"LEFT","streetName":"Rue du Ruisseau","absoluteDirection":"WEST","stayOn":false,"area":false,"bogusName":false,"lon":-71.0663973,"lat":48.4477853,"elevation":[]},{"distance":3.707,"relativeDirection":"RIGHT","streetName":"Rue Cabot","absoluteDirection":"EAST","stayOn":false,"area":false,"bogusName":false,"lon":-71.0676091,"lat":48.448818,"elevation":[]}]}],"tooSloped":false},{"duration":3965,"startTime":1522723321000,"endTime":1522727286000,"walkTime":2643,"transitTime":1320,"waitingTime":2,"walkDistance":3354.087669151387,"walkLimitExceeded":false,"elevationLost":0.0,"elevationGained":0.0,"transfers":0,"legs":[{"startTime":1522723321000,"endTime":1522723739000,"departureDelay":0,"arrivalDelay":0,"realTime":false,"distance":516.362,"pathway":false,"mode":"WALK","route":"","agencyTimeZoneOffset":-14400000,"interlineWithPreviousLeg":false,"from":{"name":"Origin","lon":-71.054642,"lat":48.403952,"departure":1522723321000,"orig":"","vertexType":"NORMAL"},"to":{"name":"Place du Royaume (Champs-Élysées)","stopId":"1:572","stopCode":"572","lon":-71.053302,"lat":48.407097,"arrival":1522723739000,"departure":1522723740000,"zoneId":"NA","stopIndex":13,"stopSequence":14,"vertexType":"TRANSIT"},"legGeometry":{"points":"{zlfHhytpLKMS]U_@S]Yc@Vu@Ng@QSYWWUYWYY[YSSGH]bAGPMZg@rA]PGBU?[AW?KAc@Ae@A[AYWc@q@]d@","length":32},"rentedBike":false,"transitLeg":false,"duration":418.0,"steps":[{"distance":117.35300000000001,"relativeDirection":"DEPART","streetName":"parking aisle","absoluteDirection":"NORTHEAST","stayOn":false,"area":false,"bogusName":false,"lon":-71.05444515294332,"lat":48.40382759190054,"elevation":[]},{"distance":110.875,"relativeDirection":"LEFT","streetName":"service road","absoluteDirection":"NORTHEAST","stayOn":false,"area":false,"bogusName":true,"lon":-71.0532652,"lat":48.4041209,"elevation":[]},{"distance":288.134,"relativeDirection":"LEFT","streetName":"service road","absoluteDirection":"NORTHWEST","stayOn":true,"area":false,"bogusName":true,"lon":-71.05245930000001,"lat":48.4049623,"elevation":[]}]},{"startTime":1522723740000,"endTime":1522725060000,"departureDelay":0,"arrivalDelay":0,"realTime":false,"distance":8263.211391150631,"pathway":false,"mode":"BUS","route":"12","agencyName":"Société de Transport du Saguenay","agencyUrl":"http://ville.saguenay.ca/fr/services-aux-citoyens/transport-sts","agencyTimeZoneOffset":-14400000,"routeColor":"556B2F","routeType":3,"routeId":"1:12","routeTextColor":"FFFFFF","interlineWithPreviousLeg":false,"tripBlockId":"29","headsign":"Terminus Chicoutimi","agencyId":"0","tripId":"1:218084","serviceDate":"20180402","from":{"name":"Place du Royaume (Champs-Élysées)","stopId":"1:572","stopCode":"572","lon":-71.053302,"lat":48.407097,"arrival":1522723739000,"departure":1522723740000,"zoneId":"NA","stopIndex":13,"stopSequence":14,"vertexType":"TRANSIT"},"to":{"name":"Terminus Chicoutimi","stopId":"1:1289","stopCode":"1289","lon":-71.066163,"lat":48.428677,"arrival":1522725060000,"departure":1522725061000,"zoneId":"NA","stopIndex":33,"stopSequence":34,"vertexType":"TRANSIT"},"legGeometry":{"points":"aomfHlrtpLlCyGa@yFYkD}CyA}KmFgD_BgAgBn@kFD_NoIgrAmD_WcAaLaDHoDJi`@wVoAbDbA|AnBU|B|AfBlAyLtKoGxFcFqDkJaHgEoDmDwC_TqQsBeB{HjWfAvAfM|O|FlHmB`IgA|Cy@`UYzHZvMR~Hr@~ZPvHsCrMFxf@|ApJj@nDDl]BvZdCXJhC","length":49},"routeShortName":"12","routeLongName":"Rivière du Moulin","rentedBike":false,"transitLeg":true,"duration":1320.0,"steps":[]},{"startTime":1522725061000,"endTime":1522727286000,"departureDelay":0,"arrivalDelay":0,"realTime":false,"distance":2837.058,"pathway":false,"mode":"WALK","route":"","agencyTimeZoneOffset":-14400000,"interlineWithPreviousLeg":false,"from":{"name":"Terminus Chicoutimi","stopId":"1:1289","stopCode":"1289","lon":-71.066163,"lat":48.428677,"arrival":1522725060000,"departure":1522725061000,"zoneId":"NA","stopIndex":33,"stopSequence":34,"vertexType":"TRANSIT"},"to":{"name":"Destination","lon":-71.067462,"lat":48.449002,"arrival":1522727286000,"orig":"","vertexType":"NORMAL"},"legGeometry":{"points":"{uqfHb~vpL_BMOAa@CILKJ[TaAn@@FDX?\\CTEb@GHCb@C|@ALEDCBCr@DBBBElBEp@e]uBQuBMBQFoAPIGWVe@f@ECc@?_AQ[EwBK?DCDADC@E@CACACCAC?AAG?EK?e@^u@x@wAbCw@tA[l@Yj@Sd@i@z@c@z@c@WmCLgAqF]ByDq@iDoAmBq@GAIFELGJAHCFAFAXeCr@PnBeAPc@@KAOAe@a@_@YOMqAgA{BeBm@i@eBwAkAaA}BqBaAhGKRMFIAGA_Bo@@G","length":96},"rentedBike":false,"transitLeg":false,"duration":2225.0,"steps":[{"distance":81.079,"relativeDirection":"DEPART","streetName":"Rue Morin","absoluteDirection":"NORTH","stayOn":false,"area":false,"bogusName":false,"lon":-71.0654590096484,"lat":48.428628638946556,"elevation":[]},{"distance":259.336,"relativeDirection":"LEFT","streetName":"path","absoluteDirection":"NORTHWEST","stayOn":false,"area":false,"bogusName":true,"lon":-71.0653539,"lat":48.4293544,"elevation":[]},{"distance":538.684,"relativeDirection":"RIGHT","streetName":"Pont de Sainte-Anne","absoluteDirection":"NORTH","stayOn":false,"area":false,"bogusName":false,"lon":-71.0682024,"lat":48.4301132,"elevation":[]},{"distance":114.291,"relativeDirection":"RIGHT","streetName":"bike path","absoluteDirection":"EAST","stayOn":false,"area":false,"bogusName":true,"lon":-71.0676151,"lat":48.434942,"elevation":[]},{"distance":41.536,"relativeDirection":"SLIGHTLY_LEFT","streetName":"link","absoluteDirection":"NORTHWEST","stayOn":false,"area":false,"bogusName":true,"lon":-71.06713590000001,"lat":48.435644700000005,"elevation":[]},{"distance":142.163,"relativeDirection":"RIGHT","streetName":"Rue du Pont","absoluteDirection":"NORTH","stayOn":false,"area":false,"bogusName":false,"lon":-71.06745260000001,"lat":48.4359534,"elevation":[]},{"distance":28.474,"relativeDirection":"CIRCLE_CLOCKWISE","streetName":"Rue Roussel","absoluteDirection":"NORTHWEST","exit":"2","stayOn":false,"area":false,"bogusName":false,"lon":-71.06725250000001,"lat":48.4372217,"elevation":[]},{"distance":6.516,"relativeDirection":"LEFT","streetName":"R 172","absoluteDirection":"NORTH","stayOn":false,"area":false,"bogusName":true,"lon":-71.0672278,"lat":48.4373869,"elevation":[]},{"distance":236.639,"relativeDirection":"SLIGHTLY_LEFT","streetName":"R 172","absoluteDirection":"NORTHWEST","stayOn":true,"area":false,"bogusName":true,"lon":-71.0672291,"lat":48.4374455,"elevation":[]},{"distance":62.283,"relativeDirection":"CONTINUE","streetName":"Boulevard Sainte-Geneviève","absoluteDirection":"NORTHWEST","stayOn":false,"area":false,"bogusName":false,"lon":-71.0694016,"lat":48.4389935,"elevation":[]},{"distance":199.08,"relativeDirection":"RIGHT","streetName":"path","absoluteDirection":"NORTHEAST","stayOn":false,"area":false,"bogusName":true,"lon":-71.07000330000001,"lat":48.4393862,"elevation":[]},{"distance":288.789,"relativeDirection":"LEFT","streetName":"Rue Saint-Nicolas","absoluteDirection":"NORTH","stayOn":false,"area":false,"bogusName":false,"lon":-71.06874350000001,"lat":48.4406393,"elevation":[]},{"distance":38.33,"relativeDirection":"LEFT","streetName":"Rue Riel","absoluteDirection":"NORTHWEST","stayOn":false,"area":false,"bogusName":false,"lon":-71.06785640000001,"lat":48.4431554,"elevation":[]},{"distance":77.517,"relativeDirection":"RIGHT","streetName":"path","absoluteDirection":"NORTH","stayOn":false,"area":false,"bogusName":true,"lon":-71.0682821,"lat":48.443321000000005,"elevation":[]},{"distance":42.345,"relativeDirection":"LEFT","streetName":"Rue Delisle","absoluteDirection":"WEST","stayOn":false,"area":false,"bogusName":false,"lon":-71.0685442,"lat":48.4439961,"elevation":[]},{"distance":486.721,"relativeDirection":"RIGHT","streetName":"Rue Constantin","absoluteDirection":"NORTH","stayOn":false,"area":false,"bogusName":false,"lon":-71.069103,"lat":48.4439088,"elevation":[]},{"distance":189.568,"relativeDirection":"LEFT","streetName":"Rue du Ruisseau","absoluteDirection":"WEST","stayOn":false,"area":false,"bogusName":false,"lon":-71.0663973,"lat":48.4477853,"elevation":[]},{"distance":3.707,"relativeDirection":"RIGHT","streetName":"Rue Cabot","absoluteDirection":"EAST","stayOn":false,"area":false,"bogusName":false,"lon":-71.0676091,"lat":48.448818,"elevation":[]}]}],"tooSloped":false},{"duration":6507,"startTime":1522722416000,"endTime":1522728923000,"walkTime":2316,"transitTime":4189,"waitingTime":2,"walkDistance":2938.543661634301,"walkLimitExceeded":false,"elevationLost":0.0,"elevationGained":0.0,"transfers":0,"legs":[{"startTime":1522722416000,"endTime":1522722636000,"departureDelay":0,"arrivalDelay":0,"realTime":false,"distance":265.091,"pathway":false,"mode":"WALK","route":"","agencyTimeZoneOffset":-14400000,"interlineWithPreviousLeg":false,"from":{"name":"Origin","lon":-71.054642,"lat":48.403952,"departure":1522722416000,"orig":"","vertexType":"NORMAL"},"to":{"name":"Champs-Élysées (no. 1415)","stopId":"1:1925","stopCode":"1925","lon":-71.051931,"lat":48.403672,"arrival":1522722636000,"departure":1522722637000,"zoneId":"NA","stopIndex":18,"stopSequence":19,"vertexType":"TRANSIT"},"legGeometry":{"points":"{zlfHhytpLKMS]U_@S]Yc@Vu@Ng@QSj@eBDM?q@A{Ad@MNG","length":15},"rentedBike":false,"transitLeg":false,"duration":220.0,"steps":[{"distance":233.988,"relativeDirection":"DEPART","streetName":"parking aisle","absoluteDirection":"NORTHEAST","stayOn":false,"area":false,"bogusName":false,"lon":-71.05444515294332,"lat":48.40382759190054,"elevation":[]},{"distance":31.103,"relativeDirection":"RIGHT","streetName":"Rue des Champs-Élysées","absoluteDirection":"SOUTH","stayOn":false,"area":false,"bogusName":false,"lon":-71.0518792,"lat":48.4039711,"elevation":[]}]},{"startTime":1522722637000,"endTime":1522723320000,"departureDelay":0,"arrivalDelay":0,"realTime":false,"distance":3852.7064321404896,"pathway":false,"mode":"BUS","route":"175","agencyName":"Société de Transport du Saguenay","agencyUrl":"http://ville.saguenay.ca/fr/services-aux-citoyens/transport-sts","agencyTimeZoneOffset":-14400000,"routeColor":"FF00FF","routeType":3,"routeId":"1:175","routeTextColor":"FFFFFF","interlineWithPreviousLeg":false,"tripBlockId":"7","headsign":"Costco","agencyId":"0","tripId":"1:217352","serviceDate":"20180402","from":{"name":"Champs-Élysées (no. 1415)","stopId":"1:1925","stopCode":"1925","lon":-71.051931,"lat":48.403672,"arrival":1522722636000,"departure":1522722637000,"zoneId":"NA","stopIndex":18,"stopSequence":19,"vertexType":"TRANSIT"},"to":{"name":"COSTCO","stopId":"1:1710","stopCode":"1710","lon":-71.085767,"lat":48.382333,"arrival":1522723320000,"departure":1522723500000,"zoneId":"NA","stopIndex":30,"stopSequence":31,"vertexType":"TRANSIT"},"legGeometry":{"points":"azlfHvhtpL~HsB^KZ|DJpII~Fa@rFUzBi@bDUxAm@nCcAlDM^RTfD`DjF`FjCrCrAvAbCfDjIfMdAzAfFpHd@n@nC`DlXv[b@f@mCtHv@v@p@r@_@p@uAcBjDoJhAzApBrBrFvGjDdEbD|DZb@~DrEbDfDrA~ApLbNpG|GyCtHwBcC","length":45},"routeShortName":"175","routeLongName":"Term. Chic / Costco","rentedBike":false,"transitLeg":true,"duration":683.0,"steps":[]},{"startTime":1522723500000,"endTime":1522725120000,"departureDelay":0,"arrivalDelay":0,"realTime":false,"distance":14008.131135969163,"pathway":false,"mode":"BUS","route":"2","agencyName":"Société de Transport du Saguenay","agencyUrl":"http://ville.saguenay.ca/fr/services-aux-citoyens/transport-sts","agencyTimeZoneOffset":-14400000,"routeColor":"FF0000","routeType":3,"routeId":"1:2","routeTextColor":"FFFFFF","interlineWithPreviousLeg":true,"tripBlockId":"7","headsign":"Terminus Jonquière","agencyId":"0","tripId":"1:217353","serviceDate":"20180402","from":{"name":"COSTCO","stopId":"1:1710","stopCode":"1710","lon":-71.085767,"lat":48.382333,"arrival":1522723320000,"departure":1522723500000,"zoneId":"NA","stopIndex":0,"stopSequence":1,"vertexType":"TRANSIT"},"to":{"name":"Terminus Jonquière","stopId":"1:1291","stopCode":"1291","lon":-71.25388,"lat":48.411994,"arrival":1522725120000,"departure":1522725300000,"zoneId":"NA","stopIndex":24,"stopSequence":25,"vertexType":"TRANSIT"},"legGeometry":{"points":"wthfHn}zpLeLkMxCaIbPzPkL|[eB~GwBlIa@bXIbQO`^aBhTiBlNUfBiI~ZeHzQeFxMqDtKAJ}ApJM~EWhIb@`NFlB_@fOsBvK_DrH_G|HiSfXwExNyEzZoHll@}GpYuL`_@PPZ^lC|Bn@j@bB|AtDjDADGJKFK@KCkF{EGMCS@KHWo@k@mC}B[_@Or@I`@y@tEc@`D]`DU`DMlC_@rSKxCSxEeD`d@aArKM~Ao@jJEx@}AvT}@rKAPMrASzBGp@wA~OGhAg@fHUhCKtAmFvr@WbCM|@Ox@c@zBuA`Fi@`BM^VTt@p@vAjANJlAbAt@h@p@\\x@ZVFPDj@RfHvAn@T[rDi@rHe@`H@Rq@dHo@|DMt@kAtDU|@UhAKp@OnAOjBIjAGz@AJAR?R?RBRBV|ChSBXHXHRLRfApArA|A\\n@Lh@Hl@@hAK`BcAtM?@?RBPHRHJda@|IcAbNIdAWbCiAlO}@pLeCg@_B[[@[RkEzJs@dAO`@Ij@MdBQnASr@EN_@b@e@JqBc@y@zL}Du@yGqAeCSaBMcASYfBMvAg@`IqAzRWjD~@YDk@","length":172},"routeShortName":"2","routeLongName":"Chic/Jonq via Boul. Royaume","rentedBike":false,"transitLeg":true,"duration":1620.0,"steps":[]},{"startTime":1522725300000,"endTime":1522726826000,"departureDelay":0,"arrivalDelay":0,"realTime":false,"distance":16101.504774769022,"pathway":false,"mode":"BUS","route":"3","agencyName":"Société de Transport du Saguenay","agencyUrl":"http://ville.saguenay.ca/fr/services-aux-citoyens/transport-sts","agencyTimeZoneOffset":-14400000,"routeColor":"FF0000","routeType":3,"routeId":"1:3","routeTextColor":"FFFFFF","interlineWithPreviousLeg":true,"tripBlockId":"7","headsign":"Terminus Chicoutimi","agencyId":"0","tripId":"1:217354","serviceDate":"20180402","from":{"name":"Terminus Jonquière","stopId":"1:1291","stopCode":"1291","lon":-71.25388,"lat":48.411994,"arrival":1522725120000,"departure":1522725300000,"zoneId":"NA","stopIndex":0,"stopSequence":1,"vertexType":"TRANSIT"},"to":{"name":"boul. Saguenay / Ste-Anne","stopId":"1:160","stopCode":"160","lon":-71.069701,"lat":48.429464,"arrival":1522726826000,"departure":1522726827000,"zoneId":"NA","stopIndex":31,"stopSequence":32,"vertexType":"TRANSIT"},"legGeometry":{"points":"kmnfHvu{qLNuBy@YjBoYJmA@IXgBNa@rAsDZaAD[He@NyAbCs_@L}BAsBGqAmBeHi@uBoB{GcAiD}@_@OoCUmB}BmMKk@k@wCYm@QWKeA@e@PaBXcAL}@PcCpByYMCuA]]K}@k@kAkAmAg@y@OyAWhB}WPgBPsA\\mBZqAf@eBj@}A~D}I^u@|BmFh@sALa@gIkGeBkAWMECg@S{Ag@m@OcASsBOgAAeBDsBRwAXQDYD_AXgItEiGbDi@b@i@^oHnEoAr@g@PgA^gCv@oPxD}@PqB^oBPuA@Y[Ma@G[CqAIiCa@wHKqCyGu_Ac@eIAMM{AEc@KkA[uCy@qGGk@i@cE}@aG]sCWaDIeAEqAGqCC{H@iE?aAAaRAwRHcA?A@??A@??A@??A@??A?A@A?A@A?A?A?A@A?A?A?A?A?A?A?A?A?A?A???AAA?A?AAA?A?AAA??AA?AAA??AA??AA??AA??A??YAUCu@KyBa@qN?y@?M@ADc@?OGwAGEA_@UuF}Cym@mCii@Ea@SqC{@sOM_ECkHDua@BeIHoB?mEAuGAsBAQAo@GaAO_BUoAOq@G[K[Kc@IYcB}FaBaFwFaRACi@cBk@{BUmASkBAiA@mCTaGJsBz@}OL}AD_@lAwI~@{FJ_BFaA|AuLXeCFi@R{CHwBDiBL}P?y@?mEDa@FgAD_BHoAr@mGTyBd@mFDq@HyAB_ADoBLyFBiFPkO@KLmDl@}K@yBAoCBiA@MhAqPNsENgEPwH^_HPiDN_BZcB`@mAxGgV|Ju^\\eBVgBLcB|@}^FkAF}DJyD","length":267},"routeShortName":"3","routeLongName":"Chic/Jonq via Boul. Saguenay","rentedBike":false,"transitLeg":true,"duration":1526.0,"steps":[]},{"startTime":1522726827000,"endTime":1522728923000,"departureDelay":0,"arrivalDelay":0,"realTime":false,"distance":2672.838,"pathway":false,"mode":"WALK","route":"","agencyTimeZoneOffset":-14400000,"interlineWithPreviousLeg":false,"from":{"name":"boul. Saguenay / Ste-Anne","stopId":"1:160","stopCode":"160","lon":-71.069701,"lat":48.429464,"arrival":1522726826000,"departure":1522726827000,"zoneId":"NA","stopIndex":31,"stopSequence":32,"vertexType":"TRANSIT"},"to":{"name":"Destination","lon":-71.067462,"lat":48.449002,"arrival":1522728923000,"orig":"","vertexType":"NORMAL"},"legGeometry":{"points":"s{qfHrxwpLJuFB_@SCIKQ?kACE?e]uBQuBMBQFoAPIGWVe@f@ECc@?_AQ[EwBK?DCDADC@E@CACACCAC?AAG?EK?e@^u@x@wAbCw@tA[l@Yj@Sd@i@z@c@z@c@WmCLgAqF]ByDq@iDoAmBq@GAIFELGJAHCFAFAXeCr@PnBeAPc@@KAOAe@a@_@YOMqAgA{BeBm@i@eBwAkAaA}BqBaAhGKRMFIAGA_Bo@@G","length":80},"rentedBike":false,"transitLeg":false,"duration":2096.0,"steps":[{"distance":102.431,"relativeDirection":"DEPART","streetName":"Boulevard du Saguenay Ouest","absoluteDirection":"EAST","stayOn":false,"area":false,"bogusName":false,"lon":-71.06969134971845,"lat":48.42954562670822,"elevation":[]},{"distance":11.024,"relativeDirection":"LEFT","streetName":"Rue Sainte-Anne","absoluteDirection":"NORTH","stayOn":false,"area":false,"bogusName":false,"lon":-71.06830790000001,"lat":48.429469600000004,"elevation":[]},{"distance":59.134,"relativeDirection":"CONTINUE","streetName":"path","absoluteDirection":"NORTH","stayOn":false,"area":false,"bogusName":true,"lon":-71.06828730000001,"lat":48.4295678,"elevation":[]},{"distance":542.29,"relativeDirection":"CONTINUE","streetName":"Pont de Sainte-Anne","absoluteDirection":"NORTH","stayOn":false,"area":false,"bogusName":false,"lon":-71.06820450000001,"lat":48.430080800000006,"elevation":[]},{"distance":114.291,"relativeDirection":"RIGHT","streetName":"bike path","absoluteDirection":"EAST","stayOn":false,"area":false,"bogusName":true,"lon":-71.0676151,"lat":48.434942,"elevation":[]},{"distance":41.536,"relativeDirection":"SLIGHTLY_LEFT","streetName":"link","absoluteDirection":"NORTHWEST","stayOn":false,"area":false,"bogusName":true,"lon":-71.06713590000001,"lat":48.435644700000005,"elevation":[]},{"distance":142.163,"relativeDirection":"RIGHT","streetName":"Rue du Pont","absoluteDirection":"NORTH","stayOn":false,"area":false,"bogusName":false,"lon":-71.06745260000001,"lat":48.4359534,"elevation":[]},{"distance":28.474,"relativeDirection":"CIRCLE_CLOCKWISE","streetName":"Rue Roussel","absoluteDirection":"NORTHWEST","exit":"2","stayOn":false,"area":false,"bogusName":false,"lon":-71.06725250000001,"lat":48.4372217,"elevation":[]},{"distance":6.516,"relativeDirection":"LEFT","streetName":"R 172","absoluteDirection":"NORTH","stayOn":false,"area":false,"bogusName":true,"lon":-71.0672278,"lat":48.4373869,"elevation":[]},{"distance":236.639,"relativeDirection":"SLIGHTLY_LEFT","streetName":"R 172","absoluteDirection":"NORTHWEST","stayOn":true,"area":false,"bogusName":true,"lon":-71.0672291,"lat":48.4374455,"elevation":[]},{"distance":62.283,"relativeDirection":"CONTINUE","streetName":"Boulevard Sainte-Geneviève","absoluteDirection":"NORTHWEST","stayOn":false,"area":false,"bogusName":false,"lon":-71.0694016,"lat":48.4389935,"elevation":[]},{"distance":199.08,"relativeDirection":"RIGHT","streetName":"path","absoluteDirection":"NORTHEAST","stayOn":false,"area":false,"bogusName":true,"lon":-71.07000330000001,"lat":48.4393862,"elevation":[]},{"distance":288.789,"relativeDirection":"LEFT","streetName":"Rue Saint-Nicolas","absoluteDirection":"NORTH","stayOn":false,"area":false,"bogusName":false,"lon":-71.06874350000001,"lat":48.4406393,"elevation":[]},{"distance":38.33,"relativeDirection":"LEFT","streetName":"Rue Riel","absoluteDirection":"NORTHWEST","stayOn":false,"area":false,"bogusName":false,"lon":-71.06785640000001,"lat":48.4431554,"elevation":[]},{"distance":77.517,"relativeDirection":"RIGHT","streetName":"path","absoluteDirection":"NORTH","stayOn":false,"area":false,"bogusName":true,"lon":-71.0682821,"lat":48.443321000000005,"elevation":[]},{"distance":42.345,"relativeDirection":"LEFT","streetName":"Rue Delisle","absoluteDirection":"WEST","stayOn":false,"area":false,"bogusName":false,"lon":-71.0685442,"lat":48.4439961,"elevation":[]},{"distance":486.721,"relativeDirection":"RIGHT","streetName":"Rue Constantin","absoluteDirection":"NORTH","stayOn":false,"area":false,"bogusName":false,"lon":-71.069103,"lat":48.4439088,"elevation":[]},{"distance":189.568,"relativeDirection":"LEFT","streetName":"Rue du Ruisseau","absoluteDirection":"WEST","stayOn":false,"area":false,"bogusName":false,"lon":-71.0663973,"lat":48.4477853,"elevation":[]},{"distance":3.707,"relativeDirection":"RIGHT","streetName":"Rue Cabot","absoluteDirection":"EAST","stayOn":false,"area":false,"bogusName":false,"lon":-71.0676091,"lat":48.448818,"elevation":[]}]}],"tooSloped":false}]},"debugOutput":{"precalculationTime":25,"pathCalculationTime":65,"pathTimes":[30,18,17],"renderingTime":1,"totalTime":91,"timedOut":false},"elevationMetadata":{"ellipsoidToGeoidDifference":-28.885904201182168,"geoidElevation":false}}