{"requestParameters":{"date":"2018/04/02","walkSpeed":"1.33","walkReluctance":"2.0","fromPlace":"48.449002,-71.067462","maxWalkDistance":"3000","waitReluctance":"1.0","carSpeed":"33","numItineraries":"3","waitAtBeginningFactor":"0.4","mode":"TRANSIT,WALK","ignoreRealtimeUpdates":"false","stairsReluctance":"2.0","toPlace":"48.452691,-71.062218","time":"7:30:00"},"plan":{"date":1522668600000,"from":{"name":"Origin","lon":-71.067462,"lat":48.449002,"orig":"","vertexType":"NORMAL"},"to":{"name":"Destination","lon":-71.062218,"lat":48.452691,"orig":"","vertexType":"NORMAL"},"itineraries":[{"duration":629,"startTime":1522668600000,"endTime":1522669229000,"walkTime":629,"transitTime":0,"waitingTime":0,"walkDistance":822.6118345853744,"walkLimitExceeded":false,"elevationLost":0.0,"elevationGained":0.0,"transfers":0,"legs":[{"startTime":1522668600000,"endTime":1522669229000,"departureDelay":0,"arrivalDelay":0,"realTime":false,"distance":822.578,"pathway":false,"mode":"WALK","route":"","agencyTimeZoneOffset":-14400000,"interlineWithPreviousLeg":false,"from":{"name":"Origin","lon":-71.067462,"lat":48.449002,"departure":1522668600000,"orig":"","vertexType":"NORMAL"},"to":{"name":"Destination","lon":-71.062218,"lat":48.452691,"arrival":1522669229000,"orig":"","vertexType":"NORMAL"},"legGeometry":{"points":"_tufHhkwpLXuBh@{DHm@He@\\gCn@qEGAoIqD}DcBqBy@GCWKiAe@_DmA","length":15},"alerts":[{"alertHeaderText":"Unpaved surface"}],"rentedBike":false,"transitLeg":false,"duration":629.0,"steps":[{"distance":286.338,"relativeDirection":"DEPART","streetName":"Rue Cabot","absoluteDirection":"EAST","stayOn":false,"area":false,"bogusName":false,"lon":-71.06756148801159,"lat":48.44880729674045,"elevation":[],"alerts":[{"alertHeaderText":"Unpaved surface"}]},{"distance":536.24,"relativeDirection":"LEFT","streetName":"Rue Delisle","absoluteDirection":"NORTH","stayOn":false,"area":false,"bogusName":false,"lon":-71.06388530000001,"lat":48.4479794,"elevation":[]}]}],"tooSloped":false},{"duration":616,"startTime":1522668644000,"endTime":1522669260000,"walkTime":592,"transitTime":22,"waitingTime":2,"walkDistance":770.467406013024,"walkLimitExceeded":false,"elevationLost":0.0,"elevationGained":0.0,"transfers":0,"legs":[{"startTime":1522668644000,"endTime":1522668679000,"departureDelay":0,"arrivalDelay":0,"realTime":false,"distance":45.734,"pathway":false,"mode":"WALK","route":"","agencyTimeZoneOffset":-14400000,"interlineWithPreviousLeg":false,"from":{"name":"Origin","lon":-71.067462,"lat":48.449002,"departure":1522668644000,"orig":"","vertexType":"NORMAL"},"to":{"name":"Cabot / Ruisseau","stopId":"1:765","stopCode":"765","lon":-71.067028,"lat":48.44857,"arrival":1522668679000,"departure":1522668680000,"zoneId":"NA","stopIndex":29,"stopSequence":30,"vertexType":"TRANSIT"},"legGeometry":{"points":"_tufHhkwpLXuB","length":2},"rentedBike":false,"transitLeg":false,"duration":35.0,"steps":[{"distance":45.734,"relativeDirection":"DEPART","streetName":"Rue Cabot","absoluteDirection":"EAST","stayOn":false,"area":false,"bogusName":false,"lon":-71.06756148801159,"lat":48.44880729674045,"elevation":[]}]},{"startTime":1522668680000,"endTime":1522668702000,"departureDelay":0,"arrivalDelay":0,"realTime":false,"distance":81.71673160055059,"pathway":false,"mode":"BUS","route":"22","agencyName":"Société de Transport du Saguenay","agencyUrl":"http://ville.saguenay.ca/fr/services-aux-citoyens/transport-sts","agencyTimeZoneOffset":-14400000,"routeColor":"C0C000","routeType":3,"routeId":"1:22","routeTextColor":"000000","interlineWithPreviousLeg":false,"tripBlockId":"3","headsign":"Terminus Chicoutimi","agencyId":"0","tripId":"1:217188","serviceDate":"20180402","from":{"name":"Cabot / Ruisseau","stopId":"1:765","stopCode":"765","lon":-71.067028,"lat":48.44857,"arrival":1522668679000,"departure":1522668680000,"zoneId":"NA","stopIndex":29,"stopSequence":30,"vertexType":"TRANSIT"},"to":{"name":"Constantin / Cabot","stopId":"1:766","stopCode":"766","lon":-71.066135,"lat":48.448135,"arrival":1522668702000,"departure":1522668703000,"zoneId":"NA","stopIndex":30,"stopSequence":31,"vertexType":"TRANSIT"},"legGeometry":{"points":"esufHrgwpLh@_EJk@x@x@","length":4},"routeShortName":"22","routeLongName":"Vanier","rentedBike":false,"transitLeg":true,"duration":22.0,"steps":[]},{"startTime":1522668703000,"endTime":1522669260000,"departureDelay":0,"arrivalDelay":0,"realTime":false,"distance":724.671,"pathway":false,"mode":"WALK","route":"","agencyTimeZoneOffset":-14400000,"interlineWithPreviousLeg":false,"from":{"name":"Constantin / Cabot","stopId":"1:766","stopCode":"766","lon":-71.066135,"lat":48.448135,"arrival":1522668702000,"departure":1522668703000,"zoneId":"NA","stopIndex":30,"stopSequence":31,"vertexType":"TRANSIT"},"to":{"name":"Destination","lon":-71.062218,"lat":48.452691,"arrival":1522669260000,"orig":"","vertexType":"NORMAL"},"legGeometry":{"points":"uoufH`bwpL{@w@He@\\gCn@qEGAoIqD}DcBqBy@GCWKiAe@_DmA","length":13},"rentedBike":false,"transitLeg":false,"duration":557.0,"steps":[{"distance":39.143,"relativeDirection":"DEPART","streetName":"Rue Constantin","absoluteDirection":"NORTHEAST","stayOn":false,"area":false,"bogusName":false,"lon":-71.06608473791654,"lat":48.44811397028551,"elevation":[]},{"distance":149.288,"relativeDirection":"RIGHT","streetName":"Rue Cabot","absoluteDirection":"EAST","stayOn":false,"area":false,"bogusName":false,"lon":-71.0658016,"lat":48.4484117,"elevation":[]},{"distance":536.24,"relativeDirection":"LEFT","streetName":"Rue Delisle","absoluteDirection":"NORTH","stayOn":false,"area":false,"bogusName":false,"lon":-71.06388530000001,"lat":48.4479794,"elevation":[]}]}],"tooSloped":false},{"duration":351,"startTime":1522669718000,"endTime":1522670069000,"walkTime":228,"transitTime":121,"waitingTime":2,"walkDistance":292.78872180326186,"walkLimitExceeded":false,"elevationLost":0.0,"elevationGained":0.0,"transfers":0,"legs":[{"startTime":1522669718000,"endTime":1522669858000,"departureDelay":0,"arrivalDelay":0,"realTime":false,"distance":177.05800000000002,"pathway":false,"mode":"WALK","route":"","agencyTimeZoneOffset":-14400000,"interlineWithPreviousLeg":false,"from":{"name":"Origin","lon":-71.067462,"lat":48.449002,"departure":1522669718000,"orig":"","vertexType":"NORMAL"},"to":{"name":"Constantin / Cabot","stopId":"1:741","stopCode":"741","lon":-71.065961,"lat":48.448053,"arrival":1522669858000,"departure":1522669859000,"zoneId":"NA","stopIndex":5,"stopSequence":6,"vertexType":"TRANSIT"},"legGeometry":{"points":"_tufHhkwpLXuBh@{DHm@z@v@@@","length":6},"alerts":[{"alertHeaderText":"Unpaved surface"}],"rentedBike":false,"transitLeg":false,"duration":140.0,"steps":[{"distance":137.05,"relativeDirection":"DEPART","streetName":"Rue Cabot","absoluteDirection":"EAST","stayOn":false,"area":false,"bogusName":false,"lon":-71.06756148801159,"lat":48.44880729674045,"elevation":[],"alerts":[{"alertHeaderText":"Unpaved surface"}]},{"distance":40.008,"relativeDirection":"RIGHT","streetName":"Rue Constantin","absoluteDirection":"SOUTHWEST","stayOn":false,"area":false,"bogusName":false,"lon":-71.0658016,"lat":48.4484117,"elevation":[]}]},{"startTime":1522669859000,"endTime":1522669980000,"departureDelay":0,"arrivalDelay":0,"realTime":false,"distance":751.6836120797786,"pathway":false,"mode":"BUS","route":"22","agencyName":"Société de Transport du Saguenay","agencyUrl":"http://ville.saguenay.ca/fr/services-aux-citoyens/transport-sts","agencyTimeZoneOffset":-14400000,"routeColor":"C0C000","routeType":3,"routeId":"1:22","routeTextColor":"000000","interlineWithPreviousLeg":false,"tripBlockId":"1","headsign":"Terminus Chicoutimi","agencyId":"0","tripId":"1:217132","serviceDate":"20180402","from":{"name":"Constantin / Cabot","stopId":"1:741","stopCode":"741","lon":-71.065961,"lat":48.448053,"arrival":1522669858000,"departure":1522669859000,"zoneId":"NA","stopIndex":5,"stopSequence":6,"vertexType":"TRANSIT"},"to":{"name":"Delisle / Vimy","stopId":"1:2016","stopCode":"2016","lon":-71.060948,"lat":48.45351,"arrival":1522669980000,"departure":1522669981000,"zoneId":"NA","stopIndex":9,"stopSequence":10,"vertexType":"TRANSIT"},"legGeometry":{"points":"soufH`bwpL{@y@d@kDp@uEyIkDqHwC_@QmLyE","length":8},"routeShortName":"22","routeLongName":"Vanier","rentedBike":false,"transitLeg":true,"duration":121.0,"steps":[]},{"startTime":1522669981000,"endTime":1522670069000,"departureDelay":0,"arrivalDelay":0,"realTime":false,"distance":115.692,"pathway":false,"mode":"WALK","route":"","agencyTimeZoneOffset":-14400000,"interlineWithPreviousLeg":false,"from":{"name":"Delisle / Vimy","stopId":"1:2016","stopCode":"2016","lon":-71.060948,"lat":48.45351,"arrival":1522669980000,"departure":1522669981000,"zoneId":"NA","stopIndex":9,"stopSequence":10,"vertexType":"TRANSIT"},"to":{"name":"Destination","lon":-71.062218,"lat":48.452691,"arrival":1522670069000,"orig":"","vertexType":"NORMAL"},"legGeometry":{"points":"qqvfHpbvpLDB~D|A","length":3},"rentedBike":false,"transitLeg":false,"duration":88.0,"steps":[{"distance":115.692,"relativeDirection":"DEPART","streetName":"Rue Delisle","absoluteDirection":"SOUTH","stayOn":false,"area":false,"bogusName":false,"lon":-71.061046170069,"lat":48.4535313186617,"elevation":[]}]}],"tooSloped":false}]},"debugOutput":{"precalculationTime":13,"pathCalculationTime":11,"pathTimes":[4,3,4],"renderingTime":0,"totalTime":24,"timedOut":false},"elevationMetadata":{"ellipsoidToGeoidDifference":-28.885904201182168,"geoidElevation":false}}