{"requestParameters":{"date":"2018/04/02","walkSpeed":"1.33","walkReluctance":"2.0","fromPlace":"48.402286,-71.04745099","maxWalkDistance":"3000","waitReluctance":"1.0","carSpeed":"33","numItineraries":"3","waitAtBeginningFactor":"0.4","mode":"TRANSIT,WALK","ignoreRealtimeUpdates":"false","stairsReluctance":"2.0","toPlace":"48.408242,-71.065671","time":"9:15:00"},"plan":{"date":1522674900000,"from":{"name":"Origin","lon":-71.04745099,"lat":48.402286,"orig":"","vertexType":"NORMAL"},"to":{"name":"Destination","lon":-71.065671,"lat":48.408242,"orig":"","vertexType":"NORMAL"},"itineraries":[{"duration":1428,"startTime":1522674900000,"endTime":1522676328000,"walkTime":1428,"transitTime":0,"waitingTime":0,"walkDistance":1847.9494887171097,"walkLimitExceeded":false,"elevationLost":0.0,"elevationGained":0.0,"transfers":0,"legs":[{"startTime":1522674900000,"endTime":1522676328000,"departureDelay":0,"arrivalDelay":0,"realTime":false,"distance":1847.8039999999996,"pathway":false,"mode":"WALK","route":"","agencyTimeZoneOffset":-14400000,"interlineWithPreviousLeg":false,"from":{"name":"Origin","lon":-71.04745099,"lat":48.402286,"departure":1522674900000,"orig":"","vertexType":"NORMAL"},"to":{"name":"Destination","lon":-71.065671,"lat":48.408242,"arrival":1522676328000,"orig":"","vertexType":"NORMAL"},"legGeometry":{"points":"oplfHxpspLeAd@BRCb@fArID^b@`D`@~FJdGOpG[fEEj@UfBk@vDa@dCMh@mArEGRADKVyBvFgAnCaAzBu@~@WZaA|@aA~@IVcA~@CB?@gAvA{@dCm@|AGNgBxEGNELqB{BTi@Py@_@g@}@m@","length":43},"rentedBike":false,"transitLeg":false,"duration":1428.0,"steps":[{"distance":41.37,"relativeDirection":"DEPART","streetName":"bike path","absoluteDirection":"NORTH","stayOn":false,"area":false,"bogusName":false,"lon":-71.04796479982853,"lat":48.40216488992326,"elevation":[]},{"distance":1623.0179999999998,"relativeDirection":"LEFT","streetName":"Rue des Saguenéens","absoluteDirection":"WEST","stayOn":false,"area":false,"bogusName":false,"lon":-71.0481523,"lat":48.4025155,"elevation":[]},{"distance":77.658,"relativeDirection":"RIGHT","streetName":"path","absoluteDirection":"NORTHEAST","stayOn":false,"area":false,"bogusName":true,"lon":-71.0669515,"lat":48.4073198,"elevation":[]},{"distance":105.758,"relativeDirection":"RIGHT","streetName":"Rue Duhaime","absoluteDirection":"SOUTHEAST","stayOn":false,"area":false,"bogusName":false,"lon":-71.0663385,"lat":48.4078874,"elevation":[]}]}],"tooSloped":false},{"duration":1134,"startTime":1522675630000,"endTime":1522676764000,"walkTime":1015,"transitTime":117,"waitingTime":2,"walkDistance":1301.9737067610222,"walkLimitExceeded":false,"elevationLost":0.0,"elevationGained":0.0,"transfers":0,"legs":[{"startTime":1522675630000,"endTime":1522675858000,"departureDelay":0,"arrivalDelay":0,"realTime":false,"distance":287.862,"pathway":false,"mode":"WALK","route":"","agencyTimeZoneOffset":-14400000,"interlineWithPreviousLeg":false,"from":{"name":"Origin","lon":-71.04745099,"lat":48.402286,"departure":1522675630000,"orig":"","vertexType":"NORMAL"},"to":{"name":"Champs-Élysées / Saguenéens","stopId":"1:84","stopCode":"84","lon":-71.05132,"lat":48.402083,"arrival":1522675858000,"departure":1522675859000,"zoneId":"NA","stopIndex":19,"stopSequence":20,"vertexType":"TRANSIT"},"legGeometry":{"points":"oplfHxpspLeAd@BRCb@fArID^b@`D_@J","length":8},"rentedBike":false,"transitLeg":false,"duration":228.0,"steps":[{"distance":41.37,"relativeDirection":"DEPART","streetName":"bike path","absoluteDirection":"NORTH","stayOn":false,"area":false,"bogusName":false,"lon":-71.04796479982853,"lat":48.40216488992326,"elevation":[]},{"distance":228.3,"relativeDirection":"LEFT","streetName":"Rue des Saguenéens","absoluteDirection":"WEST","stayOn":false,"area":false,"bogusName":false,"lon":-71.0481523,"lat":48.4025155,"elevation":[]},{"distance":18.192,"relativeDirection":"RIGHT","streetName":"Rue des Champs-Élysées","absoluteDirection":"NORTH","stayOn":false,"area":false,"bogusName":false,"lon":-71.0511074,"lat":48.401948700000005,"elevation":[]}]},{"startTime":1522675859000,"endTime":1522675976000,"departureDelay":0,"arrivalDelay":0,"realTime":false,"distance":712.6570320758143,"pathway":false,"mode":"BUS","route":"175","agencyName":"Société de Transport du Saguenay","agencyUrl":"http://ville.saguenay.ca/fr/services-aux-citoyens/transport-sts","agencyTimeZoneOffset":-14400000,"routeColor":"FF00FF","routeType":3,"routeId":"1:175","routeTextColor":"FFFFFF","interlineWithPreviousLeg":false,"tripBlockId":"8","headsign":"Costco","agencyId":"0","tripId":"1:217362","serviceDate":"20180402","from":{"name":"Champs-Élysées / Saguenéens","stopId":"1:84","stopCode":"84","lon":-71.05132,"lat":48.402083,"arrival":1522675858000,"departure":1522675859000,"zoneId":"NA","stopIndex":19,"stopSequence":20,"vertexType":"TRANSIT"},"to":{"name":"boul. Talbot (no. 1494) (Tim-Horton)","stopId":"1:1854","stopCode":"1854","lon":-71.060941,"lat":48.402118,"arrival":1522675976000,"departure":1522675977000,"zoneId":"NA","stopIndex":21,"stopSequence":22,"vertexType":"TRANSIT"},"legGeometry":{"points":"aplfHbetpL^KZ|DJpII~Fa@rFUzBi@bDUxAm@nCcAlDM^RTfD`D","length":14},"routeShortName":"175","routeLongName":"Term. Chic / Costco","rentedBike":false,"transitLeg":true,"duration":117.0,"steps":[]},{"startTime":1522675977000,"endTime":1522676764000,"departureDelay":0,"arrivalDelay":0,"realTime":false,"distance":1013.929,"pathway":false,"mode":"WALK","route":"","agencyTimeZoneOffset":-14400000,"interlineWithPreviousLeg":false,"from":{"name":"boul. Talbot (no. 1494) (Tim-Horton)","stopId":"1:1854","stopCode":"1854","lon":-71.060941,"lat":48.402118,"arrival":1522675976000,"departure":1522675977000,"zoneId":"NA","stopIndex":21,"stopSequence":22,"vertexType":"TRANSIT"},"to":{"name":"Destination","lon":-71.065671,"lat":48.408242,"arrival":1522676764000,"orig":"","vertexType":"NORMAL"},"legGeometry":{"points":"}olfHhavpLgDcDMV_ArBwBxFeA~BaAjAKJkAbA}@v@SDcA~@CB?@gAvA{@dCm@|AGNgBxEGNELqB{BTi@Py@_@g@}@m@","length":26},"rentedBike":false,"transitLeg":false,"duration":787.0,"steps":[{"distance":111.149,"relativeDirection":"DEPART","streetName":"Boulevard Talbot","absoluteDirection":"NORTHEAST","stayOn":false,"area":false,"bogusName":false,"lon":-71.06084575275527,"lat":48.40207691199218,"elevation":[]},{"distance":719.3639999999999,"relativeDirection":"LEFT","streetName":"Rue des Saguenéens","absoluteDirection":"NORTHWEST","stayOn":false,"area":false,"bogusName":false,"lon":-71.0600254,"lat":48.4029151,"elevation":[]},{"distance":77.658,"relativeDirection":"RIGHT","streetName":"path","absoluteDirection":"NORTHEAST","stayOn":false,"area":false,"bogusName":true,"lon":-71.0669515,"lat":48.4073198,"elevation":[]},{"distance":105.758,"relativeDirection":"RIGHT","streetName":"Rue Duhaime","absoluteDirection":"SOUTHEAST","stayOn":false,"area":false,"bogusName":false,"lon":-71.0663385,"lat":48.4078874,"elevation":[]}]}],"tooSloped":false},{"duration":681,"startTime":1522676559000,"endTime":1522677240000,"walkTime":447,"transitTime":232,"waitingTime":2,"walkDistance":559.8739097691472,"walkLimitExceeded":false,"elevationLost":0.0,"elevationGained":0.0,"transfers":0,"legs":[{"startTime":1522676559000,"endTime":1522676846000,"departureDelay":0,"arrivalDelay":0,"realTime":false,"distance":360.08200000000005,"pathway":false,"mode":"WALK","route":"","agencyTimeZoneOffset":-14400000,"interlineWithPreviousLeg":false,"from":{"name":"Origin","lon":-71.04745099,"lat":48.402286,"departure":1522676559000,"orig":"","vertexType":"NORMAL"},"to":{"name":"Engoulevents / Sternes","stopId":"1:1568","stopCode":"1568","lon":-71.050864,"lat":48.400594,"arrival":1522676846000,"departure":1522676847000,"zoneId":"NA","stopIndex":10,"stopSequence":11,"vertexType":"TRANSIT"},"legGeometry":{"points":"oplfHxpspLxAo@FTp@rEXpBRf@j@XN@CzE|@D@?","length":11},"rentedBike":false,"transitLeg":false,"duration":287.0,"steps":[{"distance":53.615,"relativeDirection":"DEPART","streetName":"bike path","absoluteDirection":"SOUTH","stayOn":false,"area":false,"bogusName":false,"lon":-71.04796479982853,"lat":48.40216488992326,"elevation":[]},{"distance":9.183,"relativeDirection":"RIGHT","streetName":"path","absoluteDirection":"SOUTHWEST","stayOn":false,"area":false,"bogusName":true,"lon":-71.0477218,"lat":48.4017105,"elevation":[]},{"distance":180.913,"relativeDirection":"CONTINUE","streetName":"Rue des Martinets","absoluteDirection":"WEST","stayOn":false,"area":false,"bogusName":false,"lon":-71.0478339,"lat":48.4016747,"elevation":[]},{"distance":81.263,"relativeDirection":"RIGHT","streetName":"path","absoluteDirection":"WEST","stayOn":false,"area":false,"bogusName":true,"lon":-71.0498006,"lat":48.400896100000004,"elevation":[]},{"distance":35.108,"relativeDirection":"LEFT","streetName":"Rue des Engoulevents","absoluteDirection":"SOUTH","stayOn":false,"area":false,"bogusName":false,"lon":-71.0509011,"lat":48.400912500000004,"elevation":[]}]},{"startTime":1522676847000,"endTime":1522677079000,"departureDelay":0,"arrivalDelay":0,"realTime":false,"distance":1446.9304237722426,"pathway":false,"mode":"BUS","route":"15","agencyName":"Société de Transport du Saguenay","agencyUrl":"http://ville.saguenay.ca/fr/services-aux-citoyens/transport-sts","agencyTimeZoneOffset":-14400000,"routeColor":"FF00FF","routeType":3,"routeId":"1:15","routeTextColor":"FFFFFF","interlineWithPreviousLeg":false,"tripBlockId":"32","headsign":"Terminus Chicoutimi","agencyId":"0","tripId":"1:218153","serviceDate":"20180402","from":{"name":"Engoulevents / Sternes","stopId":"1:1568","stopCode":"1568","lon":-71.050864,"lat":48.400594,"arrival":1522676846000,"departure":1522676847000,"zoneId":"NA","stopIndex":10,"stopSequence":11,"vertexType":"TRANSIT"},"to":{"name":"Saguenéens (no. 129)","stopId":"1:2000","stopCode":"2000","lon":-71.067064,"lat":48.407463,"arrival":1522677079000,"departure":1522677080000,"zoneId":"NA","stopIndex":16,"stopSequence":17,"vertexType":"TRANSIT"},"legGeometry":{"points":"uflfHxbtpLGAeGT~@~KKrKyAnL[hBUxAm@nCcAlDeCvGmA|CUr@}@~A_@\\_DvCEZcA|@UP_@d@Yl@oBdFeCxG","length":23},"routeShortName":"15","routeLongName":"Term. Chic / Costco","rentedBike":false,"transitLeg":true,"duration":232.0,"steps":[]},{"startTime":1522677080000,"endTime":1522677240000,"departureDelay":0,"arrivalDelay":0,"realTime":false,"distance":199.628,"pathway":false,"mode":"WALK","route":"","agencyTimeZoneOffset":-14400000,"interlineWithPreviousLeg":false,"from":{"name":"Saguenéens (no. 129)","stopId":"1:2000","stopCode":"2000","lon":-71.067064,"lat":48.407463,"arrival":1522677079000,"departure":1522677080000,"zoneId":"NA","stopIndex":16,"stopSequence":17,"vertexType":"TRANSIT"},"to":{"name":"Destination","lon":-71.065671,"lat":48.408242,"arrival":1522677240000,"orig":"","vertexType":"NORMAL"},"legGeometry":{"points":"gqmfHphwpLPa@qB{BTi@Py@_@g@}@m@","length":7},"rentedBike":false,"transitLeg":false,"duration":160.0,"steps":[{"distance":16.212,"relativeDirection":"DEPART","streetName":"Rue des Saguenéens","absoluteDirection":"SOUTHEAST","stayOn":false,"area":false,"bogusName":false,"lon":-71.06712694989164,"lat":48.40740751123809,"elevation":[]},{"distance":77.658,"relativeDirection":"LEFT","streetName":"path","absoluteDirection":"NORTHEAST","stayOn":false,"area":false,"bogusName":true,"lon":-71.0669515,"lat":48.4073198,"elevation":[]},{"distance":105.758,"relativeDirection":"RIGHT","streetName":"Rue Duhaime","absoluteDirection":"SOUTHEAST","stayOn":false,"area":false,"bogusName":false,"lon":-71.0663385,"lat":48.4078874,"elevation":[]}]}],"tooSloped":false}]},"debugOutput":{"precalculationTime":34,"pathCalculationTime":29,"pathTimes":[14,5,10],"renderingTime":1,"totalTime":64,"timedOut":false},"elevationMetadata":{"ellipsoidToGeoidDifference":-28.885904201182168,"geoidElevation":false}}