{"requestParameters":{"date":"2018/04/02","walkSpeed":"1.33","walkReluctance":"2.0","fromPlace":"48.408033,-71.067911","maxWalkDistance":"3000","waitReluctance":"1.0","carSpeed":"33","numItineraries":"3","waitAtBeginningFactor":"0.4","mode":"TRANSIT,WALK","ignoreRealtimeUpdates":"false","stairsReluctance":"2.0","toPlace":"48.306449,-71.11207299","time":"14:0:00"},"plan":{"date":1522692000000,"from":{"name":"Origin","lon":-71.067911,"lat":48.408033,"orig":"","vertexType":"NORMAL"},"to":{"name":"Destination","lon":-71.11207299,"lat":48.306449,"orig":"","vertexType":"NORMAL"},"itineraries":[{"duration":2975,"startTime":1522696514000,"endTime":1522699489000,"walkTime":1009,"transitTime":1964,"waitingTime":2,"walkDistance":1313.252631577249,"walkLimitExceeded":false,"elevationLost":0.0,"elevationGained":0.0,"transfers":0,"legs":[{"startTime":1522696514000,"endTime":1522697235000,"departureDelay":0,"arrivalDelay":0,"realTime":false,"distance":934.7959999999999,"pathway":false,"mode":"WALK","route":"","agencyTimeZoneOffset":-14400000,"interlineWithPreviousLeg":false,"from":{"name":"Origin","lon":-71.067911,"lat":48.408033,"departure":1522696514000,"orig":"","vertexType":"NORMAL"},"to":{"name":"boul. Talbot (no. 1494) (Tim-Horton)","stopId":"1:1854","stopCode":"1854","lon":-71.060941,"lat":48.402118,"arrival":1522697235000,"departure":1522697236000,"zoneId":"NA","stopIndex":2,"stopSequence":3,"vertexType":"TRANSIT"},"legGeometry":{"points":"gtmfHpnwpL~A_E??Pa@DMFOfByEFOl@}Az@eCfAwA?ABCbA_ARE|@w@jAcAJK`AkAdA_CvByF~@sBLWfDbD","length":24},"rentedBike":false,"transitLeg":false,"duration":721.0,"steps":[{"distance":823.6469999999999,"relativeDirection":"DEPART","streetName":"Rue des Saguenéens","absoluteDirection":"SOUTHEAST","stayOn":false,"area":false,"bogusName":false,"lon":-71.06808005227855,"lat":48.407883987966535,"elevation":[]},{"distance":111.149,"relativeDirection":"RIGHT","streetName":"Boulevard Talbot","absoluteDirection":"SOUTHWEST","stayOn":false,"area":false,"bogusName":false,"lon":-71.0600254,"lat":48.4029151,"elevation":[]}]},{"startTime":1522697236000,"endTime":1522697700000,"departureDelay":0,"arrivalDelay":0,"realTime":false,"distance":2880.056948678177,"pathway":false,"mode":"BUS","route":"208S","agencyName":"Société de Transport du Saguenay","agencyUrl":"http://ville.saguenay.ca/fr/services-aux-citoyens/transport-sts","agencyTimeZoneOffset":-14400000,"routeColor":"8B0000","routeType":3,"routeId":"1:208S","routeTextColor":"FFFFFF","interlineWithPreviousLeg":false,"tripBlockId":"107","headsign":"Costco","agencyId":"0","tripId":"1:218820","serviceDate":"20180402","from":{"name":"boul. Talbot (no. 1494) (Tim-Horton)","stopId":"1:1854","stopCode":"1854","lon":-71.060941,"lat":48.402118,"arrival":1522697235000,"departure":1522697236000,"zoneId":"NA","stopIndex":2,"stopSequence":3,"vertexType":"TRANSIT"},"to":{"name":"COSTCO","stopId":"1:1710","stopCode":"1710","lon":-71.085767,"lat":48.382333,"arrival":1522697700000,"departure":1522698000000,"zoneId":"NA","stopIndex":10,"stopSequence":11,"vertexType":"TRANSIT"},"legGeometry":{"points":"_plfHjavpLjF`FjCrCrAvAbCfDjIfMdAzAfFpHd@n@nC`DlXv[j@n@dEfErFvGjDdEbD|DZb@~DrEbDfDrA~AhD~DfGbHpG|GyCtHwBcC","length":25},"routeShortName":"208S","routeLongName":"Séminaire - Laterrière","rentedBike":false,"transitLeg":true,"duration":464.0,"steps":[]},{"startTime":1522698000000,"endTime":1522699200000,"departureDelay":0,"arrivalDelay":0,"realTime":false,"distance":14587.470779787487,"pathway":false,"mode":"BUS","route":"62","agencyName":"Société de Transport du Saguenay","agencyUrl":"http://ville.saguenay.ca/fr/services-aux-citoyens/transport-sts","agencyTimeZoneOffset":-14400000,"routeColor":"00FFFF","routeType":3,"routeId":"1:62","routeTextColor":"000000","interlineWithPreviousLeg":true,"tripBlockId":"107","headsign":"Barrage Port. Roches","agencyId":"0","tripId":"1:218821","serviceDate":"20180402","from":{"name":"COSTCO","stopId":"1:1710","stopCode":"1710","lon":-71.085767,"lat":48.382333,"arrival":1522697700000,"departure":1522698000000,"zoneId":"NA","stopIndex":0,"stopSequence":1,"vertexType":"TRANSIT"},"to":{"name":"Boulevard (no. 1017)","stopId":"1:1723","stopCode":"1723","lon":-71.115166,"lat":48.309087,"arrival":1522699200000,"departure":1522699201000,"zoneId":"NA","stopIndex":15,"stopSequence":16,"vertexType":"TRANSIT"},"legGeometry":{"points":"uthfHh}zpLoB}Bs@`BjChDZbB`@x@PNlFwMHWbFmMBc@~d@skANe@Jk@H_AD_ABuADs@Hk@Lc@N_@X_@ZYbAq@pA]hDuA~UqLAEjJ_EjRiIrJeEdCmAbAs@rAkAbCyC|@cB|@sBpEkN|cA}`D~@wCz@~@~GjH|^d`@fNxNng@di@dJrJ`aAtcA`@d@RZJVNn@Dr@nAp_@HzAHx@ZxAlDzN|DlPjIn]P~@JbB@b@?b@IdAiA|KObAU`A_HfTCDt_AzaA^h@BFDTBV?VATADwBlGCPCl@Jt@pBnG^pBFd@DlAEdCGhCElAg@pG?nAF~@PnAVxAp@lF^`B^dAxAnC@@pAzAr@lAPp@Lj@Dh@HjB@fAWzFA~BQAOAQGWMk@k@QSM[M_@IY_@_AQWSO_DcBUEYLa@VWLYPyGrNeC`GoAzBw@t@kCvBkBvA","length":131},"routeShortName":"62","routeLongName":"Portage des Roches Sud","rentedBike":false,"transitLeg":true,"duration":1200.0,"steps":[]},{"startTime":1522699201000,"endTime":1522699489000,"departureDelay":0,"arrivalDelay":0,"realTime":false,"distance":378.404,"pathway":false,"mode":"WALK","route":"","agencyTimeZoneOffset":-14400000,"interlineWithPreviousLeg":false,"from":{"name":"Boulevard (no. 1017)","stopId":"1:1723","stopCode":"1723","lon":-71.115166,"lat":48.309087,"arrival":1522699200000,"departure":1522699201000,"zoneId":"NA","stopIndex":15,"stopSequence":16,"vertexType":"TRANSIT"},"to":{"name":"Destination","lon":-71.11207299,"lat":48.306449,"arrival":1522699489000,"orig":"","vertexType":"NORMAL"},"legGeometry":{"points":"qjzeHhu`qLBCjGcFp@y@d@u@jAwC^w@h@qADG","length":9},"rentedBike":false,"transitLeg":false,"duration":288.0,"steps":[{"distance":378.404,"relativeDirection":"DEPART","streetName":"Rue du Boulevard","absoluteDirection":"SOUTHEAST","stayOn":false,"area":false,"bogusName":false,"lon":-71.11524463993662,"lat":48.30905749725426,"elevation":[]}]}],"tooSloped":false},{"duration":5297,"startTime":1522695054000,"endTime":1522700351000,"walkTime":1099,"transitTime":1292,"waitingTime":2906,"walkDistance":1425.9773233057108,"walkLimitExceeded":false,"elevationLost":0.0,"elevationGained":0.0,"transfers":2,"legs":[{"startTime":1522695054000,"endTime":1522695775000,"departureDelay":0,"arrivalDelay":0,"realTime":false,"distance":934.7959999999999,"pathway":false,"mode":"WALK","route":"","agencyTimeZoneOffset":-14400000,"interlineWithPreviousLeg":false,"from":{"name":"Origin","lon":-71.067911,"lat":48.408033,"departure":1522695054000,"orig":"","vertexType":"NORMAL"},"to":{"name":"boul. Talbot (no. 1494) (Tim-Horton)","stopId":"1:1854","stopCode":"1854","lon":-71.060941,"lat":48.402118,"arrival":1522695775000,"departure":1522695776000,"zoneId":"NA","stopIndex":21,"stopSequence":22,"vertexType":"TRANSIT"},"legGeometry":{"points":"gtmfHpnwpL~A_E??Pa@DMFOfByEFOl@}Az@eCfAwA?ABCbA_ARE|@w@jAcAJK`AkAdA_CvByF~@sBLWfDbD","length":24},"rentedBike":false,"transitLeg":false,"duration":721.0,"steps":[{"distance":823.6469999999999,"relativeDirection":"DEPART","streetName":"Rue des Saguenéens","absoluteDirection":"SOUTHEAST","stayOn":false,"area":false,"bogusName":false,"lon":-71.06808005227855,"lat":48.407883987966535,"elevation":[]},{"distance":111.149,"relativeDirection":"RIGHT","streetName":"Boulevard Talbot","absoluteDirection":"SOUTHWEST","stayOn":false,"area":false,"bogusName":false,"lon":-71.0600254,"lat":48.4029151,"elevation":[]}]},{"startTime":1522695776000,"endTime":1522696320000,"departureDelay":0,"arrivalDelay":0,"realTime":false,"distance":2957.6941281470627,"pathway":false,"mode":"BUS","route":"175","agencyName":"Société de Transport du Saguenay","agencyUrl":"http://ville.saguenay.ca/fr/services-aux-citoyens/transport-sts","agencyTimeZoneOffset":-14400000,"routeColor":"FF00FF","routeType":3,"routeId":"1:175","routeTextColor":"FFFFFF","interlineWithPreviousLeg":false,"tripBlockId":"7","headsign":"Costco","agencyId":"0","tripId":"1:217337","serviceDate":"20180402","from":{"name":"boul. Talbot (no. 1494) (Tim-Horton)","stopId":"1:1854","stopCode":"1854","lon":-71.060941,"lat":48.402118,"arrival":1522695775000,"departure":1522695776000,"zoneId":"NA","stopIndex":21,"stopSequence":22,"vertexType":"TRANSIT"},"to":{"name":"COSTCO","stopId":"1:1710","stopCode":"1710","lon":-71.085767,"lat":48.382333,"arrival":1522696320000,"departure":1522698000000,"zoneId":"NA","stopIndex":30,"stopSequence":31,"vertexType":"TRANSIT"},"legGeometry":{"points":"_plfHjavpLjF`FjCrCrAvAbCfDjIfMdAzAfFpHd@n@nC`DlXv[b@f@mCtHv@v@p@r@_@p@uAcBjDoJhAzApBrBrFvGjDdEbD|DZb@~DrEbDfDrA~ApLbNpG|GyCtHwBcC","length":31},"routeShortName":"175","routeLongName":"Term. Chic / Costco","rentedBike":false,"transitLeg":true,"duration":544.0,"steps":[]},{"startTime":1522698000000,"endTime":1522698660000,"departureDelay":0,"arrivalDelay":0,"realTime":false,"distance":11310.942132351696,"pathway":false,"mode":"BUS","route":"60","agencyName":"Société de Transport du Saguenay","agencyUrl":"http://ville.saguenay.ca/fr/services-aux-citoyens/transport-sts","agencyTimeZoneOffset":-14400000,"routeColor":"00FFFF","routeType":3,"routeId":"1:60","routeTextColor":"000000","interlineWithPreviousLeg":false,"tripBlockId":"95","headsign":"chemin Portageurs","agencyId":"0","tripId":"1:218716","serviceDate":"20180402","from":{"name":"COSTCO","stopId":"1:1710","stopCode":"1710","lon":-71.085767,"lat":48.382333,"arrival":1522696320000,"departure":1522698000000,"zoneId":"NA","stopIndex":0,"stopSequence":1,"vertexType":"TRANSIT"},"to":{"name":"Boulevard / boul. Talbot","stopId":"1:1767","stopCode":"1767","lon":-71.134005,"lat":48.318019,"arrival":1522698660000,"departure":1522698660000,"zoneId":"NA","stopIndex":8,"stopSequence":9,"vertexType":"TRANSIT"},"legGeometry":{"points":"uthfHh}zpLoB}Bs@`BjChDZbB`@x@iDvI}@fC_AvC[jAi@`CUbBUxBUdCIlD]to@K`IEt@ElBQlEMrBWvDa@jEq@nFa@rC_AnFi@bCo@pCiAbEyCdJNZPTfApA~DjFxFfFzAdBbA`BlA|Bt@z@z@x@zAhAbBjAfKlGz@~@vApBbApAbDdDdExDLJpIjIvAzBlBdDbAbBfAtAt@|@|@~@tHhHhBlCrCfFx@fAT^bA`AjC~BdI~JpGjHt@bA`AdAvb@xf@`EvEjFjFxAtAd@j@l@z@xC`Fn@v@NNNJ^Xj@Xv@Zz@ZND`@Lx@Rp@LXDrDH|@?p@?VCN?D?VK`@ONIZUVS^]Zc@t@wATs@P}@F_@Jm@JcA@QPsA\\uBXuAdAqDLe@H]zAuHd@kBzAuFXy@NYXg@f@g@|@{@dAy@vC{Br@m@RQRWVa@b@_AdC}Gn@aBl@{Aj@oATe@b@i@\\Y\\Qd@QvDy@r@Ud@Up@i@Z[X]^i@LUL_@^gAxGgUVaAPq@PaAL{@Fq@@eACoBKwFAiCD_AFe@V_AbVqq@Pw@bl@bm@~A|AtE|DnEnDjDdCf`@vVbCdBnAfAjClCsA|D","length":171},"routeShortName":"60","routeLongName":"Portage des Roches Nord","rentedBike":false,"transitLeg":true,"duration":660.0,"steps":[]},{"startTime":1522698660000,"endTime":1522698908000,"departureDelay":0,"arrivalDelay":0,"realTime":false,"distance":327.03,"pathway":false,"mode":"WALK","route":"","agencyTimeZoneOffset":-14400000,"interlineWithPreviousLeg":false,"from":{"name":"Boulevard / boul. Talbot","stopId":"1:1767","stopCode":"1767","lon":-71.134005,"lat":48.318019,"arrival":1522698660000,"departure":1522698660000,"zoneId":"NA","stopIndex":8,"stopSequence":9,"vertexType":"TRANSIT"},"to":{"name":"Boulevard (no. 1557)","stopId":"1:2127","stopCode":"2127","lon":-71.130498,"lat":48.316221,"arrival":1522698908000,"departure":1522700132000,"zoneId":"NA","stopIndex":8,"stopSequence":9,"vertexType":"TRANSIT"},"legGeometry":{"points":"ib|eHxjdqLpAuD\\q@|@cC`DgJ","length":5},"rentedBike":false,"transitLeg":false,"duration":248.0,"steps":[{"distance":327.03,"relativeDirection":"DEPART","streetName":"Rue du Boulevard","absoluteDirection":"SOUTHEAST","stayOn":false,"area":false,"bogusName":false,"lon":-71.13404981163029,"lat":48.317975470719105,"elevation":[]}]},{"startTime":1522700132000,"endTime":1522700220000,"departureDelay":0,"arrivalDelay":0,"realTime":false,"distance":1776.1606211812295,"pathway":false,"mode":"BUS","route":"62","agencyName":"Société de Transport du Saguenay","agencyUrl":"http://ville.saguenay.ca/fr/services-aux-citoyens/transport-sts","agencyTimeZoneOffset":-14400000,"routeColor":"00FFFF","routeType":3,"routeId":"1:62","routeTextColor":"000000","interlineWithPreviousLeg":false,"tripBlockId":"107","headsign":"Costco","agencyId":"0","tripId":"1:218822","serviceDate":"20180402","from":{"name":"Boulevard (no. 1557)","stopId":"1:2127","stopCode":"2127","lon":-71.130498,"lat":48.316221,"arrival":1522698908000,"departure":1522700132000,"zoneId":"NA","stopIndex":8,"stopSequence":9,"vertexType":"TRANSIT"},"to":{"name":"Notre-Dame / Gauthier","stopId":"1:1737","stopCode":"1737","lon":-71.110501,"lat":48.307493,"arrival":1522700220000,"departure":1522700221000,"zoneId":"NA","stopIndex":14,"stopSequence":15,"vertexType":"TRANSIT"},"legGeometry":{"points":"uw{eHhtcqL`KqYbDiJpIeV|IcWv@{Bh@cAf@u@Z]l@e@dBsAjCwBv@u@nA{BdCaGOOqAoBwA{B[i@","length":19},"routeShortName":"62","routeLongName":"Portage des Roches Sud","rentedBike":false,"transitLeg":true,"duration":88.0,"steps":[]},{"startTime":1522700221000,"endTime":1522700351000,"departureDelay":0,"arrivalDelay":0,"realTime":false,"distance":164.072,"pathway":false,"mode":"WALK","route":"","agencyTimeZoneOffset":-14400000,"interlineWithPreviousLeg":false,"from":{"name":"Notre-Dame / Gauthier","stopId":"1:1737","stopCode":"1737","lon":-71.110501,"lat":48.307493,"arrival":1522700220000,"departure":1522700221000,"zoneId":"NA","stopIndex":14,"stopSequence":15,"vertexType":"TRANSIT"},"to":{"name":"Destination","lon":-71.11207299,"lat":48.306449,"arrival":1522700351000,"orig":"","vertexType":"NORMAL"},"legGeometry":{"points":"cazeHdx_qLFLNVvDbGDG","length":5},"rentedBike":false,"transitLeg":false,"duration":130.0,"steps":[{"distance":160.031,"relativeDirection":"DEPART","streetName":"Rue Notre-Dame","absoluteDirection":"SOUTHWEST","stayOn":false,"area":false,"bogusName":false,"lon":-71.11058814414332,"lat":48.30754888257977,"elevation":[]},{"distance":4.041,"relativeDirection":"LEFT","streetName":"Rue du Boulevard","absoluteDirection":"SOUTHEAST","stayOn":false,"area":false,"bogusName":false,"lon":-71.1120744,"lat":48.306503000000006,"elevation":[]}]}],"tooSloped":false},{"duration":7794,"startTime":1522693255000,"endTime":1522701049000,"walkTime":1642,"transitTime":5550,"waitingTime":602,"walkDistance":2166.4000977430996,"walkLimitExceeded":false,"elevationLost":0.0,"elevationGained":0.0,"transfers":2,"legs":[{"startTime":1522693255000,"endTime":1522693301000,"departureDelay":0,"arrivalDelay":0,"realTime":false,"distance":60.291,"pathway":false,"mode":"WALK","route":"","agencyTimeZoneOffset":-14400000,"interlineWithPreviousLeg":false,"from":{"name":"Origin","lon":-71.067911,"lat":48.408033,"departure":1522693255000,"orig":"","vertexType":"NORMAL"},"to":{"name":"Saguenéens / Bégin","stopId":"1:578","stopCode":"578","lon":-71.068617,"lat":48.408312,"arrival":1522693301000,"departure":1522693302000,"zoneId":"NA","stopIndex":17,"stopSequence":18,"vertexType":"TRANSIT"},"legGeometry":{"points":"gtmfHpnwpLaA`C","length":2},"rentedBike":false,"transitLeg":false,"duration":46.0,"steps":[{"distance":60.291,"relativeDirection":"DEPART","streetName":"Rue des Saguenéens","absoluteDirection":"NORTHWEST","stayOn":false,"area":false,"bogusName":false,"lon":-71.06808005227855,"lat":48.407883987966535,"elevation":[]}]},{"startTime":1522693302000,"endTime":1522694280000,"departureDelay":0,"arrivalDelay":0,"realTime":false,"distance":4974.112978691983,"pathway":false,"mode":"BUS","route":"15","agencyName":"Société de Transport du Saguenay","agencyUrl":"http://ville.saguenay.ca/fr/services-aux-citoyens/transport-sts","agencyTimeZoneOffset":-14400000,"routeColor":"FF00FF","routeType":3,"routeId":"1:15","routeTextColor":"FFFFFF","interlineWithPreviousLeg":false,"tripBlockId":"30","headsign":"Terminus Chicoutimi","agencyId":"0","tripId":"1:218102","serviceDate":"20180402","from":{"name":"Saguenéens / Bégin","stopId":"1:578","stopCode":"578","lon":-71.068617,"lat":48.408312,"arrival":1522693301000,"departure":1522693302000,"zoneId":"NA","stopIndex":17,"stopSequence":18,"vertexType":"TRANSIT"},"to":{"name":"Terminus Chicoutimi","stopId":"1:1289","stopCode":"1289","lon":-71.066163,"lat":48.428677,"arrival":1522694280000,"departure":1522694700000,"zoneId":"NA","stopIndex":39,"stopSequence":40,"vertexType":"TRANSIT"},"legGeometry":{"points":"qvmfHlrwpLS\\dK|HlFZbC\\p@zA\\rB@hBiArG{BNw@FiG}@iDwAECcCcBo@y@sEeGe@o@qAa@m@MoB?C@}BZwAc@oA_Bs@gDCKZ{Di@QECc@_@sAkAoBwB_EcE{A_BoAmAk@o@cCaCkIkIaJaJUUwBaCj@wCjAsCzGoG_CoHL{D_@kAqD{CQr@iAcAy@w@L{@wAuA_B_B_EpLDh@NbBVvCIxBg@`Am@l@Sb@a@rAqDqDmEkE]a@kAqAU|@WnKG|DGxDOdPKvJU|F?XQlJC~@ChAIzEcCOaIi@VwL","length":83},"routeShortName":"15","routeLongName":"Term. Chic / Costco","rentedBike":false,"transitLeg":true,"duration":978.0,"steps":[]},{"startTime":1522694700000,"endTime":1522695372000,"departureDelay":0,"arrivalDelay":0,"realTime":false,"distance":8888.492212222136,"pathway":false,"mode":"BUS","route":"3","agencyName":"Société de Transport du Saguenay","agencyUrl":"http://ville.saguenay.ca/fr/services-aux-citoyens/transport-sts","agencyTimeZoneOffset":-14400000,"routeColor":"FF0000","routeType":3,"routeId":"1:3","routeTextColor":"FFFFFF","interlineWithPreviousLeg":false,"tripBlockId":"10","headsign":"Terminus Jonquière","agencyId":"0","tripId":"1:217443","serviceDate":"20180402","from":{"name":"Terminus Chicoutimi","stopId":"1:1289","stopCode":"1289","lon":-71.066163,"lat":48.428677,"arrival":1522694280000,"departure":1522694700000,"zoneId":"NA","stopIndex":0,"stopSequence":1,"vertexType":"TRANSIT"},"to":{"name":"boul. Saguenay / Joule","stopId":"1:175","stopCode":"175","lon":-71.183161,"lat":48.432866,"arrival":1522695372000,"departure":1522695372000,"zoneId":"NA","stopIndex":14,"stopSequence":15,"vertexType":"TRANSIT"},"legGeometry":{"points":"evqfHzcwpLi@?UhKoBKcBts@OjC]fCg@~BsId[{DrNqB|HSl@YnAMfAOnAo@nMCp@YtKIzBADEhCkAzPEx@?R?zBAbCg@zJC\\MtDi@xa@ElAItAO`AIr@ANwAvNOdCG`BGdAArC?j@?jBIvPEjBIpAI`BEp@a@dE{ArLa@vD??_@hDkAlH[lCEb@MxAg@hI_@fIItACr@EjBCrA?h@@t@Bp@Fn@Jp@\\fBZxArH~VVx@|@lDxAtENf@Rt@Pn@ZlBT~CD`E?pFC`G?x@Ell@DbHN`ELrCH`CZbGNnCBz@hBp^LbDNzC?BVxCTdFbA`RDr@t@lOJnDTNbAt@p@f@mB|BQDd@nNFzB@j@Ab@CX??A@?@??A@?@???@A@?@?B?@?@A@?@?B?@@@?@?B?@?@@@?@@@?@@@???@@@???@@???@@@@@bAAfP","length":148},"routeShortName":"3","routeLongName":"Chic/Jonq via Boul. Saguenay","rentedBike":false,"transitLeg":true,"duration":672.0,"steps":[]},{"startTime":1522695372000,"endTime":1522695420000,"departureDelay":0,"arrivalDelay":0,"realTime":false,"distance":60.888000000000005,"pathway":false,"mode":"WALK","route":"","agencyTimeZoneOffset":-14400000,"interlineWithPreviousLeg":false,"from":{"name":"boul. Saguenay / Joule","stopId":"1:175","stopCode":"175","lon":-71.183161,"lat":48.432866,"arrival":1522695372000,"departure":1522695372000,"zoneId":"NA","stopIndex":14,"stopSequence":15,"vertexType":"TRANSIT"},"to":{"name":"École secondaire Riverside","stopId":"1:1900","stopCode":"1900","lon":-71.183399,"lat":48.433267,"arrival":1522695420000,"departure":1522695600000,"zoneId":"NA","stopIndex":0,"stopSequence":1,"vertexType":"TRANSIT"},"legGeometry":{"points":"aprfHx}mqL?ZyA?","length":3},"rentedBike":false,"transitLeg":false,"duration":48.0,"steps":[{"distance":10.362,"relativeDirection":"DEPART","streetName":"Boulevard du Saguenay","absoluteDirection":"WEST","stayOn":false,"area":false,"bogusName":false,"lon":-71.18316164770339,"lat":48.43281186028038,"elevation":[]},{"distance":50.526,"relativeDirection":"RIGHT","streetName":"Rue Joule","absoluteDirection":"NORTH","stayOn":false,"area":false,"bogusName":false,"lon":-71.1833021,"lat":48.432812600000005,"elevation":[]}]},{"startTime":1522695600000,"endTime":1522699500000,"departureDelay":0,"arrivalDelay":0,"realTime":false,"distance":14455.107968173932,"pathway":false,"mode":"BUS","route":"11R","agencyName":"Société de Transport du Saguenay","agencyUrl":"http://ville.saguenay.ca/fr/services-aux-citoyens/transport-sts","agencyTimeZoneOffset":-14400000,"routeColor":"FFFF00","routeType":3,"routeId":"1:11R","routeTextColor":"000000","interlineWithPreviousLeg":false,"headsign":"Église / St-Isidore","agencyId":"0","tripId":"1:218672","serviceDate":"20180402","from":{"name":"École secondaire Riverside","stopId":"1:1900","stopCode":"1900","lon":-71.183399,"lat":48.433267,"arrival":1522695420000,"departure":1522695600000,"zoneId":"NA","stopIndex":0,"stopSequence":1,"vertexType":"TRANSIT"},"to":{"name":"Église / St-Isidore","stopId":"1:357","stopCode":"357","lon":-71.091499,"lat":48.318493,"arrival":1522699500000,"departure":1522699501000,"zoneId":"NA","stopIndex":1,"stopSequence":2,"vertexType":"TRANSIT"},"legGeometry":{"points":"{rrfHx~mqLmAEptU{oPgC{L","length":4},"routeShortName":"11R","routeLongName":"Riveside Jaune (Laterrière)","rentedBike":false,"transitLeg":true,"duration":3900.0,"steps":[]},{"startTime":1522699501000,"endTime":1522701049000,"departureDelay":0,"arrivalDelay":0,"realTime":false,"distance":2045.182,"pathway":false,"mode":"WALK","route":"","agencyTimeZoneOffset":-14400000,"interlineWithPreviousLeg":false,"from":{"name":"Église / St-Isidore","stopId":"1:357","stopCode":"357","lon":-71.091499,"lat":48.318493,"arrival":1522699500000,"departure":1522699501000,"zoneId":"NA","stopIndex":1,"stopSequence":2,"vertexType":"TRANSIT"},"to":{"name":"Destination","lon":-71.11207299,"lat":48.306449,"arrival":1522701049000,"orig":"","vertexType":"NORMAL"},"legGeometry":{"points":"ce|eHp`|pLNl@~FdU`@`Bt@|AxRbb@rH`Pb@fAbGdGhClCtAvBxBjGv@|AtBhDx@pAFLNVvDbGDG","length":19},"rentedBike":false,"transitLeg":false,"duration":1548.0,"steps":[{"distance":2041.141,"relativeDirection":"DEPART","streetName":"Rue Notre-Dame","absoluteDirection":"SOUTHWEST","stayOn":false,"area":false,"bogusName":false,"lon":-71.09144671011805,"lat":48.31842126922282,"elevation":[]},{"distance":4.041,"relativeDirection":"LEFT","streetName":"Rue du Boulevard","absoluteDirection":"SOUTHEAST","stayOn":false,"area":false,"bogusName":false,"lon":-71.1120744,"lat":48.306503000000006,"elevation":[]}]}],"tooSloped":false}]},"debugOutput":{"precalculationTime":25,"pathCalculationTime":107,"pathTimes":[31,36,40],"renderingTime":1,"totalTime":133,"timedOut":false},"elevationMetadata":{"ellipsoidToGeoidDifference":-28.885904201182168,"geoidElevation":false}}