{"requestParameters":{"date":"2018/04/02","walkSpeed":"1.33","walkReluctance":"2.0","fromPlace":"48.405294,-71.065192","maxWalkDistance":"3000","waitReluctance":"1.0","carSpeed":"33","numItineraries":"3","waitAtBeginningFactor":"0.4","mode":"TRANSIT,WALK","ignoreRealtimeUpdates":"false","stairsReluctance":"2.0","toPlace":"48.401828,-71.05741799","time":"12:30:00"},"plan":{"date":1522686600000,"from":{"name":"Origin","lon":-71.065192,"lat":48.405294,"orig":"","vertexType":"NORMAL"},"to":{"name":"Destination","lon":-71.05741799,"lat":48.401828,"orig":"","vertexType":"NORMAL"},"itineraries":[{"duration":379,"startTime":1522686742000,"endTime":1522687121000,"walkTime":251,"transitTime":126,"waitingTime":2,"walkDistance":308.0111804471854,"walkLimitExceeded":false,"elevationLost":0.0,"elevationGained":0.0,"transfers":0,"legs":[{"startTime":1522686742000,"endTime":1522686893000,"departureDelay":0,"arrivalDelay":0,"realTime":false,"distance":188.076,"pathway":false,"mode":"WALK","route":"","agencyTimeZoneOffset":-14400000,"interlineWithPreviousLeg":false,"from":{"name":"Origin","lon":-71.065192,"lat":48.405294,"departure":1522686742000,"orig":"","vertexType":"NORMAL"},"to":{"name":"Saguenéens / Maristes","stopId":"1:1999","stopCode":"1999","lon":-71.06394,"lat":48.405813,"arrival":1522686893000,"departure":1522686894000,"zoneId":"NA","stopIndex":21,"stopSequence":22,"vertexType":"TRANSIT"},"legGeometry":{"points":"ecmfH`}vpL`@kBF]GEOIiAaDcA~@","length":7},"rentedBike":false,"transitLeg":false,"duration":151.0,"steps":[{"distance":56.415,"relativeDirection":"DEPART","streetName":"Rue Berthiaume","absoluteDirection":"SOUTHEAST","stayOn":false,"area":false,"bogusName":false,"lon":-71.06528779017859,"lat":48.40515699929921,"elevation":[]},{"distance":87.389,"relativeDirection":"LEFT","streetName":"Rue Des Maristes","absoluteDirection":"NORTHEAST","stayOn":false,"area":false,"bogusName":false,"lon":-71.0645946,"lat":48.4049434,"elevation":[]},{"distance":44.272,"relativeDirection":"LEFT","streetName":"Rue des Saguenéens","absoluteDirection":"NORTHWEST","stayOn":false,"area":false,"bogusName":false,"lon":-71.0637066,"lat":48.4054395,"elevation":[]}]},{"startTime":1522686894000,"endTime":1522687020000,"departureDelay":0,"arrivalDelay":0,"realTime":false,"distance":611.0942250004952,"pathway":false,"mode":"BUS","route":"15","agencyName":"Société de Transport du Saguenay","agencyUrl":"http://ville.saguenay.ca/fr/services-aux-citoyens/transport-sts","agencyTimeZoneOffset":-14400000,"routeColor":"FF00FF","routeType":3,"routeId":"1:15","routeTextColor":"FFFFFF","interlineWithPreviousLeg":false,"tripBlockId":"33","headsign":"Talbot / Barrette","agencyId":"0","tripId":"1:218183","serviceDate":"20180402","from":{"name":"Saguenéens / Maristes","stopId":"1:1999","stopCode":"1999","lon":-71.06394,"lat":48.405813,"arrival":1522686893000,"departure":1522686894000,"zoneId":"NA","stopIndex":21,"stopSequence":22,"vertexType":"TRANSIT"},"to":{"name":"Place du Royaume (Saguenéens)","stopId":"1:1294","stopCode":"1294","lon":-71.057691,"lat":48.402355,"arrival":1522687020000,"departure":1522687021000,"zoneId":"NA","stopIndex":24,"stopSequence":25,"vertexType":"TRANSIT"},"legGeometry":{"points":"{emfHpvvpLtDsH~DeItC{FnBoL","length":5},"routeShortName":"15","routeLongName":"Term. Chic / Costco","rentedBike":false,"transitLeg":true,"duration":126.0,"steps":[]},{"startTime":1522687021000,"endTime":1522687121000,"departureDelay":0,"arrivalDelay":0,"realTime":false,"distance":119.813,"pathway":false,"mode":"WALK","route":"","agencyTimeZoneOffset":-14400000,"interlineWithPreviousLeg":false,"from":{"name":"Place du Royaume (Saguenéens)","stopId":"1:1294","stopCode":"1294","lon":-71.057691,"lat":48.402355,"arrival":1522687020000,"departure":1522687021000,"zoneId":"NA","stopIndex":24,"stopSequence":25,"vertexType":"TRANSIT"},"to":{"name":"Destination","lon":-71.05741799,"lat":48.401828,"arrival":1522687121000,"orig":"","vertexType":"NORMAL"},"legGeometry":{"points":"iqlfHxmupLj@wDVLQtA","length":4},"rentedBike":false,"transitLeg":false,"duration":100.0,"steps":[{"distance":72.296,"relativeDirection":"DEPART","streetName":"Rue des Saguenéens","absoluteDirection":"EAST","stayOn":false,"area":false,"bogusName":false,"lon":-71.05772328170832,"lat":48.402297506554895,"elevation":[]},{"distance":47.516999999999996,"relativeDirection":"UTURN_RIGHT","streetName":"Rue des Saguenéens","absoluteDirection":"WEST","stayOn":true,"area":false,"bogusName":false,"lon":-71.05687660000001,"lat":48.401952300000005,"elevation":[]}]}],"tooSloped":false},{"duration":594,"startTime":1522686600000,"endTime":1522687194000,"walkTime":594,"transitTime":0,"waitingTime":0,"walkDistance":765.1061052601858,"walkLimitExceeded":false,"elevationLost":0.0,"elevationGained":0.0,"transfers":0,"legs":[{"startTime":1522686600000,"endTime":1522687194000,"departureDelay":0,"arrivalDelay":0,"realTime":false,"distance":765.0139999999999,"pathway":false,"mode":"WALK","route":"","agencyTimeZoneOffset":-14400000,"interlineWithPreviousLeg":false,"from":{"name":"Origin","lon":-71.065192,"lat":48.405294,"departure":1522686600000,"orig":"","vertexType":"NORMAL"},"to":{"name":"Destination","lon":-71.05741799,"lat":48.401828,"arrival":1522687194000,"orig":"","vertexType":"NORMAL"},"legGeometry":{"points":"ecmfH`}vpL`@kBF]GEOIiAaDRE|@w@jAcAJK`AkAdA_CvByF~@sBLWL[p@iC`@cBh@mCFUXqB","length":21},"rentedBike":false,"transitLeg":false,"duration":594.0,"steps":[{"distance":56.415,"relativeDirection":"DEPART","streetName":"Rue Berthiaume","absoluteDirection":"SOUTHEAST","stayOn":false,"area":false,"bogusName":false,"lon":-71.06528779017859,"lat":48.40515699929921,"elevation":[]},{"distance":87.389,"relativeDirection":"LEFT","streetName":"Rue Des Maristes","absoluteDirection":"NORTHEAST","stayOn":false,"area":false,"bogusName":false,"lon":-71.0645946,"lat":48.4049434,"elevation":[]},{"distance":621.21,"relativeDirection":"RIGHT","streetName":"Rue des Saguenéens","absoluteDirection":"SOUTH","stayOn":false,"area":false,"bogusName":false,"lon":-71.0637066,"lat":48.4054395,"elevation":[]}]}],"tooSloped":false},{"duration":379,"startTime":1522688542000,"endTime":1522688921000,"walkTime":251,"transitTime":126,"waitingTime":2,"walkDistance":308.0111804471854,"walkLimitExceeded":false,"elevationLost":0.0,"elevationGained":0.0,"transfers":0,"legs":[{"startTime":1522688542000,"endTime":1522688693000,"departureDelay":0,"arrivalDelay":0,"realTime":false,"distance":188.076,"pathway":false,"mode":"WALK","route":"","agencyTimeZoneOffset":-14400000,"interlineWithPreviousLeg":false,"from":{"name":"Origin","lon":-71.065192,"lat":48.405294,"departure":1522688542000,"orig":"","vertexType":"NORMAL"},"to":{"name":"Saguenéens / Maristes","stopId":"1:1999","stopCode":"1999","lon":-71.06394,"lat":48.405813,"arrival":1522688693000,"departure":1522688694000,"zoneId":"NA","stopIndex":21,"stopSequence":22,"vertexType":"TRANSIT"},"legGeometry":{"points":"ecmfH`}vpL`@kBF]GEOIiAaDcA~@","length":7},"rentedBike":false,"transitLeg":false,"duration":151.0,"steps":[{"distance":56.415,"relativeDirection":"DEPART","streetName":"Rue Berthiaume","absoluteDirection":"SOUTHEAST","stayOn":false,"area":false,"bogusName":false,"lon":-71.06528779017859,"lat":48.40515699929921,"elevation":[]},{"distance":87.389,"relativeDirection":"LEFT","streetName":"Rue Des Maristes","absoluteDirection":"NORTHEAST","stayOn":false,"area":false,"bogusName":false,"lon":-71.0645946,"lat":48.4049434,"elevation":[]},{"distance":44.272,"relativeDirection":"LEFT","streetName":"Rue des Saguenéens","absoluteDirection":"NORTHWEST","stayOn":false,"area":false,"bogusName":false,"lon":-71.0637066,"lat":48.4054395,"elevation":[]}]},{"startTime":1522688694000,"endTime":1522688820000,"departureDelay":0,"arrivalDelay":0,"realTime":false,"distance":611.0942250004952,"pathway":false,"mode":"BUS","route":"15","agencyName":"Société de Transport du Saguenay","agencyUrl":"http://ville.saguenay.ca/fr/services-aux-citoyens/transport-sts","agencyTimeZoneOffset":-14400000,"routeColor":"FF00FF","routeType":3,"routeId":"1:15","routeTextColor":"FFFFFF","interlineWithPreviousLeg":false,"tripBlockId":"31","headsign":"Talbot / Barrette","agencyId":"0","tripId":"1:218134","serviceDate":"20180402","from":{"name":"Saguenéens / Maristes","stopId":"1:1999","stopCode":"1999","lon":-71.06394,"lat":48.405813,"arrival":1522688693000,"departure":1522688694000,"zoneId":"NA","stopIndex":21,"stopSequence":22,"vertexType":"TRANSIT"},"to":{"name":"Place du Royaume (Saguenéens)","stopId":"1:1294","stopCode":"1294","lon":-71.057691,"lat":48.402355,"arrival":1522688820000,"departure":1522688821000,"zoneId":"NA","stopIndex":24,"stopSequence":25,"vertexType":"TRANSIT"},"legGeometry":{"points":"{emfHpvvpLtDsH~DeItC{FnBoL","length":5},"routeShortName":"15","routeLongName":"Term. Chic / Costco","rentedBike":false,"transitLeg":true,"duration":126.0,"steps":[]},{"startTime":1522688821000,"endTime":1522688921000,"departureDelay":0,"arrivalDelay":0,"realTime":false,"distance":119.813,"pathway":false,"mode":"WALK","route":"","agencyTimeZoneOffset":-14400000,"interlineWithPreviousLeg":false,"from":{"name":"Place du Royaume (Saguenéens)","stopId":"1:1294","stopCode":"1294","lon":-71.057691,"lat":48.402355,"arrival":1522688820000,"departure":1522688821000,"zoneId":"NA","stopIndex":24,"stopSequence":25,"vertexType":"TRANSIT"},"to":{"name":"Destination","lon":-71.05741799,"lat":48.401828,"arrival":1522688921000,"orig":"","vertexType":"NORMAL"},"legGeometry":{"points":"iqlfHxmupLj@wDVLQtA","length":4},"rentedBike":false,"transitLeg":false,"duration":100.0,"steps":[{"distance":72.296,"relativeDirection":"DEPART","streetName":"Rue des Saguenéens","absoluteDirection":"EAST","stayOn":false,"area":false,"bogusName":false,"lon":-71.05772328170832,"lat":48.402297506554895,"elevation":[]},{"distance":47.516999999999996,"relativeDirection":"UTURN_RIGHT","streetName":"Rue des Saguenéens","absoluteDirection":"WEST","stayOn":true,"area":false,"bogusName":false,"lon":-71.05687660000001,"lat":48.401952300000005,"elevation":[]}]}],"tooSloped":false}]},"debugOutput":{"precalculationTime":34,"pathCalculationTime":18,"pathTimes":[10,5,3],"renderingTime":0,"totalTime":52,"timedOut":false},"elevationMetadata":{"ellipsoidToGeoidDifference":-28.885904201182168,"geoidElevation":false}}