{"requestParameters":{"date":"2018/04/02","walkSpeed":"1.33","walkReluctance":"2.0","fromPlace":"48.404745,-71.068914","maxWalkDistance":"3000","waitReluctance":"1.0","carSpeed":"33","numItineraries":"3","waitAtBeginningFactor":"0.4","mode":"TRANSIT,WALK","ignoreRealtimeUpdates":"false","stairsReluctance":"2.0","toPlace":"48.406583,-71.09023799","time":"12:45:00"},"plan":{"date":1522687500000,"from":{"name":"Origin","lon":-71.068914,"lat":48.404745,"orig":"","vertexType":"NORMAL"},"to":{"name":"Destination","lon":-71.09023799,"lat":48.406583,"orig":"","vertexType":"NORMAL"},"itineraries":[{"duration":1503,"startTime":1522687500000,"endTime":1522689003000,"walkTime":1503,"transitTime":0,"waitingTime":0,"walkDistance":1932.3007142764955,"walkLimitExceeded":false,"elevationLost":0.0,"elevationGained":0.0,"transfers":0,"legs":[{"startTime":1522687500000,"endTime":1522689003000,"departureDelay":0,"arrivalDelay":0,"realTime":false,"distance":1932.0150000000003,"pathway":false,"mode":"WALK","route":"","agencyTimeZoneOffset":-14400000,"interlineWithPreviousLeg":false,"from":{"name":"Origin","lon":-71.068914,"lat":48.404745,"departure":1522687500000,"orig":"","vertexType":"NORMAL"},"to":{"name":"Destination","lon":-71.09023799,"lat":48.406583,"arrival":1522689003000,"orig":"","vertexType":"NORMAL"},"legGeometry":{"points":"oamfHxrwpLaAjCABMXAXO~Cv@Dr@Tp@Rn@|@Xz@NlAAbB?B_A`F@v@BpAXr@HTU\\g@p@a@pAMzAUpC??Gf@WbAW`AyEpQ??YdAv@t@VpA^dDNbA??v@tD`@jC@^TjE}Av@oA|Ao@hBITyAdAo@TEdAJnALfAf@vD\\~CAl@","length":52},"rentedBike":false,"transitLeg":false,"duration":1503.0,"steps":[{"distance":146.923,"relativeDirection":"DEPART","streetName":"Rue Des Jésuites","absoluteDirection":"NORTHWEST","stayOn":false,"area":false,"bogusName":false,"lon":-71.0687648965826,"lat":48.40488284781729,"elevation":[]},{"distance":396.537,"relativeDirection":"LEFT","streetName":"Rue Bégin","absoluteDirection":"SOUTH","stayOn":false,"area":false,"bogusName":false,"lon":-71.07054690000001,"lat":48.4053844,"elevation":[]},{"distance":523.6,"relativeDirection":"RIGHT","streetName":"Rue Ballantyne","absoluteDirection":"NORTHWEST","stayOn":false,"area":false,"bogusName":false,"lon":-71.07449910000001,"lat":48.4042602,"elevation":[]},{"distance":377.609,"relativeDirection":"LEFT","streetName":"Rue Jolliet","absoluteDirection":"SOUTHWEST","stayOn":false,"area":false,"bogusName":false,"lon":-71.08068800000001,"lat":48.406426800000006,"elevation":[]},{"distance":253.84,"relativeDirection":"RIGHT","streetName":"Rue Victor-Guimond","absoluteDirection":"NORTH","stayOn":false,"area":false,"bogusName":false,"lon":-71.08532290000001,"lat":48.405216,"elevation":[]},{"distance":233.50600000000003,"relativeDirection":"LEFT","streetName":"Rue Descartes","absoluteDirection":"WEST","stayOn":false,"area":false,"bogusName":false,"lon":-71.0871764,"lat":48.4070606,"elevation":[]}]}],"tooSloped":false},{"duration":1568,"startTime":1522687622000,"endTime":1522689190000,"walkTime":1424,"transitTime":142,"waitingTime":2,"walkDistance":1830.4979699155203,"walkLimitExceeded":false,"elevationLost":0.0,"elevationGained":0.0,"transfers":0,"legs":[{"startTime":1522687622000,"endTime":1522687878000,"departureDelay":0,"arrivalDelay":0,"realTime":false,"distance":326.046,"pathway":false,"mode":"WALK","route":"","agencyTimeZoneOffset":-14400000,"interlineWithPreviousLeg":false,"from":{"name":"Origin","lon":-71.068914,"lat":48.404745,"departure":1522687622000,"orig":"","vertexType":"NORMAL"},"to":{"name":"Saguenéens (no. 129)","stopId":"1:2000","stopCode":"2000","lon":-71.067064,"lat":48.407463,"arrival":1522687878000,"departure":1522687879000,"zoneId":"NA","stopIndex":16,"stopSequence":17,"vertexType":"TRANSIT"},"legGeometry":{"points":"oamfHxrwpL@AmJqFsBcCELQ`@","length":6},"rentedBike":false,"transitLeg":false,"duration":256.0,"steps":[{"distance":1.172,"relativeDirection":"DEPART","streetName":"Rue Des Jésuites","absoluteDirection":"SOUTHEAST","stayOn":false,"area":false,"bogusName":false,"lon":-71.0687648965826,"lat":48.40488284781729,"elevation":[]},{"distance":222.016,"relativeDirection":"LEFT","streetName":"Rue Jean Bourdon","absoluteDirection":"NORTHEAST","stayOn":false,"area":false,"bogusName":false,"lon":-71.068752,"lat":48.4048767,"elevation":[]},{"distance":80.88,"relativeDirection":"CONTINUE","streetName":"path","absoluteDirection":"NORTHEAST","stayOn":false,"area":false,"bogusName":true,"lon":-71.0675429,"lat":48.4067049,"elevation":[]},{"distance":21.978,"relativeDirection":"LEFT","streetName":"Rue des Saguenéens","absoluteDirection":"NORTHWEST","stayOn":false,"area":false,"bogusName":false,"lon":-71.0668891,"lat":48.4072886,"elevation":[]}]},{"startTime":1522687879000,"endTime":1522688021000,"departureDelay":0,"arrivalDelay":0,"realTime":false,"distance":658.0912501749274,"pathway":false,"mode":"BUS","route":"15","agencyName":"Société de Transport du Saguenay","agencyUrl":"http://ville.saguenay.ca/fr/services-aux-citoyens/transport-sts","agencyTimeZoneOffset":-14400000,"routeColor":"FF00FF","routeType":3,"routeId":"1:15","routeTextColor":"FFFFFF","interlineWithPreviousLeg":false,"tripBlockId":"32","headsign":"Terminus Chicoutimi","agencyId":"0","tripId":"1:218159","serviceDate":"20180402","from":{"name":"Saguenéens (no. 129)","stopId":"1:2000","stopCode":"2000","lon":-71.067064,"lat":48.407463,"arrival":1522687878000,"departure":1522687879000,"zoneId":"NA","stopIndex":16,"stopSequence":17,"vertexType":"TRANSIT"},"to":{"name":"Angoulême / Bégin","stopId":"1:53","stopCode":"53","lon":-71.073604,"lat":48.405143,"arrival":1522688021000,"departure":1522688022000,"zoneId":"NA","stopIndex":18,"stopSequence":19,"vertexType":"TRANSIT"},"legGeometry":{"points":"eqmfHrhwpL_CfGYVQXS\\dK|HlFZbC\\p@zA\\rB@hBiArG{BN","length":13},"routeShortName":"15","routeLongName":"Term. Chic / Costco","rentedBike":false,"transitLeg":true,"duration":142.0,"steps":[]},{"startTime":1522688022000,"endTime":1522689190000,"departureDelay":0,"arrivalDelay":0,"realTime":false,"distance":1504.164,"pathway":false,"mode":"WALK","route":"","agencyTimeZoneOffset":-14400000,"interlineWithPreviousLeg":false,"from":{"name":"Angoulême / Bégin","stopId":"1:53","stopCode":"53","lon":-71.073604,"lat":48.405143,"arrival":1522688021000,"departure":1522688022000,"zoneId":"NA","stopIndex":18,"stopSequence":19,"vertexType":"TRANSIT"},"to":{"name":"Destination","lon":-71.09023799,"lat":48.406583,"arrival":1522689190000,"orig":"","vertexType":"NORMAL"},"legGeometry":{"points":"sbmfHbqxpLAVQ@s@HFnGXdAVX~@XUpC??Gf@WbAW`AyEpQ??YdAv@t@VpA^dDNbA??v@tD`@jC@^TjE}Av@oA|Ao@hBITyAdAo@TEdAJnALfAf@vD\\~CAl@","length":37},"rentedBike":false,"transitLeg":false,"duration":1168.0,"steps":[{"distance":9.065,"relativeDirection":"DEPART","streetName":"Rue R. E. Joron","absoluteDirection":"WEST","stayOn":false,"area":false,"bogusName":false,"lon":-71.07361147295804,"lat":48.40506820485767,"elevation":[]},{"distance":39.342,"relativeDirection":"RIGHT","streetName":"Rue d'Angoulème","absoluteDirection":"NORTH","stayOn":false,"area":false,"bogusName":false,"lon":-71.073734,"lat":48.4050736,"elevation":[]},{"distance":183.368,"relativeDirection":"LEFT","streetName":"Rue Garon","absoluteDirection":"WEST","stayOn":false,"area":false,"bogusName":false,"lon":-71.0737922,"lat":48.405425300000005,"elevation":[]},{"distance":407.434,"relativeDirection":"RIGHT","streetName":"Rue Ballantyne","absoluteDirection":"WEST","stayOn":false,"area":false,"bogusName":false,"lon":-71.0757641,"lat":48.404816700000005,"elevation":[]},{"distance":377.609,"relativeDirection":"LEFT","streetName":"Rue Jolliet","absoluteDirection":"SOUTHWEST","stayOn":false,"area":false,"bogusName":false,"lon":-71.08068800000001,"lat":48.406426800000006,"elevation":[]},{"distance":253.84,"relativeDirection":"RIGHT","streetName":"Rue Victor-Guimond","absoluteDirection":"NORTH","stayOn":false,"area":false,"bogusName":false,"lon":-71.08532290000001,"lat":48.405216,"elevation":[]},{"distance":233.50600000000003,"relativeDirection":"LEFT","streetName":"Rue Descartes","absoluteDirection":"WEST","stayOn":false,"area":false,"bogusName":false,"lon":-71.0871764,"lat":48.4070606,"elevation":[]}]}],"tooSloped":false},{"duration":1269,"startTime":1522688949000,"endTime":1522690218000,"walkTime":1163,"transitTime":104,"waitingTime":2,"walkDistance":1492.097834578921,"walkLimitExceeded":false,"elevationLost":0.0,"elevationGained":0.0,"transfers":0,"legs":[{"startTime":1522688949000,"endTime":1522689419000,"departureDelay":0,"arrivalDelay":0,"realTime":false,"distance":597.024,"pathway":false,"mode":"WALK","route":"","agencyTimeZoneOffset":-14400000,"interlineWithPreviousLeg":false,"from":{"name":"Origin","lon":-71.068914,"lat":48.404745,"departure":1522688949000,"orig":"","vertexType":"NORMAL"},"to":{"name":"Bégin / Ballantyne","stopId":"1:451","stopCode":"451","lon":-71.07501,"lat":48.403916,"arrival":1522689419000,"departure":1522689420000,"zoneId":"NA","stopIndex":15,"stopSequence":16,"vertexType":"TRANSIT"},"legGeometry":{"points":"oamfHxrwpLaAjCABMXAXO~Cv@Dr@Tp@Rn@|@Xz@NlAAbB?B_A`F@v@BpAXr@HT~@lB","length":20},"rentedBike":false,"transitLeg":false,"duration":470.0,"steps":[{"distance":146.923,"relativeDirection":"DEPART","streetName":"Rue Des Jésuites","absoluteDirection":"NORTHWEST","stayOn":false,"area":false,"bogusName":false,"lon":-71.0687648965826,"lat":48.40488284781729,"elevation":[]},{"distance":450.101,"relativeDirection":"LEFT","streetName":"Rue Bégin","absoluteDirection":"SOUTH","stayOn":false,"area":false,"bogusName":false,"lon":-71.07054690000001,"lat":48.4053844,"elevation":[]}]},{"startTime":1522689420000,"endTime":1522689524000,"departureDelay":0,"arrivalDelay":0,"realTime":false,"distance":482.05915169401015,"pathway":false,"mode":"BUS","route":"14","agencyName":"Société de Transport du Saguenay","agencyUrl":"http://ville.saguenay.ca/fr/services-aux-citoyens/transport-sts","agencyTimeZoneOffset":-14400000,"routeColor":"C0C000","routeType":3,"routeId":"1:14","routeTextColor":"000000","interlineWithPreviousLeg":false,"tripBlockId":"31","headsign":"Terminus Chicoutimi","agencyId":"0","tripId":"1:218135","serviceDate":"20180402","from":{"name":"Bégin / Ballantyne","stopId":"1:451","stopCode":"451","lon":-71.07501,"lat":48.403916,"arrival":1522689419000,"departure":1522689420000,"zoneId":"NA","stopIndex":15,"stopSequence":16,"vertexType":"TRANSIT"},"to":{"name":"Ballantyne / Jolliet","stopId":"1:1558","stopCode":"1558","lon":-71.080285,"lat":48.406355,"arrival":1522689524000,"departure":1522689525000,"zoneId":"NA","stopIndex":17,"stopSequence":18,"vertexType":"TRANSIT"},"legGeometry":{"points":"y{lfHfzxpLy@uB}@rAa@nAc@lFEf@mGvU","length":7},"routeShortName":"14","routeLongName":"Coopérative","rentedBike":false,"transitLeg":true,"duration":104.0,"steps":[]},{"startTime":1522689525000,"endTime":1522690218000,"departureDelay":0,"arrivalDelay":0,"realTime":false,"distance":894.8399999999999,"pathway":false,"mode":"WALK","route":"","agencyTimeZoneOffset":-14400000,"interlineWithPreviousLeg":false,"from":{"name":"Ballantyne / Jolliet","stopId":"1:1558","stopCode":"1558","lon":-71.080285,"lat":48.406355,"arrival":1522689524000,"departure":1522689525000,"zoneId":"NA","stopIndex":17,"stopSequence":18,"vertexType":"TRANSIT"},"to":{"name":"Destination","lon":-71.09023799,"lat":48.406583,"arrival":1522690218000,"orig":"","vertexType":"NORMAL"},"legGeometry":{"points":"ijmfHb{ypLYdAv@t@VpA^dDNbA??v@tD`@jC@^TjE}Av@oA|Ao@hBITyAdAo@TEdAJnALfAf@vD\\~CAl@","length":23},"rentedBike":false,"transitLeg":false,"duration":693.0,"steps":[{"distance":29.885,"relativeDirection":"DEPART","streetName":"Rue Ballantyne","absoluteDirection":"NORTHWEST","stayOn":false,"area":false,"bogusName":false,"lon":-71.0803339734197,"lat":48.40629640444966,"elevation":[]},{"distance":377.609,"relativeDirection":"LEFT","streetName":"Rue Jolliet","absoluteDirection":"SOUTHWEST","stayOn":false,"area":false,"bogusName":false,"lon":-71.08068800000001,"lat":48.406426800000006,"elevation":[]},{"distance":253.84,"relativeDirection":"RIGHT","streetName":"Rue Victor-Guimond","absoluteDirection":"NORTH","stayOn":false,"area":false,"bogusName":false,"lon":-71.08532290000001,"lat":48.405216,"elevation":[]},{"distance":233.50600000000003,"relativeDirection":"LEFT","streetName":"Rue Descartes","absoluteDirection":"WEST","stayOn":false,"area":false,"bogusName":false,"lon":-71.0871764,"lat":48.4070606,"elevation":[]}]}],"tooSloped":false}]},"debugOutput":{"precalculationTime":28,"pathCalculationTime":38,"pathTimes":[19,10,9],"renderingTime":1,"totalTime":67,"timedOut":false},"elevationMetadata":{"ellipsoidToGeoidDifference":-28.885904201182168,"geoidElevation":false}}