{"requestParameters":{"date":"2018/04/02","walkSpeed":"1.33","walkReluctance":"2.0","fromPlace":"48.406583,-71.09023799","maxWalkDistance":"3000","waitReluctance":"1.0","carSpeed":"33","numItineraries":"3","waitAtBeginningFactor":"0.4","mode":"TRANSIT,WALK","ignoreRealtimeUpdates":"false","stairsReluctance":"2.0","toPlace":"48.404745,-71.068914","time":"12:0:00"},"plan":{"date":1522684800000,"from":{"name":"Origin","lon":-71.09023799,"lat":48.406583,"orig":"","vertexType":"NORMAL"},"to":{"name":"Destination","lon":-71.068914,"lat":48.404745,"orig":"","vertexType":"NORMAL"},"itineraries":[{"duration":1395,"startTime":1522684896000,"endTime":1522686291000,"walkTime":1239,"transitTime":154,"waitingTime":2,"walkDistance":1600.5217669106216,"walkLimitExceeded":false,"elevationLost":0.0,"elevationGained":0.0,"transfers":0,"legs":[{"startTime":1522684896000,"endTime":1522685665000,"departureDelay":0,"arrivalDelay":0,"realTime":false,"distance":1003.291,"pathway":false,"mode":"WALK","route":"","agencyTimeZoneOffset":-14400000,"interlineWithPreviousLeg":false,"from":{"name":"Origin","lon":-71.09023799,"lat":48.406583,"departure":1522684896000,"orig":"","vertexType":"NORMAL"},"to":{"name":"Malraux / Pagnol","stopId":"1:441","stopCode":"441","lon":-71.09356,"lat":48.400447,"arrival":1522685665000,"departure":1522685666000,"zoneId":"NA","stopIndex":6,"stopSequence":7,"vertexType":"TRANSIT"},"legGeometry":{"points":"klmfH~x{pLA^WfBOt@~IhIdHrGnCfCzEwM@?`@kAjFzFDD","length":12},"rentedBike":false,"transitLeg":false,"duration":769.0,"steps":[{"distance":74.206,"relativeDirection":"DEPART","streetName":"Rue Descartes","absoluteDirection":"WEST","stayOn":false,"area":false,"bogusName":false,"lon":-71.09023430323924,"lat":48.406625783667316,"elevation":[]},{"distance":517.189,"relativeDirection":"LEFT","streetName":"Rue Voltaire","absoluteDirection":"SOUTHWEST","stayOn":false,"area":false,"bogusName":false,"lon":-71.09118190000001,"lat":48.4068338,"elevation":[]},{"distance":247.08900000000003,"relativeDirection":"LEFT","streetName":"Boulevard Barrette","absoluteDirection":"SOUTHEAST","stayOn":false,"area":false,"bogusName":false,"lon":-71.0948911,"lat":48.4028879,"elevation":[]},{"distance":164.807,"relativeDirection":"RIGHT","streetName":"Rue Malraux","absoluteDirection":"SOUTHWEST","stayOn":false,"area":false,"bogusName":false,"lon":-71.0921587,"lat":48.401604500000005,"elevation":[]}]},{"startTime":1522685666000,"endTime":1522685820000,"departureDelay":0,"arrivalDelay":0,"realTime":false,"distance":2067.5661085441734,"pathway":false,"mode":"BUS","route":"14","agencyName":"Société de Transport du Saguenay","agencyUrl":"http://ville.saguenay.ca/fr/services-aux-citoyens/transport-sts","agencyTimeZoneOffset":-14400000,"routeColor":"C0C000","routeType":3,"routeId":"1:14","routeTextColor":"000000","interlineWithPreviousLeg":false,"tripBlockId":"31","headsign":"Terminus Chicoutimi","agencyId":"0","tripId":"1:218133","serviceDate":"20180402","from":{"name":"Malraux / Pagnol","stopId":"1:441","stopCode":"441","lon":-71.09356,"lat":48.400447,"arrival":1522685665000,"departure":1522685666000,"zoneId":"NA","stopIndex":6,"stopSequence":7,"vertexType":"TRANSIT"},"to":{"name":"Bégin / Ballantyne","stopId":"1:451","stopCode":"451","lon":-71.07501,"lat":48.403916,"arrival":1522685820000,"departure":1522685821000,"zoneId":"NA","stopIndex":15,"stopSequence":16,"vertexType":"TRANSIT"},"legGeometry":{"points":"melfHbm|pLhCtCdDY|F_On@aB`B_GNoBvAyT|@sNuAyAuF}F}AaB_BkAC@qC\\gAWiBwBiKgMiCwEgEyHCG","length":21},"routeShortName":"14","routeLongName":"Coopérative","rentedBike":false,"transitLeg":true,"duration":154.0,"steps":[]},{"startTime":1522685821000,"endTime":1522686291000,"departureDelay":0,"arrivalDelay":0,"realTime":false,"distance":597.0239999999999,"pathway":false,"mode":"WALK","route":"","agencyTimeZoneOffset":-14400000,"interlineWithPreviousLeg":false,"from":{"name":"Bégin / Ballantyne","stopId":"1:451","stopCode":"451","lon":-71.07501,"lat":48.403916,"arrival":1522685820000,"departure":1522685821000,"zoneId":"NA","stopIndex":15,"stopSequence":16,"vertexType":"TRANSIT"},"to":{"name":"Destination","lon":-71.068914,"lat":48.404745,"arrival":1522686291000,"orig":"","vertexType":"NORMAL"},"legGeometry":{"points":"s{lfH`zxpL_AmBIUYs@CqAAw@~@aF?C@cBOmAY{@o@}@q@Ss@Uw@EN_D@YLY@C`AkC","length":20},"rentedBike":false,"transitLeg":false,"duration":470.0,"steps":[{"distance":450.10099999999994,"relativeDirection":"DEPART","streetName":"Rue Bégin","absoluteDirection":"NORTHEAST","stayOn":false,"area":false,"bogusName":false,"lon":-71.07504767716766,"lat":48.40394489025268,"elevation":[]},{"distance":146.923,"relativeDirection":"RIGHT","streetName":"Rue Des Jésuites","absoluteDirection":"EAST","stayOn":false,"area":false,"bogusName":false,"lon":-71.07054690000001,"lat":48.4053844,"elevation":[]}]}],"tooSloped":false},{"duration":1504,"startTime":1522684800000,"endTime":1522686304000,"walkTime":1504,"transitTime":0,"waitingTime":0,"walkDistance":1932.3153759301579,"walkLimitExceeded":false,"elevationLost":0.0,"elevationGained":0.0,"transfers":0,"legs":[{"startTime":1522684800000,"endTime":1522686304000,"departureDelay":0,"arrivalDelay":0,"realTime":false,"distance":1932.0150000000003,"pathway":false,"mode":"WALK","route":"","agencyTimeZoneOffset":-14400000,"interlineWithPreviousLeg":false,"from":{"name":"Origin","lon":-71.09023799,"lat":48.406583,"departure":1522684800000,"orig":"","vertexType":"NORMAL"},"to":{"name":"Destination","lon":-71.068914,"lat":48.404745,"arrival":1522686304000,"orig":"","vertexType":"NORMAL"},"legGeometry":{"points":"klmfH~x{pL@m@]_Dg@wDMgAKoADeAn@UxAeAHUn@iBnA}A|Aw@UkEA_@a@kCw@uD??OcA_@eDWqAw@u@XeA??xEqQVaAVcAFg@??TqCL{A`@qAf@q@T]IUYs@CqAAw@~@aF?C@cBOmAY{@o@}@q@Ss@Uw@EN_D@YLY@C`AkC","length":52},"rentedBike":false,"transitLeg":false,"duration":1504.0,"steps":[{"distance":233.506,"relativeDirection":"DEPART","streetName":"Rue Descartes","absoluteDirection":"EAST","stayOn":false,"area":false,"bogusName":false,"lon":-71.09023430323924,"lat":48.406625783667316,"elevation":[]},{"distance":253.84,"relativeDirection":"RIGHT","streetName":"Rue Victor-Guimond","absoluteDirection":"SOUTH","stayOn":false,"area":false,"bogusName":false,"lon":-71.0871764,"lat":48.4070606,"elevation":[]},{"distance":377.609,"relativeDirection":"LEFT","streetName":"Rue Jolliet","absoluteDirection":"EAST","stayOn":false,"area":false,"bogusName":false,"lon":-71.08532290000001,"lat":48.405216,"elevation":[]},{"distance":523.6,"relativeDirection":"RIGHT","streetName":"Rue Ballantyne","absoluteDirection":"SOUTHEAST","stayOn":false,"area":false,"bogusName":false,"lon":-71.08068800000001,"lat":48.406426800000006,"elevation":[]},{"distance":396.537,"relativeDirection":"LEFT","streetName":"Rue Bégin","absoluteDirection":"NORTHEAST","stayOn":false,"area":false,"bogusName":false,"lon":-71.07449910000001,"lat":48.4042602,"elevation":[]},{"distance":146.923,"relativeDirection":"RIGHT","streetName":"Rue Des Jésuites","absoluteDirection":"EAST","stayOn":false,"area":false,"bogusName":false,"lon":-71.07054690000001,"lat":48.4053844,"elevation":[]}]}],"tooSloped":false},{"duration":1325,"startTime":1522686200000,"endTime":1522687525000,"walkTime":1258,"transitTime":65,"waitingTime":2,"walkDistance":1610.0609849529203,"walkLimitExceeded":false,"elevationLost":0.0,"elevationGained":0.0,"transfers":0,"legs":[{"startTime":1522686200000,"endTime":1522686894000,"departureDelay":0,"arrivalDelay":0,"realTime":false,"distance":894.8399999999999,"pathway":false,"mode":"WALK","route":"","agencyTimeZoneOffset":-14400000,"interlineWithPreviousLeg":false,"from":{"name":"Origin","lon":-71.09023799,"lat":48.406583,"departure":1522686200000,"orig":"","vertexType":"NORMAL"},"to":{"name":"Ballantyne / Jolliet","stopId":"1:159","stopCode":"159","lon":-71.08039,"lat":48.406229,"arrival":1522686894000,"departure":1522686895000,"zoneId":"NA","stopIndex":19,"stopSequence":20,"vertexType":"TRANSIT"},"legGeometry":{"points":"klmfH~x{pL@m@]_Dg@wDMgAKoADeAn@UxAeAHUn@iBnA}A|Aw@UkEA_@a@kCw@uD??OcA_@eDWqAw@u@XeA","length":23},"rentedBike":false,"transitLeg":false,"duration":694.0,"steps":[{"distance":233.506,"relativeDirection":"DEPART","streetName":"Rue Descartes","absoluteDirection":"EAST","stayOn":false,"area":false,"bogusName":false,"lon":-71.09023430323924,"lat":48.406625783667316,"elevation":[]},{"distance":253.84,"relativeDirection":"RIGHT","streetName":"Rue Victor-Guimond","absoluteDirection":"SOUTH","stayOn":false,"area":false,"bogusName":false,"lon":-71.0871764,"lat":48.4070606,"elevation":[]},{"distance":377.609,"relativeDirection":"LEFT","streetName":"Rue Jolliet","absoluteDirection":"EAST","stayOn":false,"area":false,"bogusName":false,"lon":-71.08532290000001,"lat":48.405216,"elevation":[]},{"distance":29.885,"relativeDirection":"RIGHT","streetName":"Rue Ballantyne","absoluteDirection":"SOUTHEAST","stayOn":false,"area":false,"bogusName":false,"lon":-71.08068800000001,"lat":48.406426800000006,"elevation":[]}]},{"startTime":1522686895000,"endTime":1522686960000,"departureDelay":0,"arrivalDelay":0,"realTime":false,"distance":322.8568498496345,"pathway":false,"mode":"BUS","route":"14","agencyName":"Société de Transport du Saguenay","agencyUrl":"http://ville.saguenay.ca/fr/services-aux-citoyens/transport-sts","agencyTimeZoneOffset":-14400000,"routeColor":"C0C000","routeType":3,"routeId":"1:14","routeTextColor":"000000","interlineWithPreviousLeg":false,"tripBlockId":"32","headsign":"Talbot / Barrette","agencyId":"0","tripId":"1:218158","serviceDate":"20180402","from":{"name":"Ballantyne / Jolliet","stopId":"1:159","stopCode":"159","lon":-71.08039,"lat":48.406229,"arrival":1522686894000,"departure":1522686895000,"zoneId":"NA","stopIndex":19,"stopSequence":20,"vertexType":"TRANSIT"},"to":{"name":"Ballantyne / Garon","stopId":"1:539","stopCode":"539","lon":-71.076506,"lat":48.404894,"arrival":1522686960000,"departure":1522686961000,"zoneId":"NA","stopIndex":20,"stopSequence":21,"vertexType":"TRANSIT"},"legGeometry":{"points":"kjmfH`{ypLjFuR\\yADm@","length":4},"routeShortName":"14","routeLongName":"Coopérative","rentedBike":false,"transitLeg":true,"duration":65.0,"steps":[]},{"startTime":1522686961000,"endTime":1522687525000,"departureDelay":0,"arrivalDelay":0,"realTime":false,"distance":714.927,"pathway":false,"mode":"WALK","route":"","agencyTimeZoneOffset":-14400000,"interlineWithPreviousLeg":false,"from":{"name":"Ballantyne / Garon","stopId":"1:539","stopCode":"539","lon":-71.076506,"lat":48.404894,"arrival":1522686960000,"departure":1522686961000,"zoneId":"NA","stopIndex":20,"stopSequence":21,"vertexType":"TRANSIT"},"to":{"name":"Destination","lon":-71.068914,"lat":48.404745,"arrival":1522687525000,"orig":"","vertexType":"NORMAL"},"legGeometry":{"points":"wamfHbcypLTqCL{A`@qAf@q@T]IUYs@CqAAw@~@aF?C@cBOmAY{@o@}@q@Ss@Uw@EN_D@YLY@C`AkC","length":24},"rentedBike":false,"transitLeg":false,"duration":564.0,"steps":[{"distance":171.46699999999998,"relativeDirection":"DEPART","streetName":"Rue Ballantyne","absoluteDirection":"EAST","stayOn":false,"area":false,"bogusName":false,"lon":-71.07649387142966,"lat":48.404928798023235,"elevation":[]},{"distance":396.537,"relativeDirection":"LEFT","streetName":"Rue Bégin","absoluteDirection":"NORTHEAST","stayOn":false,"area":false,"bogusName":false,"lon":-71.07449910000001,"lat":48.4042602,"elevation":[]},{"distance":146.923,"relativeDirection":"RIGHT","streetName":"Rue Des Jésuites","absoluteDirection":"EAST","stayOn":false,"area":false,"bogusName":false,"lon":-71.07054690000001,"lat":48.4053844,"elevation":[]}]}],"tooSloped":false}]},"debugOutput":{"precalculationTime":28,"pathCalculationTime":17,"pathTimes":[11,3,3],"renderingTime":0,"totalTime":45,"timedOut":false},"elevationMetadata":{"ellipsoidToGeoidDifference":-28.885904201182168,"geoidElevation":false}}