{"requestParameters":{"date":"2018/04/02","walkSpeed":"1.33","walkReluctance":"2.0","fromPlace":"48.404745,-71.068914","maxWalkDistance":"3000","waitReluctance":"1.0","carSpeed":"33","numItineraries":"3","waitAtBeginningFactor":"0.4","mode":"TRANSIT,WALK","ignoreRealtimeUpdates":"false","stairsReluctance":"2.0","toPlace":"48.406583,-71.09023799","time":"7:50:00"},"plan":{"date":1522669800000,"from":{"name":"Origin","lon":-71.068914,"lat":48.404745,"orig":"","vertexType":"NORMAL"},"to":{"name":"Destination","lon":-71.09023799,"lat":48.406583,"orig":"","vertexType":"NORMAL"},"itineraries":[{"duration":1503,"startTime":1522669800000,"endTime":1522671303000,"walkTime":1503,"transitTime":0,"waitingTime":0,"walkDistance":1932.3007142764955,"walkLimitExceeded":false,"elevationLost":0.0,"elevationGained":0.0,"transfers":0,"legs":[{"startTime":1522669800000,"endTime":1522671303000,"departureDelay":0,"arrivalDelay":0,"realTime":false,"distance":1932.0150000000003,"pathway":false,"mode":"WALK","route":"","agencyTimeZoneOffset":-14400000,"interlineWithPreviousLeg":false,"from":{"name":"Origin","lon":-71.068914,"lat":48.404745,"departure":1522669800000,"orig":"","vertexType":"NORMAL"},"to":{"name":"Destination","lon":-71.09023799,"lat":48.406583,"arrival":1522671303000,"orig":"","vertexType":"NORMAL"},"legGeometry":{"points":"oamfHxrwpLaAjCABMXAXO~Cv@Dr@Tp@Rn@|@Xz@NlAAbB?B_A`F@v@BpAXr@HTU\\g@p@a@pAMzAUpC??Gf@WbAW`AyEpQ??YdAv@t@VpA^dDNbA??v@tD`@jC@^TjE}Av@oA|Ao@hBITyAdAo@TEdAJnALfAf@vD\\~CAl@","length":52},"rentedBike":false,"transitLeg":false,"duration":1503.0,"steps":[{"distance":146.923,"relativeDirection":"DEPART","streetName":"Rue Des Jésuites","absoluteDirection":"NORTHWEST","stayOn":false,"area":false,"bogusName":false,"lon":-71.0687648965826,"lat":48.40488284781729,"elevation":[]},{"distance":396.537,"relativeDirection":"LEFT","streetName":"Rue Bégin","absoluteDirection":"SOUTH","stayOn":false,"area":false,"bogusName":false,"lon":-71.07054690000001,"lat":48.4053844,"elevation":[]},{"distance":523.6,"relativeDirection":"RIGHT","streetName":"Rue Ballantyne","absoluteDirection":"NORTHWEST","stayOn":false,"area":false,"bogusName":false,"lon":-71.07449910000001,"lat":48.4042602,"elevation":[]},{"distance":377.609,"relativeDirection":"LEFT","streetName":"Rue Jolliet","absoluteDirection":"SOUTHWEST","stayOn":false,"area":false,"bogusName":false,"lon":-71.08068800000001,"lat":48.406426800000006,"elevation":[]},{"distance":253.84,"relativeDirection":"RIGHT","streetName":"Rue Victor-Guimond","absoluteDirection":"NORTH","stayOn":false,"area":false,"bogusName":false,"lon":-71.08532290000001,"lat":48.405216,"elevation":[]},{"distance":233.50600000000003,"relativeDirection":"LEFT","streetName":"Rue Descartes","absoluteDirection":"WEST","stayOn":false,"area":false,"bogusName":false,"lon":-71.0871764,"lat":48.4070606,"elevation":[]}]}],"tooSloped":false},{"duration":1137,"startTime":1522670271000,"endTime":1522671408000,"walkTime":1085,"transitTime":50,"waitingTime":2,"walkDistance":1406.0596992439355,"walkLimitExceeded":false,"elevationLost":0.0,"elevationGained":0.0,"transfers":0,"legs":[{"startTime":1522670271000,"endTime":1522670298000,"departureDelay":0,"arrivalDelay":0,"realTime":false,"distance":34.259,"pathway":false,"mode":"WALK","route":"","agencyTimeZoneOffset":-14400000,"interlineWithPreviousLeg":false,"from":{"name":"Origin","lon":-71.068914,"lat":48.404745,"departure":1522670271000,"orig":"","vertexType":"NORMAL"},"to":{"name":"Parc André Gagnon (Jésuites / Bourdon)","stopId":"1:462","stopCode":"462","lon":-71.068308,"lat":48.404775,"arrival":1522670298000,"departure":1522670299000,"zoneId":"NA","stopIndex":5,"stopSequence":6,"vertexType":"TRANSIT"},"legGeometry":{"points":"oamfHxrwpL@A`@gA","length":3},"rentedBike":false,"transitLeg":false,"duration":27.0,"steps":[{"distance":34.259,"relativeDirection":"DEPART","streetName":"Rue Des Jésuites","absoluteDirection":"SOUTHEAST","stayOn":false,"area":false,"bogusName":false,"lon":-71.0687648965826,"lat":48.40488284781729,"elevation":[]}]},{"startTime":1522670299000,"endTime":1522670349000,"departureDelay":0,"arrivalDelay":0,"realTime":false,"distance":486.07333585196,"pathway":false,"mode":"BUS","route":"205S","agencyName":"Société de Transport du Saguenay","agencyUrl":"http://ville.saguenay.ca/fr/services-aux-citoyens/transport-sts","agencyTimeZoneOffset":-14400000,"routeColor":"8B0000","routeType":3,"routeId":"1:205S","routeTextColor":"FFFFFF","interlineWithPreviousLeg":false,"tripBlockId":"49","headsign":"Séminaire","agencyId":"0","tripId":"1:218411","serviceDate":"20180402","from":{"name":"Parc André Gagnon (Jésuites / Bourdon)","stopId":"1:462","stopCode":"462","lon":-71.068308,"lat":48.404775,"arrival":1522670298000,"departure":1522670299000,"zoneId":"NA","stopIndex":5,"stopSequence":6,"vertexType":"TRANSIT"},"to":{"name":"Bégin / Ballantyne","stopId":"1:537","stopCode":"537","lon":-71.074506,"lat":48.404454,"arrival":1522670349000,"departure":1522670350000,"zoneId":"NA","stopIndex":7,"stopSequence":8,"vertexType":"TRANSIT"},"legGeometry":{"points":"o`mfHhpwpLeBvEGNGTEPMpDh@?h@DTFVJNLPNNRTb@L`@Nr@H~@@d@Al@Gn@Mh@M^U~@Gz@A`@@d@Dd@FZFTDL","length":30},"routeShortName":"205S","routeLongName":"Séminaire - Bégin/Malraux","rentedBike":false,"transitLeg":true,"duration":50.0,"steps":[]},{"startTime":1522670350000,"endTime":1522671408000,"departureDelay":0,"arrivalDelay":0,"realTime":false,"distance":1371.671,"pathway":false,"mode":"WALK","route":"","agencyTimeZoneOffset":-14400000,"interlineWithPreviousLeg":false,"from":{"name":"Bégin / Ballantyne","stopId":"1:537","stopCode":"537","lon":-71.074506,"lat":48.404454,"arrival":1522670349000,"departure":1522670350000,"zoneId":"NA","stopIndex":7,"stopSequence":8,"vertexType":"TRANSIT"},"to":{"name":"Destination","lon":-71.09023799,"lat":48.406583,"arrival":1522671408000,"orig":"","vertexType":"NORMAL"},"legGeometry":{"points":"i~lfHpwxpLg@p@a@pAMzAUpC??Gf@WbAW`AyEpQ??YdAv@t@VpA^dDNbA??v@tD`@jC@^TjE}Av@oA|Ao@hBITyAdAo@TEdAJnALfAf@vD\\~CAl@","length":33},"rentedBike":false,"transitLeg":false,"duration":1058.0,"steps":[{"distance":506.716,"relativeDirection":"DEPART","streetName":"Rue Ballantyne","absoluteDirection":"NORTHWEST","stayOn":false,"area":false,"bogusName":false,"lon":-71.07464547859252,"lat":48.404376887720744,"elevation":[]},{"distance":377.609,"relativeDirection":"LEFT","streetName":"Rue Jolliet","absoluteDirection":"SOUTHWEST","stayOn":false,"area":false,"bogusName":false,"lon":-71.08068800000001,"lat":48.406426800000006,"elevation":[]},{"distance":253.84,"relativeDirection":"RIGHT","streetName":"Rue Victor-Guimond","absoluteDirection":"NORTH","stayOn":false,"area":false,"bogusName":false,"lon":-71.08532290000001,"lat":48.405216,"elevation":[]},{"distance":233.50600000000003,"relativeDirection":"LEFT","streetName":"Rue Descartes","absoluteDirection":"WEST","stayOn":false,"area":false,"bogusName":false,"lon":-71.0871764,"lat":48.4070606,"elevation":[]}]}],"tooSloped":false},{"duration":1269,"startTime":1522670949000,"endTime":1522672218000,"walkTime":1163,"transitTime":104,"waitingTime":2,"walkDistance":1492.097834578921,"walkLimitExceeded":false,"elevationLost":0.0,"elevationGained":0.0,"transfers":0,"legs":[{"startTime":1522670949000,"endTime":1522671419000,"departureDelay":0,"arrivalDelay":0,"realTime":false,"distance":597.024,"pathway":false,"mode":"WALK","route":"","agencyTimeZoneOffset":-14400000,"interlineWithPreviousLeg":false,"from":{"name":"Origin","lon":-71.068914,"lat":48.404745,"departure":1522670949000,"orig":"","vertexType":"NORMAL"},"to":{"name":"Bégin / Ballantyne","stopId":"1:451","stopCode":"451","lon":-71.07501,"lat":48.403916,"arrival":1522671419000,"departure":1522671420000,"zoneId":"NA","stopIndex":15,"stopSequence":16,"vertexType":"TRANSIT"},"legGeometry":{"points":"oamfHxrwpLaAjCABMXAXO~Cv@Dr@Tp@Rn@|@Xz@NlAAbB?B_A`F@v@BpAXr@HT~@lB","length":20},"rentedBike":false,"transitLeg":false,"duration":470.0,"steps":[{"distance":146.923,"relativeDirection":"DEPART","streetName":"Rue Des Jésuites","absoluteDirection":"NORTHWEST","stayOn":false,"area":false,"bogusName":false,"lon":-71.0687648965826,"lat":48.40488284781729,"elevation":[]},{"distance":450.101,"relativeDirection":"LEFT","streetName":"Rue Bégin","absoluteDirection":"SOUTH","stayOn":false,"area":false,"bogusName":false,"lon":-71.07054690000001,"lat":48.4053844,"elevation":[]}]},{"startTime":1522671420000,"endTime":1522671524000,"departureDelay":0,"arrivalDelay":0,"realTime":false,"distance":482.05915169401015,"pathway":false,"mode":"BUS","route":"14","agencyName":"Société de Transport du Saguenay","agencyUrl":"http://ville.saguenay.ca/fr/services-aux-citoyens/transport-sts","agencyTimeZoneOffset":-14400000,"routeColor":"C0C000","routeType":3,"routeId":"1:14","routeTextColor":"000000","interlineWithPreviousLeg":false,"tripBlockId":"31","headsign":"Terminus Chicoutimi","agencyId":"0","tripId":"1:218125","serviceDate":"20180402","from":{"name":"Bégin / Ballantyne","stopId":"1:451","stopCode":"451","lon":-71.07501,"lat":48.403916,"arrival":1522671419000,"departure":1522671420000,"zoneId":"NA","stopIndex":15,"stopSequence":16,"vertexType":"TRANSIT"},"to":{"name":"Ballantyne / Jolliet","stopId":"1:1558","stopCode":"1558","lon":-71.080285,"lat":48.406355,"arrival":1522671524000,"departure":1522671525000,"zoneId":"NA","stopIndex":17,"stopSequence":18,"vertexType":"TRANSIT"},"legGeometry":{"points":"y{lfHfzxpLy@uB}@rAa@nAc@lFEf@mGvU","length":7},"routeShortName":"14","routeLongName":"Coopérative","rentedBike":false,"transitLeg":true,"duration":104.0,"steps":[]},{"startTime":1522671525000,"endTime":1522672218000,"departureDelay":0,"arrivalDelay":0,"realTime":false,"distance":894.8399999999999,"pathway":false,"mode":"WALK","route":"","agencyTimeZoneOffset":-14400000,"interlineWithPreviousLeg":false,"from":{"name":"Ballantyne / Jolliet","stopId":"1:1558","stopCode":"1558","lon":-71.080285,"lat":48.406355,"arrival":1522671524000,"departure":1522671525000,"zoneId":"NA","stopIndex":17,"stopSequence":18,"vertexType":"TRANSIT"},"to":{"name":"Destination","lon":-71.09023799,"lat":48.406583,"arrival":1522672218000,"orig":"","vertexType":"NORMAL"},"legGeometry":{"points":"ijmfHb{ypLYdAv@t@VpA^dDNbA??v@tD`@jC@^TjE}Av@oA|Ao@hBITyAdAo@TEdAJnALfAf@vD\\~CAl@","length":23},"rentedBike":false,"transitLeg":false,"duration":693.0,"steps":[{"distance":29.885,"relativeDirection":"DEPART","streetName":"Rue Ballantyne","absoluteDirection":"NORTHWEST","stayOn":false,"area":false,"bogusName":false,"lon":-71.0803339734197,"lat":48.40629640444966,"elevation":[]},{"distance":377.609,"relativeDirection":"LEFT","streetName":"Rue Jolliet","absoluteDirection":"SOUTHWEST","stayOn":false,"area":false,"bogusName":false,"lon":-71.08068800000001,"lat":48.406426800000006,"elevation":[]},{"distance":253.84,"relativeDirection":"RIGHT","streetName":"Rue Victor-Guimond","absoluteDirection":"NORTH","stayOn":false,"area":false,"bogusName":false,"lon":-71.08532290000001,"lat":48.405216,"elevation":[]},{"distance":233.50600000000003,"relativeDirection":"LEFT","streetName":"Rue Descartes","absoluteDirection":"WEST","stayOn":false,"area":false,"bogusName":false,"lon":-71.0871764,"lat":48.4070606,"elevation":[]}]}],"tooSloped":false}]},"debugOutput":{"precalculationTime":31,"pathCalculationTime":32,"pathTimes":[18,6,8],"renderingTime":0,"totalTime":63,"timedOut":false},"elevationMetadata":{"ellipsoidToGeoidDifference":-28.885904201182168,"geoidElevation":false}}