{"requestParameters":{"date":"2018/04/02","walkSpeed":"1.33","walkReluctance":"2.0","fromPlace":"48.403952,-71.054642","maxWalkDistance":"3000","waitReluctance":"1.0","carSpeed":"33","numItineraries":"3","waitAtBeginningFactor":"0.4","mode":"TRANSIT,WALK","ignoreRealtimeUpdates":"false","stairsReluctance":"2.0","toPlace":"48.405405,-71.072015","time":"7:30:00"},"plan":{"date":1522668600000,"from":{"name":"Origin","lon":-71.054642,"lat":48.403952,"orig":"","vertexType":"NORMAL"},"to":{"name":"Destination","lon":-71.072015,"lat":48.405405,"orig":"","vertexType":"NORMAL"},"itineraries":[{"duration":1244,"startTime":1522668649000,"endTime":1522669893000,"walkTime":642,"transitTime":600,"waitingTime":2,"walkDistance":792.1452556309582,"walkLimitExceeded":false,"elevationLost":0.0,"elevationGained":0.0,"transfers":0,"legs":[{"startTime":1522668649000,"endTime":1522669019000,"departureDelay":0,"arrivalDelay":0,"realTime":false,"distance":443.3719999999999,"pathway":false,"mode":"WALK","route":"","agencyTimeZoneOffset":-14400000,"interlineWithPreviousLeg":false,"from":{"name":"Origin","lon":-71.054642,"lat":48.403952,"departure":1522668649000,"orig":"","vertexType":"NORMAL"},"to":{"name":"Place du Royaume (Saguenéens)","stopId":"1:1294","stopCode":"1294","lon":-71.057691,"lat":48.402355,"arrival":1522669019000,"departure":1522669020000,"zoneId":"NA","stopIndex":24,"stopSequence":25,"vertexType":"TRANSIT"},"legGeometry":{"points":"{zlfHhytpLJPNVVq@PCb@TTYFH@DTRVXJJPFXFDBXFFBVFHB\\HFr@BLo@dEJJDZBLRh@k@vD","length":28},"rentedBike":false,"transitLeg":false,"duration":370.0,"steps":[{"distance":55.269,"relativeDirection":"DEPART","streetName":"parking aisle","absoluteDirection":"SOUTHWEST","stayOn":false,"area":false,"bogusName":false,"lon":-71.05444515294332,"lat":48.40382759190054,"elevation":[]},{"distance":37.529,"relativeDirection":"RIGHT","streetName":"parking aisle","absoluteDirection":"SOUTHWEST","stayOn":true,"area":false,"bogusName":true,"lon":-71.0543818,"lat":48.403475,"elevation":[]},{"distance":131.32600000000002,"relativeDirection":"RIGHT","streetName":"service road","absoluteDirection":"SOUTHWEST","stayOn":true,"area":false,"bogusName":true,"lon":-71.0543643,"lat":48.403182300000005,"elevation":[]},{"distance":102.75299999999999,"relativeDirection":"RIGHT","streetName":"parking aisle","absoluteDirection":"WEST","stayOn":true,"area":false,"bogusName":true,"lon":-71.0550072,"lat":48.402104300000005,"elevation":[]},{"distance":44.199,"relativeDirection":"LEFT","streetName":"service road","absoluteDirection":"SOUTHWEST","stayOn":true,"area":false,"bogusName":true,"lon":-71.0563248,"lat":48.4022894,"elevation":[]},{"distance":72.296,"relativeDirection":"RIGHT","streetName":"Rue des Saguenéens","absoluteDirection":"WEST","stayOn":false,"area":false,"bogusName":false,"lon":-71.0568056,"lat":48.4020704,"elevation":[]}]},{"startTime":1522669020000,"endTime":1522669320000,"departureDelay":0,"arrivalDelay":0,"realTime":false,"distance":3143.631018514618,"pathway":false,"mode":"BUS","route":"15","agencyName":"Société de Transport du Saguenay","agencyUrl":"http://ville.saguenay.ca/fr/services-aux-citoyens/transport-sts","agencyTimeZoneOffset":-14400000,"routeColor":"FF00FF","routeType":3,"routeId":"1:15","routeTextColor":"FFFFFF","interlineWithPreviousLeg":false,"tripBlockId":"33","headsign":"Talbot / Barrette","agencyId":"0","tripId":"1:218173","serviceDate":"20180402","from":{"name":"Place du Royaume (Saguenéens)","stopId":"1:1294","stopCode":"1294","lon":-71.057691,"lat":48.402355,"arrival":1522669019000,"departure":1522669020000,"zoneId":"NA","stopIndex":24,"stopSequence":25,"vertexType":"TRANSIT"},"to":{"name":"Roitelets / Sapins","stopId":"1:1543","stopCode":"1543","lon":-71.069553,"lat":48.393375,"arrival":1522669320000,"departure":1522669320000,"zoneId":"NA","stopIndex":35,"stopSequence":36,"vertexType":"TRANSIT"},"legGeometry":{"points":"_rlfHjmupLbCaO?qLa@uJzF`ApF~@~@PzAgEeDcBf@qAWcKUqEx@Ef@ExDVjDxAFBrBvAfGjG@BjCzC~DxC@@zA~Cb@fCJlC?BsBre@?DWbOAn@?nEGnM@H\\hCzA~ELvAAlAi@jDo@nB","length":40},"routeShortName":"15","routeLongName":"Term. Chic / Costco","rentedBike":false,"transitLeg":true,"duration":300.0,"steps":[]},{"startTime":1522669320000,"endTime":1522669620000,"departureDelay":0,"arrivalDelay":0,"realTime":false,"distance":4069.4990759481375,"pathway":false,"mode":"BUS","route":"14","agencyName":"Société de Transport du Saguenay","agencyUrl":"http://ville.saguenay.ca/fr/services-aux-citoyens/transport-sts","agencyTimeZoneOffset":-14400000,"routeColor":"C0C000","routeType":3,"routeId":"1:14","routeTextColor":"000000","interlineWithPreviousLeg":true,"tripBlockId":"33","headsign":"Terminus Chicoutimi","agencyId":"0","tripId":"1:218174","serviceDate":"20180402","from":{"name":"Roitelets / Sapins","stopId":"1:1513","stopCode":"1513","lon":-71.069396,"lat":48.393523,"arrival":1522669320000,"departure":1522669320000,"zoneId":"NA","stopIndex":0,"stopSequence":1,"vertexType":"TRANSIT"},"to":{"name":"Bégin / Ballantyne","stopId":"1:451","stopCode":"451","lon":-71.07501,"lat":48.403916,"arrival":1522669620000,"departure":1522669621000,"zoneId":"NA","stopIndex":15,"stopSequence":16,"vertexType":"TRANSIT"},"legGeometry":{"points":"azjfHfwwpLiEfLuBzFsAnDgGzSWfAcD`Mi@dCgChLmCzMwGd\\aDxOdFtFhCtCdDY|F_On@aB`B_GNoBvAyT|@sNuAyAuF}F}AaB_BkAC@qC\\gAWiBwBiKgMiCwEgEyHCG","length":33},"routeShortName":"14","routeLongName":"Coopérative","rentedBike":false,"transitLeg":true,"duration":300.0,"steps":[]},{"startTime":1522669621000,"endTime":1522669893000,"departureDelay":0,"arrivalDelay":0,"realTime":false,"distance":348.521,"pathway":false,"mode":"WALK","route":"","agencyTimeZoneOffset":-14400000,"interlineWithPreviousLeg":false,"from":{"name":"Bégin / Ballantyne","stopId":"1:451","stopCode":"451","lon":-71.07501,"lat":48.403916,"arrival":1522669620000,"departure":1522669621000,"zoneId":"NA","stopIndex":15,"stopSequence":16,"vertexType":"TRANSIT"},"to":{"name":"Destination","lon":-71.072015,"lat":48.405405,"arrival":1522669893000,"orig":"","vertexType":"NORMAL"},"legGeometry":{"points":"s{lfH`zxpL_AmBIUYs@CqAyBB@WH_FNa@[YaA?","length":11},"rentedBike":false,"transitLeg":false,"duration":272.0,"steps":[{"distance":118.184,"relativeDirection":"DEPART","streetName":"Rue Bégin","absoluteDirection":"NORTHEAST","stayOn":false,"area":false,"bogusName":false,"lon":-71.07504767716766,"lat":48.40394489025268,"elevation":[]},{"distance":67.789,"relativeDirection":"LEFT","streetName":"Rue d'Angoulème","absoluteDirection":"NORTH","stayOn":false,"area":false,"bogusName":false,"lon":-71.0737143,"lat":48.404464100000006,"elevation":[]},{"distance":162.548,"relativeDirection":"RIGHT","streetName":"Rue R. E. Joron","absoluteDirection":"EAST","stayOn":false,"area":false,"bogusName":false,"lon":-71.073734,"lat":48.4050736,"elevation":[]}]}],"tooSloped":false},{"duration":769,"startTime":1522669369000,"endTime":1522670138000,"walkTime":486,"transitTime":281,"waitingTime":2,"walkDistance":597.0482330764715,"walkLimitExceeded":false,"elevationLost":0.0,"elevationGained":0.0,"transfers":0,"legs":[{"startTime":1522669369000,"endTime":1522669739000,"departureDelay":0,"arrivalDelay":0,"realTime":false,"distance":443.3719999999999,"pathway":false,"mode":"WALK","route":"","agencyTimeZoneOffset":-14400000,"interlineWithPreviousLeg":false,"from":{"name":"Origin","lon":-71.054642,"lat":48.403952,"departure":1522669369000,"orig":"","vertexType":"NORMAL"},"to":{"name":"Place du Royaume (Saguenéens)","stopId":"1:1294","stopCode":"1294","lon":-71.057691,"lat":48.402355,"arrival":1522669739000,"departure":1522669740000,"zoneId":"NA","stopIndex":11,"stopSequence":12,"vertexType":"TRANSIT"},"legGeometry":{"points":"{zlfHhytpLJPNVVq@PCb@TTYFH@DTRVXJJPFXFDBXFFBVFHB\\HFr@BLo@dEJJDZBLRh@k@vD","length":28},"rentedBike":false,"transitLeg":false,"duration":370.0,"steps":[{"distance":55.269,"relativeDirection":"DEPART","streetName":"parking aisle","absoluteDirection":"SOUTHWEST","stayOn":false,"area":false,"bogusName":false,"lon":-71.05444515294332,"lat":48.40382759190054,"elevation":[]},{"distance":37.529,"relativeDirection":"RIGHT","streetName":"parking aisle","absoluteDirection":"SOUTHWEST","stayOn":true,"area":false,"bogusName":true,"lon":-71.0543818,"lat":48.403475,"elevation":[]},{"distance":131.32600000000002,"relativeDirection":"RIGHT","streetName":"service road","absoluteDirection":"SOUTHWEST","stayOn":true,"area":false,"bogusName":true,"lon":-71.0543643,"lat":48.403182300000005,"elevation":[]},{"distance":102.75299999999999,"relativeDirection":"RIGHT","streetName":"parking aisle","absoluteDirection":"WEST","stayOn":true,"area":false,"bogusName":true,"lon":-71.0550072,"lat":48.402104300000005,"elevation":[]},{"distance":44.199,"relativeDirection":"LEFT","streetName":"service road","absoluteDirection":"SOUTHWEST","stayOn":true,"area":false,"bogusName":true,"lon":-71.0563248,"lat":48.4022894,"elevation":[]},{"distance":72.296,"relativeDirection":"RIGHT","streetName":"Rue des Saguenéens","absoluteDirection":"WEST","stayOn":false,"area":false,"bogusName":false,"lon":-71.0568056,"lat":48.4020704,"elevation":[]}]},{"startTime":1522669740000,"endTime":1522670021000,"departureDelay":0,"arrivalDelay":0,"realTime":false,"distance":1564.327418207517,"pathway":false,"mode":"BUS","route":"15","agencyName":"Société de Transport du Saguenay","agencyUrl":"http://ville.saguenay.ca/fr/services-aux-citoyens/transport-sts","agencyTimeZoneOffset":-14400000,"routeColor":"FF00FF","routeType":3,"routeId":"1:15","routeTextColor":"FFFFFF","interlineWithPreviousLeg":false,"tripBlockId":"32","headsign":"Terminus Chicoutimi","agencyId":"0","tripId":"1:218149","serviceDate":"20180402","from":{"name":"Place du Royaume (Saguenéens)","stopId":"1:1294","stopCode":"1294","lon":-71.057691,"lat":48.402355,"arrival":1522669739000,"departure":1522669740000,"zoneId":"NA","stopIndex":11,"stopSequence":12,"vertexType":"TRANSIT"},"to":{"name":"Angoulême / Bégin","stopId":"1:53","stopCode":"53","lon":-71.073604,"lat":48.405143,"arrival":1522670021000,"departure":1522670022000,"zoneId":"NA","stopIndex":18,"stopSequence":19,"vertexType":"TRANSIT"},"legGeometry":{"points":"eqlfHzmupLUxAm@nCcAlDeCvGmA|CUr@}@~A_@\\_DvCEZcA|@UP_@d@Yl@oBdFeCxG_CfGYVQXS\\dK|HlFZbC\\p@zA\\rB@hBiArG{BN","length":29},"routeShortName":"15","routeLongName":"Term. Chic / Costco","rentedBike":false,"transitLeg":true,"duration":281.0,"steps":[]},{"startTime":1522670022000,"endTime":1522670138000,"departureDelay":0,"arrivalDelay":0,"realTime":false,"distance":153.483,"pathway":false,"mode":"WALK","route":"","agencyTimeZoneOffset":-14400000,"interlineWithPreviousLeg":false,"from":{"name":"Angoulême / Bégin","stopId":"1:53","stopCode":"53","lon":-71.073604,"lat":48.405143,"arrival":1522670021000,"departure":1522670022000,"zoneId":"NA","stopIndex":18,"stopSequence":19,"vertexType":"TRANSIT"},"to":{"name":"Destination","lon":-71.072015,"lat":48.405405,"arrival":1522670138000,"orig":"","vertexType":"NORMAL"},"legGeometry":{"points":"sbmfHbqxpLH_FNa@[YaA?","length":5},"rentedBike":false,"transitLeg":false,"duration":116.0,"steps":[{"distance":153.483,"relativeDirection":"DEPART","streetName":"Rue R. E. Joron","absoluteDirection":"EAST","stayOn":false,"area":false,"bogusName":false,"lon":-71.07361147295804,"lat":48.40506820485767,"elevation":[]}]}],"tooSloped":false},{"duration":769,"startTime":1522671169000,"endTime":1522671938000,"walkTime":486,"transitTime":281,"waitingTime":2,"walkDistance":597.0482330764715,"walkLimitExceeded":false,"elevationLost":0.0,"elevationGained":0.0,"transfers":0,"legs":[{"startTime":1522671169000,"endTime":1522671539000,"departureDelay":0,"arrivalDelay":0,"realTime":false,"distance":443.3719999999999,"pathway":false,"mode":"WALK","route":"","agencyTimeZoneOffset":-14400000,"interlineWithPreviousLeg":false,"from":{"name":"Origin","lon":-71.054642,"lat":48.403952,"departure":1522671169000,"orig":"","vertexType":"NORMAL"},"to":{"name":"Place du Royaume (Saguenéens)","stopId":"1:1294","stopCode":"1294","lon":-71.057691,"lat":48.402355,"arrival":1522671539000,"departure":1522671540000,"zoneId":"NA","stopIndex":11,"stopSequence":12,"vertexType":"TRANSIT"},"legGeometry":{"points":"{zlfHhytpLJPNVVq@PCb@TTYFH@DTRVXJJPFXFDBXFFBVFHB\\HFr@BLo@dEJJDZBLRh@k@vD","length":28},"rentedBike":false,"transitLeg":false,"duration":370.0,"steps":[{"distance":55.269,"relativeDirection":"DEPART","streetName":"parking aisle","absoluteDirection":"SOUTHWEST","stayOn":false,"area":false,"bogusName":false,"lon":-71.05444515294332,"lat":48.40382759190054,"elevation":[]},{"distance":37.529,"relativeDirection":"RIGHT","streetName":"parking aisle","absoluteDirection":"SOUTHWEST","stayOn":true,"area":false,"bogusName":true,"lon":-71.0543818,"lat":48.403475,"elevation":[]},{"distance":131.32600000000002,"relativeDirection":"RIGHT","streetName":"service road","absoluteDirection":"SOUTHWEST","stayOn":true,"area":false,"bogusName":true,"lon":-71.0543643,"lat":48.403182300000005,"elevation":[]},{"distance":102.75299999999999,"relativeDirection":"RIGHT","streetName":"parking aisle","absoluteDirection":"WEST","stayOn":true,"area":false,"bogusName":true,"lon":-71.0550072,"lat":48.402104300000005,"elevation":[]},{"distance":44.199,"relativeDirection":"LEFT","streetName":"service road","absoluteDirection":"SOUTHWEST","stayOn":true,"area":false,"bogusName":true,"lon":-71.0563248,"lat":48.4022894,"elevation":[]},{"distance":72.296,"relativeDirection":"RIGHT","streetName":"Rue des Saguenéens","absoluteDirection":"WEST","stayOn":false,"area":false,"bogusName":false,"lon":-71.0568056,"lat":48.4020704,"elevation":[]}]},{"startTime":1522671540000,"endTime":1522671821000,"departureDelay":0,"arrivalDelay":0,"realTime":false,"distance":1564.327418207517,"pathway":false,"mode":"BUS","route":"15","agencyName":"Société de Transport du Saguenay","agencyUrl":"http://ville.saguenay.ca/fr/services-aux-citoyens/transport-sts","agencyTimeZoneOffset":-14400000,"routeColor":"FF00FF","routeType":3,"routeId":"1:15","routeTextColor":"FFFFFF","interlineWithPreviousLeg":false,"tripBlockId":"30","headsign":"Terminus Chicoutimi","agencyId":"0","tripId":"1:218090","serviceDate":"20180402","from":{"name":"Place du Royaume (Saguenéens)","stopId":"1:1294","stopCode":"1294","lon":-71.057691,"lat":48.402355,"arrival":1522671539000,"departure":1522671540000,"zoneId":"NA","stopIndex":11,"stopSequence":12,"vertexType":"TRANSIT"},"to":{"name":"Angoulême / Bégin","stopId":"1:53","stopCode":"53","lon":-71.073604,"lat":48.405143,"arrival":1522671821000,"departure":1522671822000,"zoneId":"NA","stopIndex":18,"stopSequence":19,"vertexType":"TRANSIT"},"legGeometry":{"points":"eqlfHzmupLUxAm@nCcAlDeCvGmA|CUr@}@~A_@\\_DvCEZcA|@UP_@d@Yl@oBdFeCxG_CfGYVQXS\\dK|HlFZbC\\p@zA\\rB@hBiArG{BN","length":29},"routeShortName":"15","routeLongName":"Term. Chic / Costco","rentedBike":false,"transitLeg":true,"duration":281.0,"steps":[]},{"startTime":1522671822000,"endTime":1522671938000,"departureDelay":0,"arrivalDelay":0,"realTime":false,"distance":153.483,"pathway":false,"mode":"WALK","route":"","agencyTimeZoneOffset":-14400000,"interlineWithPreviousLeg":false,"from":{"name":"Angoulême / Bégin","stopId":"1:53","stopCode":"53","lon":-71.073604,"lat":48.405143,"arrival":1522671821000,"departure":1522671822000,"zoneId":"NA","stopIndex":18,"stopSequence":19,"vertexType":"TRANSIT"},"to":{"name":"Destination","lon":-71.072015,"lat":48.405405,"arrival":1522671938000,"orig":"","vertexType":"NORMAL"},"legGeometry":{"points":"sbmfHbqxpLH_FNa@[YaA?","length":5},"rentedBike":false,"transitLeg":false,"duration":116.0,"steps":[{"distance":153.483,"relativeDirection":"DEPART","streetName":"Rue R. E. Joron","absoluteDirection":"EAST","stayOn":false,"area":false,"bogusName":false,"lon":-71.07361147295804,"lat":48.40506820485767,"elevation":[]}]}],"tooSloped":false}]},"debugOutput":{"precalculationTime":36,"pathCalculationTime":24,"pathTimes":[14,4,6],"renderingTime":0,"totalTime":60,"timedOut":false},"elevationMetadata":{"ellipsoidToGeoidDifference":-28.885904201182168,"geoidElevation":false}}