{"requestParameters":{"date":"2018/04/02","walkSpeed":"1.33","walkReluctance":"2.0","fromPlace":"48.414116,-71.06375","maxWalkDistance":"3000","waitReluctance":"1.0","carSpeed":"33","numItineraries":"3","waitAtBeginningFactor":"0.4","mode":"TRANSIT,WALK","ignoreRealtimeUpdates":"false","stairsReluctance":"2.0","toPlace":"48.396569,-71.11286499","time":"7:20:00"},"plan":{"date":1522668000000,"from":{"name":"Origin","lon":-71.06375,"lat":48.414116,"orig":"","vertexType":"NORMAL"},"to":{"name":"Destination","lon":-71.11286499,"lat":48.396569,"orig":"","vertexType":"NORMAL"},"itineraries":[{"duration":2124,"startTime":1522668648000,"endTime":1522670772000,"walkTime":1169,"transitTime":953,"waitingTime":2,"walkDistance":1491.891315782171,"walkLimitExceeded":false,"elevationLost":0.0,"elevationGained":0.0,"transfers":0,"legs":[{"startTime":1522668648000,"endTime":1522669746000,"departureDelay":0,"arrivalDelay":0,"realTime":false,"distance":1397.838,"pathway":false,"mode":"WALK","route":"","agencyTimeZoneOffset":-14400000,"interlineWithPreviousLeg":false,"from":{"name":"Origin","lon":-71.06375,"lat":48.414116,"departure":1522668648000,"orig":"","vertexType":"NORMAL"},"to":{"name":"Saint-Paul / Dubuc","stopId":"1:420","stopCode":"420","lon":-71.075186,"lat":48.421664,"arrival":1522669746000,"departure":1522669747000,"zoneId":"NA","stopIndex":7,"stopSequence":8,"vertexType":"TRANSIT"},"legGeometry":{"points":"i{nfHvsvpLgBeBiCcCcA|FOh@GP??k@jBn@l@kAdDGReAvCu@xBeAT]x@o@nBe@nBYx@o@L_@J_@X]XGDWZW`@QR[h@gBvEo@|AcAjC[|@a@lAOb@gA~BDR?LAJAHCFEBGBGDQ`@Yp@g@|AUW","length":46},"rentedBike":false,"transitLeg":false,"duration":1098.0,"steps":[{"distance":68.771,"relativeDirection":"DEPART","streetName":"bike path","absoluteDirection":"NORTHEAST","stayOn":false,"area":false,"bogusName":false,"lon":-71.0637962538358,"lat":48.41413632919408,"elevation":[]},{"distance":90.944,"relativeDirection":"CONTINUE","streetName":"Rue Georges-Vanier","absoluteDirection":"NORTHEAST","stayOn":false,"area":false,"bogusName":false,"lon":-71.0632818,"lat":48.414652000000004,"elevation":[]},{"distance":173.619,"relativeDirection":"LEFT","streetName":"Rue des Champs-Élysées","absoluteDirection":"WEST","stayOn":false,"area":false,"bogusName":false,"lon":-71.0626228,"lat":48.4153431,"elevation":[]},{"distance":30.953,"relativeDirection":"LEFT","streetName":"Rue Bégin","absoluteDirection":"SOUTHWEST","stayOn":false,"area":false,"bogusName":false,"lon":-71.0647342,"lat":48.416021,"elevation":[]},{"distance":205.419,"relativeDirection":"RIGHT","streetName":"Rue Dubé","absoluteDirection":"NORTHWEST","stayOn":false,"area":false,"bogusName":false,"lon":-71.06496530000001,"lat":48.4157887,"elevation":[]},{"distance":188.869,"relativeDirection":"RIGHT","streetName":"path","absoluteDirection":"NORTH","stayOn":false,"area":false,"bogusName":true,"lon":-71.0672681,"lat":48.416826400000005,"elevation":[]},{"distance":505.56299999999993,"relativeDirection":"RIGHT","streetName":"Rue Jolliet","absoluteDirection":"NORTH","stayOn":false,"area":false,"bogusName":false,"lon":-71.069079,"lat":48.417887500000006,"elevation":[]},{"distance":78.343,"relativeDirection":"LEFT","streetName":"path","absoluteDirection":"WEST","stayOn":false,"area":false,"bogusName":true,"lon":-71.07388590000001,"lat":48.420954200000004,"elevation":[]},{"distance":40.771,"relativeDirection":"CONTINUE","streetName":"Rue Dubuc","absoluteDirection":"NORTHWEST","stayOn":false,"area":false,"bogusName":false,"lon":-71.07469880000001,"lat":48.4212916,"elevation":[]},{"distance":14.586,"relativeDirection":"RIGHT","streetName":"Rue Saint-Paul","absoluteDirection":"NORTHEAST","stayOn":false,"area":false,"bogusName":false,"lon":-71.0751601,"lat":48.4214934,"elevation":[]}]},{"startTime":1522669747000,"endTime":1522670700000,"departureDelay":0,"arrivalDelay":0,"realTime":false,"distance":6366.300030205251,"pathway":false,"mode":"BUS","route":"11","agencyName":"Société de Transport du Saguenay","agencyUrl":"http://ville.saguenay.ca/fr/services-aux-citoyens/transport-sts","agencyTimeZoneOffset":-14400000,"routeColor":"FF0000","routeType":3,"routeId":"1:11","routeTextColor":"FFFFFF","interlineWithPreviousLeg":false,"tripBlockId":"35","headsign":"Boul.Royaume/St-Pierre","agencyId":"0","tripId":"1:218244","serviceDate":"20180402","from":{"name":"Saint-Paul / Dubuc","stopId":"1:420","stopCode":"420","lon":-71.075186,"lat":48.421664,"arrival":1522669746000,"departure":1522669747000,"zoneId":"NA","stopIndex":7,"stopSequence":8,"vertexType":"TRANSIT"},"to":{"name":"Société de Transport du Saguenay","stopId":"1:1924","stopCode":"1924","lon":-71.114415,"lat":48.39638,"arrival":1522670700000,"departure":1522670701000,"zoneId":"NA","stopIndex":24,"stopSequence":25,"vertexType":"TRANSIT"},"legGeometry":{"points":"ajpfHfzxpLfIjIbGdGzDzD`A~An@`ApApBpClEvJrOR\\bAfBLa@t@]LjAVvAVbAVv@^bAXj@b@t@xEtGh@r@n@x@FDjA|AlBpCnJ|NNTX`@V`@eCtHpFjH{FhPcB|Ft@|CEAdCnEdHKrBz@lGiQ|CyI~IrJtAzAmKrWsE`LzJjL|P}d@Ri@hCpEpBdCHJzPrR_AhC}Ppd@KZkDxJq@`CyGfZOl@fNzIJ@HAHIDI@CnNco@","length":66},"routeShortName":"11","routeLongName":"Chic/Faubourg via St-Paul","rentedBike":false,"transitLeg":true,"duration":953.0,"steps":[]},{"startTime":1522670701000,"endTime":1522670772000,"departureDelay":0,"arrivalDelay":0,"realTime":false,"distance":93.827,"pathway":false,"mode":"WALK","route":"","agencyTimeZoneOffset":-14400000,"interlineWithPreviousLeg":false,"from":{"name":"Société de Transport du Saguenay","stopId":"1:1924","stopCode":"1924","lon":-71.114415,"lat":48.39638,"arrival":1522670700000,"departure":1522670701000,"zoneId":"NA","stopIndex":24,"stopSequence":25,"vertexType":"TRANSIT"},"to":{"name":"Destination","lon":-71.11286499,"lat":48.396569,"arrival":1522670772000,"orig":"","vertexType":"NORMAL"},"legGeometry":{"points":"ulkfHzo`qLfAeF","length":2},"rentedBike":false,"transitLeg":false,"duration":71.0,"steps":[{"distance":93.827,"relativeDirection":"DEPART","streetName":"Rue Bersimis","absoluteDirection":"SOUTHEAST","stayOn":false,"area":false,"bogusName":false,"lon":-71.11437168158321,"lat":48.396439371960675,"elevation":[]}]}],"tooSloped":false},{"duration":2124,"startTime":1522670448000,"endTime":1522672572000,"walkTime":1169,"transitTime":953,"waitingTime":2,"walkDistance":1491.891315782171,"walkLimitExceeded":false,"elevationLost":0.0,"elevationGained":0.0,"transfers":0,"legs":[{"startTime":1522670448000,"endTime":1522671546000,"departureDelay":0,"arrivalDelay":0,"realTime":false,"distance":1397.838,"pathway":false,"mode":"WALK","route":"","agencyTimeZoneOffset":-14400000,"interlineWithPreviousLeg":false,"from":{"name":"Origin","lon":-71.06375,"lat":48.414116,"departure":1522670448000,"orig":"","vertexType":"NORMAL"},"to":{"name":"Saint-Paul / Dubuc","stopId":"1:420","stopCode":"420","lon":-71.075186,"lat":48.421664,"arrival":1522671546000,"departure":1522671547000,"zoneId":"NA","stopIndex":7,"stopSequence":8,"vertexType":"TRANSIT"},"legGeometry":{"points":"i{nfHvsvpLgBeBiCcCcA|FOh@GP??k@jBn@l@kAdDGReAvCu@xBeAT]x@o@nBe@nBYx@o@L_@J_@X]XGDWZW`@QR[h@gBvEo@|AcAjC[|@a@lAOb@gA~BDR?LAJAHCFEBGBGDQ`@Yp@g@|AUW","length":46},"rentedBike":false,"transitLeg":false,"duration":1098.0,"steps":[{"distance":68.771,"relativeDirection":"DEPART","streetName":"bike path","absoluteDirection":"NORTHEAST","stayOn":false,"area":false,"bogusName":false,"lon":-71.0637962538358,"lat":48.41413632919408,"elevation":[]},{"distance":90.944,"relativeDirection":"CONTINUE","streetName":"Rue Georges-Vanier","absoluteDirection":"NORTHEAST","stayOn":false,"area":false,"bogusName":false,"lon":-71.0632818,"lat":48.414652000000004,"elevation":[]},{"distance":173.619,"relativeDirection":"LEFT","streetName":"Rue des Champs-Élysées","absoluteDirection":"WEST","stayOn":false,"area":false,"bogusName":false,"lon":-71.0626228,"lat":48.4153431,"elevation":[]},{"distance":30.953,"relativeDirection":"LEFT","streetName":"Rue Bégin","absoluteDirection":"SOUTHWEST","stayOn":false,"area":false,"bogusName":false,"lon":-71.0647342,"lat":48.416021,"elevation":[]},{"distance":205.419,"relativeDirection":"RIGHT","streetName":"Rue Dubé","absoluteDirection":"NORTHWEST","stayOn":false,"area":false,"bogusName":false,"lon":-71.06496530000001,"lat":48.4157887,"elevation":[]},{"distance":188.869,"relativeDirection":"RIGHT","streetName":"path","absoluteDirection":"NORTH","stayOn":false,"area":false,"bogusName":true,"lon":-71.0672681,"lat":48.416826400000005,"elevation":[]},{"distance":505.56299999999993,"relativeDirection":"RIGHT","streetName":"Rue Jolliet","absoluteDirection":"NORTH","stayOn":false,"area":false,"bogusName":false,"lon":-71.069079,"lat":48.417887500000006,"elevation":[]},{"distance":78.343,"relativeDirection":"LEFT","streetName":"path","absoluteDirection":"WEST","stayOn":false,"area":false,"bogusName":true,"lon":-71.07388590000001,"lat":48.420954200000004,"elevation":[]},{"distance":40.771,"relativeDirection":"CONTINUE","streetName":"Rue Dubuc","absoluteDirection":"NORTHWEST","stayOn":false,"area":false,"bogusName":false,"lon":-71.07469880000001,"lat":48.4212916,"elevation":[]},{"distance":14.586,"relativeDirection":"RIGHT","streetName":"Rue Saint-Paul","absoluteDirection":"NORTHEAST","stayOn":false,"area":false,"bogusName":false,"lon":-71.0751601,"lat":48.4214934,"elevation":[]}]},{"startTime":1522671547000,"endTime":1522672500000,"departureDelay":0,"arrivalDelay":0,"realTime":false,"distance":6366.300030205251,"pathway":false,"mode":"BUS","route":"11","agencyName":"Société de Transport du Saguenay","agencyUrl":"http://ville.saguenay.ca/fr/services-aux-citoyens/transport-sts","agencyTimeZoneOffset":-14400000,"routeColor":"FF0000","routeType":3,"routeId":"1:11","routeTextColor":"FFFFFF","interlineWithPreviousLeg":false,"tripBlockId":"37","headsign":"Boul.Royaume/St-Pierre","agencyId":"0","tripId":"1:218306","serviceDate":"20180402","from":{"name":"Saint-Paul / Dubuc","stopId":"1:420","stopCode":"420","lon":-71.075186,"lat":48.421664,"arrival":1522671546000,"departure":1522671547000,"zoneId":"NA","stopIndex":7,"stopSequence":8,"vertexType":"TRANSIT"},"to":{"name":"Société de Transport du Saguenay","stopId":"1:1924","stopCode":"1924","lon":-71.114415,"lat":48.39638,"arrival":1522672500000,"departure":1522672501000,"zoneId":"NA","stopIndex":24,"stopSequence":25,"vertexType":"TRANSIT"},"legGeometry":{"points":"ajpfHfzxpLfIjIbGdGzDzD`A~An@`ApApBpClEvJrOR\\bAfBLa@t@]LjAVvAVbAVv@^bAXj@b@t@xEtGh@r@n@x@FDjA|AlBpCnJ|NNTX`@V`@eCtHpFjH{FhPcB|Ft@|CEAdCnEdHKrBz@lGiQ|CyI~IrJtAzAmKrWsE`LzJjL|P}d@Ri@hCpEpBdCHJzPrR_AhC}Ppd@KZkDxJq@`CyGfZOl@fNzIJ@HAHIDI@CnNco@","length":66},"routeShortName":"11","routeLongName":"Chic/Faubourg via St-Paul","rentedBike":false,"transitLeg":true,"duration":953.0,"steps":[]},{"startTime":1522672501000,"endTime":1522672572000,"departureDelay":0,"arrivalDelay":0,"realTime":false,"distance":93.827,"pathway":false,"mode":"WALK","route":"","agencyTimeZoneOffset":-14400000,"interlineWithPreviousLeg":false,"from":{"name":"Société de Transport du Saguenay","stopId":"1:1924","stopCode":"1924","lon":-71.114415,"lat":48.39638,"arrival":1522672500000,"departure":1522672501000,"zoneId":"NA","stopIndex":24,"stopSequence":25,"vertexType":"TRANSIT"},"to":{"name":"Destination","lon":-71.11286499,"lat":48.396569,"arrival":1522672572000,"orig":"","vertexType":"NORMAL"},"legGeometry":{"points":"ulkfHzo`qLfAeF","length":2},"rentedBike":false,"transitLeg":false,"duration":71.0,"steps":[{"distance":93.827,"relativeDirection":"DEPART","streetName":"Rue Bersimis","absoluteDirection":"SOUTHEAST","stayOn":false,"area":false,"bogusName":false,"lon":-71.11437168158321,"lat":48.396439371960675,"elevation":[]}]}],"tooSloped":false},{"duration":2124,"startTime":1522672248000,"endTime":1522674372000,"walkTime":1169,"transitTime":953,"waitingTime":2,"walkDistance":1491.891315782171,"walkLimitExceeded":false,"elevationLost":0.0,"elevationGained":0.0,"transfers":0,"legs":[{"startTime":1522672248000,"endTime":1522673346000,"departureDelay":0,"arrivalDelay":0,"realTime":false,"distance":1397.838,"pathway":false,"mode":"WALK","route":"","agencyTimeZoneOffset":-14400000,"interlineWithPreviousLeg":false,"from":{"name":"Origin","lon":-71.06375,"lat":48.414116,"departure":1522672248000,"orig":"","vertexType":"NORMAL"},"to":{"name":"Saint-Paul / Dubuc","stopId":"1:420","stopCode":"420","lon":-71.075186,"lat":48.421664,"arrival":1522673346000,"departure":1522673347000,"zoneId":"NA","stopIndex":7,"stopSequence":8,"vertexType":"TRANSIT"},"legGeometry":{"points":"i{nfHvsvpLgBeBiCcCcA|FOh@GP??k@jBn@l@kAdDGReAvCu@xBeAT]x@o@nBe@nBYx@o@L_@J_@X]XGDWZW`@QR[h@gBvEo@|AcAjC[|@a@lAOb@gA~BDR?LAJAHCFEBGBGDQ`@Yp@g@|AUW","length":46},"rentedBike":false,"transitLeg":false,"duration":1098.0,"steps":[{"distance":68.771,"relativeDirection":"DEPART","streetName":"bike path","absoluteDirection":"NORTHEAST","stayOn":false,"area":false,"bogusName":false,"lon":-71.0637962538358,"lat":48.41413632919408,"elevation":[]},{"distance":90.944,"relativeDirection":"CONTINUE","streetName":"Rue Georges-Vanier","absoluteDirection":"NORTHEAST","stayOn":false,"area":false,"bogusName":false,"lon":-71.0632818,"lat":48.414652000000004,"elevation":[]},{"distance":173.619,"relativeDirection":"LEFT","streetName":"Rue des Champs-Élysées","absoluteDirection":"WEST","stayOn":false,"area":false,"bogusName":false,"lon":-71.0626228,"lat":48.4153431,"elevation":[]},{"distance":30.953,"relativeDirection":"LEFT","streetName":"Rue Bégin","absoluteDirection":"SOUTHWEST","stayOn":false,"area":false,"bogusName":false,"lon":-71.0647342,"lat":48.416021,"elevation":[]},{"distance":205.419,"relativeDirection":"RIGHT","streetName":"Rue Dubé","absoluteDirection":"NORTHWEST","stayOn":false,"area":false,"bogusName":false,"lon":-71.06496530000001,"lat":48.4157887,"elevation":[]},{"distance":188.869,"relativeDirection":"RIGHT","streetName":"path","absoluteDirection":"NORTH","stayOn":false,"area":false,"bogusName":true,"lon":-71.0672681,"lat":48.416826400000005,"elevation":[]},{"distance":505.56299999999993,"relativeDirection":"RIGHT","streetName":"Rue Jolliet","absoluteDirection":"NORTH","stayOn":false,"area":false,"bogusName":false,"lon":-71.069079,"lat":48.417887500000006,"elevation":[]},{"distance":78.343,"relativeDirection":"LEFT","streetName":"path","absoluteDirection":"WEST","stayOn":false,"area":false,"bogusName":true,"lon":-71.07388590000001,"lat":48.420954200000004,"elevation":[]},{"distance":40.771,"relativeDirection":"CONTINUE","streetName":"Rue Dubuc","absoluteDirection":"NORTHWEST","stayOn":false,"area":false,"bogusName":false,"lon":-71.07469880000001,"lat":48.4212916,"elevation":[]},{"distance":14.586,"relativeDirection":"RIGHT","streetName":"Rue Saint-Paul","absoluteDirection":"NORTHEAST","stayOn":false,"area":false,"bogusName":false,"lon":-71.0751601,"lat":48.4214934,"elevation":[]}]},{"startTime":1522673347000,"endTime":1522674300000,"departureDelay":0,"arrivalDelay":0,"realTime":false,"distance":6366.300030205251,"pathway":false,"mode":"BUS","route":"11","agencyName":"Société de Transport du Saguenay","agencyUrl":"http://ville.saguenay.ca/fr/services-aux-citoyens/transport-sts","agencyTimeZoneOffset":-14400000,"routeColor":"FF0000","routeType":3,"routeId":"1:11","routeTextColor":"FFFFFF","interlineWithPreviousLeg":false,"tripBlockId":"34","headsign":"Boul.Royaume/St-Pierre","agencyId":"0","tripId":"1:218211","serviceDate":"20180402","from":{"name":"Saint-Paul / Dubuc","stopId":"1:420","stopCode":"420","lon":-71.075186,"lat":48.421664,"arrival":1522673346000,"departure":1522673347000,"zoneId":"NA","stopIndex":7,"stopSequence":8,"vertexType":"TRANSIT"},"to":{"name":"Société de Transport du Saguenay","stopId":"1:1924","stopCode":"1924","lon":-71.114415,"lat":48.39638,"arrival":1522674300000,"departure":1522674301000,"zoneId":"NA","stopIndex":24,"stopSequence":25,"vertexType":"TRANSIT"},"legGeometry":{"points":"ajpfHfzxpLfIjIbGdGzDzD`A~An@`ApApBpClEvJrOR\\bAfBLa@t@]LjAVvAVbAVv@^bAXj@b@t@xEtGh@r@n@x@FDjA|AlBpCnJ|NNTX`@V`@eCtHpFjH{FhPcB|Ft@|CEAdCnEdHKrBz@lGiQ|CyI~IrJtAzAmKrWsE`LzJjL|P}d@Ri@hCpEpBdCHJzPrR_AhC}Ppd@KZkDxJq@`CyGfZOl@fNzIJ@HAHIDI@CnNco@","length":66},"routeShortName":"11","routeLongName":"Chic/Faubourg via St-Paul","rentedBike":false,"transitLeg":true,"duration":953.0,"steps":[]},{"startTime":1522674301000,"endTime":1522674372000,"departureDelay":0,"arrivalDelay":0,"realTime":false,"distance":93.827,"pathway":false,"mode":"WALK","route":"","agencyTimeZoneOffset":-14400000,"interlineWithPreviousLeg":false,"from":{"name":"Société de Transport du Saguenay","stopId":"1:1924","stopCode":"1924","lon":-71.114415,"lat":48.39638,"arrival":1522674300000,"departure":1522674301000,"zoneId":"NA","stopIndex":24,"stopSequence":25,"vertexType":"TRANSIT"},"to":{"name":"Destination","lon":-71.11286499,"lat":48.396569,"arrival":1522674372000,"orig":"","vertexType":"NORMAL"},"legGeometry":{"points":"ulkfHzo`qLfAeF","length":2},"rentedBike":false,"transitLeg":false,"duration":71.0,"steps":[{"distance":93.827,"relativeDirection":"DEPART","streetName":"Rue Bersimis","absoluteDirection":"SOUTHEAST","stayOn":false,"area":false,"bogusName":false,"lon":-71.11437168158321,"lat":48.396439371960675,"elevation":[]}]}],"tooSloped":false}]},"debugOutput":{"precalculationTime":22,"pathCalculationTime":55,"pathTimes":[22,15,18],"renderingTime":1,"totalTime":78,"timedOut":false},"elevationMetadata":{"ellipsoidToGeoidDifference":-28.885904201182168,"geoidElevation":false}}