{"requestParameters":{"date":"2018/04/02","walkSpeed":"1.33","walkReluctance":"2.0","fromPlace":"48.413295,-71.049231","maxWalkDistance":"3000","waitReluctance":"1.0","carSpeed":"33","numItineraries":"3","waitAtBeginningFactor":"0.4","mode":"TRANSIT,WALK","ignoreRealtimeUpdates":"false","stairsReluctance":"2.0","toPlace":"48.404066,-71.069852","time":"18:17:00"},"plan":{"date":1522707420000,"from":{"name":"Origin","lon":-71.049231,"lat":48.413295,"orig":"","vertexType":"NORMAL"},"to":{"name":"Destination","lon":-71.069852,"lat":48.404066,"orig":"","vertexType":"NORMAL"},"itineraries":[{"duration":1912,"startTime":1522707420000,"endTime":1522709332000,"walkTime":1912,"transitTime":0,"waitingTime":0,"walkDistance":2463.8491428456186,"walkLimitExceeded":false,"elevationLost":0.0,"elevationGained":0.0,"transfers":0,"legs":[{"startTime":1522707420000,"endTime":1522709332000,"departureDelay":0,"arrivalDelay":0,"realTime":false,"distance":2463.4919999999997,"pathway":false,"mode":"WALK","route":"","agencyTimeZoneOffset":-14400000,"interlineWithPreviousLeg":false,"from":{"name":"Origin","lon":-71.049231,"lat":48.413295,"departure":1522707420000,"orig":"","vertexType":"NORMAL"},"to":{"name":"Destination","lon":-71.069852,"lat":48.404066,"arrival":1522709332000,"orig":"","vertexType":"NORMAL"},"legGeometry":{"points":"awnfH|zspLjGrGTXLJx@|@bDfDjDlDK^hD`DdE`ENNGPm@|A]|@O`@M\\fBfBcAvCLJXV\\ZfGrFvAnAv@p@dE|DO`@aClGQd@bBlFhA`DNHFD|B`A`Bt@BBr@ZfGfFmA`DYr@kB`Fc@hAkB~EU[EE","length":44},"rentedBike":false,"transitLeg":false,"duration":1912.0,"steps":[{"distance":737.908,"relativeDirection":"DEPART","streetName":"Boulevard Talbot","absoluteDirection":"SOUTHWEST","stayOn":false,"area":false,"bogusName":false,"lon":-71.04958085233693,"lat":48.41345487585925,"elevation":[]},{"distance":108.344,"relativeDirection":"RIGHT","streetName":"Rue des Champs-Élysées","absoluteDirection":"NORTHWEST","stayOn":false,"area":false,"bogusName":false,"lon":-71.0551966,"lat":48.4081015,"elevation":[]},{"distance":69.905,"relativeDirection":"LEFT","streetName":"Rue Plamondon","absoluteDirection":"SOUTHWEST","stayOn":false,"area":false,"bogusName":false,"lon":-71.0563831,"lat":48.4086751,"elevation":[]},{"distance":67.359,"relativeDirection":"RIGHT","streetName":"Rue Plamondon","absoluteDirection":"NORTHWEST","stayOn":true,"area":false,"bogusName":false,"lon":-71.05690750000001,"lat":48.408151600000004,"elevation":[]},{"distance":440.942,"relativeDirection":"LEFT","streetName":"Rue Bach","absoluteDirection":"SOUTHWEST","stayOn":false,"area":false,"bogusName":false,"lon":-71.05766410000001,"lat":48.408490300000004,"elevation":[]},{"distance":681.5930000000001,"relativeDirection":"RIGHT","streetName":"Rue Des Maristes","absoluteDirection":"NORTHWEST","stayOn":false,"area":false,"bogusName":false,"lon":-71.06080990000001,"lat":48.405119500000005,"elevation":[]},{"distance":337.264,"relativeDirection":"RIGHT","streetName":"Rue Saint-Siméon","absoluteDirection":"NORTHWEST","stayOn":false,"area":false,"bogusName":false,"lon":-71.066518,"lat":48.4022202,"elevation":[]},{"distance":20.177,"relativeDirection":"RIGHT","streetName":"Rue Des Éboulements","absoluteDirection":"NORTHEAST","stayOn":false,"area":false,"bogusName":false,"lon":-71.0702093,"lat":48.404007400000005,"elevation":[]}]}],"tooSloped":false},{"duration":1516,"startTime":1522707861000,"endTime":1522709377000,"walkTime":1221,"transitTime":293,"waitingTime":2,"walkDistance":1577.3169924748465,"walkLimitExceeded":false,"elevationLost":0.0,"elevationGained":0.0,"transfers":0,"legs":[{"startTime":1522707861000,"endTime":1522708082000,"departureDelay":0,"arrivalDelay":0,"realTime":false,"distance":287.543,"pathway":false,"mode":"WALK","route":"","agencyTimeZoneOffset":-14400000,"interlineWithPreviousLeg":false,"from":{"name":"Origin","lon":-71.049231,"lat":48.413295,"departure":1522707861000,"orig":"","vertexType":"NORMAL"},"to":{"name":"boul. Université / Murdock","stopId":"1:80","stopCode":"80","lon":-71.050111,"lat":48.411498,"arrival":1522708082000,"departure":1522708083000,"zoneId":"NA","stopIndex":14,"stopSequence":15,"vertexType":"TRANSIT"},"legGeometry":{"points":"awnfH|zspLjGrGTX|AmE","length":4},"rentedBike":false,"transitLeg":false,"duration":221.0,"steps":[{"distance":196.245,"relativeDirection":"DEPART","streetName":"Boulevard Talbot","absoluteDirection":"SOUTHWEST","stayOn":false,"area":false,"bogusName":false,"lon":-71.04958085233693,"lat":48.41345487585925,"elevation":[]},{"distance":91.298,"relativeDirection":"LEFT","streetName":"Boulevard de l'Université","absoluteDirection":"SOUTHEAST","stayOn":false,"area":false,"bogusName":false,"lon":-71.0510904,"lat":48.412002,"elevation":[]}]},{"startTime":1522708083000,"endTime":1522708376000,"departureDelay":0,"arrivalDelay":0,"realTime":false,"distance":1866.5220490795061,"pathway":false,"mode":"BUS","route":"175","agencyName":"Société de Transport du Saguenay","agencyUrl":"http://ville.saguenay.ca/fr/services-aux-citoyens/transport-sts","agencyTimeZoneOffset":-14400000,"routeColor":"FF00FF","routeType":3,"routeId":"1:175","routeTextColor":"FFFFFF","interlineWithPreviousLeg":false,"tripBlockId":"8","headsign":"Costco","agencyId":"0","tripId":"1:217380","serviceDate":"20180402","from":{"name":"boul. Université / Murdock","stopId":"1:80","stopCode":"80","lon":-71.050111,"lat":48.411498,"arrival":1522708082000,"departure":1522708083000,"zoneId":"NA","stopIndex":14,"stopSequence":15,"vertexType":"TRANSIT"},"to":{"name":"boul. Talbot (no. 1494) (Tim-Horton)","stopId":"1:1854","stopCode":"1854","lon":-71.060941,"lat":48.402118,"arrival":1522708376000,"departure":1522708377000,"zoneId":"NA","stopIndex":21,"stopSequence":22,"vertexType":"TRANSIT"},"legGeometry":{"points":"aknfH~}spLr@sBhCsKz@dAjB|@dM`GzCvAXrCr@~Gx@]PEr@ObACn@FrBb@|@Ch@Kx@U~HsB^KZ|DJpII~Fa@rFUzBi@bDUxAm@nCcAlDM^RTfD`D","length":32},"routeShortName":"175","routeLongName":"Term. Chic / Costco","rentedBike":false,"transitLeg":true,"duration":293.0,"steps":[]},{"startTime":1522708377000,"endTime":1522709377000,"departureDelay":0,"arrivalDelay":0,"realTime":false,"distance":1289.577,"pathway":false,"mode":"WALK","route":"","agencyTimeZoneOffset":-14400000,"interlineWithPreviousLeg":false,"from":{"name":"boul. Talbot (no. 1494) (Tim-Horton)","stopId":"1:1854","stopCode":"1854","lon":-71.060941,"lat":48.402118,"arrival":1522708376000,"departure":1522708377000,"zoneId":"NA","stopIndex":21,"stopSequence":22,"vertexType":"TRANSIT"},"to":{"name":"Destination","lon":-71.069852,"lat":48.404066,"arrival":1522709377000,"orig":"","vertexType":"NORMAL"},"legGeometry":{"points":"}olfHhavpLgDcDMV_ArBwBxFeA~BaAjAKJkAbA}@v@SDhA`DNHFD|B`A`Bt@BBr@ZfGfFmA`DYr@kB`Fc@hAkB~EU[EE","length":26},"rentedBike":false,"transitLeg":false,"duration":1000.0,"steps":[{"distance":111.149,"relativeDirection":"DEPART","streetName":"Boulevard Talbot","absoluteDirection":"NORTHEAST","stayOn":false,"area":false,"bogusName":false,"lon":-71.06084575275527,"lat":48.40207691199218,"elevation":[]},{"distance":397.816,"relativeDirection":"LEFT","streetName":"Rue des Saguenéens","absoluteDirection":"NORTHWEST","stayOn":false,"area":false,"bogusName":false,"lon":-71.0600254,"lat":48.4029151,"elevation":[]},{"distance":423.171,"relativeDirection":"LEFT","streetName":"Rue Des Maristes","absoluteDirection":"SOUTHWEST","stayOn":false,"area":false,"bogusName":false,"lon":-71.0637066,"lat":48.4054395,"elevation":[]},{"distance":337.264,"relativeDirection":"RIGHT","streetName":"Rue Saint-Siméon","absoluteDirection":"NORTHWEST","stayOn":false,"area":false,"bogusName":false,"lon":-71.066518,"lat":48.4022202,"elevation":[]},{"distance":20.177,"relativeDirection":"RIGHT","streetName":"Rue Des Éboulements","absoluteDirection":"NORTHEAST","stayOn":false,"area":false,"bogusName":false,"lon":-71.0702093,"lat":48.404007400000005,"elevation":[]}]}],"tooSloped":false},{"duration":1516,"startTime":1522709661000,"endTime":1522711177000,"walkTime":1221,"transitTime":293,"waitingTime":2,"walkDistance":1577.3169924748465,"walkLimitExceeded":false,"elevationLost":0.0,"elevationGained":0.0,"transfers":0,"legs":[{"startTime":1522709661000,"endTime":1522709882000,"departureDelay":0,"arrivalDelay":0,"realTime":false,"distance":287.543,"pathway":false,"mode":"WALK","route":"","agencyTimeZoneOffset":-14400000,"interlineWithPreviousLeg":false,"from":{"name":"Origin","lon":-71.049231,"lat":48.413295,"departure":1522709661000,"orig":"","vertexType":"NORMAL"},"to":{"name":"boul. Université / Murdock","stopId":"1:80","stopCode":"80","lon":-71.050111,"lat":48.411498,"arrival":1522709882000,"departure":1522709883000,"zoneId":"NA","stopIndex":14,"stopSequence":15,"vertexType":"TRANSIT"},"legGeometry":{"points":"awnfH|zspLjGrGTX|AmE","length":4},"rentedBike":false,"transitLeg":false,"duration":221.0,"steps":[{"distance":196.245,"relativeDirection":"DEPART","streetName":"Boulevard Talbot","absoluteDirection":"SOUTHWEST","stayOn":false,"area":false,"bogusName":false,"lon":-71.04958085233693,"lat":48.41345487585925,"elevation":[]},{"distance":91.298,"relativeDirection":"LEFT","streetName":"Boulevard de l'Université","absoluteDirection":"SOUTHEAST","stayOn":false,"area":false,"bogusName":false,"lon":-71.0510904,"lat":48.412002,"elevation":[]}]},{"startTime":1522709883000,"endTime":1522710176000,"departureDelay":0,"arrivalDelay":0,"realTime":false,"distance":1866.5220490795061,"pathway":false,"mode":"BUS","route":"175","agencyName":"Société de Transport du Saguenay","agencyUrl":"http://ville.saguenay.ca/fr/services-aux-citoyens/transport-sts","agencyTimeZoneOffset":-14400000,"routeColor":"FF00FF","routeType":3,"routeId":"1:175","routeTextColor":"FFFFFF","interlineWithPreviousLeg":false,"tripBlockId":"6","headsign":"Costco","agencyId":"0","tripId":"1:217309","serviceDate":"20180402","from":{"name":"boul. Université / Murdock","stopId":"1:80","stopCode":"80","lon":-71.050111,"lat":48.411498,"arrival":1522709882000,"departure":1522709883000,"zoneId":"NA","stopIndex":14,"stopSequence":15,"vertexType":"TRANSIT"},"to":{"name":"boul. Talbot (no. 1494) (Tim-Horton)","stopId":"1:1854","stopCode":"1854","lon":-71.060941,"lat":48.402118,"arrival":1522710176000,"departure":1522710177000,"zoneId":"NA","stopIndex":21,"stopSequence":22,"vertexType":"TRANSIT"},"legGeometry":{"points":"aknfH~}spLr@sBhCsKz@dAjB|@dM`GzCvAXrCr@~Gx@]PEr@ObACn@FrBb@|@Ch@Kx@U~HsB^KZ|DJpII~Fa@rFUzBi@bDUxAm@nCcAlDM^RTfD`D","length":32},"routeShortName":"175","routeLongName":"Term. Chic / Costco","rentedBike":false,"transitLeg":true,"duration":293.0,"steps":[]},{"startTime":1522710177000,"endTime":1522711177000,"departureDelay":0,"arrivalDelay":0,"realTime":false,"distance":1289.577,"pathway":false,"mode":"WALK","route":"","agencyTimeZoneOffset":-14400000,"interlineWithPreviousLeg":false,"from":{"name":"boul. Talbot (no. 1494) (Tim-Horton)","stopId":"1:1854","stopCode":"1854","lon":-71.060941,"lat":48.402118,"arrival":1522710176000,"departure":1522710177000,"zoneId":"NA","stopIndex":21,"stopSequence":22,"vertexType":"TRANSIT"},"to":{"name":"Destination","lon":-71.069852,"lat":48.404066,"arrival":1522711177000,"orig":"","vertexType":"NORMAL"},"legGeometry":{"points":"}olfHhavpLgDcDMV_ArBwBxFeA~BaAjAKJkAbA}@v@SDhA`DNHFD|B`A`Bt@BBr@ZfGfFmA`DYr@kB`Fc@hAkB~EU[EE","length":26},"rentedBike":false,"transitLeg":false,"duration":1000.0,"steps":[{"distance":111.149,"relativeDirection":"DEPART","streetName":"Boulevard Talbot","absoluteDirection":"NORTHEAST","stayOn":false,"area":false,"bogusName":false,"lon":-71.06084575275527,"lat":48.40207691199218,"elevation":[]},{"distance":397.816,"relativeDirection":"LEFT","streetName":"Rue des Saguenéens","absoluteDirection":"NORTHWEST","stayOn":false,"area":false,"bogusName":false,"lon":-71.0600254,"lat":48.4029151,"elevation":[]},{"distance":423.171,"relativeDirection":"LEFT","streetName":"Rue Des Maristes","absoluteDirection":"SOUTHWEST","stayOn":false,"area":false,"bogusName":false,"lon":-71.0637066,"lat":48.4054395,"elevation":[]},{"distance":337.264,"relativeDirection":"RIGHT","streetName":"Rue Saint-Siméon","absoluteDirection":"NORTHWEST","stayOn":false,"area":false,"bogusName":false,"lon":-71.066518,"lat":48.4022202,"elevation":[]},{"distance":20.177,"relativeDirection":"RIGHT","streetName":"Rue Des Éboulements","absoluteDirection":"NORTHEAST","stayOn":false,"area":false,"bogusName":false,"lon":-71.0702093,"lat":48.404007400000005,"elevation":[]}]}],"tooSloped":false}]},"debugOutput":{"precalculationTime":36,"pathCalculationTime":45,"pathTimes":[21,11,13],"renderingTime":1,"totalTime":82,"timedOut":false},"elevationMetadata":{"ellipsoidToGeoidDifference":-28.885904201182168,"geoidElevation":false}}