{"requestParameters":{"date":"2018/04/02","walkSpeed":"1.33","walkReluctance":"2.0","fromPlace":"48.407947,-71.059764","maxWalkDistance":"3000","waitReluctance":"1.0","carSpeed":"33","numItineraries":"3","waitAtBeginningFactor":"0.4","mode":"TRANSIT,WALK","ignoreRealtimeUpdates":"false","stairsReluctance":"2.0","toPlace":"48.407063,-71.054811","time":"8:5:00"},"plan":{"date":1522670700000,"from":{"name":"Origin","lon":-71.059764,"lat":48.407947,"orig":"","vertexType":"NORMAL"},"to":{"name":"Destination","lon":-71.054811,"lat":48.407063,"orig":"","vertexType":"NORMAL"},"itineraries":[{"duration":476,"startTime":1522670700000,"endTime":1522671176000,"walkTime":476,"transitTime":0,"waitingTime":0,"walkDistance":596.3705714228095,"walkLimitExceeded":false,"elevationLost":0.0,"elevationGained":0.0,"transfers":0,"legs":[{"startTime":1522670700000,"endTime":1522671176000,"departureDelay":0,"arrivalDelay":0,"realTime":false,"distance":596.192,"pathway":false,"mode":"WALK","route":"","agencyTimeZoneOffset":-14400000,"interlineWithPreviousLeg":false,"from":{"name":"Origin","lon":-71.059764,"lat":48.407947,"departure":1522670700000,"orig":"","vertexType":"NORMAL"},"to":{"name":"Destination","lon":-71.054811,"lat":48.407063,"arrival":1522671176000,"orig":"","vertexType":"NORMAL"},"legGeometry":{"points":"}smfHzxupLqEmElA_DbAwCgBgBL]Na@\\}@l@}AFQNa@LAn@MLe@H_@xArA","length":16},"rentedBike":false,"transitLeg":false,"duration":476.0,"steps":[{"distance":139.44,"relativeDirection":"DEPART","streetName":"Rue Ravel","absoluteDirection":"NORTHEAST","stayOn":false,"area":false,"bogusName":false,"lon":-71.05949784855088,"lat":48.40783229924087,"elevation":[]},{"distance":141.176,"relativeDirection":"RIGHT","streetName":"Rue Plamondon","absoluteDirection":"SOUTHEAST","stayOn":false,"area":false,"bogusName":false,"lon":-71.0584692,"lat":48.4088841,"elevation":[]},{"distance":69.905,"relativeDirection":"LEFT","streetName":"Rue Plamondon","absoluteDirection":"NORTHEAST","stayOn":true,"area":false,"bogusName":false,"lon":-71.05690750000001,"lat":48.408151600000004,"elevation":[]},{"distance":123.481,"relativeDirection":"RIGHT","streetName":"Rue des Champs-Élysées","absoluteDirection":"SOUTHEAST","stayOn":false,"area":false,"bogusName":false,"lon":-71.0563831,"lat":48.4086751,"elevation":[]},{"distance":34.36,"relativeDirection":"RIGHT","streetName":"path","absoluteDirection":"SOUTH","stayOn":false,"area":false,"bogusName":true,"lon":-71.05502820000001,"lat":48.4080238,"elevation":[]},{"distance":87.83,"relativeDirection":"LEFT","streetName":"parking aisle","absoluteDirection":"SOUTHEAST","stayOn":true,"area":false,"bogusName":true,"lon":-71.0549472,"lat":48.407719500000006,"elevation":[]}]}],"tooSloped":false},{"duration":476,"startTime":1522671178000,"endTime":1522671654000,"walkTime":429,"transitTime":45,"waitingTime":2,"walkDistance":534.3678195431346,"walkLimitExceeded":false,"elevationLost":0.0,"elevationGained":0.0,"transfers":0,"legs":[{"startTime":1522671178000,"endTime":1522671453000,"departureDelay":0,"arrivalDelay":0,"realTime":false,"distance":345.94800000000004,"pathway":false,"mode":"WALK","route":"","agencyTimeZoneOffset":-14400000,"interlineWithPreviousLeg":false,"from":{"name":"Origin","lon":-71.059764,"lat":48.407947,"departure":1522671178000,"orig":"","vertexType":"NORMAL"},"to":{"name":"Champs-Élysées / Chopin","stopId":"1:570","stopCode":"570","lon":-71.058565,"lat":48.409684,"arrival":1522671453000,"departure":1522671454000,"zoneId":"NA","stopIndex":11,"stopSequence":12,"vertexType":"TRANSIT"},"legGeometry":{"points":"}smfHzxupLqEmEsArDiAe@}@i@n@}A","length":6},"rentedBike":false,"transitLeg":false,"duration":275.0,"steps":[{"distance":139.44,"relativeDirection":"DEPART","streetName":"Rue Ravel","absoluteDirection":"NORTHEAST","stayOn":false,"area":false,"bogusName":false,"lon":-71.05949784855088,"lat":48.40783229924087,"elevation":[]},{"distance":80.733,"relativeDirection":"LEFT","streetName":"Rue Plamondon","absoluteDirection":"NORTHWEST","stayOn":false,"area":false,"bogusName":false,"lon":-71.0584692,"lat":48.4088841,"elevation":[]},{"distance":81.742,"relativeDirection":"RIGHT","streetName":"Rue Bizet","absoluteDirection":"NORTH","stayOn":false,"area":false,"bogusName":false,"lon":-71.0593601,"lat":48.4093053,"elevation":[]},{"distance":44.033,"relativeDirection":"RIGHT","streetName":"Rue des Champs-Élysées","absoluteDirection":"SOUTHEAST","stayOn":false,"area":false,"bogusName":false,"lon":-71.0589618,"lat":48.409989800000005,"elevation":[]}]},{"startTime":1522671454000,"endTime":1522671499000,"departureDelay":0,"arrivalDelay":0,"realTime":false,"distance":253.7273627267948,"pathway":false,"mode":"BUS","route":"12","agencyName":"Société de Transport du Saguenay","agencyUrl":"http://ville.saguenay.ca/fr/services-aux-citoyens/transport-sts","agencyTimeZoneOffset":-14400000,"routeColor":"556B2F","routeType":3,"routeId":"1:12","routeTextColor":"FFFFFF","interlineWithPreviousLeg":false,"tripBlockId":"26","headsign":"Terminus Chicoutimi","agencyId":"0","tripId":"1:217967","serviceDate":"20180402","from":{"name":"Champs-Élysées / Chopin","stopId":"1:570","stopCode":"570","lon":-71.058565,"lat":48.409684,"arrival":1522671453000,"departure":1522671454000,"zoneId":"NA","stopIndex":11,"stopSequence":12,"vertexType":"TRANSIT"},"to":{"name":"Place du Saguenay (Champs-Élysées)","stopId":"1:571","stopCode":"571","lon":-71.055824,"lat":48.408307,"arrival":1522671499000,"departure":1522671500000,"zoneId":"NA","stopIndex":12,"stopSequence":13,"vertexType":"TRANSIT"},"legGeometry":{"points":"o_nfH`supLrGcP","length":2},"routeShortName":"12","routeLongName":"Rivière du Moulin","rentedBike":false,"transitLeg":true,"duration":45.0,"steps":[]},{"startTime":1522671500000,"endTime":1522671654000,"departureDelay":0,"arrivalDelay":0,"realTime":false,"distance":188.242,"pathway":false,"mode":"WALK","route":"","agencyTimeZoneOffset":-14400000,"interlineWithPreviousLeg":false,"from":{"name":"Place du Saguenay (Champs-Élysées)","stopId":"1:571","stopCode":"571","lon":-71.055824,"lat":48.408307,"arrival":1522671499000,"departure":1522671500000,"zoneId":"NA","stopIndex":12,"stopSequence":13,"vertexType":"TRANSIT"},"to":{"name":"Destination","lon":-71.054811,"lat":48.407063,"arrival":1522671654000,"orig":"","vertexType":"NORMAL"},"legGeometry":{"points":"iwmfHnaupLl@}AFQNa@LAn@MLe@H_@xArA","length":9},"rentedBike":false,"transitLeg":false,"duration":154.0,"steps":[{"distance":66.05199999999999,"relativeDirection":"DEPART","streetName":"Rue des Champs-Élysées","absoluteDirection":"SOUTHEAST","stayOn":false,"area":false,"bogusName":false,"lon":-71.05575512063196,"lat":48.408370203803415,"elevation":[]},{"distance":34.36,"relativeDirection":"RIGHT","streetName":"path","absoluteDirection":"SOUTH","stayOn":false,"area":false,"bogusName":true,"lon":-71.05502820000001,"lat":48.4080238,"elevation":[]},{"distance":87.83,"relativeDirection":"LEFT","streetName":"parking aisle","absoluteDirection":"SOUTHEAST","stayOn":true,"area":false,"bogusName":true,"lon":-71.0549472,"lat":48.407719500000006,"elevation":[]}]}],"tooSloped":false},{"duration":476,"startTime":1522672978000,"endTime":1522673454000,"walkTime":429,"transitTime":45,"waitingTime":2,"walkDistance":534.3678195431346,"walkLimitExceeded":false,"elevationLost":0.0,"elevationGained":0.0,"transfers":0,"legs":[{"startTime":1522672978000,"endTime":1522673253000,"departureDelay":0,"arrivalDelay":0,"realTime":false,"distance":345.94800000000004,"pathway":false,"mode":"WALK","route":"","agencyTimeZoneOffset":-14400000,"interlineWithPreviousLeg":false,"from":{"name":"Origin","lon":-71.059764,"lat":48.407947,"departure":1522672978000,"orig":"","vertexType":"NORMAL"},"to":{"name":"Champs-Élysées / Chopin","stopId":"1:570","stopCode":"570","lon":-71.058565,"lat":48.409684,"arrival":1522673253000,"departure":1522673254000,"zoneId":"NA","stopIndex":11,"stopSequence":12,"vertexType":"TRANSIT"},"legGeometry":{"points":"}smfHzxupLqEmEsArDiAe@}@i@n@}A","length":6},"rentedBike":false,"transitLeg":false,"duration":275.0,"steps":[{"distance":139.44,"relativeDirection":"DEPART","streetName":"Rue Ravel","absoluteDirection":"NORTHEAST","stayOn":false,"area":false,"bogusName":false,"lon":-71.05949784855088,"lat":48.40783229924087,"elevation":[]},{"distance":80.733,"relativeDirection":"LEFT","streetName":"Rue Plamondon","absoluteDirection":"NORTHWEST","stayOn":false,"area":false,"bogusName":false,"lon":-71.0584692,"lat":48.4088841,"elevation":[]},{"distance":81.742,"relativeDirection":"RIGHT","streetName":"Rue Bizet","absoluteDirection":"NORTH","stayOn":false,"area":false,"bogusName":false,"lon":-71.0593601,"lat":48.4093053,"elevation":[]},{"distance":44.033,"relativeDirection":"RIGHT","streetName":"Rue des Champs-Élysées","absoluteDirection":"SOUTHEAST","stayOn":false,"area":false,"bogusName":false,"lon":-71.0589618,"lat":48.409989800000005,"elevation":[]}]},{"startTime":1522673254000,"endTime":1522673299000,"departureDelay":0,"arrivalDelay":0,"realTime":false,"distance":253.7273627267948,"pathway":false,"mode":"BUS","route":"12","agencyName":"Société de Transport du Saguenay","agencyUrl":"http://ville.saguenay.ca/fr/services-aux-citoyens/transport-sts","agencyTimeZoneOffset":-14400000,"routeColor":"556B2F","routeType":3,"routeId":"1:12","routeTextColor":"FFFFFF","interlineWithPreviousLeg":false,"tripBlockId":"29","headsign":"Terminus Chicoutimi","agencyId":"0","tripId":"1:218056","serviceDate":"20180402","from":{"name":"Champs-Élysées / Chopin","stopId":"1:570","stopCode":"570","lon":-71.058565,"lat":48.409684,"arrival":1522673253000,"departure":1522673254000,"zoneId":"NA","stopIndex":11,"stopSequence":12,"vertexType":"TRANSIT"},"to":{"name":"Place du Saguenay (Champs-Élysées)","stopId":"1:571","stopCode":"571","lon":-71.055824,"lat":48.408307,"arrival":1522673299000,"departure":1522673300000,"zoneId":"NA","stopIndex":12,"stopSequence":13,"vertexType":"TRANSIT"},"legGeometry":{"points":"o_nfH`supLrGcP","length":2},"routeShortName":"12","routeLongName":"Rivière du Moulin","rentedBike":false,"transitLeg":true,"duration":45.0,"steps":[]},{"startTime":1522673300000,"endTime":1522673454000,"departureDelay":0,"arrivalDelay":0,"realTime":false,"distance":188.242,"pathway":false,"mode":"WALK","route":"","agencyTimeZoneOffset":-14400000,"interlineWithPreviousLeg":false,"from":{"name":"Place du Saguenay (Champs-Élysées)","stopId":"1:571","stopCode":"571","lon":-71.055824,"lat":48.408307,"arrival":1522673299000,"departure":1522673300000,"zoneId":"NA","stopIndex":12,"stopSequence":13,"vertexType":"TRANSIT"},"to":{"name":"Destination","lon":-71.054811,"lat":48.407063,"arrival":1522673454000,"orig":"","vertexType":"NORMAL"},"legGeometry":{"points":"iwmfHnaupLl@}AFQNa@LAn@MLe@H_@xArA","length":9},"rentedBike":false,"transitLeg":false,"duration":154.0,"steps":[{"distance":66.05199999999999,"relativeDirection":"DEPART","streetName":"Rue des Champs-Élysées","absoluteDirection":"SOUTHEAST","stayOn":false,"area":false,"bogusName":false,"lon":-71.05575512063196,"lat":48.408370203803415,"elevation":[]},{"distance":34.36,"relativeDirection":"RIGHT","streetName":"path","absoluteDirection":"SOUTH","stayOn":false,"area":false,"bogusName":true,"lon":-71.05502820000001,"lat":48.4080238,"elevation":[]},{"distance":87.83,"relativeDirection":"LEFT","streetName":"parking aisle","absoluteDirection":"SOUTHEAST","stayOn":true,"area":false,"bogusName":true,"lon":-71.0549472,"lat":48.407719500000006,"elevation":[]}]}],"tooSloped":false}]},"debugOutput":{"precalculationTime":42,"pathCalculationTime":20,"pathTimes":[6,8,6],"renderingTime":0,"totalTime":62,"timedOut":false},"elevationMetadata":{"ellipsoidToGeoidDifference":-28.885904201182168,"geoidElevation":false}}