{"requestParameters":{"date":"2018/04/02","walkSpeed":"1.33","walkReluctance":"2.0","fromPlace":"48.407063,-71.054811","maxWalkDistance":"3000","waitReluctance":"1.0","carSpeed":"33","numItineraries":"3","waitAtBeginningFactor":"0.4","mode":"TRANSIT,WALK","ignoreRealtimeUpdates":"false","stairsReluctance":"2.0","toPlace":"48.407947,-71.059764","time":"9:5:00"},"plan":{"date":1522674300000,"from":{"name":"Origin","lon":-71.054811,"lat":48.407063,"orig":"","vertexType":"NORMAL"},"to":{"name":"Destination","lon":-71.059764,"lat":48.407947,"orig":"","vertexType":"NORMAL"},"itineraries":[{"duration":476,"startTime":1522674300000,"endTime":1522674776000,"walkTime":476,"transitTime":0,"waitingTime":0,"walkDistance":596.3713233024844,"walkLimitExceeded":false,"elevationLost":0.0,"elevationGained":0.0,"transfers":0,"legs":[{"startTime":1522674300000,"endTime":1522674776000,"departureDelay":0,"arrivalDelay":0,"realTime":false,"distance":596.192,"pathway":false,"mode":"WALK","route":"","agencyTimeZoneOffset":-14400000,"interlineWithPreviousLeg":false,"from":{"name":"Origin","lon":-71.054811,"lat":48.407063,"departure":1522674300000,"orig":"","vertexType":"NORMAL"},"to":{"name":"Destination","lon":-71.059764,"lat":48.407947,"arrival":1522674776000,"orig":"","vertexType":"NORMAL"},"legGeometry":{"points":"somfHz|tpLyAsAI^Md@o@LM@O`@GPm@|A]|@O`@M\\fBfBcAvCmA~CpElE","length":16},"rentedBike":false,"transitLeg":false,"duration":476.0,"steps":[{"distance":87.83,"relativeDirection":"DEPART","streetName":"parking aisle","absoluteDirection":"NORTHEAST","stayOn":false,"area":false,"bogusName":false,"lon":-71.05501236077725,"lat":48.40714539148127,"elevation":[]},{"distance":34.36,"relativeDirection":"RIGHT","streetName":"path","absoluteDirection":"NORTH","stayOn":false,"area":false,"bogusName":true,"lon":-71.0549472,"lat":48.407719500000006,"elevation":[]},{"distance":123.481,"relativeDirection":"LEFT","streetName":"Rue des Champs-Élysées","absoluteDirection":"NORTHWEST","stayOn":false,"area":false,"bogusName":false,"lon":-71.05502820000001,"lat":48.4080238,"elevation":[]},{"distance":69.905,"relativeDirection":"LEFT","streetName":"Rue Plamondon","absoluteDirection":"SOUTHWEST","stayOn":false,"area":false,"bogusName":false,"lon":-71.0563831,"lat":48.4086751,"elevation":[]},{"distance":141.176,"relativeDirection":"RIGHT","streetName":"Rue Plamondon","absoluteDirection":"NORTHWEST","stayOn":true,"area":false,"bogusName":false,"lon":-71.05690750000001,"lat":48.408151600000004,"elevation":[]},{"distance":139.44,"relativeDirection":"LEFT","streetName":"Rue Ravel","absoluteDirection":"SOUTHWEST","stayOn":false,"area":false,"bogusName":false,"lon":-71.0584692,"lat":48.4088841,"elevation":[]}]}],"tooSloped":false},{"duration":516,"startTime":1522676040000,"endTime":1522676556000,"walkTime":454,"transitTime":60,"waitingTime":2,"walkDistance":575.5681127772725,"walkLimitExceeded":false,"elevationLost":0.0,"elevationGained":0.0,"transfers":0,"legs":[{"startTime":1522676040000,"endTime":1522676219000,"departureDelay":0,"arrivalDelay":0,"realTime":false,"distance":228.899,"pathway":false,"mode":"WALK","route":"","agencyTimeZoneOffset":-14400000,"interlineWithPreviousLeg":false,"from":{"name":"Origin","lon":-71.054811,"lat":48.407063,"departure":1522676040000,"orig":"","vertexType":"NORMAL"},"to":{"name":"Place du Royaume (Champs-Élysées)","stopId":"1:193","stopCode":"193","lon":-71.052659,"lat":48.407065,"arrival":1522676219000,"departure":1522676220000,"zoneId":"NA","stopIndex":28,"stopSequence":29,"vertexType":"TRANSIT"},"legGeometry":{"points":"somfHz|tpLyAsA_@]r@qB`A_DNc@PU","length":7},"rentedBike":false,"transitLeg":false,"duration":179.0,"steps":[{"distance":79.65,"relativeDirection":"DEPART","streetName":"parking aisle","absoluteDirection":"NORTHEAST","stayOn":false,"area":false,"bogusName":false,"lon":-71.05501236077725,"lat":48.40714539148127,"elevation":[]},{"distance":149.249,"relativeDirection":"RIGHT","streetName":"Rue des Champs-Élysées","absoluteDirection":"SOUTHEAST","stayOn":false,"area":false,"bogusName":false,"lon":-71.0544462,"lat":48.407755200000004,"elevation":[]}]},{"startTime":1522676220000,"endTime":1522676280000,"departureDelay":0,"arrivalDelay":0,"realTime":false,"distance":522.6389508338427,"pathway":false,"mode":"BUS","route":"12","agencyName":"Société de Transport du Saguenay","agencyUrl":"http://ville.saguenay.ca/fr/services-aux-citoyens/transport-sts","agencyTimeZoneOffset":-14400000,"routeColor":"556B2F","routeType":3,"routeId":"1:12","routeTextColor":"FFFFFF","interlineWithPreviousLeg":false,"tripBlockId":"28","headsign":"Terminus UQAC","agencyId":"0","tripId":"1:218031","serviceDate":"20180402","from":{"name":"Place du Royaume (Champs-Élysées)","stopId":"1:193","stopCode":"193","lon":-71.052659,"lat":48.407065,"arrival":1522676219000,"departure":1522676220000,"zoneId":"NA","stopIndex":28,"stopSequence":29,"vertexType":"TRANSIT"},"to":{"name":"Champs-Élysées / Chopin","stopId":"1:584","stopCode":"584","lon":-71.058412,"lat":48.409805,"arrival":1522676280000,"departure":1522676281000,"zoneId":"NA","stopIndex":29,"stopSequence":30,"vertexType":"TRANSIT"},"legGeometry":{"points":"comfHbntpLcP~b@","length":2},"routeShortName":"12","routeLongName":"Rivière du Moulin","rentedBike":false,"transitLeg":true,"duration":60.0,"steps":[]},{"startTime":1522676281000,"endTime":1522676556000,"departureDelay":0,"arrivalDelay":0,"realTime":false,"distance":346.524,"pathway":false,"mode":"WALK","route":"","agencyTimeZoneOffset":-14400000,"interlineWithPreviousLeg":false,"from":{"name":"Champs-Élysées / Chopin","stopId":"1:584","stopCode":"584","lon":-71.058412,"lat":48.409805,"arrival":1522676280000,"departure":1522676281000,"zoneId":"NA","stopIndex":29,"stopSequence":30,"vertexType":"TRANSIT"},"to":{"name":"Destination","lon":-71.059764,"lat":48.407947,"arrival":1522676556000,"orig":"","vertexType":"NORMAL"},"legGeometry":{"points":"{_nfHprupL?@o@|A|@h@hAd@rAsDpElE","length":7},"rentedBike":false,"transitLeg":false,"duration":275.0,"steps":[{"distance":44.609,"relativeDirection":"DEPART","streetName":"Rue des Champs-Élysées","absoluteDirection":"NORTHWEST","stayOn":false,"area":false,"bogusName":false,"lon":-71.05848639303342,"lat":48.40974208921815,"elevation":[]},{"distance":81.742,"relativeDirection":"LEFT","streetName":"Rue Bizet","absoluteDirection":"SOUTHWEST","stayOn":false,"area":false,"bogusName":false,"lon":-71.0589618,"lat":48.409989800000005,"elevation":[]},{"distance":80.733,"relativeDirection":"LEFT","streetName":"Rue Plamondon","absoluteDirection":"SOUTHEAST","stayOn":false,"area":false,"bogusName":false,"lon":-71.0593601,"lat":48.4093053,"elevation":[]},{"distance":139.44,"relativeDirection":"RIGHT","streetName":"Rue Ravel","absoluteDirection":"SOUTHWEST","stayOn":false,"area":false,"bogusName":false,"lon":-71.0584692,"lat":48.4088841,"elevation":[]}]}],"tooSloped":false}]},"debugOutput":{"precalculationTime":42,"pathCalculationTime":21,"pathTimes":[10,6,5],"renderingTime":1,"totalTime":64,"timedOut":false},"elevationMetadata":{"ellipsoidToGeoidDifference":-28.885904201182168,"geoidElevation":false}}