{"requestParameters":{"date":"2018/04/02","walkSpeed":"1.33","walkReluctance":"2.0","fromPlace":"48.40513,-71.06202998","maxWalkDistance":"3000","waitReluctance":"1.0","carSpeed":"33","numItineraries":"3","waitAtBeginningFactor":"0.4","mode":"TRANSIT,WALK","ignoreRealtimeUpdates":"false","stairsReluctance":"2.0","toPlace":"48.407947,-71.059764","time":"12:5:00"},"plan":{"date":1522685100000,"from":{"name":"Origin","lon":-71.06202998,"lat":48.40513,"orig":"","vertexType":"NORMAL"},"to":{"name":"Destination","lon":-71.059764,"lat":48.407947,"orig":"","vertexType":"NORMAL"},"itineraries":[{"duration":359,"startTime":1522685100000,"endTime":1522685459000,"walkTime":359,"transitTime":0,"waitingTime":0,"walkDistance":456.45437593661075,"walkLimitExceeded":false,"elevationLost":0.0,"elevationGained":0.0,"transfers":0,"legs":[{"startTime":1522685100000,"endTime":1522685459000,"departureDelay":0,"arrivalDelay":0,"realTime":false,"distance":456.35400000000004,"pathway":false,"mode":"WALK","route":"","agencyTimeZoneOffset":-14400000,"interlineWithPreviousLeg":false,"from":{"name":"Origin","lon":-71.06202998,"lat":48.40513,"departure":1522685100000,"orig":"","vertexType":"NORMAL"},"to":{"name":"Destination","lon":-71.059764,"lat":48.407947,"arrival":1522685459000,"orig":"","vertexType":"NORMAL"},"legGeometry":{"points":"kemfHdfvpL|@aCNa@eE}Dw@q@uApDkEgE","length":7},"rentedBike":false,"transitLeg":false,"duration":359.0,"steps":[{"distance":73.878,"relativeDirection":"DEPART","streetName":"Rue Des Maristes","absoluteDirection":"SOUTHEAST","stayOn":false,"area":false,"bogusName":false,"lon":-71.0616233166073,"lat":48.40550659853055,"elevation":[]},{"distance":166.52100000000002,"relativeDirection":"LEFT","streetName":"Rue Bach","absoluteDirection":"NORTHEAST","stayOn":false,"area":false,"bogusName":false,"lon":-71.06080990000001,"lat":48.405119500000005,"elevation":[]},{"distance":80.757,"relativeDirection":"LEFT","streetName":"Rue Goulet","absoluteDirection":"NORTHWEST","stayOn":false,"area":false,"bogusName":false,"lon":-71.0596087,"lat":48.4063869,"elevation":[]},{"distance":135.198,"relativeDirection":"RIGHT","streetName":"Rue Ravel","absoluteDirection":"NORTHEAST","stayOn":false,"area":false,"bogusName":false,"lon":-71.0604952,"lat":48.4068125,"elevation":[]}]}],"tooSloped":false}]},"debugOutput":{"precalculationTime":38,"pathCalculationTime":25,"pathTimes":[6,13,6],"renderingTime":0,"totalTime":63,"timedOut":false},"elevationMetadata":{"ellipsoidToGeoidDifference":-28.885904201182168,"geoidElevation":false}}