{"requestParameters":{"date":"2018/04/02","walkSpeed":"1.33","walkReluctance":"2.0","fromPlace":"48.410599,-71.058132","maxWalkDistance":"3000","waitReluctance":"1.0","carSpeed":"33","numItineraries":"3","waitAtBeginningFactor":"0.4","mode":"TRANSIT,WALK","ignoreRealtimeUpdates":"false","stairsReluctance":"2.0","toPlace":"48.417941,-71.070198","time":"15:30:00"},"plan":{"date":1522697400000,"from":{"name":"Origin","lon":-71.058132,"lat":48.410599,"orig":"","vertexType":"NORMAL"},"to":{"name":"Destination","lon":-71.070198,"lat":48.417941,"orig":"","vertexType":"NORMAL"},"itineraries":[{"duration":710,"startTime":1522697755000,"endTime":1522698465000,"walkTime":606,"transitTime":102,"waitingTime":2,"walkDistance":764.0420676618462,"walkLimitExceeded":false,"elevationLost":0.0,"elevationGained":0.0,"transfers":0,"legs":[{"startTime":1522697755000,"endTime":1522697879000,"departureDelay":0,"arrivalDelay":0,"realTime":false,"distance":153.79999999999998,"pathway":false,"mode":"WALK","route":"","agencyTimeZoneOffset":-14400000,"interlineWithPreviousLeg":false,"from":{"name":"Origin","lon":-71.058132,"lat":48.410599,"departure":1522697755000,"orig":"","vertexType":"NORMAL"},"to":{"name":"Champs-Élysées / Chopin","stopId":"1:584","stopCode":"584","lon":-71.058412,"lat":48.409805,"arrival":1522697879000,"departure":1522697880000,"zoneId":"NA","stopIndex":29,"stopSequence":30,"vertexType":"TRANSIT"},"legGeometry":{"points":"ienfHdnupLv@Ez@AzAtAa@|@","length":5},"rentedBike":false,"transitLeg":false,"duration":124.0,"steps":[{"distance":124.41199999999999,"relativeDirection":"DEPART","streetName":"Rue Chopin","absoluteDirection":"SOUTH","stayOn":false,"area":false,"bogusName":false,"lon":-71.05778803370359,"lat":48.41061453691274,"elevation":[]},{"distance":29.388,"relativeDirection":"RIGHT","streetName":"Rue des Champs-Élysées","absoluteDirection":"NORTHWEST","stayOn":false,"area":false,"bogusName":false,"lon":-71.0581732,"lat":48.4095789,"elevation":[]}]},{"startTime":1522697880000,"endTime":1522697982000,"departureDelay":0,"arrivalDelay":0,"realTime":false,"distance":820.6860421759695,"pathway":false,"mode":"BUS","route":"12","agencyName":"Société de Transport du Saguenay","agencyUrl":"http://ville.saguenay.ca/fr/services-aux-citoyens/transport-sts","agencyTimeZoneOffset":-14400000,"routeColor":"556B2F","routeType":3,"routeId":"1:12","routeTextColor":"FFFFFF","interlineWithPreviousLeg":false,"tripBlockId":"28","headsign":"Terminus UQAC","agencyId":"0","tripId":"1:218043","serviceDate":"20180402","from":{"name":"Champs-Élysées / Chopin","stopId":"1:584","stopCode":"584","lon":-71.058412,"lat":48.409805,"arrival":1522697879000,"departure":1522697880000,"zoneId":"NA","stopIndex":29,"stopSequence":30,"vertexType":"TRANSIT"},"to":{"name":"Champs-Élysées / Bégin","stopId":"1:587","stopCode":"587","lon":-71.064119,"lat":48.41589,"arrival":1522697982000,"departure":1522697983000,"zoneId":"NA","stopIndex":32,"stopSequence":33,"vertexType":"TRANSIT"},"legGeometry":{"points":"g`nfHbrupLiHhDaGz@uSl[","length":4},"routeShortName":"12","routeLongName":"Rivière du Moulin","rentedBike":false,"transitLeg":true,"duration":102.0,"steps":[]},{"startTime":1522697983000,"endTime":1522698465000,"departureDelay":0,"arrivalDelay":0,"realTime":false,"distance":610.0150000000001,"pathway":false,"mode":"WALK","route":"","agencyTimeZoneOffset":-14400000,"interlineWithPreviousLeg":false,"from":{"name":"Champs-Élysées / Bégin","stopId":"1:587","stopCode":"587","lon":-71.064119,"lat":48.41589,"arrival":1522697982000,"departure":1522697983000,"zoneId":"NA","stopIndex":32,"stopSequence":33,"vertexType":"TRANSIT"},"to":{"name":"Destination","lon":-71.070198,"lat":48.417941,"arrival":1522698465000,"orig":"","vertexType":"NORMAL"},"legGeometry":{"points":"weofHfvvpLk@jBn@l@kAdDGReAvCu@xBeAT]x@o@nBe@nBYx@V?b@BN?APGl@Q`@[l@]lA","length":20},"rentedBike":false,"transitLeg":false,"duration":482.0,"steps":[{"distance":46.285,"relativeDirection":"DEPART","streetName":"Rue des Champs-Élysées","absoluteDirection":"NORTHWEST","stayOn":false,"area":false,"bogusName":false,"lon":-71.06419656014225,"lat":48.415806692432525,"elevation":[]},{"distance":30.953,"relativeDirection":"LEFT","streetName":"Rue Bégin","absoluteDirection":"SOUTHWEST","stayOn":false,"area":false,"bogusName":false,"lon":-71.0647342,"lat":48.416021,"elevation":[]},{"distance":205.419,"relativeDirection":"RIGHT","streetName":"Rue Dubé","absoluteDirection":"NORTHWEST","stayOn":false,"area":false,"bogusName":false,"lon":-71.06496530000001,"lat":48.4157887,"elevation":[]},{"distance":188.869,"relativeDirection":"RIGHT","streetName":"path","absoluteDirection":"NORTH","stayOn":false,"area":false,"bogusName":true,"lon":-71.0672681,"lat":48.416826400000005,"elevation":[]},{"distance":42.323,"relativeDirection":"HARD_LEFT","streetName":"Rue Jolliet","absoluteDirection":"SOUTH","stayOn":false,"area":false,"bogusName":false,"lon":-71.069079,"lat":48.417887500000006,"elevation":[]},{"distance":96.166,"relativeDirection":"RIGHT","streetName":"service road","absoluteDirection":"WEST","stayOn":false,"area":false,"bogusName":false,"lon":-71.0690988,"lat":48.4175072,"elevation":[]}]}],"tooSloped":false},{"duration":1263,"startTime":1522697400000,"endTime":1522698663000,"walkTime":1263,"transitTime":0,"waitingTime":0,"walkDistance":1614.058368411458,"walkLimitExceeded":false,"elevationLost":0.0,"elevationGained":0.0,"transfers":0,"legs":[{"startTime":1522697400000,"endTime":1522698663000,"departureDelay":0,"arrivalDelay":0,"realTime":false,"distance":1613.7610000000002,"pathway":false,"mode":"WALK","route":"","agencyTimeZoneOffset":-14400000,"interlineWithPreviousLeg":false,"from":{"name":"Origin","lon":-71.058132,"lat":48.410599,"departure":1522697400000,"orig":"","vertexType":"NORMAL"},"to":{"name":"Destination","lon":-71.070198,"lat":48.417941,"arrival":1522698663000,"orig":"","vertexType":"NORMAL"},"legGeometry":{"points":"ienfHdnupLoCNyAFGHcAuACHg@^]H{@P}D|@{A\\qBLOC@`ADhB`@~ADTnAdBY`@iAbD??e@pAoAnDcA|FOh@GP??k@jBn@l@kAdDGReAvCu@xBeAT]x@o@nBe@nBYx@V?b@BN?APGl@Q`@[l@]lA","length":46},"rentedBike":false,"transitLeg":false,"duration":1263.0,"steps":[{"distance":80.631,"relativeDirection":"DEPART","streetName":"Rue Chopin","absoluteDirection":"NORTH","stayOn":false,"area":false,"bogusName":false,"lon":-71.05778803370359,"lat":48.41061453691274,"elevation":[]},{"distance":105.095,"relativeDirection":"CONTINUE","streetName":"path","absoluteDirection":"NORTH","stayOn":false,"area":false,"bogusName":true,"lon":-71.0578622,"lat":48.411338,"elevation":[]},{"distance":313.035,"relativeDirection":"LEFT","streetName":"Rue Thérèse-Casgrain","absoluteDirection":"NORTHWEST","stayOn":false,"area":false,"bogusName":false,"lon":-71.0575299,"lat":48.412162300000006,"elevation":[]},{"distance":170.211,"relativeDirection":"LEFT","streetName":"Rue Marguerite-Tellier","absoluteDirection":"WEST","stayOn":false,"area":false,"bogusName":false,"lon":-71.0583806,"lat":48.4148926,"elevation":[]},{"distance":381.05899999999997,"relativeDirection":"RIGHT","streetName":"Rue des Champs-Élysées","absoluteDirection":"NORTHWEST","stayOn":false,"area":false,"bogusName":false,"lon":-71.0603414,"lat":48.4142597,"elevation":[]},{"distance":30.953,"relativeDirection":"LEFT","streetName":"Rue Bégin","absoluteDirection":"SOUTHWEST","stayOn":false,"area":false,"bogusName":false,"lon":-71.0647342,"lat":48.416021,"elevation":[]},{"distance":205.419,"relativeDirection":"RIGHT","streetName":"Rue Dubé","absoluteDirection":"NORTHWEST","stayOn":false,"area":false,"bogusName":false,"lon":-71.06496530000001,"lat":48.4157887,"elevation":[]},{"distance":188.869,"relativeDirection":"RIGHT","streetName":"path","absoluteDirection":"NORTH","stayOn":false,"area":false,"bogusName":true,"lon":-71.0672681,"lat":48.416826400000005,"elevation":[]},{"distance":42.323,"relativeDirection":"HARD_LEFT","streetName":"Rue Jolliet","absoluteDirection":"SOUTH","stayOn":false,"area":false,"bogusName":false,"lon":-71.069079,"lat":48.417887500000006,"elevation":[]},{"distance":96.166,"relativeDirection":"RIGHT","streetName":"service road","absoluteDirection":"WEST","stayOn":false,"area":false,"bogusName":false,"lon":-71.0690988,"lat":48.4175072,"elevation":[]}]}],"tooSloped":false},{"duration":710,"startTime":1522699555000,"endTime":1522700265000,"walkTime":606,"transitTime":102,"waitingTime":2,"walkDistance":764.0420676618462,"walkLimitExceeded":false,"elevationLost":0.0,"elevationGained":0.0,"transfers":0,"legs":[{"startTime":1522699555000,"endTime":1522699679000,"departureDelay":0,"arrivalDelay":0,"realTime":false,"distance":153.79999999999998,"pathway":false,"mode":"WALK","route":"","agencyTimeZoneOffset":-14400000,"interlineWithPreviousLeg":false,"from":{"name":"Origin","lon":-71.058132,"lat":48.410599,"departure":1522699555000,"orig":"","vertexType":"NORMAL"},"to":{"name":"Champs-Élysées / Chopin","stopId":"1:584","stopCode":"584","lon":-71.058412,"lat":48.409805,"arrival":1522699679000,"departure":1522699680000,"zoneId":"NA","stopIndex":29,"stopSequence":30,"vertexType":"TRANSIT"},"legGeometry":{"points":"ienfHdnupLv@Ez@AzAtAa@|@","length":5},"rentedBike":false,"transitLeg":false,"duration":124.0,"steps":[{"distance":124.41199999999999,"relativeDirection":"DEPART","streetName":"Rue Chopin","absoluteDirection":"SOUTH","stayOn":false,"area":false,"bogusName":false,"lon":-71.05778803370359,"lat":48.41061453691274,"elevation":[]},{"distance":29.388,"relativeDirection":"RIGHT","streetName":"Rue des Champs-Élysées","absoluteDirection":"NORTHWEST","stayOn":false,"area":false,"bogusName":false,"lon":-71.0581732,"lat":48.4095789,"elevation":[]}]},{"startTime":1522699680000,"endTime":1522699782000,"departureDelay":0,"arrivalDelay":0,"realTime":false,"distance":820.6860421759695,"pathway":false,"mode":"BUS","route":"12","agencyName":"Société de Transport du Saguenay","agencyUrl":"http://ville.saguenay.ca/fr/services-aux-citoyens/transport-sts","agencyTimeZoneOffset":-14400000,"routeColor":"556B2F","routeType":3,"routeId":"1:12","routeTextColor":"FFFFFF","interlineWithPreviousLeg":false,"tripBlockId":"27","headsign":"Terminus UQAC","agencyId":"0","tripId":"1:218018","serviceDate":"20180402","from":{"name":"Champs-Élysées / Chopin","stopId":"1:584","stopCode":"584","lon":-71.058412,"lat":48.409805,"arrival":1522699679000,"departure":1522699680000,"zoneId":"NA","stopIndex":29,"stopSequence":30,"vertexType":"TRANSIT"},"to":{"name":"Champs-Élysées / Bégin","stopId":"1:587","stopCode":"587","lon":-71.064119,"lat":48.41589,"arrival":1522699782000,"departure":1522699783000,"zoneId":"NA","stopIndex":32,"stopSequence":33,"vertexType":"TRANSIT"},"legGeometry":{"points":"g`nfHbrupLiHhDaGz@uSl[","length":4},"routeShortName":"12","routeLongName":"Rivière du Moulin","rentedBike":false,"transitLeg":true,"duration":102.0,"steps":[]},{"startTime":1522699783000,"endTime":1522700265000,"departureDelay":0,"arrivalDelay":0,"realTime":false,"distance":610.0150000000001,"pathway":false,"mode":"WALK","route":"","agencyTimeZoneOffset":-14400000,"interlineWithPreviousLeg":false,"from":{"name":"Champs-Élysées / Bégin","stopId":"1:587","stopCode":"587","lon":-71.064119,"lat":48.41589,"arrival":1522699782000,"departure":1522699783000,"zoneId":"NA","stopIndex":32,"stopSequence":33,"vertexType":"TRANSIT"},"to":{"name":"Destination","lon":-71.070198,"lat":48.417941,"arrival":1522700265000,"orig":"","vertexType":"NORMAL"},"legGeometry":{"points":"weofHfvvpLk@jBn@l@kAdDGReAvCu@xBeAT]x@o@nBe@nBYx@V?b@BN?APGl@Q`@[l@]lA","length":20},"rentedBike":false,"transitLeg":false,"duration":482.0,"steps":[{"distance":46.285,"relativeDirection":"DEPART","streetName":"Rue des Champs-Élysées","absoluteDirection":"NORTHWEST","stayOn":false,"area":false,"bogusName":false,"lon":-71.06419656014225,"lat":48.415806692432525,"elevation":[]},{"distance":30.953,"relativeDirection":"LEFT","streetName":"Rue Bégin","absoluteDirection":"SOUTHWEST","stayOn":false,"area":false,"bogusName":false,"lon":-71.0647342,"lat":48.416021,"elevation":[]},{"distance":205.419,"relativeDirection":"RIGHT","streetName":"Rue Dubé","absoluteDirection":"NORTHWEST","stayOn":false,"area":false,"bogusName":false,"lon":-71.06496530000001,"lat":48.4157887,"elevation":[]},{"distance":188.869,"relativeDirection":"RIGHT","streetName":"path","absoluteDirection":"NORTH","stayOn":false,"area":false,"bogusName":true,"lon":-71.0672681,"lat":48.416826400000005,"elevation":[]},{"distance":42.323,"relativeDirection":"HARD_LEFT","streetName":"Rue Jolliet","absoluteDirection":"SOUTH","stayOn":false,"area":false,"bogusName":false,"lon":-71.069079,"lat":48.417887500000006,"elevation":[]},{"distance":96.166,"relativeDirection":"RIGHT","streetName":"service road","absoluteDirection":"WEST","stayOn":false,"area":false,"bogusName":false,"lon":-71.0690988,"lat":48.4175072,"elevation":[]}]}],"tooSloped":false}]},"debugOutput":{"precalculationTime":47,"pathCalculationTime":32,"pathTimes":[17,7,8],"renderingTime":0,"totalTime":79,"timedOut":false},"elevationMetadata":{"ellipsoidToGeoidDifference":-28.885904201182168,"geoidElevation":false}}