{"requestParameters":{"date":"2018/04/02","walkSpeed":"1.33","walkReluctance":"2.0","fromPlace":"48.422638,-71.059381","maxWalkDistance":"3000","waitReluctance":"1.0","carSpeed":"33","numItineraries":"3","waitAtBeginningFactor":"0.4","mode":"TRANSIT,WALK","ignoreRealtimeUpdates":"false","stairsReluctance":"2.0","toPlace":"48.448027,-71.07448399","time":"12:0:00"},"plan":{"date":1522684800000,"from":{"name":"Origin","lon":-71.059381,"lat":48.422638,"orig":"","vertexType":"NORMAL"},"to":{"name":"Destination","lon":-71.07448399,"lat":48.448027,"orig":"","vertexType":"NORMAL"},"itineraries":[{"duration":1371,"startTime":1522684876000,"endTime":1522686247000,"walkTime":782,"transitTime":587,"waitingTime":2,"walkDistance":1008.6544661626236,"walkLimitExceeded":false,"elevationLost":0.0,"elevationGained":0.0,"transfers":0,"legs":[{"startTime":1522684876000,"endTime":1522685105000,"departureDelay":0,"arrivalDelay":0,"realTime":false,"distance":290.244,"pathway":false,"mode":"WALK","route":"","agencyTimeZoneOffset":-14400000,"interlineWithPreviousLeg":false,"from":{"name":"Origin","lon":-71.059381,"lat":48.422638,"departure":1522684876000,"orig":"","vertexType":"NORMAL"},"to":{"name":"Cégep de Chicoutimi (Bégin)","stopId":"1:66","stopCode":"66","lon":-71.056314,"lat":48.424377,"arrival":1522685105000,"departure":1522685106000,"zoneId":"NA","stopIndex":3,"stopSequence":4,"vertexType":"TRANSIT"},"legGeometry":{"points":"_npfHzrupLe@i@WYiAgAaAcASOWWIII_@sAkAaA_AKK","length":12},"rentedBike":false,"transitLeg":false,"duration":229.0,"steps":[{"distance":171.211,"relativeDirection":"DEPART","streetName":"Rue Bégin","absoluteDirection":"NORTHEAST","stayOn":false,"area":false,"bogusName":false,"lon":-71.05853375745859,"lat":48.42224297166872,"elevation":[]},{"distance":12.842,"relativeDirection":"SLIGHTLY_RIGHT","streetName":"path","absoluteDirection":"NORTHEAST","stayOn":false,"area":false,"bogusName":true,"lon":-71.0572466,"lat":48.423523700000004,"elevation":[]},{"distance":106.191,"relativeDirection":"SLIGHTLY_LEFT","streetName":"sidewalk","absoluteDirection":"NORTHEAST","stayOn":true,"area":false,"bogusName":true,"lon":-71.057089,"lat":48.4235727,"elevation":[]}]},{"startTime":1522685106000,"endTime":1522685693000,"departureDelay":0,"arrivalDelay":0,"realTime":false,"distance":3551.4510373997655,"pathway":false,"mode":"BUS","route":"65","agencyName":"Société de Transport du Saguenay","agencyUrl":"http://ville.saguenay.ca/fr/services-aux-citoyens/transport-sts","agencyTimeZoneOffset":-14400000,"routeColor":"00FFFF","routeType":3,"routeId":"1:65","routeTextColor":"000000","interlineWithPreviousLeg":false,"tripBlockId":"75","headsign":"Épicerie culinaire","agencyId":"0","tripId":"1:218626","serviceDate":"20180402","from":{"name":"Cégep de Chicoutimi (Bégin)","stopId":"1:66","stopCode":"66","lon":-71.056314,"lat":48.424377,"arrival":1522685105000,"departure":1522685106000,"zoneId":"NA","stopIndex":3,"stopSequence":4,"vertexType":"TRANSIT"},"to":{"name":"Résidence funéraire (boul. Ste-Geneviève)","stopId":"1:707","stopCode":"707","lon":-71.082723,"lat":48.44654,"arrival":1522685693000,"departure":1522685694000,"zoneId":"NA","stopIndex":11,"stopSequence":12,"vertexType":"TRANSIT"},"legGeometry":{"points":"q{pfHneupLmEkE]a@kAqAU|@WnKG|DGxDOdPKvJU|F?XGbDgCO}BYkCSCn@m@EEnAWxLoBKCp@O\\WjGOfGCRK^KJMHQB_AMg@Gw`@eR}@g@u@Su@Ia@Ck@Dm@HwAf@c@VeAx@iAlAU^[d@eLtTsAvB_CvEuAnCmBlE}@|B_BvFoC`JCD}@hCo@~Aq@pAs@fA{BlC","length":59},"routeShortName":"65","routeLongName":"Term. Chic / Shipshaw","rentedBike":false,"transitLeg":true,"duration":587.0,"steps":[]},{"startTime":1522685694000,"endTime":1522686247000,"departureDelay":0,"arrivalDelay":0,"realTime":false,"distance":718.3240000000001,"pathway":false,"mode":"WALK","route":"","agencyTimeZoneOffset":-14400000,"interlineWithPreviousLeg":false,"from":{"name":"Résidence funéraire (boul. Ste-Geneviève)","stopId":"1:707","stopCode":"707","lon":-71.082723,"lat":48.44654,"arrival":1522685693000,"departure":1522685694000,"zoneId":"NA","stopIndex":11,"stopSequence":12,"vertexType":"TRANSIT"},"to":{"name":"Destination","lon":-71.07448399,"lat":48.448027,"arrival":1522686247000,"orig":"","vertexType":"NORMAL"},"legGeometry":{"points":"oeufHtjzpLpBcCa@}A?YMyJm@{EAKO{AIoAGc@G_@CQCSAGCGM]GOEGMOMKGGIGGEGCOGKCK@O{AWyCG}@MeB?I","length":32},"rentedBike":false,"transitLeg":false,"duration":553.0,"steps":[{"distance":80.04,"relativeDirection":"DEPART","streetName":"Boulevard Sainte-Geneviève","absoluteDirection":"SOUTHEAST","stayOn":false,"area":false,"bogusName":false,"lon":-71.0828267024075,"lat":48.44648769846508,"elevation":[]},{"distance":479.952,"relativeDirection":"LEFT","streetName":"Rue Saint-Gérard","absoluteDirection":"NORTHEAST","stayOn":false,"area":false,"bogusName":false,"lon":-71.08216990000001,"lat":48.4459147,"elevation":[]},{"distance":158.332,"relativeDirection":"RIGHT","streetName":"Rue de l'Aréna","absoluteDirection":"EAST","stayOn":false,"area":false,"bogusName":false,"lon":-71.0764515,"lat":48.4473234,"elevation":[]}]}],"tooSloped":false},{"duration":1526,"startTime":1522686455000,"endTime":1522687981000,"walkTime":1044,"transitTime":480,"waitingTime":2,"walkDistance":1318.4218045041216,"walkLimitExceeded":false,"elevationLost":0.0,"elevationGained":0.0,"transfers":0,"legs":[{"startTime":1522686455000,"endTime":1522687499000,"departureDelay":0,"arrivalDelay":0,"realTime":false,"distance":1318.2000000000003,"pathway":false,"mode":"WALK","route":"","agencyTimeZoneOffset":-14400000,"interlineWithPreviousLeg":false,"from":{"name":"Origin","lon":-71.059381,"lat":48.422638,"departure":1522686455000,"orig":"","vertexType":"NORMAL"},"to":{"name":"Terminus Chicoutimi","stopId":"1:1289","stopCode":"1289","lon":-71.066163,"lat":48.428677,"arrival":1522687499000,"departure":1522687500000,"zoneId":"NA","stopIndex":0,"stopSequence":1,"vertexType":"TRANSIT"},"legGeometry":{"points":"_npfHzrupLe@i@WYiAgAaAcASOWWIIKIOl@EdACd@MLSICAOEk@CG?KACTM\\I\\Ax@Al@g@Zy@\\iG_@IpEAR?\\A|@?TC~C?n@CfBCdAAX?REvBCd@AVA\\CpAAx@A^Ar@EvCkCQQAsBIc@MKESAcAK","length":54},"rentedBike":false,"transitLeg":false,"duration":1044.0,"steps":[{"distance":178.78900000000002,"relativeDirection":"DEPART","streetName":"Rue Bégin","absoluteDirection":"NORTHEAST","stayOn":false,"area":false,"bogusName":false,"lon":-71.05853375745859,"lat":48.42224297166872,"elevation":[]},{"distance":127.559,"relativeDirection":"LEFT","streetName":"alley","absoluteDirection":"NORTHWEST","stayOn":false,"area":false,"bogusName":true,"lon":-71.05719760000001,"lat":48.4235836,"elevation":[]},{"distance":131.454,"relativeDirection":"LEFT","streetName":"path","absoluteDirection":"WEST","stayOn":true,"area":false,"bogusName":true,"lon":-71.0579166,"lat":48.424303900000005,"elevation":[]},{"distance":147.775,"relativeDirection":"SLIGHTLY_RIGHT","streetName":"Rue Maltais","absoluteDirection":"NORTH","stayOn":false,"area":false,"bogusName":false,"lon":-71.0591387,"lat":48.424959400000006,"elevation":[]},{"distance":502.91,"relativeDirection":"LEFT","streetName":"Rue Jacques-Cartier Est","absoluteDirection":"WEST","stayOn":false,"area":false,"bogusName":false,"lon":-71.0589782,"lat":48.426284100000004,"elevation":[]},{"distance":229.713,"relativeDirection":"RIGHT","streetName":"Rue Morin","absoluteDirection":"NORTH","stayOn":false,"area":false,"bogusName":false,"lon":-71.0657774,"lat":48.426577300000005,"elevation":[]}]},{"startTime":1522687500000,"endTime":1522687980000,"departureDelay":0,"arrivalDelay":0,"realTime":false,"distance":3447.358681715154,"pathway":false,"mode":"BUS","route":"23","agencyName":"Société de Transport du Saguenay","agencyUrl":"http://ville.saguenay.ca/fr/services-aux-citoyens/transport-sts","agencyTimeZoneOffset":-14400000,"routeColor":"FF00FF","routeType":3,"routeId":"1:23","routeTextColor":"FFFFFF","interlineWithPreviousLeg":false,"tripBlockId":"5","headsign":"Terminus Chicoutimi","agencyId":"0","tripId":"1:217262","serviceDate":"20180402","from":{"name":"Terminus Chicoutimi","stopId":"1:1289","stopCode":"1289","lon":-71.066163,"lat":48.428677,"arrival":1522687499000,"departure":1522687500000,"zoneId":"NA","stopIndex":0,"stopSequence":1,"vertexType":"TRANSIT"},"to":{"name":"Aréna du Plateau","stopId":"1:784","stopCode":"784","lon":-71.074321,"lat":48.447524,"arrival":1522687980000,"orig":"","zoneId":"NA","stopIndex":6,"stopSequence":7,"vertexType":"TRANSIT"},"legGeometry":{"points":"kwqfHjbwpLF_CkAOYCm@rRO\\WjGOfGCRK^KJMHQB_AMg@Gw`@eR}@g@u@Su@Ia@Ck@Dm@HwAf@c@VeAx@iAlAU^[d@eLtTsAvB_CvEuAnCmBlE}@|B_BvFoC`JCD}@hCo@~Aq@pAs@fA{BlCqH|Iq@Bq@Im@UGCUi@Wm@ScA_@gGSaE@_@@_@@ERoBFe@No@`@gAbCyFNe@Ha@He@Fg@Du@Dg@Hc@Pa@RW\\S`@QZEm@eHM}B?G","length":75},"routeShortName":"23","routeLongName":"Côte Verdun via Aréna du Plateau","rentedBike":false,"transitLeg":true,"duration":480.0,"steps":[]}],"tooSloped":false},{"duration":1526,"startTime":1522688255000,"endTime":1522689781000,"walkTime":1044,"transitTime":480,"waitingTime":2,"walkDistance":1318.4218045041216,"walkLimitExceeded":false,"elevationLost":0.0,"elevationGained":0.0,"transfers":0,"legs":[{"startTime":1522688255000,"endTime":1522689299000,"departureDelay":0,"arrivalDelay":0,"realTime":false,"distance":1318.2000000000003,"pathway":false,"mode":"WALK","route":"","agencyTimeZoneOffset":-14400000,"interlineWithPreviousLeg":false,"from":{"name":"Origin","lon":-71.059381,"lat":48.422638,"departure":1522688255000,"orig":"","vertexType":"NORMAL"},"to":{"name":"Terminus Chicoutimi","stopId":"1:1289","stopCode":"1289","lon":-71.066163,"lat":48.428677,"arrival":1522689299000,"departure":1522689300000,"zoneId":"NA","stopIndex":0,"stopSequence":1,"vertexType":"TRANSIT"},"legGeometry":{"points":"_npfHzrupLe@i@WYiAgAaAcASOWWIIKIOl@EdACd@MLSICAOEk@CG?KACTM\\I\\Ax@Al@g@Zy@\\iG_@IpEAR?\\A|@?TC~C?n@CfBCdAAX?REvBCd@AVA\\CpAAx@A^Ar@EvCkCQQAsBIc@MKESAcAK","length":54},"rentedBike":false,"transitLeg":false,"duration":1044.0,"steps":[{"distance":178.78900000000002,"relativeDirection":"DEPART","streetName":"Rue Bégin","absoluteDirection":"NORTHEAST","stayOn":false,"area":false,"bogusName":false,"lon":-71.05853375745859,"lat":48.42224297166872,"elevation":[]},{"distance":127.559,"relativeDirection":"LEFT","streetName":"alley","absoluteDirection":"NORTHWEST","stayOn":false,"area":false,"bogusName":true,"lon":-71.05719760000001,"lat":48.4235836,"elevation":[]},{"distance":131.454,"relativeDirection":"LEFT","streetName":"path","absoluteDirection":"WEST","stayOn":true,"area":false,"bogusName":true,"lon":-71.0579166,"lat":48.424303900000005,"elevation":[]},{"distance":147.775,"relativeDirection":"SLIGHTLY_RIGHT","streetName":"Rue Maltais","absoluteDirection":"NORTH","stayOn":false,"area":false,"bogusName":false,"lon":-71.0591387,"lat":48.424959400000006,"elevation":[]},{"distance":502.91,"relativeDirection":"LEFT","streetName":"Rue Jacques-Cartier Est","absoluteDirection":"WEST","stayOn":false,"area":false,"bogusName":false,"lon":-71.0589782,"lat":48.426284100000004,"elevation":[]},{"distance":229.713,"relativeDirection":"RIGHT","streetName":"Rue Morin","absoluteDirection":"NORTH","stayOn":false,"area":false,"bogusName":false,"lon":-71.0657774,"lat":48.426577300000005,"elevation":[]}]},{"startTime":1522689300000,"endTime":1522689780000,"departureDelay":0,"arrivalDelay":0,"realTime":false,"distance":3447.358681715154,"pathway":false,"mode":"BUS","route":"23","agencyName":"Société de Transport du Saguenay","agencyUrl":"http://ville.saguenay.ca/fr/services-aux-citoyens/transport-sts","agencyTimeZoneOffset":-14400000,"routeColor":"FF00FF","routeType":3,"routeId":"1:23","routeTextColor":"FFFFFF","interlineWithPreviousLeg":false,"tripBlockId":"4","headsign":"Terminus Chicoutimi","agencyId":"0","tripId":"1:217236","serviceDate":"20180402","from":{"name":"Terminus Chicoutimi","stopId":"1:1289","stopCode":"1289","lon":-71.066163,"lat":48.428677,"arrival":1522689299000,"departure":1522689300000,"zoneId":"NA","stopIndex":0,"stopSequence":1,"vertexType":"TRANSIT"},"to":{"name":"Aréna du Plateau","stopId":"1:784","stopCode":"784","lon":-71.074321,"lat":48.447524,"arrival":1522689780000,"orig":"","zoneId":"NA","stopIndex":6,"stopSequence":7,"vertexType":"TRANSIT"},"legGeometry":{"points":"kwqfHjbwpLF_CkAOYCm@rRO\\WjGOfGCRK^KJMHQB_AMg@Gw`@eR}@g@u@Su@Ia@Ck@Dm@HwAf@c@VeAx@iAlAU^[d@eLtTsAvB_CvEuAnCmBlE}@|B_BvFoC`JCD}@hCo@~Aq@pAs@fA{BlCqH|Iq@Bq@Im@UGCUi@Wm@ScA_@gGSaE@_@@_@@ERoBFe@No@`@gAbCyFNe@Ha@He@Fg@Du@Dg@Hc@Pa@RW\\S`@QZEm@eHM}B?G","length":75},"routeShortName":"23","routeLongName":"Côte Verdun via Aréna du Plateau","rentedBike":false,"transitLeg":true,"duration":480.0,"steps":[]}],"tooSloped":false}]},"debugOutput":{"precalculationTime":29,"pathCalculationTime":50,"pathTimes":[19,13,17],"renderingTime":0,"totalTime":79,"timedOut":false},"elevationMetadata":{"ellipsoidToGeoidDifference":-28.885904201182168,"geoidElevation":false}}