{"requestParameters":{"date":"2018/04/02","walkSpeed":"1.33","walkReluctance":"2.0","fromPlace":"48.40883,-71.059504","maxWalkDistance":"3000","waitReluctance":"1.0","carSpeed":"33","numItineraries":"3","waitAtBeginningFactor":"0.4","mode":"TRANSIT,WALK","ignoreRealtimeUpdates":"false","stairsReluctance":"2.0","toPlace":"48.428282,-71.05393599","time":"22:0:00"},"plan":{"date":1522720800000,"from":{"name":"Origin","lon":-71.059504,"lat":48.40883,"orig":"","vertexType":"NORMAL"},"to":{"name":"Destination","lon":-71.05393599,"lat":48.428282,"orig":"","vertexType":"NORMAL"},"itineraries":[{"duration":1614,"startTime":1522721472000,"endTime":1522723086000,"walkTime":851,"transitTime":761,"waitingTime":2,"walkDistance":1071.691458640697,"walkLimitExceeded":false,"elevationLost":0.0,"elevationGained":0.0,"transfers":0,"legs":[{"startTime":1522721472000,"endTime":1522722058000,"departureDelay":0,"arrivalDelay":0,"realTime":false,"distance":731.424,"pathway":false,"mode":"WALK","route":"","agencyTimeZoneOffset":-14400000,"interlineWithPreviousLeg":false,"from":{"name":"Origin","lon":-71.059504,"lat":48.40883,"departure":1522721472000,"orig":"","vertexType":"NORMAL"},"to":{"name":"Saguenéens / Duchesne","stopId":"1:1598","stopCode":"1598","lon":-71.065637,"lat":48.406803,"arrival":1522722058000,"departure":1522722059000,"zoneId":"NA","stopIndex":15,"stopSequence":16,"vertexType":"TRANSIT"},"legGeometry":{"points":"szmfHdzupLFFpAfAlBpB`BxAn@V~@b@EPQx@Qp@Oj@UVIHOLMPETEf@jDhBF~@qAvCpB~Bm@|AQO","length":23},"rentedBike":false,"transitLeg":false,"duration":586.0,"steps":[{"distance":262.91799999999995,"relativeDirection":"DEPART","streetName":"Rue Bizet","absoluteDirection":"SOUTHWEST","stayOn":false,"area":false,"bogusName":false,"lon":-71.0597088492121,"lat":48.40890946956003,"elevation":[]},{"distance":70.345,"relativeDirection":"RIGHT","streetName":"bike path","absoluteDirection":"NORTHWEST","stayOn":false,"area":false,"bogusName":true,"lon":-71.0614278,"lat":48.4068513,"elevation":[]},{"distance":42.55800000000001,"relativeDirection":"SLIGHTLY_RIGHT","streetName":"bike path","absoluteDirection":"NORTHWEST","stayOn":true,"area":false,"bogusName":true,"lon":-71.06227200000001,"lat":48.407144,"elevation":[]},{"distance":23.740000000000002,"relativeDirection":"SLIGHTLY_LEFT","streetName":"bike path","absoluteDirection":"NORTHWEST","stayOn":true,"area":false,"bogusName":true,"lon":-71.062608,"lat":48.407453000000004,"elevation":[]},{"distance":199.05,"relativeDirection":"LEFT","streetName":"Rue Côté","absoluteDirection":"SOUTH","stayOn":false,"area":false,"bogusName":false,"lon":-71.062914,"lat":48.407512000000004,"elevation":[]},{"distance":78.41,"relativeDirection":"LEFT","streetName":"Rue Duchesne","absoluteDirection":"SOUTHWEST","stayOn":false,"area":false,"bogusName":false,"lon":-71.06452250000001,"lat":48.407020700000004,"elevation":[]},{"distance":42.703,"relativeDirection":"RIGHT","streetName":"Rue des Saguenéens","absoluteDirection":"NORTHWEST","stayOn":false,"area":false,"bogusName":false,"lon":-71.0651619,"lat":48.4064576,"elevation":[]},{"distance":11.7,"relativeDirection":"RIGHT","streetName":"service road","absoluteDirection":"NORTHEAST","stayOn":false,"area":false,"bogusName":true,"lon":-71.06563030000001,"lat":48.406683,"elevation":[]}]},{"startTime":1522722059000,"endTime":1522722820000,"departureDelay":0,"arrivalDelay":0,"realTime":false,"distance":3997.3632818898122,"pathway":false,"mode":"BUS","route":"15","agencyName":"Société de Transport du Saguenay","agencyUrl":"http://ville.saguenay.ca/fr/services-aux-citoyens/transport-sts","agencyTimeZoneOffset":-14400000,"routeColor":"FF00FF","routeType":3,"routeId":"1:15","routeTextColor":"FFFFFF","interlineWithPreviousLeg":false,"tripBlockId":"30","headsign":"Terminus Chicoutimi","agencyId":"0","tripId":"1:218118","serviceDate":"20180402","from":{"name":"Saguenéens / Duchesne","stopId":"1:1598","stopCode":"1598","lon":-71.065637,"lat":48.406803,"arrival":1522722058000,"departure":1522722059000,"zoneId":"NA","stopIndex":15,"stopSequence":16,"vertexType":"TRANSIT"},"to":{"name":"Bégin / Jacques-Cartier","stopId":"1:561","stopCode":"561","lon":-71.05511,"lat":48.425555,"arrival":1522722820000,"departure":1522722821000,"zoneId":"NA","stopIndex":33,"stopSequence":34,"vertexType":"TRANSIT"},"legGeometry":{"points":"_mmfHx_wpLeCxG_CfGYVQXS\\dK|HlFZbC\\p@zA\\rB@hBiArG{BNw@FiG}@iDwAECcCcBo@y@sEeGe@o@qAa@m@MoB?C@}BZwAc@oA_Bs@gDCKZ{Di@QECc@_@sAkAoBwB_EcE{A_BoAmAk@o@cCaCkIkIaJaJUUwBaCj@wCjAsCzGoG_CoHL{D_@kAqD{CQr@iAcAy@w@L{@wAuA_B_B_EpLDh@NbBVvCIxBg@`Am@l@Sb@a@rAqDqDmEkE]a@","length":71},"routeShortName":"15","routeLongName":"Term. Chic / Costco","rentedBike":false,"transitLeg":true,"duration":761.0,"steps":[]},{"startTime":1522722821000,"endTime":1522723086000,"departureDelay":0,"arrivalDelay":0,"realTime":false,"distance":340.08399999999995,"pathway":false,"mode":"WALK","route":"","agencyTimeZoneOffset":-14400000,"interlineWithPreviousLeg":false,"from":{"name":"Bégin / Jacques-Cartier","stopId":"1:561","stopCode":"561","lon":-71.05511,"lat":48.425555,"arrival":1522722820000,"departure":1522722821000,"zoneId":"NA","stopIndex":33,"stopSequence":34,"vertexType":"TRANSIT"},"to":{"name":"Destination","lon":-71.05393599,"lat":48.428282,"arrival":1522723086000,"orig":"","vertexType":"NORMAL"},"legGeometry":{"points":"ybqfHv}tpLa@a@q@q@{@s@[Wi@a@aA}@CCyAuAKCe@BwBJA?","length":13},"rentedBike":false,"transitLeg":false,"duration":265.0,"steps":[{"distance":340.08399999999995,"relativeDirection":"DEPART","streetName":"Rue Bégin","absoluteDirection":"NORTHEAST","stayOn":false,"area":false,"bogusName":false,"lon":-71.05515571766598,"lat":48.425575326522214,"elevation":[]}]}],"tooSloped":false},{"duration":1396,"startTime":1522721707000,"endTime":1522723103000,"walkTime":706,"transitTime":688,"waitingTime":2,"walkDistance":882.7512330748584,"walkLimitExceeded":false,"elevationLost":0.0,"elevationGained":0.0,"transfers":0,"legs":[{"startTime":1522721707000,"endTime":1522722299000,"departureDelay":0,"arrivalDelay":0,"realTime":false,"distance":738.742,"pathway":false,"mode":"WALK","route":"","agencyTimeZoneOffset":-14400000,"interlineWithPreviousLeg":false,"from":{"name":"Origin","lon":-71.059504,"lat":48.40883,"departure":1522721707000,"orig":"","vertexType":"NORMAL"},"to":{"name":"Place Royaume","stopId":"1:1801","stopCode":"1801","lon":-71.057017,"lat":48.405588,"arrival":1522722299000,"departure":1522722300000,"zoneId":"NA","stopIndex":10,"stopSequence":11,"vertexType":"TRANSIT"},"legGeometry":{"points":"szmfHdzupL]Yk@e@ECrAsDlA_DbAwCb@XXRLHPe@\\w@B@\\Tv@kC`A~@pD|CJHH[DKn@}BZXa@zA","length":23},"rentedBike":false,"transitLeg":false,"duration":592.0,"steps":[{"distance":50.989000000000004,"relativeDirection":"DEPART","streetName":"Rue Bizet","absoluteDirection":"NORTHEAST","stayOn":false,"area":false,"bogusName":false,"lon":-71.0597088492121,"lat":48.40890946956003,"elevation":[]},{"distance":221.909,"relativeDirection":"RIGHT","streetName":"Rue Plamondon","absoluteDirection":"SOUTHEAST","stayOn":false,"area":false,"bogusName":false,"lon":-71.0593601,"lat":48.4093053,"elevation":[]},{"distance":171.709,"relativeDirection":"RIGHT","streetName":"parking aisle","absoluteDirection":"SOUTHWEST","stayOn":false,"area":false,"bogusName":true,"lon":-71.05690750000001,"lat":48.408151600000004,"elevation":[]},{"distance":166.422,"relativeDirection":"RIGHT","streetName":"Boulevard Talbot","absoluteDirection":"SOUTHWEST","stayOn":false,"area":false,"bogusName":false,"lon":-71.0561383,"lat":48.40708720000001,"elevation":[]},{"distance":71.053,"relativeDirection":"LEFT","streetName":"service road","absoluteDirection":"SOUTHEAST","stayOn":false,"area":false,"bogusName":true,"lon":-71.05729810000001,"lat":48.4058038,"elevation":[]},{"distance":56.66,"relativeDirection":"RIGHT","streetName":"parking aisle","absoluteDirection":"SOUTHWEST","stayOn":true,"area":false,"bogusName":true,"lon":-71.0564657,"lat":48.405483000000004,"elevation":[]}]},{"startTime":1522722300000,"endTime":1522722988000,"departureDelay":0,"arrivalDelay":0,"realTime":false,"distance":3267.1548332639504,"pathway":false,"mode":"BUS","route":"175","agencyName":"Société de Transport du Saguenay","agencyUrl":"http://ville.saguenay.ca/fr/services-aux-citoyens/transport-sts","agencyTimeZoneOffset":-14400000,"routeColor":"FF00FF","routeType":3,"routeId":"1:175","routeTextColor":"FFFFFF","interlineWithPreviousLeg":false,"tripBlockId":"9","headsign":"Terminus Chicoutimi","agencyId":"0","tripId":"1:217423","serviceDate":"20180402","from":{"name":"Place Royaume","stopId":"1:1801","stopCode":"1801","lon":-71.057017,"lat":48.405588,"arrival":1522722299000,"departure":1522722300000,"zoneId":"NA","stopIndex":10,"stopSequence":11,"vertexType":"TRANSIT"},"to":{"name":"Hôtel-Dieu / Riverin","stopId":"1:338","stopCode":"338","lon":-71.054073,"lat":48.427466,"arrival":1522722988000,"departure":1522722989000,"zoneId":"NA","stopIndex":21,"stopSequence":22,"vertexType":"TRANSIT"},"legGeometry":{"points":"sfmfH`kupL_U_TcNgNcBcB{E`Jc@x@qG~@{BlAk@XgSrQqB_GAeFiEeEOt@gAeA_A_ATm@yAwAgBeBqDnL@nBF`@f@|C[dCuAfB]xAs@OmCmCmEkE]a@g@i@ZiGTmEl@oLaEe@cFk@?pH?tJDvB","length":39},"routeShortName":"175","routeLongName":"Term. Chic / Costco","rentedBike":false,"transitLeg":true,"duration":688.0,"steps":[]},{"startTime":1522722989000,"endTime":1522723103000,"departureDelay":0,"arrivalDelay":0,"realTime":false,"distance":143.76600000000002,"pathway":false,"mode":"WALK","route":"","agencyTimeZoneOffset":-14400000,"interlineWithPreviousLeg":false,"from":{"name":"Hôtel-Dieu / Riverin","stopId":"1:338","stopCode":"338","lon":-71.054073,"lat":48.427466,"arrival":1522722988000,"departure":1522722989000,"zoneId":"NA","stopIndex":21,"stopSequence":22,"vertexType":"TRANSIT"},"to":{"name":"Destination","lon":-71.05393599,"lat":48.428282,"arrival":1522723103000,"orig":"","vertexType":"NORMAL"},"legGeometry":{"points":"knqfH|vtpLC_CKCe@BwBJA?","length":6},"rentedBike":false,"transitLeg":false,"duration":114.0,"steps":[{"distance":47.75,"relativeDirection":"DEPART","streetName":"Rue de l'Hôtel-Dieu","absoluteDirection":"EAST","stayOn":false,"area":false,"bogusName":false,"lon":-71.05406930388979,"lat":48.42742042441727,"elevation":[]},{"distance":96.016,"relativeDirection":"LEFT","streetName":"Rue Bégin","absoluteDirection":"NORTH","stayOn":false,"area":false,"bogusName":false,"lon":-71.0534231,"lat":48.4274435,"elevation":[]}]}],"tooSloped":false},{"duration":1721,"startTime":1522721710000,"endTime":1522723431000,"walkTime":430,"transitTime":1289,"waitingTime":2,"walkDistance":535.1771202959725,"walkLimitExceeded":false,"elevationLost":0.0,"elevationGained":0.0,"transfers":0,"legs":[{"startTime":1522721710000,"endTime":1522721853000,"departureDelay":0,"arrivalDelay":0,"realTime":false,"distance":176.764,"pathway":false,"mode":"WALK","route":"","agencyTimeZoneOffset":-14400000,"interlineWithPreviousLeg":false,"from":{"name":"Origin","lon":-71.059504,"lat":48.40883,"departure":1522721710000,"orig":"","vertexType":"NORMAL"},"to":{"name":"Champs-Élysées / Chopin","stopId":"1:570","stopCode":"570","lon":-71.058565,"lat":48.409684,"arrival":1522721853000,"departure":1522721854000,"zoneId":"NA","stopIndex":11,"stopSequence":12,"vertexType":"TRANSIT"},"legGeometry":{"points":"szmfHdzupL]Yk@e@ECiAe@}@i@n@}A","length":7},"rentedBike":false,"transitLeg":false,"duration":143.0,"steps":[{"distance":132.731,"relativeDirection":"DEPART","streetName":"Rue Bizet","absoluteDirection":"NORTHEAST","stayOn":false,"area":false,"bogusName":false,"lon":-71.0597088492121,"lat":48.40890946956003,"elevation":[]},{"distance":44.033,"relativeDirection":"RIGHT","streetName":"Rue des Champs-Élysées","absoluteDirection":"SOUTHEAST","stayOn":false,"area":false,"bogusName":false,"lon":-71.0589618,"lat":48.409989800000005,"elevation":[]}]},{"startTime":1522721854000,"endTime":1522723143000,"departureDelay":0,"arrivalDelay":0,"realTime":false,"distance":7931.205723126747,"pathway":false,"mode":"BUS","route":"12","agencyName":"Société de Transport du Saguenay","agencyUrl":"http://ville.saguenay.ca/fr/services-aux-citoyens/transport-sts","agencyTimeZoneOffset":-14400000,"routeColor":"556B2F","routeType":3,"routeId":"1:12","routeTextColor":"FFFFFF","interlineWithPreviousLeg":false,"tripBlockId":"26","headsign":"Terminus Chicoutimi","agencyId":"0","tripId":"1:217995","serviceDate":"20180402","from":{"name":"Champs-Élysées / Chopin","stopId":"1:570","stopCode":"570","lon":-71.058565,"lat":48.409684,"arrival":1522721853000,"departure":1522721854000,"zoneId":"NA","stopIndex":11,"stopSequence":12,"vertexType":"TRANSIT"},"to":{"name":"Réserve Navale (boul. Saguenay)","stopId":"1:1584","stopCode":"1584","lon":-71.055268,"lat":48.429877,"arrival":1522723143000,"departure":1522723144000,"zoneId":"NA","stopIndex":31,"stopSequence":32,"vertexType":"TRANSIT"},"legGeometry":{"points":"o_nfH`supLrGcPxFoNlCyGa@yFYkD}CyA}KmFgD_BgAgBn@kFD_NoIgrAmD_WcAaLaDHoDJi`@wVoAbDbA|AnBU|B|AfBlAyLtKoGxFcFqDkJaHgEoDmDwC_TqQsBeB{HjWfAvAfM|O|FlHmB`IgA|Cy@`UYzHZvMR~Hr@~ZPvHsCrMFxf@|ApJ","length":46},"routeShortName":"12","routeLongName":"Rivière du Moulin","rentedBike":false,"transitLeg":true,"duration":1289.0,"steps":[]},{"startTime":1522723144000,"endTime":1522723431000,"departureDelay":0,"arrivalDelay":0,"realTime":false,"distance":358.26500000000004,"pathway":false,"mode":"WALK","route":"","agencyTimeZoneOffset":-14400000,"interlineWithPreviousLeg":false,"from":{"name":"Réserve Navale (boul. Saguenay)","stopId":"1:1584","stopCode":"1584","lon":-71.055268,"lat":48.429877,"arrival":1522723143000,"departure":1522723144000,"zoneId":"NA","stopIndex":31,"stopSequence":32,"vertexType":"TRANSIT"},"to":{"name":"Destination","lon":-71.05393599,"lat":48.428282,"arrival":1522723431000,"orig":"","vertexType":"NORMAL"},"legGeometry":{"points":"m}qfHf~tpLq@uCKs@QqBDCB?\\IDAfB[zC]Dn@hAG","length":12},"rentedBike":false,"transitLeg":false,"duration":287.0,"steps":[{"distance":125.823,"relativeDirection":"DEPART","streetName":"bike path","absoluteDirection":"NORTHEAST","stayOn":false,"area":false,"bogusName":true,"lon":-71.05523882769663,"lat":48.429837229061626,"elevation":[]},{"distance":6.262,"relativeDirection":"RIGHT","streetName":"path","absoluteDirection":"SOUTH","stayOn":true,"area":false,"bogusName":true,"lon":-71.0536536,"lat":48.4302398,"elevation":[]},{"distance":166.236,"relativeDirection":"CONTINUE","streetName":"Rue Salaberry","absoluteDirection":"SOUTH","stayOn":false,"area":false,"bogusName":false,"lon":-71.053634,"lat":48.430185,"elevation":[]},{"distance":18.475,"relativeDirection":"RIGHT","streetName":"Rue Racine Est","absoluteDirection":"WEST","stayOn":false,"area":false,"bogusName":false,"lon":-71.0532845,"lat":48.428708900000004,"elevation":[]},{"distance":41.469,"relativeDirection":"LEFT","streetName":"Rue Bégin","absoluteDirection":"SOUTH","stayOn":false,"area":false,"bogusName":false,"lon":-71.0535297,"lat":48.4286752,"elevation":[]}]}],"tooSloped":false}]},"debugOutput":{"precalculationTime":39,"pathCalculationTime":41,"pathTimes":[22,10,9],"renderingTime":1,"totalTime":81,"timedOut":false},"elevationMetadata":{"ellipsoidToGeoidDifference":-28.885904201182168,"geoidElevation":false}}