{"requestParameters":{"date":"2018/04/02","walkSpeed":"1.33","walkReluctance":"2.0","fromPlace":"48.42282,-71.074954","maxWalkDistance":"3000","waitReluctance":"1.0","carSpeed":"33","numItineraries":"3","waitAtBeginningFactor":"0.4","mode":"TRANSIT,WALK","ignoreRealtimeUpdates":"false","stairsReluctance":"2.0","toPlace":"48.427597,-71.06596399","time":"15:30:00"},"plan":{"date":1522697400000,"from":{"name":"Origin","lon":-71.074954,"lat":48.42282,"orig":"","vertexType":"NORMAL"},"to":{"name":"Destination","lon":-71.06596399,"lat":48.427597,"orig":"","vertexType":"NORMAL"},"itineraries":[{"duration":494,"startTime":1522697658000,"endTime":1522698152000,"walkTime":231,"transitTime":261,"waitingTime":2,"walkDistance":292.3511729300988,"walkLimitExceeded":false,"elevationLost":0.0,"elevationGained":0.0,"transfers":0,"legs":[{"startTime":1522697658000,"endTime":1522697798000,"departureDelay":0,"arrivalDelay":0,"realTime":false,"distance":174.991,"pathway":false,"mode":"WALK","route":"","agencyTimeZoneOffset":-14400000,"interlineWithPreviousLeg":false,"from":{"name":"Origin","lon":-71.074954,"lat":48.42282,"departure":1522697658000,"orig":"","vertexType":"NORMAL"},"to":{"name":"Bossé / Sainte-Marthe","stopId":"1:1577","stopCode":"1577","lon":-71.074827,"lat":48.424374,"arrival":1522697798000,"departure":1522697799000,"zoneId":"NA","stopIndex":26,"stopSequence":27,"vertexType":"TRANSIT"},"legGeometry":{"points":"}spfHhzxpLEg@CWy@][?{CBAb@","length":7},"rentedBike":false,"transitLeg":false,"duration":140.0,"steps":[{"distance":24.877,"relativeDirection":"DEPART","streetName":"Rue Gilbert","absoluteDirection":"EAST","stayOn":false,"area":false,"bogusName":false,"lon":-71.07508859873886,"lat":48.42319368551535,"elevation":[]},{"distance":136.315,"relativeDirection":"LEFT","streetName":"Rue Sainte-Marthe","absoluteDirection":"NORTH","stayOn":false,"area":false,"bogusName":false,"lon":-71.0747607,"lat":48.4232457,"elevation":[]},{"distance":13.799,"relativeDirection":"LEFT","streetName":"Rue Bossé","absoluteDirection":"WEST","stayOn":false,"area":false,"bogusName":false,"lon":-71.0746309,"lat":48.424456500000005,"elevation":[]}]},{"startTime":1522697799000,"endTime":1522698060000,"departureDelay":0,"arrivalDelay":0,"realTime":false,"distance":967.6979458137391,"pathway":false,"mode":"BUS","route":"11","agencyName":"Société de Transport du Saguenay","agencyUrl":"http://ville.saguenay.ca/fr/services-aux-citoyens/transport-sts","agencyTimeZoneOffset":-14400000,"routeColor":"FF0000","routeType":3,"routeId":"1:11","routeTextColor":"FFFFFF","interlineWithPreviousLeg":false,"tripBlockId":"34","headsign":"Terminus Chicoutimi","agencyId":"0","tripId":"1:218224","serviceDate":"20180402","from":{"name":"Bossé / Sainte-Marthe","stopId":"1:1577","stopCode":"1577","lon":-71.074827,"lat":48.424374,"arrival":1522697798000,"departure":1522697799000,"zoneId":"NA","stopIndex":26,"stopSequence":27,"vertexType":"TRANSIT"},"to":{"name":"Terminus Chicoutimi","stopId":"1:1289","stopCode":"1289","lon":-71.066163,"lat":48.428677,"arrival":1522698060000,"departure":1522698061000,"zoneId":"NA","stopIndex":30,"stopSequence":31,"vertexType":"TRANSIT"},"legGeometry":{"points":"u{pfHtxxpLVsLDaCD_@kBKW?e@Q_BQNuEDuBXmNLgHmKm@}BW{AMCn@o@G??","length":18},"routeShortName":"11","routeLongName":"Chic/Faubourg via St-Paul","rentedBike":false,"transitLeg":true,"duration":261.0,"steps":[]},{"startTime":1522698061000,"endTime":1522698152000,"departureDelay":0,"arrivalDelay":0,"realTime":false,"distance":117.291,"pathway":false,"mode":"WALK","route":"","agencyTimeZoneOffset":-14400000,"interlineWithPreviousLeg":false,"from":{"name":"Terminus Chicoutimi","stopId":"1:1289","stopCode":"1289","lon":-71.066163,"lat":48.428677,"arrival":1522698060000,"departure":1522698061000,"zoneId":"NA","stopIndex":30,"stopSequence":31,"vertexType":"TRANSIT"},"to":{"name":"Destination","lon":-71.06596399,"lat":48.427597,"arrival":1522698152000,"orig":"","vertexType":"NORMAL"},"legGeometry":{"points":"{uqfHb~vpLbAJR@JDb@LfAD","length":6},"rentedBike":false,"transitLeg":false,"duration":91.0,"steps":[{"distance":117.291,"relativeDirection":"DEPART","streetName":"Rue Morin","absoluteDirection":"SOUTH","stayOn":false,"area":false,"bogusName":false,"lon":-71.0654590096484,"lat":48.428628638946556,"elevation":[]}]}],"tooSloped":false},{"duration":535,"startTime":1522697617000,"endTime":1522698152000,"walkTime":331,"transitTime":202,"waitingTime":2,"walkDistance":423.4766691707488,"walkLimitExceeded":false,"elevationLost":0.0,"elevationGained":0.0,"transfers":0,"legs":[{"startTime":1522697617000,"endTime":1522697857000,"departureDelay":0,"arrivalDelay":0,"realTime":false,"distance":306.11799999999994,"pathway":false,"mode":"WALK","route":"","agencyTimeZoneOffset":-14400000,"interlineWithPreviousLeg":false,"from":{"name":"Origin","lon":-71.074954,"lat":48.42282,"departure":1522697617000,"orig":"","vertexType":"NORMAL"},"to":{"name":"Price / Sainte-Marthe","stopId":"1:628","stopCode":"628","lon":-71.073911,"lat":48.425195,"arrival":1522697857000,"departure":1522697858000,"zoneId":"NA","stopIndex":32,"stopSequence":33,"vertexType":"TRANSIT"},"legGeometry":{"points":"}spfHhzxpLEg@CWy@][?{CBeCSs@UFk@Fi@@S","length":11},"rentedBike":false,"transitLeg":false,"duration":240.0,"steps":[{"distance":24.877,"relativeDirection":"DEPART","streetName":"Rue Gilbert","absoluteDirection":"EAST","stayOn":false,"area":false,"bogusName":false,"lon":-71.07508859873886,"lat":48.42319368551535,"elevation":[]},{"distance":240.725,"relativeDirection":"LEFT","streetName":"Rue Sainte-Marthe","absoluteDirection":"NORTH","stayOn":false,"area":false,"bogusName":false,"lon":-71.0747607,"lat":48.4232457,"elevation":[]},{"distance":40.516000000000005,"relativeDirection":"RIGHT","streetName":"Rue Price Ouest","absoluteDirection":"EAST","stayOn":false,"area":false,"bogusName":false,"lon":-71.07442610000001,"lat":48.425381900000005,"elevation":[]}]},{"startTime":1522697858000,"endTime":1522698060000,"departureDelay":0,"arrivalDelay":0,"realTime":false,"distance":737.3644338023462,"pathway":false,"mode":"BUS","route":"16","agencyName":"Société de Transport du Saguenay","agencyUrl":"http://ville.saguenay.ca/fr/services-aux-citoyens/transport-sts","agencyTimeZoneOffset":-14400000,"routeColor":"00FF00","routeType":3,"routeId":"1:16","routeTextColor":"000000","interlineWithPreviousLeg":false,"tripBlockId":"35","headsign":"Terminus Chicoutimi","agencyId":"0","tripId":"1:218259","serviceDate":"20180402","from":{"name":"Price / Sainte-Marthe","stopId":"1:628","stopCode":"628","lon":-71.073911,"lat":48.425195,"arrival":1522697857000,"departure":1522697858000,"zoneId":"NA","stopIndex":32,"stopSequence":33,"vertexType":"TRANSIT"},"to":{"name":"Terminus Chicoutimi","stopId":"1:1289","stopCode":"1289","lon":-71.066163,"lat":48.428677,"arrival":1522698060000,"departure":1522698061000,"zoneId":"NA","stopIndex":35,"stopSequence":36,"vertexType":"TRANSIT"},"legGeometry":{"points":"{`qfHxrxpL@IBcAG_A{@sEEg@oAP}@DiBDFeBMa@iBCq@FmBPFcEDoBNiHyDWN_HBoA@Y@m@","length":22},"routeShortName":"16","routeLongName":"Côte de la Réserve","rentedBike":false,"transitLeg":true,"duration":202.0,"steps":[]},{"startTime":1522698061000,"endTime":1522698152000,"departureDelay":0,"arrivalDelay":0,"realTime":false,"distance":117.291,"pathway":false,"mode":"WALK","route":"","agencyTimeZoneOffset":-14400000,"interlineWithPreviousLeg":false,"from":{"name":"Terminus Chicoutimi","stopId":"1:1289","stopCode":"1289","lon":-71.066163,"lat":48.428677,"arrival":1522698060000,"departure":1522698061000,"zoneId":"NA","stopIndex":35,"stopSequence":36,"vertexType":"TRANSIT"},"to":{"name":"Destination","lon":-71.06596399,"lat":48.427597,"arrival":1522698152000,"orig":"","vertexType":"NORMAL"},"legGeometry":{"points":"{uqfHb~vpLbAJR@JDb@LfAD","length":6},"rentedBike":false,"transitLeg":false,"duration":91.0,"steps":[{"distance":117.291,"relativeDirection":"DEPART","streetName":"Rue Morin","absoluteDirection":"SOUTH","stayOn":false,"area":false,"bogusName":false,"lon":-71.0654590096484,"lat":48.428628638946556,"elevation":[]}]}],"tooSloped":false},{"duration":895,"startTime":1522697400000,"endTime":1522698295000,"walkTime":895,"transitTime":0,"waitingTime":0,"walkDistance":1138.4000676634594,"walkLimitExceeded":false,"elevationLost":0.0,"elevationGained":0.0,"transfers":0,"legs":[{"startTime":1522697400000,"endTime":1522698295000,"departureDelay":0,"arrivalDelay":0,"realTime":false,"distance":1138.2229999999997,"pathway":false,"mode":"WALK","route":"","agencyTimeZoneOffset":-14400000,"interlineWithPreviousLeg":false,"from":{"name":"Origin","lon":-71.074954,"lat":48.42282,"departure":1522697400000,"orig":"","vertexType":"NORMAL"},"to":{"name":"Destination","lon":-71.06596399,"lat":48.427597,"arrival":1522698295000,"orig":"","vertexType":"NORMAL"},"legGeometry":{"points":"}spfHhzxpLEg@CWy@][?{CBeCSs@UFk@Fi@@S?ADcAC[G}@q@iDA[Ec@OMaAYCFKDKCGGKSSYWKkAK@aD@k@HoCLsEB_BDoBBwABaAJeEkCQQAk@C","length":40},"rentedBike":false,"transitLeg":false,"duration":895.0,"steps":[{"distance":24.877,"relativeDirection":"DEPART","streetName":"Rue Gilbert","absoluteDirection":"EAST","stayOn":false,"area":false,"bogusName":false,"lon":-71.07508859873886,"lat":48.42319368551535,"elevation":[]},{"distance":240.725,"relativeDirection":"LEFT","streetName":"Rue Sainte-Marthe","absoluteDirection":"NORTH","stayOn":false,"area":false,"bogusName":false,"lon":-71.0747607,"lat":48.4232457,"elevation":[]},{"distance":193.44000000000003,"relativeDirection":"RIGHT","streetName":"Rue Price Ouest","absoluteDirection":"EAST","stayOn":false,"area":false,"bogusName":false,"lon":-71.07442610000001,"lat":48.425381900000005,"elevation":[]},{"distance":48.492,"relativeDirection":"LEFT","streetName":"path","absoluteDirection":"NORTH","stayOn":false,"area":false,"bogusName":true,"lon":-71.0719217,"lat":48.425614800000005,"elevation":[]},{"distance":103.339,"relativeDirection":"SLIGHTLY_LEFT","streetName":"Rue Montcalm","absoluteDirection":"NORTH","stayOn":false,"area":false,"bogusName":false,"lon":-71.0717267,"lat":48.426028200000005,"elevation":[]},{"distance":208.179,"relativeDirection":"RIGHT","streetName":"Rue Jacques-Cartier Ouest","absoluteDirection":"EAST","stayOn":false,"area":false,"bogusName":false,"lon":-71.0713817,"lat":48.426863100000006,"elevation":[]},{"distance":206.74900000000002,"relativeDirection":"CONTINUE","streetName":"Rue Jacques-Cartier Est","absoluteDirection":"EAST","stayOn":false,"area":false,"bogusName":false,"lon":-71.0685709,"lat":48.426721,"elevation":[]},{"distance":112.422,"relativeDirection":"LEFT","streetName":"Rue Morin","absoluteDirection":"NORTH","stayOn":false,"area":false,"bogusName":false,"lon":-71.0657774,"lat":48.426577300000005,"elevation":[]}]}],"tooSloped":false}]},"debugOutput":{"precalculationTime":33,"pathCalculationTime":16,"pathTimes":[10,5,1],"renderingTime":1,"totalTime":50,"timedOut":false},"elevationMetadata":{"ellipsoidToGeoidDifference":-28.885904201182168,"geoidElevation":false}}