{"requestParameters":{"date":"2018/04/02","walkSpeed":"1.33","walkReluctance":"2.0","fromPlace":"48.406351,-71.05878699","maxWalkDistance":"3000","waitReluctance":"1.0","carSpeed":"33","numItineraries":"3","waitAtBeginningFactor":"0.4","mode":"TRANSIT,WALK","ignoreRealtimeUpdates":"false","stairsReluctance":"2.0","toPlace":"48.407658,-71.063773","time":"17:30:00"},"plan":{"date":1522704600000,"from":{"name":"Origin","lon":-71.05878699,"lat":48.406351,"orig":"","vertexType":"NORMAL"},"to":{"name":"Destination","lon":-71.063773,"lat":48.407658,"orig":"","vertexType":"NORMAL"},"itineraries":[{"duration":371,"startTime":1522704600000,"endTime":1522704971000,"walkTime":371,"transitTime":0,"waitingTime":0,"walkDistance":456.09530074799795,"walkLimitExceeded":false,"elevationLost":0.0,"elevationGained":0.0,"transfers":0,"legs":[{"startTime":1522704600000,"endTime":1522704971000,"departureDelay":0,"arrivalDelay":0,"realTime":false,"distance":455.975,"pathway":false,"mode":"WALK","route":"","agencyTimeZoneOffset":-14400000,"interlineWithPreviousLeg":false,"from":{"name":"Origin","lon":-71.05878699,"lat":48.406351,"departure":1522704600000,"orig":"","vertexType":"NORMAL"},"to":{"name":"Destination","lon":-71.063773,"lat":48.407658,"arrival":1522704971000,"orig":"","vertexType":"NORMAL"},"legGeometry":{"points":"glmfHhxupLj@f@v@p@o@`BsAhDEPKZEPQx@Qp@Oj@UVIHOLMPETEf@yArDl@b@","length":19},"rentedBike":false,"transitLeg":false,"duration":371.0,"steps":[{"distance":64.187,"relativeDirection":"DEPART","streetName":"Rue Bach","absoluteDirection":"SOUTHWEST","stayOn":false,"area":false,"bogusName":false,"lon":-71.05940792180488,"lat":48.40660402994085,"elevation":[]},{"distance":212.851,"relativeDirection":"RIGHT","streetName":"bike path","absoluteDirection":"NORTHWEST","stayOn":false,"area":false,"bogusName":true,"lon":-71.0598554,"lat":48.4061091,"elevation":[]},{"distance":149.921,"relativeDirection":"SLIGHTLY_RIGHT","streetName":"bike path","absoluteDirection":"NORTHWEST","stayOn":true,"area":false,"bogusName":true,"lon":-71.06227200000001,"lat":48.407144,"elevation":[]},{"distance":29.016,"relativeDirection":"LEFT","streetName":"Rue Duchesne","absoluteDirection":"SOUTHWEST","stayOn":false,"area":false,"bogusName":false,"lon":-71.0638191,"lat":48.4079643,"elevation":[]}]}],"tooSloped":false}]},"debugOutput":{"precalculationTime":39,"pathCalculationTime":22,"pathTimes":[4,10,8],"renderingTime":0,"totalTime":61,"timedOut":false},"elevationMetadata":{"ellipsoidToGeoidDifference":-28.885904201182168,"geoidElevation":false}}