{"requestParameters":{"date":"2018/04/02","walkSpeed":"1.33","walkReluctance":"2.0","fromPlace":"48.406842,-71.070559","maxWalkDistance":"3000","waitReluctance":"1.0","carSpeed":"33","numItineraries":"3","waitAtBeginningFactor":"0.4","mode":"TRANSIT,WALK","ignoreRealtimeUpdates":"false","stairsReluctance":"2.0","toPlace":"48.415164,-71.051562","time":"14:30:00"},"plan":{"date":1522693800000,"from":{"name":"Origin","lon":-71.070559,"lat":48.406842,"orig":"","vertexType":"NORMAL"},"to":{"name":"Destination","lon":-71.051562,"lat":48.415164,"orig":"","vertexType":"NORMAL"},"itineraries":[{"duration":1879,"startTime":1522693800000,"endTime":1522695679000,"walkTime":1879,"transitTime":0,"waitingTime":0,"walkDistance":2406.333812016368,"walkLimitExceeded":false,"elevationLost":0.0,"elevationGained":0.0,"transfers":0,"legs":[{"startTime":1522693800000,"endTime":1522695679000,"departureDelay":0,"arrivalDelay":0,"realTime":false,"distance":2405.909,"pathway":false,"mode":"WALK","route":"","agencyTimeZoneOffset":-14400000,"interlineWithPreviousLeg":false,"from":{"name":"Origin","lon":-71.070559,"lat":48.406842,"departure":1522693800000,"orig":"","vertexType":"NORMAL"},"to":{"name":"Destination","lon":-71.051562,"lat":48.415164,"arrival":1522695679000,"orig":"","vertexType":"NORMAL"},"legGeometry":{"points":"{lmfHx{wpLuC_CcDiCJ[`DaI??Pa@qB{BTi@Py@_@g@mD{BmAy@_AkGIs@@wAB[FaAj@gBpC}HqAgAe@a@k@e@ECiAe@}@i@n@}A?A`@}@{AuA{@@gETyAFGHcAuAzAgDv@mBBaAMuAu@yCm@aC?uDMqAqAkAIIYWIG{AuA[C{@\\u@ZY@UQy@u@KKaB{A","length":56},"rentedBike":false,"transitLeg":false,"duration":1879.0,"steps":[{"distance":200.405,"relativeDirection":"DEPART","streetName":"Rue Bégin","absoluteDirection":"NORTHEAST","stayOn":false,"area":false,"bogusName":false,"lon":-71.07020316081696,"lat":48.40670903230728,"elevation":[]},{"distance":177.40699999999998,"relativeDirection":"RIGHT","streetName":"Rue des Saguenéens","absoluteDirection":"SOUTHEAST","stayOn":false,"area":false,"bogusName":false,"lon":-71.0688714,"lat":48.4082796,"elevation":[]},{"distance":77.658,"relativeDirection":"LEFT","streetName":"path","absoluteDirection":"NORTHEAST","stayOn":false,"area":false,"bogusName":true,"lon":-71.0669515,"lat":48.4073198,"elevation":[]},{"distance":173.83,"relativeDirection":"RIGHT","streetName":"Rue Duhaime","absoluteDirection":"SOUTHEAST","stayOn":false,"area":false,"bogusName":false,"lon":-71.0663385,"lat":48.4078874,"elevation":[]},{"distance":430.19599999999997,"relativeDirection":"CONTINUE","streetName":"Rue Belleau","absoluteDirection":"NORTHEAST","stayOn":false,"area":false,"bogusName":false,"lon":-71.06501420000001,"lat":48.408712400000006,"elevation":[]},{"distance":191.274,"relativeDirection":"LEFT","streetName":"Rue Bizet","absoluteDirection":"NORTHEAST","stayOn":false,"area":false,"bogusName":false,"lon":-71.0601022,"lat":48.4084523,"elevation":[]},{"distance":73.997,"relativeDirection":"RIGHT","streetName":"Rue des Champs-Élysées","absoluteDirection":"SOUTHEAST","stayOn":false,"area":false,"bogusName":false,"lon":-71.0589618,"lat":48.409989800000005,"elevation":[]},{"distance":205.04399999999998,"relativeDirection":"LEFT","streetName":"Rue Chopin","absoluteDirection":"NORTHEAST","stayOn":false,"area":false,"bogusName":false,"lon":-71.0581732,"lat":48.4095789,"elevation":[]},{"distance":105.095,"relativeDirection":"CONTINUE","streetName":"path","absoluteDirection":"NORTH","stayOn":false,"area":false,"bogusName":true,"lon":-71.0578622,"lat":48.411338,"elevation":[]},{"distance":466.149,"relativeDirection":"RIGHT","streetName":"Rue Thérèse-Casgrain","absoluteDirection":"SOUTHEAST","stayOn":false,"area":false,"bogusName":false,"lon":-71.0575299,"lat":48.412162300000006,"elevation":[]},{"distance":304.85400000000004,"relativeDirection":"CONTINUE","streetName":"Rue d'Alma","absoluteDirection":"NORTHEAST","stayOn":false,"area":false,"bogusName":false,"lon":-71.0522085,"lat":48.412505100000004,"elevation":[]}]}],"tooSloped":false},{"duration":1656,"startTime":1522694093000,"endTime":1522695749000,"walkTime":1491,"transitTime":163,"waitingTime":2,"walkDistance":1919.1547142781092,"walkLimitExceeded":false,"elevationLost":0.0,"elevationGained":0.0,"transfers":0,"legs":[{"startTime":1522694093000,"endTime":1522695299000,"departureDelay":0,"arrivalDelay":0,"realTime":false,"distance":1547.2780000000002,"pathway":false,"mode":"WALK","route":"","agencyTimeZoneOffset":-14400000,"interlineWithPreviousLeg":false,"from":{"name":"Origin","lon":-71.070559,"lat":48.406842,"departure":1522694093000,"orig":"","vertexType":"NORMAL"},"to":{"name":"Place Royaume","stopId":"1:1801","stopCode":"1801","lon":-71.057017,"lat":48.405588,"arrival":1522695299000,"departure":1522695300000,"zoneId":"NA","stopIndex":10,"stopSequence":11,"vertexType":"TRANSIT"},"legGeometry":{"points":"{lmfHx{wpLuC_CcDiCJ[`DaI??Pa@DMFOfByEFOl@}Az@eCfAwA?ABCbA_AHW`A_A`A}@V[t@_A`A{BfAoCxBwFJW@EkBeBiFwEt@aC[YUU][Y[[YY[[[a@zA","length":38},"rentedBike":false,"transitLeg":false,"duration":1206.0,"steps":[{"distance":200.405,"relativeDirection":"DEPART","streetName":"Rue Bégin","absoluteDirection":"NORTHEAST","stayOn":false,"area":false,"bogusName":false,"lon":-71.07020316081696,"lat":48.40670903230728,"elevation":[]},{"distance":904.1259999999999,"relativeDirection":"RIGHT","streetName":"Rue des Saguenéens","absoluteDirection":"SOUTHEAST","stayOn":false,"area":false,"bogusName":false,"lon":-71.0688714,"lat":48.4082796,"elevation":[]},{"distance":223.313,"relativeDirection":"LEFT","streetName":"Boulevard Talbot","absoluteDirection":"NORTHEAST","stayOn":false,"area":false,"bogusName":false,"lon":-71.0597697,"lat":48.402967000000004,"elevation":[]},{"distance":219.43400000000003,"relativeDirection":"RIGHT","streetName":"parking aisle","absoluteDirection":"SOUTHEAST","stayOn":false,"area":false,"bogusName":true,"lon":-71.0581722,"lat":48.4046724,"elevation":[]}]},{"startTime":1522695300000,"endTime":1522695463000,"departureDelay":0,"arrivalDelay":0,"realTime":false,"distance":995.5036659423915,"pathway":false,"mode":"BUS","route":"175","agencyName":"Société de Transport du Saguenay","agencyUrl":"http://ville.saguenay.ca/fr/services-aux-citoyens/transport-sts","agencyTimeZoneOffset":-14400000,"routeColor":"FF00FF","routeType":3,"routeId":"1:175","routeTextColor":"FFFFFF","interlineWithPreviousLeg":false,"tripBlockId":"9","headsign":"Terminus Chicoutimi","agencyId":"0","tripId":"1:217408","serviceDate":"20180402","from":{"name":"Place Royaume","stopId":"1:1801","stopCode":"1801","lon":-71.057017,"lat":48.405588,"arrival":1522695299000,"departure":1522695300000,"zoneId":"NA","stopIndex":10,"stopSequence":11,"vertexType":"TRANSIT"},"to":{"name":"boul. Université / Alma","stopId":"1:60","stopCode":"60","lon":-71.052847,"lat":48.413175,"arrival":1522695463000,"departure":1522695464000,"zoneId":"NA","stopIndex":12,"stopSequence":13,"vertexType":"TRANSIT"},"legGeometry":{"points":"sfmfH`kupL_U_TcNgNcBcB{E`J","length":5},"routeShortName":"175","routeLongName":"Term. Chic / Costco","rentedBike":false,"transitLeg":true,"duration":163.0,"steps":[]},{"startTime":1522695464000,"endTime":1522695749000,"departureDelay":0,"arrivalDelay":0,"realTime":false,"distance":371.641,"pathway":false,"mode":"WALK","route":"","agencyTimeZoneOffset":-14400000,"interlineWithPreviousLeg":false,"from":{"name":"boul. Université / Alma","stopId":"1:60","stopCode":"60","lon":-71.052847,"lat":48.413175,"arrival":1522695463000,"departure":1522695464000,"zoneId":"NA","stopIndex":12,"stopSequence":13,"vertexType":"TRANSIT"},"to":{"name":"Destination","lon":-71.051562,"lat":48.415164,"arrival":1522695749000,"orig":"","vertexType":"NORMAL"},"legGeometry":{"points":"gunfHpotpL^]hAaCIG{AuA[C{@\\u@ZY@UQy@u@KKaB{A","length":13},"rentedBike":false,"transitLeg":false,"duration":285.0,"steps":[{"distance":83.772,"relativeDirection":"DEPART","streetName":"Boulevard de l'Université","absoluteDirection":"SOUTHEAST","stayOn":false,"area":false,"bogusName":false,"lon":-71.05288001080534,"lat":48.41316151165065,"elevation":[]},{"distance":287.869,"relativeDirection":"LEFT","streetName":"Rue d'Alma","absoluteDirection":"NORTHEAST","stayOn":false,"area":false,"bogusName":false,"lon":-71.0520843,"lat":48.4126337,"elevation":[]}]}],"tooSloped":false},{"duration":1463,"startTime":1522694935000,"endTime":1522696398000,"walkTime":903,"transitTime":558,"waitingTime":2,"walkDistance":1155.0098045057346,"walkLimitExceeded":false,"elevationLost":0.0,"elevationGained":0.0,"transfers":0,"legs":[{"startTime":1522694935000,"endTime":1522695101000,"departureDelay":0,"arrivalDelay":0,"realTime":false,"distance":213.238,"pathway":false,"mode":"WALK","route":"","agencyTimeZoneOffset":-14400000,"interlineWithPreviousLeg":false,"from":{"name":"Origin","lon":-71.070559,"lat":48.406842,"departure":1522694935000,"orig":"","vertexType":"NORMAL"},"to":{"name":"Saguenéens / Bégin","stopId":"1:578","stopCode":"578","lon":-71.068617,"lat":48.408312,"arrival":1522695101000,"departure":1522695102000,"zoneId":"NA","stopIndex":17,"stopSequence":18,"vertexType":"TRANSIT"},"legGeometry":{"points":"{lmfHx{wpLuC_CcDiCJ[","length":4},"rentedBike":false,"transitLeg":false,"duration":166.0,"steps":[{"distance":200.405,"relativeDirection":"DEPART","streetName":"Rue Bégin","absoluteDirection":"NORTHEAST","stayOn":false,"area":false,"bogusName":false,"lon":-71.07020316081696,"lat":48.40670903230728,"elevation":[]},{"distance":12.833,"relativeDirection":"RIGHT","streetName":"Rue des Saguenéens","absoluteDirection":"SOUTHEAST","stayOn":false,"area":false,"bogusName":false,"lon":-71.0688714,"lat":48.4082796,"elevation":[]}]},{"startTime":1522695102000,"endTime":1522695660000,"departureDelay":0,"arrivalDelay":0,"realTime":false,"distance":3020.2581486717463,"pathway":false,"mode":"BUS","route":"15","agencyName":"Société de Transport du Saguenay","agencyUrl":"http://ville.saguenay.ca/fr/services-aux-citoyens/transport-sts","agencyTimeZoneOffset":-14400000,"routeColor":"FF00FF","routeType":3,"routeId":"1:15","routeTextColor":"FFFFFF","interlineWithPreviousLeg":false,"tripBlockId":"32","headsign":"Terminus Chicoutimi","agencyId":"0","tripId":"1:218163","serviceDate":"20180402","from":{"name":"Saguenéens / Bégin","stopId":"1:578","stopCode":"578","lon":-71.068617,"lat":48.408312,"arrival":1522695101000,"departure":1522695102000,"zoneId":"NA","stopIndex":17,"stopSequence":18,"vertexType":"TRANSIT"},"to":{"name":"Terminus UQAC","stopId":"1:1670","stopCode":"1670","lon":-71.053369,"lat":48.420903,"arrival":1522695660000,"departure":1522695661000,"zoneId":"NA","stopIndex":29,"stopSequence":30,"vertexType":"TRANSIT"},"legGeometry":{"points":"qvmfHlrwpLS\\dK|HlFZbC\\p@zA\\rB@hBiArG{BNw@FiG}@iDwAECcCcBo@y@sEeGe@o@qAa@m@MoB?C@}BZwAc@oA_Bs@gDCKZ{Di@QECc@_@sAkAoBwB_EcE{A_BoAmAk@o@cCaCkIkIaJaJUUwBaCj@wCjAsCzGoG_CoHL{D_@kAqD{CQr@iAcA","length":51},"routeShortName":"15","routeLongName":"Term. Chic / Costco","rentedBike":false,"transitLeg":true,"duration":558.0,"steps":[]},{"startTime":1522695661000,"endTime":1522696398000,"departureDelay":0,"arrivalDelay":0,"realTime":false,"distance":941.6000000000003,"pathway":false,"mode":"WALK","route":"","agencyTimeZoneOffset":-14400000,"interlineWithPreviousLeg":false,"from":{"name":"Terminus UQAC","stopId":"1:1670","stopCode":"1670","lon":-71.053369,"lat":48.420903,"arrival":1522695660000,"departure":1522695661000,"zoneId":"NA","stopIndex":29,"stopSequence":30,"vertexType":"TRANSIT"},"to":{"name":"Destination","lon":-71.051562,"lat":48.415164,"arrival":1522696398000,"orig":"","vertexType":"NORMAL"},"legGeometry":{"points":"sepfHrrtpLbA`ATq@f@wAd@wATs@X{@p@YTI`AbAxAxAh@j@JYpAmDVu@z@iCpCiI~JbJ","length":18},"rentedBike":false,"transitLeg":false,"duration":737.0,"steps":[{"distance":236.573,"relativeDirection":"DEPART","streetName":"service road","absoluteDirection":"SOUTHWEST","stayOn":false,"area":false,"bogusName":true,"lon":-71.0533724395415,"lat":48.420904465432976,"elevation":[]},{"distance":133.06900000000002,"relativeDirection":"RIGHT","streetName":"Rue de la Fondation","absoluteDirection":"SOUTHWEST","stayOn":false,"area":false,"bogusName":false,"lon":-71.0518321,"lat":48.419468900000005,"elevation":[]},{"distance":321.801,"relativeDirection":"LEFT","streetName":"Rue Chabanel","absoluteDirection":"SOUTHEAST","stayOn":false,"area":false,"bogusName":false,"lon":-71.05284470000001,"lat":48.4184787,"elevation":[]},{"distance":250.157,"relativeDirection":"RIGHT","streetName":"Rue d'Alma","absoluteDirection":"SOUTHWEST","stayOn":false,"area":false,"bogusName":false,"lon":-71.0492358,"lat":48.41685510000001,"elevation":[]}]}],"tooSloped":false}]},"debugOutput":{"precalculationTime":43,"pathCalculationTime":41,"pathTimes":[18,11,12],"renderingTime":0,"totalTime":84,"timedOut":false},"elevationMetadata":{"ellipsoidToGeoidDifference":-28.885904201182168,"geoidElevation":false}}