{"requestParameters":{"date":"2018/04/02","walkSpeed":"1.33","walkReluctance":"2.0","fromPlace":"48.407288,-71.09300299","maxWalkDistance":"3000","waitReluctance":"1.0","carSpeed":"33","numItineraries":"3","waitAtBeginningFactor":"0.4","mode":"TRANSIT,WALK","ignoreRealtimeUpdates":"false","stairsReluctance":"2.0","toPlace":"48.408639,-71.06916","time":"8:30:00"},"plan":{"date":1522672200000,"from":{"name":"Origin","lon":-71.09300299,"lat":48.407288,"orig":"","vertexType":"NORMAL"},"to":{"name":"Destination","lon":-71.06916,"lat":48.408639,"orig":"","vertexType":"NORMAL"},"itineraries":[{"duration":1658,"startTime":1522672217000,"endTime":1522673875000,"walkTime":1502,"transitTime":154,"waitingTime":2,"walkDistance":1942.4104210471974,"walkLimitExceeded":false,"elevationLost":0.0,"elevationGained":0.0,"transfers":0,"legs":[{"startTime":1522672217000,"endTime":1522673065000,"departureDelay":0,"arrivalDelay":0,"realTime":false,"distance":1094.005,"pathway":false,"mode":"WALK","route":"","agencyTimeZoneOffset":-14400000,"interlineWithPreviousLeg":false,"from":{"name":"Origin","lon":-71.09300299,"lat":48.407288,"departure":1522672217000,"orig":"","vertexType":"NORMAL"},"to":{"name":"Malraux / Pagnol","stopId":"1:441","stopCode":"441","lon":-71.09356,"lat":48.400447,"arrival":1522673065000,"departure":1522673066000,"zoneId":"NA","stopIndex":6,"stopSequence":7,"vertexType":"TRANSIT"},"legGeometry":{"points":"eqmfHpk|pLRXnA`BlB|B|@dAl@t@~@bAj@n@`@d@h@n@fAjAPTnAxANPrCsHFQx@uBzEwM@?`@kAjFzFDD","length":22},"rentedBike":false,"transitLeg":false,"duration":848.0,"steps":[{"distance":479.889,"relativeDirection":"DEPART","streetName":"Boulevard Saint-Paul","absoluteDirection":"SOUTHWEST","stayOn":false,"area":false,"bogusName":false,"lon":-71.09320025552313,"lat":48.40739890610135,"elevation":[]},{"distance":449.30899999999997,"relativeDirection":"LEFT","streetName":"Boulevard Barrette","absoluteDirection":"SOUTHEAST","stayOn":false,"area":false,"bogusName":false,"lon":-71.0971116,"lat":48.4039529,"elevation":[]},{"distance":164.807,"relativeDirection":"RIGHT","streetName":"Rue Malraux","absoluteDirection":"SOUTHWEST","stayOn":false,"area":false,"bogusName":false,"lon":-71.0921587,"lat":48.401604500000005,"elevation":[]}]},{"startTime":1522673066000,"endTime":1522673220000,"departureDelay":0,"arrivalDelay":0,"realTime":false,"distance":2067.5661085441734,"pathway":false,"mode":"BUS","route":"14","agencyName":"Société de Transport du Saguenay","agencyUrl":"http://ville.saguenay.ca/fr/services-aux-citoyens/transport-sts","agencyTimeZoneOffset":-14400000,"routeColor":"C0C000","routeType":3,"routeId":"1:14","routeTextColor":"000000","interlineWithPreviousLeg":false,"tripBlockId":"33","headsign":"Terminus Chicoutimi","agencyId":"0","tripId":"1:218176","serviceDate":"20180402","from":{"name":"Malraux / Pagnol","stopId":"1:441","stopCode":"441","lon":-71.09356,"lat":48.400447,"arrival":1522673065000,"departure":1522673066000,"zoneId":"NA","stopIndex":6,"stopSequence":7,"vertexType":"TRANSIT"},"to":{"name":"Bégin / Ballantyne","stopId":"1:451","stopCode":"451","lon":-71.07501,"lat":48.403916,"arrival":1522673220000,"departure":1522673221000,"zoneId":"NA","stopIndex":15,"stopSequence":16,"vertexType":"TRANSIT"},"legGeometry":{"points":"melfHbm|pLhCtCdDY|F_On@aB`B_GNoBvAyT|@sNuAyAuF}F}AaB_BkAC@qC\\gAWiBwBiKgMiCwEgEyHCG","length":21},"routeShortName":"14","routeLongName":"Coopérative","rentedBike":false,"transitLeg":true,"duration":154.0,"steps":[]},{"startTime":1522673221000,"endTime":1522673875000,"departureDelay":0,"arrivalDelay":0,"realTime":false,"distance":848.2370000000001,"pathway":false,"mode":"WALK","route":"","agencyTimeZoneOffset":-14400000,"interlineWithPreviousLeg":false,"from":{"name":"Bégin / Ballantyne","stopId":"1:451","stopCode":"451","lon":-71.07501,"lat":48.403916,"arrival":1522673220000,"departure":1522673221000,"zoneId":"NA","stopIndex":15,"stopSequence":16,"vertexType":"TRANSIT"},"to":{"name":"Destination","lon":-71.06916,"lat":48.408639,"arrival":1522673875000,"orig":"","vertexType":"NORMAL"},"legGeometry":{"points":"s{lfH`zxpL_AmBIUYs@CqAAw@~@aF?C@cBOmAY{@o@}@q@Ss@Uw@EuDIc@QcEgDcDiCSO]CGAUB","length":23},"rentedBike":false,"transitLeg":false,"duration":654.0,"steps":[{"distance":848.2370000000001,"relativeDirection":"DEPART","streetName":"Rue Bégin","absoluteDirection":"NORTHEAST","stayOn":false,"area":false,"bogusName":false,"lon":-71.07504767716766,"lat":48.40394489025268,"elevation":[]}]}],"tooSloped":false},{"duration":1899,"startTime":1522672200000,"endTime":1522674099000,"walkTime":1899,"transitTime":0,"waitingTime":0,"walkDistance":2451.279187959432,"walkLimitExceeded":false,"elevationLost":0.0,"elevationGained":0.0,"transfers":0,"legs":[{"startTime":1522672200000,"endTime":1522674099000,"departureDelay":0,"arrivalDelay":0,"realTime":false,"distance":2450.9539999999997,"pathway":false,"mode":"WALK","route":"","agencyTimeZoneOffset":-14400000,"interlineWithPreviousLeg":false,"from":{"name":"Origin","lon":-71.09300299,"lat":48.407288,"departure":1522672200000,"orig":"","vertexType":"NORMAL"},"to":{"name":"Destination","lon":-71.06916,"lat":48.408639,"arrival":1522674099000,"orig":"","vertexType":"NORMAL"},"legGeometry":{"points":"eqmfHpk|pLk@u@IOxAuDjAwCNu@VgBBmA]_Dg@wDMgAKoADeAn@UxAeAHUn@iBnA}A|Aw@UkEA_@a@kCw@uD??OcA_@eDWqAw@u@XeA??xEqQVaAVcAFg@??TqCL{A`@qAf@q@T]IUYs@CqAAw@~@aF?C@cBOmAY{@o@}@q@Ss@Uw@EuDIc@QcEgDcDiCSO]CGAUB","length":61},"rentedBike":false,"transitLeg":false,"duration":1899.0,"steps":[{"distance":39.134,"relativeDirection":"DEPART","streetName":"Boulevard Saint-Paul","absoluteDirection":"NORTHEAST","stayOn":false,"area":false,"bogusName":false,"lon":-71.09320025552313,"lat":48.40739890610135,"elevation":[]},{"distance":462.09799999999996,"relativeDirection":"RIGHT","streetName":"Rue Descartes","absoluteDirection":"SOUTHEAST","stayOn":false,"area":false,"bogusName":false,"lon":-71.0928554,"lat":48.4076662,"elevation":[]},{"distance":253.84,"relativeDirection":"RIGHT","streetName":"Rue Victor-Guimond","absoluteDirection":"SOUTH","stayOn":false,"area":false,"bogusName":false,"lon":-71.0871764,"lat":48.4070606,"elevation":[]},{"distance":377.609,"relativeDirection":"LEFT","streetName":"Rue Jolliet","absoluteDirection":"EAST","stayOn":false,"area":false,"bogusName":false,"lon":-71.08532290000001,"lat":48.405216,"elevation":[]},{"distance":523.6,"relativeDirection":"RIGHT","streetName":"Rue Ballantyne","absoluteDirection":"SOUTHEAST","stayOn":false,"area":false,"bogusName":false,"lon":-71.08068800000001,"lat":48.406426800000006,"elevation":[]},{"distance":794.6730000000001,"relativeDirection":"LEFT","streetName":"Rue Bégin","absoluteDirection":"NORTHEAST","stayOn":false,"area":false,"bogusName":false,"lon":-71.07449910000001,"lat":48.4042602,"elevation":[]}]}],"tooSloped":false},{"duration":1676,"startTime":1522673675000,"endTime":1522675351000,"walkTime":892,"transitTime":782,"waitingTime":2,"walkDistance":1147.8778571398611,"walkLimitExceeded":false,"elevationLost":0.0,"elevationGained":0.0,"transfers":0,"legs":[{"startTime":1522673675000,"endTime":1522674519000,"departureDelay":0,"arrivalDelay":0,"realTime":false,"distance":1089.499,"pathway":false,"mode":"WALK","route":"","agencyTimeZoneOffset":-14400000,"interlineWithPreviousLeg":false,"from":{"name":"Origin","lon":-71.09300299,"lat":48.407288,"departure":1522673675000,"orig":"","vertexType":"NORMAL"},"to":{"name":"Malraux / Pagnol","stopId":"1:1978","stopCode":"1978","lon":-71.093388,"lat":48.400416,"arrival":1522674519000,"departure":1522674520000,"zoneId":"NA","stopIndex":29,"stopSequence":30,"vertexType":"TRANSIT"},"legGeometry":{"points":"eqmfHpk|pLRXnA`BlB|B|@dAl@t@~@bAj@n@`@d@h@n@fAjAPTnAxANPrCsHFQx@uBzEwM@?`@kAjFzF","length":21},"rentedBike":false,"transitLeg":false,"duration":844.0,"steps":[{"distance":479.889,"relativeDirection":"DEPART","streetName":"Boulevard Saint-Paul","absoluteDirection":"SOUTHWEST","stayOn":false,"area":false,"bogusName":false,"lon":-71.09320025552313,"lat":48.40739890610135,"elevation":[]},{"distance":449.30899999999997,"relativeDirection":"LEFT","streetName":"Boulevard Barrette","absoluteDirection":"SOUTHEAST","stayOn":false,"area":false,"bogusName":false,"lon":-71.0971116,"lat":48.4039529,"elevation":[]},{"distance":160.301,"relativeDirection":"RIGHT","streetName":"Rue Malraux","absoluteDirection":"SOUTHWEST","stayOn":false,"area":false,"bogusName":false,"lon":-71.0921587,"lat":48.401604500000005,"elevation":[]}]},{"startTime":1522674520000,"endTime":1522674660000,"departureDelay":0,"arrivalDelay":0,"realTime":false,"distance":1970.4615229267838,"pathway":false,"mode":"BUS","route":"14","agencyName":"Société de Transport du Saguenay","agencyUrl":"http://ville.saguenay.ca/fr/services-aux-citoyens/transport-sts","agencyTimeZoneOffset":-14400000,"routeColor":"C0C000","routeType":3,"routeId":"1:14","routeTextColor":"000000","interlineWithPreviousLeg":false,"tripBlockId":"30","headsign":"Talbot / Barrette","agencyId":"0","tripId":"1:218091","serviceDate":"20180402","from":{"name":"Malraux / Pagnol","stopId":"1:1978","stopCode":"1978","lon":-71.093388,"lat":48.400416,"arrival":1522674519000,"departure":1522674520000,"zoneId":"NA","stopIndex":29,"stopSequence":30,"vertexType":"TRANSIT"},"to":{"name":"Roitelets / Sapins","stopId":"1:1543","stopCode":"1543","lon":-71.069553,"lat":48.393375,"arrival":1522674660000,"departure":1522674660000,"zoneId":"NA","stopIndex":35,"stopSequence":36,"vertexType":"TRANSIT"},"legGeometry":{"points":"welfH`m|pLcFsF~CgOtGm[j@oCvEoSl@_CxCmLjAeFpCeKrByHfAqCvH_SLa@","length":14},"routeShortName":"14","routeLongName":"Coopérative","rentedBike":false,"transitLeg":true,"duration":140.0,"steps":[]},{"startTime":1522674660000,"endTime":1522675302000,"departureDelay":0,"arrivalDelay":0,"realTime":false,"distance":4198.369563692371,"pathway":false,"mode":"BUS","route":"15","agencyName":"Société de Transport du Saguenay","agencyUrl":"http://ville.saguenay.ca/fr/services-aux-citoyens/transport-sts","agencyTimeZoneOffset":-14400000,"routeColor":"FF00FF","routeType":3,"routeId":"1:15","routeTextColor":"FFFFFF","interlineWithPreviousLeg":true,"tripBlockId":"30","headsign":"Terminus Chicoutimi","agencyId":"0","tripId":"1:218092","serviceDate":"20180402","from":{"name":"Roitelets / Sapins","stopId":"1:1543","stopCode":"1543","lon":-71.069553,"lat":48.393375,"arrival":1522674660000,"departure":1522674660000,"zoneId":"NA","stopIndex":0,"stopSequence":1,"vertexType":"TRANSIT"},"to":{"name":"Saguenéens / Bégin","stopId":"1:578","stopCode":"578","lon":-71.068617,"lat":48.408312,"arrival":1522675302000,"departure":1522675303000,"zoneId":"NA","stopIndex":17,"stopSequence":18,"vertexType":"TRANSIT"},"legGeometry":{"points":"_zjfHfwwpLx@}BHa@NaADq@@y@Cy@I{@Ka@O[Sg@c@mAWwAMyA?EC]?wABuABmFB{@BmDFuH@i@F[FsC@c@TuGEGVsHPuDLuBXsFDoA?W@]Cu@GcAKu@Q_ASo@a@y@a@o@MOUUeCqBiDsDqE{EiAcAcB_AqBgA_AQaBSaBG_@Bu@FG?h@fNKnDpCfBkAzDgA}@y@q@sDy@GAeGT~@~KKrKyAnL[hBUxAm@nCcAlDeCvGmA|CUr@}@~A_@\\_DvCEZcA|@UP_@d@Yl@oBdFeCxG_CfGYVQX","length":88},"routeShortName":"15","routeLongName":"Term. Chic / Costco","rentedBike":false,"transitLeg":true,"duration":642.0,"steps":[]},{"startTime":1522675303000,"endTime":1522675351000,"departureDelay":0,"arrivalDelay":0,"realTime":false,"distance":58.286,"pathway":false,"mode":"WALK","route":"","agencyTimeZoneOffset":-14400000,"interlineWithPreviousLeg":false,"from":{"name":"Saguenéens / Bégin","stopId":"1:578","stopCode":"578","lon":-71.068617,"lat":48.408312,"arrival":1522675302000,"departure":1522675303000,"zoneId":"NA","stopIndex":17,"stopSequence":18,"vertexType":"TRANSIT"},"to":{"name":"Destination","lon":-71.06916,"lat":48.408639,"arrival":1522675351000,"orig":"","vertexType":"NORMAL"},"legGeometry":{"points":"ivmfHrrwpLKZSO]CGAUB","length":6},"rentedBike":false,"transitLeg":false,"duration":48.0,"steps":[{"distance":12.833,"relativeDirection":"DEPART","streetName":"Rue des Saguenéens","absoluteDirection":"NORTHWEST","stayOn":false,"area":false,"bogusName":false,"lon":-71.06873252329092,"lat":48.408210172495764,"elevation":[]},{"distance":45.453,"relativeDirection":"RIGHT","streetName":"Rue Bégin","absoluteDirection":"NORTHEAST","stayOn":false,"area":false,"bogusName":false,"lon":-71.0688714,"lat":48.4082796,"elevation":[]}]}],"tooSloped":false}]},"debugOutput":{"precalculationTime":28,"pathCalculationTime":22,"pathTimes":[14,4,4],"renderingTime":0,"totalTime":50,"timedOut":false},"elevationMetadata":{"ellipsoidToGeoidDifference":-28.885904201182168,"geoidElevation":false}}