{"requestParameters":{"date":"2018/04/02","walkSpeed":"1.33","walkReluctance":"2.0","fromPlace":"48.406351,-71.05878699","maxWalkDistance":"3000","waitReluctance":"1.0","carSpeed":"33","numItineraries":"3","waitAtBeginningFactor":"0.4","mode":"TRANSIT,WALK","ignoreRealtimeUpdates":"false","stairsReluctance":"2.0","toPlace":"48.408801,-71.069149","time":"16:30:00"},"plan":{"date":1522701000000,"from":{"name":"Origin","lon":-71.05878699,"lat":48.406351,"orig":"","vertexType":"NORMAL"},"to":{"name":"Destination","lon":-71.069149,"lat":48.408801,"orig":"","vertexType":"NORMAL"},"itineraries":[{"duration":785,"startTime":1522701000000,"endTime":1522701785000,"walkTime":785,"transitTime":0,"waitingTime":0,"walkDistance":1013.2936842081486,"walkLimitExceeded":false,"elevationLost":0.0,"elevationGained":0.0,"transfers":0,"legs":[{"startTime":1522701000000,"endTime":1522701785000,"departureDelay":0,"arrivalDelay":0,"realTime":false,"distance":1013.22,"pathway":false,"mode":"WALK","route":"","agencyTimeZoneOffset":-14400000,"interlineWithPreviousLeg":false,"from":{"name":"Origin","lon":-71.05878699,"lat":48.406351,"departure":1522701000000,"orig":"","vertexType":"NORMAL"},"to":{"name":"Destination","lon":-71.069149,"lat":48.408801,"arrival":1522701785000,"orig":"","vertexType":"NORMAL"},"legGeometry":{"points":"glmfHhxupLj@f@v@p@dE|DO`@aClGQd@bBlFcA~@CB?@gAvA{@dCm@|AGNgBxEGNELQ`@??aD`IKZSO]CGAo@HA?","length":27},"rentedBike":false,"transitLeg":false,"duration":785.0,"steps":[{"distance":194.85000000000002,"relativeDirection":"DEPART","streetName":"Rue Bach","absoluteDirection":"SOUTHWEST","stayOn":false,"area":false,"bogusName":false,"lon":-71.05940792180488,"lat":48.40660402994085,"elevation":[]},{"distance":258.422,"relativeDirection":"RIGHT","streetName":"Rue Des Maristes","absoluteDirection":"NORTHWEST","stayOn":false,"area":false,"bogusName":false,"lon":-71.06080990000001,"lat":48.405119500000005,"elevation":[]},{"distance":498.9550000000001,"relativeDirection":"RIGHT","streetName":"Rue des Saguenéens","absoluteDirection":"NORTHWEST","stayOn":false,"area":false,"bogusName":false,"lon":-71.0637066,"lat":48.4054395,"elevation":[]},{"distance":60.992999999999995,"relativeDirection":"RIGHT","streetName":"Rue Bégin","absoluteDirection":"NORTHEAST","stayOn":false,"area":false,"bogusName":false,"lon":-71.0688714,"lat":48.4082796,"elevation":[]}]}],"tooSloped":false},{"duration":495,"startTime":1522701869000,"endTime":1522702364000,"walkTime":376,"transitTime":117,"waitingTime":2,"walkDistance":482.4393909756241,"walkLimitExceeded":false,"elevationLost":0.0,"elevationGained":0.0,"transfers":0,"legs":[{"startTime":1522701869000,"endTime":1522702184000,"departureDelay":0,"arrivalDelay":0,"realTime":false,"distance":408.557,"pathway":false,"mode":"WALK","route":"","agencyTimeZoneOffset":-14400000,"interlineWithPreviousLeg":false,"from":{"name":"Origin","lon":-71.05878699,"lat":48.406351,"departure":1522701869000,"orig":"","vertexType":"NORMAL"},"to":{"name":"Saguenéens  / Bach","stopId":"1:575","stopCode":"575","lon":-71.061104,"lat":48.403689,"arrival":1522702184000,"departure":1522702185000,"zoneId":"NA","stopIndex":12,"stopSequence":13,"vertexType":"TRANSIT"},"legGeometry":{"points":"glmfHhxupLj@f@v@p@dE|D|EtEfAoC","length":6},"rentedBike":false,"transitLeg":false,"duration":315.0,"steps":[{"distance":341.601,"relativeDirection":"DEPART","streetName":"Rue Bach","absoluteDirection":"SOUTHWEST","stayOn":false,"area":false,"bogusName":false,"lon":-71.05940792180488,"lat":48.40660402994085,"elevation":[]},{"distance":66.956,"relativeDirection":"LEFT","streetName":"Rue des Saguenéens","absoluteDirection":"SOUTHEAST","stayOn":false,"area":false,"bogusName":false,"lon":-71.06187870000001,"lat":48.404006700000004,"elevation":[]}]},{"startTime":1522702185000,"endTime":1522702302000,"departureDelay":0,"arrivalDelay":0,"realTime":false,"distance":762.3649440887503,"pathway":false,"mode":"BUS","route":"15","agencyName":"Société de Transport du Saguenay","agencyUrl":"http://ville.saguenay.ca/fr/services-aux-citoyens/transport-sts","agencyTimeZoneOffset":-14400000,"routeColor":"FF00FF","routeType":3,"routeId":"1:15","routeTextColor":"FFFFFF","interlineWithPreviousLeg":false,"tripBlockId":"32","headsign":"Terminus Chicoutimi","agencyId":"0","tripId":"1:218167","serviceDate":"20180402","from":{"name":"Saguenéens  / Bach","stopId":"1:575","stopCode":"575","lon":-71.061104,"lat":48.403689,"arrival":1522702184000,"departure":1522702185000,"zoneId":"NA","stopIndex":12,"stopSequence":13,"vertexType":"TRANSIT"},"to":{"name":"Saguenéens / Bégin","stopId":"1:578","stopCode":"578","lon":-71.068617,"lat":48.408312,"arrival":1522702302000,"departure":1522702303000,"zoneId":"NA","stopIndex":17,"stopSequence":18,"vertexType":"TRANSIT"},"legGeometry":{"points":"sylfHjcvpLmA|CUr@}@~A_@\\_DvCEZcA|@UP_@d@Yl@oBdFeCxG_CfGYVQX","length":16},"routeShortName":"15","routeLongName":"Term. Chic / Costco","rentedBike":false,"transitLeg":true,"duration":117.0,"steps":[]},{"startTime":1522702303000,"endTime":1522702364000,"departureDelay":0,"arrivalDelay":0,"realTime":false,"distance":73.82600000000001,"pathway":false,"mode":"WALK","route":"","agencyTimeZoneOffset":-14400000,"interlineWithPreviousLeg":false,"from":{"name":"Saguenéens / Bégin","stopId":"1:578","stopCode":"578","lon":-71.068617,"lat":48.408312,"arrival":1522702302000,"departure":1522702303000,"zoneId":"NA","stopIndex":17,"stopSequence":18,"vertexType":"TRANSIT"},"to":{"name":"Destination","lon":-71.069149,"lat":48.408801,"arrival":1522702364000,"orig":"","vertexType":"NORMAL"},"legGeometry":{"points":"ivmfHrrwpLKZSO]CGAo@HA?","length":7},"rentedBike":false,"transitLeg":false,"duration":61.0,"steps":[{"distance":12.833,"relativeDirection":"DEPART","streetName":"Rue des Saguenéens","absoluteDirection":"NORTHWEST","stayOn":false,"area":false,"bogusName":false,"lon":-71.06873252329092,"lat":48.408210172495764,"elevation":[]},{"distance":60.992999999999995,"relativeDirection":"RIGHT","streetName":"Rue Bégin","absoluteDirection":"NORTHEAST","stayOn":false,"area":false,"bogusName":false,"lon":-71.0688714,"lat":48.4082796,"elevation":[]}]}],"tooSloped":false},{"duration":495,"startTime":1522703669000,"endTime":1522704164000,"walkTime":376,"transitTime":117,"waitingTime":2,"walkDistance":482.4393909756241,"walkLimitExceeded":false,"elevationLost":0.0,"elevationGained":0.0,"transfers":0,"legs":[{"startTime":1522703669000,"endTime":1522703984000,"departureDelay":0,"arrivalDelay":0,"realTime":false,"distance":408.557,"pathway":false,"mode":"WALK","route":"","agencyTimeZoneOffset":-14400000,"interlineWithPreviousLeg":false,"from":{"name":"Origin","lon":-71.05878699,"lat":48.406351,"departure":1522703669000,"orig":"","vertexType":"NORMAL"},"to":{"name":"Saguenéens  / Bach","stopId":"1:575","stopCode":"575","lon":-71.061104,"lat":48.403689,"arrival":1522703984000,"departure":1522703985000,"zoneId":"NA","stopIndex":12,"stopSequence":13,"vertexType":"TRANSIT"},"legGeometry":{"points":"glmfHhxupLj@f@v@p@dE|D|EtEfAoC","length":6},"rentedBike":false,"transitLeg":false,"duration":315.0,"steps":[{"distance":341.601,"relativeDirection":"DEPART","streetName":"Rue Bach","absoluteDirection":"SOUTHWEST","stayOn":false,"area":false,"bogusName":false,"lon":-71.05940792180488,"lat":48.40660402994085,"elevation":[]},{"distance":66.956,"relativeDirection":"LEFT","streetName":"Rue des Saguenéens","absoluteDirection":"SOUTHEAST","stayOn":false,"area":false,"bogusName":false,"lon":-71.06187870000001,"lat":48.404006700000004,"elevation":[]}]},{"startTime":1522703985000,"endTime":1522704102000,"departureDelay":0,"arrivalDelay":0,"realTime":false,"distance":762.3649440887503,"pathway":false,"mode":"BUS","route":"15","agencyName":"Société de Transport du Saguenay","agencyUrl":"http://ville.saguenay.ca/fr/services-aux-citoyens/transport-sts","agencyTimeZoneOffset":-14400000,"routeColor":"FF00FF","routeType":3,"routeId":"1:15","routeTextColor":"FFFFFF","interlineWithPreviousLeg":false,"tripBlockId":"30","headsign":"Terminus Chicoutimi","agencyId":"0","tripId":"1:218108","serviceDate":"20180402","from":{"name":"Saguenéens  / Bach","stopId":"1:575","stopCode":"575","lon":-71.061104,"lat":48.403689,"arrival":1522703984000,"departure":1522703985000,"zoneId":"NA","stopIndex":12,"stopSequence":13,"vertexType":"TRANSIT"},"to":{"name":"Saguenéens / Bégin","stopId":"1:578","stopCode":"578","lon":-71.068617,"lat":48.408312,"arrival":1522704102000,"departure":1522704103000,"zoneId":"NA","stopIndex":17,"stopSequence":18,"vertexType":"TRANSIT"},"legGeometry":{"points":"sylfHjcvpLmA|CUr@}@~A_@\\_DvCEZcA|@UP_@d@Yl@oBdFeCxG_CfGYVQX","length":16},"routeShortName":"15","routeLongName":"Term. Chic / Costco","rentedBike":false,"transitLeg":true,"duration":117.0,"steps":[]},{"startTime":1522704103000,"endTime":1522704164000,"departureDelay":0,"arrivalDelay":0,"realTime":false,"distance":73.82600000000001,"pathway":false,"mode":"WALK","route":"","agencyTimeZoneOffset":-14400000,"interlineWithPreviousLeg":false,"from":{"name":"Saguenéens / Bégin","stopId":"1:578","stopCode":"578","lon":-71.068617,"lat":48.408312,"arrival":1522704102000,"departure":1522704103000,"zoneId":"NA","stopIndex":17,"stopSequence":18,"vertexType":"TRANSIT"},"to":{"name":"Destination","lon":-71.069149,"lat":48.408801,"arrival":1522704164000,"orig":"","vertexType":"NORMAL"},"legGeometry":{"points":"ivmfHrrwpLKZSO]CGAo@HA?","length":7},"rentedBike":false,"transitLeg":false,"duration":61.0,"steps":[{"distance":12.833,"relativeDirection":"DEPART","streetName":"Rue des Saguenéens","absoluteDirection":"NORTHWEST","stayOn":false,"area":false,"bogusName":false,"lon":-71.06873252329092,"lat":48.408210172495764,"elevation":[]},{"distance":60.992999999999995,"relativeDirection":"RIGHT","streetName":"Rue Bégin","absoluteDirection":"NORTHEAST","stayOn":false,"area":false,"bogusName":false,"lon":-71.0688714,"lat":48.4082796,"elevation":[]}]}],"tooSloped":false}]},"debugOutput":{"precalculationTime":43,"pathCalculationTime":26,"pathTimes":[14,5,7],"renderingTime":0,"totalTime":69,"timedOut":false},"elevationMetadata":{"ellipsoidToGeoidDifference":-28.885904201182168,"geoidElevation":false}}