{"requestParameters":{"date":"2018/04/02","walkSpeed":"1.33","walkReluctance":"2.0","fromPlace":"48.404131,-71.071244","maxWalkDistance":"3000","waitReluctance":"1.0","carSpeed":"33","numItineraries":"3","waitAtBeginningFactor":"0.4","mode":"TRANSIT,WALK","ignoreRealtimeUpdates":"false","stairsReluctance":"2.0","toPlace":"48.428097,-71.06920999","time":"9:30:00"},"plan":{"date":1522675800000,"from":{"name":"Origin","lon":-71.071244,"lat":48.404131,"orig":"","vertexType":"NORMAL"},"to":{"name":"Destination","lon":-71.06920999,"lat":48.428097,"orig":"","vertexType":"NORMAL"},"itineraries":[{"duration":1116,"startTime":1522677013000,"endTime":1522678129000,"walkTime":315,"transitTime":799,"waitingTime":2,"walkDistance":397.44067668783543,"walkLimitExceeded":false,"elevationLost":0.0,"elevationGained":0.0,"transfers":0,"legs":[{"startTime":1522677013000,"endTime":1522677220000,"departureDelay":0,"arrivalDelay":0,"realTime":false,"distance":260.272,"pathway":false,"mode":"WALK","route":"","agencyTimeZoneOffset":-14400000,"interlineWithPreviousLeg":false,"from":{"name":"Origin","lon":-71.071244,"lat":48.404131,"departure":1522677013000,"orig":"","vertexType":"NORMAL"},"to":{"name":"Angoulême / Bégin","stopId":"1:53","stopCode":"53","lon":-71.073604,"lat":48.405143,"arrival":1522677220000,"departure":1522677221000,"zoneId":"NA","stopIndex":18,"stopSequence":19,"vertexType":"TRANSIT"},"legGeometry":{"points":"m}lfH~bxpL@FNlAAbB?B_A`F@v@yBB@W","length":9},"rentedBike":false,"transitLeg":false,"duration":207.0,"steps":[{"distance":183.418,"relativeDirection":"DEPART","streetName":"Rue Bégin","absoluteDirection":"WEST","stayOn":false,"area":false,"bogusName":false,"lon":-71.07135648437354,"lat":48.40423666315351,"elevation":[]},{"distance":67.789,"relativeDirection":"RIGHT","streetName":"Rue d'Angoulème","absoluteDirection":"NORTH","stayOn":false,"area":false,"bogusName":false,"lon":-71.0737143,"lat":48.404464100000006,"elevation":[]},{"distance":9.065,"relativeDirection":"RIGHT","streetName":"Rue R. E. Joron","absoluteDirection":"EAST","stayOn":false,"area":false,"bogusName":false,"lon":-71.073734,"lat":48.4050736,"elevation":[]}]},{"startTime":1522677221000,"endTime":1522678020000,"departureDelay":0,"arrivalDelay":0,"realTime":false,"distance":4242.084087966875,"pathway":false,"mode":"BUS","route":"15","agencyName":"Société de Transport du Saguenay","agencyUrl":"http://ville.saguenay.ca/fr/services-aux-citoyens/transport-sts","agencyTimeZoneOffset":-14400000,"routeColor":"FF00FF","routeType":3,"routeId":"1:15","routeTextColor":"FFFFFF","interlineWithPreviousLeg":false,"tripBlockId":"32","headsign":"Terminus Chicoutimi","agencyId":"0","tripId":"1:218153","serviceDate":"20180402","from":{"name":"Angoulême / Bégin","stopId":"1:53","stopCode":"53","lon":-71.073604,"lat":48.405143,"arrival":1522677220000,"departure":1522677221000,"zoneId":"NA","stopIndex":18,"stopSequence":19,"vertexType":"TRANSIT"},"to":{"name":"Sainte-Anne / Racine","stopId":"1:558","stopCode":"558","lon":-71.068444,"lat":48.427369,"arrival":1522678020000,"departure":1522678021000,"zoneId":"NA","stopIndex":38,"stopSequence":39,"vertexType":"TRANSIT"},"legGeometry":{"points":"acmfH`rxpLw@FiG}@iDwAECcCcBo@y@sEeGe@o@qAa@m@MoB?C@}BZwAc@oA_Bs@gDCKZ{Di@QECc@_@sAkAoBwB_EcE{A_BoAmAk@o@cCaCkIkIaJaJUUwBaCj@wCjAsCzGoG_CoHL{D_@kAqD{CQr@iAcAy@w@L{@wAuA_B_B_EpLDh@NbBVvCIxBg@`Am@l@Sb@a@rAqDqDmEkE]a@kAqAU|@WnKG|DGxDOdPKvJU|F?XQlJC~@ChAIzEcCO","length":72},"routeShortName":"15","routeLongName":"Term. Chic / Costco","rentedBike":false,"transitLeg":true,"duration":799.0,"steps":[]},{"startTime":1522678021000,"endTime":1522678129000,"departureDelay":0,"arrivalDelay":0,"realTime":false,"distance":137.048,"pathway":false,"mode":"WALK","route":"","agencyTimeZoneOffset":-14400000,"interlineWithPreviousLeg":false,"from":{"name":"Sainte-Anne / Racine","stopId":"1:558","stopCode":"558","lon":-71.068444,"lat":48.427369,"arrival":1522678020000,"departure":1522678021000,"zoneId":"NA","stopIndex":38,"stopSequence":39,"vertexType":"TRANSIT"},"to":{"name":"Destination","lon":-71.06920999,"lat":48.428097,"arrival":1522678129000,"orig":"","vertexType":"NORMAL"},"legGeometry":{"points":"anqfHhqwpLGAg@C}AKErA?ZCh@","length":7},"rentedBike":false,"transitLeg":false,"duration":108.0,"steps":[{"distance":79.616,"relativeDirection":"DEPART","streetName":"Rue Sainte-Anne","absoluteDirection":"NORTH","stayOn":false,"area":false,"bogusName":false,"lon":-71.06852127104082,"lat":48.427371387668245,"elevation":[]},{"distance":57.432,"relativeDirection":"LEFT","streetName":"Rue Racine Ouest","absoluteDirection":"WEST","stayOn":false,"area":false,"bogusName":false,"lon":-71.06843,"lat":48.42808470000001,"elevation":[]}]}],"tooSloped":false},{"duration":1764,"startTime":1522676583000,"endTime":1522678347000,"walkTime":502,"transitTime":1260,"waitingTime":2,"walkDistance":644.002842102461,"walkLimitExceeded":false,"elevationLost":0.0,"elevationGained":0.0,"transfers":0,"legs":[{"startTime":1522676583000,"endTime":1522676819000,"departureDelay":0,"arrivalDelay":0,"realTime":false,"distance":301.602,"pathway":false,"mode":"WALK","route":"","agencyTimeZoneOffset":-14400000,"interlineWithPreviousLeg":false,"from":{"name":"Origin","lon":-71.071244,"lat":48.404131,"departure":1522676583000,"orig":"","vertexType":"NORMAL"},"to":{"name":"Bégin / Ballantyne","stopId":"1:451","stopCode":"451","lon":-71.07501,"lat":48.403916,"arrival":1522676819000,"departure":1522676820000,"zoneId":"NA","stopIndex":15,"stopSequence":16,"vertexType":"TRANSIT"},"legGeometry":{"points":"m}lfH~bxpL@FNlAAbB?B_A`F@v@BpAXr@HT~@lB","length":11},"rentedBike":false,"transitLeg":false,"duration":236.0,"steps":[{"distance":301.602,"relativeDirection":"DEPART","streetName":"Rue Bégin","absoluteDirection":"WEST","stayOn":false,"area":false,"bogusName":false,"lon":-71.07135648437354,"lat":48.40423666315351,"elevation":[]}]},{"startTime":1522676820000,"endTime":1522678080000,"departureDelay":0,"arrivalDelay":0,"realTime":false,"distance":5551.547225735559,"pathway":false,"mode":"BUS","route":"14","agencyName":"Société de Transport du Saguenay","agencyUrl":"http://ville.saguenay.ca/fr/services-aux-citoyens/transport-sts","agencyTimeZoneOffset":-14400000,"routeColor":"C0C000","routeType":3,"routeId":"1:14","routeTextColor":"000000","interlineWithPreviousLeg":false,"tripBlockId":"33","headsign":"Terminus Chicoutimi","agencyId":"0","tripId":"1:218178","serviceDate":"20180402","from":{"name":"Bégin / Ballantyne","stopId":"1:451","stopCode":"451","lon":-71.07501,"lat":48.403916,"arrival":1522676819000,"departure":1522676820000,"zoneId":"NA","stopIndex":15,"stopSequence":16,"vertexType":"TRANSIT"},"to":{"name":"Terminus Chicoutimi","stopId":"1:1289","stopCode":"1289","lon":-71.066163,"lat":48.428677,"arrival":1522678080000,"departure":1522678081000,"zoneId":"NA","stopIndex":37,"stopSequence":38,"vertexType":"TRANSIT"},"legGeometry":{"points":"y{lfHfzxpLy@uB}@rAa@nAc@lFEf@mGvUYfAqCs@ICMCqFmDc@s@mAkBuEoESUgAhDiAfD}@zDyAcA_@Um@U{AWgB_Au@s@EEsBkCqFgF{IiI][aBhE}@}@oBmBwE{EwE{Ej@mBZeAa@SyEQg@CPcALuCx@{b@t@{[XoDd@sBl@iB~@gA`G{F{A{D_@sBFqDOq@iG{FGIoCkCgBgBsDpLHzBBT`@~COnBQf@gAjAg@bBuDmDmFgFa@_@w@s@CfAOrBEtAGbA?jBQtC?|@ExKMdIG~EUnLEhC}CKkBOkCOYbC","length":85},"routeShortName":"14","routeLongName":"Coopérative","rentedBike":false,"transitLeg":true,"duration":1260.0,"steps":[]},{"startTime":1522678081000,"endTime":1522678347000,"departureDelay":0,"arrivalDelay":0,"realTime":false,"distance":342.314,"pathway":false,"mode":"WALK","route":"","agencyTimeZoneOffset":-14400000,"interlineWithPreviousLeg":false,"from":{"name":"Terminus Chicoutimi","stopId":"1:1289","stopCode":"1289","lon":-71.066163,"lat":48.428677,"arrival":1522678080000,"departure":1522678081000,"zoneId":"NA","stopIndex":37,"stopSequence":38,"vertexType":"TRANSIT"},"to":{"name":"Destination","lon":-71.06920999,"lat":48.428097,"arrival":1522678347000,"orig":"","vertexType":"NORMAL"},"legGeometry":{"points":"{uqfHb~vpLbAJR@JDb@LQtGAv@Aj@EvDErA?ZCh@","length":12},"rentedBike":false,"transitLeg":false,"duration":266.0,"steps":[{"distance":77.207,"relativeDirection":"DEPART","streetName":"Rue Morin","absoluteDirection":"SOUTH","stayOn":false,"area":false,"bogusName":false,"lon":-71.0654590096484,"lat":48.428628638946556,"elevation":[]},{"distance":207.675,"relativeDirection":"RIGHT","streetName":"Rue Racine Est","absoluteDirection":"WEST","stayOn":false,"area":false,"bogusName":false,"lon":-71.0656238,"lat":48.4279449,"elevation":[]},{"distance":57.432,"relativeDirection":"CONTINUE","streetName":"Rue Racine Ouest","absoluteDirection":"WEST","stayOn":false,"area":false,"bogusName":false,"lon":-71.06843,"lat":48.42808470000001,"elevation":[]}]}],"tooSloped":false},{"duration":1116,"startTime":1522678813000,"endTime":1522679929000,"walkTime":315,"transitTime":799,"waitingTime":2,"walkDistance":397.44067668783543,"walkLimitExceeded":false,"elevationLost":0.0,"elevationGained":0.0,"transfers":0,"legs":[{"startTime":1522678813000,"endTime":1522679020000,"departureDelay":0,"arrivalDelay":0,"realTime":false,"distance":260.272,"pathway":false,"mode":"WALK","route":"","agencyTimeZoneOffset":-14400000,"interlineWithPreviousLeg":false,"from":{"name":"Origin","lon":-71.071244,"lat":48.404131,"departure":1522678813000,"orig":"","vertexType":"NORMAL"},"to":{"name":"Angoulême / Bégin","stopId":"1:53","stopCode":"53","lon":-71.073604,"lat":48.405143,"arrival":1522679020000,"departure":1522679021000,"zoneId":"NA","stopIndex":18,"stopSequence":19,"vertexType":"TRANSIT"},"legGeometry":{"points":"m}lfH~bxpL@FNlAAbB?B_A`F@v@yBB@W","length":9},"rentedBike":false,"transitLeg":false,"duration":207.0,"steps":[{"distance":183.418,"relativeDirection":"DEPART","streetName":"Rue Bégin","absoluteDirection":"WEST","stayOn":false,"area":false,"bogusName":false,"lon":-71.07135648437354,"lat":48.40423666315351,"elevation":[]},{"distance":67.789,"relativeDirection":"RIGHT","streetName":"Rue d'Angoulème","absoluteDirection":"NORTH","stayOn":false,"area":false,"bogusName":false,"lon":-71.0737143,"lat":48.404464100000006,"elevation":[]},{"distance":9.065,"relativeDirection":"RIGHT","streetName":"Rue R. E. Joron","absoluteDirection":"EAST","stayOn":false,"area":false,"bogusName":false,"lon":-71.073734,"lat":48.4050736,"elevation":[]}]},{"startTime":1522679021000,"endTime":1522679820000,"departureDelay":0,"arrivalDelay":0,"realTime":false,"distance":4242.084087966875,"pathway":false,"mode":"BUS","route":"15","agencyName":"Société de Transport du Saguenay","agencyUrl":"http://ville.saguenay.ca/fr/services-aux-citoyens/transport-sts","agencyTimeZoneOffset":-14400000,"routeColor":"FF00FF","routeType":3,"routeId":"1:15","routeTextColor":"FFFFFF","interlineWithPreviousLeg":false,"tripBlockId":"30","headsign":"Terminus Chicoutimi","agencyId":"0","tripId":"1:218094","serviceDate":"20180402","from":{"name":"Angoulême / Bégin","stopId":"1:53","stopCode":"53","lon":-71.073604,"lat":48.405143,"arrival":1522679020000,"departure":1522679021000,"zoneId":"NA","stopIndex":18,"stopSequence":19,"vertexType":"TRANSIT"},"to":{"name":"Sainte-Anne / Racine","stopId":"1:558","stopCode":"558","lon":-71.068444,"lat":48.427369,"arrival":1522679820000,"departure":1522679821000,"zoneId":"NA","stopIndex":38,"stopSequence":39,"vertexType":"TRANSIT"},"legGeometry":{"points":"acmfH`rxpLw@FiG}@iDwAECcCcBo@y@sEeGe@o@qAa@m@MoB?C@}BZwAc@oA_Bs@gDCKZ{Di@QECc@_@sAkAoBwB_EcE{A_BoAmAk@o@cCaCkIkIaJaJUUwBaCj@wCjAsCzGoG_CoHL{D_@kAqD{CQr@iAcAy@w@L{@wAuA_B_B_EpLDh@NbBVvCIxBg@`Am@l@Sb@a@rAqDqDmEkE]a@kAqAU|@WnKG|DGxDOdPKvJU|F?XQlJC~@ChAIzEcCO","length":72},"routeShortName":"15","routeLongName":"Term. Chic / Costco","rentedBike":false,"transitLeg":true,"duration":799.0,"steps":[]},{"startTime":1522679821000,"endTime":1522679929000,"departureDelay":0,"arrivalDelay":0,"realTime":false,"distance":137.048,"pathway":false,"mode":"WALK","route":"","agencyTimeZoneOffset":-14400000,"interlineWithPreviousLeg":false,"from":{"name":"Sainte-Anne / Racine","stopId":"1:558","stopCode":"558","lon":-71.068444,"lat":48.427369,"arrival":1522679820000,"departure":1522679821000,"zoneId":"NA","stopIndex":38,"stopSequence":39,"vertexType":"TRANSIT"},"to":{"name":"Destination","lon":-71.06920999,"lat":48.428097,"arrival":1522679929000,"orig":"","vertexType":"NORMAL"},"legGeometry":{"points":"anqfHhqwpLGAg@C}AKErA?ZCh@","length":7},"rentedBike":false,"transitLeg":false,"duration":108.0,"steps":[{"distance":79.616,"relativeDirection":"DEPART","streetName":"Rue Sainte-Anne","absoluteDirection":"NORTH","stayOn":false,"area":false,"bogusName":false,"lon":-71.06852127104082,"lat":48.427371387668245,"elevation":[]},{"distance":57.432,"relativeDirection":"LEFT","streetName":"Rue Racine Ouest","absoluteDirection":"WEST","stayOn":false,"area":false,"bogusName":false,"lon":-71.06843,"lat":48.42808470000001,"elevation":[]}]}],"tooSloped":false}]},"debugOutput":{"precalculationTime":38,"pathCalculationTime":32,"pathTimes":[17,7,8],"renderingTime":0,"totalTime":70,"timedOut":false},"elevationMetadata":{"ellipsoidToGeoidDifference":-28.885904201182168,"geoidElevation":false}}