{"requestParameters":{"date":"2018/04/02","walkSpeed":"1.33","walkReluctance":"2.0","fromPlace":"48.405598,-71.06785899","maxWalkDistance":"3000","waitReluctance":"1.0","carSpeed":"33","numItineraries":"3","waitAtBeginningFactor":"0.4","mode":"TRANSIT,WALK","ignoreRealtimeUpdates":"false","stairsReluctance":"2.0","toPlace":"48.405328,-71.063896","time":"7:16:00"},"plan":{"date":1522667760000,"from":{"name":"Origin","lon":-71.06785899,"lat":48.405598,"orig":"","vertexType":"NORMAL"},"to":{"name":"Destination","lon":-71.063896,"lat":48.405328,"orig":"","vertexType":"NORMAL"},"itineraries":[{"duration":419,"startTime":1522667760000,"endTime":1522668179000,"walkTime":419,"transitTime":0,"waitingTime":0,"walkDistance":537.3813157870112,"walkLimitExceeded":false,"elevationLost":0.0,"elevationGained":0.0,"transfers":0,"legs":[{"startTime":1522667760000,"endTime":1522668179000,"departureDelay":0,"arrivalDelay":0,"realTime":false,"distance":537.3050000000001,"pathway":false,"mode":"WALK","route":"","agencyTimeZoneOffset":-14400000,"interlineWithPreviousLeg":false,"from":{"name":"Origin","lon":-71.06785899,"lat":48.405598,"departure":1522667760000,"orig":"","vertexType":"NORMAL"},"to":{"name":"Destination","lon":-71.063896,"lat":48.405328,"arrival":1522668179000,"orig":"","vertexType":"NORMAL"},"legGeometry":{"points":"qfmfHhowpLiEcCsBcCFOfByEFOl@}Az@eCfAwA?ABCbA_APh@","length":13},"rentedBike":false,"transitLeg":false,"duration":419.0,"steps":[{"distance":122.077,"relativeDirection":"DEPART","streetName":"Rue Jean Bourdon","absoluteDirection":"NORTHEAST","stayOn":false,"area":false,"bogusName":false,"lon":-71.06820773554738,"lat":48.405699646218096,"elevation":[]},{"distance":80.88,"relativeDirection":"CONTINUE","streetName":"path","absoluteDirection":"NORTHEAST","stayOn":false,"area":false,"bogusName":true,"lon":-71.0675429,"lat":48.4067049,"elevation":[]},{"distance":315.782,"relativeDirection":"RIGHT","streetName":"Rue des Saguenéens","absoluteDirection":"SOUTHEAST","stayOn":false,"area":false,"bogusName":false,"lon":-71.0668891,"lat":48.4072886,"elevation":[]},{"distance":18.566,"relativeDirection":"RIGHT","streetName":"Rue Des Maristes","absoluteDirection":"SOUTHWEST","stayOn":false,"area":false,"bogusName":false,"lon":-71.0637066,"lat":48.4054395,"elevation":[]}]}],"tooSloped":false},{"duration":290,"startTime":1522668657000,"endTime":1522668947000,"walkTime":228,"transitTime":60,"waitingTime":2,"walkDistance":287.84442856912375,"walkLimitExceeded":false,"elevationLost":0.0,"elevationGained":0.0,"transfers":0,"legs":[{"startTime":1522668657000,"endTime":1522668833000,"departureDelay":0,"arrivalDelay":0,"realTime":false,"distance":224.93499999999997,"pathway":false,"mode":"WALK","route":"","agencyTimeZoneOffset":-14400000,"interlineWithPreviousLeg":false,"from":{"name":"Origin","lon":-71.06785899,"lat":48.405598,"departure":1522668657000,"orig":"","vertexType":"NORMAL"},"to":{"name":"Saguenéens (no. 129)","stopId":"1:2000","stopCode":"2000","lon":-71.067064,"lat":48.407463,"arrival":1522668833000,"departure":1522668834000,"zoneId":"NA","stopIndex":19,"stopSequence":20,"vertexType":"TRANSIT"},"legGeometry":{"points":"qfmfHhowpLiEcCsBcCELQ`@","length":5},"rentedBike":false,"transitLeg":false,"duration":176.0,"steps":[{"distance":122.077,"relativeDirection":"DEPART","streetName":"Rue Jean Bourdon","absoluteDirection":"NORTHEAST","stayOn":false,"area":false,"bogusName":false,"lon":-71.06820773554738,"lat":48.405699646218096,"elevation":[]},{"distance":80.88,"relativeDirection":"CONTINUE","streetName":"path","absoluteDirection":"NORTHEAST","stayOn":false,"area":false,"bogusName":true,"lon":-71.0675429,"lat":48.4067049,"elevation":[]},{"distance":21.978,"relativeDirection":"LEFT","streetName":"Rue des Saguenéens","absoluteDirection":"NORTHWEST","stayOn":false,"area":false,"bogusName":false,"lon":-71.0668891,"lat":48.4072886,"elevation":[]}]},{"startTime":1522668834000,"endTime":1522668894000,"departureDelay":0,"arrivalDelay":0,"realTime":false,"distance":295.1419430322338,"pathway":false,"mode":"BUS","route":"15","agencyName":"Société de Transport du Saguenay","agencyUrl":"http://ville.saguenay.ca/fr/services-aux-citoyens/transport-sts","agencyTimeZoneOffset":-14400000,"routeColor":"FF00FF","routeType":3,"routeId":"1:15","routeTextColor":"FFFFFF","interlineWithPreviousLeg":false,"tripBlockId":"33","headsign":"Talbot / Barrette","agencyId":"0","tripId":"1:218173","serviceDate":"20180402","from":{"name":"Saguenéens (no. 129)","stopId":"1:2000","stopCode":"2000","lon":-71.067064,"lat":48.407463,"arrival":1522668833000,"departure":1522668834000,"zoneId":"NA","stopIndex":19,"stopSequence":20,"vertexType":"TRANSIT"},"to":{"name":"Saguenéens / Maristes","stopId":"1:1999","stopCode":"1999","lon":-71.06394,"lat":48.405813,"arrival":1522668894000,"departure":1522668895000,"zoneId":"NA","stopIndex":21,"stopSequence":22,"vertexType":"TRANSIT"},"legGeometry":{"points":"{pmfHbiwpLvCaGfEoI","length":3},"routeShortName":"15","routeLongName":"Term. Chic / Costco","rentedBike":false,"transitLeg":true,"duration":60.0,"steps":[]},{"startTime":1522668895000,"endTime":1522668947000,"departureDelay":0,"arrivalDelay":0,"realTime":false,"distance":62.837999999999994,"pathway":false,"mode":"WALK","route":"","agencyTimeZoneOffset":-14400000,"interlineWithPreviousLeg":false,"from":{"name":"Saguenéens / Maristes","stopId":"1:1999","stopCode":"1999","lon":-71.06394,"lat":48.405813,"arrival":1522668894000,"departure":1522668895000,"zoneId":"NA","stopIndex":21,"stopSequence":22,"vertexType":"TRANSIT"},"to":{"name":"Destination","lon":-71.063896,"lat":48.405328,"arrival":1522668947000,"orig":"","vertexType":"NORMAL"},"legGeometry":{"points":"agmfHduvpLbA_APh@","length":3},"rentedBike":false,"transitLeg":false,"duration":52.0,"steps":[{"distance":44.272,"relativeDirection":"DEPART","streetName":"Rue des Saguenéens","absoluteDirection":"SOUTHEAST","stayOn":false,"area":false,"bogusName":false,"lon":-71.06402958721657,"lat":48.40577499056331,"elevation":[]},{"distance":18.566,"relativeDirection":"RIGHT","streetName":"Rue Des Maristes","absoluteDirection":"SOUTHWEST","stayOn":false,"area":false,"bogusName":false,"lon":-71.0637066,"lat":48.4054395,"elevation":[]}]}],"tooSloped":false}]},"debugOutput":{"precalculationTime":45,"pathCalculationTime":14,"pathTimes":[2,8,4],"renderingTime":0,"totalTime":59,"timedOut":false},"elevationMetadata":{"ellipsoidToGeoidDifference":-28.885904201182168,"geoidElevation":false}}