{"requestParameters":{"date":"2018/04/02","walkSpeed":"1.33","walkReluctance":"2.0","fromPlace":"48.405598,-71.06785899","maxWalkDistance":"3000","waitReluctance":"1.0","carSpeed":"33","numItineraries":"3","waitAtBeginningFactor":"0.4","mode":"TRANSIT,WALK","ignoreRealtimeUpdates":"false","stairsReluctance":"2.0","toPlace":"48.407671,-71.072041","time":"15:0:00"},"plan":{"date":1522695600000,"from":{"name":"Origin","lon":-71.06785899,"lat":48.405598,"orig":"","vertexType":"NORMAL"},"to":{"name":"Destination","lon":-71.072041,"lat":48.407671,"orig":"","vertexType":"NORMAL"},"itineraries":[{"duration":767,"startTime":1522695600000,"endTime":1522696367000,"walkTime":767,"transitTime":0,"waitingTime":0,"walkDistance":980.182699242322,"walkLimitExceeded":false,"elevationLost":0.0,"elevationGained":0.0,"transfers":0,"legs":[{"startTime":1522695600000,"endTime":1522696367000,"departureDelay":0,"arrivalDelay":0,"realTime":false,"distance":980.0029999999999,"pathway":false,"mode":"WALK","route":"","agencyTimeZoneOffset":-14400000,"interlineWithPreviousLeg":false,"from":{"name":"Origin","lon":-71.06785899,"lat":48.405598,"departure":1522695600000,"orig":"","vertexType":"NORMAL"},"to":{"name":"Destination","lon":-71.072041,"lat":48.407671,"arrival":1522696367000,"orig":"","vertexType":"NORMAL"},"legGeometry":{"points":"qfmfHhowpLbDlBcAlCABMXAXO~Cv@Dr@Tp@Rn@|@Xz@NlAAbB?B_A`F@v@yBBQ@s@Hk@G_BWkB[_Bm@qAg@GCCAu@a@OK","length":29},"rentedBike":false,"transitLeg":false,"duration":767.0,"steps":[{"distance":99.938,"relativeDirection":"DEPART","streetName":"Rue Jean Bourdon","absoluteDirection":"SOUTHWEST","stayOn":false,"area":false,"bogusName":false,"lon":-71.06820773554738,"lat":48.405699646218096,"elevation":[]},{"distance":148.098,"relativeDirection":"RIGHT","streetName":"Rue Des Jésuites","absoluteDirection":"NORTHWEST","stayOn":false,"area":false,"bogusName":false,"lon":-71.068752,"lat":48.4048767,"elevation":[]},{"distance":331.917,"relativeDirection":"LEFT","streetName":"Rue Bégin","absoluteDirection":"SOUTH","stayOn":false,"area":false,"bogusName":false,"lon":-71.07054690000001,"lat":48.4053844,"elevation":[]},{"distance":400.05000000000007,"relativeDirection":"RIGHT","streetName":"Rue d'Angoulème","absoluteDirection":"NORTH","stayOn":false,"area":false,"bogusName":false,"lon":-71.0737143,"lat":48.404464100000006,"elevation":[]}]}],"tooSloped":false},{"duration":396,"startTime":1522696702000,"endTime":1522697098000,"walkTime":210,"transitTime":184,"waitingTime":2,"walkDistance":269.4520977430993,"walkLimitExceeded":false,"elevationLost":0.0,"elevationGained":0.0,"transfers":0,"legs":[{"startTime":1522696702000,"endTime":1522696878000,"departureDelay":0,"arrivalDelay":0,"realTime":false,"distance":224.93499999999997,"pathway":false,"mode":"WALK","route":"","agencyTimeZoneOffset":-14400000,"interlineWithPreviousLeg":false,"from":{"name":"Origin","lon":-71.06785899,"lat":48.405598,"departure":1522696702000,"orig":"","vertexType":"NORMAL"},"to":{"name":"Saguenéens (no. 129)","stopId":"1:2000","stopCode":"2000","lon":-71.067064,"lat":48.407463,"arrival":1522696878000,"departure":1522696879000,"zoneId":"NA","stopIndex":16,"stopSequence":17,"vertexType":"TRANSIT"},"legGeometry":{"points":"qfmfHhowpLiEcCsBcCELQ`@","length":5},"rentedBike":false,"transitLeg":false,"duration":176.0,"steps":[{"distance":122.077,"relativeDirection":"DEPART","streetName":"Rue Jean Bourdon","absoluteDirection":"NORTHEAST","stayOn":false,"area":false,"bogusName":false,"lon":-71.06820773554738,"lat":48.405699646218096,"elevation":[]},{"distance":80.88,"relativeDirection":"CONTINUE","streetName":"path","absoluteDirection":"NORTHEAST","stayOn":false,"area":false,"bogusName":true,"lon":-71.0675429,"lat":48.4067049,"elevation":[]},{"distance":21.978,"relativeDirection":"LEFT","streetName":"Rue des Saguenéens","absoluteDirection":"NORTHWEST","stayOn":false,"area":false,"bogusName":false,"lon":-71.0668891,"lat":48.4072886,"elevation":[]}]},{"startTime":1522696879000,"endTime":1522697063000,"departureDelay":0,"arrivalDelay":0,"realTime":false,"distance":932.6005422163607,"pathway":false,"mode":"BUS","route":"15","agencyName":"Société de Transport du Saguenay","agencyUrl":"http://ville.saguenay.ca/fr/services-aux-citoyens/transport-sts","agencyTimeZoneOffset":-14400000,"routeColor":"FF00FF","routeType":3,"routeId":"1:15","routeTextColor":"FFFFFF","interlineWithPreviousLeg":false,"tripBlockId":"30","headsign":"Terminus Chicoutimi","agencyId":"0","tripId":"1:218104","serviceDate":"20180402","from":{"name":"Saguenéens (no. 129)","stopId":"1:2000","stopCode":"2000","lon":-71.067064,"lat":48.407463,"arrival":1522696878000,"departure":1522696879000,"zoneId":"NA","stopIndex":16,"stopSequence":17,"vertexType":"TRANSIT"},"to":{"name":"Angoulême / Place de Chande","stopId":"1:541","stopCode":"541","lon":-71.072965,"lat":48.407575,"arrival":1522697063000,"departure":1522697064000,"zoneId":"NA","stopIndex":19,"stopSequence":20,"vertexType":"TRANSIT"},"legGeometry":{"points":"eqmfHrhwpL_CfGYVQXS\\dK|HlFZbC\\p@zA\\rB@hBiArG{BNw@FiG}@iDwA","length":16},"routeShortName":"15","routeLongName":"Term. Chic / Costco","rentedBike":false,"transitLeg":true,"duration":184.0,"steps":[]},{"startTime":1522697064000,"endTime":1522697098000,"departureDelay":0,"arrivalDelay":0,"realTime":false,"distance":44.478,"pathway":false,"mode":"WALK","route":"","agencyTimeZoneOffset":-14400000,"interlineWithPreviousLeg":false,"from":{"name":"Angoulême / Place de Chande","stopId":"1:541","stopCode":"541","lon":-71.072965,"lat":48.407575,"arrival":1522697063000,"departure":1522697064000,"zoneId":"NA","stopIndex":19,"stopSequence":20,"vertexType":"TRANSIT"},"to":{"name":"Destination","lon":-71.072041,"lat":48.407671,"arrival":1522697098000,"orig":"","vertexType":"NORMAL"},"legGeometry":{"points":"mrmfHpmxpLCAu@a@OK","length":4},"rentedBike":false,"transitLeg":false,"duration":34.0,"steps":[{"distance":44.478,"relativeDirection":"DEPART","streetName":"Rue d'Angoulème","absoluteDirection":"NORTH","stayOn":false,"area":false,"bogusName":false,"lon":-71.07304351192309,"lat":48.4075958832319,"elevation":[]}]}],"tooSloped":false},{"duration":396,"startTime":1522698502000,"endTime":1522698898000,"walkTime":210,"transitTime":184,"waitingTime":2,"walkDistance":269.4520977430993,"walkLimitExceeded":false,"elevationLost":0.0,"elevationGained":0.0,"transfers":0,"legs":[{"startTime":1522698502000,"endTime":1522698678000,"departureDelay":0,"arrivalDelay":0,"realTime":false,"distance":224.93499999999997,"pathway":false,"mode":"WALK","route":"","agencyTimeZoneOffset":-14400000,"interlineWithPreviousLeg":false,"from":{"name":"Origin","lon":-71.06785899,"lat":48.405598,"departure":1522698502000,"orig":"","vertexType":"NORMAL"},"to":{"name":"Saguenéens (no. 129)","stopId":"1:2000","stopCode":"2000","lon":-71.067064,"lat":48.407463,"arrival":1522698678000,"departure":1522698679000,"zoneId":"NA","stopIndex":16,"stopSequence":17,"vertexType":"TRANSIT"},"legGeometry":{"points":"qfmfHhowpLiEcCsBcCELQ`@","length":5},"rentedBike":false,"transitLeg":false,"duration":176.0,"steps":[{"distance":122.077,"relativeDirection":"DEPART","streetName":"Rue Jean Bourdon","absoluteDirection":"NORTHEAST","stayOn":false,"area":false,"bogusName":false,"lon":-71.06820773554738,"lat":48.405699646218096,"elevation":[]},{"distance":80.88,"relativeDirection":"CONTINUE","streetName":"path","absoluteDirection":"NORTHEAST","stayOn":false,"area":false,"bogusName":true,"lon":-71.0675429,"lat":48.4067049,"elevation":[]},{"distance":21.978,"relativeDirection":"LEFT","streetName":"Rue des Saguenéens","absoluteDirection":"NORTHWEST","stayOn":false,"area":false,"bogusName":false,"lon":-71.0668891,"lat":48.4072886,"elevation":[]}]},{"startTime":1522698679000,"endTime":1522698863000,"departureDelay":0,"arrivalDelay":0,"realTime":false,"distance":932.6005422163607,"pathway":false,"mode":"BUS","route":"15","agencyName":"Société de Transport du Saguenay","agencyUrl":"http://ville.saguenay.ca/fr/services-aux-citoyens/transport-sts","agencyTimeZoneOffset":-14400000,"routeColor":"FF00FF","routeType":3,"routeId":"1:15","routeTextColor":"FFFFFF","interlineWithPreviousLeg":false,"tripBlockId":"32","headsign":"Terminus Chicoutimi","agencyId":"0","tripId":"1:218165","serviceDate":"20180402","from":{"name":"Saguenéens (no. 129)","stopId":"1:2000","stopCode":"2000","lon":-71.067064,"lat":48.407463,"arrival":1522698678000,"departure":1522698679000,"zoneId":"NA","stopIndex":16,"stopSequence":17,"vertexType":"TRANSIT"},"to":{"name":"Angoulême / Place de Chande","stopId":"1:541","stopCode":"541","lon":-71.072965,"lat":48.407575,"arrival":1522698863000,"departure":1522698864000,"zoneId":"NA","stopIndex":19,"stopSequence":20,"vertexType":"TRANSIT"},"legGeometry":{"points":"eqmfHrhwpL_CfGYVQXS\\dK|HlFZbC\\p@zA\\rB@hBiArG{BNw@FiG}@iDwA","length":16},"routeShortName":"15","routeLongName":"Term. Chic / Costco","rentedBike":false,"transitLeg":true,"duration":184.0,"steps":[]},{"startTime":1522698864000,"endTime":1522698898000,"departureDelay":0,"arrivalDelay":0,"realTime":false,"distance":44.478,"pathway":false,"mode":"WALK","route":"","agencyTimeZoneOffset":-14400000,"interlineWithPreviousLeg":false,"from":{"name":"Angoulême / Place de Chande","stopId":"1:541","stopCode":"541","lon":-71.072965,"lat":48.407575,"arrival":1522698863000,"departure":1522698864000,"zoneId":"NA","stopIndex":19,"stopSequence":20,"vertexType":"TRANSIT"},"to":{"name":"Destination","lon":-71.072041,"lat":48.407671,"arrival":1522698898000,"orig":"","vertexType":"NORMAL"},"legGeometry":{"points":"mrmfHpmxpLCAu@a@OK","length":4},"rentedBike":false,"transitLeg":false,"duration":34.0,"steps":[{"distance":44.478,"relativeDirection":"DEPART","streetName":"Rue d'Angoulème","absoluteDirection":"NORTH","stayOn":false,"area":false,"bogusName":false,"lon":-71.07304351192309,"lat":48.4075958832319,"elevation":[]}]}],"tooSloped":false}]},"debugOutput":{"precalculationTime":41,"pathCalculationTime":16,"pathTimes":[9,3,4],"renderingTime":1,"totalTime":58,"timedOut":false},"elevationMetadata":{"ellipsoidToGeoidDifference":-28.885904201182168,"geoidElevation":false}}