{"requestParameters":{"date":"2018/04/02","walkSpeed":"1.33","walkReluctance":"2.0","fromPlace":"48.423337,-71.04090899","maxWalkDistance":"3000","waitReluctance":"1.0","carSpeed":"33","numItineraries":"3","waitAtBeginningFactor":"0.4","mode":"TRANSIT,WALK","ignoreRealtimeUpdates":"false","stairsReluctance":"2.0","toPlace":"48.40924,-71.05257199","time":"16:0:00"},"plan":{"date":1522699200000,"from":{"name":"Origin","lon":-71.04090899,"lat":48.423337,"orig":"","vertexType":"NORMAL"},"to":{"name":"Destination","lon":-71.05257199,"lat":48.40924,"orig":"","vertexType":"NORMAL"},"itineraries":[{"duration":1104,"startTime":1522699240000,"endTime":1522700344000,"walkTime":959,"transitTime":143,"waitingTime":2,"walkDistance":1205.9603007415446,"walkLimitExceeded":false,"elevationLost":0.0,"elevationGained":0.0,"transfers":0,"legs":[{"startTime":1522699240000,"endTime":1522699715000,"departureDelay":0,"arrivalDelay":0,"realTime":false,"distance":592.614,"pathway":false,"mode":"WALK","route":"","agencyTimeZoneOffset":-14400000,"interlineWithPreviousLeg":false,"from":{"name":"Origin","lon":-71.04090899,"lat":48.423337,"departure":1522699240000,"orig":"","vertexType":"NORMAL"},"to":{"name":"Chabanel / Jacques-Cartier","stopId":"1:1566","stopCode":"1566","lon":-71.034562,"lat":48.422529,"arrival":1522699715000,"departure":1522699716000,"zoneId":"NA","stopIndex":2,"stopSequence":3,"vertexType":"TRANSIT"},"legGeometry":{"points":"atpfHlbrpLTi@FWLQeBa@k@M@GJqAPiBBS?a@@WAQAGAI?G@IBEDEFMDKDI@QtByUt@\\??HH","length":27},"rentedBike":false,"transitLeg":false,"duration":475.0,"steps":[{"distance":121.876,"relativeDirection":"DEPART","streetName":"service road","absoluteDirection":"SOUTHEAST","stayOn":false,"area":false,"bogusName":true,"lon":-71.0405439,"lat":48.423211900000005,"elevation":[]},{"distance":81.843,"relativeDirection":"RIGHT","streetName":"Rue Jacques Cartier","absoluteDirection":"EAST","stayOn":false,"area":false,"bogusName":false,"lon":-71.0398826,"lat":48.4237216,"elevation":[]},{"distance":28.149,"relativeDirection":"CONTINUE","streetName":"road","absoluteDirection":"EAST","stayOn":false,"area":false,"bogusName":true,"lon":-71.0388063,"lat":48.423543900000006,"elevation":[]},{"distance":21.197,"relativeDirection":"CIRCLE_CLOCKWISE","streetName":"road","absoluteDirection":"NORTHEAST","exit":"3","stayOn":false,"area":false,"bogusName":true,"lon":-71.0384255,"lat":48.423540900000006,"elevation":[]},{"distance":300.903,"relativeDirection":"SLIGHTLY_LEFT","streetName":"Rue Jacques Cartier","absoluteDirection":"SOUTHEAST","stayOn":false,"area":false,"bogusName":false,"lon":-71.03818580000001,"lat":48.4235046,"elevation":[]},{"distance":38.646,"relativeDirection":"RIGHT","streetName":"Rue Chabanel","absoluteDirection":"SOUTH","stayOn":false,"area":false,"bogusName":false,"lon":-71.03426660000001,"lat":48.4228074,"elevation":[]}]},{"startTime":1522699716000,"endTime":1522699859000,"departureDelay":0,"arrivalDelay":0,"realTime":false,"distance":1922.1166050034178,"pathway":false,"mode":"BUS","route":"214S","agencyName":"Société de Transport du Saguenay","agencyUrl":"http://ville.saguenay.ca/fr/services-aux-citoyens/transport-sts","agencyTimeZoneOffset":-14400000,"routeColor":"8B0000","routeType":3,"routeId":"1:214S","routeTextColor":"FFFFFF","interlineWithPreviousLeg":false,"headsign":"Carcajous / Martres","agencyId":"0","tripId":"1:218520","serviceDate":"20180402","from":{"name":"Chabanel / Jacques-Cartier","stopId":"1:1566","stopCode":"1566","lon":-71.034562,"lat":48.422529,"arrival":1522699715000,"departure":1522699716000,"zoneId":"NA","stopIndex":2,"stopSequence":3,"vertexType":"TRANSIT"},"to":{"name":"Sûreté du Québec (Roitelets / Lorenzo-Genest)","stopId":"1:58","stopCode":"58","lon":-71.048311,"lat":48.40979,"arrival":1522699859000,"departure":1522699860000,"zoneId":"NA","stopIndex":11,"stopSequence":12,"vertexType":"TRANSIT"},"legGeometry":{"points":"sopfHl|ppL@?~@`AJ`AlBbDx@n@DDRNjAv@pCAzAZj@r@X^t@lCl@rAnBpBpCpCxAzAFD`A~@nBhBv@t@x@v@dChCh@pBLbBBp@OxA?BUrAa@~A}@lCx@lAPV\\h@`@hAdAtAl@p@BB`DlDvHvHRNvBeHLi@Zc@ZQb@IjB|@","length":48},"routeShortName":"214S","routeLongName":"Séminaire - Chicoutimi Sud","rentedBike":false,"transitLeg":true,"duration":143.0,"steps":[]},{"startTime":1522699860000,"endTime":1522700344000,"departureDelay":0,"arrivalDelay":0,"realTime":false,"distance":613.0260000000001,"pathway":false,"mode":"WALK","route":"","agencyTimeZoneOffset":-14400000,"interlineWithPreviousLeg":false,"from":{"name":"Sûreté du Québec (Roitelets / Lorenzo-Genest)","stopId":"1:58","stopCode":"58","lon":-71.048311,"lat":48.40979,"arrival":1522699859000,"departure":1522699860000,"zoneId":"NA","stopIndex":11,"stopSequence":12,"vertexType":"TRANSIT"},"to":{"name":"Destination","lon":-71.05257199,"lat":48.40924,"arrival":1522700344000,"orig":"","vertexType":"NORMAL"},"legGeometry":{"points":"{_nfHzqspLj@XFBu@|Dc@zBM|@Wl@[rBWnAwAxDjDlDDKb@iAt@sB@Ez@z@","length":16},"rentedBike":false,"transitLeg":false,"duration":484.0,"steps":[{"distance":30.991,"relativeDirection":"DEPART","streetName":"Rue Des Roitelets","absoluteDirection":"SOUTH","stayOn":false,"area":false,"bogusName":false,"lon":-71.04813827023435,"lat":48.409745631017636,"elevation":[]},{"distance":149.905,"relativeDirection":"RIGHT","streetName":"Rue Lorenzo-Genest","absoluteDirection":"NORTHWEST","stayOn":false,"area":false,"bogusName":false,"lon":-71.0482898,"lat":48.409485700000005,"elevation":[]},{"distance":183.487,"relativeDirection":"SLIGHTLY_RIGHT","streetName":"path","absoluteDirection":"NORTHWEST","stayOn":false,"area":false,"bogusName":true,"lon":-71.0501637,"lat":48.4100046,"elevation":[]},{"distance":115.192,"relativeDirection":"LEFT","streetName":"Boulevard Talbot","absoluteDirection":"SOUTHWEST","stayOn":false,"area":false,"bogusName":false,"lon":-71.05230110000001,"lat":48.4108205,"elevation":[]},{"distance":133.451,"relativeDirection":"LEFT","streetName":"service road","absoluteDirection":"SOUTHEAST","stayOn":false,"area":false,"bogusName":true,"lon":-71.0531788,"lat":48.4099639,"elevation":[]}]}],"tooSloped":false},{"duration":962,"startTime":1522700512000,"endTime":1522701474000,"walkTime":547,"transitTime":413,"waitingTime":2,"walkDistance":692.5516842049219,"walkLimitExceeded":false,"elevationLost":0.0,"elevationGained":0.0,"transfers":0,"legs":[{"startTime":1522700512000,"endTime":1522700662000,"departureDelay":0,"arrivalDelay":0,"realTime":false,"distance":185.543,"pathway":false,"mode":"WALK","route":"","agencyTimeZoneOffset":-14400000,"interlineWithPreviousLeg":false,"from":{"name":"Origin","lon":-71.04090899,"lat":48.423337,"departure":1522700512000,"orig":"","vertexType":"NORMAL"},"to":{"name":"Centre d'hébergement Le Beaumanoir (J.Cartier)","stopId":"1:345","stopCode":"345","lon":-71.041163,"lat":48.423769,"arrival":1522700662000,"departure":1522700663000,"zoneId":"NA","stopIndex":10,"stopSequence":11,"vertexType":"TRANSIT"},"legGeometry":{"points":"atpfHlbrpLTi@FWLQeBa@BRa@xDEBG?CA","length":10},"rentedBike":false,"transitLeg":false,"duration":150.0,"steps":[{"distance":185.543,"relativeDirection":"DEPART","streetName":"service road","absoluteDirection":"SOUTHEAST","stayOn":false,"area":false,"bogusName":true,"lon":-71.0405439,"lat":48.423211900000005,"elevation":[]}]},{"startTime":1522700663000,"endTime":1522701076000,"departureDelay":0,"arrivalDelay":0,"realTime":false,"distance":2270.119782403266,"pathway":false,"mode":"BUS","route":"10","agencyName":"Société de Transport du Saguenay","agencyUrl":"http://ville.saguenay.ca/fr/services-aux-citoyens/transport-sts","agencyTimeZoneOffset":-14400000,"routeColor":"0000FF","routeType":3,"routeId":"1:10","routeTextColor":"FFFFFF","interlineWithPreviousLeg":false,"tripBlockId":"29","headsign":"Terminus UQAC","agencyId":"0","tripId":"1:218071","serviceDate":"20180402","from":{"name":"Centre d'hébergement Le Beaumanoir (J.Cartier)","stopId":"1:345","stopCode":"345","lon":-71.041163,"lat":48.423769,"arrival":1522700662000,"departure":1522700663000,"zoneId":"NA","stopIndex":10,"stopSequence":11,"vertexType":"TRANSIT"},"to":{"name":"boul. Université / Murdock","stopId":"1:59","stopCode":"59","lon":-71.049971,"lat":48.411755,"arrival":1522701076000,"departure":1522701077000,"zoneId":"NA","stopIndex":21,"stopSequence":22,"vertexType":"TRANSIT"},"legGeometry":{"points":"cxpfHbfrpL\\yELaCJeAJcAXw@Fk@M_@xBwVr@^LJ|@z@HdAlBbD`Av@b@\\v@d@`@BpBAzAXl@t@XZt@lCl@tAnBpB~@~@lDjDr@r@zDrDnAlAjBrBl@pBPlBCj@KrAAHSpAe@jB_A|Bz@xAvA~BvB|BdN|Nc@bA","length":44},"routeShortName":"10","routeLongName":"Notre-Dame du Saguenay","rentedBike":false,"transitLeg":true,"duration":413.0,"steps":[]},{"startTime":1522701077000,"endTime":1522701474000,"departureDelay":0,"arrivalDelay":0,"realTime":false,"distance":506.83500000000004,"pathway":false,"mode":"WALK","route":"","agencyTimeZoneOffset":-14400000,"interlineWithPreviousLeg":false,"from":{"name":"boul. Université / Murdock","stopId":"1:59","stopCode":"59","lon":-71.049971,"lat":48.411755,"arrival":1522701076000,"departure":1522701077000,"zoneId":"NA","stopIndex":21,"stopSequence":22,"vertexType":"TRANSIT"},"to":{"name":"Destination","lon":-71.05257199,"lat":48.40924,"arrival":1522701474000,"orig":"","vertexType":"NORMAL"},"legGeometry":{"points":"_lnfHx}spLoAhDELTXLJx@|@bDfDjDlDDKb@iAt@sB@Ez@z@","length":13},"rentedBike":false,"transitLeg":false,"duration":397.0,"steps":[{"distance":83.417,"relativeDirection":"DEPART","streetName":"Boulevard de l'Université","absoluteDirection":"NORTHWEST","stayOn":false,"area":false,"bogusName":false,"lon":-71.05004245459075,"lat":48.41168714240219,"elevation":[]},{"distance":289.967,"relativeDirection":"LEFT","streetName":"Boulevard Talbot","absoluteDirection":"SOUTHWEST","stayOn":false,"area":false,"bogusName":false,"lon":-71.05096660000001,"lat":48.4121189,"elevation":[]},{"distance":133.451,"relativeDirection":"LEFT","streetName":"service road","absoluteDirection":"SOUTHEAST","stayOn":false,"area":false,"bogusName":true,"lon":-71.0531788,"lat":48.4099639,"elevation":[]}]}],"tooSloped":false},{"duration":962,"startTime":1522702312000,"endTime":1522703274000,"walkTime":547,"transitTime":413,"waitingTime":2,"walkDistance":692.5516842049219,"walkLimitExceeded":false,"elevationLost":0.0,"elevationGained":0.0,"transfers":0,"legs":[{"startTime":1522702312000,"endTime":1522702462000,"departureDelay":0,"arrivalDelay":0,"realTime":false,"distance":185.543,"pathway":false,"mode":"WALK","route":"","agencyTimeZoneOffset":-14400000,"interlineWithPreviousLeg":false,"from":{"name":"Origin","lon":-71.04090899,"lat":48.423337,"departure":1522702312000,"orig":"","vertexType":"NORMAL"},"to":{"name":"Centre d'hébergement Le Beaumanoir (J.Cartier)","stopId":"1:345","stopCode":"345","lon":-71.041163,"lat":48.423769,"arrival":1522702462000,"departure":1522702463000,"zoneId":"NA","stopIndex":10,"stopSequence":11,"vertexType":"TRANSIT"},"legGeometry":{"points":"atpfHlbrpLTi@FWLQeBa@BRa@xDEBG?CA","length":10},"rentedBike":false,"transitLeg":false,"duration":150.0,"steps":[{"distance":185.543,"relativeDirection":"DEPART","streetName":"service road","absoluteDirection":"SOUTHEAST","stayOn":false,"area":false,"bogusName":true,"lon":-71.0405439,"lat":48.423211900000005,"elevation":[]}]},{"startTime":1522702463000,"endTime":1522702876000,"departureDelay":0,"arrivalDelay":0,"realTime":false,"distance":2270.119782403266,"pathway":false,"mode":"BUS","route":"10","agencyName":"Société de Transport du Saguenay","agencyUrl":"http://ville.saguenay.ca/fr/services-aux-citoyens/transport-sts","agencyTimeZoneOffset":-14400000,"routeColor":"0000FF","routeType":3,"routeId":"1:10","routeTextColor":"FFFFFF","interlineWithPreviousLeg":false,"tripBlockId":"26","headsign":"Terminus UQAC","agencyId":"0","tripId":"1:217984","serviceDate":"20180402","from":{"name":"Centre d'hébergement Le Beaumanoir (J.Cartier)","stopId":"1:345","stopCode":"345","lon":-71.041163,"lat":48.423769,"arrival":1522702462000,"departure":1522702463000,"zoneId":"NA","stopIndex":10,"stopSequence":11,"vertexType":"TRANSIT"},"to":{"name":"boul. Université / Murdock","stopId":"1:59","stopCode":"59","lon":-71.049971,"lat":48.411755,"arrival":1522702876000,"departure":1522702877000,"zoneId":"NA","stopIndex":21,"stopSequence":22,"vertexType":"TRANSIT"},"legGeometry":{"points":"cxpfHbfrpL\\yELaCJeAJcAXw@Fk@M_@xBwVr@^LJ|@z@HdAlBbD`Av@b@\\v@d@`@BpBAzAXl@t@XZt@lCl@tAnBpB~@~@lDjDr@r@zDrDnAlAjBrBl@pBPlBCj@KrAAHSpAe@jB_A|Bz@xAvA~BvB|BdN|Nc@bA","length":44},"routeShortName":"10","routeLongName":"Notre-Dame du Saguenay","rentedBike":false,"transitLeg":true,"duration":413.0,"steps":[]},{"startTime":1522702877000,"endTime":1522703274000,"departureDelay":0,"arrivalDelay":0,"realTime":false,"distance":506.83500000000004,"pathway":false,"mode":"WALK","route":"","agencyTimeZoneOffset":-14400000,"interlineWithPreviousLeg":false,"from":{"name":"boul. Université / Murdock","stopId":"1:59","stopCode":"59","lon":-71.049971,"lat":48.411755,"arrival":1522702876000,"departure":1522702877000,"zoneId":"NA","stopIndex":21,"stopSequence":22,"vertexType":"TRANSIT"},"to":{"name":"Destination","lon":-71.05257199,"lat":48.40924,"arrival":1522703274000,"orig":"","vertexType":"NORMAL"},"legGeometry":{"points":"_lnfHx}spLoAhDELTXLJx@|@bDfDjDlDDKb@iAt@sB@Ez@z@","length":13},"rentedBike":false,"transitLeg":false,"duration":397.0,"steps":[{"distance":83.417,"relativeDirection":"DEPART","streetName":"Boulevard de l'Université","absoluteDirection":"NORTHWEST","stayOn":false,"area":false,"bogusName":false,"lon":-71.05004245459075,"lat":48.41168714240219,"elevation":[]},{"distance":289.967,"relativeDirection":"LEFT","streetName":"Boulevard Talbot","absoluteDirection":"SOUTHWEST","stayOn":false,"area":false,"bogusName":false,"lon":-71.05096660000001,"lat":48.4121189,"elevation":[]},{"distance":133.451,"relativeDirection":"LEFT","streetName":"service road","absoluteDirection":"SOUTHEAST","stayOn":false,"area":false,"bogusName":true,"lon":-71.0531788,"lat":48.4099639,"elevation":[]}]}],"tooSloped":false}]},"debugOutput":{"precalculationTime":38,"pathCalculationTime":19,"pathTimes":[12,2,5],"renderingTime":1,"totalTime":58,"timedOut":false},"elevationMetadata":{"ellipsoidToGeoidDifference":-28.885904201182168,"geoidElevation":false}}