{"requestParameters":{"date":"2018/04/02","walkSpeed":"1.33","walkReluctance":"2.0","fromPlace":"48.406351,-71.05878699","maxWalkDistance":"3000","waitReluctance":"1.0","carSpeed":"33","numItineraries":"3","waitAtBeginningFactor":"0.4","mode":"TRANSIT,WALK","ignoreRealtimeUpdates":"false","stairsReluctance":"2.0","toPlace":"48.403952,-71.054642","time":"14:15:00"},"plan":{"date":1522692900000,"from":{"name":"Origin","lon":-71.05878699,"lat":48.406351,"orig":"","vertexType":"NORMAL"},"to":{"name":"Destination","lon":-71.054642,"lat":48.403952,"orig":"","vertexType":"NORMAL"},"itineraries":[{"duration":874,"startTime":1522692900000,"endTime":1522693774000,"walkTime":874,"transitTime":0,"waitingTime":0,"walkDistance":1119.3813984910976,"walkLimitExceeded":false,"elevationLost":0.0,"elevationGained":0.0,"transfers":0,"legs":[{"startTime":1522692900000,"endTime":1522693774000,"departureDelay":0,"arrivalDelay":0,"realTime":false,"distance":1119.2220000000002,"pathway":false,"mode":"WALK","route":"","agencyTimeZoneOffset":-14400000,"interlineWithPreviousLeg":false,"from":{"name":"Origin","lon":-71.05878699,"lat":48.406351,"departure":1522692900000,"orig":"","vertexType":"NORMAL"},"to":{"name":"Destination","lon":-71.054642,"lat":48.403952,"arrival":1522693774000,"orig":"","vertexType":"NORMAL"},"legGeometry":{"points":"glmfHhxupLj@f@v@p@dE|D|EtEfAoCxBwFJW@EFSlAsEGM[m@i@aAc@a@YYYWs@q@YYYYWWSQ[[lBuGj@wDQBWp@OWKQ","length":29},"rentedBike":false,"transitLeg":false,"duration":874.0,"steps":[{"distance":341.601,"relativeDirection":"DEPART","streetName":"Rue Bach","absoluteDirection":"SOUTHWEST","stayOn":false,"area":false,"bogusName":false,"lon":-71.05940792180488,"lat":48.40660402994085,"elevation":[]},{"distance":292.75300000000004,"relativeDirection":"LEFT","streetName":"Rue des Saguenéens","absoluteDirection":"SOUTHEAST","stayOn":false,"area":false,"bogusName":false,"lon":-71.06187870000001,"lat":48.404006700000004,"elevation":[]},{"distance":237.683,"relativeDirection":"LEFT","streetName":"service road","absoluteDirection":"NORTHEAST","stayOn":false,"area":false,"bogusName":true,"lon":-71.0586019,"lat":48.4025327,"elevation":[]},{"distance":191.916,"relativeDirection":"RIGHT","streetName":"path","absoluteDirection":"SOUTHEAST","stayOn":true,"area":false,"bogusName":true,"lon":-71.0566984,"lat":48.4042426,"elevation":[]},{"distance":55.269,"relativeDirection":"HARD_LEFT","streetName":"parking aisle","absoluteDirection":"NORTHWEST","stayOn":true,"area":false,"bogusName":true,"lon":-71.0543818,"lat":48.403475,"elevation":[]}]}],"tooSloped":false},{"duration":749,"startTime":1522693843000,"endTime":1522694592000,"walkTime":686,"transitTime":61,"waitingTime":2,"walkDistance":852.1564436016836,"walkLimitExceeded":false,"elevationLost":0.0,"elevationGained":0.0,"transfers":0,"legs":[{"startTime":1522693843000,"endTime":1522694158000,"departureDelay":0,"arrivalDelay":0,"realTime":false,"distance":408.557,"pathway":false,"mode":"WALK","route":"","agencyTimeZoneOffset":-14400000,"interlineWithPreviousLeg":false,"from":{"name":"Origin","lon":-71.05878699,"lat":48.406351,"departure":1522693843000,"orig":"","vertexType":"NORMAL"},"to":{"name":"Saguenéens  / Bach","stopId":"1:575","stopCode":"575","lon":-71.061104,"lat":48.403689,"arrival":1522694158000,"departure":1522694159000,"zoneId":"NA","stopIndex":23,"stopSequence":24,"vertexType":"TRANSIT"},"legGeometry":{"points":"glmfHhxupLj@f@v@p@dE|D|EtEfAoC","length":6},"rentedBike":false,"transitLeg":false,"duration":315.0,"steps":[{"distance":341.601,"relativeDirection":"DEPART","streetName":"Rue Bach","absoluteDirection":"SOUTHWEST","stayOn":false,"area":false,"bogusName":false,"lon":-71.05940792180488,"lat":48.40660402994085,"elevation":[]},{"distance":66.956,"relativeDirection":"LEFT","streetName":"Rue des Saguenéens","absoluteDirection":"SOUTHEAST","stayOn":false,"area":false,"bogusName":false,"lon":-71.06187870000001,"lat":48.404006700000004,"elevation":[]}]},{"startTime":1522694159000,"endTime":1522694220000,"departureDelay":0,"arrivalDelay":0,"realTime":false,"distance":292.3736010886008,"pathway":false,"mode":"BUS","route":"15","agencyName":"Société de Transport du Saguenay","agencyUrl":"http://ville.saguenay.ca/fr/services-aux-citoyens/transport-sts","agencyTimeZoneOffset":-14400000,"routeColor":"FF00FF","routeType":3,"routeId":"1:15","routeTextColor":"FFFFFF","interlineWithPreviousLeg":false,"tripBlockId":"33","headsign":"Talbot / Barrette","agencyId":"0","tripId":"1:218187","serviceDate":"20180402","from":{"name":"Saguenéens  / Bach","stopId":"1:575","stopCode":"575","lon":-71.061104,"lat":48.403689,"arrival":1522694158000,"departure":1522694159000,"zoneId":"NA","stopIndex":23,"stopSequence":24,"vertexType":"TRANSIT"},"to":{"name":"Place du Royaume (Saguenéens)","stopId":"1:1294","stopCode":"1294","lon":-71.057691,"lat":48.402355,"arrival":1522694220000,"departure":1522694221000,"zoneId":"NA","stopIndex":24,"stopSequence":25,"vertexType":"TRANSIT"},"legGeometry":{"points":"ezlfHvbvpLtC{FnBoL","length":3},"routeShortName":"15","routeLongName":"Term. Chic / Costco","rentedBike":false,"transitLeg":true,"duration":61.0,"steps":[]},{"startTime":1522694221000,"endTime":1522694592000,"departureDelay":0,"arrivalDelay":0,"realTime":false,"distance":443.37199999999996,"pathway":false,"mode":"WALK","route":"","agencyTimeZoneOffset":-14400000,"interlineWithPreviousLeg":false,"from":{"name":"Place du Royaume (Saguenéens)","stopId":"1:1294","stopCode":"1294","lon":-71.057691,"lat":48.402355,"arrival":1522694220000,"departure":1522694221000,"zoneId":"NA","stopIndex":24,"stopSequence":25,"vertexType":"TRANSIT"},"to":{"name":"Destination","lon":-71.054642,"lat":48.403952,"arrival":1522694592000,"orig":"","vertexType":"NORMAL"},"legGeometry":{"points":"iqlfHxmupLj@wDSi@CME[KKn@eECMGs@]IICWGGCYGECYGQGKKWYUSAEGIUXc@UQBWp@OWKQ","length":28},"rentedBike":false,"transitLeg":false,"duration":371.0,"steps":[{"distance":72.296,"relativeDirection":"DEPART","streetName":"Rue des Saguenéens","absoluteDirection":"EAST","stayOn":false,"area":false,"bogusName":false,"lon":-71.05772328170832,"lat":48.402297506554895,"elevation":[]},{"distance":44.199000000000005,"relativeDirection":"LEFT","streetName":"service road","absoluteDirection":"NORTHEAST","stayOn":false,"area":false,"bogusName":true,"lon":-71.0568056,"lat":48.4020704,"elevation":[]},{"distance":102.75299999999999,"relativeDirection":"RIGHT","streetName":"parking aisle","absoluteDirection":"EAST","stayOn":true,"area":false,"bogusName":true,"lon":-71.0563248,"lat":48.4022894,"elevation":[]},{"distance":131.326,"relativeDirection":"LEFT","streetName":"service road","absoluteDirection":"NORTH","stayOn":true,"area":false,"bogusName":true,"lon":-71.0550072,"lat":48.402104300000005,"elevation":[]},{"distance":37.529,"relativeDirection":"LEFT","streetName":"parking aisle","absoluteDirection":"NORTHWEST","stayOn":true,"area":false,"bogusName":true,"lon":-71.0543643,"lat":48.403182300000005,"elevation":[]},{"distance":55.269,"relativeDirection":"LEFT","streetName":"parking aisle","absoluteDirection":"NORTHWEST","stayOn":true,"area":false,"bogusName":true,"lon":-71.0543818,"lat":48.403475,"elevation":[]}]}],"tooSloped":false}]},"debugOutput":{"precalculationTime":35,"pathCalculationTime":28,"pathTimes":[16,6,6],"renderingTime":0,"totalTime":63,"timedOut":false},"elevationMetadata":{"ellipsoidToGeoidDifference":-28.885904201182168,"geoidElevation":false}}