{"requestParameters":{"date":"2018/04/02","walkSpeed":"1.33","walkReluctance":"2.0","fromPlace":"48.407643,-71.072868","maxWalkDistance":"3000","waitReluctance":"1.0","carSpeed":"33","numItineraries":"3","waitAtBeginningFactor":"0.4","mode":"TRANSIT,WALK","ignoreRealtimeUpdates":"false","stairsReluctance":"2.0","toPlace":"48.425237,-71.07349399","time":"13:0:00"},"plan":{"date":1522688400000,"from":{"name":"Origin","lon":-71.072868,"lat":48.407643,"orig":"","vertexType":"NORMAL"},"to":{"name":"Destination","lon":-71.07349399,"lat":48.425237,"orig":"","vertexType":"NORMAL"},"itineraries":[{"duration":1371,"startTime":1522689082000,"endTime":1522690453000,"walkTime":886,"transitTime":483,"waitingTime":2,"walkDistance":1141.4721278146721,"walkLimitExceeded":false,"elevationLost":0.0,"elevationGained":0.0,"transfers":0,"legs":[{"startTime":1522689082000,"endTime":1522689462000,"departureDelay":0,"arrivalDelay":0,"realTime":false,"distance":496.791,"pathway":false,"mode":"WALK","route":"","agencyTimeZoneOffset":-14400000,"interlineWithPreviousLeg":false,"from":{"name":"Origin","lon":-71.072868,"lat":48.407643,"departure":1522689082000,"orig":"","vertexType":"NORMAL"},"to":{"name":"Ballantyne / Garon","stopId":"1:538","stopCode":"538","lon":-71.07646,"lat":48.405026,"arrival":1522689462000,"departure":1522689463000,"zoneId":"NA","stopIndex":16,"stopSequence":17,"vertexType":"TRANSIT"},"legGeometry":{"points":"}rmfHfmxpLJFB@FBpAf@~Al@jBZ~AVj@FFnGXdAVX~@XUpC??","length":15},"rentedBike":false,"transitLeg":false,"duration":380.0,"steps":[{"distance":258.122,"relativeDirection":"DEPART","streetName":"Rue d'Angoulème","absoluteDirection":"SOUTH","stayOn":false,"area":false,"bogusName":false,"lon":-71.0729947260845,"lat":48.40767670753165,"elevation":[]},{"distance":183.368,"relativeDirection":"RIGHT","streetName":"Rue Garon","absoluteDirection":"WEST","stayOn":false,"area":false,"bogusName":false,"lon":-71.0737922,"lat":48.405425300000005,"elevation":[]},{"distance":55.301,"relativeDirection":"RIGHT","streetName":"Rue Ballantyne","absoluteDirection":"WEST","stayOn":false,"area":false,"bogusName":false,"lon":-71.0757641,"lat":48.404816700000005,"elevation":[]}]},{"startTime":1522689463000,"endTime":1522689946000,"departureDelay":0,"arrivalDelay":0,"realTime":false,"distance":2318.3515184413895,"pathway":false,"mode":"BUS","route":"14","agencyName":"Société de Transport du Saguenay","agencyUrl":"http://ville.saguenay.ca/fr/services-aux-citoyens/transport-sts","agencyTimeZoneOffset":-14400000,"routeColor":"C0C000","routeType":3,"routeId":"1:14","routeTextColor":"000000","interlineWithPreviousLeg":false,"tripBlockId":"31","headsign":"Terminus Chicoutimi","agencyId":"0","tripId":"1:218135","serviceDate":"20180402","from":{"name":"Ballantyne / Garon","stopId":"1:538","stopCode":"538","lon":-71.07646,"lat":48.405026,"arrival":1522689462000,"departure":1522689463000,"zoneId":"NA","stopIndex":16,"stopSequence":17,"vertexType":"TRANSIT"},"to":{"name":"Audet / boul. Université","stopId":"1:553","stopCode":"553","lon":-71.072005,"lat":48.421488,"arrival":1522689946000,"departure":1522689947000,"zoneId":"NA","stopIndex":28,"stopSequence":29,"vertexType":"TRANSIT"},"legGeometry":{"points":"wamfHbcypLEf@mGvUYfAqCs@ICMCqFmDc@s@mAkBuEoESUgAhDiAfD}@zDyAcA_@Um@U{AWgB_Au@s@EEsBkCqFgF{IiI][aBhE}@}@oBmBwE{EwE{Ej@mBZeAa@SyEQ","length":35},"routeShortName":"14","routeLongName":"Coopérative","rentedBike":false,"transitLeg":true,"duration":483.0,"steps":[]},{"startTime":1522689947000,"endTime":1522690453000,"departureDelay":0,"arrivalDelay":0,"realTime":false,"distance":644.53,"pathway":false,"mode":"WALK","route":"","agencyTimeZoneOffset":-14400000,"interlineWithPreviousLeg":false,"from":{"name":"Audet / boul. Université","stopId":"1:553","stopCode":"553","lon":-71.072005,"lat":48.421488,"arrival":1522689946000,"departure":1522689947000,"zoneId":"NA","stopIndex":28,"stopSequence":29,"vertexType":"TRANSIT"},"to":{"name":"Destination","lon":-71.07349399,"lat":48.425237,"arrival":1522690453000,"orig":"","vertexType":"NORMAL"},"legGeometry":{"points":"iipfHvgxpLg@CWbAy@dCG`@S[KM_AkAk@u@MI[Uc@Qg@G}@IoBKQCkAKg@?yB`@@Zp@hDF|@@R","length":23},"rentedBike":false,"transitLeg":false,"duration":506.0,"steps":[{"distance":23.119,"relativeDirection":"DEPART","streetName":"Rue Audet","absoluteDirection":"NORTH","stayOn":false,"area":false,"bogusName":false,"lon":-71.07211324351135,"lat":48.42149143047572,"elevation":[]},{"distance":100.466,"relativeDirection":"LEFT","streetName":"Boulevard de l'Université","absoluteDirection":"NORTHWEST","stayOn":false,"area":false,"bogusName":false,"lon":-71.07209830000001,"lat":48.421699100000005,"elevation":[]},{"distance":410.991,"relativeDirection":"RIGHT","streetName":"Boulevard Saint-Paul","absoluteDirection":"NORTHEAST","stayOn":false,"area":false,"bogusName":false,"lon":-71.0732783,"lat":48.4221458,"elevation":[]},{"distance":109.954,"relativeDirection":"LEFT","streetName":"Rue Price Ouest","absoluteDirection":"WEST","stayOn":false,"area":false,"bogusName":false,"lon":-71.0721044,"lat":48.4255854,"elevation":[]}]}],"tooSloped":false},{"duration":1180,"startTime":1522689854000,"endTime":1522691034000,"walkTime":448,"transitTime":730,"waitingTime":2,"walkDistance":569.9809323284737,"walkLimitExceeded":false,"elevationLost":0.0,"elevationGained":0.0,"transfers":0,"legs":[{"startTime":1522689854000,"endTime":1522689862000,"departureDelay":0,"arrivalDelay":0,"realTime":false,"distance":9.681000000000001,"pathway":false,"mode":"WALK","route":"","agencyTimeZoneOffset":-14400000,"interlineWithPreviousLeg":false,"from":{"name":"Origin","lon":-71.072868,"lat":48.407643,"departure":1522689854000,"orig":"","vertexType":"NORMAL"},"to":{"name":"Angoulême / Place de Chande","stopId":"1:541","stopCode":"541","lon":-71.072965,"lat":48.407575,"arrival":1522689862000,"departure":1522689863000,"zoneId":"NA","stopIndex":19,"stopSequence":20,"vertexType":"TRANSIT"},"legGeometry":{"points":"}rmfHfmxpLJFB@","length":3},"rentedBike":false,"transitLeg":false,"duration":8.0,"steps":[{"distance":9.681000000000001,"relativeDirection":"DEPART","streetName":"Rue d'Angoulème","absoluteDirection":"SOUTH","stayOn":false,"area":false,"bogusName":false,"lon":-71.0729947260845,"lat":48.40767670753165,"elevation":[]}]},{"startTime":1522689863000,"endTime":1522690593000,"departureDelay":0,"arrivalDelay":0,"realTime":false,"distance":3870.145182658159,"pathway":false,"mode":"BUS","route":"15","agencyName":"Société de Transport du Saguenay","agencyUrl":"http://ville.saguenay.ca/fr/services-aux-citoyens/transport-sts","agencyTimeZoneOffset":-14400000,"routeColor":"FF00FF","routeType":3,"routeId":"1:15","routeTextColor":"FFFFFF","interlineWithPreviousLeg":false,"tripBlockId":"30","headsign":"Terminus Chicoutimi","agencyId":"0","tripId":"1:218100","serviceDate":"20180402","from":{"name":"Angoulême / Place de Chande","stopId":"1:541","stopCode":"541","lon":-71.072965,"lat":48.407575,"arrival":1522689862000,"departure":1522689863000,"zoneId":"NA","stopIndex":19,"stopSequence":20,"vertexType":"TRANSIT"},"to":{"name":"Jacques-Cartier / Tessier","stopId":"1:62","stopCode":"62","lon":-71.067531,"lat":48.426736,"arrival":1522690593000,"departure":1522690594000,"zoneId":"NA","stopIndex":37,"stopSequence":38,"vertexType":"TRANSIT"},"legGeometry":{"points":"mrmfHrmxpLECcCcBo@y@sEeGe@o@qAa@m@MoB?C@}BZwAc@oA_Bs@gDCKZ{Di@QECc@_@sAkAoBwB_EcE{A_BoAmAk@o@cCaCkIkIaJaJUUwBaCj@wCjAsCzGoG_CoHL{D_@kAqD{CQr@iAcAy@w@L{@wAuA_B_B_EpLDh@NbBVvCIxBg@`Am@l@Sb@a@rAqDqDmEkE]a@kAqAU|@WnKG|DGxDOdPKvJU|F?XQlJC~@ChA","length":67},"routeShortName":"15","routeLongName":"Term. Chic / Costco","rentedBike":false,"transitLeg":true,"duration":730.0,"steps":[]},{"startTime":1522690594000,"endTime":1522691034000,"departureDelay":0,"arrivalDelay":0,"realTime":false,"distance":560.227,"pathway":false,"mode":"WALK","route":"","agencyTimeZoneOffset":-14400000,"interlineWithPreviousLeg":false,"from":{"name":"Jacques-Cartier / Tessier","stopId":"1:62","stopCode":"62","lon":-71.067531,"lat":48.426736,"arrival":1522690593000,"departure":1522690594000,"zoneId":"NA","stopIndex":37,"stopSequence":38,"vertexType":"TRANSIT"},"to":{"name":"Destination","lon":-71.07349399,"lat":48.425237,"arrival":1522691034000,"orig":"","vertexType":"NORMAL"},"legGeometry":{"points":"uiqfHbkwpLEnBC~AMrEInCAj@A`DjAJVJRXJRFFJBJEBG`AXNLDb@@Zp@hDF|@@R","length":22},"rentedBike":false,"transitLeg":false,"duration":440.0,"steps":[{"distance":76.392,"relativeDirection":"DEPART","streetName":"Rue Jacques-Cartier Est","absoluteDirection":"WEST","stayOn":false,"area":false,"bogusName":false,"lon":-71.0675380239516,"lat":48.42667414840684,"elevation":[]},{"distance":208.179,"relativeDirection":"CONTINUE","streetName":"Rue Jacques-Cartier Ouest","absoluteDirection":"WEST","stayOn":false,"area":false,"bogusName":false,"lon":-71.0685709,"lat":48.426721,"elevation":[]},{"distance":103.339,"relativeDirection":"LEFT","streetName":"Rue Montcalm","absoluteDirection":"SOUTH","stayOn":false,"area":false,"bogusName":false,"lon":-71.0713817,"lat":48.426863100000006,"elevation":[]},{"distance":48.492,"relativeDirection":"SLIGHTLY_RIGHT","streetName":"path","absoluteDirection":"SOUTH","stayOn":false,"area":false,"bogusName":true,"lon":-71.0717267,"lat":48.426028200000005,"elevation":[]},{"distance":123.82499999999999,"relativeDirection":"RIGHT","streetName":"Rue Price Ouest","absoluteDirection":"WEST","stayOn":false,"area":false,"bogusName":false,"lon":-71.0719217,"lat":48.425614800000005,"elevation":[]}]}],"tooSloped":false},{"duration":1180,"startTime":1522691654000,"endTime":1522692834000,"walkTime":448,"transitTime":730,"waitingTime":2,"walkDistance":569.9809323284737,"walkLimitExceeded":false,"elevationLost":0.0,"elevationGained":0.0,"transfers":0,"legs":[{"startTime":1522691654000,"endTime":1522691662000,"departureDelay":0,"arrivalDelay":0,"realTime":false,"distance":9.681000000000001,"pathway":false,"mode":"WALK","route":"","agencyTimeZoneOffset":-14400000,"interlineWithPreviousLeg":false,"from":{"name":"Origin","lon":-71.072868,"lat":48.407643,"departure":1522691654000,"orig":"","vertexType":"NORMAL"},"to":{"name":"Angoulême / Place de Chande","stopId":"1:541","stopCode":"541","lon":-71.072965,"lat":48.407575,"arrival":1522691662000,"departure":1522691663000,"zoneId":"NA","stopIndex":19,"stopSequence":20,"vertexType":"TRANSIT"},"legGeometry":{"points":"}rmfHfmxpLJFB@","length":3},"rentedBike":false,"transitLeg":false,"duration":8.0,"steps":[{"distance":9.681000000000001,"relativeDirection":"DEPART","streetName":"Rue d'Angoulème","absoluteDirection":"SOUTH","stayOn":false,"area":false,"bogusName":false,"lon":-71.0729947260845,"lat":48.40767670753165,"elevation":[]}]},{"startTime":1522691663000,"endTime":1522692393000,"departureDelay":0,"arrivalDelay":0,"realTime":false,"distance":3870.145182658159,"pathway":false,"mode":"BUS","route":"15","agencyName":"Société de Transport du Saguenay","agencyUrl":"http://ville.saguenay.ca/fr/services-aux-citoyens/transport-sts","agencyTimeZoneOffset":-14400000,"routeColor":"FF00FF","routeType":3,"routeId":"1:15","routeTextColor":"FFFFFF","interlineWithPreviousLeg":false,"tripBlockId":"32","headsign":"Terminus Chicoutimi","agencyId":"0","tripId":"1:218161","serviceDate":"20180402","from":{"name":"Angoulême / Place de Chande","stopId":"1:541","stopCode":"541","lon":-71.072965,"lat":48.407575,"arrival":1522691662000,"departure":1522691663000,"zoneId":"NA","stopIndex":19,"stopSequence":20,"vertexType":"TRANSIT"},"to":{"name":"Jacques-Cartier / Tessier","stopId":"1:62","stopCode":"62","lon":-71.067531,"lat":48.426736,"arrival":1522692393000,"departure":1522692394000,"zoneId":"NA","stopIndex":37,"stopSequence":38,"vertexType":"TRANSIT"},"legGeometry":{"points":"mrmfHrmxpLECcCcBo@y@sEeGe@o@qAa@m@MoB?C@}BZwAc@oA_Bs@gDCKZ{Di@QECc@_@sAkAoBwB_EcE{A_BoAmAk@o@cCaCkIkIaJaJUUwBaCj@wCjAsCzGoG_CoHL{D_@kAqD{CQr@iAcAy@w@L{@wAuA_B_B_EpLDh@NbBVvCIxBg@`Am@l@Sb@a@rAqDqDmEkE]a@kAqAU|@WnKG|DGxDOdPKvJU|F?XQlJC~@ChA","length":67},"routeShortName":"15","routeLongName":"Term. Chic / Costco","rentedBike":false,"transitLeg":true,"duration":730.0,"steps":[]},{"startTime":1522692394000,"endTime":1522692834000,"departureDelay":0,"arrivalDelay":0,"realTime":false,"distance":560.227,"pathway":false,"mode":"WALK","route":"","agencyTimeZoneOffset":-14400000,"interlineWithPreviousLeg":false,"from":{"name":"Jacques-Cartier / Tessier","stopId":"1:62","stopCode":"62","lon":-71.067531,"lat":48.426736,"arrival":1522692393000,"departure":1522692394000,"zoneId":"NA","stopIndex":37,"stopSequence":38,"vertexType":"TRANSIT"},"to":{"name":"Destination","lon":-71.07349399,"lat":48.425237,"arrival":1522692834000,"orig":"","vertexType":"NORMAL"},"legGeometry":{"points":"uiqfHbkwpLEnBC~AMrEInCAj@A`DjAJVJRXJRFFJBJEBG`AXNLDb@@Zp@hDF|@@R","length":22},"rentedBike":false,"transitLeg":false,"duration":440.0,"steps":[{"distance":76.392,"relativeDirection":"DEPART","streetName":"Rue Jacques-Cartier Est","absoluteDirection":"WEST","stayOn":false,"area":false,"bogusName":false,"lon":-71.0675380239516,"lat":48.42667414840684,"elevation":[]},{"distance":208.179,"relativeDirection":"CONTINUE","streetName":"Rue Jacques-Cartier Ouest","absoluteDirection":"WEST","stayOn":false,"area":false,"bogusName":false,"lon":-71.0685709,"lat":48.426721,"elevation":[]},{"distance":103.339,"relativeDirection":"LEFT","streetName":"Rue Montcalm","absoluteDirection":"SOUTH","stayOn":false,"area":false,"bogusName":false,"lon":-71.0713817,"lat":48.426863100000006,"elevation":[]},{"distance":48.492,"relativeDirection":"SLIGHTLY_RIGHT","streetName":"path","absoluteDirection":"SOUTH","stayOn":false,"area":false,"bogusName":true,"lon":-71.0717267,"lat":48.426028200000005,"elevation":[]},{"distance":123.82499999999999,"relativeDirection":"RIGHT","streetName":"Rue Price Ouest","absoluteDirection":"WEST","stayOn":false,"area":false,"bogusName":false,"lon":-71.0719217,"lat":48.425614800000005,"elevation":[]}]}],"tooSloped":false}]},"debugOutput":{"precalculationTime":38,"pathCalculationTime":31,"pathTimes":[16,6,9],"renderingTime":0,"totalTime":69,"timedOut":false},"elevationMetadata":{"ellipsoidToGeoidDifference":-28.885904201182168,"geoidElevation":false}}