{"requestParameters":{"date":"2018/04/02","walkSpeed":"1.33","walkReluctance":"2.0","fromPlace":"48.41012,-71.064586","maxWalkDistance":"3000","waitReluctance":"1.0","carSpeed":"33","numItineraries":"3","waitAtBeginningFactor":"0.4","mode":"TRANSIT,WALK","ignoreRealtimeUpdates":"false","stairsReluctance":"2.0","toPlace":"48.412034,-71.070325","time":"18:50:00"},"plan":{"date":1522709400000,"from":{"name":"Origin","lon":-71.064586,"lat":48.41012,"orig":"","vertexType":"NORMAL"},"to":{"name":"Destination","lon":-71.070325,"lat":48.412034,"orig":"","vertexType":"NORMAL"},"itineraries":[{"duration":572,"startTime":1522709400000,"endTime":1522709972000,"walkTime":572,"transitTime":0,"waitingTime":0,"walkDistance":733.6721353349856,"walkLimitExceeded":false,"elevationLost":0.0,"elevationGained":0.0,"transfers":0,"legs":[{"startTime":1522709400000,"endTime":1522709972000,"departureDelay":0,"arrivalDelay":0,"realTime":false,"distance":733.568,"pathway":false,"mode":"WALK","route":"","agencyTimeZoneOffset":-14400000,"interlineWithPreviousLeg":false,"from":{"name":"Origin","lon":-71.064586,"lat":48.41012,"departure":1522709400000,"orig":"","vertexType":"NORMAL"},"to":{"name":"Destination","lon":-71.070325,"lat":48.412034,"arrival":1522709972000,"orig":"","vertexType":"NORMAL"},"legGeometry":{"points":"y|mfHvuvpL\\xBlAx@aDbJg@lAWl@aAxDi@pBSAMrCAXAZCfBmA?A?E@aAZkAB}@UGI","length":20},"rentedBike":false,"transitLeg":false,"duration":572.0,"steps":[{"distance":96.655,"relativeDirection":"DEPART","streetName":"Rue Belleau","absoluteDirection":"WEST","stayOn":false,"area":false,"bogusName":false,"lon":-71.06411667651045,"lat":48.40925340157842,"elevation":[]},{"distance":343.666,"relativeDirection":"RIGHT","streetName":"Rue Don Bosco","absoluteDirection":"NORTHWEST","stayOn":false,"area":false,"bogusName":false,"lon":-71.06501420000001,"lat":48.408712400000006,"elevation":[]},{"distance":10.326,"relativeDirection":"RIGHT","streetName":"Rue Bégin","absoluteDirection":"NORTH","stayOn":false,"area":false,"bogusName":false,"lon":-71.06891440000001,"lat":48.410389300000006,"elevation":[]},{"distance":113.584,"relativeDirection":"LEFT","streetName":"path","absoluteDirection":"WEST","stayOn":false,"area":false,"bogusName":true,"lon":-71.0689037,"lat":48.4104819,"elevation":[]},{"distance":169.337,"relativeDirection":"RIGHT","streetName":"Rue d'Angoulème","absoluteDirection":"NORTH","stayOn":false,"area":false,"bogusName":false,"lon":-71.0704312,"lat":48.4105992,"elevation":[]}]}],"tooSloped":false},{"duration":632,"startTime":1522710995000,"endTime":1522711627000,"walkTime":379,"transitTime":251,"waitingTime":2,"walkDistance":490.0551202991992,"walkLimitExceeded":false,"elevationLost":0.0,"elevationGained":0.0,"transfers":0,"legs":[{"startTime":1522710995000,"endTime":1522711278000,"departureDelay":0,"arrivalDelay":0,"realTime":false,"distance":364.355,"pathway":false,"mode":"WALK","route":"","agencyTimeZoneOffset":-14400000,"interlineWithPreviousLeg":false,"from":{"name":"Origin","lon":-71.064586,"lat":48.41012,"departure":1522710995000,"orig":"","vertexType":"NORMAL"},"to":{"name":"Saguenéens (no. 129)","stopId":"1:2000","stopCode":"2000","lon":-71.067064,"lat":48.407463,"arrival":1522711278000,"departure":1522711279000,"zoneId":"NA","stopIndex":16,"stopSequence":17,"vertexType":"TRANSIT"},"legGeometry":{"points":"y|mfHvuvpL\\xBlAx@lDzB^f@Qx@Uh@pBzBQ`@","length":9},"rentedBike":false,"transitLeg":false,"duration":283.0,"steps":[{"distance":96.655,"relativeDirection":"DEPART","streetName":"Rue Belleau","absoluteDirection":"WEST","stayOn":false,"area":false,"bogusName":false,"lon":-71.06411667651045,"lat":48.40925340157842,"elevation":[]},{"distance":173.83,"relativeDirection":"CONTINUE","streetName":"Rue Duhaime","absoluteDirection":"SOUTHWEST","stayOn":false,"area":false,"bogusName":false,"lon":-71.06501420000001,"lat":48.408712400000006,"elevation":[]},{"distance":77.658,"relativeDirection":"LEFT","streetName":"path","absoluteDirection":"SOUTHWEST","stayOn":false,"area":false,"bogusName":true,"lon":-71.0663385,"lat":48.4078874,"elevation":[]},{"distance":16.212,"relativeDirection":"RIGHT","streetName":"Rue des Saguenéens","absoluteDirection":"NORTHWEST","stayOn":false,"area":false,"bogusName":false,"lon":-71.0669515,"lat":48.4073198,"elevation":[]}]},{"startTime":1522711279000,"endTime":1522711530000,"departureDelay":0,"arrivalDelay":0,"realTime":false,"distance":1366.6223093550257,"pathway":false,"mode":"BUS","route":"15","agencyName":"Société de Transport du Saguenay","agencyUrl":"http://ville.saguenay.ca/fr/services-aux-citoyens/transport-sts","agencyTimeZoneOffset":-14400000,"routeColor":"FF00FF","routeType":3,"routeId":"1:15","routeTextColor":"FFFFFF","interlineWithPreviousLeg":false,"tripBlockId":"30","headsign":"Terminus Chicoutimi","agencyId":"0","tripId":"1:218112","serviceDate":"20180402","from":{"name":"Saguenéens (no. 129)","stopId":"1:2000","stopCode":"2000","lon":-71.067064,"lat":48.407463,"arrival":1522711278000,"departure":1522711279000,"zoneId":"NA","stopIndex":16,"stopSequence":17,"vertexType":"TRANSIT"},"to":{"name":"Angoulême (no. 1090)","stopId":"1:544","stopCode":"544","lon":-71.070364,"lat":48.411005,"arrival":1522711530000,"departure":1522711531000,"zoneId":"NA","stopIndex":22,"stopSequence":23,"vertexType":"TRANSIT"},"legGeometry":{"points":"eqmfHrhwpL_CfGYVQXS\\dK|HlFZbC\\p@zA\\rB@hBiArG{BNw@FiG}@iDwAECcCcBo@y@sEeGe@o@qAa@m@MoB?C@","length":25},"routeShortName":"15","routeLongName":"Term. Chic / Costco","rentedBike":false,"transitLeg":true,"duration":251.0,"steps":[]},{"startTime":1522711531000,"endTime":1522711627000,"departureDelay":0,"arrivalDelay":0,"realTime":false,"distance":125.65199999999999,"pathway":false,"mode":"WALK","route":"","agencyTimeZoneOffset":-14400000,"interlineWithPreviousLeg":false,"from":{"name":"Angoulême (no. 1090)","stopId":"1:544","stopCode":"544","lon":-71.070364,"lat":48.411005,"arrival":1522711530000,"departure":1522711531000,"zoneId":"NA","stopIndex":22,"stopSequence":23,"vertexType":"TRANSIT"},"to":{"name":"Destination","lon":-71.070325,"lat":48.412034,"arrival":1522711627000,"orig":"","vertexType":"NORMAL"},"legGeometry":{"points":"ugnfHf}wpLE@aAZkAB}@UGI","length":6},"rentedBike":false,"transitLeg":false,"duration":96.0,"steps":[{"distance":125.65199999999999,"relativeDirection":"DEPART","streetName":"Rue d'Angoulème","absoluteDirection":"NORTH","stayOn":false,"area":false,"bogusName":false,"lon":-71.07043391576913,"lat":48.410991809612725,"elevation":[]}]}],"tooSloped":false}]},"debugOutput":{"precalculationTime":46,"pathCalculationTime":22,"pathTimes":[7,9,6],"renderingTime":0,"totalTime":68,"timedOut":false},"elevationMetadata":{"ellipsoidToGeoidDifference":-28.885904201182168,"geoidElevation":false}}