{"requestParameters":{"date":"2018/04/02","walkSpeed":"1.33","walkReluctance":"2.0","fromPlace":"48.426905,-71.048929","maxWalkDistance":"3000","waitReluctance":"1.0","carSpeed":"33","numItineraries":"3","waitAtBeginningFactor":"0.4","mode":"TRANSIT,WALK","ignoreRealtimeUpdates":"false","stairsReluctance":"2.0","toPlace":"48.411471,-71.070502","time":"12:0:00"},"plan":{"date":1522684800000,"from":{"name":"Origin","lon":-71.048929,"lat":48.426905,"orig":"","vertexType":"NORMAL"},"to":{"name":"Destination","lon":-71.070502,"lat":48.411471,"orig":"","vertexType":"NORMAL"},"itineraries":[{"duration":1325,"startTime":1522685049000,"endTime":1522686374000,"walkTime":93,"transitTime":1110,"waitingTime":122,"walkDistance":120.40300000000002,"walkLimitExceeded":false,"elevationLost":0.0,"elevationGained":0.0,"transfers":1,"legs":[{"startTime":1522685049000,"endTime":1522685099000,"departureDelay":0,"arrivalDelay":0,"realTime":false,"distance":65.674,"pathway":false,"mode":"WALK","route":"","agencyTimeZoneOffset":-14400000,"interlineWithPreviousLeg":false,"from":{"name":"Origin","lon":-71.048929,"lat":48.426905,"departure":1522685049000,"orig":"","vertexType":"NORMAL"},"to":{"name":"Hôpital de Chicoutimi (Saint-Vallier)","stopId":"1:342","stopCode":"342","lon":-71.050416,"lat":48.426429,"arrival":1522685099000,"departure":1522685100000,"zoneId":"NA","stopIndex":6,"stopSequence":7,"vertexType":"TRANSIT"},"legGeometry":{"points":"wkqfHn~spLB?pBT","length":3},"rentedBike":false,"transitLeg":false,"duration":50.0,"steps":[{"distance":65.674,"relativeDirection":"DEPART","streetName":"Rue Saint-Vallier","absoluteDirection":"SOUTH","stayOn":false,"area":false,"bogusName":false,"lon":-71.05015383380092,"lat":48.4270029418696,"elevation":[]}]},{"startTime":1522685100000,"endTime":1522685820000,"departureDelay":0,"arrivalDelay":0,"realTime":false,"distance":3924.7484370952347,"pathway":false,"mode":"BUS","route":"175","agencyName":"Société de Transport du Saguenay","agencyUrl":"http://ville.saguenay.ca/fr/services-aux-citoyens/transport-sts","agencyTimeZoneOffset":-14400000,"routeColor":"FF00FF","routeType":3,"routeId":"1:175","routeTextColor":"FFFFFF","interlineWithPreviousLeg":false,"tripBlockId":"78","headsign":"Costco","agencyId":"0","tripId":"1:218643","serviceDate":"20180402","from":{"name":"Hôpital de Chicoutimi (Saint-Vallier)","stopId":"1:342","stopCode":"342","lon":-71.050416,"lat":48.426429,"arrival":1522685099000,"departure":1522685100000,"zoneId":"NA","stopIndex":6,"stopSequence":7,"vertexType":"TRANSIT"},"to":{"name":"Place du Royaume (Saguenéens)","stopId":"1:1294","stopCode":"1294","lon":-71.057691,"lat":48.402355,"arrival":1522685820000,"departure":1522685940000,"zoneId":"NA","stopIndex":20,"stopSequence":21,"vertexType":"TRANSIT"},"legGeometry":{"points":"ahqfHf_tpLxEj@iCtYp@r@z@`ABBvHtHXRx@l@VwAvAgB\\qBIuAC]g@yEzDuLbBbBvAxAMx@|@v@`A~@Xw@~D~DPxFZtA~ApE`N{LpFmEb@[ROl@[vDQXKfA[|@q@fAsBlEmMr@sBhCsKz@dAjB|@dM`GzCvAXrCr@~Gx@]PEr@ObACn@FrBb@|@Ch@Kx@U~HsB^KZ|DJpII~Fa@rFUzBi@bD","length":62},"routeShortName":"175","routeLongName":"Term. Chic / Costco","rentedBike":false,"transitLeg":true,"duration":720.0,"steps":[]},{"startTime":1522685940000,"endTime":1522686330000,"departureDelay":0,"arrivalDelay":0,"realTime":false,"distance":2272.8584773876155,"pathway":false,"mode":"BUS","route":"15","agencyName":"Société de Transport du Saguenay","agencyUrl":"http://ville.saguenay.ca/fr/services-aux-citoyens/transport-sts","agencyTimeZoneOffset":-14400000,"routeColor":"FF00FF","routeType":3,"routeId":"1:15","routeTextColor":"FFFFFF","interlineWithPreviousLeg":false,"tripBlockId":"30","headsign":"Terminus Chicoutimi","agencyId":"0","tripId":"1:218098","serviceDate":"20180402","from":{"name":"Place du Royaume (Saguenéens)","stopId":"1:1294","stopCode":"1294","lon":-71.057691,"lat":48.402355,"arrival":1522685820000,"departure":1522685940000,"zoneId":"NA","stopIndex":11,"stopSequence":12,"vertexType":"TRANSIT"},"to":{"name":"Angoulême (no. 1090)","stopId":"1:544","stopCode":"544","lon":-71.070364,"lat":48.411005,"arrival":1522686330000,"departure":1522686331000,"zoneId":"NA","stopIndex":22,"stopSequence":23,"vertexType":"TRANSIT"},"legGeometry":{"points":"eqlfHzmupLUxAm@nCcAlDeCvGmA|CUr@}@~A_@\\_DvCEZcA|@UP_@d@Yl@oBdFeCxG_CfGYVQXS\\dK|HlFZbC\\p@zA\\rB@hBiArG{BNw@FiG}@iDwAECcCcBo@y@sEeGe@o@qAa@m@MoB?C@","length":41},"routeShortName":"15","routeLongName":"Term. Chic / Costco","rentedBike":false,"transitLeg":true,"duration":390.0,"steps":[]},{"startTime":1522686331000,"endTime":1522686374000,"departureDelay":0,"arrivalDelay":0,"realTime":false,"distance":54.729,"pathway":false,"mode":"WALK","route":"","agencyTimeZoneOffset":-14400000,"interlineWithPreviousLeg":false,"from":{"name":"Angoulême (no. 1090)","stopId":"1:544","stopCode":"544","lon":-71.070364,"lat":48.411005,"arrival":1522686330000,"departure":1522686331000,"zoneId":"NA","stopIndex":22,"stopSequence":23,"vertexType":"TRANSIT"},"to":{"name":"Destination","lon":-71.070502,"lat":48.411471,"arrival":1522686374000,"orig":"","vertexType":"NORMAL"},"legGeometry":{"points":"ugnfHf}wpLE@aAZU@","length":4},"rentedBike":false,"transitLeg":false,"duration":43.0,"steps":[{"distance":54.729,"relativeDirection":"DEPART","streetName":"Rue d'Angoulème","absoluteDirection":"NORTH","stayOn":false,"area":false,"bogusName":false,"lon":-71.07043391576913,"lat":48.410991809612725,"elevation":[]}]}],"tooSloped":false},{"duration":1056,"startTime":1522685480000,"endTime":1522686536000,"walkTime":493,"transitTime":561,"waitingTime":2,"walkDistance":626.3584887187234,"walkLimitExceeded":false,"elevationLost":0.0,"elevationGained":0.0,"transfers":0,"legs":[{"startTime":1522685480000,"endTime":1522685934000,"departureDelay":0,"arrivalDelay":0,"realTime":false,"distance":575.595,"pathway":false,"mode":"WALK","route":"","agencyTimeZoneOffset":-14400000,"interlineWithPreviousLeg":false,"from":{"name":"Origin","lon":-71.048929,"lat":48.426905,"departure":1522685480000,"orig":"","vertexType":"NORMAL"},"to":{"name":"Bégin / Jacques-Cartier","stopId":"1:67","stopCode":"67","lon":-71.055431,"lat":48.425501,"arrival":1522685934000,"departure":1522685935000,"zoneId":"NA","stopIndex":4,"stopSequence":5,"vertexType":"TRANSIT"},"legGeometry":{"points":"wkqfHn~spLmAMIBCJAvEArADrF@jBxAtABB`A|@h@`@ZVz@r@p@p@`@`@b@b@KZ","length":18},"rentedBike":false,"transitLeg":false,"duration":454.0,"steps":[{"distance":49.551,"relativeDirection":"DEPART","streetName":"Rue Saint-Vallier","absoluteDirection":"NORTH","stayOn":false,"area":false,"bogusName":false,"lon":-71.05015383380092,"lat":48.4270029418696,"elevation":[]},{"distance":245.608,"relativeDirection":"LEFT","streetName":"Rue de l'Hôtel-Dieu","absoluteDirection":"WEST","stayOn":false,"area":false,"bogusName":false,"lon":-71.0501002,"lat":48.4274445,"elevation":[]},{"distance":268.39099999999996,"relativeDirection":"LEFT","streetName":"Rue Bégin","absoluteDirection":"SOUTHWEST","stayOn":false,"area":false,"bogusName":false,"lon":-71.0534231,"lat":48.4274435,"elevation":[]},{"distance":12.045,"relativeDirection":"RIGHT","streetName":"Rue Gaudreault","absoluteDirection":"NORTHWEST","stayOn":false,"area":false,"bogusName":false,"lon":-71.0553392,"lat":48.4253936,"elevation":[]}]},{"startTime":1522685935000,"endTime":1522686496000,"departureDelay":0,"arrivalDelay":0,"realTime":false,"distance":2489.419781005361,"pathway":false,"mode":"BUS","route":"15","agencyName":"Société de Transport du Saguenay","agencyUrl":"http://ville.saguenay.ca/fr/services-aux-citoyens/transport-sts","agencyTimeZoneOffset":-14400000,"routeColor":"FF00FF","routeType":3,"routeId":"1:15","routeTextColor":"FFFFFF","interlineWithPreviousLeg":false,"tripBlockId":"33","headsign":"Talbot / Barrette","agencyId":"0","tripId":"1:218183","serviceDate":"20180402","from":{"name":"Bégin / Jacques-Cartier","stopId":"1:67","stopCode":"67","lon":-71.055431,"lat":48.425501,"arrival":1522685934000,"departure":1522685935000,"zoneId":"NA","stopIndex":4,"stopSequence":5,"vertexType":"TRANSIT"},"to":{"name":"Angoulême (no. 1090)","stopId":"1:532","stopCode":"532","lon":-71.070613,"lat":48.410996,"arrival":1522686496000,"departure":1522686497000,"zoneId":"NA","stopIndex":14,"stopSequence":15,"vertexType":"TRANSIT"},"legGeometry":{"points":"_bqfHt~tpLvIpIr@r@\\mBfAaA`@gBOkB_@uF|DyL|DpDQ|@|@z@bA`ATw@dD~Ch@fA@`E~AjGuH`Iy@bBi@dCbEdEjJlJ`HbHlJpJ|J~JdAfALzDNzDrAdBrEK","length":31},"routeShortName":"15","routeLongName":"Term. Chic / Costco","rentedBike":false,"transitLeg":true,"duration":561.0,"steps":[]},{"startTime":1522686497000,"endTime":1522686536000,"departureDelay":0,"arrivalDelay":0,"realTime":false,"distance":50.668,"pathway":false,"mode":"WALK","route":"","agencyTimeZoneOffset":-14400000,"interlineWithPreviousLeg":false,"from":{"name":"Angoulême (no. 1090)","stopId":"1:532","stopCode":"532","lon":-71.070613,"lat":48.410996,"arrival":1522686496000,"departure":1522686497000,"zoneId":"NA","stopIndex":14,"stopSequence":15,"vertexType":"TRANSIT"},"to":{"name":"Destination","lon":-71.070502,"lat":48.411471,"arrival":1522686536000,"orig":"","vertexType":"NORMAL"},"legGeometry":{"points":"{gnfHh}wpLaAZU@","length":3},"rentedBike":false,"transitLeg":false,"duration":39.0,"steps":[{"distance":50.668,"relativeDirection":"DEPART","streetName":"Rue d'Angoulème","absoluteDirection":"NORTH","stayOn":false,"area":false,"bogusName":false,"lon":-71.07044896135653,"lat":48.411026947725055,"elevation":[]}]}],"tooSloped":false},{"duration":1056,"startTime":1522687280000,"endTime":1522688336000,"walkTime":493,"transitTime":561,"waitingTime":2,"walkDistance":626.3584887187234,"walkLimitExceeded":false,"elevationLost":0.0,"elevationGained":0.0,"transfers":0,"legs":[{"startTime":1522687280000,"endTime":1522687734000,"departureDelay":0,"arrivalDelay":0,"realTime":false,"distance":575.595,"pathway":false,"mode":"WALK","route":"","agencyTimeZoneOffset":-14400000,"interlineWithPreviousLeg":false,"from":{"name":"Origin","lon":-71.048929,"lat":48.426905,"departure":1522687280000,"orig":"","vertexType":"NORMAL"},"to":{"name":"Bégin / Jacques-Cartier","stopId":"1:67","stopCode":"67","lon":-71.055431,"lat":48.425501,"arrival":1522687734000,"departure":1522687735000,"zoneId":"NA","stopIndex":4,"stopSequence":5,"vertexType":"TRANSIT"},"legGeometry":{"points":"wkqfHn~spLmAMIBCJAvEArADrF@jBxAtABB`A|@h@`@ZVz@r@p@p@`@`@b@b@KZ","length":18},"rentedBike":false,"transitLeg":false,"duration":454.0,"steps":[{"distance":49.551,"relativeDirection":"DEPART","streetName":"Rue Saint-Vallier","absoluteDirection":"NORTH","stayOn":false,"area":false,"bogusName":false,"lon":-71.05015383380092,"lat":48.4270029418696,"elevation":[]},{"distance":245.608,"relativeDirection":"LEFT","streetName":"Rue de l'Hôtel-Dieu","absoluteDirection":"WEST","stayOn":false,"area":false,"bogusName":false,"lon":-71.0501002,"lat":48.4274445,"elevation":[]},{"distance":268.39099999999996,"relativeDirection":"LEFT","streetName":"Rue Bégin","absoluteDirection":"SOUTHWEST","stayOn":false,"area":false,"bogusName":false,"lon":-71.0534231,"lat":48.4274435,"elevation":[]},{"distance":12.045,"relativeDirection":"RIGHT","streetName":"Rue Gaudreault","absoluteDirection":"NORTHWEST","stayOn":false,"area":false,"bogusName":false,"lon":-71.0553392,"lat":48.4253936,"elevation":[]}]},{"startTime":1522687735000,"endTime":1522688296000,"departureDelay":0,"arrivalDelay":0,"realTime":false,"distance":2489.419781005361,"pathway":false,"mode":"BUS","route":"15","agencyName":"Société de Transport du Saguenay","agencyUrl":"http://ville.saguenay.ca/fr/services-aux-citoyens/transport-sts","agencyTimeZoneOffset":-14400000,"routeColor":"FF00FF","routeType":3,"routeId":"1:15","routeTextColor":"FFFFFF","interlineWithPreviousLeg":false,"tripBlockId":"31","headsign":"Talbot / Barrette","agencyId":"0","tripId":"1:218134","serviceDate":"20180402","from":{"name":"Bégin / Jacques-Cartier","stopId":"1:67","stopCode":"67","lon":-71.055431,"lat":48.425501,"arrival":1522687734000,"departure":1522687735000,"zoneId":"NA","stopIndex":4,"stopSequence":5,"vertexType":"TRANSIT"},"to":{"name":"Angoulême (no. 1090)","stopId":"1:532","stopCode":"532","lon":-71.070613,"lat":48.410996,"arrival":1522688296000,"departure":1522688297000,"zoneId":"NA","stopIndex":14,"stopSequence":15,"vertexType":"TRANSIT"},"legGeometry":{"points":"_bqfHt~tpLvIpIr@r@\\mBfAaA`@gBOkB_@uF|DyL|DpDQ|@|@z@bA`ATw@dD~Ch@fA@`E~AjGuH`Iy@bBi@dCbEdEjJlJ`HbHlJpJ|J~JdAfALzDNzDrAdBrEK","length":31},"routeShortName":"15","routeLongName":"Term. Chic / Costco","rentedBike":false,"transitLeg":true,"duration":561.0,"steps":[]},{"startTime":1522688297000,"endTime":1522688336000,"departureDelay":0,"arrivalDelay":0,"realTime":false,"distance":50.668,"pathway":false,"mode":"WALK","route":"","agencyTimeZoneOffset":-14400000,"interlineWithPreviousLeg":false,"from":{"name":"Angoulême (no. 1090)","stopId":"1:532","stopCode":"532","lon":-71.070613,"lat":48.410996,"arrival":1522688296000,"departure":1522688297000,"zoneId":"NA","stopIndex":14,"stopSequence":15,"vertexType":"TRANSIT"},"to":{"name":"Destination","lon":-71.070502,"lat":48.411471,"arrival":1522688336000,"orig":"","vertexType":"NORMAL"},"legGeometry":{"points":"{gnfHh}wpLaAZU@","length":3},"rentedBike":false,"transitLeg":false,"duration":39.0,"steps":[{"distance":50.668,"relativeDirection":"DEPART","streetName":"Rue d'Angoulème","absoluteDirection":"NORTH","stayOn":false,"area":false,"bogusName":false,"lon":-71.07044896135653,"lat":48.411026947725055,"elevation":[]}]}],"tooSloped":false}]},"debugOutput":{"precalculationTime":38,"pathCalculationTime":27,"pathTimes":[15,5,7],"renderingTime":1,"totalTime":66,"timedOut":false},"elevationMetadata":{"ellipsoidToGeoidDifference":-28.885904201182168,"geoidElevation":false}}