{"requestParameters":{"date":"2018/04/02","walkSpeed":"1.33","walkReluctance":"2.0","fromPlace":"48.41667,-71.061792","maxWalkDistance":"3000","waitReluctance":"1.0","carSpeed":"33","numItineraries":"3","waitAtBeginningFactor":"0.4","mode":"TRANSIT,WALK","ignoreRealtimeUpdates":"false","stairsReluctance":"2.0","toPlace":"48.430501,-71.05283599","time":"15:0:00"},"plan":{"date":1522695600000,"from":{"name":"Origin","lon":-71.061792,"lat":48.41667,"orig":"","vertexType":"NORMAL"},"to":{"name":"Destination","lon":-71.05283599,"lat":48.430501,"orig":"","vertexType":"NORMAL"},"itineraries":[{"duration":1540,"startTime":1522695600000,"endTime":1522697140000,"walkTime":1540,"transitTime":0,"waitingTime":0,"walkDistance":1968.1352781886712,"walkLimitExceeded":false,"elevationLost":0.0,"elevationGained":0.0,"transfers":0,"legs":[{"startTime":1522695600000,"endTime":1522697140000,"departureDelay":0,"arrivalDelay":0,"realTime":false,"distance":1967.9239999999998,"pathway":false,"mode":"WALK","route":"","agencyTimeZoneOffset":-14400000,"interlineWithPreviousLeg":false,"from":{"name":"Origin","lon":-71.061792,"lat":48.41667,"departure":1522695600000,"orig":"","vertexType":"NORMAL"},"to":{"name":"Destination","lon":-71.05283599,"lat":48.430501,"arrival":1522697140000,"orig":"","vertexType":"NORMAL"},"legGeometry":{"points":"}iofHtdvpLoByB[_@_AeAMO_@mBg@f@g@Zy@Zy@fAGp@?h@D`CI\\Qh@iCgCcBaBQSSScAeAg@i@KMYYSQ{B{BcAeAKIeAkAWYiAgAaAcASOWWIIKIEEYWqBmB_Ay@i@s@]SMSe@s@[]c@c@a@a@q@q@{@s@[Wi@a@aA}@CCyAuAKCe@BwBJkAFEo@{C\\gBZE@]HC?EBGg@EsA@c@","length":67},"rentedBike":false,"transitLeg":false,"duration":1540.0,"steps":[{"distance":435.467,"relativeDirection":"DEPART","streetName":"bike path","absoluteDirection":"NORTHEAST","stayOn":false,"area":false,"bogusName":false,"lon":-71.06138436976929,"lat":48.416473226955,"elevation":[]},{"distance":1281.8949999999998,"relativeDirection":"RIGHT","streetName":"Rue Bégin","absoluteDirection":"NORTHEAST","stayOn":false,"area":false,"bogusName":false,"lon":-71.0619441,"lat":48.418857200000005,"elevation":[]},{"distance":18.475,"relativeDirection":"RIGHT","streetName":"Rue Racine Est","absoluteDirection":"EAST","stayOn":false,"area":false,"bogusName":false,"lon":-71.0535297,"lat":48.4286752,"elevation":[]},{"distance":166.23600000000002,"relativeDirection":"LEFT","streetName":"Rue Salaberry","absoluteDirection":"NORTH","stayOn":false,"area":false,"bogusName":false,"lon":-71.0532845,"lat":48.428708900000004,"elevation":[]},{"distance":6.262,"relativeDirection":"CONTINUE","streetName":"path","absoluteDirection":"NORTH","stayOn":false,"area":false,"bogusName":true,"lon":-71.053634,"lat":48.430185,"elevation":[]},{"distance":59.589,"relativeDirection":"RIGHT","streetName":"bike path","absoluteDirection":"EAST","stayOn":false,"area":false,"bogusName":false,"lon":-71.0536536,"lat":48.4302398,"elevation":[]}]}],"tooSloped":false},{"duration":1180,"startTime":1522695964000,"endTime":1522697144000,"walkTime":1036,"transitTime":142,"waitingTime":2,"walkDistance":1302.2703082618573,"walkLimitExceeded":false,"elevationLost":0.0,"elevationGained":0.0,"transfers":0,"legs":[{"startTime":1522695964000,"endTime":1522696181000,"departureDelay":0,"arrivalDelay":0,"realTime":false,"distance":282.58299999999997,"pathway":false,"mode":"WALK","route":"","agencyTimeZoneOffset":-14400000,"interlineWithPreviousLeg":false,"from":{"name":"Origin","lon":-71.061792,"lat":48.41667,"departure":1522695964000,"orig":"","vertexType":"NORMAL"},"to":{"name":"Champs-Élysées / Bégin","stopId":"1:587","stopCode":"587","lon":-71.064119,"lat":48.41589,"arrival":1522696181000,"departure":1522696182000,"zoneId":"NA","stopIndex":32,"stopSequence":33,"vertexType":"TRANSIT"},"legGeometry":{"points":"}iofHtdvpL`FvFcA|FOh@GP","length":5},"rentedBike":false,"transitLeg":false,"duration":217.0,"steps":[{"distance":155.387,"relativeDirection":"DEPART","streetName":"bike path","absoluteDirection":"SOUTHWEST","stayOn":false,"area":false,"bogusName":false,"lon":-71.06138436976929,"lat":48.416473226955,"elevation":[]},{"distance":127.196,"relativeDirection":"RIGHT","streetName":"Rue des Champs-Élysées","absoluteDirection":"WEST","stayOn":false,"area":false,"bogusName":false,"lon":-71.0626228,"lat":48.4153431,"elevation":[]}]},{"startTime":1522696182000,"endTime":1522696324000,"departureDelay":0,"arrivalDelay":0,"realTime":false,"distance":1062.1463183493597,"pathway":false,"mode":"BUS","route":"12","agencyName":"Société de Transport du Saguenay","agencyUrl":"http://ville.saguenay.ca/fr/services-aux-citoyens/transport-sts","agencyTimeZoneOffset":-14400000,"routeColor":"556B2F","routeType":3,"routeId":"1:12","routeTextColor":"FFFFFF","interlineWithPreviousLeg":false,"tripBlockId":"27","headsign":"Terminus UQAC","agencyId":"0","tripId":"1:218016","serviceDate":"20180402","from":{"name":"Champs-Élysées / Bégin","stopId":"1:587","stopCode":"587","lon":-71.064119,"lat":48.41589,"arrival":1522696181000,"departure":1522696182000,"zoneId":"NA","stopIndex":32,"stopSequence":33,"vertexType":"TRANSIT"},"to":{"name":"Cégep de Chicoutimi (voie réservée)","stopId":"1:75","stopCode":"75","lon":-71.055283,"lat":48.422761,"arrival":1522696324000,"departure":1522696325000,"zoneId":"NA","stopIndex":37,"stopSequence":38,"vertexType":"TRANSIT"},"legGeometry":{"points":"ifofHvuvpLuCYmIeIeJ_J{J{JwCiT","length":6},"routeShortName":"12","routeLongName":"Rivière du Moulin","rentedBike":false,"transitLeg":true,"duration":142.0,"steps":[]},{"startTime":1522696325000,"endTime":1522697144000,"departureDelay":0,"arrivalDelay":0,"realTime":false,"distance":1019.414,"pathway":false,"mode":"WALK","route":"","agencyTimeZoneOffset":-14400000,"interlineWithPreviousLeg":false,"from":{"name":"Cégep de Chicoutimi (voie réservée)","stopId":"1:75","stopCode":"75","lon":-71.055283,"lat":48.422761,"arrival":1522696324000,"departure":1522696325000,"zoneId":"NA","stopIndex":37,"stopSequence":38,"vertexType":"TRANSIT"},"to":{"name":"Destination","lon":-71.05283599,"lat":48.430501,"arrival":1522697144000,"orig":"","vertexType":"NORMAL"},"legGeometry":{"points":"mqpfHr~tpLGi@M@[DK@S?UCGAUGGCSIECOGwBKMAY`@_@hAa@jB]SMSe@s@[]c@c@a@a@q@q@{@s@[Wi@a@aA}@CCyAuAKCe@BwBJkAFEo@{C\\gBZE@]HC?EBGg@EsA@c@","length":45},"rentedBike":false,"transitLeg":false,"duration":819.0,"steps":[{"distance":16.607,"relativeDirection":"DEPART","streetName":"Chemin Saint Thomas","absoluteDirection":"EAST","stayOn":false,"area":false,"bogusName":false,"lon":-71.05529730066766,"lat":48.42279572871795,"elevation":[]},{"distance":167.118,"relativeDirection":"LEFT","streetName":"service road","absoluteDirection":"NORTH","stayOn":false,"area":false,"bogusName":true,"lon":-71.0550802,"lat":48.4228351,"elevation":[]},{"distance":103.541,"relativeDirection":"CONTINUE","streetName":"Rue Price Est","absoluteDirection":"NORTH","stayOn":false,"area":false,"bogusName":false,"lon":-71.0548701,"lat":48.424313700000006,"elevation":[]},{"distance":481.58599999999996,"relativeDirection":"RIGHT","streetName":"Rue Bégin","absoluteDirection":"NORTHEAST","stayOn":false,"area":false,"bogusName":false,"lon":-71.0559435,"lat":48.424848700000005,"elevation":[]},{"distance":18.475,"relativeDirection":"RIGHT","streetName":"Rue Racine Est","absoluteDirection":"EAST","stayOn":false,"area":false,"bogusName":false,"lon":-71.0535297,"lat":48.4286752,"elevation":[]},{"distance":166.23600000000002,"relativeDirection":"LEFT","streetName":"Rue Salaberry","absoluteDirection":"NORTH","stayOn":false,"area":false,"bogusName":false,"lon":-71.0532845,"lat":48.428708900000004,"elevation":[]},{"distance":6.262,"relativeDirection":"CONTINUE","streetName":"path","absoluteDirection":"NORTH","stayOn":false,"area":false,"bogusName":true,"lon":-71.053634,"lat":48.430185,"elevation":[]},{"distance":59.589,"relativeDirection":"RIGHT","streetName":"bike path","absoluteDirection":"EAST","stayOn":false,"area":false,"bogusName":false,"lon":-71.0536536,"lat":48.4302398,"elevation":[]}]}],"tooSloped":false},{"duration":1751,"startTime":1522696334000,"endTime":1522698085000,"walkTime":349,"transitTime":1400,"waitingTime":2,"walkDistance":455.70772180326185,"walkLimitExceeded":false,"elevationLost":0.0,"elevationGained":0.0,"transfers":0,"legs":[{"startTime":1522696334000,"endTime":1522696542000,"departureDelay":0,"arrivalDelay":0,"realTime":false,"distance":270.257,"pathway":false,"mode":"WALK","route":"","agencyTimeZoneOffset":-14400000,"interlineWithPreviousLeg":false,"from":{"name":"Origin","lon":-71.061792,"lat":48.41667,"departure":1522696334000,"orig":"","vertexType":"NORMAL"},"to":{"name":"CEA Laure-Conan (Champs-Élysées)","stopId":"1:567","stopCode":"567","lon":-71.0614,"lat":48.4147,"arrival":1522696542000,"departure":1522696543000,"zoneId":"NA","stopIndex":8,"stopSequence":9,"vertexType":"TRANSIT"},"legGeometry":{"points":"}iofHtdvpL`FvFnAoDd@qA","length":4},"rentedBike":false,"transitLeg":false,"duration":208.0,"steps":[{"distance":155.387,"relativeDirection":"DEPART","streetName":"bike path","absoluteDirection":"SOUTHWEST","stayOn":false,"area":false,"bogusName":false,"lon":-71.06138436976929,"lat":48.416473226955,"elevation":[]},{"distance":114.87,"relativeDirection":"LEFT","streetName":"Rue des Champs-Élysées","absoluteDirection":"SOUTHEAST","stayOn":false,"area":false,"bogusName":false,"lon":-71.0626228,"lat":48.4153431,"elevation":[]}]},{"startTime":1522696543000,"endTime":1522697943000,"departureDelay":0,"arrivalDelay":0,"realTime":false,"distance":8531.858830518997,"pathway":false,"mode":"BUS","route":"12","agencyName":"Société de Transport du Saguenay","agencyUrl":"http://ville.saguenay.ca/fr/services-aux-citoyens/transport-sts","agencyTimeZoneOffset":-14400000,"routeColor":"556B2F","routeType":3,"routeId":"1:12","routeTextColor":"FFFFFF","interlineWithPreviousLeg":false,"tripBlockId":"26","headsign":"Terminus Chicoutimi","agencyId":"0","tripId":"1:217981","serviceDate":"20180402","from":{"name":"CEA Laure-Conan (Champs-Élysées)","stopId":"1:567","stopCode":"567","lon":-71.0614,"lat":48.4147,"arrival":1522696542000,"departure":1522696543000,"zoneId":"NA","stopIndex":8,"stopSequence":9,"vertexType":"TRANSIT"},"to":{"name":"Réserve Navale (boul. Saguenay)","stopId":"1:1584","stopCode":"1584","lon":-71.055268,"lat":48.429877,"arrival":1522697943000,"departure":1522697944000,"zoneId":"NA","stopIndex":31,"stopSequence":32,"vertexType":"TRANSIT"},"legGeometry":{"points":"{~nfHxdvpLbAqDtBeCjFm@`Gs@hFo@xAmBrGcPxFoNlCyGa@yFYkD}CyA}KmFgD_BgAgBn@kFD_NoIgrAmD_WcAaLaDHoDJi`@wVoAbDbA|AnBU|B|AfBlAyLtKoGxFcFqDkJaHgEoDmDwC_TqQsBeB{HjWfAvAfM|O|FlHmB`IgA|Cy@`UYzHZvMR~Hr@~ZPvHsCrMFxf@|ApJ","length":52},"routeShortName":"12","routeLongName":"Rivière du Moulin","rentedBike":false,"transitLeg":true,"duration":1400.0,"steps":[]},{"startTime":1522697944000,"endTime":1522698085000,"departureDelay":0,"arrivalDelay":0,"realTime":false,"distance":185.41199999999998,"pathway":false,"mode":"WALK","route":"","agencyTimeZoneOffset":-14400000,"interlineWithPreviousLeg":false,"from":{"name":"Réserve Navale (boul. Saguenay)","stopId":"1:1584","stopCode":"1584","lon":-71.055268,"lat":48.429877,"arrival":1522697943000,"departure":1522697944000,"zoneId":"NA","stopIndex":31,"stopSequence":32,"vertexType":"TRANSIT"},"to":{"name":"Destination","lon":-71.05283599,"lat":48.430501,"arrival":1522698085000,"orig":"","vertexType":"NORMAL"},"legGeometry":{"points":"m}qfHf~tpLq@uCKs@QqBGg@EsA@c@","length":7},"rentedBike":false,"transitLeg":false,"duration":141.0,"steps":[{"distance":185.41199999999998,"relativeDirection":"DEPART","streetName":"bike path","absoluteDirection":"NORTHEAST","stayOn":false,"area":false,"bogusName":true,"lon":-71.05523882769663,"lat":48.429837229061626,"elevation":[]}]}],"tooSloped":false}]},"debugOutput":{"precalculationTime":37,"pathCalculationTime":43,"pathTimes":[22,11,10],"renderingTime":1,"totalTime":81,"timedOut":false},"elevationMetadata":{"ellipsoidToGeoidDifference":-28.885904201182168,"geoidElevation":false}}