{"requestParameters":{"date":"2018/04/02","walkSpeed":"1.33","walkReluctance":"2.0","fromPlace":"48.424541,-71.075551","maxWalkDistance":"3000","waitReluctance":"1.0","carSpeed":"33","numItineraries":"3","waitAtBeginningFactor":"0.4","mode":"TRANSIT,WALK","ignoreRealtimeUpdates":"false","stairsReluctance":"2.0","toPlace":"48.415164,-71.051562","time":"9:15:00"},"plan":{"date":1522674900000,"from":{"name":"Origin","lon":-71.075551,"lat":48.424541,"orig":"","vertexType":"NORMAL"},"to":{"name":"Destination","lon":-71.051562,"lat":48.415164,"orig":"","vertexType":"NORMAL"},"itineraries":[{"duration":1495,"startTime":1522675103000,"endTime":1522676598000,"walkTime":1179,"transitTime":314,"waitingTime":2,"walkDistance":1488.9108345756943,"walkLimitExceeded":false,"elevationLost":0.0,"elevationGained":0.0,"transfers":0,"legs":[{"startTime":1522675103000,"endTime":1522675545000,"departureDelay":0,"arrivalDelay":0,"realTime":false,"distance":546.977,"pathway":false,"mode":"WALK","route":"","agencyTimeZoneOffset":-14400000,"interlineWithPreviousLeg":false,"from":{"name":"Origin","lon":-71.075551,"lat":48.424541,"departure":1522675103000,"orig":"","vertexType":"NORMAL"},"to":{"name":"Audet / boul. Université","stopId":"1:553","stopCode":"553","lon":-71.072005,"lat":48.421488,"arrival":1522675545000,"departure":1522675546000,"zoneId":"NA","stopIndex":28,"stopSequence":29,"vertexType":"TRANSIT"},"legGeometry":{"points":"m|pfHf}xpL?ODaCCKPYzCCZ?x@\\Nw@Hm@BM?k@FoAbBJJu@d@a@JIH]PVx@eCVcAf@B","length":22},"rentedBike":false,"transitLeg":false,"duration":442.0,"steps":[{"distance":59.045,"relativeDirection":"DEPART","streetName":"bike path","absoluteDirection":"EAST","stayOn":false,"area":false,"bogusName":false,"lon":-71.07555046238053,"lat":48.42455995503364,"elevation":[]},{"distance":13.901,"relativeDirection":"RIGHT","streetName":"path","absoluteDirection":"SOUTHEAST","stayOn":false,"area":false,"bogusName":true,"lon":-71.0747626,"lat":48.424545900000005,"elevation":[]},{"distance":136.315,"relativeDirection":"RIGHT","streetName":"Rue Sainte-Marthe","absoluteDirection":"SOUTH","stayOn":false,"area":false,"bogusName":false,"lon":-71.0746309,"lat":48.424456500000005,"elevation":[]},{"distance":91.933,"relativeDirection":"LEFT","streetName":"Rue Gilbert","absoluteDirection":"SOUTHEAST","stayOn":false,"area":false,"bogusName":false,"lon":-71.0747607,"lat":48.4232457,"elevation":[]},{"distance":76.89,"relativeDirection":"RIGHT","streetName":"Rue Delage","absoluteDirection":"SOUTH","stayOn":false,"area":false,"bogusName":false,"lon":-71.0735622,"lat":48.423054300000004,"elevation":[]},{"distance":32.267,"relativeDirection":"RIGHT","streetName":"path","absoluteDirection":"SOUTHEAST","stayOn":false,"area":false,"bogusName":true,"lon":-71.07335160000001,"lat":48.4224996,"elevation":[]},{"distance":113.507,"relativeDirection":"SLIGHTLY_LEFT","streetName":"Boulevard de l'Université","absoluteDirection":"SOUTHEAST","stayOn":false,"area":false,"bogusName":false,"lon":-71.0731375,"lat":48.4222466,"elevation":[]},{"distance":23.119,"relativeDirection":"RIGHT","streetName":"Rue Audet","absoluteDirection":"SOUTH","stayOn":false,"area":false,"bogusName":false,"lon":-71.07209830000001,"lat":48.421699100000005,"elevation":[]}]},{"startTime":1522675546000,"endTime":1522675860000,"departureDelay":0,"arrivalDelay":0,"realTime":false,"distance":1376.7732976059647,"pathway":false,"mode":"BUS","route":"14","agencyName":"Société de Transport du Saguenay","agencyUrl":"http://ville.saguenay.ca/fr/services-aux-citoyens/transport-sts","agencyTimeZoneOffset":-14400000,"routeColor":"C0C000","routeType":3,"routeId":"1:14","routeTextColor":"000000","interlineWithPreviousLeg":false,"tripBlockId":"31","headsign":"Terminus Chicoutimi","agencyId":"0","tripId":"1:218127","serviceDate":"20180402","from":{"name":"Audet / boul. Université","stopId":"1:553","stopCode":"553","lon":-71.072005,"lat":48.421488,"arrival":1522675545000,"departure":1522675546000,"zoneId":"NA","stopIndex":28,"stopSequence":29,"vertexType":"TRANSIT"},"to":{"name":"Terminus UQAC","stopId":"1:1670","stopCode":"1670","lon":-71.053369,"lat":48.420903,"arrival":1522675860000,"departure":1522675861000,"zoneId":"NA","stopIndex":29,"stopSequence":30,"vertexType":"TRANSIT"},"legGeometry":{"points":"iipfHxgxpLg@CPcALuCx@{b@t@{[XoDd@sBl@iB~@gA`G{F{A{D_@sBFqDOq@iG{F","length":16},"routeShortName":"14","routeLongName":"Coopérative","rentedBike":false,"transitLeg":true,"duration":314.0,"steps":[]},{"startTime":1522675861000,"endTime":1522676598000,"departureDelay":0,"arrivalDelay":0,"realTime":false,"distance":941.6000000000003,"pathway":false,"mode":"WALK","route":"","agencyTimeZoneOffset":-14400000,"interlineWithPreviousLeg":false,"from":{"name":"Terminus UQAC","stopId":"1:1670","stopCode":"1670","lon":-71.053369,"lat":48.420903,"arrival":1522675860000,"departure":1522675861000,"zoneId":"NA","stopIndex":29,"stopSequence":30,"vertexType":"TRANSIT"},"to":{"name":"Destination","lon":-71.051562,"lat":48.415164,"arrival":1522676598000,"orig":"","vertexType":"NORMAL"},"legGeometry":{"points":"sepfHrrtpLbA`ATq@f@wAd@wATs@X{@p@YTI`AbAxAxAh@j@JYpAmDVu@z@iCpCiI~JbJ","length":18},"rentedBike":false,"transitLeg":false,"duration":737.0,"steps":[{"distance":236.573,"relativeDirection":"DEPART","streetName":"service road","absoluteDirection":"SOUTHWEST","stayOn":false,"area":false,"bogusName":true,"lon":-71.0533724395415,"lat":48.420904465432976,"elevation":[]},{"distance":133.06900000000002,"relativeDirection":"RIGHT","streetName":"Rue de la Fondation","absoluteDirection":"SOUTHWEST","stayOn":false,"area":false,"bogusName":false,"lon":-71.0518321,"lat":48.419468900000005,"elevation":[]},{"distance":321.801,"relativeDirection":"LEFT","streetName":"Rue Chabanel","absoluteDirection":"SOUTHEAST","stayOn":false,"area":false,"bogusName":false,"lon":-71.05284470000001,"lat":48.4184787,"elevation":[]},{"distance":250.157,"relativeDirection":"RIGHT","streetName":"Rue d'Alma","absoluteDirection":"SOUTHWEST","stayOn":false,"area":false,"bogusName":false,"lon":-71.0492358,"lat":48.41685510000001,"elevation":[]}]}],"tooSloped":false},{"duration":1638,"startTime":1522676138000,"endTime":1522677776000,"walkTime":411,"transitTime":985,"waitingTime":242,"walkDistance":526.1199172894605,"walkLimitExceeded":false,"elevationLost":0.0,"elevationGained":0.0,"transfers":1,"legs":[{"startTime":1522676138000,"endTime":1522676198000,"departureDelay":0,"arrivalDelay":0,"realTime":false,"distance":68.768,"pathway":false,"mode":"WALK","route":"","agencyTimeZoneOffset":-14400000,"interlineWithPreviousLeg":false,"from":{"name":"Origin","lon":-71.075551,"lat":48.424541,"departure":1522676138000,"orig":"","vertexType":"NORMAL"},"to":{"name":"Bossé / Sainte-Marthe","stopId":"1:1577","stopCode":"1577","lon":-71.074827,"lat":48.424374,"arrival":1522676198000,"departure":1522676199000,"zoneId":"NA","stopIndex":26,"stopSequence":27,"vertexType":"TRANSIT"},"legGeometry":{"points":"m|pfHf}xpLAHJ?F}C","length":4},"rentedBike":false,"transitLeg":false,"duration":60.0,"steps":[{"distance":3.81,"relativeDirection":"DEPART","streetName":"bike path","absoluteDirection":"WEST","stayOn":false,"area":false,"bogusName":false,"lon":-71.07555046238053,"lat":48.42455995503364,"elevation":[]},{"distance":6.58,"relativeDirection":"LEFT","streetName":"path","absoluteDirection":"SOUTH","stayOn":false,"area":false,"bogusName":true,"lon":-71.0756021,"lat":48.4245606,"elevation":[]},{"distance":58.378,"relativeDirection":"LEFT","streetName":"Rue Bossé","absoluteDirection":"EAST","stayOn":false,"area":false,"bogusName":false,"lon":-71.07560670000001,"lat":48.424501500000005,"elevation":[]}]},{"startTime":1522676199000,"endTime":1522676460000,"departureDelay":0,"arrivalDelay":0,"realTime":false,"distance":967.6979458137391,"pathway":false,"mode":"BUS","route":"11","agencyName":"Société de Transport du Saguenay","agencyUrl":"http://ville.saguenay.ca/fr/services-aux-citoyens/transport-sts","agencyTimeZoneOffset":-14400000,"routeColor":"FF0000","routeType":3,"routeId":"1:11","routeTextColor":"FFFFFF","interlineWithPreviousLeg":false,"tripBlockId":"34","headsign":"Terminus Chicoutimi","agencyId":"0","tripId":"1:218212","serviceDate":"20180402","from":{"name":"Bossé / Sainte-Marthe","stopId":"1:1577","stopCode":"1577","lon":-71.074827,"lat":48.424374,"arrival":1522676198000,"departure":1522676199000,"zoneId":"NA","stopIndex":26,"stopSequence":27,"vertexType":"TRANSIT"},"to":{"name":"Terminus Chicoutimi","stopId":"1:1289","stopCode":"1289","lon":-71.066163,"lat":48.428677,"arrival":1522676460000,"departure":1522676700000,"zoneId":"NA","stopIndex":30,"stopSequence":31,"vertexType":"TRANSIT"},"legGeometry":{"points":"u{pfHtxxpLVsLDaCD_@kBKW?e@Q_BQNuEDuBXmNLgHmKm@}BW{AMCn@o@G??","length":18},"routeShortName":"11","routeLongName":"Chic/Faubourg via St-Paul","rentedBike":false,"transitLeg":true,"duration":261.0,"steps":[]},{"startTime":1522676700000,"endTime":1522677424000,"departureDelay":0,"arrivalDelay":0,"realTime":false,"distance":3204.2409399708185,"pathway":false,"mode":"BUS","route":"175","agencyName":"Société de Transport du Saguenay","agencyUrl":"http://ville.saguenay.ca/fr/services-aux-citoyens/transport-sts","agencyTimeZoneOffset":-14400000,"routeColor":"FF00FF","routeType":3,"routeId":"1:175","routeTextColor":"FFFFFF","interlineWithPreviousLeg":false,"tripBlockId":"6","headsign":"Costco","agencyId":"0","tripId":"1:217291","serviceDate":"20180402","from":{"name":"Terminus Chicoutimi","stopId":"1:1289","stopCode":"1289","lon":-71.066163,"lat":48.428677,"arrival":1522676460000,"departure":1522676700000,"zoneId":"NA","stopIndex":0,"stopSequence":1,"vertexType":"TRANSIT"},"to":{"name":"boul. Université / Thérèse Casgrain","stopId":"1:83","stopCode":"83","lon":-71.053451,"lat":48.413578,"arrival":1522677424000,"departure":1522677425000,"zoneId":"NA","stopIndex":13,"stopSequence":14,"vertexType":"TRANSIT"},"legGeometry":{"points":"kvqfH~awpL~CgBbAqa@FwCBkAOsHAg@bAYUwMKoE@mB@kJ@iFbEf@xEj@iCtYp@r@z@`ABBvHtHXRx@l@VwAvAgB\\qBIuAC]g@yEzDuLbBbBvAxAMx@|@v@`A~@Xw@~D~DPxFZtA~ApE`N{LpFmEb@[ROl@[vDQXK","length":46},"routeShortName":"175","routeLongName":"Term. Chic / Costco","rentedBike":false,"transitLeg":true,"duration":724.0,"steps":[]},{"startTime":1522677425000,"endTime":1522677776000,"departureDelay":0,"arrivalDelay":0,"realTime":false,"distance":457.235,"pathway":false,"mode":"WALK","route":"","agencyTimeZoneOffset":-14400000,"interlineWithPreviousLeg":false,"from":{"name":"boul. Université / Thérèse Casgrain","stopId":"1:83","stopCode":"83","lon":-71.053451,"lat":48.413578,"arrival":1522677424000,"departure":1522677425000,"zoneId":"NA","stopIndex":13,"stopSequence":14,"vertexType":"TRANSIT"},"to":{"name":"Destination","lon":-71.051562,"lat":48.415164,"arrival":1522677776000,"orig":"","vertexType":"NORMAL"},"legGeometry":{"points":"{wnfHprtpL~@WfAaAp@mAL[Nc@YWIG{AuA[C{@\\u@ZY@UQy@u@KKaB{A","length":17},"rentedBike":false,"transitLeg":false,"duration":351.0,"steps":[{"distance":152.381,"relativeDirection":"DEPART","streetName":"Boulevard de l'Université","absoluteDirection":"SOUTH","stayOn":false,"area":false,"bogusName":false,"lon":-71.053365,"lat":48.413586,"elevation":[]},{"distance":304.85400000000004,"relativeDirection":"LEFT","streetName":"Rue d'Alma","absoluteDirection":"NORTHEAST","stayOn":false,"area":false,"bogusName":false,"lon":-71.0522085,"lat":48.412505100000004,"elevation":[]}]}],"tooSloped":false},{"duration":1923,"startTime":1522676080000,"endTime":1522678003000,"walkTime":372,"transitTime":1309,"waitingTime":242,"walkDistance":472.53115037238564,"walkLimitExceeded":false,"elevationLost":0.0,"elevationGained":0.0,"transfers":1,"legs":[{"startTime":1522676080000,"endTime":1522676257000,"departureDelay":0,"arrivalDelay":0,"realTime":false,"distance":217.872,"pathway":false,"mode":"WALK","route":"","agencyTimeZoneOffset":-14400000,"interlineWithPreviousLeg":false,"from":{"name":"Origin","lon":-71.075551,"lat":48.424541,"departure":1522676080000,"orig":"","vertexType":"NORMAL"},"to":{"name":"Price / Sainte-Marthe","stopId":"1:628","stopCode":"628","lon":-71.073911,"lat":48.425195,"arrival":1522676257000,"departure":1522676258000,"zoneId":"NA","stopIndex":32,"stopSequence":33,"vertexType":"TRANSIT"},"legGeometry":{"points":"m|pfHf}xpL?ODaCCKPYeCSs@UFk@Fi@@S","length":10},"rentedBike":false,"transitLeg":false,"duration":177.0,"steps":[{"distance":59.045,"relativeDirection":"DEPART","streetName":"bike path","absoluteDirection":"EAST","stayOn":false,"area":false,"bogusName":false,"lon":-71.07555046238053,"lat":48.42455995503364,"elevation":[]},{"distance":13.901,"relativeDirection":"RIGHT","streetName":"path","absoluteDirection":"SOUTHEAST","stayOn":false,"area":false,"bogusName":true,"lon":-71.0747626,"lat":48.424545900000005,"elevation":[]},{"distance":104.41,"relativeDirection":"HARD_LEFT","streetName":"Rue Sainte-Marthe","absoluteDirection":"NORTH","stayOn":false,"area":false,"bogusName":false,"lon":-71.0746309,"lat":48.424456500000005,"elevation":[]},{"distance":40.516000000000005,"relativeDirection":"RIGHT","streetName":"Rue Price Ouest","absoluteDirection":"EAST","stayOn":false,"area":false,"bogusName":false,"lon":-71.07442610000001,"lat":48.425381900000005,"elevation":[]}]},{"startTime":1522676258000,"endTime":1522676460000,"departureDelay":0,"arrivalDelay":0,"realTime":false,"distance":737.3644338023462,"pathway":false,"mode":"BUS","route":"16","agencyName":"Société de Transport du Saguenay","agencyUrl":"http://ville.saguenay.ca/fr/services-aux-citoyens/transport-sts","agencyTimeZoneOffset":-14400000,"routeColor":"00FF00","routeType":3,"routeId":"1:16","routeTextColor":"000000","interlineWithPreviousLeg":false,"tripBlockId":"35","headsign":"Terminus Chicoutimi","agencyId":"0","tripId":"1:218247","serviceDate":"20180402","from":{"name":"Price / Sainte-Marthe","stopId":"1:628","stopCode":"628","lon":-71.073911,"lat":48.425195,"arrival":1522676257000,"departure":1522676258000,"zoneId":"NA","stopIndex":32,"stopSequence":33,"vertexType":"TRANSIT"},"to":{"name":"Terminus Chicoutimi","stopId":"1:1289","stopCode":"1289","lon":-71.066163,"lat":48.428677,"arrival":1522676460000,"departure":1522676700000,"zoneId":"NA","stopIndex":35,"stopSequence":36,"vertexType":"TRANSIT"},"legGeometry":{"points":"{`qfHxrxpL@IBcAG_A{@sEEg@oAP}@DiBDFeBMa@iBCq@FmBPFcEDoBNiHyDWN_HBoA@Y@m@","length":22},"routeShortName":"16","routeLongName":"Côte de la Réserve","rentedBike":false,"transitLeg":true,"duration":202.0,"steps":[]},{"startTime":1522676700000,"endTime":1522677807000,"departureDelay":0,"arrivalDelay":0,"realTime":false,"distance":5393.074714381264,"pathway":false,"mode":"BUS","route":"10","agencyName":"Société de Transport du Saguenay","agencyUrl":"http://ville.saguenay.ca/fr/services-aux-citoyens/transport-sts","agencyTimeZoneOffset":-14400000,"routeColor":"0000FF","routeType":3,"routeId":"1:10","routeTextColor":"FFFFFF","interlineWithPreviousLeg":false,"tripBlockId":"26","headsign":"Terminus UQAC","agencyId":"0","tripId":"1:217970","serviceDate":"20180402","from":{"name":"Terminus Chicoutimi","stopId":"1:1289","stopCode":"1289","lon":-71.066163,"lat":48.428677,"arrival":1522676460000,"departure":1522676700000,"zoneId":"NA","stopIndex":0,"stopSequence":1,"vertexType":"TRANSIT"},"to":{"name":"Clinique St-George (St-Thomas)","stopId":"1:359","stopCode":"359","lon":-71.04918,"lat":48.416897,"arrival":1522677807000,"departure":1522677808000,"zoneId":"NA","stopIndex":22,"stopSequence":23,"vertexType":"TRANSIT"},"legGeometry":{"points":"svqfHnbwpLDmCdDZ\\kO`@mQBuCD}DQ_ECk@^Cd@QWkL?m@IuF@gA?eH?cAEuEDO^AjD`@B@rEf@T_FjBXpDd@hCObDaCfCaHbFqN`CwG_J_CwMiDGe@T}C\\yELaCJeAJcAXw@Fk@M_@xBwVr@^LJ|@z@HdAlBbD`Av@b@\\v@d@`@BpBAzAXl@t@XZt@lCl@tAnBpB~@~@lDjDr@r@zDrDnAlAjBrBl@pBPlBCj@KrAAHSpAe@jB_A|Bz@xAvA~BvB|BdN|Nc@bAuA~C}VeWaEpL","length":81},"routeShortName":"10","routeLongName":"Notre-Dame du Saguenay","rentedBike":false,"transitLeg":true,"duration":1107.0,"steps":[]},{"startTime":1522677808000,"endTime":1522678003000,"departureDelay":0,"arrivalDelay":0,"realTime":false,"distance":254.549,"pathway":false,"mode":"WALK","route":"","agencyTimeZoneOffset":-14400000,"interlineWithPreviousLeg":false,"from":{"name":"Clinique St-George (St-Thomas)","stopId":"1:359","stopCode":"359","lon":-71.04918,"lat":48.416897,"arrival":1522677807000,"departure":1522677808000,"zoneId":"NA","stopIndex":22,"stopSequence":23,"vertexType":"TRANSIT"},"to":{"name":"Destination","lon":-71.051562,"lat":48.415164,"arrival":1522678003000,"orig":"","vertexType":"NORMAL"},"legGeometry":{"points":"qlofHvxspLF?~JbJ","length":3},"rentedBike":false,"transitLeg":false,"duration":195.0,"steps":[{"distance":254.549,"relativeDirection":"DEPART","streetName":"Rue d'Alma","absoluteDirection":"SOUTH","stayOn":false,"area":false,"bogusName":false,"lon":-71.0492395039753,"lat":48.41689453822877,"elevation":[]}]}],"tooSloped":false}]},"debugOutput":{"precalculationTime":38,"pathCalculationTime":37,"pathTimes":[16,9,12],"renderingTime":0,"totalTime":75,"timedOut":false},"elevationMetadata":{"ellipsoidToGeoidDifference":-28.885904201182168,"geoidElevation":false}}