{"requestParameters":{"date":"2018/04/02","walkSpeed":"1.33","walkReluctance":"2.0","fromPlace":"48.424541,-71.075551","maxWalkDistance":"3000","waitReluctance":"1.0","carSpeed":"33","numItineraries":"3","waitAtBeginningFactor":"0.4","mode":"TRANSIT,WALK","ignoreRealtimeUpdates":"false","stairsReluctance":"2.0","toPlace":"48.433586,-71.111593","time":"16:30:00"},"plan":{"date":1522701000000,"from":{"name":"Origin","lon":-71.075551,"lat":48.424541,"orig":"","vertexType":"NORMAL"},"to":{"name":"Destination","lon":-71.111593,"lat":48.433586,"orig":"","vertexType":"NORMAL"},"itineraries":[{"duration":1381,"startTime":1522701338000,"endTime":1522702719000,"walkTime":796,"transitTime":583,"waitingTime":2,"walkDistance":1005.9468646521075,"walkLimitExceeded":false,"elevationLost":0.0,"elevationGained":0.0,"transfers":1,"legs":[{"startTime":1522701338000,"endTime":1522701398000,"departureDelay":0,"arrivalDelay":0,"realTime":false,"distance":68.768,"pathway":false,"mode":"WALK","route":"","agencyTimeZoneOffset":-14400000,"interlineWithPreviousLeg":false,"from":{"name":"Origin","lon":-71.075551,"lat":48.424541,"departure":1522701338000,"orig":"","vertexType":"NORMAL"},"to":{"name":"Bossé / Sainte-Marthe","stopId":"1:1577","stopCode":"1577","lon":-71.074827,"lat":48.424374,"arrival":1522701398000,"departure":1522701399000,"zoneId":"NA","stopIndex":26,"stopSequence":27,"vertexType":"TRANSIT"},"legGeometry":{"points":"m|pfHf}xpLAHJ?F}C","length":4},"rentedBike":false,"transitLeg":false,"duration":60.0,"steps":[{"distance":3.81,"relativeDirection":"DEPART","streetName":"bike path","absoluteDirection":"WEST","stayOn":false,"area":false,"bogusName":false,"lon":-71.07555046238053,"lat":48.42455995503364,"elevation":[]},{"distance":6.58,"relativeDirection":"LEFT","streetName":"path","absoluteDirection":"SOUTH","stayOn":false,"area":false,"bogusName":true,"lon":-71.0756021,"lat":48.4245606,"elevation":[]},{"distance":58.378,"relativeDirection":"LEFT","streetName":"Rue Bossé","absoluteDirection":"EAST","stayOn":false,"area":false,"bogusName":false,"lon":-71.07560670000001,"lat":48.424501500000005,"elevation":[]}]},{"startTime":1522701399000,"endTime":1522701660000,"departureDelay":0,"arrivalDelay":0,"realTime":false,"distance":967.6979458137391,"pathway":false,"mode":"BUS","route":"11","agencyName":"Société de Transport du Saguenay","agencyUrl":"http://ville.saguenay.ca/fr/services-aux-citoyens/transport-sts","agencyTimeZoneOffset":-14400000,"routeColor":"FF0000","routeType":3,"routeId":"1:11","routeTextColor":"FFFFFF","interlineWithPreviousLeg":false,"tripBlockId":"35","headsign":"Terminus Chicoutimi","agencyId":"0","tripId":"1:218261","serviceDate":"20180402","from":{"name":"Bossé / Sainte-Marthe","stopId":"1:1577","stopCode":"1577","lon":-71.074827,"lat":48.424374,"arrival":1522701398000,"departure":1522701399000,"zoneId":"NA","stopIndex":26,"stopSequence":27,"vertexType":"TRANSIT"},"to":{"name":"Terminus Chicoutimi","stopId":"1:1289","stopCode":"1289","lon":-71.066163,"lat":48.428677,"arrival":1522701660000,"departure":1522701660000,"zoneId":"NA","stopIndex":30,"stopSequence":31,"vertexType":"TRANSIT"},"legGeometry":{"points":"u{pfHtxxpLVsLDaCD_@kBKW?e@Q_BQNuEDuBXmNLgHmKm@}BW{AMCn@o@G??","length":18},"routeShortName":"11","routeLongName":"Chic/Faubourg via St-Paul","rentedBike":false,"transitLeg":true,"duration":261.0,"steps":[]},{"startTime":1522701660000,"endTime":1522701982000,"departureDelay":0,"arrivalDelay":0,"realTime":false,"distance":3666.8339918299184,"pathway":false,"mode":"BUS","route":"3","agencyName":"Société de Transport du Saguenay","agencyUrl":"http://ville.saguenay.ca/fr/services-aux-citoyens/transport-sts","agencyTimeZoneOffset":-14400000,"routeColor":"FF0000","routeType":3,"routeId":"1:3","routeTextColor":"FFFFFF","interlineWithPreviousLeg":false,"tripBlockId":"64","headsign":"Terminus Jonquière","agencyId":"0","tripId":"1:218568","serviceDate":"20180402","from":{"name":"Terminus Chicoutimi","stopId":"1:1289","stopCode":"1289","lon":-71.066163,"lat":48.428677,"arrival":1522701660000,"departure":1522701660000,"zoneId":"NA","stopIndex":0,"stopSequence":1,"vertexType":"TRANSIT"},"to":{"name":"boul. Saguenay / Daniel","stopId":"1:153","stopCode":"153","lon":-71.114209,"lat":48.43637,"arrival":1522701982000,"departure":1522701983000,"zoneId":"NA","stopIndex":7,"stopSequence":8,"vertexType":"TRANSIT"},"legGeometry":{"points":"evqfHzcwpLi@?UhKoBKcBts@OjC]fCg@~BsId[{DrNqB|HSl@YnAMfAOnAo@nMCp@YtKIzBADEhCkAzPEx@?R?zBAbCg@zJC\\MtDi@xa@ElAItAO`AIr@ANwAvNOdCG`BGdAArC?j@","length":41},"routeShortName":"3","routeLongName":"Chic/Jonq via Boul. Saguenay","rentedBike":false,"transitLeg":true,"duration":322.0,"steps":[]},{"startTime":1522701983000,"endTime":1522702719000,"departureDelay":0,"arrivalDelay":0,"realTime":false,"distance":936.883,"pathway":false,"mode":"WALK","route":"","agencyTimeZoneOffset":-14400000,"interlineWithPreviousLeg":false,"from":{"name":"boul. Saguenay / Daniel","stopId":"1:153","stopCode":"153","lon":-71.114209,"lat":48.43637,"arrival":1522701982000,"departure":1522701983000,"zoneId":"NA","stopIndex":7,"stopSequence":8,"vertexType":"TRANSIT"},"to":{"name":"Destination","lon":-71.111593,"lat":48.433586,"arrival":1522702719000,"orig":"","vertexType":"NORMAL"},"legGeometry":{"points":"sesfHzn`qLAl@?l@jAZpAb@`AP\\CNAlBKX?J[Pk@RsCzAl@VLXVNN~@z@dBlBR_BGkCs@uDSq@o@Ni@F_Bk@b@gF","length":27},"rentedBike":false,"transitLeg":false,"duration":736.0,"steps":[{"distance":33.715,"relativeDirection":"DEPART","streetName":"Boulevard du Saguenay Ouest","absoluteDirection":"WEST","stayOn":false,"area":false,"bogusName":false,"lon":-71.11421401450752,"lat":48.436266370809534,"elevation":[]},{"distance":229.42900000000003,"relativeDirection":"LEFT","streetName":"Rue Daniel","absoluteDirection":"SOUTH","stayOn":false,"area":false,"bogusName":false,"lon":-71.1146708,"lat":48.4362761,"elevation":[]},{"distance":87.441,"relativeDirection":"LEFT","streetName":"Rue Daniel","absoluteDirection":"SOUTHEAST","stayOn":true,"area":false,"bogusName":false,"lon":-71.11499330000001,"lat":48.4342498,"elevation":[]},{"distance":208.118,"relativeDirection":"RIGHT","streetName":"Rue Panoramique","absoluteDirection":"SOUTH","stayOn":false,"area":false,"bogusName":false,"lon":-71.1138911,"lat":48.4339997,"elevation":[]},{"distance":184.138,"relativeDirection":"LEFT","streetName":"Rue du Bois-de-Boulogne","absoluteDirection":"EAST","stayOn":false,"area":false,"bogusName":false,"lon":-71.11524940000001,"lat":48.4323764,"elevation":[]},{"distance":106.599,"relativeDirection":"LEFT","streetName":"Rue de la Côte-d'Azur","absoluteDirection":"NORTH","stayOn":false,"area":false,"bogusName":false,"lon":-71.1129013,"lat":48.4326747,"elevation":[]},{"distance":87.443,"relativeDirection":"RIGHT","streetName":"Rue des Côtes-du-Rhône","absoluteDirection":"EAST","stayOn":false,"area":false,"bogusName":false,"lon":-71.1128024,"lat":48.433601800000005,"elevation":[]}]}],"tooSloped":false},{"duration":1679,"startTime":1522701280000,"endTime":1522702959000,"walkTime":913,"transitTime":524,"waitingTime":242,"walkDistance":1155.0813157789446,"walkLimitExceeded":false,"elevationLost":0.0,"elevationGained":0.0,"transfers":1,"legs":[{"startTime":1522701280000,"endTime":1522701457000,"departureDelay":0,"arrivalDelay":0,"realTime":false,"distance":217.872,"pathway":false,"mode":"WALK","route":"","agencyTimeZoneOffset":-14400000,"interlineWithPreviousLeg":false,"from":{"name":"Origin","lon":-71.075551,"lat":48.424541,"departure":1522701280000,"orig":"","vertexType":"NORMAL"},"to":{"name":"Price / Sainte-Marthe","stopId":"1:628","stopCode":"628","lon":-71.073911,"lat":48.425195,"arrival":1522701457000,"departure":1522701458000,"zoneId":"NA","stopIndex":32,"stopSequence":33,"vertexType":"TRANSIT"},"legGeometry":{"points":"m|pfHf}xpL?ODaCCKPYeCSs@UFk@Fi@@S","length":10},"rentedBike":false,"transitLeg":false,"duration":177.0,"steps":[{"distance":59.045,"relativeDirection":"DEPART","streetName":"bike path","absoluteDirection":"EAST","stayOn":false,"area":false,"bogusName":false,"lon":-71.07555046238053,"lat":48.42455995503364,"elevation":[]},{"distance":13.901,"relativeDirection":"RIGHT","streetName":"path","absoluteDirection":"SOUTHEAST","stayOn":false,"area":false,"bogusName":true,"lon":-71.0747626,"lat":48.424545900000005,"elevation":[]},{"distance":104.41,"relativeDirection":"HARD_LEFT","streetName":"Rue Sainte-Marthe","absoluteDirection":"NORTH","stayOn":false,"area":false,"bogusName":false,"lon":-71.0746309,"lat":48.424456500000005,"elevation":[]},{"distance":40.516000000000005,"relativeDirection":"RIGHT","streetName":"Rue Price Ouest","absoluteDirection":"EAST","stayOn":false,"area":false,"bogusName":false,"lon":-71.07442610000001,"lat":48.425381900000005,"elevation":[]}]},{"startTime":1522701458000,"endTime":1522701660000,"departureDelay":0,"arrivalDelay":0,"realTime":false,"distance":737.3644338023462,"pathway":false,"mode":"BUS","route":"16","agencyName":"Société de Transport du Saguenay","agencyUrl":"http://ville.saguenay.ca/fr/services-aux-citoyens/transport-sts","agencyTimeZoneOffset":-14400000,"routeColor":"00FF00","routeType":3,"routeId":"1:16","routeTextColor":"000000","interlineWithPreviousLeg":false,"tripBlockId":"34","headsign":"Terminus Chicoutimi","agencyId":"0","tripId":"1:218226","serviceDate":"20180402","from":{"name":"Price / Sainte-Marthe","stopId":"1:628","stopCode":"628","lon":-71.073911,"lat":48.425195,"arrival":1522701457000,"departure":1522701458000,"zoneId":"NA","stopIndex":32,"stopSequence":33,"vertexType":"TRANSIT"},"to":{"name":"Terminus Chicoutimi","stopId":"1:1289","stopCode":"1289","lon":-71.066163,"lat":48.428677,"arrival":1522701660000,"departure":1522701900000,"zoneId":"NA","stopIndex":35,"stopSequence":36,"vertexType":"TRANSIT"},"legGeometry":{"points":"{`qfHxrxpL@IBcAG_A{@sEEg@oAP}@DiBDFeBMa@iBCq@FmBPFcEDoBNiHyDWN_HBoA@Y@m@","length":22},"routeShortName":"16","routeLongName":"Côte de la Réserve","rentedBike":false,"transitLeg":true,"duration":202.0,"steps":[]},{"startTime":1522701900000,"endTime":1522702222000,"departureDelay":0,"arrivalDelay":0,"realTime":false,"distance":3666.8339918299184,"pathway":false,"mode":"BUS","route":"3","agencyName":"Société de Transport du Saguenay","agencyUrl":"http://ville.saguenay.ca/fr/services-aux-citoyens/transport-sts","agencyTimeZoneOffset":-14400000,"routeColor":"FF0000","routeType":3,"routeId":"1:3","routeTextColor":"FFFFFF","interlineWithPreviousLeg":false,"tripBlockId":"9","headsign":"Terminus Jonquière","agencyId":"0","tripId":"1:217412","serviceDate":"20180402","from":{"name":"Terminus Chicoutimi","stopId":"1:1289","stopCode":"1289","lon":-71.066163,"lat":48.428677,"arrival":1522701660000,"departure":1522701900000,"zoneId":"NA","stopIndex":0,"stopSequence":1,"vertexType":"TRANSIT"},"to":{"name":"boul. Saguenay / Daniel","stopId":"1:153","stopCode":"153","lon":-71.114209,"lat":48.43637,"arrival":1522702222000,"departure":1522702223000,"zoneId":"NA","stopIndex":7,"stopSequence":8,"vertexType":"TRANSIT"},"legGeometry":{"points":"evqfHzcwpLi@?UhKoBKcBts@OjC]fCg@~BsId[{DrNqB|HSl@YnAMfAOnAo@nMCp@YtKIzBADEhCkAzPEx@?R?zBAbCg@zJC\\MtDi@xa@ElAItAO`AIr@ANwAvNOdCG`BGdAArC?j@","length":41},"routeShortName":"3","routeLongName":"Chic/Jonq via Boul. Saguenay","rentedBike":false,"transitLeg":true,"duration":322.0,"steps":[]},{"startTime":1522702223000,"endTime":1522702959000,"departureDelay":0,"arrivalDelay":0,"realTime":false,"distance":936.883,"pathway":false,"mode":"WALK","route":"","agencyTimeZoneOffset":-14400000,"interlineWithPreviousLeg":false,"from":{"name":"boul. Saguenay / Daniel","stopId":"1:153","stopCode":"153","lon":-71.114209,"lat":48.43637,"arrival":1522702222000,"departure":1522702223000,"zoneId":"NA","stopIndex":7,"stopSequence":8,"vertexType":"TRANSIT"},"to":{"name":"Destination","lon":-71.111593,"lat":48.433586,"arrival":1522702959000,"orig":"","vertexType":"NORMAL"},"legGeometry":{"points":"sesfHzn`qLAl@?l@jAZpAb@`AP\\CNAlBKX?J[Pk@RsCzAl@VLXVNN~@z@dBlBR_BGkCs@uDSq@o@Ni@F_Bk@b@gF","length":27},"rentedBike":false,"transitLeg":false,"duration":736.0,"steps":[{"distance":33.715,"relativeDirection":"DEPART","streetName":"Boulevard du Saguenay Ouest","absoluteDirection":"WEST","stayOn":false,"area":false,"bogusName":false,"lon":-71.11421401450752,"lat":48.436266370809534,"elevation":[]},{"distance":229.42900000000003,"relativeDirection":"LEFT","streetName":"Rue Daniel","absoluteDirection":"SOUTH","stayOn":false,"area":false,"bogusName":false,"lon":-71.1146708,"lat":48.4362761,"elevation":[]},{"distance":87.441,"relativeDirection":"LEFT","streetName":"Rue Daniel","absoluteDirection":"SOUTHEAST","stayOn":true,"area":false,"bogusName":false,"lon":-71.11499330000001,"lat":48.4342498,"elevation":[]},{"distance":208.118,"relativeDirection":"RIGHT","streetName":"Rue Panoramique","absoluteDirection":"SOUTH","stayOn":false,"area":false,"bogusName":false,"lon":-71.1138911,"lat":48.4339997,"elevation":[]},{"distance":184.138,"relativeDirection":"LEFT","streetName":"Rue du Bois-de-Boulogne","absoluteDirection":"EAST","stayOn":false,"area":false,"bogusName":false,"lon":-71.11524940000001,"lat":48.4323764,"elevation":[]},{"distance":106.599,"relativeDirection":"LEFT","streetName":"Rue de la Côte-d'Azur","absoluteDirection":"NORTH","stayOn":false,"area":false,"bogusName":false,"lon":-71.1129013,"lat":48.4326747,"elevation":[]},{"distance":87.443,"relativeDirection":"RIGHT","streetName":"Rue des Côtes-du-Rhône","absoluteDirection":"EAST","stayOn":false,"area":false,"bogusName":false,"lon":-71.1128024,"lat":48.433601800000005,"elevation":[]}]}],"tooSloped":false},{"duration":1381,"startTime":1522703138000,"endTime":1522704519000,"walkTime":796,"transitTime":583,"waitingTime":2,"walkDistance":1005.9468646521075,"walkLimitExceeded":false,"elevationLost":0.0,"elevationGained":0.0,"transfers":1,"legs":[{"startTime":1522703138000,"endTime":1522703198000,"departureDelay":0,"arrivalDelay":0,"realTime":false,"distance":68.768,"pathway":false,"mode":"WALK","route":"","agencyTimeZoneOffset":-14400000,"interlineWithPreviousLeg":false,"from":{"name":"Origin","lon":-71.075551,"lat":48.424541,"departure":1522703138000,"orig":"","vertexType":"NORMAL"},"to":{"name":"Bossé / Sainte-Marthe","stopId":"1:1577","stopCode":"1577","lon":-71.074827,"lat":48.424374,"arrival":1522703198000,"departure":1522703199000,"zoneId":"NA","stopIndex":26,"stopSequence":27,"vertexType":"TRANSIT"},"legGeometry":{"points":"m|pfHf}xpLAHJ?F}C","length":4},"rentedBike":false,"transitLeg":false,"duration":60.0,"steps":[{"distance":3.81,"relativeDirection":"DEPART","streetName":"bike path","absoluteDirection":"WEST","stayOn":false,"area":false,"bogusName":false,"lon":-71.07555046238053,"lat":48.42455995503364,"elevation":[]},{"distance":6.58,"relativeDirection":"LEFT","streetName":"path","absoluteDirection":"SOUTH","stayOn":false,"area":false,"bogusName":true,"lon":-71.0756021,"lat":48.4245606,"elevation":[]},{"distance":58.378,"relativeDirection":"LEFT","streetName":"Rue Bossé","absoluteDirection":"EAST","stayOn":false,"area":false,"bogusName":false,"lon":-71.07560670000001,"lat":48.424501500000005,"elevation":[]}]},{"startTime":1522703199000,"endTime":1522703460000,"departureDelay":0,"arrivalDelay":0,"realTime":false,"distance":967.6979458137391,"pathway":false,"mode":"BUS","route":"11","agencyName":"Société de Transport du Saguenay","agencyUrl":"http://ville.saguenay.ca/fr/services-aux-citoyens/transport-sts","agencyTimeZoneOffset":-14400000,"routeColor":"FF0000","routeType":3,"routeId":"1:11","routeTextColor":"FFFFFF","interlineWithPreviousLeg":false,"tripBlockId":"37","headsign":"Terminus Chicoutimi","agencyId":"0","tripId":"1:218323","serviceDate":"20180402","from":{"name":"Bossé / Sainte-Marthe","stopId":"1:1577","stopCode":"1577","lon":-71.074827,"lat":48.424374,"arrival":1522703198000,"departure":1522703199000,"zoneId":"NA","stopIndex":26,"stopSequence":27,"vertexType":"TRANSIT"},"to":{"name":"Terminus Chicoutimi","stopId":"1:1289","stopCode":"1289","lon":-71.066163,"lat":48.428677,"arrival":1522703460000,"departure":1522703460000,"zoneId":"NA","stopIndex":30,"stopSequence":31,"vertexType":"TRANSIT"},"legGeometry":{"points":"u{pfHtxxpLVsLDaCD_@kBKW?e@Q_BQNuEDuBXmNLgHmKm@}BW{AMCn@o@G??","length":18},"routeShortName":"11","routeLongName":"Chic/Faubourg via St-Paul","rentedBike":false,"transitLeg":true,"duration":261.0,"steps":[]},{"startTime":1522703460000,"endTime":1522703782000,"departureDelay":0,"arrivalDelay":0,"realTime":false,"distance":3666.8339918299184,"pathway":false,"mode":"BUS","route":"3","agencyName":"Société de Transport du Saguenay","agencyUrl":"http://ville.saguenay.ca/fr/services-aux-citoyens/transport-sts","agencyTimeZoneOffset":-14400000,"routeColor":"FF0000","routeType":3,"routeId":"1:3","routeTextColor":"FFFFFF","interlineWithPreviousLeg":false,"tripBlockId":"57","headsign":"Terminus Jonquière","agencyId":"0","tripId":"1:218537","serviceDate":"20180402","from":{"name":"Terminus Chicoutimi","stopId":"1:1289","stopCode":"1289","lon":-71.066163,"lat":48.428677,"arrival":1522703460000,"departure":1522703460000,"zoneId":"NA","stopIndex":0,"stopSequence":1,"vertexType":"TRANSIT"},"to":{"name":"boul. Saguenay / Daniel","stopId":"1:153","stopCode":"153","lon":-71.114209,"lat":48.43637,"arrival":1522703782000,"departure":1522703783000,"zoneId":"NA","stopIndex":7,"stopSequence":8,"vertexType":"TRANSIT"},"legGeometry":{"points":"evqfHzcwpLi@?UhKoBKcBts@OjC]fCg@~BsId[{DrNqB|HSl@YnAMfAOnAo@nMCp@YtKIzBADEhCkAzPEx@?R?zBAbCg@zJC\\MtDi@xa@ElAItAO`AIr@ANwAvNOdCG`BGdAArC?j@","length":41},"routeShortName":"3","routeLongName":"Chic/Jonq via Boul. Saguenay","rentedBike":false,"transitLeg":true,"duration":322.0,"steps":[]},{"startTime":1522703783000,"endTime":1522704519000,"departureDelay":0,"arrivalDelay":0,"realTime":false,"distance":936.883,"pathway":false,"mode":"WALK","route":"","agencyTimeZoneOffset":-14400000,"interlineWithPreviousLeg":false,"from":{"name":"boul. Saguenay / Daniel","stopId":"1:153","stopCode":"153","lon":-71.114209,"lat":48.43637,"arrival":1522703782000,"departure":1522703783000,"zoneId":"NA","stopIndex":7,"stopSequence":8,"vertexType":"TRANSIT"},"to":{"name":"Destination","lon":-71.111593,"lat":48.433586,"arrival":1522704519000,"orig":"","vertexType":"NORMAL"},"legGeometry":{"points":"sesfHzn`qLAl@?l@jAZpAb@`AP\\CNAlBKX?J[Pk@RsCzAl@VLXVNN~@z@dBlBR_BGkCs@uDSq@o@Ni@F_Bk@b@gF","length":27},"rentedBike":false,"transitLeg":false,"duration":736.0,"steps":[{"distance":33.715,"relativeDirection":"DEPART","streetName":"Boulevard du Saguenay Ouest","absoluteDirection":"WEST","stayOn":false,"area":false,"bogusName":false,"lon":-71.11421401450752,"lat":48.436266370809534,"elevation":[]},{"distance":229.42900000000003,"relativeDirection":"LEFT","streetName":"Rue Daniel","absoluteDirection":"SOUTH","stayOn":false,"area":false,"bogusName":false,"lon":-71.1146708,"lat":48.4362761,"elevation":[]},{"distance":87.441,"relativeDirection":"LEFT","streetName":"Rue Daniel","absoluteDirection":"SOUTHEAST","stayOn":true,"area":false,"bogusName":false,"lon":-71.11499330000001,"lat":48.4342498,"elevation":[]},{"distance":208.118,"relativeDirection":"RIGHT","streetName":"Rue Panoramique","absoluteDirection":"SOUTH","stayOn":false,"area":false,"bogusName":false,"lon":-71.1138911,"lat":48.4339997,"elevation":[]},{"distance":184.138,"relativeDirection":"LEFT","streetName":"Rue du Bois-de-Boulogne","absoluteDirection":"EAST","stayOn":false,"area":false,"bogusName":false,"lon":-71.11524940000001,"lat":48.4323764,"elevation":[]},{"distance":106.599,"relativeDirection":"LEFT","streetName":"Rue de la Côte-d'Azur","absoluteDirection":"NORTH","stayOn":false,"area":false,"bogusName":false,"lon":-71.1129013,"lat":48.4326747,"elevation":[]},{"distance":87.443,"relativeDirection":"RIGHT","streetName":"Rue des Côtes-du-Rhône","absoluteDirection":"EAST","stayOn":false,"area":false,"bogusName":false,"lon":-71.1128024,"lat":48.433601800000005,"elevation":[]}]}],"tooSloped":false}]},"debugOutput":{"precalculationTime":18,"pathCalculationTime":36,"pathTimes":[17,9,10],"renderingTime":1,"totalTime":55,"timedOut":false},"elevationMetadata":{"ellipsoidToGeoidDifference":-28.885904201182168,"geoidElevation":false}}