{"requestParameters":{"date":"2018/04/02","walkSpeed":"1.33","walkReluctance":"2.0","fromPlace":"48.40217,-71.076814","maxWalkDistance":"3000","waitReluctance":"1.0","carSpeed":"33","numItineraries":"3","waitAtBeginningFactor":"0.4","mode":"TRANSIT,WALK","ignoreRealtimeUpdates":"false","stairsReluctance":"2.0","toPlace":"48.403727,-71.056775","time":"11:15:00"},"plan":{"date":1522682100000,"from":{"name":"Origin","lon":-71.076814,"lat":48.40217,"orig":"","vertexType":"NORMAL"},"to":{"name":"Destination","lon":-71.056775,"lat":48.403727,"orig":"","vertexType":"NORMAL"},"itineraries":[{"duration":993,"startTime":1522682632000,"endTime":1522683625000,"walkTime":615,"transitTime":376,"waitingTime":2,"walkDistance":775.7221503707724,"walkLimitExceeded":false,"elevationLost":0.0,"elevationGained":0.0,"transfers":0,"legs":[{"startTime":1522682632000,"endTime":1522683043000,"departureDelay":0,"arrivalDelay":0,"realTime":false,"distance":519.077,"pathway":false,"mode":"WALK","route":"","agencyTimeZoneOffset":-14400000,"interlineWithPreviousLeg":false,"from":{"name":"Origin","lon":-71.076814,"lat":48.40217,"departure":1522682632000,"orig":"","vertexType":"NORMAL"},"to":{"name":"Angoulême / Bégin","stopId":"1:536","stopCode":"536","lon":-71.073862,"lat":48.405153,"arrival":1522683043000,"departure":1522683044000,"zoneId":"NA","stopIndex":18,"stopSequence":19,"vertexType":"TRANSIT"},"legGeometry":{"points":"wolfHreypLEVw@vByA{B]q@e@{@gA}BwAyC_AmBIUYs@CqAyBBQ@","length":14},"rentedBike":false,"transitLeg":false,"duration":411.0,"steps":[{"distance":63.993,"relativeDirection":"DEPART","streetName":"Rue Blackburn","absoluteDirection":"WEST","stayOn":false,"area":false,"bogusName":false,"lon":-71.076895,"lat":48.40204,"elevation":[]},{"distance":377.488,"relativeDirection":"RIGHT","streetName":"Rue Bégin","absoluteDirection":"NORTHEAST","stayOn":false,"area":false,"bogusName":false,"lon":-71.0776148,"lat":48.402357,"elevation":[]},{"distance":77.596,"relativeDirection":"LEFT","streetName":"Rue d'Angoulème","absoluteDirection":"NORTH","stayOn":false,"area":false,"bogusName":false,"lon":-71.0737143,"lat":48.404464100000006,"elevation":[]}]},{"startTime":1522683044000,"endTime":1522683420000,"departureDelay":0,"arrivalDelay":0,"realTime":false,"distance":1469.9587069741474,"pathway":false,"mode":"BUS","route":"15","agencyName":"Société de Transport du Saguenay","agencyUrl":"http://ville.saguenay.ca/fr/services-aux-citoyens/transport-sts","agencyTimeZoneOffset":-14400000,"routeColor":"FF00FF","routeType":3,"routeId":"1:15","routeTextColor":"FFFFFF","interlineWithPreviousLeg":false,"tripBlockId":"33","headsign":"Talbot / Barrette","agencyId":"0","tripId":"1:218181","serviceDate":"20180402","from":{"name":"Angoulême / Bégin","stopId":"1:536","stopCode":"536","lon":-71.073862,"lat":48.405153,"arrival":1522683043000,"departure":1522683044000,"zoneId":"NA","stopIndex":18,"stopSequence":19,"vertexType":"TRANSIT"},"to":{"name":"Place du Royaume (Saguenéens)","stopId":"1:1294","stopCode":"1294","lon":-71.057691,"lat":48.402355,"arrival":1522683420000,"departure":1522683421000,"zoneId":"NA","stopIndex":24,"stopSequence":25,"vertexType":"TRANSIT"},"legGeometry":{"points":"mbmfHtoxpLrB`AM}@hAwEC{B]oBiBmBsH_@_K{H`EgIvCaGfEoItDsH~DeItC{FnBoL","length":16},"routeShortName":"15","routeLongName":"Term. Chic / Costco","rentedBike":false,"transitLeg":true,"duration":376.0,"steps":[]},{"startTime":1522683421000,"endTime":1522683625000,"departureDelay":0,"arrivalDelay":0,"realTime":false,"distance":256.485,"pathway":false,"mode":"WALK","route":"","agencyTimeZoneOffset":-14400000,"interlineWithPreviousLeg":false,"from":{"name":"Place du Royaume (Saguenéens)","stopId":"1:1294","stopCode":"1294","lon":-71.057691,"lat":48.402355,"arrival":1522683420000,"departure":1522683421000,"zoneId":"NA","stopIndex":24,"stopSequence":25,"vertexType":"TRANSIT"},"to":{"name":"Destination","lon":-71.056775,"lat":48.403727,"arrival":1522683625000,"orig":"","vertexType":"NORMAL"},"legGeometry":{"points":"iqlfHxmupLa@dCMh@GM[m@i@aAc@a@YYYWs@q@YYSS","length":12},"rentedBike":false,"transitLeg":false,"duration":204.0,"steps":[{"distance":70.008,"relativeDirection":"DEPART","streetName":"Rue des Saguenéens","absoluteDirection":"WEST","stayOn":false,"area":false,"bogusName":false,"lon":-71.05772328170832,"lat":48.402297506554895,"elevation":[]},{"distance":186.477,"relativeDirection":"RIGHT","streetName":"service road","absoluteDirection":"NORTHEAST","stayOn":false,"area":false,"bogusName":true,"lon":-71.0586019,"lat":48.4025327,"elevation":[]}]}],"tooSloped":false},{"duration":1131,"startTime":1522683214000,"endTime":1522684345000,"walkTime":372,"transitTime":757,"waitingTime":2,"walkDistance":456.5609398439469,"walkLimitExceeded":false,"elevationLost":0.0,"elevationGained":0.0,"transfers":0,"legs":[{"startTime":1522683214000,"endTime":1522683382000,"departureDelay":0,"arrivalDelay":0,"realTime":false,"distance":199.9,"pathway":false,"mode":"WALK","route":"","agencyTimeZoneOffset":-14400000,"interlineWithPreviousLeg":false,"from":{"name":"Origin","lon":-71.076814,"lat":48.40217,"departure":1522683214000,"orig":"","vertexType":"NORMAL"},"to":{"name":"Bégin / Château Richer","stopId":"1:1982","stopCode":"1982","lon":-71.076545,"lat":48.403266,"arrival":1522683382000,"departure":1522683383000,"zoneId":"NA","stopIndex":21,"stopSequence":22,"vertexType":"TRANSIT"},"legGeometry":{"points":"wolfHreypLEVw@vByA{B]q@e@{@K^","length":7},"rentedBike":false,"transitLeg":false,"duration":168.0,"steps":[{"distance":63.993,"relativeDirection":"DEPART","streetName":"Rue Blackburn","absoluteDirection":"WEST","stayOn":false,"area":false,"bogusName":false,"lon":-71.076895,"lat":48.40204,"elevation":[]},{"distance":122.624,"relativeDirection":"RIGHT","streetName":"Rue Bégin","absoluteDirection":"NORTHEAST","stayOn":false,"area":false,"bogusName":false,"lon":-71.0776148,"lat":48.402357,"elevation":[]},{"distance":13.283,"relativeDirection":"LEFT","streetName":"Rue Château-Richer","absoluteDirection":"NORTHWEST","stayOn":false,"area":false,"bogusName":false,"lon":-71.0764477,"lat":48.403140500000006,"elevation":[]}]},{"startTime":1522683383000,"endTime":1522683660000,"departureDelay":0,"arrivalDelay":0,"realTime":false,"distance":3873.0265476426002,"pathway":false,"mode":"BUS","route":"14","agencyName":"Société de Transport du Saguenay","agencyUrl":"http://ville.saguenay.ca/fr/services-aux-citoyens/transport-sts","agencyTimeZoneOffset":-14400000,"routeColor":"C0C000","routeType":3,"routeId":"1:14","routeTextColor":"000000","interlineWithPreviousLeg":false,"tripBlockId":"32","headsign":"Talbot / Barrette","agencyId":"0","tripId":"1:218156","serviceDate":"20180402","from":{"name":"Bégin / Château Richer","stopId":"1:1982","stopCode":"1982","lon":-71.076545,"lat":48.403266,"arrival":1522683382000,"departure":1522683383000,"zoneId":"NA","stopIndex":21,"stopSequence":22,"vertexType":"TRANSIT"},"to":{"name":"Roitelets / Sapins","stopId":"1:1543","stopCode":"1543","lon":-71.069553,"lat":48.393375,"arrival":1522683660000,"departure":1522683660000,"zoneId":"NA","stopIndex":35,"stopSequence":36,"vertexType":"TRANSIT"},"legGeometry":{"points":"yvlfHtbypLBDvC`FtJ|LLNlClC|@^hCYVExCjCb@d@vE`F`BhB?pHaBhRqAbLK~@qBxFqB|FcC~GyC\\aDkDcFsF~CgOtGm[j@oCvEoSl@_CxCmLjAeFpCeKrByHfAqCvH_SLa@","length":35},"routeShortName":"14","routeLongName":"Coopérative","rentedBike":false,"transitLeg":true,"duration":277.0,"steps":[]},{"startTime":1522683660000,"endTime":1522684140000,"departureDelay":0,"arrivalDelay":0,"realTime":false,"distance":3143.6310185151533,"pathway":false,"mode":"BUS","route":"15","agencyName":"Société de Transport du Saguenay","agencyUrl":"http://ville.saguenay.ca/fr/services-aux-citoyens/transport-sts","agencyTimeZoneOffset":-14400000,"routeColor":"FF00FF","routeType":3,"routeId":"1:15","routeTextColor":"FFFFFF","interlineWithPreviousLeg":true,"tripBlockId":"32","headsign":"Terminus Chicoutimi","agencyId":"0","tripId":"1:218157","serviceDate":"20180402","from":{"name":"Roitelets / Sapins","stopId":"1:1543","stopCode":"1543","lon":-71.069553,"lat":48.393375,"arrival":1522683660000,"departure":1522683660000,"zoneId":"NA","stopIndex":0,"stopSequence":1,"vertexType":"TRANSIT"},"to":{"name":"Place du Royaume (Saguenéens)","stopId":"1:1294","stopCode":"1294","lon":-71.057691,"lat":48.402355,"arrival":1522684140000,"departure":1522684141000,"zoneId":"NA","stopIndex":11,"stopSequence":12,"vertexType":"TRANSIT"},"legGeometry":{"points":"_zjfHfwwpLx@}BHa@NaADq@@y@Cy@I{@Ka@O[Sg@c@mAWwAMyA?EC]?wABuABmFB{@BmDFuH@i@F[FsC@c@TuGEGVsHPuDLuBXsFDoA?W@]Cu@GcAKu@Q_ASo@a@y@a@o@MOUUeCqBiDsDqE{EiAcAcB_AqBgA_AQaBSaBG_@Bu@FG?h@fNKnDpCfBkAzDgA}@y@q@sDy@GAeGT~@~KKrKyAnL[hB","length":69},"routeShortName":"15","routeLongName":"Term. Chic / Costco","rentedBike":false,"transitLeg":true,"duration":480.0,"steps":[]},{"startTime":1522684141000,"endTime":1522684345000,"departureDelay":0,"arrivalDelay":0,"realTime":false,"distance":256.485,"pathway":false,"mode":"WALK","route":"","agencyTimeZoneOffset":-14400000,"interlineWithPreviousLeg":false,"from":{"name":"Place du Royaume (Saguenéens)","stopId":"1:1294","stopCode":"1294","lon":-71.057691,"lat":48.402355,"arrival":1522684140000,"departure":1522684141000,"zoneId":"NA","stopIndex":11,"stopSequence":12,"vertexType":"TRANSIT"},"to":{"name":"Destination","lon":-71.056775,"lat":48.403727,"arrival":1522684345000,"orig":"","vertexType":"NORMAL"},"legGeometry":{"points":"iqlfHxmupLa@dCMh@GM[m@i@aAc@a@YYYWs@q@YYSS","length":12},"rentedBike":false,"transitLeg":false,"duration":204.0,"steps":[{"distance":70.008,"relativeDirection":"DEPART","streetName":"Rue des Saguenéens","absoluteDirection":"WEST","stayOn":false,"area":false,"bogusName":false,"lon":-71.05772328170832,"lat":48.402297506554895,"elevation":[]},{"distance":186.477,"relativeDirection":"RIGHT","streetName":"service road","absoluteDirection":"NORTHEAST","stayOn":false,"area":false,"bogusName":true,"lon":-71.0586019,"lat":48.4025327,"elevation":[]}]}],"tooSloped":false},{"duration":993,"startTime":1522684432000,"endTime":1522685425000,"walkTime":615,"transitTime":376,"waitingTime":2,"walkDistance":775.7221503707724,"walkLimitExceeded":false,"elevationLost":0.0,"elevationGained":0.0,"transfers":0,"legs":[{"startTime":1522684432000,"endTime":1522684843000,"departureDelay":0,"arrivalDelay":0,"realTime":false,"distance":519.077,"pathway":false,"mode":"WALK","route":"","agencyTimeZoneOffset":-14400000,"interlineWithPreviousLeg":false,"from":{"name":"Origin","lon":-71.076814,"lat":48.40217,"departure":1522684432000,"orig":"","vertexType":"NORMAL"},"to":{"name":"Angoulême / Bégin","stopId":"1:536","stopCode":"536","lon":-71.073862,"lat":48.405153,"arrival":1522684843000,"departure":1522684844000,"zoneId":"NA","stopIndex":18,"stopSequence":19,"vertexType":"TRANSIT"},"legGeometry":{"points":"wolfHreypLEVw@vByA{B]q@e@{@gA}BwAyC_AmBIUYs@CqAyBBQ@","length":14},"rentedBike":false,"transitLeg":false,"duration":411.0,"steps":[{"distance":63.993,"relativeDirection":"DEPART","streetName":"Rue Blackburn","absoluteDirection":"WEST","stayOn":false,"area":false,"bogusName":false,"lon":-71.076895,"lat":48.40204,"elevation":[]},{"distance":377.488,"relativeDirection":"RIGHT","streetName":"Rue Bégin","absoluteDirection":"NORTHEAST","stayOn":false,"area":false,"bogusName":false,"lon":-71.0776148,"lat":48.402357,"elevation":[]},{"distance":77.596,"relativeDirection":"LEFT","streetName":"Rue d'Angoulème","absoluteDirection":"NORTH","stayOn":false,"area":false,"bogusName":false,"lon":-71.0737143,"lat":48.404464100000006,"elevation":[]}]},{"startTime":1522684844000,"endTime":1522685220000,"departureDelay":0,"arrivalDelay":0,"realTime":false,"distance":1469.9587069741474,"pathway":false,"mode":"BUS","route":"15","agencyName":"Société de Transport du Saguenay","agencyUrl":"http://ville.saguenay.ca/fr/services-aux-citoyens/transport-sts","agencyTimeZoneOffset":-14400000,"routeColor":"FF00FF","routeType":3,"routeId":"1:15","routeTextColor":"FFFFFF","interlineWithPreviousLeg":false,"tripBlockId":"31","headsign":"Talbot / Barrette","agencyId":"0","tripId":"1:218132","serviceDate":"20180402","from":{"name":"Angoulême / Bégin","stopId":"1:536","stopCode":"536","lon":-71.073862,"lat":48.405153,"arrival":1522684843000,"departure":1522684844000,"zoneId":"NA","stopIndex":18,"stopSequence":19,"vertexType":"TRANSIT"},"to":{"name":"Place du Royaume (Saguenéens)","stopId":"1:1294","stopCode":"1294","lon":-71.057691,"lat":48.402355,"arrival":1522685220000,"departure":1522685221000,"zoneId":"NA","stopIndex":24,"stopSequence":25,"vertexType":"TRANSIT"},"legGeometry":{"points":"mbmfHtoxpLrB`AM}@hAwEC{B]oBiBmBsH_@_K{H`EgIvCaGfEoItDsH~DeItC{FnBoL","length":16},"routeShortName":"15","routeLongName":"Term. Chic / Costco","rentedBike":false,"transitLeg":true,"duration":376.0,"steps":[]},{"startTime":1522685221000,"endTime":1522685425000,"departureDelay":0,"arrivalDelay":0,"realTime":false,"distance":256.485,"pathway":false,"mode":"WALK","route":"","agencyTimeZoneOffset":-14400000,"interlineWithPreviousLeg":false,"from":{"name":"Place du Royaume (Saguenéens)","stopId":"1:1294","stopCode":"1294","lon":-71.057691,"lat":48.402355,"arrival":1522685220000,"departure":1522685221000,"zoneId":"NA","stopIndex":24,"stopSequence":25,"vertexType":"TRANSIT"},"to":{"name":"Destination","lon":-71.056775,"lat":48.403727,"arrival":1522685425000,"orig":"","vertexType":"NORMAL"},"legGeometry":{"points":"iqlfHxmupLa@dCMh@GM[m@i@aAc@a@YYYWs@q@YYSS","length":12},"rentedBike":false,"transitLeg":false,"duration":204.0,"steps":[{"distance":70.008,"relativeDirection":"DEPART","streetName":"Rue des Saguenéens","absoluteDirection":"WEST","stayOn":false,"area":false,"bogusName":false,"lon":-71.05772328170832,"lat":48.402297506554895,"elevation":[]},{"distance":186.477,"relativeDirection":"RIGHT","streetName":"service road","absoluteDirection":"NORTHEAST","stayOn":false,"area":false,"bogusName":true,"lon":-71.0586019,"lat":48.4025327,"elevation":[]}]}],"tooSloped":false}]},"debugOutput":{"precalculationTime":29,"pathCalculationTime":22,"pathTimes":[13,4,5],"renderingTime":1,"totalTime":52,"timedOut":false},"elevationMetadata":{"ellipsoidToGeoidDifference":-28.885904201182168,"geoidElevation":false}}