{"requestParameters":{"date":"2018/04/02","walkSpeed":"1.33","walkReluctance":"2.0","fromPlace":"48.418063,-71.07115699","maxWalkDistance":"3000","waitReluctance":"1.0","carSpeed":"33","numItineraries":"3","waitAtBeginningFactor":"0.4","mode":"TRANSIT,WALK","ignoreRealtimeUpdates":"false","stairsReluctance":"2.0","toPlace":"48.416083,-71.056746","time":"12:10:00"},"plan":{"date":1522685400000,"from":{"name":"Origin","lon":-71.07115699,"lat":48.418063,"orig":"","vertexType":"NORMAL"},"to":{"name":"Destination","lon":-71.056746,"lat":48.416083,"orig":"","vertexType":"NORMAL"},"itineraries":[{"duration":1074,"startTime":1522685400000,"endTime":1522686474000,"walkTime":1074,"transitTime":0,"waitingTime":0,"walkDistance":1372.1878947285206,"walkLimitExceeded":false,"elevationLost":0.0,"elevationGained":0.0,"transfers":0,"legs":[{"startTime":1522685400000,"endTime":1522686474000,"departureDelay":0,"arrivalDelay":0,"realTime":false,"distance":1371.9300000000003,"pathway":false,"mode":"WALK","route":"","agencyTimeZoneOffset":-14400000,"interlineWithPreviousLeg":false,"from":{"name":"Origin","lon":-71.07115699,"lat":48.418063,"departure":1522685400000,"orig":"","vertexType":"NORMAL"},"to":{"name":"Destination","lon":-71.056746,"lat":48.416083,"arrival":1522686474000,"orig":"","vertexType":"NORMAL"},"legGeometry":{"points":"osofHj}wpLFc@b@{AZm@Pa@Fm@@QO?c@CW?Xy@d@oBn@oB\\y@dAUt@yBdAwCFSjAeDo@m@j@kB??FQNi@bA}FnAoDd@qA??hAcDXa@oAeBEUa@_BEiBAaAHg@VuAPg@}@o@}A}@gA{@k@e@","length":42},"rentedBike":false,"transitLeg":false,"duration":1074.0,"steps":[{"distance":116.261,"relativeDirection":"DEPART","streetName":"service road","absoluteDirection":"EAST","stayOn":false,"area":false,"bogusName":true,"lon":-71.070452,"lat":48.418007300000006,"elevation":[]},{"distance":42.323,"relativeDirection":"LEFT","streetName":"Rue Jolliet","absoluteDirection":"NORTH","stayOn":false,"area":false,"bogusName":false,"lon":-71.0690988,"lat":48.4175072,"elevation":[]},{"distance":188.869,"relativeDirection":"HARD_RIGHT","streetName":"path","absoluteDirection":"SOUTHEAST","stayOn":false,"area":false,"bogusName":true,"lon":-71.069079,"lat":48.417887500000006,"elevation":[]},{"distance":205.419,"relativeDirection":"LEFT","streetName":"Rue Dubé","absoluteDirection":"SOUTHEAST","stayOn":false,"area":false,"bogusName":false,"lon":-71.0672681,"lat":48.416826400000005,"elevation":[]},{"distance":30.953,"relativeDirection":"LEFT","streetName":"Rue Bégin","absoluteDirection":"NORTHEAST","stayOn":false,"area":false,"bogusName":false,"lon":-71.06496530000001,"lat":48.4157887,"elevation":[]},{"distance":381.059,"relativeDirection":"RIGHT","streetName":"Rue des Champs-Élysées","absoluteDirection":"SOUTHEAST","stayOn":false,"area":false,"bogusName":false,"lon":-71.0647342,"lat":48.416021,"elevation":[]},{"distance":237.467,"relativeDirection":"LEFT","streetName":"Rue Marguerite-Tellier","absoluteDirection":"NORTHEAST","stayOn":false,"area":false,"bogusName":false,"lon":-71.0603414,"lat":48.4142597,"elevation":[]},{"distance":169.579,"relativeDirection":"LEFT","streetName":"Rue Graham-Bell","absoluteDirection":"NORTHEAST","stayOn":false,"area":false,"bogusName":false,"lon":-71.0575589,"lat":48.4146378,"elevation":[]}]}],"tooSloped":false},{"duration":1086,"startTime":1522685934000,"endTime":1522687020000,"walkTime":1050,"transitTime":34,"waitingTime":2,"walkDistance":1337.0021278114457,"walkLimitExceeded":false,"elevationLost":0.0,"elevationGained":0.0,"transfers":0,"legs":[{"startTime":1522685934000,"endTime":1522686461000,"departureDelay":0,"arrivalDelay":0,"realTime":false,"distance":671.917,"pathway":false,"mode":"WALK","route":"","agencyTimeZoneOffset":-14400000,"interlineWithPreviousLeg":false,"from":{"name":"Origin","lon":-71.07115699,"lat":48.418063,"departure":1522685934000,"orig":"","vertexType":"NORMAL"},"to":{"name":"Résidence Funéraire (Bégin)","stopId":"1:582","stopCode":"582","lon":-71.063981,"lat":48.416642,"arrival":1522686461000,"departure":1522686462000,"zoneId":"NA","stopIndex":26,"stopSequence":27,"vertexType":"TRANSIT"},"legGeometry":{"points":"osofHj}wpLFc@b@{AZm@Pa@Fm@@QO?c@CW?Xy@d@oBn@oB\\y@dAUt@yBdAwCFSjAeDo@m@GE}AaB]Y","length":23},"rentedBike":false,"transitLeg":false,"duration":527.0,"steps":[{"distance":116.261,"relativeDirection":"DEPART","streetName":"service road","absoluteDirection":"EAST","stayOn":false,"area":false,"bogusName":true,"lon":-71.070452,"lat":48.418007300000006,"elevation":[]},{"distance":42.323,"relativeDirection":"LEFT","streetName":"Rue Jolliet","absoluteDirection":"NORTH","stayOn":false,"area":false,"bogusName":false,"lon":-71.0690988,"lat":48.4175072,"elevation":[]},{"distance":188.869,"relativeDirection":"HARD_RIGHT","streetName":"path","absoluteDirection":"SOUTHEAST","stayOn":false,"area":false,"bogusName":true,"lon":-71.069079,"lat":48.417887500000006,"elevation":[]},{"distance":205.419,"relativeDirection":"LEFT","streetName":"Rue Dubé","absoluteDirection":"SOUTHEAST","stayOn":false,"area":false,"bogusName":false,"lon":-71.0672681,"lat":48.416826400000005,"elevation":[]},{"distance":119.045,"relativeDirection":"LEFT","streetName":"Rue Bégin","absoluteDirection":"NORTHEAST","stayOn":false,"area":false,"bogusName":false,"lon":-71.06496530000001,"lat":48.4157887,"elevation":[]}]},{"startTime":1522686462000,"endTime":1522686496000,"departureDelay":0,"arrivalDelay":0,"realTime":false,"distance":221.69479412159777,"pathway":false,"mode":"BUS","route":"15","agencyName":"Société de Transport du Saguenay","agencyUrl":"http://ville.saguenay.ca/fr/services-aux-citoyens/transport-sts","agencyTimeZoneOffset":-14400000,"routeColor":"FF00FF","routeType":3,"routeId":"1:15","routeTextColor":"FFFFFF","interlineWithPreviousLeg":false,"tripBlockId":"30","headsign":"Terminus Chicoutimi","agencyId":"0","tripId":"1:218098","serviceDate":"20180402","from":{"name":"Résidence Funéraire (Bégin)","stopId":"1:582","stopCode":"582","lon":-71.063981,"lat":48.416642,"arrival":1522686461000,"departure":1522686462000,"zoneId":"NA","stopIndex":26,"stopSequence":27,"vertexType":"TRANSIT"},"to":{"name":"Parc Rosaire Gauthier (Bégin)","stopId":"1:2007","stopCode":"2007","lon":-71.062354,"lat":48.418318,"arrival":1522686496000,"departure":1522686497000,"zoneId":"NA","stopIndex":27,"stopSequence":28,"vertexType":"TRANSIT"},"legGeometry":{"points":"kkofHvuvpLkIkI","length":2},"routeShortName":"15","routeLongName":"Term. Chic / Costco","rentedBike":false,"transitLeg":true,"duration":34.0,"steps":[]},{"startTime":1522686497000,"endTime":1522687020000,"departureDelay":0,"arrivalDelay":0,"realTime":false,"distance":664.834,"pathway":false,"mode":"WALK","route":"","agencyTimeZoneOffset":-14400000,"interlineWithPreviousLeg":false,"from":{"name":"Parc Rosaire Gauthier (Bégin)","stopId":"1:2007","stopCode":"2007","lon":-71.062354,"lat":48.418318,"arrival":1522686496000,"departure":1522686497000,"zoneId":"NA","stopIndex":27,"stopSequence":28,"vertexType":"TRANSIT"},"to":{"name":"Destination","lon":-71.056746,"lat":48.416083,"arrival":1522687020000,"orig":"","vertexType":"NORMAL"},"legGeometry":{"points":"wuofHlkvpLcAaA]e@Pi@H]EaC?i@Fq@x@gAx@[f@[f@g@EqAAg@f@w@r@oBh@}Ad@}@Zw@pA_E`A~@DD","length":22},"rentedBike":false,"transitLeg":false,"duration":523.0,"steps":[{"distance":66.794,"relativeDirection":"DEPART","streetName":"Rue Bégin","absoluteDirection":"NORTHEAST","stayOn":false,"area":false,"bogusName":false,"lon":-71.06246543979594,"lat":48.418366868738104,"elevation":[]},{"distance":439.923,"relativeDirection":"RIGHT","streetName":"bike path","absoluteDirection":"SOUTHEAST","stayOn":false,"area":false,"bogusName":true,"lon":-71.0619441,"lat":48.418857200000005,"elevation":[]},{"distance":110.195,"relativeDirection":"CONTINUE","streetName":"Rue Thomas-Edison","absoluteDirection":"SOUTHEAST","stayOn":false,"area":false,"bogusName":false,"lon":-71.0574093,"lat":48.4169053,"elevation":[]},{"distance":47.922,"relativeDirection":"RIGHT","streetName":"Rue Graham-Bell","absoluteDirection":"SOUTHWEST","stayOn":false,"area":false,"bogusName":false,"lon":-71.05616500000001,"lat":48.4163584,"elevation":[]}]}],"tooSloped":false},{"duration":945,"startTime":1522686990000,"endTime":1522687935000,"walkTime":874,"transitTime":69,"waitingTime":2,"walkDistance":1112.9329172846205,"walkLimitExceeded":false,"elevationLost":0.0,"elevationGained":0.0,"transfers":0,"legs":[{"startTime":1522686990000,"endTime":1522687473000,"departureDelay":0,"arrivalDelay":0,"realTime":false,"distance":613.05,"pathway":false,"mode":"WALK","route":"","agencyTimeZoneOffset":-14400000,"interlineWithPreviousLeg":false,"from":{"name":"Origin","lon":-71.07115699,"lat":48.418063,"departure":1522686990000,"orig":"","vertexType":"NORMAL"},"to":{"name":"Bégin (no. 825)","stopId":"1:2005","stopCode":"2005","lon":-71.064205,"lat":48.41684,"arrival":1522687473000,"departure":1522687474000,"zoneId":"NA","stopIndex":6,"stopSequence":7,"vertexType":"TRANSIT"},"legGeometry":{"points":"osofHj}wpLFc@b@{AZm@Pa@Fm@@QO?c@CW?Xy@d@oBQEK]Mq@C_BQWQKUEP]Jg@?[@gABk@Hy@p@gAlAiBzA_B","length":28},"rentedBike":false,"transitLeg":false,"duration":483.0,"steps":[{"distance":116.261,"relativeDirection":"DEPART","streetName":"service road","absoluteDirection":"EAST","stayOn":false,"area":false,"bogusName":true,"lon":-71.070452,"lat":48.418007300000006,"elevation":[]},{"distance":42.323,"relativeDirection":"LEFT","streetName":"Rue Jolliet","absoluteDirection":"NORTH","stayOn":false,"area":false,"bogusName":false,"lon":-71.0690988,"lat":48.4175072,"elevation":[]},{"distance":454.466,"relativeDirection":"HARD_RIGHT","streetName":"path","absoluteDirection":"SOUTHEAST","stayOn":false,"area":false,"bogusName":true,"lon":-71.069079,"lat":48.417887500000006,"elevation":[]}]},{"startTime":1522687474000,"endTime":1522687543000,"departureDelay":0,"arrivalDelay":0,"realTime":false,"distance":360.27658623999844,"pathway":false,"mode":"BUS","route":"12","agencyName":"Société de Transport du Saguenay","agencyUrl":"http://ville.saguenay.ca/fr/services-aux-citoyens/transport-sts","agencyTimeZoneOffset":-14400000,"routeColor":"556B2F","routeType":3,"routeId":"1:12","routeTextColor":"FFFFFF","interlineWithPreviousLeg":false,"tripBlockId":"29","headsign":"Terminus Chicoutimi","agencyId":"0","tripId":"1:218064","serviceDate":"20180402","from":{"name":"Bégin (no. 825)","stopId":"1:2005","stopCode":"2005","lon":-71.064205,"lat":48.41684,"arrival":1522687473000,"departure":1522687474000,"zoneId":"NA","stopIndex":6,"stopSequence":7,"vertexType":"TRANSIT"},"to":{"name":"CEA Laure-Conan (Champs-Élysées)","stopId":"1:567","stopCode":"567","lon":-71.0614,"lat":48.4147,"arrival":1522687543000,"departure":1522687544000,"zoneId":"NA","stopIndex":8,"stopSequence":9,"vertexType":"TRANSIT"},"legGeometry":{"points":"wkofHfuvpLnCpCv@iBlAgIdCmF","length":5},"routeShortName":"12","routeLongName":"Rivière du Moulin","rentedBike":false,"transitLeg":true,"duration":69.0,"steps":[]},{"startTime":1522687544000,"endTime":1522687935000,"departureDelay":0,"arrivalDelay":0,"realTime":false,"distance":499.61600000000004,"pathway":false,"mode":"WALK","route":"","agencyTimeZoneOffset":-14400000,"interlineWithPreviousLeg":false,"from":{"name":"CEA Laure-Conan (Champs-Élysées)","stopId":"1:567","stopCode":"567","lon":-71.0614,"lat":48.4147,"arrival":1522687543000,"departure":1522687544000,"zoneId":"NA","stopIndex":8,"stopSequence":9,"vertexType":"TRANSIT"},"to":{"name":"Destination","lon":-71.056746,"lat":48.416083,"arrival":1522687935000,"orig":"","vertexType":"NORMAL"},"legGeometry":{"points":"e_ofHjdvpL??hAcDXa@oAeBEUa@_BEiBAaAHg@VuAPg@}@o@}A}@gA{@k@e@","length":16},"rentedBike":false,"transitLeg":false,"duration":391.0,"steps":[{"distance":92.57,"relativeDirection":"DEPART","streetName":"Rue des Champs-Élysées","absoluteDirection":"SOUTHEAST","stayOn":false,"area":false,"bogusName":false,"lon":-71.0613391444924,"lat":48.41475889933332,"elevation":[]},{"distance":237.467,"relativeDirection":"LEFT","streetName":"Rue Marguerite-Tellier","absoluteDirection":"NORTHEAST","stayOn":false,"area":false,"bogusName":false,"lon":-71.0603414,"lat":48.4142597,"elevation":[]},{"distance":169.579,"relativeDirection":"LEFT","streetName":"Rue Graham-Bell","absoluteDirection":"NORTHEAST","stayOn":false,"area":false,"bogusName":false,"lon":-71.0575589,"lat":48.4146378,"elevation":[]}]}],"tooSloped":false}]},"debugOutput":{"precalculationTime":44,"pathCalculationTime":27,"pathTimes":[12,6,9],"renderingTime":0,"totalTime":71,"timedOut":false},"elevationMetadata":{"ellipsoidToGeoidDifference":-28.885904201182168,"geoidElevation":false}}