{"requestParameters":{"date":"2018/04/02","walkSpeed":"1.33","walkReluctance":"2.0","fromPlace":"48.420485,-71.060146","maxWalkDistance":"3000","waitReluctance":"1.0","carSpeed":"33","numItineraries":"3","waitAtBeginningFactor":"0.4","mode":"TRANSIT,WALK","ignoreRealtimeUpdates":"false","stairsReluctance":"2.0","toPlace":"48.415945,-71.057474","time":"21:45:00"},"plan":{"date":1522719900000,"from":{"name":"Origin","lon":-71.060146,"lat":48.420485,"orig":"","vertexType":"NORMAL"},"to":{"name":"Destination","lon":-71.057474,"lat":48.415945,"orig":"","vertexType":"NORMAL"},"itineraries":[{"duration":612,"startTime":1522719900000,"endTime":1522720512000,"walkTime":612,"transitTime":0,"waitingTime":0,"walkDistance":784.1364962374232,"walkLimitExceeded":false,"elevationLost":0.0,"elevationGained":0.0,"transfers":0,"legs":[{"startTime":1522719900000,"endTime":1522720512000,"departureDelay":0,"arrivalDelay":0,"realTime":false,"distance":784.0379999999999,"pathway":false,"mode":"WALK","route":"","agencyTimeZoneOffset":-14400000,"interlineWithPreviousLeg":false,"from":{"name":"Origin","lon":-71.060146,"lat":48.420485,"departure":1522719900000,"orig":"","vertexType":"NORMAL"},"to":{"name":"Destination","lon":-71.057474,"lat":48.415945,"arrival":1522720512000,"orig":"","vertexType":"NORMAL"},"legGeometry":{"points":"icpfHt}upLz@|@RRPRbB`BhCfCPi@H]EaC?i@Fq@x@gAx@[f@[f@g@EqAAg@f@w@r@oBh@}Ad@}@Zw@d@l@hBrA","length":24},"rentedBike":false,"transitLeg":false,"duration":612.0,"steps":[{"distance":224.347,"relativeDirection":"DEPART","streetName":"Rue Bégin","absoluteDirection":"SOUTHWEST","stayOn":false,"area":false,"bogusName":false,"lon":-71.06026360122416,"lat":48.42053841967193,"elevation":[]},{"distance":439.923,"relativeDirection":"LEFT","streetName":"bike path","absoluteDirection":"SOUTHEAST","stayOn":false,"area":false,"bogusName":true,"lon":-71.0619441,"lat":48.418857200000005,"elevation":[]},{"distance":26.579,"relativeDirection":"CONTINUE","streetName":"Rue Thomas-Edison","absoluteDirection":"SOUTHEAST","stayOn":false,"area":false,"bogusName":false,"lon":-71.0574093,"lat":48.4169053,"elevation":[]},{"distance":93.189,"relativeDirection":"RIGHT","streetName":"Rue Thérèse-Casgrain","absoluteDirection":"SOUTHWEST","stayOn":false,"area":false,"bogusName":false,"lon":-71.0571206,"lat":48.4167624,"elevation":[]}]}],"tooSloped":false},{"duration":509,"startTime":1522721544000,"endTime":1522722053000,"walkTime":362,"transitTime":145,"waitingTime":2,"walkDistance":466.59333834472443,"walkLimitExceeded":false,"elevationLost":0.0,"elevationGained":0.0,"transfers":0,"legs":[{"startTime":1522721544000,"endTime":1522721597000,"departureDelay":0,"arrivalDelay":0,"realTime":false,"distance":66.644,"pathway":false,"mode":"WALK","route":"","agencyTimeZoneOffset":-14400000,"interlineWithPreviousLeg":false,"from":{"name":"Origin","lon":-71.060146,"lat":48.420485,"departure":1522721544000,"orig":"","vertexType":"NORMAL"},"to":{"name":"CFP Oasis (Bégin / Université)","stopId":"1:564","stopCode":"564","lon":-71.0609,"lat":48.4201,"arrival":1522721597000,"departure":1522721598000,"zoneId":"NA","stopIndex":4,"stopSequence":5,"vertexType":"TRANSIT"},"legGeometry":{"points":"icpfHt}upLz@|@RRPR","length":4},"rentedBike":false,"transitLeg":false,"duration":53.0,"steps":[{"distance":66.644,"relativeDirection":"DEPART","streetName":"Rue Bégin","absoluteDirection":"SOUTHWEST","stayOn":false,"area":false,"bogusName":false,"lon":-71.06026360122416,"lat":48.42053841967193,"elevation":[]}]},{"startTime":1522721598000,"endTime":1522721743000,"departureDelay":0,"arrivalDelay":0,"realTime":false,"distance":797.2485028225235,"pathway":false,"mode":"BUS","route":"12","agencyName":"Société de Transport du Saguenay","agencyUrl":"http://ville.saguenay.ca/fr/services-aux-citoyens/transport-sts","agencyTimeZoneOffset":-14400000,"routeColor":"556B2F","routeType":3,"routeId":"1:12","routeTextColor":"FFFFFF","interlineWithPreviousLeg":false,"tripBlockId":"26","headsign":"Terminus Chicoutimi","agencyId":"0","tripId":"1:217995","serviceDate":"20180402","from":{"name":"CFP Oasis (Bégin / Université)","stopId":"1:564","stopCode":"564","lon":-71.0609,"lat":48.4201,"arrival":1522721597000,"departure":1522721598000,"zoneId":"NA","stopIndex":4,"stopSequence":5,"vertexType":"TRANSIT"},"to":{"name":"CEA Laure-Conan (Champs-Élysées)","stopId":"1:567","stopCode":"567","lon":-71.0614,"lat":48.4147,"arrival":1522721743000,"departure":1522721744000,"zoneId":"NA","stopIndex":8,"stopSequence":9,"vertexType":"TRANSIT"},"legGeometry":{"points":"c`pfHr`vpLjJnJ~GbHnCpCv@iBlAgIdCmF","length":7},"routeShortName":"12","routeLongName":"Rivière du Moulin","rentedBike":false,"transitLeg":true,"duration":145.0,"steps":[]},{"startTime":1522721744000,"endTime":1522722053000,"departureDelay":0,"arrivalDelay":0,"realTime":false,"distance":399.914,"pathway":false,"mode":"WALK","route":"","agencyTimeZoneOffset":-14400000,"interlineWithPreviousLeg":false,"from":{"name":"CEA Laure-Conan (Champs-Élysées)","stopId":"1:567","stopCode":"567","lon":-71.0614,"lat":48.4147,"arrival":1522721743000,"departure":1522721744000,"zoneId":"NA","stopIndex":8,"stopSequence":9,"vertexType":"TRANSIT"},"to":{"name":"Destination","lon":-71.057474,"lat":48.415945,"arrival":1522722053000,"orig":"","vertexType":"NORMAL"},"legGeometry":{"points":"e_ofHjdvpL??hAcDXa@oAeBEUa@_BEiBAaA{@S_AW{@i@m@c@","length":13},"rentedBike":false,"transitLeg":false,"duration":309.0,"steps":[{"distance":92.57,"relativeDirection":"DEPART","streetName":"Rue des Champs-Élysées","absoluteDirection":"SOUTHEAST","stayOn":false,"area":false,"bogusName":false,"lon":-71.0613391444924,"lat":48.41475889933332,"elevation":[]},{"distance":170.211,"relativeDirection":"LEFT","streetName":"Rue Marguerite-Tellier","absoluteDirection":"NORTHEAST","stayOn":false,"area":false,"bogusName":false,"lon":-71.0603414,"lat":48.4142597,"elevation":[]},{"distance":137.133,"relativeDirection":"LEFT","streetName":"Rue Thérèse-Casgrain","absoluteDirection":"NORTH","stayOn":false,"area":false,"bogusName":false,"lon":-71.0583806,"lat":48.4148926,"elevation":[]}]}],"tooSloped":false}]},"debugOutput":{"precalculationTime":41,"pathCalculationTime":21,"pathTimes":[6,9,6],"renderingTime":0,"totalTime":62,"timedOut":false},"elevationMetadata":{"ellipsoidToGeoidDifference":-28.885904201182168,"geoidElevation":false}}