{"requestParameters":{"date":"2018/04/02","walkSpeed":"1.33","walkReluctance":"2.0","fromPlace":"48.412249,-71.059298","maxWalkDistance":"3000","waitReluctance":"1.0","carSpeed":"33","numItineraries":"3","waitAtBeginningFactor":"0.4","mode":"TRANSIT,WALK","ignoreRealtimeUpdates":"false","stairsReluctance":"2.0","toPlace":"48.426533,-71.06380699","time":"12:30:00"},"plan":{"date":1522686600000,"from":{"name":"Origin","lon":-71.059298,"lat":48.412249,"orig":"","vertexType":"NORMAL"},"to":{"name":"Destination","lon":-71.06380699,"lat":48.426533,"orig":"","vertexType":"NORMAL"},"itineraries":[{"duration":967,"startTime":1522687089000,"endTime":1522688056000,"walkTime":804,"transitTime":161,"waitingTime":2,"walkDistance":1012.346210520372,"walkLimitExceeded":false,"elevationLost":0.0,"elevationGained":0.0,"transfers":0,"legs":[{"startTime":1522687089000,"endTime":1522687119000,"departureDelay":0,"arrivalDelay":0,"realTime":false,"distance":39.716,"pathway":false,"mode":"WALK","route":"","agencyTimeZoneOffset":-14400000,"interlineWithPreviousLeg":false,"from":{"name":"Origin","lon":-71.059298,"lat":48.412249,"departure":1522687089000,"orig":"","vertexType":"NORMAL"},"to":{"name":"Champs-Élysées (no. 334)","stopId":"1:586","stopCode":"586","lon":-71.05956,"lat":48.412586,"arrival":1522687119000,"departure":1522687120000,"zoneId":"NA","stopIndex":31,"stopSequence":32,"vertexType":"TRANSIT"},"legGeometry":{"points":"konfHfyupLeAL","length":2},"rentedBike":false,"transitLeg":false,"duration":30.0,"steps":[{"distance":39.716,"relativeDirection":"DEPART","streetName":"Rue des Champs-Élysées","absoluteDirection":"NORTH","stayOn":false,"area":false,"bogusName":false,"lon":-71.05955604059255,"lat":48.41222596057771,"elevation":[]}]},{"startTime":1522687120000,"endTime":1522687281000,"departureDelay":0,"arrivalDelay":0,"realTime":false,"distance":1294.3629516213932,"pathway":false,"mode":"BUS","route":"12","agencyName":"Société de Transport du Saguenay","agencyUrl":"http://ville.saguenay.ca/fr/services-aux-citoyens/transport-sts","agencyTimeZoneOffset":-14400000,"routeColor":"556B2F","routeType":3,"routeId":"1:12","routeTextColor":"FFFFFF","interlineWithPreviousLeg":false,"tripBlockId":"28","headsign":"Terminus UQAC","agencyId":"0","tripId":"1:218037","serviceDate":"20180402","from":{"name":"Champs-Élysées (no. 334)","stopId":"1:586","stopCode":"586","lon":-71.05956,"lat":48.412586,"arrival":1522687119000,"departure":1522687120000,"zoneId":"NA","stopIndex":31,"stopSequence":32,"vertexType":"TRANSIT"},"to":{"name":"Bégin / Saint-Thomas","stopId":"1:563","stopCode":"563","lon":-71.0587,"lat":48.422,"arrival":1522687281000,"departure":1522687282000,"zoneId":"NA","stopIndex":36,"stopSequence":37,"vertexType":"TRANSIT"},"legGeometry":{"points":"sqnfHhyupLuSl[uCYmIeIeJ_J{J{J","length":6},"routeShortName":"12","routeLongName":"Rivière du Moulin","rentedBike":false,"transitLeg":true,"duration":161.0,"steps":[]},{"startTime":1522687282000,"endTime":1522688056000,"departureDelay":0,"arrivalDelay":0,"realTime":false,"distance":972.446,"pathway":false,"mode":"WALK","route":"","agencyTimeZoneOffset":-14400000,"interlineWithPreviousLeg":false,"from":{"name":"Bégin / Saint-Thomas","stopId":"1:563","stopCode":"563","lon":-71.0587,"lat":48.422,"arrival":1522687281000,"departure":1522687282000,"zoneId":"NA","stopIndex":36,"stopSequence":37,"vertexType":"TRANSIT"},"to":{"name":"Destination","lon":-71.06380699,"lat":48.426533,"arrival":1522688056000,"orig":"","vertexType":"NORMAL"},"legGeometry":{"points":"slpfHftupLKIeAkAWYiAgAaAcASOWWIIKIOl@EdACd@MLSICAOEk@CG?KACTM\\I\\Ax@Al@g@Zy@\\iG_@IpEAR?\\A|@?TC~C?n@CfBCdAAX?REvBCd@AV?L","length":43},"rentedBike":false,"transitLeg":false,"duration":774.0,"steps":[{"distance":208.109,"relativeDirection":"DEPART","streetName":"Rue Bégin","absoluteDirection":"NORTHEAST","stayOn":false,"area":false,"bogusName":false,"lon":-71.05875953651149,"lat":48.42202602664888,"elevation":[]},{"distance":127.559,"relativeDirection":"LEFT","streetName":"alley","absoluteDirection":"NORTHWEST","stayOn":false,"area":false,"bogusName":true,"lon":-71.05719760000001,"lat":48.4235836,"elevation":[]},{"distance":131.454,"relativeDirection":"LEFT","streetName":"path","absoluteDirection":"WEST","stayOn":true,"area":false,"bogusName":true,"lon":-71.0579166,"lat":48.424303900000005,"elevation":[]},{"distance":147.775,"relativeDirection":"SLIGHTLY_RIGHT","streetName":"Rue Maltais","absoluteDirection":"NORTH","stayOn":false,"area":false,"bogusName":false,"lon":-71.0591387,"lat":48.424959400000006,"elevation":[]},{"distance":357.549,"relativeDirection":"LEFT","streetName":"Rue Jacques-Cartier Est","absoluteDirection":"WEST","stayOn":false,"area":false,"bogusName":false,"lon":-71.0589782,"lat":48.426284100000004,"elevation":[]}]}],"tooSloped":false},{"duration":1120,"startTime":1522687712000,"endTime":1522688832000,"walkTime":619,"transitTime":499,"waitingTime":2,"walkDistance":795.0594135317239,"walkLimitExceeded":false,"elevationLost":0.0,"elevationGained":0.0,"transfers":0,"legs":[{"startTime":1522687712000,"endTime":1522688261000,"departureDelay":0,"arrivalDelay":0,"realTime":false,"distance":706.197,"pathway":false,"mode":"WALK","route":"","agencyTimeZoneOffset":-14400000,"interlineWithPreviousLeg":false,"from":{"name":"Origin","lon":-71.059298,"lat":48.412249,"departure":1522687712000,"orig":"","vertexType":"NORMAL"},"to":{"name":"Résidence Funéraire (Bégin)","stopId":"1:582","stopCode":"582","lon":-71.063981,"lat":48.416642,"arrival":1522688261000,"departure":1522688262000,"zoneId":"NA","stopIndex":26,"stopSequence":27,"vertexType":"TRANSIT"},"legGeometry":{"points":"konfHfyupLeALC@M@yCb@_ANcAp@_@d@Y`@iAbD??e@pAoAnDcA|FOh@GP??k@jBGE}AaB]Y","length":21},"rentedBike":false,"transitLeg":false,"duration":549.0,"steps":[{"distance":618.105,"relativeDirection":"DEPART","streetName":"Rue des Champs-Élysées","absoluteDirection":"NORTH","stayOn":false,"area":false,"bogusName":false,"lon":-71.05955604059255,"lat":48.41222596057771,"elevation":[]},{"distance":88.092,"relativeDirection":"RIGHT","streetName":"Rue Bégin","absoluteDirection":"NORTHEAST","stayOn":false,"area":false,"bogusName":false,"lon":-71.0647342,"lat":48.416021,"elevation":[]}]},{"startTime":1522688262000,"endTime":1522688761000,"departureDelay":0,"arrivalDelay":0,"realTime":false,"distance":2446.5726099694566,"pathway":false,"mode":"BUS","route":"15","agencyName":"Société de Transport du Saguenay","agencyUrl":"http://ville.saguenay.ca/fr/services-aux-citoyens/transport-sts","agencyTimeZoneOffset":-14400000,"routeColor":"FF00FF","routeType":3,"routeId":"1:15","routeTextColor":"FFFFFF","interlineWithPreviousLeg":false,"tripBlockId":"32","headsign":"Terminus Chicoutimi","agencyId":"0","tripId":"1:218159","serviceDate":"20180402","from":{"name":"Résidence Funéraire (Bégin)","stopId":"1:582","stopCode":"582","lon":-71.063981,"lat":48.416642,"arrival":1522688261000,"departure":1522688262000,"zoneId":"NA","stopIndex":26,"stopSequence":27,"vertexType":"TRANSIT"},"to":{"name":"Jacques-Cartier / Morin","stopId":"1:1930","stopCode":"1930","lon":-71.065007,"lat":48.426603,"arrival":1522688761000,"departure":1522688762000,"zoneId":"NA","stopIndex":36,"stopSequence":37,"vertexType":"TRANSIT"},"legGeometry":{"points":"kkofHvuvpLkIkIaJaJUUwBaCj@wCjAsCzGoG_CoHL{D_@kAqD{CQr@iAcAy@w@L{@wAuA_B_B_EpLDh@NbBVvCIxBg@`Am@l@Sb@a@rAqDqDmEkE]a@kAqAU|@WnKG|DGxDOdPKvJU|F?X","length":39},"routeShortName":"15","routeLongName":"Term. Chic / Costco","rentedBike":false,"transitLeg":true,"duration":499.0,"steps":[]},{"startTime":1522688762000,"endTime":1522688832000,"departureDelay":0,"arrivalDelay":0,"realTime":false,"distance":88.797,"pathway":false,"mode":"WALK","route":"","agencyTimeZoneOffset":-14400000,"interlineWithPreviousLeg":false,"from":{"name":"Jacques-Cartier / Morin","stopId":"1:1930","stopCode":"1930","lon":-71.065007,"lat":48.426603,"arrival":1522688761000,"departure":1522688762000,"zoneId":"NA","stopIndex":36,"stopSequence":37,"vertexType":"TRANSIT"},"to":{"name":"Destination","lon":-71.06380699,"lat":48.426533,"arrival":1522688832000,"orig":"","vertexType":"NORMAL"},"legGeometry":{"points":"{hqfHj{vpL@s@@_@@y@BqA@O","length":6},"rentedBike":false,"transitLeg":false,"duration":70.0,"steps":[{"distance":88.797,"relativeDirection":"DEPART","streetName":"Rue Jacques-Cartier Est","absoluteDirection":"EAST","stayOn":false,"area":false,"bogusName":false,"lon":-71.06501225432459,"lat":48.42654615659386,"elevation":[]}]}],"tooSloped":false},{"duration":1794,"startTime":1522687561000,"endTime":1522689355000,"walkTime":326,"transitTime":1466,"waitingTime":2,"walkDistance":416.2318421040744,"walkLimitExceeded":false,"elevationLost":0.0,"elevationGained":0.0,"transfers":0,"legs":[{"startTime":1522687561000,"endTime":1522687593000,"departureDelay":0,"arrivalDelay":0,"realTime":false,"distance":41.121,"pathway":false,"mode":"WALK","route":"","agencyTimeZoneOffset":-14400000,"interlineWithPreviousLeg":false,"from":{"name":"Origin","lon":-71.059298,"lat":48.412249,"departure":1522687561000,"orig":"","vertexType":"NORMAL"},"to":{"name":"Champs-Élysées (no. 334)","stopId":"1:568","stopCode":"568","lon":-71.05977,"lat":48.41258,"arrival":1522687593000,"departure":1522687594000,"zoneId":"NA","stopIndex":9,"stopSequence":10,"vertexType":"TRANSIT"},"legGeometry":{"points":"konfHfyupLeALC@","length":3},"rentedBike":false,"transitLeg":false,"duration":32.0,"steps":[{"distance":41.121,"relativeDirection":"DEPART","streetName":"Rue des Champs-Élysées","absoluteDirection":"NORTH","stayOn":false,"area":false,"bogusName":false,"lon":-71.05955604059255,"lat":48.41222596057771,"elevation":[]}]},{"startTime":1522687594000,"endTime":1522689060000,"departureDelay":0,"arrivalDelay":0,"realTime":false,"distance":9082.626145127071,"pathway":false,"mode":"BUS","route":"12","agencyName":"Société de Transport du Saguenay","agencyUrl":"http://ville.saguenay.ca/fr/services-aux-citoyens/transport-sts","agencyTimeZoneOffset":-14400000,"routeColor":"556B2F","routeType":3,"routeId":"1:12","routeTextColor":"FFFFFF","interlineWithPreviousLeg":false,"tripBlockId":"29","headsign":"Terminus Chicoutimi","agencyId":"0","tripId":"1:218064","serviceDate":"20180402","from":{"name":"Champs-Élysées (no. 334)","stopId":"1:568","stopCode":"568","lon":-71.05977,"lat":48.41258,"arrival":1522687593000,"departure":1522687594000,"zoneId":"NA","stopIndex":9,"stopSequence":10,"vertexType":"TRANSIT"},"to":{"name":"Terminus Chicoutimi","stopId":"1:1289","stopCode":"1289","lon":-71.066163,"lat":48.428677,"arrival":1522689060000,"departure":1522689061000,"zoneId":"NA","stopIndex":33,"stopSequence":34,"vertexType":"TRANSIT"},"legGeometry":{"points":"uqnfHryupL`Gs@hFo@xAmBrGcPxFoNlCyGa@yFYkD}CyA}KmFgD_BgAgBn@kFD_NoIgrAmD_WcAaLaDHoDJi`@wVoAbDbA|AnBU|B|AfBlAyLtKoGxFcFqDkJaHgEoDmDwC_TqQsBeB{HjWfAvAfM|O|FlHmB`IgA|Cy@`UYzHZvMR~Hr@~ZPvHsCrMFxf@|ApJj@nDDl]BvZdCXJhC","length":54},"routeShortName":"12","routeLongName":"Rivière du Moulin","rentedBike":false,"transitLeg":true,"duration":1466.0,"steps":[]},{"startTime":1522689061000,"endTime":1522689355000,"departureDelay":0,"arrivalDelay":0,"realTime":false,"distance":375.07400000000007,"pathway":false,"mode":"WALK","route":"","agencyTimeZoneOffset":-14400000,"interlineWithPreviousLeg":false,"from":{"name":"Terminus Chicoutimi","stopId":"1:1289","stopCode":"1289","lon":-71.066163,"lat":48.428677,"arrival":1522689060000,"departure":1522689061000,"zoneId":"NA","stopIndex":33,"stopSequence":34,"vertexType":"TRANSIT"},"to":{"name":"Destination","lon":-71.06380699,"lat":48.426533,"arrival":1522689355000,"orig":"","vertexType":"NORMAL"},"legGeometry":{"points":"{uqfHb~vpLbAJR@JDb@LrBHP@jCPDwC@s@@_@@y@BqA@O","length":14},"rentedBike":false,"transitLeg":false,"duration":294.0,"steps":[{"distance":229.71300000000002,"relativeDirection":"DEPART","streetName":"Rue Morin","absoluteDirection":"SOUTH","stayOn":false,"area":false,"bogusName":false,"lon":-71.0654590096484,"lat":48.428628638946556,"elevation":[]},{"distance":145.361,"relativeDirection":"LEFT","streetName":"Rue Jacques-Cartier Est","absoluteDirection":"EAST","stayOn":false,"area":false,"bogusName":false,"lon":-71.0657774,"lat":48.426577300000005,"elevation":[]}]}],"tooSloped":false}]},"debugOutput":{"precalculationTime":41,"pathCalculationTime":39,"pathTimes":[20,9,10],"renderingTime":0,"totalTime":80,"timedOut":false},"elevationMetadata":{"ellipsoidToGeoidDifference":-28.885904201182168,"geoidElevation":false}}