{"requestParameters":{"date":"2018/04/02","walkSpeed":"1.33","walkReluctance":"2.0","fromPlace":"48.418729,-71.053021","maxWalkDistance":"3000","waitReluctance":"1.0","carSpeed":"33","numItineraries":"3","waitAtBeginningFactor":"0.4","mode":"TRANSIT,WALK","ignoreRealtimeUpdates":"false","stairsReluctance":"2.0","toPlace":"48.416468,-71.057088","time":"16:30:00"},"plan":{"date":1522701000000,"from":{"name":"Origin","lon":-71.053021,"lat":48.418729,"orig":"","vertexType":"NORMAL"},"to":{"name":"Destination","lon":-71.057088,"lat":48.416468,"orig":"","vertexType":"NORMAL"},"itineraries":[{"duration":387,"startTime":1522701000000,"endTime":1522701387000,"walkTime":387,"transitTime":0,"waitingTime":0,"walkDistance":485.65947367971006,"walkLimitExceeded":false,"elevationLost":0.0,"elevationGained":0.0,"transfers":0,"legs":[{"startTime":1522701000000,"endTime":1522701387000,"departureDelay":0,"arrivalDelay":0,"realTime":false,"distance":485.52,"pathway":false,"mode":"WALK","route":"","agencyTimeZoneOffset":-14400000,"interlineWithPreviousLeg":false,"from":{"name":"Origin","lon":-71.053021,"lat":48.418729,"departure":1522701000000,"orig":"","vertexType":"NORMAL"},"to":{"name":"Destination","lon":-71.057088,"lat":48.416468,"arrival":1522701387000,"orig":"","vertexType":"NORMAL"},"legGeometry":{"points":"mwofHbotpLd@f@DG`CdCr@p@DD|@~@Vd@n@fAHTDJRb@OLV`Al@zBqA~D`@f@","length":17},"rentedBike":false,"transitLeg":false,"duration":387.0,"steps":[{"distance":30.223,"relativeDirection":"DEPART","streetName":"path","absoluteDirection":"SOUTHWEST","stayOn":false,"area":false,"bogusName":false,"lon":-71.05281450938897,"lat":48.41863935175929,"elevation":[]},{"distance":257.852,"relativeDirection":"CONTINUE","streetName":"Rue de la Fondation","absoluteDirection":"SOUTHWEST","stayOn":false,"area":false,"bogusName":false,"lon":-71.05297080000001,"lat":48.4184196,"elevation":[]},{"distance":10.127,"relativeDirection":"RIGHT","streetName":"Boulevard de l'Université","absoluteDirection":"NORTHWEST","stayOn":false,"area":false,"bogusName":false,"lon":-71.055149,"lat":48.416629500000006,"elevation":[]},{"distance":80.004,"relativeDirection":"LEFT","streetName":"path","absoluteDirection":"SOUTHWEST","stayOn":false,"area":false,"bogusName":true,"lon":-71.05521780000001,"lat":48.4167083,"elevation":[]},{"distance":83.616,"relativeDirection":"RIGHT","streetName":"Rue Thomas-Edison","absoluteDirection":"NORTHWEST","stayOn":false,"area":false,"bogusName":false,"lon":-71.05616500000001,"lat":48.4163584,"elevation":[]},{"distance":23.698,"relativeDirection":"LEFT","streetName":"Rue Thérèse-Casgrain","absoluteDirection":"SOUTHWEST","stayOn":false,"area":false,"bogusName":false,"lon":-71.0571206,"lat":48.4167624,"elevation":[]}]}],"tooSloped":false}]},"debugOutput":{"precalculationTime":40,"pathCalculationTime":19,"pathTimes":[2,11,6],"renderingTime":0,"totalTime":59,"timedOut":false},"elevationMetadata":{"ellipsoidToGeoidDifference":-28.885904201182168,"geoidElevation":false}}