{"requestParameters":{"date":"2018/04/02","walkSpeed":"1.33","walkReluctance":"2.0","fromPlace":"48.415945,-71.057474","maxWalkDistance":"3000","waitReluctance":"1.0","carSpeed":"33","numItineraries":"3","waitAtBeginningFactor":"0.4","mode":"TRANSIT,WALK","ignoreRealtimeUpdates":"false","stairsReluctance":"2.0","toPlace":"48.39082,-71.073186","time":"14:30:00"},"plan":{"date":1522693800000,"from":{"name":"Origin","lon":-71.057474,"lat":48.415945,"orig":"","vertexType":"NORMAL"},"to":{"name":"Destination","lon":-71.073186,"lat":48.39082,"orig":"","vertexType":"NORMAL"},"itineraries":[{"duration":1101,"startTime":1522695030000,"endTime":1522696131000,"walkTime":448,"transitTime":651,"waitingTime":2,"walkDistance":561.2245789415093,"walkLimitExceeded":false,"elevationLost":0.0,"elevationGained":0.0,"transfers":0,"legs":[{"startTime":1522695030000,"endTime":1522695396000,"departureDelay":0,"arrivalDelay":0,"realTime":false,"distance":464.4680000000001,"pathway":false,"mode":"WALK","route":"","agencyTimeZoneOffset":-14400000,"interlineWithPreviousLeg":false,"from":{"name":"Origin","lon":-71.057474,"lat":48.415945,"departure":1522695030000,"orig":"","vertexType":"NORMAL"},"to":{"name":"Polyclinique du Saguenay (boul. Université)","stopId":"1:79","stopCode":"79","lon":-71.053795,"lat":48.414956,"arrival":1522695396000,"departure":1522695397000,"zoneId":"NA","stopIndex":12,"stopSequence":13,"vertexType":"TRANSIT"},"legGeometry":{"points":"ggofHbnupLiBsAe@m@pA_EZeATu@bBwASs@Wq@GWnCcC^U","length":12},"rentedBike":false,"transitLeg":false,"duration":366.0,"steps":[{"distance":93.189,"relativeDirection":"DEPART","streetName":"Rue Thérèse-Casgrain","absoluteDirection":"NORTHEAST","stayOn":false,"area":false,"bogusName":false,"lon":-71.05777026037947,"lat":48.416048105632626,"elevation":[]},{"distance":202.274,"relativeDirection":"RIGHT","streetName":"Rue Thomas-Edison","absoluteDirection":"SOUTHEAST","stayOn":false,"area":false,"bogusName":false,"lon":-71.0571206,"lat":48.4167624,"elevation":[]},{"distance":54.82599999999999,"relativeDirection":"LEFT","streetName":"Rue Nobel","absoluteDirection":"NORTHEAST","stayOn":false,"area":false,"bogusName":false,"lon":-71.05510070000001,"lat":48.415600100000006,"elevation":[]},{"distance":114.179,"relativeDirection":"RIGHT","streetName":"Boulevard de l'Université","absoluteDirection":"SOUTHEAST","stayOn":false,"area":false,"bogusName":false,"lon":-71.0544787,"lat":48.4158697,"elevation":[]}]},{"startTime":1522695397000,"endTime":1522696048000,"departureDelay":0,"arrivalDelay":0,"realTime":false,"distance":3928.2262830750724,"pathway":false,"mode":"BUS","route":"175","agencyName":"Société de Transport du Saguenay","agencyUrl":"http://ville.saguenay.ca/fr/services-aux-citoyens/transport-sts","agencyTimeZoneOffset":-14400000,"routeColor":"FF00FF","routeType":3,"routeId":"1:175","routeTextColor":"FFFFFF","interlineWithPreviousLeg":false,"tripBlockId":"7","headsign":"Costco","agencyId":"0","tripId":"1:217337","serviceDate":"20180402","from":{"name":"Polyclinique du Saguenay (boul. Université)","stopId":"1:79","stopCode":"79","lon":-71.053795,"lat":48.414956,"arrival":1522695396000,"departure":1522695397000,"zoneId":"NA","stopIndex":12,"stopSequence":13,"vertexType":"TRANSIT"},"to":{"name":"boul. Talbot / Soeurs (Canac Marquis)","stopId":"1:71","stopCode":"71","lon":-71.074009,"lat":48.391015,"arrival":1522696048000,"departure":1522696049000,"zoneId":"NA","stopIndex":25,"stopSequence":26,"vertexType":"TRANSIT"},"legGeometry":{"points":"q`ofHxttpLROl@[vDQXKfA[|@q@fAsBlEmMr@sBhCsKz@dAjB|@dM`GzCvAXrCr@~Gx@]PEr@ObACn@FrBb@|@Ch@Kx@U~HsB^KZ|DJpII~Fa@rFUzBi@bDUxAm@nCcAlDM^RTfD`DjF`FjCrCrAvAbCfDjIfMdAzAfFpHd@n@nC`DlXv[","length":50},"routeShortName":"175","routeLongName":"Term. Chic / Costco","rentedBike":false,"transitLeg":true,"duration":651.0,"steps":[]},{"startTime":1522696049000,"endTime":1522696131000,"departureDelay":0,"arrivalDelay":0,"realTime":false,"distance":96.575,"pathway":false,"mode":"WALK","route":"","agencyTimeZoneOffset":-14400000,"interlineWithPreviousLeg":false,"from":{"name":"boul. Talbot / Soeurs (Canac Marquis)","stopId":"1:71","stopCode":"71","lon":-71.074009,"lat":48.391015,"arrival":1522696048000,"departure":1522696049000,"zoneId":"NA","stopIndex":25,"stopSequence":26,"vertexType":"TRANSIT"},"to":{"name":"Destination","lon":-71.073186,"lat":48.39082,"arrival":1522696131000,"orig":"","vertexType":"NORMAL"},"legGeometry":{"points":"ojjfHzrxpLl@r@N_@cAkACE","length":5},"rentedBike":false,"transitLeg":false,"duration":82.0,"steps":[{"distance":31.82,"relativeDirection":"DEPART","streetName":"Boulevard Talbot","absoluteDirection":"SOUTHWEST","stayOn":false,"area":false,"bogusName":false,"lon":-71.07389765515089,"lat":48.39096061304423,"elevation":[]},{"distance":64.755,"relativeDirection":"UTURN_LEFT","streetName":"Boulevard Talbot","absoluteDirection":"NORTHEAST","stayOn":true,"area":false,"bogusName":false,"lon":-71.0739954,"lat":48.3906549,"elevation":[]}]}],"tooSloped":false},{"duration":1101,"startTime":1522696830000,"endTime":1522697931000,"walkTime":448,"transitTime":651,"waitingTime":2,"walkDistance":561.2245789415093,"walkLimitExceeded":false,"elevationLost":0.0,"elevationGained":0.0,"transfers":0,"legs":[{"startTime":1522696830000,"endTime":1522697196000,"departureDelay":0,"arrivalDelay":0,"realTime":false,"distance":464.4680000000001,"pathway":false,"mode":"WALK","route":"","agencyTimeZoneOffset":-14400000,"interlineWithPreviousLeg":false,"from":{"name":"Origin","lon":-71.057474,"lat":48.415945,"departure":1522696830000,"orig":"","vertexType":"NORMAL"},"to":{"name":"Polyclinique du Saguenay (boul. Université)","stopId":"1:79","stopCode":"79","lon":-71.053795,"lat":48.414956,"arrival":1522697196000,"departure":1522697197000,"zoneId":"NA","stopIndex":12,"stopSequence":13,"vertexType":"TRANSIT"},"legGeometry":{"points":"ggofHbnupLiBsAe@m@pA_EZeATu@bBwASs@Wq@GWnCcC^U","length":12},"rentedBike":false,"transitLeg":false,"duration":366.0,"steps":[{"distance":93.189,"relativeDirection":"DEPART","streetName":"Rue Thérèse-Casgrain","absoluteDirection":"NORTHEAST","stayOn":false,"area":false,"bogusName":false,"lon":-71.05777026037947,"lat":48.416048105632626,"elevation":[]},{"distance":202.274,"relativeDirection":"RIGHT","streetName":"Rue Thomas-Edison","absoluteDirection":"SOUTHEAST","stayOn":false,"area":false,"bogusName":false,"lon":-71.0571206,"lat":48.4167624,"elevation":[]},{"distance":54.82599999999999,"relativeDirection":"LEFT","streetName":"Rue Nobel","absoluteDirection":"NORTHEAST","stayOn":false,"area":false,"bogusName":false,"lon":-71.05510070000001,"lat":48.415600100000006,"elevation":[]},{"distance":114.179,"relativeDirection":"RIGHT","streetName":"Boulevard de l'Université","absoluteDirection":"SOUTHEAST","stayOn":false,"area":false,"bogusName":false,"lon":-71.0544787,"lat":48.4158697,"elevation":[]}]},{"startTime":1522697197000,"endTime":1522697848000,"departureDelay":0,"arrivalDelay":0,"realTime":false,"distance":3928.2262830750724,"pathway":false,"mode":"BUS","route":"175","agencyName":"Société de Transport du Saguenay","agencyUrl":"http://ville.saguenay.ca/fr/services-aux-citoyens/transport-sts","agencyTimeZoneOffset":-14400000,"routeColor":"FF00FF","routeType":3,"routeId":"1:175","routeTextColor":"FFFFFF","interlineWithPreviousLeg":false,"tripBlockId":"8","headsign":"Costco","agencyId":"0","tripId":"1:217374","serviceDate":"20180402","from":{"name":"Polyclinique du Saguenay (boul. Université)","stopId":"1:79","stopCode":"79","lon":-71.053795,"lat":48.414956,"arrival":1522697196000,"departure":1522697197000,"zoneId":"NA","stopIndex":12,"stopSequence":13,"vertexType":"TRANSIT"},"to":{"name":"boul. Talbot / Soeurs (Canac Marquis)","stopId":"1:71","stopCode":"71","lon":-71.074009,"lat":48.391015,"arrival":1522697848000,"departure":1522697849000,"zoneId":"NA","stopIndex":25,"stopSequence":26,"vertexType":"TRANSIT"},"legGeometry":{"points":"q`ofHxttpLROl@[vDQXKfA[|@q@fAsBlEmMr@sBhCsKz@dAjB|@dM`GzCvAXrCr@~Gx@]PEr@ObACn@FrBb@|@Ch@Kx@U~HsB^KZ|DJpII~Fa@rFUzBi@bDUxAm@nCcAlDM^RTfD`DjF`FjCrCrAvAbCfDjIfMdAzAfFpHd@n@nC`DlXv[","length":50},"routeShortName":"175","routeLongName":"Term. Chic / Costco","rentedBike":false,"transitLeg":true,"duration":651.0,"steps":[]},{"startTime":1522697849000,"endTime":1522697931000,"departureDelay":0,"arrivalDelay":0,"realTime":false,"distance":96.575,"pathway":false,"mode":"WALK","route":"","agencyTimeZoneOffset":-14400000,"interlineWithPreviousLeg":false,"from":{"name":"boul. Talbot / Soeurs (Canac Marquis)","stopId":"1:71","stopCode":"71","lon":-71.074009,"lat":48.391015,"arrival":1522697848000,"departure":1522697849000,"zoneId":"NA","stopIndex":25,"stopSequence":26,"vertexType":"TRANSIT"},"to":{"name":"Destination","lon":-71.073186,"lat":48.39082,"arrival":1522697931000,"orig":"","vertexType":"NORMAL"},"legGeometry":{"points":"ojjfHzrxpLl@r@N_@cAkACE","length":5},"rentedBike":false,"transitLeg":false,"duration":82.0,"steps":[{"distance":31.82,"relativeDirection":"DEPART","streetName":"Boulevard Talbot","absoluteDirection":"SOUTHWEST","stayOn":false,"area":false,"bogusName":false,"lon":-71.07389765515089,"lat":48.39096061304423,"elevation":[]},{"distance":64.755,"relativeDirection":"UTURN_LEFT","streetName":"Boulevard Talbot","absoluteDirection":"NORTHEAST","stayOn":true,"area":false,"bogusName":false,"lon":-71.0739954,"lat":48.3906549,"elevation":[]}]}],"tooSloped":false},{"duration":1101,"startTime":1522697730000,"endTime":1522698831000,"walkTime":448,"transitTime":651,"waitingTime":2,"walkDistance":561.2245789415093,"walkLimitExceeded":false,"elevationLost":0.0,"elevationGained":0.0,"transfers":0,"legs":[{"startTime":1522697730000,"endTime":1522698096000,"departureDelay":0,"arrivalDelay":0,"realTime":false,"distance":464.4680000000001,"pathway":false,"mode":"WALK","route":"","agencyTimeZoneOffset":-14400000,"interlineWithPreviousLeg":false,"from":{"name":"Origin","lon":-71.057474,"lat":48.415945,"departure":1522697730000,"orig":"","vertexType":"NORMAL"},"to":{"name":"Polyclinique du Saguenay (boul. Université)","stopId":"1:79","stopCode":"79","lon":-71.053795,"lat":48.414956,"arrival":1522698096000,"departure":1522698097000,"zoneId":"NA","stopIndex":12,"stopSequence":13,"vertexType":"TRANSIT"},"legGeometry":{"points":"ggofHbnupLiBsAe@m@pA_EZeATu@bBwASs@Wq@GWnCcC^U","length":12},"rentedBike":false,"transitLeg":false,"duration":366.0,"steps":[{"distance":93.189,"relativeDirection":"DEPART","streetName":"Rue Thérèse-Casgrain","absoluteDirection":"NORTHEAST","stayOn":false,"area":false,"bogusName":false,"lon":-71.05777026037947,"lat":48.416048105632626,"elevation":[]},{"distance":202.274,"relativeDirection":"RIGHT","streetName":"Rue Thomas-Edison","absoluteDirection":"SOUTHEAST","stayOn":false,"area":false,"bogusName":false,"lon":-71.0571206,"lat":48.4167624,"elevation":[]},{"distance":54.82599999999999,"relativeDirection":"LEFT","streetName":"Rue Nobel","absoluteDirection":"NORTHEAST","stayOn":false,"area":false,"bogusName":false,"lon":-71.05510070000001,"lat":48.415600100000006,"elevation":[]},{"distance":114.179,"relativeDirection":"RIGHT","streetName":"Boulevard de l'Université","absoluteDirection":"SOUTHEAST","stayOn":false,"area":false,"bogusName":false,"lon":-71.0544787,"lat":48.4158697,"elevation":[]}]},{"startTime":1522698097000,"endTime":1522698748000,"departureDelay":0,"arrivalDelay":0,"realTime":false,"distance":3928.2262830750724,"pathway":false,"mode":"BUS","route":"175","agencyName":"Société de Transport du Saguenay","agencyUrl":"http://ville.saguenay.ca/fr/services-aux-citoyens/transport-sts","agencyTimeZoneOffset":-14400000,"routeColor":"FF00FF","routeType":3,"routeId":"1:175","routeTextColor":"FFFFFF","interlineWithPreviousLeg":false,"tripBlockId":"77","headsign":"Costco","agencyId":"0","tripId":"1:218635","serviceDate":"20180402","from":{"name":"Polyclinique du Saguenay (boul. Université)","stopId":"1:79","stopCode":"79","lon":-71.053795,"lat":48.414956,"arrival":1522698096000,"departure":1522698097000,"zoneId":"NA","stopIndex":12,"stopSequence":13,"vertexType":"TRANSIT"},"to":{"name":"boul. Talbot / Soeurs (Canac Marquis)","stopId":"1:71","stopCode":"71","lon":-71.074009,"lat":48.391015,"arrival":1522698748000,"departure":1522698749000,"zoneId":"NA","stopIndex":25,"stopSequence":26,"vertexType":"TRANSIT"},"legGeometry":{"points":"q`ofHxttpLROl@[vDQXKfA[|@q@fAsBlEmMr@sBhCsKz@dAjB|@dM`GzCvAXrCr@~Gx@]PEr@ObACn@FrBb@|@Ch@Kx@U~HsB^KZ|DJpII~Fa@rFUzBi@bDUxAm@nCcAlDM^RTfD`DjF`FjCrCrAvAbCfDjIfMdAzAfFpHd@n@nC`DlXv[","length":50},"routeShortName":"175","routeLongName":"Term. Chic / Costco","rentedBike":false,"transitLeg":true,"duration":651.0,"steps":[]},{"startTime":1522698749000,"endTime":1522698831000,"departureDelay":0,"arrivalDelay":0,"realTime":false,"distance":96.575,"pathway":false,"mode":"WALK","route":"","agencyTimeZoneOffset":-14400000,"interlineWithPreviousLeg":false,"from":{"name":"boul. Talbot / Soeurs (Canac Marquis)","stopId":"1:71","stopCode":"71","lon":-71.074009,"lat":48.391015,"arrival":1522698748000,"departure":1522698749000,"zoneId":"NA","stopIndex":25,"stopSequence":26,"vertexType":"TRANSIT"},"to":{"name":"Destination","lon":-71.073186,"lat":48.39082,"arrival":1522698831000,"orig":"","vertexType":"NORMAL"},"legGeometry":{"points":"ojjfHzrxpLl@r@N_@cAkACE","length":5},"rentedBike":false,"transitLeg":false,"duration":82.0,"steps":[{"distance":31.82,"relativeDirection":"DEPART","streetName":"Boulevard Talbot","absoluteDirection":"SOUTHWEST","stayOn":false,"area":false,"bogusName":false,"lon":-71.07389765515089,"lat":48.39096061304423,"elevation":[]},{"distance":64.755,"relativeDirection":"UTURN_LEFT","streetName":"Boulevard Talbot","absoluteDirection":"NORTHEAST","stayOn":true,"area":false,"bogusName":false,"lon":-71.0739954,"lat":48.3906549,"elevation":[]}]}],"tooSloped":false}]},"debugOutput":{"precalculationTime":30,"pathCalculationTime":43,"pathTimes":[17,12,14],"renderingTime":0,"totalTime":73,"timedOut":false},"elevationMetadata":{"ellipsoidToGeoidDifference":-28.885904201182168,"geoidElevation":false}}