{"requestParameters":{"date":"2018/04/02","walkSpeed":"1.33","walkReluctance":"2.0","fromPlace":"48.415094,-71.045454","maxWalkDistance":"3000","waitReluctance":"1.0","carSpeed":"33","numItineraries":"3","waitAtBeginningFactor":"0.4","mode":"TRANSIT,WALK","ignoreRealtimeUpdates":"false","stairsReluctance":"2.0","toPlace":"48.414228,-71.057172","time":"11:40:00"},"plan":{"date":1522683600000,"from":{"name":"Origin","lon":-71.045454,"lat":48.415094,"orig":"","vertexType":"NORMAL"},"to":{"name":"Destination","lon":-71.057172,"lat":48.414228,"orig":"","vertexType":"NORMAL"},"itineraries":[{"duration":850,"startTime":1522683651000,"endTime":1522684501000,"walkTime":807,"transitTime":41,"waitingTime":2,"walkDistance":1030.0320676634594,"walkLimitExceeded":false,"elevationLost":0.0,"elevationGained":0.0,"transfers":0,"legs":[{"startTime":1522683651000,"endTime":1522684084000,"departureDelay":0,"arrivalDelay":0,"realTime":false,"distance":551.012,"pathway":false,"mode":"WALK","route":"","agencyTimeZoneOffset":-14400000,"interlineWithPreviousLeg":false,"from":{"name":"Origin","lon":-71.045454,"lat":48.415094,"departure":1522683651000,"orig":"","vertexType":"NORMAL"},"to":{"name":"boul. Université / Murdock","stopId":"1:59","stopCode":"59","lon":-71.049971,"lat":48.411755,"arrival":1522684084000,"departure":1522684085000,"zoneId":"NA","stopIndex":38,"stopSequence":39,"vertexType":"TRANSIT"},"legGeometry":{"points":"qaofHz`spLITt@hABDn@~@b@lA`ArAl@l@@Bh@j@PRdBlBdEbEnBrB[|@","length":15},"rentedBike":false,"transitLeg":false,"duration":433.0,"steps":[{"distance":9.966,"relativeDirection":"DEPART","streetName":"Rue Chabanel","absoluteDirection":"NORTHWEST","stayOn":false,"area":false,"bogusName":false,"lon":-71.04541115693436,"lat":48.41513626035292,"elevation":[]},{"distance":513.108,"relativeDirection":"LEFT","streetName":"Rue Murdock","absoluteDirection":"SOUTHWEST","stayOn":false,"area":false,"bogusName":false,"lon":-71.0455232,"lat":48.4151863,"elevation":[]},{"distance":27.938,"relativeDirection":"RIGHT","streetName":"Boulevard de l'Université","absoluteDirection":"NORTHWEST","stayOn":false,"area":false,"bogusName":false,"lon":-71.04973220000001,"lat":48.411543200000004,"elevation":[]}]},{"startTime":1522684085000,"endTime":1522684126000,"departureDelay":0,"arrivalDelay":0,"realTime":false,"distance":522.9486117967311,"pathway":false,"mode":"BUS","route":"5","agencyName":"Société de Transport du Saguenay","agencyUrl":"http://ville.saguenay.ca/fr/services-aux-citoyens/transport-sts","agencyTimeZoneOffset":-14400000,"routeColor":"FF0000","routeType":3,"routeId":"1:5","routeTextColor":"FFFFFF","interlineWithPreviousLeg":false,"tripBlockId":"24","headsign":"Terminus UQAC","agencyId":"0","tripId":"1:217909","serviceDate":"20180402","from":{"name":"boul. Université / Murdock","stopId":"1:59","stopCode":"59","lon":-71.049971,"lat":48.411755,"arrival":1522684084000,"departure":1522684085000,"zoneId":"NA","stopIndex":38,"stopSequence":39,"vertexType":"TRANSIT"},"to":{"name":"Polyclinique du Saguenay (boul. Université)","stopId":"1:61","stopCode":"61","lon":-71.053728,"lat":48.415424,"arrival":1522684126000,"departure":1522684127000,"zoneId":"NA","stopIndex":40,"stopSequence":41,"vertexType":"TRANSIT"},"legGeometry":{"points":"alnfHv}spLoDdKM\\k@zAc@l@OPCBQN_@Pa@JYDmCHc@Be@L_@P_@Vy@t@","length":17},"routeShortName":"5","routeLongName":"Term. Chic/Term. Baie via St-J.Batiste","rentedBike":false,"transitLeg":true,"duration":41.0,"steps":[]},{"startTime":1522684127000,"endTime":1522684501000,"departureDelay":0,"arrivalDelay":0,"realTime":false,"distance":478.843,"pathway":false,"mode":"WALK","route":"","agencyTimeZoneOffset":-14400000,"interlineWithPreviousLeg":false,"from":{"name":"Polyclinique du Saguenay (boul. Université)","stopId":"1:61","stopCode":"61","lon":-71.053728,"lat":48.415424,"arrival":1522684126000,"departure":1522684127000,"zoneId":"NA","stopIndex":40,"stopSequence":41,"vertexType":"TRANSIT"},"to":{"name":"Destination","lon":-71.057172,"lat":48.414228,"arrival":1522684501000,"orig":"","vertexType":"NORMAL"},"legGeometry":{"points":"gcofHbutpLaBvAKHPh@FVVp@Rr@pAeAl@E`@XbA~@zBzBmBpF","length":13},"rentedBike":false,"transitLeg":false,"duration":374.0,"steps":[{"distance":71.131,"relativeDirection":"DEPART","streetName":"Boulevard de l'Université","absoluteDirection":"NORTHWEST","stayOn":false,"area":false,"bogusName":false,"lon":-71.05377815383544,"lat":48.415404134793874,"elevation":[]},{"distance":72.972,"relativeDirection":"LEFT","streetName":"Rue Nobel","absoluteDirection":"SOUTHWEST","stayOn":false,"area":false,"bogusName":false,"lon":-71.0542688,"lat":48.4159547,"elevation":[]},{"distance":226.075,"relativeDirection":"LEFT","streetName":"Rue Thomas-Edison","absoluteDirection":"SOUTHEAST","stayOn":false,"area":false,"bogusName":false,"lon":-71.05510070000001,"lat":48.415600100000006,"elevation":[]},{"distance":108.665,"relativeDirection":"RIGHT","streetName":"Rue Marguerite-Tellier","absoluteDirection":"NORTHWEST","stayOn":false,"area":false,"bogusName":false,"lon":-71.05579440000001,"lat":48.413831200000004,"elevation":[]}]}],"tooSloped":false},{"duration":939,"startTime":1522683600000,"endTime":1522684539000,"walkTime":939,"transitTime":0,"waitingTime":0,"walkDistance":1214.0191578910853,"walkLimitExceeded":false,"elevationLost":0.0,"elevationGained":0.0,"transfers":0,"legs":[{"startTime":1522683600000,"endTime":1522684539000,"departureDelay":0,"arrivalDelay":0,"realTime":false,"distance":1213.906,"pathway":false,"mode":"WALK","route":"","agencyTimeZoneOffset":-14400000,"interlineWithPreviousLeg":false,"from":{"name":"Origin","lon":-71.045454,"lat":48.415094,"departure":1522683600000,"orig":"","vertexType":"NORMAL"},"to":{"name":"Destination","lon":-71.057172,"lat":48.414228,"arrival":1522684539000,"orig":"","vertexType":"NORMAL"},"legGeometry":{"points":"qaofHz`spLIT}AzE_@`AIVOb@O`@wAtDmArDqChIjClCTj@V~AHd@?TvAhF^rAFL@@Ph@FVVp@Rr@pAeAl@E`@XbA~@zBzBmBpF","length":29},"rentedBike":false,"transitLeg":false,"duration":939.0,"steps":[{"distance":487.449,"relativeDirection":"DEPART","streetName":"Rue Chabanel","absoluteDirection":"NORTHWEST","stayOn":false,"area":false,"bogusName":false,"lon":-71.04541115693436,"lat":48.41513626035292,"elevation":[]},{"distance":175.666,"relativeDirection":"LEFT","streetName":"Rue des Étudiants","absoluteDirection":"SOUTHWEST","stayOn":false,"area":false,"bogusName":false,"lon":-71.0508843,"lat":48.4175886,"elevation":[]},{"distance":143.079,"relativeDirection":"CONTINUE","streetName":"path","absoluteDirection":"SOUTHWEST","stayOn":false,"area":false,"bogusName":true,"lon":-71.05259620000001,"lat":48.416600700000004,"elevation":[]},{"distance":72.972,"relativeDirection":"CONTINUE","streetName":"Rue Nobel","absoluteDirection":"SOUTHWEST","stayOn":false,"area":false,"bogusName":false,"lon":-71.0542688,"lat":48.4159547,"elevation":[]},{"distance":226.075,"relativeDirection":"LEFT","streetName":"Rue Thomas-Edison","absoluteDirection":"SOUTHEAST","stayOn":false,"area":false,"bogusName":false,"lon":-71.05510070000001,"lat":48.415600100000006,"elevation":[]},{"distance":108.665,"relativeDirection":"RIGHT","streetName":"Rue Marguerite-Tellier","absoluteDirection":"NORTHWEST","stayOn":false,"area":false,"bogusName":false,"lon":-71.05579440000001,"lat":48.413831200000004,"elevation":[]}]}],"tooSloped":false},{"duration":732,"startTime":1522684744000,"endTime":1522685476000,"walkTime":436,"transitTime":294,"waitingTime":2,"walkDistance":545.9693909723974,"walkLimitExceeded":false,"elevationLost":0.0,"elevationGained":0.0,"transfers":0,"legs":[{"startTime":1522684744000,"endTime":1522684789000,"departureDelay":0,"arrivalDelay":0,"realTime":false,"distance":53.842,"pathway":false,"mode":"WALK","route":"","agencyTimeZoneOffset":-14400000,"interlineWithPreviousLeg":false,"from":{"name":"Origin","lon":-71.045454,"lat":48.415094,"departure":1522684744000,"orig":"","vertexType":"NORMAL"},"to":{"name":"Murdock / Chabanel","stopId":"1:3552","stopCode":"3552","lon":-71.046063,"lat":48.414978,"arrival":1522684789000,"departure":1522684790000,"zoneId":"NA","stopIndex":19,"stopSequence":20,"vertexType":"TRANSIT"},"legGeometry":{"points":"qaofHz`spLITt@hABD","length":4},"rentedBike":false,"transitLeg":false,"duration":45.0,"steps":[{"distance":9.966,"relativeDirection":"DEPART","streetName":"Rue Chabanel","absoluteDirection":"NORTHWEST","stayOn":false,"area":false,"bogusName":false,"lon":-71.04541115693436,"lat":48.41513626035292,"elevation":[]},{"distance":43.876,"relativeDirection":"LEFT","streetName":"Rue Murdock","absoluteDirection":"SOUTHWEST","stayOn":false,"area":false,"bogusName":false,"lon":-71.0455232,"lat":48.4151863,"elevation":[]}]},{"startTime":1522684790000,"endTime":1522685084000,"departureDelay":0,"arrivalDelay":0,"realTime":false,"distance":1394.0402008068113,"pathway":false,"mode":"BUS","route":"10","agencyName":"Société de Transport du Saguenay","agencyUrl":"http://ville.saguenay.ca/fr/services-aux-citoyens/transport-sts","agencyTimeZoneOffset":-14400000,"routeColor":"0000FF","routeType":3,"routeId":"1:10","routeTextColor":"FFFFFF","interlineWithPreviousLeg":false,"tripBlockId":"26","headsign":"Terminus UQAC","agencyId":"0","tripId":"1:217974","serviceDate":"20180402","from":{"name":"Murdock / Chabanel","stopId":"1:3552","stopCode":"3552","lon":-71.046063,"lat":48.414978,"arrival":1522684789000,"departure":1522684790000,"zoneId":"NA","stopIndex":19,"stopSequence":20,"vertexType":"TRANSIT"},"to":{"name":"Fondation / Étudiants","stopId":"1:261","stopCode":"261","lon":-71.053953,"lat":48.417524,"arrival":1522685084000,"departure":1522685085000,"zoneId":"NA","stopIndex":23,"stopSequence":24,"vertexType":"TRANSIT"},"legGeometry":{"points":"e`ofHhdspLvA~BvB|BdN|Nc@bAuA~C}VeWaEpLeIrU|D~E","length":10},"routeShortName":"10","routeLongName":"Notre-Dame du Saguenay","rentedBike":false,"transitLeg":true,"duration":294.0,"steps":[]},{"startTime":1522685085000,"endTime":1522685476000,"departureDelay":0,"arrivalDelay":0,"realTime":false,"distance":491.971,"pathway":false,"mode":"WALK","route":"","agencyTimeZoneOffset":-14400000,"interlineWithPreviousLeg":false,"from":{"name":"Fondation / Étudiants","stopId":"1:261","stopCode":"261","lon":-71.053953,"lat":48.417524,"arrival":1522685084000,"departure":1522685085000,"zoneId":"NA","stopIndex":23,"stopSequence":24,"vertexType":"TRANSIT"},"to":{"name":"Destination","lon":-71.057172,"lat":48.414228,"arrival":1522685476000,"orig":"","vertexType":"NORMAL"},"legGeometry":{"points":"kpofHzutpLDD|@~@Vd@n@fAHTDJRb@OLV`Al@zB`A~@p@j@fAz@|A|@|@n@Tq@Z{@","length":18},"rentedBike":false,"transitLeg":false,"duration":391.0,"steps":[{"distance":134.87099999999998,"relativeDirection":"DEPART","streetName":"Rue de la Fondation","absoluteDirection":"SOUTHWEST","stayOn":false,"area":false,"bogusName":false,"lon":-71.05389734227215,"lat":48.41750043741361,"elevation":[]},{"distance":10.127,"relativeDirection":"RIGHT","streetName":"Boulevard de l'Université","absoluteDirection":"NORTHWEST","stayOn":false,"area":false,"bogusName":false,"lon":-71.055149,"lat":48.416629500000006,"elevation":[]},{"distance":80.004,"relativeDirection":"LEFT","streetName":"path","absoluteDirection":"SOUTHWEST","stayOn":false,"area":false,"bogusName":true,"lon":-71.05521780000001,"lat":48.4167083,"elevation":[]},{"distance":217.5,"relativeDirection":"SLIGHTLY_LEFT","streetName":"Rue Graham-Bell","absoluteDirection":"SOUTHWEST","stayOn":false,"area":false,"bogusName":false,"lon":-71.05616500000001,"lat":48.4163584,"elevation":[]},{"distance":49.469,"relativeDirection":"LEFT","streetName":"Rue Marguerite-Tellier","absoluteDirection":"SOUTHEAST","stayOn":false,"area":false,"bogusName":false,"lon":-71.0575589,"lat":48.4146378,"elevation":[]}]}],"tooSloped":false}]},"debugOutput":{"precalculationTime":39,"pathCalculationTime":16,"pathTimes":[11,3,2],"renderingTime":1,"totalTime":56,"timedOut":false},"elevationMetadata":{"ellipsoidToGeoidDifference":-28.885904201182168,"geoidElevation":false}}