{"requestParameters":{"date":"2018/04/02","walkSpeed":"1.33","walkReluctance":"2.0","fromPlace":"48.414861,-71.056611","maxWalkDistance":"3000","waitReluctance":"1.0","carSpeed":"33","numItineraries":"3","waitAtBeginningFactor":"0.4","mode":"TRANSIT,WALK","ignoreRealtimeUpdates":"false","stairsReluctance":"2.0","toPlace":"48.40344,-71.00349699","time":"18:25:00"},"plan":{"date":1522707900000,"from":{"name":"Origin","lon":-71.056611,"lat":48.414861,"orig":"","vertexType":"NORMAL"},"to":{"name":"Destination","lon":-71.00349699,"lat":48.40344,"orig":"","vertexType":"NORMAL"},"itineraries":[{"duration":769,"startTime":1522708208000,"endTime":1522708977000,"walkTime":394,"transitTime":373,"waitingTime":2,"walkDistance":488.4818796927341,"walkLimitExceeded":false,"elevationLost":0.0,"elevationGained":0.0,"transfers":0,"legs":[{"startTime":1522708208000,"endTime":1522708594000,"departureDelay":0,"arrivalDelay":0,"realTime":false,"distance":478.9340000000001,"pathway":false,"mode":"WALK","route":"","agencyTimeZoneOffset":-14400000,"interlineWithPreviousLeg":false,"from":{"name":"Origin","lon":-71.056611,"lat":48.414861,"departure":1522708208000,"orig":"","vertexType":"NORMAL"},"to":{"name":"Polyclinique du Saguenay (boul. Université)","stopId":"1:79","stopCode":"79","lon":-71.053795,"lat":48.414956,"arrival":1522708594000,"departure":1522708595000,"zoneId":"NA","stopIndex":1,"stopSequence":2,"vertexType":"TRANSIT"},"legGeometry":{"points":"s`ofHreupLOFYDk@fBgA{@q@k@aA_AZeATu@bBwASs@Wq@GWnCcC^U","length":15},"rentedBike":false,"transitLeg":false,"duration":386.0,"steps":[{"distance":69.468,"relativeDirection":"DEPART","streetName":"Place Einstein","absoluteDirection":"NORTH","stayOn":false,"area":false,"bogusName":false,"lon":-71.056412,"lat":48.414983,"elevation":[]},{"distance":121.803,"relativeDirection":"RIGHT","streetName":"Rue Graham-Bell","absoluteDirection":"NORTHEAST","stayOn":false,"area":false,"bogusName":false,"lon":-71.0570003,"lat":48.4154141,"elevation":[]},{"distance":118.658,"relativeDirection":"RIGHT","streetName":"Rue Thomas-Edison","absoluteDirection":"SOUTHEAST","stayOn":false,"area":false,"bogusName":false,"lon":-71.05616500000001,"lat":48.4163584,"elevation":[]},{"distance":54.82599999999999,"relativeDirection":"LEFT","streetName":"Rue Nobel","absoluteDirection":"NORTHEAST","stayOn":false,"area":false,"bogusName":false,"lon":-71.05510070000001,"lat":48.415600100000006,"elevation":[]},{"distance":114.179,"relativeDirection":"RIGHT","streetName":"Boulevard de l'Université","absoluteDirection":"SOUTHEAST","stayOn":false,"area":false,"bogusName":false,"lon":-71.0544787,"lat":48.4158697,"elevation":[]}]},{"startTime":1522708595000,"endTime":1522708968000,"departureDelay":0,"arrivalDelay":0,"realTime":false,"distance":4277.5097801947195,"pathway":false,"mode":"BUS","route":"5","agencyName":"Société de Transport du Saguenay","agencyUrl":"http://ville.saguenay.ca/fr/services-aux-citoyens/transport-sts","agencyTimeZoneOffset":-14400000,"routeColor":"FF0000","routeType":3,"routeId":"1:5","routeTextColor":"FFFFFF","interlineWithPreviousLeg":false,"tripBlockId":"25","headsign":"Terminus La Baie","agencyId":"0","tripId":"1:217951","serviceDate":"20180402","from":{"name":"Polyclinique du Saguenay (boul. Université)","stopId":"1:79","stopCode":"79","lon":-71.053795,"lat":48.414956,"arrival":1522708594000,"departure":1522708595000,"zoneId":"NA","stopIndex":1,"stopSequence":2,"vertexType":"TRANSIT"},"to":{"name":"boul. St-Jean-Baptiste / Ste-Famille","stopId":"1:273","stopCode":"273","lon":-71.005229,"lat":48.401809,"arrival":1522708968000,"departure":1522708969000,"zoneId":"NA","stopIndex":9,"stopSequence":10,"vertexType":"TRANSIT"},"legGeometry":{"points":"s`ofHtttpLHI\\Q^Mb@I~CIJCJAXKXMXQRQPQT[\\s@^aAn@mBnCgItD{Kv@iHB_@FyAFsA@q@CeBKkDc@cIsFa{@QoBe@cHc@aEeC_Oa@iDk@iIMWxAo@\\UZUdDeD|IoJp@u@l@_Ah@{@f@{@DMp@uAt@iBnAgDrQme@lKwXnGoP","length":51},"routeShortName":"5","routeLongName":"Term. Chic/Term. Baie via St-J.Batiste","rentedBike":false,"transitLeg":true,"duration":373.0,"steps":[]},{"startTime":1522708969000,"endTime":1522708977000,"departureDelay":0,"arrivalDelay":0,"realTime":false,"distance":9.346,"pathway":false,"mode":"WALK","route":"","agencyTimeZoneOffset":-14400000,"interlineWithPreviousLeg":false,"from":{"name":"boul. St-Jean-Baptiste / Ste-Famille","stopId":"1:273","stopCode":"273","lon":-71.005229,"lat":48.401809,"arrival":1522708968000,"departure":1522708969000,"zoneId":"NA","stopIndex":9,"stopSequence":10,"vertexType":"TRANSIT"},"to":{"name":"Destination","lon":-71.00349699,"lat":48.40344,"arrival":1522708977000,"orig":"","vertexType":"NORMAL"},"legGeometry":{"points":"onlfHlekpLIR","length":2},"rentedBike":false,"transitLeg":false,"duration":8.0,"steps":[{"distance":9.346,"relativeDirection":"DEPART","streetName":"Boulevard Saint-Jean-Baptiste","absoluteDirection":"NORTHWEST","stayOn":false,"area":false,"bogusName":false,"lon":-71.00518930041385,"lat":48.40184322879472,"elevation":[]}]}],"tooSloped":false},{"duration":770,"startTime":1522709407000,"endTime":1522710177000,"walkTime":394,"transitTime":374,"waitingTime":2,"walkDistance":488.4818796927341,"walkLimitExceeded":false,"elevationLost":0.0,"elevationGained":0.0,"transfers":0,"legs":[{"startTime":1522709407000,"endTime":1522709793000,"departureDelay":0,"arrivalDelay":0,"realTime":false,"distance":478.9340000000001,"pathway":false,"mode":"WALK","route":"","agencyTimeZoneOffset":-14400000,"interlineWithPreviousLeg":false,"from":{"name":"Origin","lon":-71.056611,"lat":48.414861,"departure":1522709407000,"orig":"","vertexType":"NORMAL"},"to":{"name":"Polyclinique du Saguenay (boul. Université)","stopId":"1:79","stopCode":"79","lon":-71.053795,"lat":48.414956,"arrival":1522709793000,"departure":1522709794000,"zoneId":"NA","stopIndex":1,"stopSequence":2,"vertexType":"TRANSIT"},"legGeometry":{"points":"s`ofHreupLOFYDk@fBgA{@q@k@aA_AZeATu@bBwASs@Wq@GWnCcC^U","length":15},"rentedBike":false,"transitLeg":false,"duration":386.0,"steps":[{"distance":69.468,"relativeDirection":"DEPART","streetName":"Place Einstein","absoluteDirection":"NORTH","stayOn":false,"area":false,"bogusName":false,"lon":-71.056412,"lat":48.414983,"elevation":[]},{"distance":121.803,"relativeDirection":"RIGHT","streetName":"Rue Graham-Bell","absoluteDirection":"NORTHEAST","stayOn":false,"area":false,"bogusName":false,"lon":-71.0570003,"lat":48.4154141,"elevation":[]},{"distance":118.658,"relativeDirection":"RIGHT","streetName":"Rue Thomas-Edison","absoluteDirection":"SOUTHEAST","stayOn":false,"area":false,"bogusName":false,"lon":-71.05616500000001,"lat":48.4163584,"elevation":[]},{"distance":54.82599999999999,"relativeDirection":"LEFT","streetName":"Rue Nobel","absoluteDirection":"NORTHEAST","stayOn":false,"area":false,"bogusName":false,"lon":-71.05510070000001,"lat":48.415600100000006,"elevation":[]},{"distance":114.179,"relativeDirection":"RIGHT","streetName":"Boulevard de l'Université","absoluteDirection":"SOUTHEAST","stayOn":false,"area":false,"bogusName":false,"lon":-71.0544787,"lat":48.4158697,"elevation":[]}]},{"startTime":1522709794000,"endTime":1522710168000,"departureDelay":0,"arrivalDelay":0,"realTime":false,"distance":4277.5097801947195,"pathway":false,"mode":"BUS","route":"6","agencyName":"Société de Transport du Saguenay","agencyUrl":"http://ville.saguenay.ca/fr/services-aux-citoyens/transport-sts","agencyTimeZoneOffset":-14400000,"routeColor":"FF0000","routeType":3,"routeId":"1:6","routeTextColor":"FFFFFF","interlineWithPreviousLeg":false,"tripBlockId":"24","headsign":"Terminus La Baie","agencyId":"0","tripId":"1:217924","serviceDate":"20180402","from":{"name":"Polyclinique du Saguenay (boul. Université)","stopId":"1:79","stopCode":"79","lon":-71.053795,"lat":48.414956,"arrival":1522709793000,"departure":1522709794000,"zoneId":"NA","stopIndex":1,"stopSequence":2,"vertexType":"TRANSIT"},"to":{"name":"boul. St-Jean-Baptiste / Ste-Famille","stopId":"1:273","stopCode":"273","lon":-71.005229,"lat":48.401809,"arrival":1522710168000,"departure":1522710169000,"zoneId":"NA","stopIndex":9,"stopSequence":10,"vertexType":"TRANSIT"},"legGeometry":{"points":"s`ofHtttpLr@_@hAUjCOJA~@O~@y@~@uAd@{AxA_EpAuDJYhCeI`B_MDaAFsA@q@CeBKkDc@cIsFa{@QoBe@cHc@aEeC_Oa@iDk@iIMWxAo@\\UZUdDeD|IoJp@u@l@_Ah@{@f@{@DMp@uAt@iBnAgDrQme@lKwXnGoP","length":44},"routeShortName":"6","routeLongName":"Term. Chic/Term. Baie via ch.Plateau","rentedBike":false,"transitLeg":true,"duration":374.0,"steps":[]},{"startTime":1522710169000,"endTime":1522710177000,"departureDelay":0,"arrivalDelay":0,"realTime":false,"distance":9.346,"pathway":false,"mode":"WALK","route":"","agencyTimeZoneOffset":-14400000,"interlineWithPreviousLeg":false,"from":{"name":"boul. St-Jean-Baptiste / Ste-Famille","stopId":"1:273","stopCode":"273","lon":-71.005229,"lat":48.401809,"arrival":1522710168000,"departure":1522710169000,"zoneId":"NA","stopIndex":9,"stopSequence":10,"vertexType":"TRANSIT"},"to":{"name":"Destination","lon":-71.00349699,"lat":48.40344,"arrival":1522710177000,"orig":"","vertexType":"NORMAL"},"legGeometry":{"points":"onlfHlekpLIR","length":2},"rentedBike":false,"transitLeg":false,"duration":8.0,"steps":[{"distance":9.346,"relativeDirection":"DEPART","streetName":"Boulevard Saint-Jean-Baptiste","absoluteDirection":"NORTHWEST","stayOn":false,"area":false,"bogusName":false,"lon":-71.00518930041385,"lat":48.40184322879472,"elevation":[]}]}],"tooSloped":false},{"duration":769,"startTime":1522711808000,"endTime":1522712577000,"walkTime":394,"transitTime":373,"waitingTime":2,"walkDistance":488.4818796927341,"walkLimitExceeded":false,"elevationLost":0.0,"elevationGained":0.0,"transfers":0,"legs":[{"startTime":1522711808000,"endTime":1522712194000,"departureDelay":0,"arrivalDelay":0,"realTime":false,"distance":478.9340000000001,"pathway":false,"mode":"WALK","route":"","agencyTimeZoneOffset":-14400000,"interlineWithPreviousLeg":false,"from":{"name":"Origin","lon":-71.056611,"lat":48.414861,"departure":1522711808000,"orig":"","vertexType":"NORMAL"},"to":{"name":"Polyclinique du Saguenay (boul. Université)","stopId":"1:79","stopCode":"79","lon":-71.053795,"lat":48.414956,"arrival":1522712194000,"departure":1522712195000,"zoneId":"NA","stopIndex":1,"stopSequence":2,"vertexType":"TRANSIT"},"legGeometry":{"points":"s`ofHreupLOFYDk@fBgA{@q@k@aA_AZeATu@bBwASs@Wq@GWnCcC^U","length":15},"rentedBike":false,"transitLeg":false,"duration":386.0,"steps":[{"distance":69.468,"relativeDirection":"DEPART","streetName":"Place Einstein","absoluteDirection":"NORTH","stayOn":false,"area":false,"bogusName":false,"lon":-71.056412,"lat":48.414983,"elevation":[]},{"distance":121.803,"relativeDirection":"RIGHT","streetName":"Rue Graham-Bell","absoluteDirection":"NORTHEAST","stayOn":false,"area":false,"bogusName":false,"lon":-71.0570003,"lat":48.4154141,"elevation":[]},{"distance":118.658,"relativeDirection":"RIGHT","streetName":"Rue Thomas-Edison","absoluteDirection":"SOUTHEAST","stayOn":false,"area":false,"bogusName":false,"lon":-71.05616500000001,"lat":48.4163584,"elevation":[]},{"distance":54.82599999999999,"relativeDirection":"LEFT","streetName":"Rue Nobel","absoluteDirection":"NORTHEAST","stayOn":false,"area":false,"bogusName":false,"lon":-71.05510070000001,"lat":48.415600100000006,"elevation":[]},{"distance":114.179,"relativeDirection":"RIGHT","streetName":"Boulevard de l'Université","absoluteDirection":"SOUTHEAST","stayOn":false,"area":false,"bogusName":false,"lon":-71.0544787,"lat":48.4158697,"elevation":[]}]},{"startTime":1522712195000,"endTime":1522712568000,"departureDelay":0,"arrivalDelay":0,"realTime":false,"distance":4277.5097801947195,"pathway":false,"mode":"BUS","route":"5","agencyName":"Société de Transport du Saguenay","agencyUrl":"http://ville.saguenay.ca/fr/services-aux-citoyens/transport-sts","agencyTimeZoneOffset":-14400000,"routeColor":"FF0000","routeType":3,"routeId":"1:5","routeTextColor":"FFFFFF","interlineWithPreviousLeg":false,"tripBlockId":"25","headsign":"Terminus La Baie","agencyId":"0","tripId":"1:217953","serviceDate":"20180402","from":{"name":"Polyclinique du Saguenay (boul. Université)","stopId":"1:79","stopCode":"79","lon":-71.053795,"lat":48.414956,"arrival":1522712194000,"departure":1522712195000,"zoneId":"NA","stopIndex":1,"stopSequence":2,"vertexType":"TRANSIT"},"to":{"name":"boul. St-Jean-Baptiste / Ste-Famille","stopId":"1:273","stopCode":"273","lon":-71.005229,"lat":48.401809,"arrival":1522712568000,"departure":1522712569000,"zoneId":"NA","stopIndex":9,"stopSequence":10,"vertexType":"TRANSIT"},"legGeometry":{"points":"s`ofHtttpLHI\\Q^Mb@I~CIJCJAXKXMXQRQPQT[\\s@^aAn@mBnCgItD{Kv@iHB_@FyAFsA@q@CeBKkDc@cIsFa{@QoBe@cHc@aEeC_Oa@iDk@iIMWxAo@\\UZUdDeD|IoJp@u@l@_Ah@{@f@{@DMp@uAt@iBnAgDrQme@lKwXnGoP","length":51},"routeShortName":"5","routeLongName":"Term. Chic/Term. Baie via St-J.Batiste","rentedBike":false,"transitLeg":true,"duration":373.0,"steps":[]},{"startTime":1522712569000,"endTime":1522712577000,"departureDelay":0,"arrivalDelay":0,"realTime":false,"distance":9.346,"pathway":false,"mode":"WALK","route":"","agencyTimeZoneOffset":-14400000,"interlineWithPreviousLeg":false,"from":{"name":"boul. St-Jean-Baptiste / Ste-Famille","stopId":"1:273","stopCode":"273","lon":-71.005229,"lat":48.401809,"arrival":1522712568000,"departure":1522712569000,"zoneId":"NA","stopIndex":9,"stopSequence":10,"vertexType":"TRANSIT"},"to":{"name":"Destination","lon":-71.00349699,"lat":48.40344,"arrival":1522712577000,"orig":"","vertexType":"NORMAL"},"legGeometry":{"points":"onlfHlekpLIR","length":2},"rentedBike":false,"transitLeg":false,"duration":8.0,"steps":[{"distance":9.346,"relativeDirection":"DEPART","streetName":"Boulevard Saint-Jean-Baptiste","absoluteDirection":"NORTHWEST","stayOn":false,"area":false,"bogusName":false,"lon":-71.00518930041385,"lat":48.40184322879472,"elevation":[]}]}],"tooSloped":false}]},"debugOutput":{"precalculationTime":21,"pathCalculationTime":28,"pathTimes":[12,4,12],"renderingTime":0,"totalTime":49,"timedOut":false},"elevationMetadata":{"ellipsoidToGeoidDifference":-28.885904201182168,"geoidElevation":false}}