{"requestParameters":{"date":"2018/04/02","walkSpeed":"1.33","walkReluctance":"2.0","fromPlace":"48.414861,-71.056611","maxWalkDistance":"3000","waitReluctance":"1.0","carSpeed":"33","numItineraries":"3","waitAtBeginningFactor":"0.4","mode":"TRANSIT,WALK","ignoreRealtimeUpdates":"false","stairsReluctance":"2.0","toPlace":"48.409814,-71.05987299","time":"15:5:00"},"plan":{"date":1522695900000,"from":{"name":"Origin","lon":-71.056611,"lat":48.414861,"orig":"","vertexType":"NORMAL"},"to":{"name":"Destination","lon":-71.05987299,"lat":48.409814,"orig":"","vertexType":"NORMAL"},"itineraries":[{"duration":738,"startTime":1522695900000,"endTime":1522696638000,"walkTime":738,"transitTime":0,"waitingTime":0,"walkDistance":934.3593233008712,"walkLimitExceeded":false,"elevationLost":0.0,"elevationGained":0.0,"transfers":0,"legs":[{"startTime":1522695900000,"endTime":1522696638000,"departureDelay":0,"arrivalDelay":0,"realTime":false,"distance":934.1300000000001,"pathway":false,"mode":"WALK","route":"","agencyTimeZoneOffset":-14400000,"interlineWithPreviousLeg":false,"from":{"name":"Origin","lon":-71.056611,"lat":48.414861,"departure":1522695900000,"orig":"","vertexType":"NORMAL"},"to":{"name":"Destination","lon":-71.05987299,"lat":48.409814,"arrival":1522696638000,"orig":"","vertexType":"NORMAL"},"legGeometry":{"points":"s`ofHreupLOFYDk@fB|A|@|@n@Qf@WtAIf@@`ADhB`@~ADTnAdB^e@bAq@~@OxCc@LABA|Fs@B?hAMvC_@`@a@|@h@@@","length":27},"rentedBike":false,"transitLeg":false,"duration":738.0,"steps":[{"distance":69.468,"relativeDirection":"DEPART","streetName":"Place Einstein","absoluteDirection":"NORTH","stayOn":false,"area":false,"bogusName":false,"lon":-71.056412,"lat":48.414983,"elevation":[]},{"distance":95.697,"relativeDirection":"LEFT","streetName":"Rue Graham-Bell","absoluteDirection":"SOUTHWEST","stayOn":false,"area":false,"bogusName":false,"lon":-71.0570003,"lat":48.4154141,"elevation":[]},{"distance":237.467,"relativeDirection":"RIGHT","streetName":"Rue Marguerite-Tellier","absoluteDirection":"NORTHWEST","stayOn":false,"area":false,"bogusName":false,"lon":-71.0575589,"lat":48.4146378,"elevation":[]},{"distance":491.931,"relativeDirection":"LEFT","streetName":"Rue des Champs-Élysées","absoluteDirection":"SOUTHEAST","stayOn":false,"area":false,"bogusName":false,"lon":-71.0603414,"lat":48.4142597,"elevation":[]},{"distance":39.567,"relativeDirection":"RIGHT","streetName":"Rue Bizet","absoluteDirection":"SOUTHWEST","stayOn":false,"area":false,"bogusName":false,"lon":-71.0589618,"lat":48.409989800000005,"elevation":[]}]}],"tooSloped":false},{"duration":579,"startTime":1522696144000,"endTime":1522696723000,"walkTime":466,"transitTime":111,"waitingTime":2,"walkDistance":579.0241804439587,"walkLimitExceeded":false,"elevationLost":0.0,"elevationGained":0.0,"transfers":0,"legs":[{"startTime":1522696144000,"endTime":1522696542000,"departureDelay":0,"arrivalDelay":0,"realTime":false,"distance":495.20200000000006,"pathway":false,"mode":"WALK","route":"","agencyTimeZoneOffset":-14400000,"interlineWithPreviousLeg":false,"from":{"name":"Origin","lon":-71.056611,"lat":48.414861,"departure":1522696144000,"orig":"","vertexType":"NORMAL"},"to":{"name":"CEA Laure-Conan (Champs-Élysées)","stopId":"1:567","stopCode":"567","lon":-71.0614,"lat":48.4147,"arrival":1522696542000,"departure":1522696543000,"zoneId":"NA","stopIndex":8,"stopSequence":9,"vertexType":"TRANSIT"},"legGeometry":{"points":"s`ofHreupLOFYDk@fB|A|@|@n@Qf@WtAIf@@`ADhB`@~ADTnAdBY`@iAbD??","length":17},"rentedBike":false,"transitLeg":false,"duration":398.0,"steps":[{"distance":69.468,"relativeDirection":"DEPART","streetName":"Place Einstein","absoluteDirection":"NORTH","stayOn":false,"area":false,"bogusName":false,"lon":-71.056412,"lat":48.414983,"elevation":[]},{"distance":95.697,"relativeDirection":"LEFT","streetName":"Rue Graham-Bell","absoluteDirection":"SOUTHWEST","stayOn":false,"area":false,"bogusName":false,"lon":-71.0570003,"lat":48.4154141,"elevation":[]},{"distance":237.467,"relativeDirection":"RIGHT","streetName":"Rue Marguerite-Tellier","absoluteDirection":"NORTHWEST","stayOn":false,"area":false,"bogusName":false,"lon":-71.0575589,"lat":48.4146378,"elevation":[]},{"distance":92.57,"relativeDirection":"RIGHT","streetName":"Rue des Champs-Élysées","absoluteDirection":"NORTHWEST","stayOn":false,"area":false,"bogusName":false,"lon":-71.0603414,"lat":48.4142597,"elevation":[]}]},{"startTime":1522696543000,"endTime":1522696654000,"departureDelay":0,"arrivalDelay":0,"realTime":false,"distance":600.6531073922504,"pathway":false,"mode":"BUS","route":"12","agencyName":"Société de Transport du Saguenay","agencyUrl":"http://ville.saguenay.ca/fr/services-aux-citoyens/transport-sts","agencyTimeZoneOffset":-14400000,"routeColor":"556B2F","routeType":3,"routeId":"1:12","routeTextColor":"FFFFFF","interlineWithPreviousLeg":false,"tripBlockId":"26","headsign":"Terminus Chicoutimi","agencyId":"0","tripId":"1:217981","serviceDate":"20180402","from":{"name":"CEA Laure-Conan (Champs-Élysées)","stopId":"1:567","stopCode":"567","lon":-71.0614,"lat":48.4147,"arrival":1522696542000,"departure":1522696543000,"zoneId":"NA","stopIndex":8,"stopSequence":9,"vertexType":"TRANSIT"},"to":{"name":"Champs-Élysées / Chopin","stopId":"1:570","stopCode":"570","lon":-71.058565,"lat":48.409684,"arrival":1522696654000,"departure":1522696655000,"zoneId":"NA","stopIndex":11,"stopSequence":12,"vertexType":"TRANSIT"},"legGeometry":{"points":"{~nfHxdvpLbAqDtBeCjFm@`Gs@hFo@xAmB","length":7},"routeShortName":"12","routeLongName":"Rivière du Moulin","rentedBike":false,"transitLeg":true,"duration":111.0,"steps":[]},{"startTime":1522696655000,"endTime":1522696723000,"departureDelay":0,"arrivalDelay":0,"realTime":false,"distance":83.6,"pathway":false,"mode":"WALK","route":"","agencyTimeZoneOffset":-14400000,"interlineWithPreviousLeg":false,"from":{"name":"Champs-Élysées / Chopin","stopId":"1:570","stopCode":"570","lon":-71.058565,"lat":48.409684,"arrival":1522696654000,"departure":1522696655000,"zoneId":"NA","stopIndex":11,"stopSequence":12,"vertexType":"TRANSIT"},"to":{"name":"Destination","lon":-71.05987299,"lat":48.409814,"arrival":1522696723000,"orig":"","vertexType":"NORMAL"},"legGeometry":{"points":"{_nfHrrupLo@|A|@h@@@","length":4},"rentedBike":false,"transitLeg":false,"duration":68.0,"steps":[{"distance":44.033,"relativeDirection":"DEPART","streetName":"Rue des Champs-Élysées","absoluteDirection":"NORTHWEST","stayOn":false,"area":false,"bogusName":false,"lon":-71.0584925285131,"lat":48.409745286109604,"elevation":[]},{"distance":39.567,"relativeDirection":"LEFT","streetName":"Rue Bizet","absoluteDirection":"SOUTHWEST","stayOn":false,"area":false,"bogusName":false,"lon":-71.0589618,"lat":48.409989800000005,"elevation":[]}]}],"tooSloped":false},{"duration":546,"startTime":1522696743000,"endTime":1522697289000,"walkTime":466,"transitTime":78,"waitingTime":2,"walkDistance":579.0241804439587,"walkLimitExceeded":false,"elevationLost":0.0,"elevationGained":0.0,"transfers":0,"legs":[{"startTime":1522696743000,"endTime":1522697141000,"departureDelay":0,"arrivalDelay":0,"realTime":false,"distance":495.20200000000006,"pathway":false,"mode":"WALK","route":"","agencyTimeZoneOffset":-14400000,"interlineWithPreviousLeg":false,"from":{"name":"Origin","lon":-71.056611,"lat":48.414861,"departure":1522696743000,"orig":"","vertexType":"NORMAL"},"to":{"name":"CEA Laure-Conan (Champs-Élysées)","stopId":"1:567","stopCode":"567","lon":-71.0614,"lat":48.4147,"arrival":1522697141000,"departure":1522697142000,"zoneId":"NA","stopIndex":13,"stopSequence":14,"vertexType":"TRANSIT"},"legGeometry":{"points":"s`ofHreupLOFYDk@fB|A|@|@n@Qf@WtAIf@@`ADhB`@~ADTnAdBY`@iAbD??","length":17},"rentedBike":false,"transitLeg":false,"duration":398.0,"steps":[{"distance":69.468,"relativeDirection":"DEPART","streetName":"Place Einstein","absoluteDirection":"NORTH","stayOn":false,"area":false,"bogusName":false,"lon":-71.056412,"lat":48.414983,"elevation":[]},{"distance":95.697,"relativeDirection":"LEFT","streetName":"Rue Graham-Bell","absoluteDirection":"SOUTHWEST","stayOn":false,"area":false,"bogusName":false,"lon":-71.0570003,"lat":48.4154141,"elevation":[]},{"distance":237.467,"relativeDirection":"RIGHT","streetName":"Rue Marguerite-Tellier","absoluteDirection":"NORTHWEST","stayOn":false,"area":false,"bogusName":false,"lon":-71.0575589,"lat":48.4146378,"elevation":[]},{"distance":92.57,"relativeDirection":"RIGHT","streetName":"Rue des Champs-Élysées","absoluteDirection":"NORTHWEST","stayOn":false,"area":false,"bogusName":false,"lon":-71.0603414,"lat":48.4142597,"elevation":[]}]},{"startTime":1522697142000,"endTime":1522697220000,"departureDelay":0,"arrivalDelay":0,"realTime":false,"distance":600.6531073922504,"pathway":false,"mode":"BUS","route":"23S","agencyName":"Société de Transport du Saguenay","agencyUrl":"http://ville.saguenay.ca/fr/services-aux-citoyens/transport-sts","agencyTimeZoneOffset":-14400000,"routeColor":"8B0000","routeType":3,"routeId":"1:23S","routeTextColor":"FFFFFF","interlineWithPreviousLeg":false,"tripBlockId":"97","headsign":"Terminus La Baie","agencyId":"0","tripId":"1:218739","serviceDate":"20180402","from":{"name":"CEA Laure-Conan (Champs-Élysées)","stopId":"1:567","stopCode":"567","lon":-71.0614,"lat":48.4147,"arrival":1522697141000,"departure":1522697142000,"zoneId":"NA","stopIndex":13,"stopSequence":14,"vertexType":"TRANSIT"},"to":{"name":"Champs-Élysées / Chopin","stopId":"1:570","stopCode":"570","lon":-71.058565,"lat":48.409684,"arrival":1522697220000,"departure":1522697221000,"zoneId":"NA","stopIndex":16,"stopSequence":17,"vertexType":"TRANSIT"},"legGeometry":{"points":"e_ofHldvpL~@oCXk@n@s@bAg@p@OpDc@~Fw@dAMxCg@TKRQn@_B","length":13},"routeShortName":"23S","routeLongName":"Cgp/UQAC - Term. Baie","rentedBike":false,"transitLeg":true,"duration":78.0,"steps":[]},{"startTime":1522697221000,"endTime":1522697289000,"departureDelay":0,"arrivalDelay":0,"realTime":false,"distance":83.6,"pathway":false,"mode":"WALK","route":"","agencyTimeZoneOffset":-14400000,"interlineWithPreviousLeg":false,"from":{"name":"Champs-Élysées / Chopin","stopId":"1:570","stopCode":"570","lon":-71.058565,"lat":48.409684,"arrival":1522697220000,"departure":1522697221000,"zoneId":"NA","stopIndex":16,"stopSequence":17,"vertexType":"TRANSIT"},"to":{"name":"Destination","lon":-71.05987299,"lat":48.409814,"arrival":1522697289000,"orig":"","vertexType":"NORMAL"},"legGeometry":{"points":"{_nfHrrupLo@|A|@h@@@","length":4},"rentedBike":false,"transitLeg":false,"duration":68.0,"steps":[{"distance":44.033,"relativeDirection":"DEPART","streetName":"Rue des Champs-Élysées","absoluteDirection":"NORTHWEST","stayOn":false,"area":false,"bogusName":false,"lon":-71.0584925285131,"lat":48.409745286109604,"elevation":[]},{"distance":39.567,"relativeDirection":"LEFT","streetName":"Rue Bizet","absoluteDirection":"SOUTHWEST","stayOn":false,"area":false,"bogusName":false,"lon":-71.0589618,"lat":48.409989800000005,"elevation":[]}]}],"tooSloped":false}]},"debugOutput":{"precalculationTime":42,"pathCalculationTime":15,"pathTimes":[7,5,3],"renderingTime":0,"totalTime":57,"timedOut":false},"elevationMetadata":{"ellipsoidToGeoidDifference":-28.885904201182168,"geoidElevation":false}}