{"requestParameters":{"date":"2018/04/02","walkSpeed":"1.33","walkReluctance":"2.0","fromPlace":"48.423269,-71.05968099","maxWalkDistance":"3000","waitReluctance":"1.0","carSpeed":"33","numItineraries":"3","waitAtBeginningFactor":"0.4","mode":"TRANSIT,WALK","ignoreRealtimeUpdates":"false","stairsReluctance":"2.0","toPlace":"48.415821,-71.046058","time":"17:30:00"},"plan":{"date":1522704600000,"from":{"name":"Origin","lon":-71.05968099,"lat":48.423269,"orig":"","vertexType":"NORMAL"},"to":{"name":"Destination","lon":-71.046058,"lat":48.415821,"orig":"","vertexType":"NORMAL"},"itineraries":[{"duration":1414,"startTime":1522704600000,"endTime":1522706014000,"walkTime":1414,"transitTime":0,"waitingTime":0,"walkDistance":1807.2741654033325,"walkLimitExceeded":false,"elevationLost":0.0,"elevationGained":0.0,"transfers":0,"legs":[{"startTime":1522704600000,"endTime":1522706014000,"departureDelay":0,"arrivalDelay":0,"realTime":false,"distance":1806.958,"pathway":false,"mode":"WALK","route":"","agencyTimeZoneOffset":-14400000,"interlineWithPreviousLeg":false,"from":{"name":"Origin","lon":-71.05968099,"lat":48.423269,"departure":1522704600000,"orig":"","vertexType":"NORMAL"},"to":{"name":"Destination","lon":-71.046058,"lat":48.415821,"arrival":1522706014000,"orig":"","vertexType":"NORMAL"},"legGeometry":{"points":"svpfHd|upLMhAp@Dp@D\\@t@Dj@BdFd@bABRuDHe@b@oBl@gBx@oAv@u@dEaEMaAKYd@G\\K`@gAb@w@n@a@d@Mj@Op@g@d@kAZo@TYWe@}@_AHSdA_C[qA]yAq@mAe@Qg@?Vu@z@iCpCiIlAsDvAuDNa@Nc@HW^aAVy@","length":48},"rentedBike":false,"transitLeg":false,"duration":1414.0,"steps":[{"distance":28.696,"relativeDirection":"DEPART","streetName":"path","absoluteDirection":"WEST","stayOn":false,"area":false,"bogusName":true,"lon":-71.0600233,"lat":48.423624700000005,"elevation":[]},{"distance":293.80199999999996,"relativeDirection":"LEFT","streetName":"Rue La Fontaine","absoluteDirection":"SOUTH","stayOn":false,"area":false,"bogusName":false,"lon":-71.06039840000001,"lat":48.423692800000005,"elevation":[]},{"distance":386.795,"relativeDirection":"LEFT","streetName":"Boulevard de l'Université","absoluteDirection":"EAST","stayOn":false,"area":false,"bogusName":false,"lon":-71.06072490000001,"lat":48.4210605,"elevation":[]},{"distance":37.508,"relativeDirection":"LEFT","streetName":"bike path","absoluteDirection":"EAST","stayOn":false,"area":false,"bogusName":true,"lon":-71.0569061,"lat":48.4189492,"elevation":[]},{"distance":282.827,"relativeDirection":"HARD_RIGHT","streetName":"path","absoluteDirection":"SOUTH","stayOn":true,"area":false,"bogusName":true,"lon":-71.0564409,"lat":48.419076800000006,"elevation":[]},{"distance":60.942,"relativeDirection":"LEFT","streetName":"Rue de la Fondation","absoluteDirection":"NORTHEAST","stayOn":false,"area":false,"bogusName":false,"lon":-71.05443220000001,"lat":48.4170431,"elevation":[]},{"distance":69.748,"relativeDirection":"RIGHT","streetName":"Rue des Étudiants","absoluteDirection":"SOUTHEAST","stayOn":false,"area":false,"bogusName":false,"lon":-71.05392400000001,"lat":48.417472700000005,"elevation":[]},{"distance":155.851,"relativeDirection":"LEFT","streetName":"path","absoluteDirection":"NORTHEAST","stayOn":false,"area":false,"bogusName":true,"lon":-71.05318840000001,"lat":48.4170792,"elevation":[]},{"distance":490.78900000000004,"relativeDirection":"HARD_RIGHT","streetName":"Rue Chabanel","absoluteDirection":"SOUTHEAST","stayOn":false,"area":false,"bogusName":false,"lon":-71.05184440000001,"lat":48.4180058,"elevation":[]}]}],"tooSloped":false},{"duration":1357,"startTime":1522704850000,"endTime":1522706207000,"walkTime":489,"transitTime":866,"waitingTime":2,"walkDistance":615.3162556341849,"walkLimitExceeded":false,"elevationLost":0.0,"elevationGained":0.0,"transfers":0,"legs":[{"startTime":1522704850000,"endTime":1522705250000,"departureDelay":0,"arrivalDelay":0,"realTime":false,"distance":502.89399999999995,"pathway":false,"mode":"WALK","route":"","agencyTimeZoneOffset":-14400000,"interlineWithPreviousLeg":false,"from":{"name":"Origin","lon":-71.05968099,"lat":48.423269,"departure":1522704850000,"orig":"","vertexType":"NORMAL"},"to":{"name":"Centre George Vézina (Bégin)","stopId":"1:583","stopCode":"583","lon":-71.0606,"lat":48.4201,"arrival":1522705250000,"departure":1522705251000,"zoneId":"NA","stopIndex":35,"stopSequence":36,"vertexType":"TRANSIT"},"legGeometry":{"points":"svpfHd|upLMhAp@Dp@D\\@t@Dj@BdFd@bABRuDXXJLf@h@bAdARR","length":15},"rentedBike":false,"transitLeg":false,"duration":400.0,"steps":[{"distance":28.696,"relativeDirection":"DEPART","streetName":"path","absoluteDirection":"WEST","stayOn":false,"area":false,"bogusName":true,"lon":-71.0600233,"lat":48.423624700000005,"elevation":[]},{"distance":293.80199999999996,"relativeDirection":"LEFT","streetName":"Rue La Fontaine","absoluteDirection":"SOUTH","stayOn":false,"area":false,"bogusName":false,"lon":-71.06039840000001,"lat":48.423692800000005,"elevation":[]},{"distance":67.849,"relativeDirection":"LEFT","streetName":"Boulevard de l'Université","absoluteDirection":"EAST","stayOn":false,"area":false,"bogusName":false,"lon":-71.06072490000001,"lat":48.4210605,"elevation":[]},{"distance":112.547,"relativeDirection":"RIGHT","streetName":"Rue Bégin","absoluteDirection":"SOUTHWEST","stayOn":false,"area":false,"bogusName":false,"lon":-71.05981580000001,"lat":48.4209693,"elevation":[]}]},{"startTime":1522705251000,"endTime":1522705380000,"departureDelay":0,"arrivalDelay":0,"realTime":false,"distance":874.1696815970673,"pathway":false,"mode":"BUS","route":"12","agencyName":"Société de Transport du Saguenay","agencyUrl":"http://ville.saguenay.ca/fr/services-aux-citoyens/transport-sts","agencyTimeZoneOffset":-14400000,"routeColor":"556B2F","routeType":3,"routeId":"1:12","routeTextColor":"FFFFFF","interlineWithPreviousLeg":false,"tripBlockId":"28","headsign":"Terminus UQAC","agencyId":"0","tripId":"1:218047","serviceDate":"20180402","from":{"name":"Centre George Vézina (Bégin)","stopId":"1:583","stopCode":"583","lon":-71.0606,"lat":48.4201,"arrival":1522705250000,"departure":1522705251000,"zoneId":"NA","stopIndex":35,"stopSequence":36,"vertexType":"TRANSIT"},"to":{"name":"Terminus UQAC","stopId":"1:1670","stopCode":"1670","lon":-71.053369,"lat":48.420903,"arrival":1522705380000,"departure":1522705680000,"zoneId":"NA","stopIndex":39,"stopSequence":40,"vertexType":"TRANSIT"},"legGeometry":{"points":"s`pfHv_vpL{J{JwCiThFaQhC`E","length":5},"routeShortName":"12","routeLongName":"Rivière du Moulin","rentedBike":false,"transitLeg":true,"duration":129.0,"steps":[]},{"startTime":1522705680000,"endTime":1522706117000,"departureDelay":0,"arrivalDelay":0,"realTime":false,"distance":1055.2759768300227,"pathway":false,"mode":"BUS","route":"10","agencyName":"Société de Transport du Saguenay","agencyUrl":"http://ville.saguenay.ca/fr/services-aux-citoyens/transport-sts","agencyTimeZoneOffset":-14400000,"routeColor":"0000FF","routeType":3,"routeId":"1:10","routeTextColor":"FFFFFF","interlineWithPreviousLeg":true,"tripBlockId":"28","headsign":"Terminus Chicoutimi","agencyId":"0","tripId":"1:218048","serviceDate":"20180402","from":{"name":"Terminus UQAC","stopId":"1:1670","stopCode":"1670","lon":-71.053369,"lat":48.420903,"arrival":1522705380000,"departure":1522705680000,"zoneId":"NA","stopIndex":0,"stopSequence":1,"vertexType":"TRANSIT"},"to":{"name":"Murdock / Chabanel","stopId":"1:355","stopCode":"355","lon":-71.045842,"lat":48.414882,"arrival":1522706117000,"departure":1522706118000,"zoneId":"NA","stopIndex":2,"stopSequence":3,"vertexType":"TRANSIT"},"legGeometry":{"points":"sepfHtrtpLbA`ATs@hEnDRlGbBbHtMcLsBsDkBcBkD}CvDkK`IuU`WjXhCsHqJ_K{BaCsB{B}AeC","length":18},"routeShortName":"10","routeLongName":"Notre-Dame du Saguenay","rentedBike":false,"transitLeg":true,"duration":437.0,"steps":[]},{"startTime":1522706118000,"endTime":1522706207000,"departureDelay":0,"arrivalDelay":0,"realTime":false,"distance":112.27000000000001,"pathway":false,"mode":"WALK","route":"","agencyTimeZoneOffset":-14400000,"interlineWithPreviousLeg":false,"from":{"name":"Murdock / Chabanel","stopId":"1:355","stopCode":"355","lon":-71.045842,"lat":48.414882,"arrival":1522706117000,"departure":1522706118000,"zoneId":"NA","stopIndex":2,"stopSequence":3,"vertexType":"TRANSIT"},"to":{"name":"Destination","lon":-71.046058,"lat":48.415821,"arrival":1522706207000,"orig":"","vertexType":"NORMAL"},"legGeometry":{"points":"e`ofHzcspLu@iAeA`D","length":3},"rentedBike":false,"transitLeg":false,"duration":89.0,"steps":[{"distance":40.888,"relativeDirection":"DEPART","streetName":"Rue Murdock","absoluteDirection":"NORTHEAST","stayOn":false,"area":false,"bogusName":false,"lon":-71.04589406411726,"lat":48.41491314024841,"elevation":[]},{"distance":71.382,"relativeDirection":"LEFT","streetName":"Rue Chabanel","absoluteDirection":"NORTHWEST","stayOn":false,"area":false,"bogusName":false,"lon":-71.0455232,"lat":48.4151863,"elevation":[]}]}],"tooSloped":false},{"duration":1315,"startTime":1522705168000,"endTime":1522706483000,"walkTime":551,"transitTime":762,"waitingTime":2,"walkDistance":693.9897293171218,"walkLimitExceeded":false,"elevationLost":0.0,"elevationGained":0.0,"transfers":0,"legs":[{"startTime":1522705168000,"endTime":1522705627000,"departureDelay":0,"arrivalDelay":0,"realTime":false,"distance":578.54,"pathway":false,"mode":"WALK","route":"","agencyTimeZoneOffset":-14400000,"interlineWithPreviousLeg":false,"from":{"name":"Origin","lon":-71.05968099,"lat":48.423269,"departure":1522705168000,"orig":"","vertexType":"NORMAL"},"to":{"name":"Racine / Havre","stopId":"1:1639","stopCode":"1639","lon":-71.059267,"lat":48.427469,"arrival":1522705627000,"departure":1522705628000,"zoneId":"NA","stopIndex":1,"stopSequence":2,"vertexType":"TRANSIT"},"legGeometry":{"points":"svpfHd|upLMhAK?cDQoAGqG[@Sy@DSNgAQ_@AmAEDuAB_A","length":14},"rentedBike":false,"transitLeg":false,"duration":459.0,"steps":[{"distance":28.696,"relativeDirection":"DEPART","streetName":"path","absoluteDirection":"WEST","stayOn":false,"area":false,"bogusName":true,"lon":-71.0600233,"lat":48.423624700000005,"elevation":[]},{"distance":295.516,"relativeDirection":"RIGHT","streetName":"Rue La Fontaine","absoluteDirection":"NORTH","stayOn":false,"area":false,"bogusName":false,"lon":-71.06039840000001,"lat":48.423692800000005,"elevation":[]},{"distance":7.727,"relativeDirection":"RIGHT","streetName":"Rue Jacques-Cartier Est","absoluteDirection":"EAST","stayOn":false,"area":false,"bogusName":false,"lon":-71.0601266,"lat":48.426344300000004,"elevation":[]},{"distance":89.104,"relativeDirection":"LEFT","streetName":"steps","absoluteDirection":"NORTH","stayOn":false,"area":false,"bogusName":true,"lon":-71.0600222,"lat":48.4263388,"elevation":[]},{"distance":101.499,"relativeDirection":"SLIGHTLY_RIGHT","streetName":"Rue La Fontaine","absoluteDirection":"NORTH","stayOn":false,"area":false,"bogusName":false,"lon":-71.0601336,"lat":48.4267252,"elevation":[]},{"distance":55.998000000000005,"relativeDirection":"RIGHT","streetName":"Rue Racine Est","absoluteDirection":"EAST","stayOn":false,"area":false,"bogusName":false,"lon":-71.0600075,"lat":48.4276324,"elevation":[]}]},{"startTime":1522705628000,"endTime":1522706390000,"departureDelay":0,"arrivalDelay":0,"realTime":false,"distance":3831.8669034122677,"pathway":false,"mode":"BUS","route":"10","agencyName":"Société de Transport du Saguenay","agencyUrl":"http://ville.saguenay.ca/fr/services-aux-citoyens/transport-sts","agencyTimeZoneOffset":-14400000,"routeColor":"0000FF","routeType":3,"routeId":"1:10","routeTextColor":"FFFFFF","interlineWithPreviousLeg":false,"tripBlockId":"26","headsign":"Terminus UQAC","agencyId":"0","tripId":"1:217986","serviceDate":"20180402","from":{"name":"Racine / Havre","stopId":"1:1639","stopCode":"1639","lon":-71.059267,"lat":48.427469,"arrival":1522705627000,"departure":1522705628000,"zoneId":"NA","stopIndex":1,"stopSequence":2,"vertexType":"TRANSIT"},"to":{"name":"Murdock / Chabanel","stopId":"1:3552","stopCode":"3552","lon":-71.046063,"lat":48.414978,"arrival":1522706390000,"departure":1522706391000,"zoneId":"NA","stopIndex":19,"stopSequence":20,"vertexType":"TRANSIT"},"legGeometry":{"points":"coqfHlwupLD}DQ_ECk@^Cd@QWkL?m@IuF@gA?eH?cAEuEDO^AjD`@B@rEf@T_FjBXpDd@hCObDaCfCaHbFqN`CwG_J_CwMiDGe@T}C\\yELaCJeAJcAXw@Fk@M_@xBwVr@^LJ|@z@HdAlBbD`Av@b@\\v@d@`@BpBAzAXl@t@XZt@lCl@tAnBpB~@~@lDjDr@r@zDrDnAlAjBrBl@pBPlBCj@KrAAHSpAe@jB_A|Bz@xA","length":69},"routeShortName":"10","routeLongName":"Notre-Dame du Saguenay","rentedBike":false,"transitLeg":true,"duration":762.0,"steps":[]},{"startTime":1522706391000,"endTime":1522706483000,"departureDelay":0,"arrivalDelay":0,"realTime":false,"distance":115.25800000000001,"pathway":false,"mode":"WALK","route":"","agencyTimeZoneOffset":-14400000,"interlineWithPreviousLeg":false,"from":{"name":"Murdock / Chabanel","stopId":"1:3552","stopCode":"3552","lon":-71.046063,"lat":48.414978,"arrival":1522706390000,"departure":1522706391000,"zoneId":"NA","stopIndex":19,"stopSequence":20,"vertexType":"TRANSIT"},"to":{"name":"Destination","lon":-71.046058,"lat":48.415821,"arrival":1522706483000,"orig":"","vertexType":"NORMAL"},"legGeometry":{"points":"a`ofH`dspLCEu@iAeA`D","length":4},"rentedBike":false,"transitLeg":false,"duration":92.0,"steps":[{"distance":43.876,"relativeDirection":"DEPART","streetName":"Rue Murdock","absoluteDirection":"NORTHEAST","stayOn":false,"area":false,"bogusName":false,"lon":-71.04592117414738,"lat":48.414893172371364,"elevation":[]},{"distance":71.382,"relativeDirection":"LEFT","streetName":"Rue Chabanel","absoluteDirection":"NORTHWEST","stayOn":false,"area":false,"bogusName":false,"lon":-71.0455232,"lat":48.4151863,"elevation":[]}]}],"tooSloped":false}]},"debugOutput":{"precalculationTime":52,"pathCalculationTime":33,"pathTimes":[18,7,8],"renderingTime":0,"totalTime":85,"timedOut":false},"elevationMetadata":{"ellipsoidToGeoidDifference":-28.885904201182168,"geoidElevation":false}}