{"requestParameters":{"date":"2018/04/02","walkSpeed":"1.33","walkReluctance":"2.0","fromPlace":"48.423148,-71.052406","maxWalkDistance":"3000","waitReluctance":"1.0","carSpeed":"33","numItineraries":"3","waitAtBeginningFactor":"0.4","mode":"TRANSIT,WALK","ignoreRealtimeUpdates":"false","stairsReluctance":"2.0","toPlace":"48.414861,-71.056611","time":"18:15:00"},"plan":{"date":1522707300000,"from":{"name":"Origin","lon":-71.052406,"lat":48.423148,"orig":"","vertexType":"NORMAL"},"to":{"name":"Destination","lon":-71.056611,"lat":48.414861,"orig":"","vertexType":"NORMAL"},"itineraries":[{"duration":992,"startTime":1522707300000,"endTime":1522708292000,"walkTime":992,"transitTime":0,"waitingTime":0,"walkDistance":1270.280984954533,"walkLimitExceeded":false,"elevationLost":0.0,"elevationGained":0.0,"transfers":0,"legs":[{"startTime":1522707300000,"endTime":1522708292000,"departureDelay":0,"arrivalDelay":0,"realTime":false,"distance":1270.0369999999998,"pathway":false,"mode":"WALK","route":"","agencyTimeZoneOffset":-14400000,"interlineWithPreviousLeg":false,"from":{"name":"Origin","lon":-71.052406,"lat":48.423148,"departure":1522707300000,"orig":"","vertexType":"NORMAL"},"to":{"name":"Destination","lon":-71.056611,"lat":48.414861,"arrival":1522708292000,"orig":"","vertexType":"NORMAL"},"legGeometry":{"points":"qspfHpltpL?n@CVWrB~A^V{@DDVVZP~@z@L?RA\\Qd@@L^DLMf@Jf@v@\\dBz@`DdBHDh@TZHDXd@lBRz@^pAFNLj@`GcFnDyCV`Al@zB`A~@p@j@fAz@j@gBXENG","length":40},"rentedBike":false,"transitLeg":false,"duration":992.0,"steps":[{"distance":71.52,"relativeDirection":"DEPART","streetName":"service road","absoluteDirection":"WEST","stayOn":false,"area":false,"bogusName":false,"lon":-71.05240568397582,"lat":48.423135724671475,"elevation":[]},{"distance":54.189,"relativeDirection":"LEFT","streetName":"path","absoluteDirection":"SOUTH","stayOn":false,"area":false,"bogusName":true,"lon":-71.05334280000001,"lat":48.4232749,"elevation":[]},{"distance":463.188,"relativeDirection":"LEFT","streetName":"bike path","absoluteDirection":"SOUTHEAST","stayOn":true,"area":false,"bogusName":true,"lon":-71.053503,"lat":48.4227993,"elevation":[]},{"distance":131.239,"relativeDirection":"SLIGHTLY_RIGHT","streetName":"Rue Newton","absoluteDirection":"SOUTHWEST","stayOn":false,"area":false,"bogusName":false,"lon":-71.05556510000001,"lat":48.4194344,"elevation":[]},{"distance":278.626,"relativeDirection":"LEFT","streetName":"Boulevard de l'Université","absoluteDirection":"SOUTHEAST","stayOn":false,"area":false,"bogusName":false,"lon":-71.05712580000001,"lat":48.418870500000004,"elevation":[]},{"distance":80.004,"relativeDirection":"RIGHT","streetName":"path","absoluteDirection":"SOUTHWEST","stayOn":false,"area":false,"bogusName":true,"lon":-71.05521780000001,"lat":48.4167083,"elevation":[]},{"distance":121.803,"relativeDirection":"SLIGHTLY_LEFT","streetName":"Rue Graham-Bell","absoluteDirection":"SOUTHWEST","stayOn":false,"area":false,"bogusName":false,"lon":-71.05616500000001,"lat":48.4163584,"elevation":[]},{"distance":69.468,"relativeDirection":"LEFT","streetName":"Place Einstein","absoluteDirection":"SOUTHEAST","stayOn":false,"area":false,"bogusName":false,"lon":-71.0570003,"lat":48.4154141,"elevation":[]}]}],"tooSloped":false},{"duration":831,"startTime":1522707548000,"endTime":1522708379000,"walkTime":592,"transitTime":237,"waitingTime":2,"walkDistance":735.2233834504707,"walkLimitExceeded":false,"elevationLost":0.0,"elevationGained":0.0,"transfers":0,"legs":[{"startTime":1522707548000,"endTime":1522707759000,"departureDelay":0,"arrivalDelay":0,"realTime":false,"distance":256.03600000000006,"pathway":false,"mode":"WALK","route":"","agencyTimeZoneOffset":-14400000,"interlineWithPreviousLeg":false,"from":{"name":"Origin","lon":-71.052406,"lat":48.423148,"departure":1522707548000,"orig":"","vertexType":"NORMAL"},"to":{"name":"Cégep de Chicoutimi (voie réservée)","stopId":"1:75","stopCode":"75","lon":-71.055283,"lat":48.422761,"arrival":1522707759000,"departure":1522707760000,"zoneId":"NA","stopIndex":9,"stopSequence":10,"vertexType":"TRANSIT"},"legGeometry":{"points":"qspfHpltpL?n@CVWrBOpAP`AN`ANnCJAZELAFh@","length":12},"rentedBike":false,"transitLeg":false,"duration":211.0,"steps":[{"distance":239.42900000000003,"relativeDirection":"DEPART","streetName":"service road","absoluteDirection":"WEST","stayOn":false,"area":false,"bogusName":false,"lon":-71.05240568397582,"lat":48.423135724671475,"elevation":[]},{"distance":16.607,"relativeDirection":"RIGHT","streetName":"Chemin Saint Thomas","absoluteDirection":"WEST","stayOn":false,"area":false,"bogusName":false,"lon":-71.0550802,"lat":48.4228351,"elevation":[]}]},{"startTime":1522707760000,"endTime":1522707997000,"departureDelay":0,"arrivalDelay":0,"realTime":false,"distance":1016.6606383810738,"pathway":false,"mode":"BUS","route":"175","agencyName":"Société de Transport du Saguenay","agencyUrl":"http://ville.saguenay.ca/fr/services-aux-citoyens/transport-sts","agencyTimeZoneOffset":-14400000,"routeColor":"FF00FF","routeType":3,"routeId":"1:175","routeTextColor":"FFFFFF","interlineWithPreviousLeg":false,"tripBlockId":"8","headsign":"Costco","agencyId":"0","tripId":"1:217380","serviceDate":"20180402","from":{"name":"Cégep de Chicoutimi (voie réservée)","stopId":"1:75","stopCode":"75","lon":-71.055283,"lat":48.422761,"arrival":1522707759000,"departure":1522707760000,"zoneId":"NA","stopIndex":9,"stopSequence":10,"vertexType":"TRANSIT"},"to":{"name":"Polyclinique du Saguenay (boul. Université)","stopId":"1:79","stopCode":"79","lon":-71.053795,"lat":48.414956,"arrival":1522707997000,"departure":1522707998000,"zoneId":"NA","stopIndex":12,"stopSequence":13,"vertexType":"TRANSIT"},"legGeometry":{"points":"oqpfHr~tpLC]g@yEzDuLbBbBvAxAMx@|@v@`A~@Xw@~D~DPxFZtA~ApE`N{LpFmEb@[","length":17},"routeShortName":"175","routeLongName":"Term. Chic / Costco","rentedBike":false,"transitLeg":true,"duration":237.0,"steps":[]},{"startTime":1522707998000,"endTime":1522708379000,"departureDelay":0,"arrivalDelay":0,"realTime":false,"distance":478.934,"pathway":false,"mode":"WALK","route":"","agencyTimeZoneOffset":-14400000,"interlineWithPreviousLeg":false,"from":{"name":"Polyclinique du Saguenay (boul. Université)","stopId":"1:79","stopCode":"79","lon":-71.053795,"lat":48.414956,"arrival":1522707997000,"departure":1522707998000,"zoneId":"NA","stopIndex":12,"stopSequence":13,"vertexType":"TRANSIT"},"to":{"name":"Destination","lon":-71.056611,"lat":48.414861,"arrival":1522708379000,"orig":"","vertexType":"NORMAL"},"legGeometry":{"points":"s`ofHtttpL_@ToCbCFVVp@Rr@cBvAUt@[dA`A~@p@j@fAz@j@gBXENG","length":15},"rentedBike":false,"transitLeg":false,"duration":381.0,"steps":[{"distance":114.179,"relativeDirection":"DEPART","streetName":"Boulevard de l'Université","absoluteDirection":"NORTHWEST","stayOn":false,"area":false,"bogusName":false,"lon":-71.05370648018611,"lat":48.414981486600546,"elevation":[]},{"distance":54.82599999999999,"relativeDirection":"LEFT","streetName":"Rue Nobel","absoluteDirection":"SOUTHWEST","stayOn":false,"area":false,"bogusName":false,"lon":-71.0544787,"lat":48.4158697,"elevation":[]},{"distance":118.658,"relativeDirection":"RIGHT","streetName":"Rue Thomas-Edison","absoluteDirection":"NORTHWEST","stayOn":false,"area":false,"bogusName":false,"lon":-71.05510070000001,"lat":48.415600100000006,"elevation":[]},{"distance":121.803,"relativeDirection":"LEFT","streetName":"Rue Graham-Bell","absoluteDirection":"SOUTHWEST","stayOn":false,"area":false,"bogusName":false,"lon":-71.05616500000001,"lat":48.4163584,"elevation":[]},{"distance":69.468,"relativeDirection":"LEFT","streetName":"Place Einstein","absoluteDirection":"SOUTHEAST","stayOn":false,"area":false,"bogusName":false,"lon":-71.0570003,"lat":48.4154141,"elevation":[]}]}],"tooSloped":false},{"duration":966,"startTime":1522708011000,"endTime":1522708977000,"walkTime":592,"transitTime":372,"waitingTime":2,"walkDistance":735.2233834504707,"walkLimitExceeded":false,"elevationLost":0.0,"elevationGained":0.0,"transfers":0,"legs":[{"startTime":1522708011000,"endTime":1522708222000,"departureDelay":0,"arrivalDelay":0,"realTime":false,"distance":256.03600000000006,"pathway":false,"mode":"WALK","route":"","agencyTimeZoneOffset":-14400000,"interlineWithPreviousLeg":false,"from":{"name":"Origin","lon":-71.052406,"lat":48.423148,"departure":1522708011000,"orig":"","vertexType":"NORMAL"},"to":{"name":"Cégep de Chicoutimi (voie réservée)","stopId":"1:75","stopCode":"75","lon":-71.055283,"lat":48.422761,"arrival":1522708222000,"departure":1522708223000,"zoneId":"NA","stopIndex":55,"stopSequence":56,"vertexType":"TRANSIT"},"legGeometry":{"points":"qspfHpltpL?n@CVWrBOpAP`AN`ANnCJAZELAFh@","length":12},"rentedBike":false,"transitLeg":false,"duration":211.0,"steps":[{"distance":239.42900000000003,"relativeDirection":"DEPART","streetName":"service road","absoluteDirection":"WEST","stayOn":false,"area":false,"bogusName":false,"lon":-71.05240568397582,"lat":48.423135724671475,"elevation":[]},{"distance":16.607,"relativeDirection":"RIGHT","streetName":"Chemin Saint Thomas","absoluteDirection":"WEST","stayOn":false,"area":false,"bogusName":false,"lon":-71.0550802,"lat":48.4228351,"elevation":[]}]},{"startTime":1522708223000,"endTime":1522708260000,"departureDelay":0,"arrivalDelay":0,"realTime":false,"distance":354.63646711528844,"pathway":false,"mode":"BUS","route":"6","agencyName":"Société de Transport du Saguenay","agencyUrl":"http://ville.saguenay.ca/fr/services-aux-citoyens/transport-sts","agencyTimeZoneOffset":-14400000,"routeColor":"FF0000","routeType":3,"routeId":"1:6","routeTextColor":"FFFFFF","interlineWithPreviousLeg":false,"tripBlockId":"25","headsign":"Terminus UQAC","agencyId":"0","tripId":"1:217950","serviceDate":"20180402","from":{"name":"Cégep de Chicoutimi (voie réservée)","stopId":"1:75","stopCode":"75","lon":-71.055283,"lat":48.422761,"arrival":1522708222000,"departure":1522708223000,"zoneId":"NA","stopIndex":55,"stopSequence":56,"vertexType":"TRANSIT"},"to":{"name":"Terminus UQAC","stopId":"1:1670","stopCode":"1670","lon":-71.053369,"lat":48.420903,"arrival":1522708260000,"departure":1522708500000,"zoneId":"NA","stopIndex":57,"stopSequence":58,"vertexType":"TRANSIT"},"legGeometry":{"points":"oqpfHt~tpLe@gED{@nDqLdBfBxAzAQp@z@~@","length":8},"routeShortName":"6","routeLongName":"Term. Chic/Term. Baie via ch.Plateau","rentedBike":false,"transitLeg":true,"duration":37.0,"steps":[]},{"startTime":1522708500000,"endTime":1522708595000,"departureDelay":0,"arrivalDelay":0,"realTime":false,"distance":662.0241712657853,"pathway":false,"mode":"BUS","route":"5","agencyName":"Société de Transport du Saguenay","agencyUrl":"http://ville.saguenay.ca/fr/services-aux-citoyens/transport-sts","agencyTimeZoneOffset":-14400000,"routeColor":"FF0000","routeType":3,"routeId":"1:5","routeTextColor":"FFFFFF","interlineWithPreviousLeg":true,"tripBlockId":"25","headsign":"Terminus La Baie","agencyId":"0","tripId":"1:217951","serviceDate":"20180402","from":{"name":"Terminus UQAC","stopId":"1:1670","stopCode":"1670","lon":-71.053369,"lat":48.420903,"arrival":1522708260000,"departure":1522708500000,"zoneId":"NA","stopIndex":0,"stopSequence":1,"vertexType":"TRANSIT"},"to":{"name":"Polyclinique du Saguenay (boul. Université)","stopId":"1:79","stopCode":"79","lon":-71.053795,"lat":48.414956,"arrival":1522708595000,"departure":1522708596000,"zoneId":"NA","stopIndex":1,"stopSequence":2,"vertexType":"TRANSIT"},"legGeometry":{"points":"sepfHtrtpLbA`ATs@bB~A~A|ALb@E`EnBvHtNsL~FeFRO","length":11},"routeShortName":"5","routeLongName":"Term. Chic/Term. Baie via St-J.Batiste","rentedBike":false,"transitLeg":true,"duration":95.0,"steps":[]},{"startTime":1522708596000,"endTime":1522708977000,"departureDelay":0,"arrivalDelay":0,"realTime":false,"distance":478.934,"pathway":false,"mode":"WALK","route":"","agencyTimeZoneOffset":-14400000,"interlineWithPreviousLeg":false,"from":{"name":"Polyclinique du Saguenay (boul. Université)","stopId":"1:79","stopCode":"79","lon":-71.053795,"lat":48.414956,"arrival":1522708595000,"departure":1522708596000,"zoneId":"NA","stopIndex":1,"stopSequence":2,"vertexType":"TRANSIT"},"to":{"name":"Destination","lon":-71.056611,"lat":48.414861,"arrival":1522708977000,"orig":"","vertexType":"NORMAL"},"legGeometry":{"points":"s`ofHtttpL_@ToCbCFVVp@Rr@cBvAUt@[dA`A~@p@j@fAz@j@gBXENG","length":15},"rentedBike":false,"transitLeg":false,"duration":381.0,"steps":[{"distance":114.179,"relativeDirection":"DEPART","streetName":"Boulevard de l'Université","absoluteDirection":"NORTHWEST","stayOn":false,"area":false,"bogusName":false,"lon":-71.05370648018611,"lat":48.414981486600546,"elevation":[]},{"distance":54.82599999999999,"relativeDirection":"LEFT","streetName":"Rue Nobel","absoluteDirection":"SOUTHWEST","stayOn":false,"area":false,"bogusName":false,"lon":-71.0544787,"lat":48.4158697,"elevation":[]},{"distance":118.658,"relativeDirection":"RIGHT","streetName":"Rue Thomas-Edison","absoluteDirection":"NORTHWEST","stayOn":false,"area":false,"bogusName":false,"lon":-71.05510070000001,"lat":48.415600100000006,"elevation":[]},{"distance":121.803,"relativeDirection":"LEFT","streetName":"Rue Graham-Bell","absoluteDirection":"SOUTHWEST","stayOn":false,"area":false,"bogusName":false,"lon":-71.05616500000001,"lat":48.4163584,"elevation":[]},{"distance":69.468,"relativeDirection":"LEFT","streetName":"Place Einstein","absoluteDirection":"SOUTHEAST","stayOn":false,"area":false,"bogusName":false,"lon":-71.0570003,"lat":48.4154141,"elevation":[]}]}],"tooSloped":false}]},"debugOutput":{"precalculationTime":43,"pathCalculationTime":20,"pathTimes":[12,3,5],"renderingTime":0,"totalTime":63,"timedOut":false},"elevationMetadata":{"ellipsoidToGeoidDifference":-28.885904201182168,"geoidElevation":false}}