{"requestParameters":{"date":"2018/04/02","walkSpeed":"1.33","walkReluctance":"2.0","fromPlace":"48.412852,-71.05355","maxWalkDistance":"3000","waitReluctance":"1.0","carSpeed":"33","numItineraries":"3","waitAtBeginningFactor":"0.4","mode":"TRANSIT,WALK","ignoreRealtimeUpdates":"false","stairsReluctance":"2.0","toPlace":"48.44911,-71.08157599","time":"7:30:00"},"plan":{"date":1522668600000,"from":{"name":"Origin","lon":-71.05355,"lat":48.412852,"orig":"","vertexType":"NORMAL"},"to":{"name":"Destination","lon":-71.08157599,"lat":48.44911,"orig":"","vertexType":"NORMAL"},"itineraries":[{"duration":1806,"startTime":1522669985000,"endTime":1522671791000,"walkTime":347,"transitTime":1157,"waitingTime":302,"walkDistance":437.62318044718535,"walkLimitExceeded":false,"elevationLost":0.0,"elevationGained":0.0,"transfers":1,"legs":[{"startTime":1522669985000,"endTime":1522670262000,"departureDelay":0,"arrivalDelay":0,"realTime":false,"distance":352.605,"pathway":false,"mode":"WALK","route":"","agencyTimeZoneOffset":-14400000,"interlineWithPreviousLeg":false,"from":{"name":"Origin","lon":-71.05355,"lat":48.412852,"departure":1522669985000,"orig":"","vertexType":"NORMAL"},"to":{"name":"boul. Université / Alma","stopId":"1:60","stopCode":"60","lon":-71.052847,"lat":48.413175,"arrival":1522670262000,"departure":1522670263000,"zoneId":"NA","stopIndex":12,"stopSequence":13,"vertexType":"TRANSIT"},"legGeometry":{"points":"asnfH`vtpLl@@xBB?uDMqAqAkAIIYWiA`C_@\\","length":10},"rentedBike":false,"transitLeg":false,"duration":277.0,"steps":[{"distance":93.49,"relativeDirection":"DEPART","streetName":"Rue Marguerite-Tellier","absoluteDirection":"SOUTH","stayOn":false,"area":false,"bogusName":false,"lon":-71.053922,"lat":48.412818,"elevation":[]},{"distance":158.358,"relativeDirection":"LEFT","streetName":"Rue Thérèse-Casgrain","absoluteDirection":"EAST","stayOn":false,"area":false,"bogusName":false,"lon":-71.05395460000001,"lat":48.411977500000006,"elevation":[]},{"distance":16.985,"relativeDirection":"CONTINUE","streetName":"Rue d'Alma","absoluteDirection":"NORTHEAST","stayOn":false,"area":false,"bogusName":false,"lon":-71.0522085,"lat":48.412505100000004,"elevation":[]},{"distance":83.772,"relativeDirection":"LEFT","streetName":"Boulevard de l'Université","absoluteDirection":"NORTHWEST","stayOn":false,"area":false,"bogusName":false,"lon":-71.0520843,"lat":48.4126337,"elevation":[]}]},{"startTime":1522670263000,"endTime":1522671000000,"departureDelay":0,"arrivalDelay":0,"realTime":false,"distance":3192.532780640062,"pathway":false,"mode":"BUS","route":"175","agencyName":"Société de Transport du Saguenay","agencyUrl":"http://ville.saguenay.ca/fr/services-aux-citoyens/transport-sts","agencyTimeZoneOffset":-14400000,"routeColor":"FF00FF","routeType":3,"routeId":"1:175","routeTextColor":"FFFFFF","interlineWithPreviousLeg":false,"tripBlockId":"11","headsign":"Terminus Chicoutimi","agencyId":"0","tripId":"1:217464","serviceDate":"20180402","from":{"name":"boul. Université / Alma","stopId":"1:60","stopCode":"60","lon":-71.052847,"lat":48.413175,"arrival":1522670262000,"departure":1522670263000,"zoneId":"NA","stopIndex":12,"stopSequence":13,"vertexType":"TRANSIT"},"to":{"name":"Terminus Chicoutimi","stopId":"1:1289","stopCode":"1289","lon":-71.066163,"lat":48.428677,"arrival":1522671000000,"departure":1522671300000,"zoneId":"NA","stopIndex":27,"stopSequence":28,"vertexType":"TRANSIT"},"legGeometry":{"points":"wunfHvntpLc@x@qG~@{BlAk@XgSrQqB_GAeFiEeEOt@gAeA_A_ATm@yAwAgBeBqDnL@nBF`@f@|C[dCuAfB]xAs@OmCmCmEkE]a@g@i@ZiGTmEl@oLaEe@cFk@?pH?tJDvBPjMB~Bo@PQDRbFKdGMhIOvIK|EQpHoCQEdC","length":47},"routeShortName":"175","routeLongName":"Term. Chic / Costco","rentedBike":false,"transitLeg":true,"duration":737.0,"steps":[]},{"startTime":1522671300000,"endTime":1522671720000,"departureDelay":0,"arrivalDelay":0,"realTime":false,"distance":2915.5509070662774,"pathway":false,"mode":"BUS","route":"23","agencyName":"Société de Transport du Saguenay","agencyUrl":"http://ville.saguenay.ca/fr/services-aux-citoyens/transport-sts","agencyTimeZoneOffset":-14400000,"routeColor":"FF00FF","routeType":3,"routeId":"1:23","routeTextColor":"FFFFFF","interlineWithPreviousLeg":false,"tripBlockId":"4","headsign":"Terminus Chicoutimi","agencyId":"0","tripId":"1:217226","serviceDate":"20180402","from":{"name":"Terminus Chicoutimi","stopId":"1:1289","stopCode":"1289","lon":-71.066163,"lat":48.428677,"arrival":1522671000000,"departure":1522671300000,"zoneId":"NA","stopIndex":0,"stopSequence":1,"vertexType":"TRANSIT"},"to":{"name":"École Secondaire Charles-Gravel (St-Gérard)","stopId":"1:728","stopCode":"728","lon":-71.08106,"lat":48.449225,"arrival":1522671720000,"departure":1522671721000,"zoneId":"NA","stopIndex":5,"stopSequence":6,"vertexType":"TRANSIT"},"legGeometry":{"points":"kwqfHjbwpLF_CkAOYCm@rRO\\WjGOfGCRK^KJMHQB_AMg@Gw`@eR}@g@u@Su@Ia@Ck@Dm@HwAf@c@VeAx@iAlAU^[d@eLtTsAvB_CvEuAnCmBlE}@|B_BvFoC`JCD}@hCo@~Aq@pAs@fA{BlCqH|Iq@Bq@Im@UGCUi@Wm@ScA_@gGSaE@_@@_@@E","length":55},"routeShortName":"23","routeLongName":"Côte Verdun via Aréna du Plateau","rentedBike":false,"transitLeg":true,"duration":420.0,"steps":[]},{"startTime":1522671721000,"endTime":1522671791000,"departureDelay":0,"arrivalDelay":0,"realTime":false,"distance":84.896,"pathway":false,"mode":"WALK","route":"","agencyTimeZoneOffset":-14400000,"interlineWithPreviousLeg":false,"from":{"name":"École Secondaire Charles-Gravel (St-Gérard)","stopId":"1:728","stopCode":"728","lon":-71.08106,"lat":48.449225,"arrival":1522671720000,"departure":1522671721000,"zoneId":"NA","stopIndex":5,"stopSequence":6,"vertexType":"TRANSIT"},"to":{"name":"Destination","lon":-71.08157599,"lat":48.44911,"arrival":1522671791000,"orig":"","vertexType":"NORMAL"},"legGeometry":{"points":"iwufHl_zpLCT?f@DzAn@U","length":5},"rentedBike":false,"transitLeg":false,"duration":70.0,"steps":[{"distance":57.31,"relativeDirection":"DEPART","streetName":"Rue Saint-Gérard","absoluteDirection":"WEST","stayOn":false,"area":false,"bogusName":false,"lon":-71.08102429625302,"lat":48.449334223206954,"elevation":[]},{"distance":27.586,"relativeDirection":"LEFT","streetName":"path","absoluteDirection":"SOUTH","stayOn":false,"area":false,"bogusName":false,"lon":-71.0817962,"lat":48.449325400000006,"elevation":[]}]}],"tooSloped":false},{"duration":2841,"startTime":1522669085000,"endTime":1522671926000,"walkTime":482,"transitTime":1157,"waitingTime":1202,"walkDistance":610.9971278146725,"walkLimitExceeded":false,"elevationLost":0.0,"elevationGained":0.0,"transfers":1,"legs":[{"startTime":1522669085000,"endTime":1522669362000,"departureDelay":0,"arrivalDelay":0,"realTime":false,"distance":352.605,"pathway":false,"mode":"WALK","route":"","agencyTimeZoneOffset":-14400000,"interlineWithPreviousLeg":false,"from":{"name":"Origin","lon":-71.05355,"lat":48.412852,"departure":1522669085000,"orig":"","vertexType":"NORMAL"},"to":{"name":"boul. Université / Alma","stopId":"1:60","stopCode":"60","lon":-71.052847,"lat":48.413175,"arrival":1522669362000,"departure":1522669363000,"zoneId":"NA","stopIndex":12,"stopSequence":13,"vertexType":"TRANSIT"},"legGeometry":{"points":"asnfH`vtpLl@@xBB?uDMqAqAkAIIYWiA`C_@\\","length":10},"rentedBike":false,"transitLeg":false,"duration":277.0,"steps":[{"distance":93.49,"relativeDirection":"DEPART","streetName":"Rue Marguerite-Tellier","absoluteDirection":"SOUTH","stayOn":false,"area":false,"bogusName":false,"lon":-71.053922,"lat":48.412818,"elevation":[]},{"distance":158.358,"relativeDirection":"LEFT","streetName":"Rue Thérèse-Casgrain","absoluteDirection":"EAST","stayOn":false,"area":false,"bogusName":false,"lon":-71.05395460000001,"lat":48.411977500000006,"elevation":[]},{"distance":16.985,"relativeDirection":"CONTINUE","streetName":"Rue d'Alma","absoluteDirection":"NORTHEAST","stayOn":false,"area":false,"bogusName":false,"lon":-71.0522085,"lat":48.412505100000004,"elevation":[]},{"distance":83.772,"relativeDirection":"LEFT","streetName":"Boulevard de l'Université","absoluteDirection":"NORTHWEST","stayOn":false,"area":false,"bogusName":false,"lon":-71.0520843,"lat":48.4126337,"elevation":[]}]},{"startTime":1522669363000,"endTime":1522670100000,"departureDelay":0,"arrivalDelay":0,"realTime":false,"distance":3192.532780640062,"pathway":false,"mode":"BUS","route":"175","agencyName":"Société de Transport du Saguenay","agencyUrl":"http://ville.saguenay.ca/fr/services-aux-citoyens/transport-sts","agencyTimeZoneOffset":-14400000,"routeColor":"FF00FF","routeType":3,"routeId":"1:175","routeTextColor":"FFFFFF","interlineWithPreviousLeg":false,"tripBlockId":"79","headsign":"Terminus Chicoutimi","agencyId":"0","tripId":"1:218648","serviceDate":"20180402","from":{"name":"boul. Université / Alma","stopId":"1:60","stopCode":"60","lon":-71.052847,"lat":48.413175,"arrival":1522669362000,"departure":1522669363000,"zoneId":"NA","stopIndex":12,"stopSequence":13,"vertexType":"TRANSIT"},"to":{"name":"Terminus Chicoutimi","stopId":"1:1289","stopCode":"1289","lon":-71.066163,"lat":48.428677,"arrival":1522670100000,"departure":1522671300000,"zoneId":"NA","stopIndex":27,"stopSequence":28,"vertexType":"TRANSIT"},"legGeometry":{"points":"wunfHvntpLc@x@qG~@{BlAk@XgSrQqB_GAeFiEeEOt@gAeA_A_ATm@yAwAgBeBqDnL@nBF`@f@|C[dCuAfB]xAs@OmCmCmEkE]a@g@i@ZiGTmEl@oLaEe@cFk@?pH?tJDvBPjMB~Bo@PQDRbFKdGMhIOvIK|EQpHoCQEdC","length":47},"routeShortName":"175","routeLongName":"Term. Chic / Costco","rentedBike":false,"transitLeg":true,"duration":737.0,"steps":[]},{"startTime":1522671300000,"endTime":1522671720000,"departureDelay":0,"arrivalDelay":0,"realTime":false,"distance":2713.5858046781586,"pathway":false,"mode":"BUS","route":"21","agencyName":"Société de Transport du Saguenay","agencyUrl":"http://ville.saguenay.ca/fr/services-aux-citoyens/transport-sts","agencyTimeZoneOffset":-14400000,"routeColor":"556B2F","routeType":3,"routeId":"1:21","routeTextColor":"FFFFFF","interlineWithPreviousLeg":false,"tripBlockId":"2","headsign":"Terminus Chicoutimi","agencyId":"0","tripId":"1:217159","serviceDate":"20180402","from":{"name":"Terminus Chicoutimi","stopId":"1:1289","stopCode":"1289","lon":-71.066163,"lat":48.428677,"arrival":1522670100000,"departure":1522671300000,"zoneId":"NA","stopIndex":0,"stopSequence":1,"vertexType":"TRANSIT"},"to":{"name":"Pinel / St-Gérard","stopId":"1:99","stopCode":"99","lon":-71.079002,"lat":48.449332,"arrival":1522671720000,"departure":1522671721000,"zoneId":"NA","stopIndex":4,"stopSequence":5,"vertexType":"TRANSIT"},"legGeometry":{"points":"kwqfHjbwpLF_CeBSm@rRO\\WjGOfGCRK^KJMHQB_AMg@Gw`@eR}@g@u@Su@Ia@Ck@Dm@HwAf@c@VeAx@iAlAU^[d@eLtTsAvB_CvEuAnCmBlE}@|B_BvFoC`JCD}@hCo@~Aq@pAs@fAWs@IUC[AI?QCeGAs@Gy@Ks@Ou@OcAIcAIgAWgCG_@Og@IQS]UWYQWIUA[Da@P]RSVQ`@Ib@Ef@Et@Gf@Id@I`@Od@cCxFQOgAwA","length":77},"routeShortName":"21","routeLongName":"Boul. Ste-Geneviève/Élie","rentedBike":false,"transitLeg":true,"duration":420.0,"steps":[]},{"startTime":1522671721000,"endTime":1522671926000,"departureDelay":0,"arrivalDelay":0,"realTime":false,"distance":258.241,"pathway":false,"mode":"WALK","route":"","agencyTimeZoneOffset":-14400000,"interlineWithPreviousLeg":false,"from":{"name":"Pinel / St-Gérard","stopId":"1:99","stopCode":"99","lon":-71.079002,"lat":48.449332,"arrival":1522671720000,"departure":1522671721000,"zoneId":"NA","stopIndex":4,"stopSequence":5,"vertexType":"TRANSIT"},"to":{"name":"Destination","lon":-71.08157599,"lat":48.44911,"arrival":1522671926000,"orig":"","vertexType":"NORMAL"},"legGeometry":{"points":"wwufHvsypLzAfBILOh@S~@I\\ETIz@Ed@CT?f@DzAn@U","length":13},"rentedBike":false,"transitLeg":false,"duration":205.0,"steps":[{"distance":64.055,"relativeDirection":"DEPART","streetName":"Rue Pinel","absoluteDirection":"SOUTHWEST","stayOn":false,"area":false,"bogusName":false,"lon":-71.0791524404459,"lat":48.44940784192698,"elevation":[]},{"distance":166.6,"relativeDirection":"RIGHT","streetName":"Rue Saint-Gérard","absoluteDirection":"NORTHWEST","stayOn":false,"area":false,"bogusName":false,"lon":-71.079678,"lat":48.4489492,"elevation":[]},{"distance":27.586,"relativeDirection":"LEFT","streetName":"path","absoluteDirection":"SOUTH","stayOn":false,"area":false,"bogusName":false,"lon":-71.0817962,"lat":48.449325400000006,"elevation":[]}]}],"tooSloped":false},{"duration":2386,"startTime":1522671205000,"endTime":1522673591000,"walkTime":1964,"transitTime":420,"waitingTime":2,"walkDistance":2539.552112775659,"walkLimitExceeded":false,"elevationLost":0.0,"elevationGained":0.0,"transfers":0,"legs":[{"startTime":1522671205000,"endTime":1522673099000,"departureDelay":0,"arrivalDelay":0,"realTime":false,"distance":2454.4610000000002,"pathway":false,"mode":"WALK","route":"","agencyTimeZoneOffset":-14400000,"interlineWithPreviousLeg":false,"from":{"name":"Origin","lon":-71.05355,"lat":48.412852,"departure":1522671205000,"orig":"","vertexType":"NORMAL"},"to":{"name":"Terminus Chicoutimi","stopId":"1:1289","stopCode":"1289","lon":-71.066163,"lat":48.428677,"arrival":1522673099000,"departure":1522673100000,"zoneId":"NA","stopIndex":0,"stopSequence":1,"vertexType":"TRANSIT"},"legGeometry":{"points":"asnfH`vtpLk@\\Ul@[|@eBzEGN{B{BcA_Aa@Ym@DqAdASs@Wq@GWWPmBbBQNOLoDxCaGbFOLiFbFu@fAi@bBm@tCCh@KpBm@hQAb@An@EtBCj@QfHMAM?qBCs@?O?}@EcAIw@EuAKs@CgDS}AKQG_@C{BUsAGkCQQAsBIc@MKESAcAK","length":56},"rentedBike":false,"transitLeg":false,"duration":1894.0,"steps":[{"distance":181.322,"relativeDirection":"DEPART","streetName":"Rue Marguerite-Tellier","absoluteDirection":"NORTHWEST","stayOn":false,"area":false,"bogusName":false,"lon":-71.053922,"lat":48.412818,"elevation":[]},{"distance":226.075,"relativeDirection":"RIGHT","streetName":"Rue Thomas-Edison","absoluteDirection":"NORTHEAST","stayOn":false,"area":false,"bogusName":false,"lon":-71.05579440000001,"lat":48.413831200000004,"elevation":[]},{"distance":54.82599999999999,"relativeDirection":"RIGHT","streetName":"Rue Nobel","absoluteDirection":"NORTHEAST","stayOn":false,"area":false,"bogusName":false,"lon":-71.05510070000001,"lat":48.415600100000006,"elevation":[]},{"distance":1173.654,"relativeDirection":"LEFT","streetName":"Boulevard de l'Université","absoluteDirection":"NORTHWEST","stayOn":false,"area":false,"bogusName":false,"lon":-71.0544787,"lat":48.4158697,"elevation":[]},{"distance":818.5840000000001,"relativeDirection":"RIGHT","streetName":"Rue Morin","absoluteDirection":"NORTH","stayOn":false,"area":false,"bogusName":false,"lon":-71.06636540000001,"lat":48.4213,"elevation":[]}]},{"startTime":1522673100000,"endTime":1522673520000,"departureDelay":0,"arrivalDelay":0,"realTime":false,"distance":2915.5509070662774,"pathway":false,"mode":"BUS","route":"23","agencyName":"Société de Transport du Saguenay","agencyUrl":"http://ville.saguenay.ca/fr/services-aux-citoyens/transport-sts","agencyTimeZoneOffset":-14400000,"routeColor":"FF00FF","routeType":3,"routeId":"1:23","routeTextColor":"FFFFFF","interlineWithPreviousLeg":false,"tripBlockId":"5","headsign":"Terminus Chicoutimi","agencyId":"0","tripId":"1:217254","serviceDate":"20180402","from":{"name":"Terminus Chicoutimi","stopId":"1:1289","stopCode":"1289","lon":-71.066163,"lat":48.428677,"arrival":1522673099000,"departure":1522673100000,"zoneId":"NA","stopIndex":0,"stopSequence":1,"vertexType":"TRANSIT"},"to":{"name":"École Secondaire Charles-Gravel (St-Gérard)","stopId":"1:728","stopCode":"728","lon":-71.08106,"lat":48.449225,"arrival":1522673520000,"departure":1522673521000,"zoneId":"NA","stopIndex":5,"stopSequence":6,"vertexType":"TRANSIT"},"legGeometry":{"points":"kwqfHjbwpLF_CkAOYCm@rRO\\WjGOfGCRK^KJMHQB_AMg@Gw`@eR}@g@u@Su@Ia@Ck@Dm@HwAf@c@VeAx@iAlAU^[d@eLtTsAvB_CvEuAnCmBlE}@|B_BvFoC`JCD}@hCo@~Aq@pAs@fA{BlCqH|Iq@Bq@Im@UGCUi@Wm@ScA_@gGSaE@_@@_@@E","length":55},"routeShortName":"23","routeLongName":"Côte Verdun via Aréna du Plateau","rentedBike":false,"transitLeg":true,"duration":420.0,"steps":[]},{"startTime":1522673521000,"endTime":1522673591000,"departureDelay":0,"arrivalDelay":0,"realTime":false,"distance":84.896,"pathway":false,"mode":"WALK","route":"","agencyTimeZoneOffset":-14400000,"interlineWithPreviousLeg":false,"from":{"name":"École Secondaire Charles-Gravel (St-Gérard)","stopId":"1:728","stopCode":"728","lon":-71.08106,"lat":48.449225,"arrival":1522673520000,"departure":1522673521000,"zoneId":"NA","stopIndex":5,"stopSequence":6,"vertexType":"TRANSIT"},"to":{"name":"Destination","lon":-71.08157599,"lat":48.44911,"arrival":1522673591000,"orig":"","vertexType":"NORMAL"},"legGeometry":{"points":"iwufHl_zpLCT?f@DzAn@U","length":5},"rentedBike":false,"transitLeg":false,"duration":70.0,"steps":[{"distance":57.31,"relativeDirection":"DEPART","streetName":"Rue Saint-Gérard","absoluteDirection":"WEST","stayOn":false,"area":false,"bogusName":false,"lon":-71.08102429625302,"lat":48.449334223206954,"elevation":[]},{"distance":27.586,"relativeDirection":"LEFT","streetName":"path","absoluteDirection":"SOUTH","stayOn":false,"area":false,"bogusName":false,"lon":-71.0817962,"lat":48.449325400000006,"elevation":[]}]}],"tooSloped":false}]},"debugOutput":{"precalculationTime":26,"pathCalculationTime":72,"pathTimes":[32,18,22],"renderingTime":1,"totalTime":99,"timedOut":false},"elevationMetadata":{"ellipsoidToGeoidDifference":-28.885904201182168,"geoidElevation":false}}