{"requestParameters":{"date":"2018/04/02","walkSpeed":"1.33","walkReluctance":"2.0","fromPlace":"48.402479,-71.06064","maxWalkDistance":"3000","waitReluctance":"1.0","carSpeed":"33","numItineraries":"3","waitAtBeginningFactor":"0.4","mode":"TRANSIT,WALK","ignoreRealtimeUpdates":"false","stairsReluctance":"2.0","toPlace":"48.416288,-71.055438","time":"12:30:00"},"plan":{"date":1522686600000,"from":{"name":"Origin","lon":-71.06064,"lat":48.402479,"orig":"","vertexType":"NORMAL"},"to":{"name":"Destination","lon":-71.055438,"lat":48.416288,"orig":"","vertexType":"NORMAL"},"itineraries":[{"duration":814,"startTime":1522686767000,"endTime":1522687581000,"walkTime":603,"transitTime":209,"waitingTime":2,"walkDistance":749.5536090146957,"walkLimitExceeded":false,"elevationLost":0.0,"elevationGained":0.0,"transfers":0,"legs":[{"startTime":1522686767000,"endTime":1522687199000,"departureDelay":0,"arrivalDelay":0,"realTime":false,"distance":536.1809999999999,"pathway":false,"mode":"WALK","route":"","agencyTimeZoneOffset":-14400000,"interlineWithPreviousLeg":false,"from":{"name":"Origin","lon":-71.06064,"lat":48.402479,"departure":1522686767000,"orig":"","vertexType":"NORMAL"},"to":{"name":"Place Royaume","stopId":"1:1801","stopCode":"1801","lon":-71.057017,"lat":48.405588,"arrival":1522687199000,"departure":1522687200000,"zoneId":"NA","stopIndex":10,"stopSequence":11,"vertexType":"TRANSIT"},"legGeometry":{"points":"crlfHd_vpLaB_BWUJW@EkBeBiFwEt@aC[YUU][Y[[YY[[[a@zA","length":16},"rentedBike":false,"transitLeg":false,"duration":432.0,"steps":[{"distance":316.747,"relativeDirection":"DEPART","streetName":"Boulevard Talbot","absoluteDirection":"NORTHEAST","stayOn":false,"area":false,"bogusName":false,"lon":-71.06050796525754,"lat":48.40242204331278,"elevation":[]},{"distance":219.43400000000003,"relativeDirection":"RIGHT","streetName":"parking aisle","absoluteDirection":"SOUTHEAST","stayOn":false,"area":false,"bogusName":true,"lon":-71.0581722,"lat":48.4046724,"elevation":[]}]},{"startTime":1522687200000,"endTime":1522687409000,"departureDelay":0,"arrivalDelay":0,"realTime":false,"distance":1253.896268830737,"pathway":false,"mode":"BUS","route":"175","agencyName":"Société de Transport du Saguenay","agencyUrl":"http://ville.saguenay.ca/fr/services-aux-citoyens/transport-sts","agencyTimeZoneOffset":-14400000,"routeColor":"FF00FF","routeType":3,"routeId":"1:175","routeTextColor":"FFFFFF","interlineWithPreviousLeg":false,"tripBlockId":"78","headsign":"Terminus Chicoutimi","agencyId":"0","tripId":"1:218644","serviceDate":"20180402","from":{"name":"Place Royaume","stopId":"1:1801","stopCode":"1801","lon":-71.057017,"lat":48.405588,"arrival":1522687199000,"departure":1522687200000,"zoneId":"NA","stopIndex":10,"stopSequence":11,"vertexType":"TRANSIT"},"to":{"name":"Polyclinique du Saguenay (boul. Université)","stopId":"1:61","stopCode":"61","lon":-71.053728,"lat":48.415424,"arrival":1522687409000,"departure":1522687410000,"zoneId":"NA","stopIndex":13,"stopSequence":14,"vertexType":"TRANSIT"},"legGeometry":{"points":"sfmfH`kupL_U_TcNgNcBcB{E`Jc@x@qG~@{BlA","length":8},"routeShortName":"175","routeLongName":"Term. Chic / Costco","rentedBike":false,"transitLeg":true,"duration":209.0,"steps":[]},{"startTime":1522687410000,"endTime":1522687581000,"departureDelay":0,"arrivalDelay":0,"realTime":false,"distance":213.12900000000002,"pathway":false,"mode":"WALK","route":"","agencyTimeZoneOffset":-14400000,"interlineWithPreviousLeg":false,"from":{"name":"Polyclinique du Saguenay (boul. Université)","stopId":"1:61","stopCode":"61","lon":-71.053728,"lat":48.415424,"arrival":1522687409000,"departure":1522687410000,"zoneId":"NA","stopIndex":13,"stopSequence":14,"vertexType":"TRANSIT"},"to":{"name":"Destination","lon":-71.055438,"lat":48.416288,"arrival":1522687581000,"orig":"","vertexType":"NORMAL"},"legGeometry":{"points":"gcofHbutpLaBvAKHPh@FVVp@Rr@cBvACH","length":9},"rentedBike":false,"transitLeg":false,"duration":171.0,"steps":[{"distance":71.131,"relativeDirection":"DEPART","streetName":"Boulevard de l'Université","absoluteDirection":"NORTHWEST","stayOn":false,"area":false,"bogusName":false,"lon":-71.05377815383544,"lat":48.415404134793874,"elevation":[]},{"distance":72.972,"relativeDirection":"LEFT","streetName":"Rue Nobel","absoluteDirection":"SOUTHWEST","stayOn":false,"area":false,"bogusName":false,"lon":-71.0542688,"lat":48.4159547,"elevation":[]},{"distance":69.026,"relativeDirection":"RIGHT","streetName":"Rue Thomas-Edison","absoluteDirection":"NORTHWEST","stayOn":false,"area":false,"bogusName":false,"lon":-71.05510070000001,"lat":48.415600100000006,"elevation":[]}]}],"tooSloped":false},{"duration":814,"startTime":1522687667000,"endTime":1522688481000,"walkTime":603,"transitTime":209,"waitingTime":2,"walkDistance":749.5536090146957,"walkLimitExceeded":false,"elevationLost":0.0,"elevationGained":0.0,"transfers":0,"legs":[{"startTime":1522687667000,"endTime":1522688099000,"departureDelay":0,"arrivalDelay":0,"realTime":false,"distance":536.1809999999999,"pathway":false,"mode":"WALK","route":"","agencyTimeZoneOffset":-14400000,"interlineWithPreviousLeg":false,"from":{"name":"Origin","lon":-71.06064,"lat":48.402479,"departure":1522687667000,"orig":"","vertexType":"NORMAL"},"to":{"name":"Place Royaume","stopId":"1:1801","stopCode":"1801","lon":-71.057017,"lat":48.405588,"arrival":1522688099000,"departure":1522688100000,"zoneId":"NA","stopIndex":10,"stopSequence":11,"vertexType":"TRANSIT"},"legGeometry":{"points":"crlfHd_vpLaB_BWUJW@EkBeBiFwEt@aC[YUU][Y[[YY[[[a@zA","length":16},"rentedBike":false,"transitLeg":false,"duration":432.0,"steps":[{"distance":316.747,"relativeDirection":"DEPART","streetName":"Boulevard Talbot","absoluteDirection":"NORTHEAST","stayOn":false,"area":false,"bogusName":false,"lon":-71.06050796525754,"lat":48.40242204331278,"elevation":[]},{"distance":219.43400000000003,"relativeDirection":"RIGHT","streetName":"parking aisle","absoluteDirection":"SOUTHEAST","stayOn":false,"area":false,"bogusName":true,"lon":-71.0581722,"lat":48.4046724,"elevation":[]}]},{"startTime":1522688100000,"endTime":1522688309000,"departureDelay":0,"arrivalDelay":0,"realTime":false,"distance":1253.896268830737,"pathway":false,"mode":"BUS","route":"175","agencyName":"Société de Transport du Saguenay","agencyUrl":"http://ville.saguenay.ca/fr/services-aux-citoyens/transport-sts","agencyTimeZoneOffset":-14400000,"routeColor":"FF00FF","routeType":3,"routeId":"1:175","routeTextColor":"FFFFFF","interlineWithPreviousLeg":false,"tripBlockId":"10","headsign":"Terminus Chicoutimi","agencyId":"0","tripId":"1:217439","serviceDate":"20180402","from":{"name":"Place Royaume","stopId":"1:1801","stopCode":"1801","lon":-71.057017,"lat":48.405588,"arrival":1522688099000,"departure":1522688100000,"zoneId":"NA","stopIndex":10,"stopSequence":11,"vertexType":"TRANSIT"},"to":{"name":"Polyclinique du Saguenay (boul. Université)","stopId":"1:61","stopCode":"61","lon":-71.053728,"lat":48.415424,"arrival":1522688309000,"departure":1522688310000,"zoneId":"NA","stopIndex":13,"stopSequence":14,"vertexType":"TRANSIT"},"legGeometry":{"points":"sfmfH`kupL_U_TcNgNcBcB{E`Jc@x@qG~@{BlA","length":8},"routeShortName":"175","routeLongName":"Term. Chic / Costco","rentedBike":false,"transitLeg":true,"duration":209.0,"steps":[]},{"startTime":1522688310000,"endTime":1522688481000,"departureDelay":0,"arrivalDelay":0,"realTime":false,"distance":213.12900000000002,"pathway":false,"mode":"WALK","route":"","agencyTimeZoneOffset":-14400000,"interlineWithPreviousLeg":false,"from":{"name":"Polyclinique du Saguenay (boul. Université)","stopId":"1:61","stopCode":"61","lon":-71.053728,"lat":48.415424,"arrival":1522688309000,"departure":1522688310000,"zoneId":"NA","stopIndex":13,"stopSequence":14,"vertexType":"TRANSIT"},"to":{"name":"Destination","lon":-71.055438,"lat":48.416288,"arrival":1522688481000,"orig":"","vertexType":"NORMAL"},"legGeometry":{"points":"gcofHbutpLaBvAKHPh@FVVp@Rr@cBvACH","length":9},"rentedBike":false,"transitLeg":false,"duration":171.0,"steps":[{"distance":71.131,"relativeDirection":"DEPART","streetName":"Boulevard de l'Université","absoluteDirection":"NORTHWEST","stayOn":false,"area":false,"bogusName":false,"lon":-71.05377815383544,"lat":48.415404134793874,"elevation":[]},{"distance":72.972,"relativeDirection":"LEFT","streetName":"Rue Nobel","absoluteDirection":"SOUTHWEST","stayOn":false,"area":false,"bogusName":false,"lon":-71.0542688,"lat":48.4159547,"elevation":[]},{"distance":69.026,"relativeDirection":"RIGHT","streetName":"Rue Thomas-Edison","absoluteDirection":"NORTHWEST","stayOn":false,"area":false,"bogusName":false,"lon":-71.05510070000001,"lat":48.415600100000006,"elevation":[]}]}],"tooSloped":false},{"duration":1185,"startTime":1522687632000,"endTime":1522688817000,"walkTime":672,"transitTime":511,"waitingTime":2,"walkDistance":861.7016616504354,"walkLimitExceeded":false,"elevationLost":0.0,"elevationGained":0.0,"transfers":0,"legs":[{"startTime":1522687632000,"endTime":1522687784000,"departureDelay":0,"arrivalDelay":0,"realTime":false,"distance":195.022,"pathway":false,"mode":"WALK","route":"","agencyTimeZoneOffset":-14400000,"interlineWithPreviousLeg":false,"from":{"name":"Origin","lon":-71.06064,"lat":48.402479,"departure":1522687632000,"orig":"","vertexType":"NORMAL"},"to":{"name":"Saguenéens  / Bach","stopId":"1:575","stopCode":"575","lon":-71.061104,"lat":48.403689,"arrival":1522687784000,"departure":1522687785000,"zoneId":"NA","stopIndex":12,"stopSequence":13,"vertexType":"TRANSIT"},"legGeometry":{"points":"crlfHd_vpLaB_BWUyBvF","length":4},"rentedBike":false,"transitLeg":false,"duration":152.0,"steps":[{"distance":80.736,"relativeDirection":"DEPART","streetName":"Boulevard Talbot","absoluteDirection":"NORTHEAST","stayOn":false,"area":false,"bogusName":false,"lon":-71.06050796525754,"lat":48.40242204331278,"elevation":[]},{"distance":114.286,"relativeDirection":"LEFT","streetName":"Rue des Saguenéens","absoluteDirection":"NORTHWEST","stayOn":false,"area":false,"bogusName":false,"lon":-71.0599121,"lat":48.403030900000005,"elevation":[]}]},{"startTime":1522687785000,"endTime":1522688296000,"departureDelay":0,"arrivalDelay":0,"realTime":false,"distance":3004.9067565318114,"pathway":false,"mode":"BUS","route":"15","agencyName":"Société de Transport du Saguenay","agencyUrl":"http://ville.saguenay.ca/fr/services-aux-citoyens/transport-sts","agencyTimeZoneOffset":-14400000,"routeColor":"FF00FF","routeType":3,"routeId":"1:15","routeTextColor":"FFFFFF","interlineWithPreviousLeg":false,"tripBlockId":"32","headsign":"Terminus Chicoutimi","agencyId":"0","tripId":"1:218159","serviceDate":"20180402","from":{"name":"Saguenéens  / Bach","stopId":"1:575","stopCode":"575","lon":-71.061104,"lat":48.403689,"arrival":1522687784000,"departure":1522687785000,"zoneId":"NA","stopIndex":12,"stopSequence":13,"vertexType":"TRANSIT"},"to":{"name":"Parc Rosaire Gauthier (Bégin)","stopId":"1:2007","stopCode":"2007","lon":-71.062354,"lat":48.418318,"arrival":1522688296000,"departure":1522688297000,"zoneId":"NA","stopIndex":27,"stopSequence":28,"vertexType":"TRANSIT"},"legGeometry":{"points":"sylfHjcvpLmA|CUr@}@~A_@\\_DvCEZcA|@UP_@d@Yl@oBdFeCxG_CfGYVQXS\\dK|HlFZbC\\p@zA\\rB@hBiArG{BNw@FiG}@iDwAECcCcBo@y@sEeGe@o@qAa@m@MoB?C@}BZwAc@oA_Bs@gDCKZ{Di@QECc@_@sAkAoBwB_EcE{A_BoAmAk@o@cCaCkIkI","length":54},"routeShortName":"15","routeLongName":"Term. Chic / Costco","rentedBike":false,"transitLeg":true,"duration":511.0,"steps":[]},{"startTime":1522688297000,"endTime":1522688817000,"departureDelay":0,"arrivalDelay":0,"realTime":false,"distance":666.5649999999999,"pathway":false,"mode":"WALK","route":"","agencyTimeZoneOffset":-14400000,"interlineWithPreviousLeg":false,"from":{"name":"Parc Rosaire Gauthier (Bégin)","stopId":"1:2007","stopCode":"2007","lon":-71.062354,"lat":48.418318,"arrival":1522688296000,"departure":1522688297000,"zoneId":"NA","stopIndex":27,"stopSequence":28,"vertexType":"TRANSIT"},"to":{"name":"Destination","lon":-71.055438,"lat":48.416288,"arrival":1522688817000,"orig":"","vertexType":"NORMAL"},"legGeometry":{"points":"wuofHlkvpLcAaA]e@Pi@H]EaC?i@Fq@x@gAx@[f@[f@g@EqAAg@f@w@r@oBh@}Ad@}@Zw@pA_EZeAPk@","length":22},"rentedBike":false,"transitLeg":false,"duration":520.0,"steps":[{"distance":66.794,"relativeDirection":"DEPART","streetName":"Rue Bégin","absoluteDirection":"NORTHEAST","stayOn":false,"area":false,"bogusName":false,"lon":-71.06246543979594,"lat":48.418366868738104,"elevation":[]},{"distance":439.923,"relativeDirection":"RIGHT","streetName":"bike path","absoluteDirection":"SOUTHEAST","stayOn":false,"area":false,"bogusName":true,"lon":-71.0619441,"lat":48.418857200000005,"elevation":[]},{"distance":159.84799999999998,"relativeDirection":"CONTINUE","streetName":"Rue Thomas-Edison","absoluteDirection":"SOUTHEAST","stayOn":false,"area":false,"bogusName":false,"lon":-71.0574093,"lat":48.4169053,"elevation":[]}]}],"tooSloped":false}]},"debugOutput":{"precalculationTime":35,"pathCalculationTime":28,"pathTimes":[14,6,8],"renderingTime":0,"totalTime":63,"timedOut":false},"elevationMetadata":{"ellipsoidToGeoidDifference":-28.885904201182168,"geoidElevation":false}}