{"requestParameters":{"date":"2018/04/02","walkSpeed":"1.33","walkReluctance":"2.0","fromPlace":"48.406351,-71.05878699","maxWalkDistance":"3000","waitReluctance":"1.0","carSpeed":"33","numItineraries":"3","waitAtBeginningFactor":"0.4","mode":"TRANSIT,WALK","ignoreRealtimeUpdates":"false","stairsReluctance":"2.0","toPlace":"48.412727,-71.057142","time":"10:30:00"},"plan":{"date":1522679400000,"from":{"name":"Origin","lon":-71.05878699,"lat":48.406351,"orig":"","vertexType":"NORMAL"},"to":{"name":"Destination","lon":-71.057142,"lat":48.412727,"orig":"","vertexType":"NORMAL"},"itineraries":[{"duration":729,"startTime":1522679400000,"endTime":1522680129000,"walkTime":729,"transitTime":0,"waitingTime":0,"walkDistance":929.8752631512715,"walkLimitExceeded":false,"elevationLost":0.0,"elevationGained":0.0,"transfers":0,"legs":[{"startTime":1522679400000,"endTime":1522680129000,"departureDelay":0,"arrivalDelay":0,"realTime":false,"distance":929.6700000000001,"pathway":false,"mode":"WALK","route":"","agencyTimeZoneOffset":-14400000,"interlineWithPreviousLeg":false,"from":{"name":"Origin","lon":-71.05878699,"lat":48.406351,"departure":1522679400000,"orig":"","vertexType":"NORMAL"},"to":{"name":"Destination","lon":-71.057142,"lat":48.412727,"arrival":1522680129000,"orig":"","vertexType":"NORMAL"},"legGeometry":{"points":"glmfHhxupLk@g@gGsF][YWMKbAwCgBgBe@`AmCbH{AuA{@@gETyAFGHcAuACHyAwB","length":18},"rentedBike":false,"transitLeg":false,"duration":729.0,"steps":[{"distance":246.091,"relativeDirection":"DEPART","streetName":"Rue Bach","absoluteDirection":"NORTHEAST","stayOn":false,"area":false,"bogusName":false,"lon":-71.05940792180488,"lat":48.40660402994085,"elevation":[]},{"distance":67.359,"relativeDirection":"RIGHT","streetName":"Rue Plamondon","absoluteDirection":"SOUTHEAST","stayOn":false,"area":false,"bogusName":false,"lon":-71.05766410000001,"lat":48.408490300000004,"elevation":[]},{"distance":69.905,"relativeDirection":"LEFT","streetName":"Rue Plamondon","absoluteDirection":"NORTHEAST","stayOn":true,"area":false,"bogusName":false,"lon":-71.05690750000001,"lat":48.408151600000004,"elevation":[]},{"distance":166.095,"relativeDirection":"LEFT","streetName":"Rue des Champs-Élysées","absoluteDirection":"NORTHWEST","stayOn":false,"area":false,"bogusName":false,"lon":-71.0563831,"lat":48.4086751,"elevation":[]},{"distance":205.04399999999998,"relativeDirection":"RIGHT","streetName":"Rue Chopin","absoluteDirection":"NORTHEAST","stayOn":false,"area":false,"bogusName":false,"lon":-71.0581732,"lat":48.4095789,"elevation":[]},{"distance":175.176,"relativeDirection":"CONTINUE","streetName":"path","absoluteDirection":"NORTH","stayOn":false,"area":false,"bogusName":true,"lon":-71.0578622,"lat":48.411338,"elevation":[]}]}],"tooSloped":false}]},"debugOutput":{"precalculationTime":42,"pathCalculationTime":28,"pathTimes":[13,7,8],"renderingTime":1,"totalTime":71,"timedOut":false},"elevationMetadata":{"ellipsoidToGeoidDifference":-28.885904201182168,"geoidElevation":false}}