{"requestParameters":{"date":"2018/04/02","walkSpeed":"1.33","walkReluctance":"2.0","fromPlace":"48.403727,-71.056775","maxWalkDistance":"3000","waitReluctance":"1.0","carSpeed":"33","numItineraries":"3","waitAtBeginningFactor":"0.4","mode":"TRANSIT,WALK","ignoreRealtimeUpdates":"false","stairsReluctance":"2.0","toPlace":"48.406226,-71.064068","time":"11:0:00"},"plan":{"date":1522681200000,"from":{"name":"Origin","lon":-71.056775,"lat":48.403727,"orig":"","vertexType":"NORMAL"},"to":{"name":"Destination","lon":-71.064068,"lat":48.406226,"orig":"","vertexType":"NORMAL"},"itineraries":[{"duration":600,"startTime":1522681200000,"endTime":1522681800000,"walkTime":600,"transitTime":0,"waitingTime":0,"walkDistance":775.2359849609868,"walkLimitExceeded":false,"elevationLost":0.0,"elevationGained":0.0,"transfers":0,"legs":[{"startTime":1522681200000,"endTime":1522681800000,"departureDelay":0,"arrivalDelay":0,"realTime":false,"distance":775.192,"pathway":false,"mode":"WALK","route":"","agencyTimeZoneOffset":-14400000,"interlineWithPreviousLeg":false,"from":{"name":"Origin","lon":-71.056775,"lat":48.403727,"departure":1522681200000,"orig":"","vertexType":"NORMAL"},"to":{"name":"Destination","lon":-71.064068,"lat":48.406226,"arrival":1522681800000,"orig":"","vertexType":"NORMAL"},"legGeometry":{"points":"a{lfHviupLRRXXr@p@XVXXb@`@h@`AZl@FLmArEGRADKVyBvFgAnCaAzBu@~@WZaA|@aA~@IVcA~@CB?@s@~@","length":26},"rentedBike":false,"transitLeg":false,"duration":600.0,"steps":[{"distance":186.47699999999998,"relativeDirection":"DEPART","streetName":"service road","absoluteDirection":"SOUTHWEST","stayOn":false,"area":false,"bogusName":false,"lon":-71.05707521889572,"lat":48.40385594353976,"elevation":[]},{"distance":588.7149999999999,"relativeDirection":"RIGHT","streetName":"Rue des Saguenéens","absoluteDirection":"NORTHWEST","stayOn":false,"area":false,"bogusName":false,"lon":-71.0586019,"lat":48.4025327,"elevation":[]}]}],"tooSloped":false},{"duration":332,"startTime":1522682135000,"endTime":1522682467000,"walkTime":236,"transitTime":94,"waitingTime":2,"walkDistance":296.9921202991991,"walkLimitExceeded":false,"elevationLost":0.0,"elevationGained":0.0,"transfers":0,"legs":[{"startTime":1522682135000,"endTime":1522682339000,"departureDelay":0,"arrivalDelay":0,"realTime":false,"distance":256.48499999999996,"pathway":false,"mode":"WALK","route":"","agencyTimeZoneOffset":-14400000,"interlineWithPreviousLeg":false,"from":{"name":"Origin","lon":-71.056775,"lat":48.403727,"departure":1522682135000,"orig":"","vertexType":"NORMAL"},"to":{"name":"Place du Royaume (Saguenéens)","stopId":"1:1294","stopCode":"1294","lon":-71.057691,"lat":48.402355,"arrival":1522682339000,"departure":1522682340000,"zoneId":"NA","stopIndex":11,"stopSequence":12,"vertexType":"TRANSIT"},"legGeometry":{"points":"a{lfHviupLRRXXr@p@XVXXb@`@h@`AZl@FLLi@`@eC","length":12},"rentedBike":false,"transitLeg":false,"duration":204.0,"steps":[{"distance":186.47699999999998,"relativeDirection":"DEPART","streetName":"service road","absoluteDirection":"SOUTHWEST","stayOn":false,"area":false,"bogusName":false,"lon":-71.05707521889572,"lat":48.40385594353976,"elevation":[]},{"distance":70.008,"relativeDirection":"LEFT","streetName":"Rue des Saguenéens","absoluteDirection":"SOUTHEAST","stayOn":false,"area":false,"bogusName":false,"lon":-71.0586019,"lat":48.4025327,"elevation":[]}]},{"startTime":1522682340000,"endTime":1522682434000,"departureDelay":0,"arrivalDelay":0,"realTime":false,"distance":611.0942250000784,"pathway":false,"mode":"BUS","route":"15","agencyName":"Société de Transport du Saguenay","agencyUrl":"http://ville.saguenay.ca/fr/services-aux-citoyens/transport-sts","agencyTimeZoneOffset":-14400000,"routeColor":"FF00FF","routeType":3,"routeId":"1:15","routeTextColor":"FFFFFF","interlineWithPreviousLeg":false,"tripBlockId":"30","headsign":"Terminus Chicoutimi","agencyId":"0","tripId":"1:218096","serviceDate":"20180402","from":{"name":"Place du Royaume (Saguenéens)","stopId":"1:1294","stopCode":"1294","lon":-71.057691,"lat":48.402355,"arrival":1522682339000,"departure":1522682340000,"zoneId":"NA","stopIndex":11,"stopSequence":12,"vertexType":"TRANSIT"},"to":{"name":"Saguenéens / Maristes","stopId":"1:1999","stopCode":"1999","lon":-71.06394,"lat":48.405813,"arrival":1522682434000,"departure":1522682435000,"zoneId":"NA","stopIndex":14,"stopSequence":15,"vertexType":"TRANSIT"},"legGeometry":{"points":"eqlfHzmupLUxAm@nCcAlDeCvGmA|CUr@}@~A_@\\_DvCEZcA|@","length":12},"routeShortName":"15","routeLongName":"Term. Chic / Costco","rentedBike":false,"transitLeg":true,"duration":94.0,"steps":[]},{"startTime":1522682435000,"endTime":1522682467000,"departureDelay":0,"arrivalDelay":0,"realTime":false,"distance":40.459,"pathway":false,"mode":"WALK","route":"","agencyTimeZoneOffset":-14400000,"interlineWithPreviousLeg":false,"from":{"name":"Saguenéens / Maristes","stopId":"1:1999","stopCode":"1999","lon":-71.06394,"lat":48.405813,"arrival":1522682434000,"departure":1522682435000,"zoneId":"NA","stopIndex":14,"stopSequence":15,"vertexType":"TRANSIT"},"to":{"name":"Destination","lon":-71.064068,"lat":48.406226,"arrival":1522682467000,"orig":"","vertexType":"NORMAL"},"legGeometry":{"points":"agmfHduvpLCB?@s@~@","length":4},"rentedBike":false,"transitLeg":false,"duration":32.0,"steps":[{"distance":40.459,"relativeDirection":"DEPART","streetName":"Rue des Saguenéens","absoluteDirection":"NORTHWEST","stayOn":false,"area":false,"bogusName":false,"lon":-71.06402958721657,"lat":48.40577499056331,"elevation":[]}]}],"tooSloped":false},{"duration":332,"startTime":1522683935000,"endTime":1522684267000,"walkTime":236,"transitTime":94,"waitingTime":2,"walkDistance":296.9921202991991,"walkLimitExceeded":false,"elevationLost":0.0,"elevationGained":0.0,"transfers":0,"legs":[{"startTime":1522683935000,"endTime":1522684139000,"departureDelay":0,"arrivalDelay":0,"realTime":false,"distance":256.48499999999996,"pathway":false,"mode":"WALK","route":"","agencyTimeZoneOffset":-14400000,"interlineWithPreviousLeg":false,"from":{"name":"Origin","lon":-71.056775,"lat":48.403727,"departure":1522683935000,"orig":"","vertexType":"NORMAL"},"to":{"name":"Place du Royaume (Saguenéens)","stopId":"1:1294","stopCode":"1294","lon":-71.057691,"lat":48.402355,"arrival":1522684139000,"departure":1522684140000,"zoneId":"NA","stopIndex":11,"stopSequence":12,"vertexType":"TRANSIT"},"legGeometry":{"points":"a{lfHviupLRRXXr@p@XVXXb@`@h@`AZl@FLLi@`@eC","length":12},"rentedBike":false,"transitLeg":false,"duration":204.0,"steps":[{"distance":186.47699999999998,"relativeDirection":"DEPART","streetName":"service road","absoluteDirection":"SOUTHWEST","stayOn":false,"area":false,"bogusName":false,"lon":-71.05707521889572,"lat":48.40385594353976,"elevation":[]},{"distance":70.008,"relativeDirection":"LEFT","streetName":"Rue des Saguenéens","absoluteDirection":"SOUTHEAST","stayOn":false,"area":false,"bogusName":false,"lon":-71.0586019,"lat":48.4025327,"elevation":[]}]},{"startTime":1522684140000,"endTime":1522684234000,"departureDelay":0,"arrivalDelay":0,"realTime":false,"distance":611.0942250000784,"pathway":false,"mode":"BUS","route":"15","agencyName":"Société de Transport du Saguenay","agencyUrl":"http://ville.saguenay.ca/fr/services-aux-citoyens/transport-sts","agencyTimeZoneOffset":-14400000,"routeColor":"FF00FF","routeType":3,"routeId":"1:15","routeTextColor":"FFFFFF","interlineWithPreviousLeg":false,"tripBlockId":"32","headsign":"Terminus Chicoutimi","agencyId":"0","tripId":"1:218157","serviceDate":"20180402","from":{"name":"Place du Royaume (Saguenéens)","stopId":"1:1294","stopCode":"1294","lon":-71.057691,"lat":48.402355,"arrival":1522684139000,"departure":1522684140000,"zoneId":"NA","stopIndex":11,"stopSequence":12,"vertexType":"TRANSIT"},"to":{"name":"Saguenéens / Maristes","stopId":"1:1999","stopCode":"1999","lon":-71.06394,"lat":48.405813,"arrival":1522684234000,"departure":1522684235000,"zoneId":"NA","stopIndex":14,"stopSequence":15,"vertexType":"TRANSIT"},"legGeometry":{"points":"eqlfHzmupLUxAm@nCcAlDeCvGmA|CUr@}@~A_@\\_DvCEZcA|@","length":12},"routeShortName":"15","routeLongName":"Term. Chic / Costco","rentedBike":false,"transitLeg":true,"duration":94.0,"steps":[]},{"startTime":1522684235000,"endTime":1522684267000,"departureDelay":0,"arrivalDelay":0,"realTime":false,"distance":40.459,"pathway":false,"mode":"WALK","route":"","agencyTimeZoneOffset":-14400000,"interlineWithPreviousLeg":false,"from":{"name":"Saguenéens / Maristes","stopId":"1:1999","stopCode":"1999","lon":-71.06394,"lat":48.405813,"arrival":1522684234000,"departure":1522684235000,"zoneId":"NA","stopIndex":14,"stopSequence":15,"vertexType":"TRANSIT"},"to":{"name":"Destination","lon":-71.064068,"lat":48.406226,"arrival":1522684267000,"orig":"","vertexType":"NORMAL"},"legGeometry":{"points":"agmfHduvpLCB?@s@~@","length":4},"rentedBike":false,"transitLeg":false,"duration":32.0,"steps":[{"distance":40.459,"relativeDirection":"DEPART","streetName":"Rue des Saguenéens","absoluteDirection":"NORTHWEST","stayOn":false,"area":false,"bogusName":false,"lon":-71.06402958721657,"lat":48.40577499056331,"elevation":[]}]}],"tooSloped":false}]},"debugOutput":{"precalculationTime":35,"pathCalculationTime":20,"pathTimes":[11,4,5],"renderingTime":1,"totalTime":56,"timedOut":false},"elevationMetadata":{"ellipsoidToGeoidDifference":-28.885904201182168,"geoidElevation":false}}