{"requestParameters":{"date":"2018/04/02","walkSpeed":"1.33","walkReluctance":"2.0","fromPlace":"48.452185,-71.022015","maxWalkDistance":"3000","waitReluctance":"1.0","carSpeed":"33","numItineraries":"3","waitAtBeginningFactor":"0.4","mode":"TRANSIT,WALK","ignoreRealtimeUpdates":"false","stairsReluctance":"2.0","toPlace":"48.394199,-71.109057","time":"7:0:00"},"plan":{"date":1522666800000,"from":{"name":"Origin","lon":-71.022015,"lat":48.452185,"orig":"","vertexType":"NORMAL"},"to":{"name":"Destination","lon":-71.109057,"lat":48.394199,"orig":"","vertexType":"NORMAL"},"itineraries":[{"duration":2632,"startTime":1522668206000,"endTime":1522670838000,"walkTime":337,"transitTime":1993,"waitingTime":302,"walkDistance":417.5147744309347,"walkLimitExceeded":false,"elevationLost":0.0,"elevationGained":0.0,"transfers":1,"legs":[{"startTime":1522668206000,"endTime":1522668438000,"departureDelay":0,"arrivalDelay":0,"realTime":false,"distance":284.486,"pathway":false,"mode":"WALK","route":"","agencyTimeZoneOffset":-14400000,"interlineWithPreviousLeg":false,"from":{"name":"Origin","lon":-71.022015,"lat":48.452185,"departure":1522668206000,"orig":"","vertexType":"NORMAL"},"to":{"name":"Anna / boul. Tadoussac","stopId":"1:1573","stopCode":"1573","lon":-71.020808,"lat":48.451078,"arrival":1522668438000,"departure":1522668439000,"zoneId":"NA","stopIndex":24,"stopSequence":25,"vertexType":"TRANSIT"},"legGeometry":{"points":"ohvfHzonpLvAcBt@nAvCqDe@q@c@q@KQMJ","length":8},"alerts":[{"alertHeaderText":"Unpaved surface"}],"rentedBike":false,"transitLeg":false,"duration":232.0,"steps":[{"distance":61.396,"relativeDirection":"DEPART","streetName":"Rue Yvette","absoluteDirection":"SOUTHEAST","stayOn":false,"area":false,"bogusName":false,"lon":-71.02221669618585,"lat":48.45208372461695,"elevation":[]},{"distance":41.682,"relativeDirection":"RIGHT","streetName":"Rue Justine","absoluteDirection":"SOUTHWEST","stayOn":false,"area":false,"bogusName":false,"lon":-71.0217142,"lat":48.4516435,"elevation":[],"alerts":[{"alertHeaderText":"Unpaved surface"}]},{"distance":107.875,"relativeDirection":"LEFT","streetName":"path","absoluteDirection":"SOUTHEAST","stayOn":false,"area":false,"bogusName":true,"lon":-71.0221147,"lat":48.451379,"elevation":[]},{"distance":64.542,"relativeDirection":"LEFT","streetName":"Route de Tadoussac","absoluteDirection":"NORTHEAST","stayOn":false,"area":false,"bogusName":false,"lon":-71.02122080000001,"lat":48.4506111,"elevation":[]},{"distance":8.991,"relativeDirection":"LEFT","streetName":"Rue Anna","absoluteDirection":"NORTHWEST","stayOn":false,"area":false,"bogusName":false,"lon":-71.0206378,"lat":48.4510437,"elevation":[]}]},{"startTime":1522668439000,"endTime":1522669200000,"departureDelay":0,"arrivalDelay":0,"realTime":false,"distance":5416.174404716923,"pathway":false,"mode":"BUS","route":"26","agencyName":"Société de Transport du Saguenay","agencyUrl":"http://ville.saguenay.ca/fr/services-aux-citoyens/transport-sts","agencyTimeZoneOffset":-14400000,"routeColor":"00FFFF","routeType":3,"routeId":"1:26","routeTextColor":"000000","interlineWithPreviousLeg":false,"headsign":"Terminus Chicoutimi","agencyId":"0","tripId":"1:218769","serviceDate":"20180402","from":{"name":"Anna / boul. Tadoussac","stopId":"1:1573","stopCode":"1573","lon":-71.020808,"lat":48.451078,"arrival":1522668438000,"departure":1522668439000,"zoneId":"NA","stopIndex":24,"stopSequence":25,"vertexType":"TRANSIT"},"to":{"name":"Terminus Chicoutimi","stopId":"1:1289","stopCode":"1289","lon":-71.066163,"lat":48.428677,"arrival":1522669200000,"departure":1522669500000,"zoneId":"NA","stopIndex":38,"stopSequence":39,"vertexType":"TRANSIT"},"legGeometry":{"points":"qbvfHnfnpLLSnAnBtJ|K~MtOnC~Cz@t@lBrB`@d@`@n@`@v@Tp@Nh@ZlATfAJz@Fj@H`AB|@?t@@`AIrB[hEOrBm@vIe@tGKjAMdC?h@?l@?^FzAf@~JPtDn@~L@^r@|MVvC\\`Ch@rCj@tBf@bBxDxJN\\bAjCTnAHvA@|@CPIpAS`BQnAUfBCTEXK~@MxAEn@@v@Bp@Dr@l@~HNlAH\\@HLd@\\z@Xd@X\\RTXRr@Zn@PzBv@jA`@l@RhC|@LnBJt@Pp@Nj@l@tBHZPn@`@rBNnAFr@DbA?bB@jABzA?p@A???A???A?A???A@??A?A@??A@?@A??@A@???@A@?@?@A@?@?@?@?@???@?@?@?@?@?@@@?@?@@@?@@@?@@@?@@?@@??@@@?E`@Kr@]rACVEl@I|AAr@JbAWJe@FUAM?a@Ke@YYWWa@v@}@RQPMz@k@tAe@REZG^Af@@X@VF`@Jn@XbClAr@Xt\\`PrAb@pA^hBTjAFj@Pb@JPHLLJNJRFXDT?X?ZEVEVKTMNMHMFOB}DWSGOSYcAN}FFkAF}DJyDPwGj@_QjANAn@d@D","length":206},"routeShortName":"26","routeLongName":"St-Fulgence","rentedBike":false,"transitLeg":true,"duration":761.0,"steps":[]},{"startTime":1522669500000,"endTime":1522670732000,"departureDelay":0,"arrivalDelay":0,"realTime":false,"distance":8093.956647965056,"pathway":false,"mode":"BUS","route":"11","agencyName":"Société de Transport du Saguenay","agencyUrl":"http://ville.saguenay.ca/fr/services-aux-citoyens/transport-sts","agencyTimeZoneOffset":-14400000,"routeColor":"FF0000","routeType":3,"routeId":"1:11","routeTextColor":"FFFFFF","interlineWithPreviousLeg":false,"tripBlockId":"35","headsign":"Boul.Royaume/St-Pierre","agencyId":"0","tripId":"1:218244","serviceDate":"20180402","from":{"name":"Terminus Chicoutimi","stopId":"1:1289","stopCode":"1289","lon":-71.066163,"lat":48.428677,"arrival":1522669200000,"departure":1522669500000,"zoneId":"NA","stopIndex":0,"stopSequence":1,"vertexType":"TRANSIT"},"to":{"name":"Bersimis / boul. St-Paul","stopId":"1:1625","stopCode":"1625","lon":-71.108501,"lat":48.39464,"arrival":1522670732000,"departure":1522670733000,"zoneId":"NA","stopIndex":25,"stopSequence":26,"vertexType":"TRANSIT"},"legGeometry":{"points":"evqfHzcwpLk@?UhKfIh@dKp@GnDIfDOtEE~@Ff@x@rEF~@CbAALO~ADRNJXBr@DfGRPBPJLN@@FPFTBX?TE`BhBR@?J@NELKFOlAiDL[bA`AfIjIbGdGzDzD`A~An@`ApApBpClEvJrOR\\bAfBLa@t@]LjAVvAVbAVv@^bAXj@b@t@xEtGh@r@n@x@FDjA|AlBpCnJ|NNTX`@V`@eCtHpFjH{FhPcB|Ft@|CEAdCnEdHKrBz@lGiQ|CyI~IrJtAzAmKrWsE`LzJjL|P}d@Ri@hCpEpBdCHJzPrR_AhC}Ppd@KZkDxJq@`CyGfZOl@fNzIJ@HAHIDI@CnNco@vE}Sh@kCb@oCXyBTuAFS","length":109},"routeShortName":"11","routeLongName":"Chic/Faubourg via St-Paul","rentedBike":false,"transitLeg":true,"duration":1232.0,"steps":[]},{"startTime":1522670733000,"endTime":1522670838000,"departureDelay":0,"arrivalDelay":0,"realTime":false,"distance":132.869,"pathway":false,"mode":"WALK","route":"","agencyTimeZoneOffset":-14400000,"interlineWithPreviousLeg":false,"from":{"name":"Bersimis / boul. St-Paul","stopId":"1:1625","stopCode":"1625","lon":-71.108501,"lat":48.39464,"arrival":1522670732000,"departure":1522670733000,"zoneId":"NA","stopIndex":25,"stopSequence":26,"vertexType":"TRANSIT"},"to":{"name":"Destination","lon":-71.109057,"lat":48.394199,"arrival":1522670838000,"orig":"","vertexType":"NORMAL"},"legGeometry":{"points":"wakfH|j_qLl@oBDSlB~B","length":4},"rentedBike":false,"transitLeg":false,"duration":105.0,"steps":[{"distance":56.607,"relativeDirection":"DEPART","streetName":"Rue Bersimis","absoluteDirection":"SOUTHEAST","stayOn":false,"area":false,"bogusName":false,"lon":-71.10846343735429,"lat":48.394681680442105,"elevation":[]},{"distance":76.262,"relativeDirection":"RIGHT","streetName":"Boulevard Saint-Paul","absoluteDirection":"SOUTHWEST","stayOn":false,"area":false,"bogusName":false,"lon":-71.1078057,"lat":48.394420100000005,"elevation":[]}]}],"tooSloped":false},{"duration":5186,"startTime":1522667224000,"endTime":1522672410000,"walkTime":1942,"transitTime":3002,"waitingTime":242,"walkDistance":2535.2918646569474,"walkLimitExceeded":false,"elevationLost":0.0,"elevationGained":0.0,"transfers":1,"legs":[{"startTime":1522667224000,"endTime":1522668294000,"departureDelay":0,"arrivalDelay":0,"realTime":false,"distance":1394.604,"pathway":false,"mode":"WALK","route":"","agencyTimeZoneOffset":-14400000,"interlineWithPreviousLeg":false,"from":{"name":"Origin","lon":-71.022015,"lat":48.452185,"departure":1522667224000,"orig":"","vertexType":"NORMAL"},"to":{"name":"Roussel / boul. Tadoussac","stopId":"1:819","stopCode":"819","lon":-71.032017,"lat":48.443307,"arrival":1522668294000,"departure":1522668295000,"zoneId":"NA","stopIndex":15,"stopSequence":16,"vertexType":"TRANSIT"},"legGeometry":{"points":"ohvfHzonpLvAcBt@nAvCqDNPvErFz@~@bAjABBdMvNXZv@|@f@h@|A~AdBfBh@l@JPX`@Vf@Vh@Rh@Rh@@FLb@Lj@Jj@Jl@J~@?@Dh@D|@Bz@?vAAr@vAnA","length":35},"alerts":[{"alertHeaderText":"Unpaved surface"}],"rentedBike":false,"transitLeg":false,"duration":1070.0,"steps":[{"distance":61.396,"relativeDirection":"DEPART","streetName":"Rue Yvette","absoluteDirection":"SOUTHEAST","stayOn":false,"area":false,"bogusName":false,"lon":-71.02221669618585,"lat":48.45208372461695,"elevation":[]},{"distance":41.682,"relativeDirection":"RIGHT","streetName":"Rue Justine","absoluteDirection":"SOUTHWEST","stayOn":false,"area":false,"bogusName":false,"lon":-71.0217142,"lat":48.4516435,"elevation":[],"alerts":[{"alertHeaderText":"Unpaved surface"}]},{"distance":107.875,"relativeDirection":"LEFT","streetName":"path","absoluteDirection":"SOUTHEAST","stayOn":false,"area":false,"bogusName":true,"lon":-71.0221147,"lat":48.451379,"elevation":[]},{"distance":712.0619999999999,"relativeDirection":"RIGHT","streetName":"Route de Tadoussac","absoluteDirection":"SOUTHWEST","stayOn":false,"area":false,"bogusName":false,"lon":-71.02122080000001,"lat":48.4506111,"elevation":[]},{"distance":414.319,"relativeDirection":"CONTINUE","streetName":"Boulevard de Tadoussac","absoluteDirection":"SOUTHWEST","stayOn":false,"area":false,"bogusName":false,"lon":-71.0269191,"lat":48.4454427,"elevation":[]},{"distance":57.27,"relativeDirection":"LEFT","streetName":"Rue Roussel","absoluteDirection":"SOUTHWEST","stayOn":false,"area":false,"bogusName":false,"lon":-71.0314937,"lat":48.4436984,"elevation":[]}]},{"startTime":1522668295000,"endTime":1522669260000,"departureDelay":0,"arrivalDelay":0,"realTime":false,"distance":5596.765437733675,"pathway":false,"mode":"BUS","route":"24","agencyName":"Société de Transport du Saguenay","agencyUrl":"http://ville.saguenay.ca/fr/services-aux-citoyens/transport-sts","agencyTimeZoneOffset":-14400000,"routeColor":"00FF00","routeType":3,"routeId":"1:24","routeTextColor":"000000","interlineWithPreviousLeg":false,"tripBlockId":"5","headsign":"Terminus Chicoutimi","agencyId":"0","tripId":"1:217251","serviceDate":"20180402","from":{"name":"Roussel / boul. Tadoussac","stopId":"1:819","stopCode":"819","lon":-71.032017,"lat":48.443307,"arrival":1522668294000,"departure":1522668295000,"zoneId":"NA","stopIndex":15,"stopSequence":16,"vertexType":"TRANSIT"},"to":{"name":"Terminus Chicoutimi","stopId":"1:1289","stopCode":"1289","lon":-71.066163,"lat":48.428677,"arrival":1522669260000,"departure":1522669500000,"zoneId":"NA","stopIndex":35,"stopSequence":36,"vertexType":"TRANSIT"},"legGeometry":{"points":"kqtfHplppLbF~FlCxBxB|B~JjK`IjIRPb@^r@d@rAp@\\T\\ZNVRd@J\\Nd@Hf@F`@@DFr@LtAJpB@jAAt@ObEIzAKbBUrBMp@Sn@gAlCk@pAw@fCwB|HCNk@jCeDuAq@UC?mG_CaHiCsJqD_A]VvC\\`Ch@rCj@tBf@bBxDxJN\\bAjCTnAHvA@|@CPIpAe@pDUfBCTEXK~@MxAEn@@v@Bp@Dr@l@~HNlAH\\@HLd@\\z@Xd@X\\RTXRr@Zn@PfExAvDpALnBJt@Pp@Nj@l@tBHZPn@`@rBNnAFr@DbA?bB@jABzA?p@A???A???A?A???A@??A?A@??A@?@A??@A@???@A@?@?@A@?@?@?@?@???@?@?@?@?@?@@@?@?@@@?@@@?@@@?@@?@@??@@@?E`@Kr@]rACVEl@I|AAr@JbAWJe@FUAM?a@Ke@YYWWa@v@}@RQPMz@k@tAe@REZG^Af@@X@VF`@Jn@XbClAr@Xt\\`PrAb@pA^hBTjAFj@Pb@JPHLLJNJRFXDT?X?ZEVEVKTMNMHMFOB}DWSGOSYcAN}FFkAF}DJyDPwGvAHN_HDiB@m@","length":209},"routeShortName":"24","routeLongName":"Saint-Luc","rentedBike":false,"transitLeg":true,"duration":965.0,"steps":[]},{"startTime":1522669500000,"endTime":1522671120000,"departureDelay":0,"arrivalDelay":0,"realTime":false,"distance":8366.485513672267,"pathway":false,"mode":"BUS","route":"175","agencyName":"Société de Transport du Saguenay","agencyUrl":"http://ville.saguenay.ca/fr/services-aux-citoyens/transport-sts","agencyTimeZoneOffset":-14400000,"routeColor":"FF00FF","routeType":3,"routeId":"1:175","routeTextColor":"FFFFFF","interlineWithPreviousLeg":false,"tripBlockId":"8","headsign":"Costco","agencyId":"0","tripId":"1:217359","serviceDate":"20180402","from":{"name":"Terminus Chicoutimi","stopId":"1:1289","stopCode":"1289","lon":-71.066163,"lat":48.428677,"arrival":1522669260000,"departure":1522669500000,"zoneId":"NA","stopIndex":0,"stopSequence":1,"vertexType":"TRANSIT"},"to":{"name":"COSTCO","stopId":"1:1710","stopCode":"1710","lon":-71.085767,"lat":48.382333,"arrival":1522671120000,"departure":1522671300000,"zoneId":"NA","stopIndex":30,"stopSequence":31,"vertexType":"TRANSIT"},"legGeometry":{"points":"kvqfH~awpL~CgBbAqa@FwCBkAOsHAg@bAYUwMKoE@mB@kJ@iFbEf@xEj@iCtYp@r@z@`ABBvHtHXRx@l@VwAvAgB\\qBIuAC]g@yEzDuLbBbBvAxAMx@|@v@`A~@Xw@~D~DPxFZtA~ApE`N{LpFmEb@[ROl@[vDQXKfA[|@q@fAsBlEmMr@sBhCsKz@dAjB|@dM`GzCvAXrCr@~Gx@]PEr@ObACn@FrBb@|@Ch@Kx@U~HsB^KZ|DJpII~Fa@rFUzBi@bDUxAm@nCcAlDM^RTfD`DjF`FjCrCrAvAbCfDjIfMdAzAfFpHd@n@nC`DlXv[b@f@mCtHv@v@p@r@_@p@uAcBjDoJhAzApBrBrFvGjDdEbD|DZb@~DrEbDfDrA~ApLbNpG|GyCtHwBcC","length":111},"routeShortName":"175","routeLongName":"Term. Chic / Costco","rentedBike":false,"transitLeg":true,"duration":1620.0,"steps":[]},{"startTime":1522671300000,"endTime":1522671537000,"departureDelay":0,"arrivalDelay":0,"realTime":false,"distance":2543.411661121034,"pathway":false,"mode":"BUS","route":"2","agencyName":"Société de Transport du Saguenay","agencyUrl":"http://ville.saguenay.ca/fr/services-aux-citoyens/transport-sts","agencyTimeZoneOffset":-14400000,"routeColor":"FF0000","routeType":3,"routeId":"1:2","routeTextColor":"FFFFFF","interlineWithPreviousLeg":true,"tripBlockId":"8","headsign":"Terminus Jonquière","agencyId":"0","tripId":"1:217360","serviceDate":"20180402","from":{"name":"COSTCO","stopId":"1:1710","stopCode":"1710","lon":-71.085767,"lat":48.382333,"arrival":1522671120000,"departure":1522671300000,"zoneId":"NA","stopIndex":0,"stopSequence":1,"vertexType":"TRANSIT"},"to":{"name":"boul. Royaume (no. 1409)","stopId":"1:264","stopCode":"264","lon":-71.118186,"lat":48.388875,"arrival":1522671537000,"departure":1522671538000,"zoneId":"NA","stopIndex":4,"stopSequence":5,"vertexType":"TRANSIT"},"legGeometry":{"points":"wthfHn}zpLeLkMxCaIbPzPkL|[eB~GwBlIa@bXIbQO`^aBhTiBlNUfBiI~ZeHzQ","length":15},"routeShortName":"2","routeLongName":"Chic/Jonq via Boul. Royaume","rentedBike":false,"transitLeg":true,"duration":237.0,"steps":[]},{"startTime":1522671538000,"endTime":1522672410000,"departureDelay":0,"arrivalDelay":0,"realTime":false,"distance":1140.542,"pathway":false,"mode":"WALK","route":"","agencyTimeZoneOffset":-14400000,"interlineWithPreviousLeg":false,"from":{"name":"boul. Royaume (no. 1409)","stopId":"1:264","stopCode":"264","lon":-71.118186,"lat":48.388875,"arrival":1522671537000,"departure":1522671538000,"zoneId":"NA","stopIndex":4,"stopSequence":5,"vertexType":"TRANSIT"},"to":{"name":"Destination","lon":-71.109057,"lat":48.394199,"arrival":1522672410000,"orig":"","vertexType":"NORMAL"},"legGeometry":{"points":"a}ifHbhaqLXy@Ls@p@gBhBeFfAsCKMaHwGyEmEa@_@qCgCu@}@eBoBIKyC_EqC{D]e@sAaB","length":18},"rentedBike":false,"transitLeg":false,"duration":872.0,"steps":[{"distance":264.936,"relativeDirection":"DEPART","streetName":"Boulevard du Royaume Ouest","absoluteDirection":"SOUTHEAST","stayOn":false,"area":false,"bogusName":false,"lon":-71.11825025873861,"lat":48.3888149249102,"elevation":[]},{"distance":875.6060000000001,"relativeDirection":"LEFT","streetName":"Boulevard Saint-Paul","absoluteDirection":"NORTHEAST","stayOn":false,"area":false,"bogusName":false,"lon":-71.1152964,"lat":48.387470400000005,"elevation":[]}]}],"tooSloped":false},{"duration":3494,"startTime":1522669144000,"endTime":1522672638000,"walkTime":1175,"transitTime":2077,"waitingTime":242,"walkDistance":1527.620744356135,"walkLimitExceeded":false,"elevationLost":0.0,"elevationGained":0.0,"transfers":1,"legs":[{"startTime":1522669144000,"endTime":1522670214000,"departureDelay":0,"arrivalDelay":0,"realTime":false,"distance":1394.604,"pathway":false,"mode":"WALK","route":"","agencyTimeZoneOffset":-14400000,"interlineWithPreviousLeg":false,"from":{"name":"Origin","lon":-71.022015,"lat":48.452185,"departure":1522669144000,"orig":"","vertexType":"NORMAL"},"to":{"name":"Roussel / boul. Tadoussac","stopId":"1:819","stopCode":"819","lon":-71.032017,"lat":48.443307,"arrival":1522670214000,"departure":1522670215000,"zoneId":"NA","stopIndex":15,"stopSequence":16,"vertexType":"TRANSIT"},"legGeometry":{"points":"ohvfHzonpLvAcBt@nAvCqDNPvErFz@~@bAjABBdMvNXZv@|@f@h@|A~AdBfBh@l@JPX`@Vf@Vh@Rh@Rh@@FLb@Lj@Jj@Jl@J~@?@Dh@D|@Bz@?vAAr@vAnA","length":35},"alerts":[{"alertHeaderText":"Unpaved surface"}],"rentedBike":false,"transitLeg":false,"duration":1070.0,"steps":[{"distance":61.396,"relativeDirection":"DEPART","streetName":"Rue Yvette","absoluteDirection":"SOUTHEAST","stayOn":false,"area":false,"bogusName":false,"lon":-71.02221669618585,"lat":48.45208372461695,"elevation":[]},{"distance":41.682,"relativeDirection":"RIGHT","streetName":"Rue Justine","absoluteDirection":"SOUTHWEST","stayOn":false,"area":false,"bogusName":false,"lon":-71.0217142,"lat":48.4516435,"elevation":[],"alerts":[{"alertHeaderText":"Unpaved surface"}]},{"distance":107.875,"relativeDirection":"LEFT","streetName":"path","absoluteDirection":"SOUTHEAST","stayOn":false,"area":false,"bogusName":true,"lon":-71.0221147,"lat":48.451379,"elevation":[]},{"distance":712.0619999999999,"relativeDirection":"RIGHT","streetName":"Route de Tadoussac","absoluteDirection":"SOUTHWEST","stayOn":false,"area":false,"bogusName":false,"lon":-71.02122080000001,"lat":48.4506111,"elevation":[]},{"distance":414.319,"relativeDirection":"CONTINUE","streetName":"Boulevard de Tadoussac","absoluteDirection":"SOUTHWEST","stayOn":false,"area":false,"bogusName":false,"lon":-71.0269191,"lat":48.4454427,"elevation":[]},{"distance":57.27,"relativeDirection":"LEFT","streetName":"Rue Roussel","absoluteDirection":"SOUTHWEST","stayOn":false,"area":false,"bogusName":false,"lon":-71.0314937,"lat":48.4436984,"elevation":[]}]},{"startTime":1522670215000,"endTime":1522671060000,"departureDelay":0,"arrivalDelay":0,"realTime":false,"distance":5596.765437733675,"pathway":false,"mode":"BUS","route":"24","agencyName":"Société de Transport du Saguenay","agencyUrl":"http://ville.saguenay.ca/fr/services-aux-citoyens/transport-sts","agencyTimeZoneOffset":-14400000,"routeColor":"00FF00","routeType":3,"routeId":"1:24","routeTextColor":"000000","interlineWithPreviousLeg":false,"tripBlockId":"4","headsign":"Terminus Chicoutimi","agencyId":"0","tripId":"1:217225","serviceDate":"20180402","from":{"name":"Roussel / boul. Tadoussac","stopId":"1:819","stopCode":"819","lon":-71.032017,"lat":48.443307,"arrival":1522670214000,"departure":1522670215000,"zoneId":"NA","stopIndex":15,"stopSequence":16,"vertexType":"TRANSIT"},"to":{"name":"Terminus Chicoutimi","stopId":"1:1289","stopCode":"1289","lon":-71.066163,"lat":48.428677,"arrival":1522671060000,"departure":1522671300000,"zoneId":"NA","stopIndex":35,"stopSequence":36,"vertexType":"TRANSIT"},"legGeometry":{"points":"kqtfHplppLbF~FlCxBxB|B~JjK`IjIRPb@^r@d@rAp@\\T\\ZNVRd@J\\Nd@Hf@F`@@DFr@LtAJpB@jAAt@ObEIzAKbBUrBMp@Sn@gAlCk@pAw@fCwB|HCNk@jCeDuAq@UC?mG_CaHiCsJqD_A]VvC\\`Ch@rCj@tBf@bBxDxJN\\bAjCTnAHvA@|@CPIpAe@pDUfBCTEXK~@MxAEn@@v@Bp@Dr@l@~HNlAH\\@HLd@\\z@Xd@X\\RTXRr@Zn@PfExAvDpALnBJt@Pp@Nj@l@tBHZPn@`@rBNnAFr@DbA?bB@jABzA?p@A???A???A?A???A@??A?A@??A@?@A??@A@???@A@?@?@A@?@?@?@?@???@?@?@?@?@?@@@?@?@@@?@@@?@@@?@@?@@??@@@?E`@Kr@]rACVEl@I|AAr@JbAWJe@FUAM?a@Ke@YYWWa@v@}@RQPMz@k@tAe@REZG^Af@@X@VF`@Jn@XbClAr@Xt\\`PrAb@pA^hBTjAFj@Pb@JPHLLJNJRFXDT?X?ZEVEVKTMNMHMFOB}DWSGOSYcAN}FFkAF}DJyDPwGvAHN_HDiB@m@","length":209},"routeShortName":"24","routeLongName":"Saint-Luc","rentedBike":false,"transitLeg":true,"duration":845.0,"steps":[]},{"startTime":1522671300000,"endTime":1522672532000,"departureDelay":0,"arrivalDelay":0,"realTime":false,"distance":8093.956647965056,"pathway":false,"mode":"BUS","route":"11","agencyName":"Société de Transport du Saguenay","agencyUrl":"http://ville.saguenay.ca/fr/services-aux-citoyens/transport-sts","agencyTimeZoneOffset":-14400000,"routeColor":"FF0000","routeType":3,"routeId":"1:11","routeTextColor":"FFFFFF","interlineWithPreviousLeg":false,"tripBlockId":"37","headsign":"Boul.Royaume/St-Pierre","agencyId":"0","tripId":"1:218306","serviceDate":"20180402","from":{"name":"Terminus Chicoutimi","stopId":"1:1289","stopCode":"1289","lon":-71.066163,"lat":48.428677,"arrival":1522671060000,"departure":1522671300000,"zoneId":"NA","stopIndex":0,"stopSequence":1,"vertexType":"TRANSIT"},"to":{"name":"Bersimis / boul. St-Paul","stopId":"1:1625","stopCode":"1625","lon":-71.108501,"lat":48.39464,"arrival":1522672532000,"departure":1522672533000,"zoneId":"NA","stopIndex":25,"stopSequence":26,"vertexType":"TRANSIT"},"legGeometry":{"points":"evqfHzcwpLk@?UhKfIh@dKp@GnDIfDOtEE~@Ff@x@rEF~@CbAALO~ADRNJXBr@DfGRPBPJLN@@FPFTBX?TE`BhBR@?J@NELKFOlAiDL[bA`AfIjIbGdGzDzD`A~An@`ApApBpClEvJrOR\\bAfBLa@t@]LjAVvAVbAVv@^bAXj@b@t@xEtGh@r@n@x@FDjA|AlBpCnJ|NNTX`@V`@eCtHpFjH{FhPcB|Ft@|CEAdCnEdHKrBz@lGiQ|CyI~IrJtAzAmKrWsE`LzJjL|P}d@Ri@hCpEpBdCHJzPrR_AhC}Ppd@KZkDxJq@`CyGfZOl@fNzIJ@HAHIDI@CnNco@vE}Sh@kCb@oCXyBTuAFS","length":109},"routeShortName":"11","routeLongName":"Chic/Faubourg via St-Paul","rentedBike":false,"transitLeg":true,"duration":1232.0,"steps":[]},{"startTime":1522672533000,"endTime":1522672638000,"departureDelay":0,"arrivalDelay":0,"realTime":false,"distance":132.869,"pathway":false,"mode":"WALK","route":"","agencyTimeZoneOffset":-14400000,"interlineWithPreviousLeg":false,"from":{"name":"Bersimis / boul. St-Paul","stopId":"1:1625","stopCode":"1625","lon":-71.108501,"lat":48.39464,"arrival":1522672532000,"departure":1522672533000,"zoneId":"NA","stopIndex":25,"stopSequence":26,"vertexType":"TRANSIT"},"to":{"name":"Destination","lon":-71.109057,"lat":48.394199,"arrival":1522672638000,"orig":"","vertexType":"NORMAL"},"legGeometry":{"points":"wakfH|j_qLl@oBDSlB~B","length":4},"rentedBike":false,"transitLeg":false,"duration":105.0,"steps":[{"distance":56.607,"relativeDirection":"DEPART","streetName":"Rue Bersimis","absoluteDirection":"SOUTHEAST","stayOn":false,"area":false,"bogusName":false,"lon":-71.10846343735429,"lat":48.394681680442105,"elevation":[]},{"distance":76.262,"relativeDirection":"RIGHT","streetName":"Boulevard Saint-Paul","absoluteDirection":"SOUTHWEST","stayOn":false,"area":false,"bogusName":false,"lon":-71.1078057,"lat":48.394420100000005,"elevation":[]}]}],"tooSloped":false}]},"debugOutput":{"precalculationTime":3,"pathCalculationTime":19,"pathTimes":[7,7,5],"renderingTime":0,"totalTime":22,"timedOut":false},"elevationMetadata":{"ellipsoidToGeoidDifference":-28.885904201182168,"geoidElevation":false}}