{"requestParameters":{"date":"2018/04/02","walkSpeed":"1.33","walkReluctance":"2.0","fromPlace":"48.411657,-71.057063","maxWalkDistance":"3000","waitReluctance":"1.0","carSpeed":"33","numItineraries":"3","waitAtBeginningFactor":"0.4","mode":"TRANSIT,WALK","ignoreRealtimeUpdates":"false","stairsReluctance":"2.0","toPlace":"48.423148,-71.052406","time":"16:45:00"},"plan":{"date":1522701900000,"from":{"name":"Origin","lon":-71.057063,"lat":48.411657,"orig":"","vertexType":"NORMAL"},"to":{"name":"Destination","lon":-71.052406,"lat":48.423148,"orig":"","vertexType":"NORMAL"},"itineraries":[{"duration":850,"startTime":1522702266000,"endTime":1522703116000,"walkTime":577,"transitTime":271,"waitingTime":2,"walkDistance":734.8082857089846,"walkLimitExceeded":false,"elevationLost":0.0,"elevationGained":0.0,"transfers":0,"legs":[{"startTime":1522702266000,"endTime":1522702662000,"departureDelay":0,"arrivalDelay":0,"realTime":false,"distance":504.75600000000003,"pathway":false,"mode":"WALK","route":"","agencyTimeZoneOffset":-14400000,"interlineWithPreviousLeg":false,"from":{"name":"Origin","lon":-71.057063,"lat":48.411657,"departure":1522702266000,"orig":"","vertexType":"NORMAL"},"to":{"name":"boul. Université / Alma","stopId":"1:60","stopCode":"60","lon":-71.052847,"lat":48.413175,"arrival":1522702662000,"departure":1522702663000,"zoneId":"NA","stopIndex":12,"stopSequence":13,"vertexType":"TRANSIT"},"legGeometry":{"points":"ylnfHnhupLTe@v@mBBaAMuAu@yCm@aC?uDMqAqAkAIIYWiA`C_@\\","length":14},"rentedBike":false,"transitLeg":false,"duration":396.0,"steps":[{"distance":403.999,"relativeDirection":"DEPART","streetName":"Rue Thérèse-Casgrain","absoluteDirection":"SOUTHEAST","stayOn":false,"area":false,"bogusName":false,"lon":-71.05687572818525,"lat":48.41181037506347,"elevation":[]},{"distance":16.985,"relativeDirection":"CONTINUE","streetName":"Rue d'Alma","absoluteDirection":"NORTHEAST","stayOn":false,"area":false,"bogusName":false,"lon":-71.0522085,"lat":48.412505100000004,"elevation":[]},{"distance":83.772,"relativeDirection":"LEFT","streetName":"Boulevard de l'Université","absoluteDirection":"NORTHWEST","stayOn":false,"area":false,"bogusName":false,"lon":-71.0520843,"lat":48.4126337,"elevation":[]}]},{"startTime":1522702663000,"endTime":1522702934000,"departureDelay":0,"arrivalDelay":0,"realTime":false,"distance":1221.1998737589035,"pathway":false,"mode":"BUS","route":"175","agencyName":"Société de Transport du Saguenay","agencyUrl":"http://ville.saguenay.ca/fr/services-aux-citoyens/transport-sts","agencyTimeZoneOffset":-14400000,"routeColor":"FF00FF","routeType":3,"routeId":"1:175","routeTextColor":"FFFFFF","interlineWithPreviousLeg":false,"tripBlockId":"11","headsign":"Terminus Chicoutimi","agencyId":"0","tripId":"1:217482","serviceDate":"20180402","from":{"name":"boul. Université / Alma","stopId":"1:60","stopCode":"60","lon":-71.052847,"lat":48.413175,"arrival":1522702662000,"departure":1522702663000,"zoneId":"NA","stopIndex":12,"stopSequence":13,"vertexType":"TRANSIT"},"to":{"name":"Cégep de Chicoutimi (voie réservée)","stopId":"1:65","stopCode":"65","lon":-71.054799,"lat":48.423007,"arrival":1522702934000,"departure":1522702935000,"zoneId":"NA","stopIndex":16,"stopSequence":17,"vertexType":"TRANSIT"},"legGeometry":{"points":"wunfHvntpLc@x@qG~@{BlAk@XgSrQqB_GAeFiEeEOt@gAeA_A_ATm@yAwAgBeBqDnL@nBF`@","length":18},"routeShortName":"175","routeLongName":"Term. Chic / Costco","rentedBike":false,"transitLeg":true,"duration":271.0,"steps":[]},{"startTime":1522702935000,"endTime":1522703116000,"departureDelay":0,"arrivalDelay":0,"realTime":false,"distance":229.88799999999998,"pathway":false,"mode":"WALK","route":"","agencyTimeZoneOffset":-14400000,"interlineWithPreviousLeg":false,"from":{"name":"Cégep de Chicoutimi (voie réservée)","stopId":"1:65","stopCode":"65","lon":-71.054799,"lat":48.423007,"arrival":1522702934000,"departure":1522702935000,"zoneId":"NA","stopIndex":16,"stopSequence":17,"vertexType":"TRANSIT"},"to":{"name":"Destination","lon":-71.052406,"lat":48.423148,"arrival":1522703116000,"orig":"","vertexType":"NORMAL"},"legGeometry":{"points":"srpfHl{tpLCSIo@A{@Tu@^iA_B_@VsBBW?o@","length":10},"rentedBike":false,"transitLeg":false,"duration":181.0,"steps":[{"distance":104.179,"relativeDirection":"DEPART","streetName":"bike path","absoluteDirection":"EAST","stayOn":false,"area":false,"bogusName":true,"lon":-71.0547862499772,"lat":48.42298365091458,"elevation":[]},{"distance":54.189,"relativeDirection":"LEFT","streetName":"path","absoluteDirection":"NORTH","stayOn":true,"area":false,"bogusName":true,"lon":-71.053503,"lat":48.4227993,"elevation":[]},{"distance":71.52,"relativeDirection":"RIGHT","streetName":"service road","absoluteDirection":"EAST","stayOn":false,"area":false,"bogusName":false,"lon":-71.05334280000001,"lat":48.4232749,"elevation":[]}]}],"tooSloped":false},{"duration":775,"startTime":1522702960000,"endTime":1522703735000,"walkTime":529,"transitTime":244,"waitingTime":2,"walkDistance":657.9259097675338,"walkLimitExceeded":false,"elevationLost":0.0,"elevationGained":0.0,"transfers":0,"legs":[{"startTime":1522702960000,"endTime":1522703279000,"departureDelay":0,"arrivalDelay":0,"realTime":false,"distance":401.676,"pathway":false,"mode":"WALK","route":"","agencyTimeZoneOffset":-14400000,"interlineWithPreviousLeg":false,"from":{"name":"Origin","lon":-71.057063,"lat":48.411657,"departure":1522702960000,"orig":"","vertexType":"NORMAL"},"to":{"name":"Champs-Élysées / Chopin","stopId":"1:584","stopCode":"584","lon":-71.058412,"lat":48.409805,"arrival":1522703279000,"departure":1522703280000,"zoneId":"NA","stopIndex":29,"stopSequence":30,"vertexType":"TRANSIT"},"legGeometry":{"points":"ylnfHnhupLeA`CbAtAFIxAGfEUz@AzAtAa@|@","length":9},"rentedBike":false,"transitLeg":false,"duration":319.0,"steps":[{"distance":62.149,"relativeDirection":"DEPART","streetName":"Rue Thérèse-Casgrain","absoluteDirection":"NORTHWEST","stayOn":false,"area":false,"bogusName":false,"lon":-71.05687572818525,"lat":48.41181037506347,"elevation":[]},{"distance":105.095,"relativeDirection":"LEFT","streetName":"path","absoluteDirection":"SOUTHWEST","stayOn":false,"area":false,"bogusName":true,"lon":-71.0575299,"lat":48.412162300000006,"elevation":[]},{"distance":205.04399999999998,"relativeDirection":"CONTINUE","streetName":"Rue Chopin","absoluteDirection":"SOUTH","stayOn":false,"area":false,"bogusName":false,"lon":-71.0578622,"lat":48.411338,"elevation":[]},{"distance":29.388,"relativeDirection":"RIGHT","streetName":"Rue des Champs-Élysées","absoluteDirection":"NORTHWEST","stayOn":false,"area":false,"bogusName":false,"lon":-71.0581732,"lat":48.4095789,"elevation":[]}]},{"startTime":1522703280000,"endTime":1522703524000,"departureDelay":0,"arrivalDelay":0,"realTime":false,"distance":1882.8323605253292,"pathway":false,"mode":"BUS","route":"12","agencyName":"Société de Transport du Saguenay","agencyUrl":"http://ville.saguenay.ca/fr/services-aux-citoyens/transport-sts","agencyTimeZoneOffset":-14400000,"routeColor":"556B2F","routeType":3,"routeId":"1:12","routeTextColor":"FFFFFF","interlineWithPreviousLeg":false,"tripBlockId":"27","headsign":"Terminus UQAC","agencyId":"0","tripId":"1:218020","serviceDate":"20180402","from":{"name":"Champs-Élysées / Chopin","stopId":"1:584","stopCode":"584","lon":-71.058412,"lat":48.409805,"arrival":1522703279000,"departure":1522703280000,"zoneId":"NA","stopIndex":29,"stopSequence":30,"vertexType":"TRANSIT"},"to":{"name":"Cégep de Chicoutimi (voie réservée)","stopId":"1:75","stopCode":"75","lon":-71.055283,"lat":48.422761,"arrival":1522703524000,"departure":1522703525000,"zoneId":"NA","stopIndex":37,"stopSequence":38,"vertexType":"TRANSIT"},"legGeometry":{"points":"g`nfHbrupLiHhDaGz@uSl[uCYmIeIeJ_J{J{JwCiT","length":9},"routeShortName":"12","routeLongName":"Rivière du Moulin","rentedBike":false,"transitLeg":true,"duration":244.0,"steps":[]},{"startTime":1522703525000,"endTime":1522703735000,"departureDelay":0,"arrivalDelay":0,"realTime":false,"distance":256.036,"pathway":false,"mode":"WALK","route":"","agencyTimeZoneOffset":-14400000,"interlineWithPreviousLeg":false,"from":{"name":"Cégep de Chicoutimi (voie réservée)","stopId":"1:75","stopCode":"75","lon":-71.055283,"lat":48.422761,"arrival":1522703524000,"departure":1522703525000,"zoneId":"NA","stopIndex":37,"stopSequence":38,"vertexType":"TRANSIT"},"to":{"name":"Destination","lon":-71.052406,"lat":48.423148,"arrival":1522703735000,"orig":"","vertexType":"NORMAL"},"legGeometry":{"points":"mqpfHr~tpLGi@M@[DK@OoCOaAQaANqAVsBBW?o@","length":12},"rentedBike":false,"transitLeg":false,"duration":210.0,"steps":[{"distance":16.607,"relativeDirection":"DEPART","streetName":"Chemin Saint Thomas","absoluteDirection":"EAST","stayOn":false,"area":false,"bogusName":false,"lon":-71.05529730066766,"lat":48.42279572871795,"elevation":[]},{"distance":239.42899999999997,"relativeDirection":"LEFT","streetName":"service road","absoluteDirection":"NORTH","stayOn":false,"area":false,"bogusName":true,"lon":-71.0550802,"lat":48.4228351,"elevation":[]}]}],"tooSloped":false},{"duration":850,"startTime":1522703166000,"endTime":1522704016000,"walkTime":577,"transitTime":271,"waitingTime":2,"walkDistance":734.8082857089846,"walkLimitExceeded":false,"elevationLost":0.0,"elevationGained":0.0,"transfers":0,"legs":[{"startTime":1522703166000,"endTime":1522703562000,"departureDelay":0,"arrivalDelay":0,"realTime":false,"distance":504.75600000000003,"pathway":false,"mode":"WALK","route":"","agencyTimeZoneOffset":-14400000,"interlineWithPreviousLeg":false,"from":{"name":"Origin","lon":-71.057063,"lat":48.411657,"departure":1522703166000,"orig":"","vertexType":"NORMAL"},"to":{"name":"boul. Université / Alma","stopId":"1:60","stopCode":"60","lon":-71.052847,"lat":48.413175,"arrival":1522703562000,"departure":1522703563000,"zoneId":"NA","stopIndex":12,"stopSequence":13,"vertexType":"TRANSIT"},"legGeometry":{"points":"ylnfHnhupLTe@v@mBBaAMuAu@yCm@aC?uDMqAqAkAIIYWiA`C_@\\","length":14},"rentedBike":false,"transitLeg":false,"duration":396.0,"steps":[{"distance":403.999,"relativeDirection":"DEPART","streetName":"Rue Thérèse-Casgrain","absoluteDirection":"SOUTHEAST","stayOn":false,"area":false,"bogusName":false,"lon":-71.05687572818525,"lat":48.41181037506347,"elevation":[]},{"distance":16.985,"relativeDirection":"CONTINUE","streetName":"Rue d'Alma","absoluteDirection":"NORTHEAST","stayOn":false,"area":false,"bogusName":false,"lon":-71.0522085,"lat":48.412505100000004,"elevation":[]},{"distance":83.772,"relativeDirection":"LEFT","streetName":"Boulevard de l'Université","absoluteDirection":"NORTHWEST","stayOn":false,"area":false,"bogusName":false,"lon":-71.0520843,"lat":48.4126337,"elevation":[]}]},{"startTime":1522703563000,"endTime":1522703834000,"departureDelay":0,"arrivalDelay":0,"realTime":false,"distance":1221.1998737589035,"pathway":false,"mode":"BUS","route":"175","agencyName":"Société de Transport du Saguenay","agencyUrl":"http://ville.saguenay.ca/fr/services-aux-citoyens/transport-sts","agencyTimeZoneOffset":-14400000,"routeColor":"FF00FF","routeType":3,"routeId":"1:175","routeTextColor":"FFFFFF","interlineWithPreviousLeg":false,"tripBlockId":"77","headsign":"Terminus Chicoutimi","agencyId":"0","tripId":"1:218638","serviceDate":"20180402","from":{"name":"boul. Université / Alma","stopId":"1:60","stopCode":"60","lon":-71.052847,"lat":48.413175,"arrival":1522703562000,"departure":1522703563000,"zoneId":"NA","stopIndex":12,"stopSequence":13,"vertexType":"TRANSIT"},"to":{"name":"Cégep de Chicoutimi (voie réservée)","stopId":"1:65","stopCode":"65","lon":-71.054799,"lat":48.423007,"arrival":1522703834000,"departure":1522703835000,"zoneId":"NA","stopIndex":16,"stopSequence":17,"vertexType":"TRANSIT"},"legGeometry":{"points":"wunfHvntpLc@x@qG~@{BlAk@XgSrQqB_GAeFiEeEOt@gAeA_A_ATm@yAwAgBeBqDnL@nBF`@","length":18},"routeShortName":"175","routeLongName":"Term. Chic / Costco","rentedBike":false,"transitLeg":true,"duration":271.0,"steps":[]},{"startTime":1522703835000,"endTime":1522704016000,"departureDelay":0,"arrivalDelay":0,"realTime":false,"distance":229.88799999999998,"pathway":false,"mode":"WALK","route":"","agencyTimeZoneOffset":-14400000,"interlineWithPreviousLeg":false,"from":{"name":"Cégep de Chicoutimi (voie réservée)","stopId":"1:65","stopCode":"65","lon":-71.054799,"lat":48.423007,"arrival":1522703834000,"departure":1522703835000,"zoneId":"NA","stopIndex":16,"stopSequence":17,"vertexType":"TRANSIT"},"to":{"name":"Destination","lon":-71.052406,"lat":48.423148,"arrival":1522704016000,"orig":"","vertexType":"NORMAL"},"legGeometry":{"points":"srpfHl{tpLCSIo@A{@Tu@^iA_B_@VsBBW?o@","length":10},"rentedBike":false,"transitLeg":false,"duration":181.0,"steps":[{"distance":104.179,"relativeDirection":"DEPART","streetName":"bike path","absoluteDirection":"EAST","stayOn":false,"area":false,"bogusName":true,"lon":-71.0547862499772,"lat":48.42298365091458,"elevation":[]},{"distance":54.189,"relativeDirection":"LEFT","streetName":"path","absoluteDirection":"NORTH","stayOn":true,"area":false,"bogusName":true,"lon":-71.053503,"lat":48.4227993,"elevation":[]},{"distance":71.52,"relativeDirection":"RIGHT","streetName":"service road","absoluteDirection":"EAST","stayOn":false,"area":false,"bogusName":false,"lon":-71.05334280000001,"lat":48.4232749,"elevation":[]}]}],"tooSloped":false}]},"debugOutput":{"precalculationTime":42,"pathCalculationTime":28,"pathTimes":[16,6,6],"renderingTime":0,"totalTime":70,"timedOut":false},"elevationMetadata":{"ellipsoidToGeoidDifference":-28.885904201182168,"geoidElevation":false}}