{"requestParameters":{"date":"2018/04/02","walkSpeed":"1.33","walkReluctance":"2.0","fromPlace":"48.423419,-71.039377","maxWalkDistance":"3000","waitReluctance":"1.0","carSpeed":"33","numItineraries":"3","waitAtBeginningFactor":"0.4","mode":"TRANSIT,WALK","ignoreRealtimeUpdates":"false","stairsReluctance":"2.0","toPlace":"48.412066,-71.057891","time":"17:0:00"},"plan":{"date":1522702800000,"from":{"name":"Origin","lon":-71.039377,"lat":48.423419,"orig":"","vertexType":"NORMAL"},"to":{"name":"Destination","lon":-71.057891,"lat":48.412066,"orig":"","vertexType":"NORMAL"},"itineraries":[{"duration":1787,"startTime":1522702800000,"endTime":1522704587000,"walkTime":1787,"transitTime":0,"waitingTime":0,"walkDistance":2302.3102405919444,"walkLimitExceeded":false,"elevationLost":0.0,"elevationGained":0.0,"transfers":0,"legs":[{"startTime":1522702800000,"endTime":1522704587000,"departureDelay":0,"arrivalDelay":0,"realTime":false,"distance":2302.014,"pathway":false,"mode":"WALK","route":"","agencyTimeZoneOffset":-14400000,"interlineWithPreviousLeg":false,"from":{"name":"Origin","lon":-71.039377,"lat":48.423419,"departure":1522702800000,"orig":"","vertexType":"NORMAL"},"to":{"name":"Destination","lon":-71.057891,"lat":48.412066,"arrival":1522704587000,"orig":"","vertexType":"NORMAL"},"legGeometry":{"points":"qupfH`{qpL@MFc@@M@QB@^HPDXFTFv@@lAAt@Df@JRDH@H?jA^lA`Av@fA^bBFr@B`@Df@LfAL`@z@rAlA|AvClCi@rAa@hAt@^RRt@h@~BdBfClCnFtFTV`BdBx@z@vCzCnArArI~ITXO`@K\\gA|CHHpAjALpA?tDl@`Ct@xCLtAC`Aw@lB{AfDb@l@","length":58},"rentedBike":false,"transitLeg":false,"duration":1787.0,"steps":[{"distance":605.264,"relativeDirection":"DEPART","streetName":"service road","absoluteDirection":"EAST","stayOn":false,"area":false,"bogusName":false,"lon":-71.03936007182831,"lat":48.423455069459806,"elevation":[]},{"distance":99.21,"relativeDirection":"CONTINUE","streetName":"path","absoluteDirection":"SOUTHWEST","stayOn":false,"area":false,"bogusName":true,"lon":-71.04266,"lat":48.4194089,"elevation":[]},{"distance":71.352,"relativeDirection":"RIGHT","streetName":"Rue Papineau","absoluteDirection":"NORTHWEST","stayOn":false,"area":false,"bogusName":false,"lon":-71.04336620000001,"lat":48.4186497,"elevation":[]},{"distance":934.945,"relativeDirection":"LEFT","streetName":"Boulevard Talbot","absoluteDirection":"SOUTHWEST","stayOn":false,"area":false,"bogusName":false,"lon":-71.04415230000001,"lat":48.419023300000006,"elevation":[]},{"distance":99.698,"relativeDirection":"RIGHT","streetName":"Boulevard de l'Université","absoluteDirection":"NORTHWEST","stayOn":false,"area":false,"bogusName":false,"lon":-71.0510904,"lat":48.412002,"elevation":[]},{"distance":466.149,"relativeDirection":"LEFT","streetName":"Rue Thérèse-Casgrain","absoluteDirection":"SOUTHWEST","stayOn":false,"area":false,"bogusName":false,"lon":-71.0522085,"lat":48.412505100000004,"elevation":[]},{"distance":25.396,"relativeDirection":"LEFT","streetName":"path","absoluteDirection":"SOUTHWEST","stayOn":false,"area":false,"bogusName":false,"lon":-71.0575299,"lat":48.412162300000006,"elevation":[]}]}],"tooSloped":false},{"duration":948,"startTime":1522704273000,"endTime":1522705221000,"walkTime":559,"transitTime":387,"waitingTime":2,"walkDistance":711.2665037545099,"walkLimitExceeded":false,"elevationLost":0.0,"elevationGained":0.0,"transfers":0,"legs":[{"startTime":1522704273000,"endTime":1522704288000,"departureDelay":0,"arrivalDelay":0,"realTime":false,"distance":18.76,"pathway":false,"mode":"WALK","route":"","agencyTimeZoneOffset":-14400000,"interlineWithPreviousLeg":false,"from":{"name":"Origin","lon":-71.039377,"lat":48.423419,"departure":1522704273000,"orig":"","vertexType":"NORMAL"},"to":{"name":"Complexe Sagamie","stopId":"1:1565","stopCode":"1565","lon":-71.039089,"lat":48.423475,"arrival":1522704288000,"departure":1522704289000,"zoneId":"NA","stopIndex":11,"stopSequence":12,"vertexType":"TRANSIT"},"legGeometry":{"points":"qupfH`{qpL@MFc@","length":3},"rentedBike":false,"transitLeg":false,"duration":15.0,"steps":[{"distance":18.76,"relativeDirection":"DEPART","streetName":"service road","absoluteDirection":"EAST","stayOn":false,"area":false,"bogusName":false,"lon":-71.03936007182831,"lat":48.423455069459806,"elevation":[]}]},{"startTime":1522704289000,"endTime":1522704676000,"departureDelay":0,"arrivalDelay":0,"realTime":false,"distance":2113.624489586699,"pathway":false,"mode":"BUS","route":"10","agencyName":"Société de Transport du Saguenay","agencyUrl":"http://ville.saguenay.ca/fr/services-aux-citoyens/transport-sts","agencyTimeZoneOffset":-14400000,"routeColor":"0000FF","routeType":3,"routeId":"1:10","routeTextColor":"FFFFFF","interlineWithPreviousLeg":false,"tripBlockId":"29","headsign":"Terminus UQAC","agencyId":"0","tripId":"1:218073","serviceDate":"20180402","from":{"name":"Complexe Sagamie","stopId":"1:1565","stopCode":"1565","lon":-71.039089,"lat":48.423475,"arrival":1522704288000,"departure":1522704289000,"zoneId":"NA","stopIndex":11,"stopSequence":12,"vertexType":"TRANSIT"},"to":{"name":"boul. Université / Murdock","stopId":"1:59","stopCode":"59","lon":-71.049971,"lat":48.411755,"arrival":1522704676000,"departure":1522704677000,"zoneId":"NA","stopIndex":21,"stopSequence":22,"vertexType":"TRANSIT"},"legGeometry":{"points":"kvpfH`yqpLJcAXw@Fk@M_@xBwVr@^LJ|@z@HdAlBbD`Av@b@\\v@d@`@BpBAzAXl@t@XZt@lCl@tAnBpB~@~@lDjDr@r@zDrDnAlAjBrBl@pBPlBCj@KrAAHSpAe@jB_A|Bz@xAvA~BvB|BdN|Nc@bA","length":41},"routeShortName":"10","routeLongName":"Notre-Dame du Saguenay","rentedBike":false,"transitLeg":true,"duration":387.0,"steps":[]},{"startTime":1522704677000,"endTime":1522705221000,"departureDelay":0,"arrivalDelay":0,"realTime":false,"distance":692.355,"pathway":false,"mode":"WALK","route":"","agencyTimeZoneOffset":-14400000,"interlineWithPreviousLeg":false,"from":{"name":"boul. Université / Murdock","stopId":"1:59","stopCode":"59","lon":-71.049971,"lat":48.411755,"arrival":1522704676000,"departure":1522704677000,"zoneId":"NA","stopIndex":21,"stopSequence":22,"vertexType":"TRANSIT"},"to":{"name":"Destination","lon":-71.057891,"lat":48.412066,"arrival":1522705221000,"orig":"","vertexType":"NORMAL"},"legGeometry":{"points":"_lnfHx}spLoAhDELOb@qAlDELXVHHpAjALpA?tDl@`Ct@xCLtAC`Aw@lB{AfDb@l@","length":18},"rentedBike":false,"transitLeg":false,"duration":544.0,"steps":[{"distance":183.825,"relativeDirection":"DEPART","streetName":"Boulevard de l'Université","absoluteDirection":"NORTHWEST","stayOn":false,"area":false,"bogusName":false,"lon":-71.05004245459075,"lat":48.41168714240219,"elevation":[]},{"distance":16.985,"relativeDirection":"LEFT","streetName":"Rue d'Alma","absoluteDirection":"SOUTHWEST","stayOn":false,"area":false,"bogusName":false,"lon":-71.0520843,"lat":48.4126337,"elevation":[]},{"distance":466.149,"relativeDirection":"CONTINUE","streetName":"Rue Thérèse-Casgrain","absoluteDirection":"SOUTHWEST","stayOn":false,"area":false,"bogusName":false,"lon":-71.0522085,"lat":48.412505100000004,"elevation":[]},{"distance":25.396,"relativeDirection":"LEFT","streetName":"path","absoluteDirection":"SOUTHWEST","stayOn":false,"area":false,"bogusName":false,"lon":-71.0575299,"lat":48.412162300000006,"elevation":[]}]}],"tooSloped":false},{"duration":948,"startTime":1522706073000,"endTime":1522707021000,"walkTime":559,"transitTime":387,"waitingTime":2,"walkDistance":711.2665037545099,"walkLimitExceeded":false,"elevationLost":0.0,"elevationGained":0.0,"transfers":0,"legs":[{"startTime":1522706073000,"endTime":1522706088000,"departureDelay":0,"arrivalDelay":0,"realTime":false,"distance":18.76,"pathway":false,"mode":"WALK","route":"","agencyTimeZoneOffset":-14400000,"interlineWithPreviousLeg":false,"from":{"name":"Origin","lon":-71.039377,"lat":48.423419,"departure":1522706073000,"orig":"","vertexType":"NORMAL"},"to":{"name":"Complexe Sagamie","stopId":"1:1565","stopCode":"1565","lon":-71.039089,"lat":48.423475,"arrival":1522706088000,"departure":1522706089000,"zoneId":"NA","stopIndex":11,"stopSequence":12,"vertexType":"TRANSIT"},"legGeometry":{"points":"qupfH`{qpL@MFc@","length":3},"rentedBike":false,"transitLeg":false,"duration":15.0,"steps":[{"distance":18.76,"relativeDirection":"DEPART","streetName":"service road","absoluteDirection":"EAST","stayOn":false,"area":false,"bogusName":false,"lon":-71.03936007182831,"lat":48.423455069459806,"elevation":[]}]},{"startTime":1522706089000,"endTime":1522706476000,"departureDelay":0,"arrivalDelay":0,"realTime":false,"distance":2113.624489586699,"pathway":false,"mode":"BUS","route":"10","agencyName":"Société de Transport du Saguenay","agencyUrl":"http://ville.saguenay.ca/fr/services-aux-citoyens/transport-sts","agencyTimeZoneOffset":-14400000,"routeColor":"0000FF","routeType":3,"routeId":"1:10","routeTextColor":"FFFFFF","interlineWithPreviousLeg":false,"tripBlockId":"26","headsign":"Terminus UQAC","agencyId":"0","tripId":"1:217986","serviceDate":"20180402","from":{"name":"Complexe Sagamie","stopId":"1:1565","stopCode":"1565","lon":-71.039089,"lat":48.423475,"arrival":1522706088000,"departure":1522706089000,"zoneId":"NA","stopIndex":11,"stopSequence":12,"vertexType":"TRANSIT"},"to":{"name":"boul. Université / Murdock","stopId":"1:59","stopCode":"59","lon":-71.049971,"lat":48.411755,"arrival":1522706476000,"departure":1522706477000,"zoneId":"NA","stopIndex":21,"stopSequence":22,"vertexType":"TRANSIT"},"legGeometry":{"points":"kvpfH`yqpLJcAXw@Fk@M_@xBwVr@^LJ|@z@HdAlBbD`Av@b@\\v@d@`@BpBAzAXl@t@XZt@lCl@tAnBpB~@~@lDjDr@r@zDrDnAlAjBrBl@pBPlBCj@KrAAHSpAe@jB_A|Bz@xAvA~BvB|BdN|Nc@bA","length":41},"routeShortName":"10","routeLongName":"Notre-Dame du Saguenay","rentedBike":false,"transitLeg":true,"duration":387.0,"steps":[]},{"startTime":1522706477000,"endTime":1522707021000,"departureDelay":0,"arrivalDelay":0,"realTime":false,"distance":692.355,"pathway":false,"mode":"WALK","route":"","agencyTimeZoneOffset":-14400000,"interlineWithPreviousLeg":false,"from":{"name":"boul. Université / Murdock","stopId":"1:59","stopCode":"59","lon":-71.049971,"lat":48.411755,"arrival":1522706476000,"departure":1522706477000,"zoneId":"NA","stopIndex":21,"stopSequence":22,"vertexType":"TRANSIT"},"to":{"name":"Destination","lon":-71.057891,"lat":48.412066,"arrival":1522707021000,"orig":"","vertexType":"NORMAL"},"legGeometry":{"points":"_lnfHx}spLoAhDELOb@qAlDELXVHHpAjALpA?tDl@`Ct@xCLtAC`Aw@lB{AfDb@l@","length":18},"rentedBike":false,"transitLeg":false,"duration":544.0,"steps":[{"distance":183.825,"relativeDirection":"DEPART","streetName":"Boulevard de l'Université","absoluteDirection":"NORTHWEST","stayOn":false,"area":false,"bogusName":false,"lon":-71.05004245459075,"lat":48.41168714240219,"elevation":[]},{"distance":16.985,"relativeDirection":"LEFT","streetName":"Rue d'Alma","absoluteDirection":"SOUTHWEST","stayOn":false,"area":false,"bogusName":false,"lon":-71.0520843,"lat":48.4126337,"elevation":[]},{"distance":466.149,"relativeDirection":"CONTINUE","streetName":"Rue Thérèse-Casgrain","absoluteDirection":"SOUTHWEST","stayOn":false,"area":false,"bogusName":false,"lon":-71.0522085,"lat":48.412505100000004,"elevation":[]},{"distance":25.396,"relativeDirection":"LEFT","streetName":"path","absoluteDirection":"SOUTHWEST","stayOn":false,"area":false,"bogusName":false,"lon":-71.0575299,"lat":48.412162300000006,"elevation":[]}]}],"tooSloped":false}]},"debugOutput":{"precalculationTime":38,"pathCalculationTime":25,"pathTimes":[12,6,7],"renderingTime":1,"totalTime":64,"timedOut":false},"elevationMetadata":{"ellipsoidToGeoidDifference":-28.885904201182168,"geoidElevation":false}}