{"requestParameters":{"date":"2018/04/02","walkSpeed":"1.33","walkReluctance":"2.0","fromPlace":"48.412051,-71.05021899","maxWalkDistance":"3000","waitReluctance":"1.0","carSpeed":"33","numItineraries":"3","waitAtBeginningFactor":"0.4","mode":"TRANSIT,WALK","ignoreRealtimeUpdates":"false","stairsReluctance":"2.0","toPlace":"48.411025,-71.054072","time":"18:15:00"},"plan":{"date":1522707300000,"from":{"name":"Origin","lon":-71.05021899,"lat":48.412051,"orig":"","vertexType":"NORMAL"},"to":{"name":"Destination","lon":-71.054072,"lat":48.411025,"orig":"","vertexType":"NORMAL"},"itineraries":[{"duration":300,"startTime":1522707300000,"endTime":1522707600000,"walkTime":300,"transitTime":0,"waitingTime":0,"walkDistance":382.6366691707488,"walkLimitExceeded":false,"elevationLost":0.0,"elevationGained":0.0,"transfers":0,"legs":[{"startTime":1522707300000,"endTime":1522707600000,"departureDelay":0,"arrivalDelay":0,"realTime":false,"distance":382.569,"pathway":false,"mode":"WALK","route":"","agencyTimeZoneOffset":-14400000,"interlineWithPreviousLeg":false,"from":{"name":"Origin","lon":-71.05021899,"lat":48.412051,"departure":1522707300000,"orig":"","vertexType":"NORMAL"},"to":{"name":"Destination","lon":-71.054072,"lat":48.411025,"arrival":1522707600000,"orig":"","vertexType":"NORMAL"},"legGeometry":{"points":"cmnfHb`tpLk@~AELOb@qAlDELXVHHpAjALpA?tDl@`C@D","length":13},"rentedBike":false,"transitLeg":false,"duration":300.0,"steps":[{"distance":149.966,"relativeDirection":"DEPART","streetName":"Boulevard de l'Université","absoluteDirection":"NORTHWEST","stayOn":false,"area":false,"bogusName":false,"lon":-71.05041844838937,"lat":48.41186158446426,"elevation":[]},{"distance":16.985,"relativeDirection":"LEFT","streetName":"Rue d'Alma","absoluteDirection":"SOUTHWEST","stayOn":false,"area":false,"bogusName":false,"lon":-71.0520843,"lat":48.4126337,"elevation":[]},{"distance":215.618,"relativeDirection":"CONTINUE","streetName":"Rue Thérèse-Casgrain","absoluteDirection":"SOUTHWEST","stayOn":false,"area":false,"bogusName":false,"lon":-71.0522085,"lat":48.412505100000004,"elevation":[]}]}],"tooSloped":false}]},"debugOutput":{"precalculationTime":50,"pathCalculationTime":19,"pathTimes":[3,11,5],"renderingTime":0,"totalTime":69,"timedOut":false},"elevationMetadata":{"ellipsoidToGeoidDifference":-28.885904201182168,"geoidElevation":false}}