{"requestParameters":{"date":"2018/04/02","walkSpeed":"1.33","walkReluctance":"2.0","fromPlace":"48.413385,-71.058245","maxWalkDistance":"3000","waitReluctance":"1.0","carSpeed":"33","numItineraries":"3","waitAtBeginningFactor":"0.4","mode":"TRANSIT,WALK","ignoreRealtimeUpdates":"false","stairsReluctance":"2.0","toPlace":"48.405991,-71.058711","time":"8:5:00"},"plan":{"date":1522670700000,"from":{"name":"Origin","lon":-71.058245,"lat":48.413385,"orig":"","vertexType":"NORMAL"},"to":{"name":"Destination","lon":-71.058711,"lat":48.405991,"orig":"","vertexType":"NORMAL"},"itineraries":[{"duration":785,"startTime":1522670700000,"endTime":1522671485000,"walkTime":785,"transitTime":0,"waitingTime":0,"walkDistance":1005.7282255593851,"walkLimitExceeded":false,"elevationLost":0.0,"elevationGained":0.0,"transfers":0,"legs":[{"startTime":1522670700000,"endTime":1522671485000,"departureDelay":0,"arrivalDelay":0,"realTime":false,"distance":1005.5880000000001,"pathway":false,"mode":"WALK","route":"","agencyTimeZoneOffset":-14400000,"interlineWithPreviousLeg":false,"from":{"name":"Origin","lon":-71.058245,"lat":48.413385,"departure":1522670700000,"orig":"","vertexType":"NORMAL"},"to":{"name":"Destination","lon":-71.058711,"lat":48.405991,"arrival":1522671485000,"orig":"","vertexType":"NORMAL"},"legGeometry":{"points":"yvnfHzoupLrBc@z@Q\\If@_@BIbAtAFIxAGfEUz@AzAtAlCcHd@aAL]Na@\\\\t@`@fAd@h@ZB@\\TjAnAh@h@Lr@r@n@^V\\CDIx@r@","length":30},"rentedBike":false,"transitLeg":false,"duration":785.0,"steps":[{"distance":145.853,"relativeDirection":"DEPART","streetName":"Rue Thérèse-Casgrain","absoluteDirection":"SOUTH","stayOn":false,"area":false,"bogusName":false,"lon":-71.0580589748484,"lat":48.41341165801269,"elevation":[]},{"distance":105.095,"relativeDirection":"RIGHT","streetName":"path","absoluteDirection":"SOUTHWEST","stayOn":false,"area":false,"bogusName":true,"lon":-71.0575299,"lat":48.412162300000006,"elevation":[]},{"distance":205.04399999999998,"relativeDirection":"CONTINUE","streetName":"Rue Chopin","absoluteDirection":"SOUTH","stayOn":false,"area":false,"bogusName":false,"lon":-71.0578622,"lat":48.411338,"elevation":[]},{"distance":194.993,"relativeDirection":"LEFT","streetName":"Rue des Champs-Élysées","absoluteDirection":"SOUTHEAST","stayOn":false,"area":false,"bogusName":false,"lon":-71.0581732,"lat":48.4095789,"elevation":[]},{"distance":354.603,"relativeDirection":"RIGHT","streetName":"parking aisle","absoluteDirection":"SOUTHWEST","stayOn":false,"area":false,"bogusName":true,"lon":-71.0560683,"lat":48.4085206,"elevation":[]}]}],"tooSloped":false},{"duration":793,"startTime":1522671006000,"endTime":1522671799000,"walkTime":635,"transitTime":156,"waitingTime":2,"walkDistance":813.2298345821478,"walkLimitExceeded":false,"elevationLost":0.0,"elevationGained":0.0,"transfers":0,"legs":[{"startTime":1522671006000,"endTime":1522671342000,"departureDelay":0,"arrivalDelay":0,"realTime":false,"distance":429.962,"pathway":false,"mode":"WALK","route":"","agencyTimeZoneOffset":-14400000,"interlineWithPreviousLeg":false,"from":{"name":"Origin","lon":-71.058245,"lat":48.413385,"departure":1522671006000,"orig":"","vertexType":"NORMAL"},"to":{"name":"CEA Laure-Conan (Champs-Élysées)","stopId":"1:567","stopCode":"567","lon":-71.0614,"lat":48.4147,"arrival":1522671342000,"departure":1522671343000,"zoneId":"NA","stopIndex":8,"stopSequence":9,"vertexType":"TRANSIT"},"legGeometry":{"points":"yvnfHzoupLiAX{A\\qBLOC@`ADhB`@~ADTnAdBY`@iAbD??","length":13},"rentedBike":false,"transitLeg":false,"duration":336.0,"steps":[{"distance":167.18099999999998,"relativeDirection":"DEPART","streetName":"Rue Thérèse-Casgrain","absoluteDirection":"NORTH","stayOn":false,"area":false,"bogusName":false,"lon":-71.0580589748484,"lat":48.41341165801269,"elevation":[]},{"distance":170.211,"relativeDirection":"LEFT","streetName":"Rue Marguerite-Tellier","absoluteDirection":"WEST","stayOn":false,"area":false,"bogusName":false,"lon":-71.0583806,"lat":48.4148926,"elevation":[]},{"distance":92.57,"relativeDirection":"RIGHT","streetName":"Rue des Champs-Élysées","absoluteDirection":"NORTHWEST","stayOn":false,"area":false,"bogusName":false,"lon":-71.0603414,"lat":48.4142597,"elevation":[]}]},{"startTime":1522671343000,"endTime":1522671499000,"departureDelay":0,"arrivalDelay":0,"realTime":false,"distance":854.3804701190452,"pathway":false,"mode":"BUS","route":"12","agencyName":"Société de Transport du Saguenay","agencyUrl":"http://ville.saguenay.ca/fr/services-aux-citoyens/transport-sts","agencyTimeZoneOffset":-14400000,"routeColor":"556B2F","routeType":3,"routeId":"1:12","routeTextColor":"FFFFFF","interlineWithPreviousLeg":false,"tripBlockId":"26","headsign":"Terminus Chicoutimi","agencyId":"0","tripId":"1:217967","serviceDate":"20180402","from":{"name":"CEA Laure-Conan (Champs-Élysées)","stopId":"1:567","stopCode":"567","lon":-71.0614,"lat":48.4147,"arrival":1522671342000,"departure":1522671343000,"zoneId":"NA","stopIndex":8,"stopSequence":9,"vertexType":"TRANSIT"},"to":{"name":"Place du Saguenay (Champs-Élysées)","stopId":"1:571","stopCode":"571","lon":-71.055824,"lat":48.408307,"arrival":1522671499000,"departure":1522671500000,"zoneId":"NA","stopIndex":12,"stopSequence":13,"vertexType":"TRANSIT"},"legGeometry":{"points":"{~nfHxdvpLbAqDtBeCjFm@`Gs@hFo@xAmBrGcP","length":8},"routeShortName":"12","routeLongName":"Rivière du Moulin","rentedBike":false,"transitLeg":true,"duration":156.0,"steps":[]},{"startTime":1522671500000,"endTime":1522671799000,"departureDelay":0,"arrivalDelay":0,"realTime":false,"distance":383.13399999999996,"pathway":false,"mode":"WALK","route":"","agencyTimeZoneOffset":-14400000,"interlineWithPreviousLeg":false,"from":{"name":"Place du Saguenay (Champs-Élysées)","stopId":"1:571","stopCode":"571","lon":-71.055824,"lat":48.408307,"arrival":1522671499000,"departure":1522671500000,"zoneId":"NA","stopIndex":12,"stopSequence":13,"vertexType":"TRANSIT"},"to":{"name":"Destination","lon":-71.058711,"lat":48.405991,"arrival":1522671799000,"orig":"","vertexType":"NORMAL"},"legGeometry":{"points":"iwmfHnaupL]|@\\\\t@`@fAd@h@ZB@\\TjAnAh@h@Lr@r@n@^V\\CDIx@r@","length":16},"rentedBike":false,"transitLeg":false,"duration":299.0,"steps":[{"distance":28.531,"relativeDirection":"DEPART","streetName":"Rue des Champs-Élysées","absoluteDirection":"NORTHWEST","stayOn":false,"area":false,"bogusName":false,"lon":-71.05575512063196,"lat":48.408370203803415,"elevation":[]},{"distance":354.603,"relativeDirection":"LEFT","streetName":"parking aisle","absoluteDirection":"SOUTHWEST","stayOn":false,"area":false,"bogusName":true,"lon":-71.0560683,"lat":48.4085206,"elevation":[]}]}],"tooSloped":false},{"duration":793,"startTime":1522672806000,"endTime":1522673599000,"walkTime":635,"transitTime":156,"waitingTime":2,"walkDistance":813.2298345821478,"walkLimitExceeded":false,"elevationLost":0.0,"elevationGained":0.0,"transfers":0,"legs":[{"startTime":1522672806000,"endTime":1522673142000,"departureDelay":0,"arrivalDelay":0,"realTime":false,"distance":429.962,"pathway":false,"mode":"WALK","route":"","agencyTimeZoneOffset":-14400000,"interlineWithPreviousLeg":false,"from":{"name":"Origin","lon":-71.058245,"lat":48.413385,"departure":1522672806000,"orig":"","vertexType":"NORMAL"},"to":{"name":"CEA Laure-Conan (Champs-Élysées)","stopId":"1:567","stopCode":"567","lon":-71.0614,"lat":48.4147,"arrival":1522673142000,"departure":1522673143000,"zoneId":"NA","stopIndex":8,"stopSequence":9,"vertexType":"TRANSIT"},"legGeometry":{"points":"yvnfHzoupLiAX{A\\qBLOC@`ADhB`@~ADTnAdBY`@iAbD??","length":13},"rentedBike":false,"transitLeg":false,"duration":336.0,"steps":[{"distance":167.18099999999998,"relativeDirection":"DEPART","streetName":"Rue Thérèse-Casgrain","absoluteDirection":"NORTH","stayOn":false,"area":false,"bogusName":false,"lon":-71.0580589748484,"lat":48.41341165801269,"elevation":[]},{"distance":170.211,"relativeDirection":"LEFT","streetName":"Rue Marguerite-Tellier","absoluteDirection":"WEST","stayOn":false,"area":false,"bogusName":false,"lon":-71.0583806,"lat":48.4148926,"elevation":[]},{"distance":92.57,"relativeDirection":"RIGHT","streetName":"Rue des Champs-Élysées","absoluteDirection":"NORTHWEST","stayOn":false,"area":false,"bogusName":false,"lon":-71.0603414,"lat":48.4142597,"elevation":[]}]},{"startTime":1522673143000,"endTime":1522673299000,"departureDelay":0,"arrivalDelay":0,"realTime":false,"distance":854.3804701190452,"pathway":false,"mode":"BUS","route":"12","agencyName":"Société de Transport du Saguenay","agencyUrl":"http://ville.saguenay.ca/fr/services-aux-citoyens/transport-sts","agencyTimeZoneOffset":-14400000,"routeColor":"556B2F","routeType":3,"routeId":"1:12","routeTextColor":"FFFFFF","interlineWithPreviousLeg":false,"tripBlockId":"29","headsign":"Terminus Chicoutimi","agencyId":"0","tripId":"1:218056","serviceDate":"20180402","from":{"name":"CEA Laure-Conan (Champs-Élysées)","stopId":"1:567","stopCode":"567","lon":-71.0614,"lat":48.4147,"arrival":1522673142000,"departure":1522673143000,"zoneId":"NA","stopIndex":8,"stopSequence":9,"vertexType":"TRANSIT"},"to":{"name":"Place du Saguenay (Champs-Élysées)","stopId":"1:571","stopCode":"571","lon":-71.055824,"lat":48.408307,"arrival":1522673299000,"departure":1522673300000,"zoneId":"NA","stopIndex":12,"stopSequence":13,"vertexType":"TRANSIT"},"legGeometry":{"points":"{~nfHxdvpLbAqDtBeCjFm@`Gs@hFo@xAmBrGcP","length":8},"routeShortName":"12","routeLongName":"Rivière du Moulin","rentedBike":false,"transitLeg":true,"duration":156.0,"steps":[]},{"startTime":1522673300000,"endTime":1522673599000,"departureDelay":0,"arrivalDelay":0,"realTime":false,"distance":383.13399999999996,"pathway":false,"mode":"WALK","route":"","agencyTimeZoneOffset":-14400000,"interlineWithPreviousLeg":false,"from":{"name":"Place du Saguenay (Champs-Élysées)","stopId":"1:571","stopCode":"571","lon":-71.055824,"lat":48.408307,"arrival":1522673299000,"departure":1522673300000,"zoneId":"NA","stopIndex":12,"stopSequence":13,"vertexType":"TRANSIT"},"to":{"name":"Destination","lon":-71.058711,"lat":48.405991,"arrival":1522673599000,"orig":"","vertexType":"NORMAL"},"legGeometry":{"points":"iwmfHnaupL]|@\\\\t@`@fAd@h@ZB@\\TjAnAh@h@Lr@r@n@^V\\CDIx@r@","length":16},"rentedBike":false,"transitLeg":false,"duration":299.0,"steps":[{"distance":28.531,"relativeDirection":"DEPART","streetName":"Rue des Champs-Élysées","absoluteDirection":"NORTHWEST","stayOn":false,"area":false,"bogusName":false,"lon":-71.05575512063196,"lat":48.408370203803415,"elevation":[]},{"distance":354.603,"relativeDirection":"LEFT","streetName":"parking aisle","absoluteDirection":"SOUTHWEST","stayOn":false,"area":false,"bogusName":true,"lon":-71.0560683,"lat":48.4085206,"elevation":[]}]}],"tooSloped":false}]},"debugOutput":{"precalculationTime":47,"pathCalculationTime":32,"pathTimes":[14,6,12],"renderingTime":1,"totalTime":80,"timedOut":false},"elevationMetadata":{"ellipsoidToGeoidDifference":-28.885904201182168,"geoidElevation":false}}