{"requestParameters":{"date":"2018/04/02","walkSpeed":"1.33","walkReluctance":"2.0","fromPlace":"48.411618,-71.055806","maxWalkDistance":"3000","waitReluctance":"1.0","carSpeed":"33","numItineraries":"3","waitAtBeginningFactor":"0.4","mode":"TRANSIT,WALK","ignoreRealtimeUpdates":"false","stairsReluctance":"2.0","toPlace":"48.405991,-71.058711","time":"13:30:00"},"plan":{"date":1522690200000,"from":{"name":"Origin","lon":-71.055806,"lat":48.411618,"orig":"","vertexType":"NORMAL"},"to":{"name":"Destination","lon":-71.058711,"lat":48.405991,"orig":"","vertexType":"NORMAL"},"itineraries":[{"duration":798,"startTime":1522690200000,"endTime":1522690998000,"walkTime":798,"transitTime":0,"waitingTime":0,"walkDistance":1022.469939843947,"walkLimitExceeded":false,"elevationLost":0.0,"elevationGained":0.0,"transfers":0,"legs":[{"startTime":1522690200000,"endTime":1522690998000,"departureDelay":0,"arrivalDelay":0,"realTime":false,"distance":1022.2940000000001,"pathway":false,"mode":"WALK","route":"","agencyTimeZoneOffset":-14400000,"interlineWithPreviousLeg":false,"from":{"name":"Origin","lon":-71.055806,"lat":48.411618,"departure":1522690200000,"orig":"","vertexType":"NORMAL"},"to":{"name":"Destination","lon":-71.058711,"lat":48.405991,"arrival":1522690998000,"orig":"","vertexType":"NORMAL"},"legGeometry":{"points":"ijnfHhaupL@NC`Aw@lB{AfDbAtAFIxAGfEUz@AzAtAlCcHd@aAL]Na@\\\\t@`@fAd@h@ZB@\\TjAnAh@h@Lr@r@n@^V\\CDIx@r@","length":29},"rentedBike":false,"transitLeg":false,"duration":798.0,"steps":[{"distance":162.559,"relativeDirection":"DEPART","streetName":"Rue Thérèse-Casgrain","absoluteDirection":"WEST","stayOn":false,"area":false,"bogusName":false,"lon":-71.05572228309161,"lat":48.411415130346974,"elevation":[]},{"distance":105.095,"relativeDirection":"LEFT","streetName":"path","absoluteDirection":"SOUTHWEST","stayOn":false,"area":false,"bogusName":true,"lon":-71.0575299,"lat":48.412162300000006,"elevation":[]},{"distance":205.04399999999998,"relativeDirection":"CONTINUE","streetName":"Rue Chopin","absoluteDirection":"SOUTH","stayOn":false,"area":false,"bogusName":false,"lon":-71.0578622,"lat":48.411338,"elevation":[]},{"distance":194.993,"relativeDirection":"LEFT","streetName":"Rue des Champs-Élysées","absoluteDirection":"SOUTHEAST","stayOn":false,"area":false,"bogusName":false,"lon":-71.0581732,"lat":48.4095789,"elevation":[]},{"distance":354.603,"relativeDirection":"RIGHT","streetName":"parking aisle","absoluteDirection":"SOUTHWEST","stayOn":false,"area":false,"bogusName":true,"lon":-71.0560683,"lat":48.4085206,"elevation":[]}]}],"tooSloped":false},{"duration":745,"startTime":1522690854000,"endTime":1522691599000,"walkTime":698,"transitTime":45,"waitingTime":2,"walkDistance":886.008406008184,"walkLimitExceeded":false,"elevationLost":0.0,"elevationGained":0.0,"transfers":0,"legs":[{"startTime":1522690854000,"endTime":1522691253000,"departureDelay":0,"arrivalDelay":0,"realTime":false,"distance":502.662,"pathway":false,"mode":"WALK","route":"","agencyTimeZoneOffset":-14400000,"interlineWithPreviousLeg":false,"from":{"name":"Origin","lon":-71.055806,"lat":48.411618,"departure":1522690854000,"orig":"","vertexType":"NORMAL"},"to":{"name":"Champs-Élysées / Chopin","stopId":"1:570","stopCode":"570","lon":-71.058565,"lat":48.409684,"arrival":1522691253000,"departure":1522691254000,"zoneId":"NA","stopIndex":11,"stopSequence":12,"vertexType":"TRANSIT"},"legGeometry":{"points":"ijnfHhaupL@NC`Aw@lB{AfDbAtAFIxAGfEUz@AzAtAa@|@?@","length":13},"rentedBike":false,"transitLeg":false,"duration":399.0,"steps":[{"distance":162.559,"relativeDirection":"DEPART","streetName":"Rue Thérèse-Casgrain","absoluteDirection":"WEST","stayOn":false,"area":false,"bogusName":false,"lon":-71.05572228309161,"lat":48.411415130346974,"elevation":[]},{"distance":105.095,"relativeDirection":"LEFT","streetName":"path","absoluteDirection":"SOUTHWEST","stayOn":false,"area":false,"bogusName":true,"lon":-71.0575299,"lat":48.412162300000006,"elevation":[]},{"distance":205.04399999999998,"relativeDirection":"CONTINUE","streetName":"Rue Chopin","absoluteDirection":"SOUTH","stayOn":false,"area":false,"bogusName":false,"lon":-71.0578622,"lat":48.411338,"elevation":[]},{"distance":29.964000000000002,"relativeDirection":"RIGHT","streetName":"Rue des Champs-Élysées","absoluteDirection":"NORTHWEST","stayOn":false,"area":false,"bogusName":false,"lon":-71.0581732,"lat":48.4095789,"elevation":[]}]},{"startTime":1522691254000,"endTime":1522691299000,"departureDelay":0,"arrivalDelay":0,"realTime":false,"distance":253.7273627267948,"pathway":false,"mode":"BUS","route":"12","agencyName":"Société de Transport du Saguenay","agencyUrl":"http://ville.saguenay.ca/fr/services-aux-citoyens/transport-sts","agencyTimeZoneOffset":-14400000,"routeColor":"556B2F","routeType":3,"routeId":"1:12","routeTextColor":"FFFFFF","interlineWithPreviousLeg":false,"tripBlockId":"29","headsign":"Terminus Chicoutimi","agencyId":"0","tripId":"1:218066","serviceDate":"20180402","from":{"name":"Champs-Élysées / Chopin","stopId":"1:570","stopCode":"570","lon":-71.058565,"lat":48.409684,"arrival":1522691253000,"departure":1522691254000,"zoneId":"NA","stopIndex":11,"stopSequence":12,"vertexType":"TRANSIT"},"to":{"name":"Place du Saguenay (Champs-Élysées)","stopId":"1:571","stopCode":"571","lon":-71.055824,"lat":48.408307,"arrival":1522691299000,"departure":1522691300000,"zoneId":"NA","stopIndex":12,"stopSequence":13,"vertexType":"TRANSIT"},"legGeometry":{"points":"o_nfH`supLrGcP","length":2},"routeShortName":"12","routeLongName":"Rivière du Moulin","rentedBike":false,"transitLeg":true,"duration":45.0,"steps":[]},{"startTime":1522691300000,"endTime":1522691599000,"departureDelay":0,"arrivalDelay":0,"realTime":false,"distance":383.13399999999996,"pathway":false,"mode":"WALK","route":"","agencyTimeZoneOffset":-14400000,"interlineWithPreviousLeg":false,"from":{"name":"Place du Saguenay (Champs-Élysées)","stopId":"1:571","stopCode":"571","lon":-71.055824,"lat":48.408307,"arrival":1522691299000,"departure":1522691300000,"zoneId":"NA","stopIndex":12,"stopSequence":13,"vertexType":"TRANSIT"},"to":{"name":"Destination","lon":-71.058711,"lat":48.405991,"arrival":1522691599000,"orig":"","vertexType":"NORMAL"},"legGeometry":{"points":"iwmfHnaupL]|@\\\\t@`@fAd@h@ZB@\\TjAnAh@h@Lr@r@n@^V\\CDIx@r@","length":16},"rentedBike":false,"transitLeg":false,"duration":299.0,"steps":[{"distance":28.531,"relativeDirection":"DEPART","streetName":"Rue des Champs-Élysées","absoluteDirection":"NORTHWEST","stayOn":false,"area":false,"bogusName":false,"lon":-71.05575512063196,"lat":48.408370203803415,"elevation":[]},{"distance":354.603,"relativeDirection":"LEFT","streetName":"parking aisle","absoluteDirection":"SOUTHWEST","stayOn":false,"area":false,"bogusName":true,"lon":-71.0560683,"lat":48.4085206,"elevation":[]}]}],"tooSloped":false}]},"debugOutput":{"precalculationTime":44,"pathCalculationTime":26,"pathTimes":[13,6,7],"renderingTime":1,"totalTime":71,"timedOut":false},"elevationMetadata":{"ellipsoidToGeoidDifference":-28.885904201182168,"geoidElevation":false}}