{"requestParameters":{"date":"2018/04/02","walkSpeed":"1.33","walkReluctance":"2.0","fromPlace":"48.415484,-71.062321","maxWalkDistance":"3000","waitReluctance":"1.0","carSpeed":"33","numItineraries":"3","waitAtBeginningFactor":"0.4","mode":"TRANSIT,WALK","ignoreRealtimeUpdates":"false","stairsReluctance":"2.0","toPlace":"48.405991,-71.058711","time":"9:15:00"},"plan":{"date":1522674900000,"from":{"name":"Origin","lon":-71.062321,"lat":48.415484,"orig":"","vertexType":"NORMAL"},"to":{"name":"Destination","lon":-71.058711,"lat":48.405991,"orig":"","vertexType":"NORMAL"},"itineraries":[{"duration":1052,"startTime":1522674900000,"endTime":1522675952000,"walkTime":1052,"transitTime":0,"waitingTime":0,"walkDistance":1348.8778571382475,"walkLimitExceeded":false,"elevationLost":0.0,"elevationGained":0.0,"transfers":0,"legs":[{"startTime":1522674900000,"endTime":1522675952000,"departureDelay":0,"arrivalDelay":0,"realTime":false,"distance":1348.7350000000001,"pathway":false,"mode":"WALK","route":"","agencyTimeZoneOffset":-14400000,"interlineWithPreviousLeg":false,"from":{"name":"Origin","lon":-71.062321,"lat":48.415484,"departure":1522674900000,"orig":"","vertexType":"NORMAL"},"to":{"name":"Destination","lon":-71.058711,"lat":48.405991,"arrival":1522675952000,"orig":"","vertexType":"NORMAL"},"legGeometry":{"points":"adofHbkvpLd@h@nAoDd@qA??hAcDXa@^e@bAq@~@OxCc@LABA|Fs@B?hAMvC_@`@a@n@}A?A`@}@lCcHd@aAL]Na@\\\\t@`@fAd@h@ZB@\\TjAnAh@h@Lr@r@n@^V\\CDIx@r@","length":39},"rentedBike":false,"transitLeg":false,"duration":1052.0,"steps":[{"distance":25.771,"relativeDirection":"DEPART","streetName":"Rue Georges-Vanier","absoluteDirection":"SOUTHWEST","stayOn":false,"area":false,"bogusName":false,"lon":-71.06241739732567,"lat":48.415530536359974,"elevation":[]},{"distance":968.3610000000002,"relativeDirection":"LEFT","streetName":"Rue des Champs-Élysées","absoluteDirection":"SOUTHEAST","stayOn":false,"area":false,"bogusName":false,"lon":-71.0626228,"lat":48.4153431,"elevation":[]},{"distance":354.603,"relativeDirection":"RIGHT","streetName":"parking aisle","absoluteDirection":"SOUTHWEST","stayOn":false,"area":false,"bogusName":true,"lon":-71.0560683,"lat":48.4085206,"elevation":[]}]}],"tooSloped":false},{"duration":1240,"startTime":1522675303000,"endTime":1522676543000,"walkTime":655,"transitTime":583,"waitingTime":2,"walkDistance":844.6938345821477,"walkLimitExceeded":false,"elevationLost":0.0,"elevationGained":0.0,"transfers":0,"legs":[{"startTime":1522675303000,"endTime":1522675575000,"departureDelay":0,"arrivalDelay":0,"realTime":false,"distance":346.702,"pathway":false,"mode":"WALK","route":"","agencyTimeZoneOffset":-14400000,"interlineWithPreviousLeg":false,"from":{"name":"Origin","lon":-71.062321,"lat":48.415484,"departure":1522675303000,"orig":"","vertexType":"NORMAL"},"to":{"name":"Bégin / Youville","stopId":"1:2004","stopCode":"2004","lon":-71.066018,"lat":48.414996,"arrival":1522675575000,"departure":1522675576000,"zoneId":"NA","stopIndex":11,"stopSequence":12,"vertexType":"TRANSIT"},"legGeometry":{"points":"adofHbkvpLd@h@cA|FOh@GP??k@jBn@l@LNrCpCFFBB","length":12},"rentedBike":false,"transitLeg":false,"duration":272.0,"steps":[{"distance":25.771,"relativeDirection":"DEPART","streetName":"Rue Georges-Vanier","absoluteDirection":"SOUTHWEST","stayOn":false,"area":false,"bogusName":false,"lon":-71.06241739732567,"lat":48.415530536359974,"elevation":[]},{"distance":173.619,"relativeDirection":"RIGHT","streetName":"Rue des Champs-Élysées","absoluteDirection":"WEST","stayOn":false,"area":false,"bogusName":false,"lon":-71.0626228,"lat":48.4153431,"elevation":[]},{"distance":147.31199999999998,"relativeDirection":"LEFT","streetName":"Rue Bégin","absoluteDirection":"SOUTHWEST","stayOn":false,"area":false,"bogusName":false,"lon":-71.0647342,"lat":48.416021,"elevation":[]}]},{"startTime":1522675576000,"endTime":1522676159000,"departureDelay":0,"arrivalDelay":0,"realTime":false,"distance":2474.7895245149866,"pathway":false,"mode":"BUS","route":"15","agencyName":"Société de Transport du Saguenay","agencyUrl":"http://ville.saguenay.ca/fr/services-aux-citoyens/transport-sts","agencyTimeZoneOffset":-14400000,"routeColor":"FF00FF","routeType":3,"routeId":"1:15","routeTextColor":"FFFFFF","interlineWithPreviousLeg":false,"tripBlockId":"33","headsign":"Talbot / Barrette","agencyId":"0","tripId":"1:218177","serviceDate":"20180402","from":{"name":"Bégin / Youville","stopId":"1:2004","stopCode":"2004","lon":-71.066018,"lat":48.414996,"arrival":1522675575000,"departure":1522675576000,"zoneId":"NA","stopIndex":11,"stopSequence":12,"vertexType":"TRANSIT"},"to":{"name":"Saguenéens  / Bach","stopId":"1:575","stopCode":"575","lon":-71.061104,"lat":48.403689,"arrival":1522676159000,"departure":1522676160000,"zoneId":"NA","stopIndex":23,"stopSequence":24,"vertexType":"TRANSIT"},"legGeometry":{"points":"a`ofHh`wpL|J~JdAfALzDNzDrAdBrEKvBEbCv@d@TvFlC|DlBpMlGrB`AM}@hAwEC{B]oBiBmBsH_@_K{H`EgIvCaGfEoItDsH~DeI","length":26},"routeShortName":"15","routeLongName":"Term. Chic / Costco","rentedBike":false,"transitLeg":true,"duration":583.0,"steps":[]},{"startTime":1522676160000,"endTime":1522676543000,"departureDelay":0,"arrivalDelay":0,"realTime":false,"distance":497.858,"pathway":false,"mode":"WALK","route":"","agencyTimeZoneOffset":-14400000,"interlineWithPreviousLeg":false,"from":{"name":"Saguenéens  / Bach","stopId":"1:575","stopCode":"575","lon":-71.061104,"lat":48.403689,"arrival":1522676159000,"departure":1522676160000,"zoneId":"NA","stopIndex":23,"stopSequence":24,"vertexType":"TRANSIT"},"to":{"name":"Destination","lon":-71.058711,"lat":48.405991,"arrival":1522676543000,"orig":"","vertexType":"NORMAL"},"legGeometry":{"points":"wylfHfcvpLxBwFQQkF_Fs@~B[Y{BmByAkAGE","length":9},"rentedBike":false,"transitLeg":false,"duration":383.0,"steps":[{"distance":114.286,"relativeDirection":"DEPART","streetName":"Rue des Saguenéens","absoluteDirection":"SOUTHEAST","stayOn":false,"area":false,"bogusName":false,"lon":-71.0611521754673,"lat":48.403646208471976,"elevation":[]},{"distance":167.019,"relativeDirection":"LEFT","streetName":"Boulevard Talbot","absoluteDirection":"NORTHEAST","stayOn":false,"area":false,"bogusName":false,"lon":-71.0599121,"lat":48.403030900000005,"elevation":[]},{"distance":216.553,"relativeDirection":"LEFT","streetName":"parking aisle","absoluteDirection":"NORTHWEST","stayOn":false,"area":false,"bogusName":false,"lon":-71.0587038,"lat":48.4043008,"elevation":[]}]}],"tooSloped":false},{"duration":568,"startTime":1522676631000,"endTime":1522677199000,"walkTime":410,"transitTime":156,"waitingTime":2,"walkDistance":523.8686090195359,"walkLimitExceeded":false,"elevationLost":0.0,"elevationGained":0.0,"transfers":0,"legs":[{"startTime":1522676631000,"endTime":1522676742000,"departureDelay":0,"arrivalDelay":0,"realTime":false,"distance":140.64100000000002,"pathway":false,"mode":"WALK","route":"","agencyTimeZoneOffset":-14400000,"interlineWithPreviousLeg":false,"from":{"name":"Origin","lon":-71.062321,"lat":48.415484,"departure":1522676631000,"orig":"","vertexType":"NORMAL"},"to":{"name":"CEA Laure-Conan (Champs-Élysées)","stopId":"1:567","stopCode":"567","lon":-71.0614,"lat":48.4147,"arrival":1522676742000,"departure":1522676743000,"zoneId":"NA","stopIndex":8,"stopSequence":9,"vertexType":"TRANSIT"},"legGeometry":{"points":"adofHbkvpLd@h@nAoDd@qA","length":4},"rentedBike":false,"transitLeg":false,"duration":111.0,"steps":[{"distance":25.771,"relativeDirection":"DEPART","streetName":"Rue Georges-Vanier","absoluteDirection":"SOUTHWEST","stayOn":false,"area":false,"bogusName":false,"lon":-71.06241739732567,"lat":48.415530536359974,"elevation":[]},{"distance":114.87,"relativeDirection":"LEFT","streetName":"Rue des Champs-Élysées","absoluteDirection":"SOUTHEAST","stayOn":false,"area":false,"bogusName":false,"lon":-71.0626228,"lat":48.4153431,"elevation":[]}]},{"startTime":1522676743000,"endTime":1522676899000,"departureDelay":0,"arrivalDelay":0,"realTime":false,"distance":854.3804701190452,"pathway":false,"mode":"BUS","route":"12","agencyName":"Société de Transport du Saguenay","agencyUrl":"http://ville.saguenay.ca/fr/services-aux-citoyens/transport-sts","agencyTimeZoneOffset":-14400000,"routeColor":"556B2F","routeType":3,"routeId":"1:12","routeTextColor":"FFFFFF","interlineWithPreviousLeg":false,"tripBlockId":"29","headsign":"Terminus Chicoutimi","agencyId":"0","tripId":"1:218058","serviceDate":"20180402","from":{"name":"CEA Laure-Conan (Champs-Élysées)","stopId":"1:567","stopCode":"567","lon":-71.0614,"lat":48.4147,"arrival":1522676742000,"departure":1522676743000,"zoneId":"NA","stopIndex":8,"stopSequence":9,"vertexType":"TRANSIT"},"to":{"name":"Place du Saguenay (Champs-Élysées)","stopId":"1:571","stopCode":"571","lon":-71.055824,"lat":48.408307,"arrival":1522676899000,"departure":1522676900000,"zoneId":"NA","stopIndex":12,"stopSequence":13,"vertexType":"TRANSIT"},"legGeometry":{"points":"{~nfHxdvpLbAqDtBeCjFm@`Gs@hFo@xAmBrGcP","length":8},"routeShortName":"12","routeLongName":"Rivière du Moulin","rentedBike":false,"transitLeg":true,"duration":156.0,"steps":[]},{"startTime":1522676900000,"endTime":1522677199000,"departureDelay":0,"arrivalDelay":0,"realTime":false,"distance":383.13399999999996,"pathway":false,"mode":"WALK","route":"","agencyTimeZoneOffset":-14400000,"interlineWithPreviousLeg":false,"from":{"name":"Place du Saguenay (Champs-Élysées)","stopId":"1:571","stopCode":"571","lon":-71.055824,"lat":48.408307,"arrival":1522676899000,"departure":1522676900000,"zoneId":"NA","stopIndex":12,"stopSequence":13,"vertexType":"TRANSIT"},"to":{"name":"Destination","lon":-71.058711,"lat":48.405991,"arrival":1522677199000,"orig":"","vertexType":"NORMAL"},"legGeometry":{"points":"iwmfHnaupL]|@\\\\t@`@fAd@h@ZB@\\TjAnAh@h@Lr@r@n@^V\\CDIx@r@","length":16},"rentedBike":false,"transitLeg":false,"duration":299.0,"steps":[{"distance":28.531,"relativeDirection":"DEPART","streetName":"Rue des Champs-Élysées","absoluteDirection":"NORTHWEST","stayOn":false,"area":false,"bogusName":false,"lon":-71.05575512063196,"lat":48.408370203803415,"elevation":[]},{"distance":354.603,"relativeDirection":"LEFT","streetName":"parking aisle","absoluteDirection":"SOUTHWEST","stayOn":false,"area":false,"bogusName":true,"lon":-71.0560683,"lat":48.4085206,"elevation":[]}]}],"tooSloped":false}]},"debugOutput":{"precalculationTime":49,"pathCalculationTime":28,"pathTimes":[14,6,8],"renderingTime":1,"totalTime":78,"timedOut":false},"elevationMetadata":{"ellipsoidToGeoidDifference":-28.885904201182168,"geoidElevation":false}}