{"requestParameters":{"date":"2018/04/02","walkSpeed":"1.33","walkReluctance":"2.0","fromPlace":"48.424151,-71.091035","maxWalkDistance":"3000","waitReluctance":"1.0","carSpeed":"33","numItineraries":"3","waitAtBeginningFactor":"0.4","mode":"TRANSIT,WALK","ignoreRealtimeUpdates":"false","stairsReluctance":"2.0","toPlace":"48.401546,-71.062841","time":"15:30:00"},"plan":{"date":1522697400000,"from":{"name":"Origin","lon":-71.091035,"lat":48.424151,"orig":"","vertexType":"NORMAL"},"to":{"name":"Destination","lon":-71.062841,"lat":48.401546,"orig":"","vertexType":"NORMAL"},"itineraries":[{"duration":1742,"startTime":1522699177000,"endTime":1522700919000,"walkTime":558,"transitTime":1182,"waitingTime":2,"walkDistance":709.8028045057346,"walkLimitExceeded":false,"elevationLost":0.0,"elevationGained":0.0,"transfers":1,"legs":[{"startTime":1522699177000,"endTime":1522699384000,"departureDelay":0,"arrivalDelay":0,"realTime":false,"distance":254.862,"pathway":false,"mode":"WALK","route":"","agencyTimeZoneOffset":-14400000,"interlineWithPreviousLeg":false,"from":{"name":"Origin","lon":-71.091035,"lat":48.424151,"departure":1522699177000,"orig":"","vertexType":"NORMAL"},"to":{"name":"ch. de la Réserve / Albanel","stopId":"1:623","stopCode":"623","lon":-71.0885,"lat":48.4237,"arrival":1522699384000,"departure":1522699385000,"zoneId":"NA","stopIndex":28,"stopSequence":29,"vertexType":"TRANSIT"},"legGeometry":{"points":"k{pfHp|{pL|@iCoAoAfA_DRi@^eATf@??","length":8},"rentedBike":false,"transitLeg":false,"duration":207.0,"steps":[{"distance":61.461,"relativeDirection":"DEPART","streetName":"Rue du Stade","absoluteDirection":"SOUTHEAST","stayOn":false,"area":false,"bogusName":false,"lon":-71.09080475726259,"lat":48.42438118336711,"elevation":[]},{"distance":52.592,"relativeDirection":"LEFT","streetName":"Rue Émile Grouard","absoluteDirection":"NORTHEAST","stayOn":false,"area":false,"bogusName":false,"lon":-71.0901108,"lat":48.4240755,"elevation":[]},{"distance":121.227,"relativeDirection":"RIGHT","streetName":"Rue Albanel","absoluteDirection":"SOUTHEAST","stayOn":false,"area":false,"bogusName":false,"lon":-71.089719,"lat":48.42447060000001,"elevation":[]},{"distance":19.582,"relativeDirection":"RIGHT","streetName":"Chemin de la Réserve","absoluteDirection":"SOUTHWEST","stayOn":false,"area":false,"bogusName":false,"lon":-71.0883591,"lat":48.423858900000006,"elevation":[]}]},{"startTime":1522699385000,"endTime":1522699860000,"departureDelay":0,"arrivalDelay":0,"realTime":false,"distance":2160.2166227334155,"pathway":false,"mode":"BUS","route":"16","agencyName":"Société de Transport du Saguenay","agencyUrl":"http://ville.saguenay.ca/fr/services-aux-citoyens/transport-sts","agencyTimeZoneOffset":-14400000,"routeColor":"00FF00","routeType":3,"routeId":"1:16","routeTextColor":"000000","interlineWithPreviousLeg":false,"tripBlockId":"37","headsign":"Terminus Chicoutimi","agencyId":"0","tripId":"1:218321","serviceDate":"20180402","from":{"name":"ch. de la Réserve / Albanel","stopId":"1:623","stopCode":"623","lon":-71.0885,"lat":48.4237,"arrival":1522699384000,"departure":1522699385000,"zoneId":"NA","stopIndex":28,"stopSequence":29,"vertexType":"TRANSIT"},"to":{"name":"Terminus Chicoutimi","stopId":"1:1289","stopCode":"1289","lon":-71.066163,"lat":48.428677,"arrival":1522699860000,"departure":1522699860000,"zoneId":"NA","stopIndex":35,"stopSequence":36,"vertexType":"TRANSIT"},"legGeometry":{"points":"wwpfHzn{pLqBsFQ_@wA_DyAaD_AoBQ[sAuC{@sBeCcGqAwC[g@]a@aAw@[_@cA}A_@w@GU[iDWaDzByCv@cA`@e@TSp@g@nAo@nBm@ZSf@c@PMb@[b@_@b@e@PYP]N_@La@P{@NcB@IBcAG_A{@sEEg@oAP}@DiBDFeBMa@iBCq@FmBPFcEDoBNiHyDWN_HBoA@Y@m@","length":60},"routeShortName":"16","routeLongName":"Côte de la Réserve","rentedBike":false,"transitLeg":true,"duration":475.0,"steps":[]},{"startTime":1522699860000,"endTime":1522700567000,"departureDelay":0,"arrivalDelay":0,"realTime":false,"distance":3763.569448257212,"pathway":false,"mode":"BUS","route":"415S","agencyName":"Société de Transport du Saguenay","agencyUrl":"http://ville.saguenay.ca/fr/services-aux-citoyens/transport-sts","agencyTimeZoneOffset":-14400000,"routeColor":"8B0000","routeType":3,"routeId":"1:415S","routeTextColor":"FFFFFF","interlineWithPreviousLeg":false,"tripBlockId":"68","headsign":"Costco","agencyId":"0","tripId":"1:218587","serviceDate":"20180402","from":{"name":"Terminus Chicoutimi","stopId":"1:1289","stopCode":"1289","lon":-71.066163,"lat":48.428677,"arrival":1522699860000,"departure":1522699860000,"zoneId":"NA","stopIndex":0,"stopSequence":1,"vertexType":"TRANSIT"},"to":{"name":"Saguenéens (no. 250)","stopId":"1:2107","stopCode":"2107","lon":-71.063122,"lat":48.40452,"arrival":1522700567000,"departure":1522700568000,"zoneId":"NA","stopIndex":15,"stopSequence":16,"vertexType":"TRANSIT"},"legGeometry":{"points":"kwqfHjbwpLF_CzDX|BXfCNF}D@YRcFJgLNuNDkCHkFVoKT}@dBnBBBpInIdG`GtFrFv@p@hCvCf@f@lJjJpLpLj@n@nAlA`BbBxD~DnBvBvBjBd@Tv@FzBD^Bt@Pd@TRLNJZXj@\\p@Rd@D~CEtBIh@@D@XFXHh@_B`CmGhC{GlBcFXm@^e@RQdA}@PAzCmC","length":58},"routeShortName":"415S","routeLongName":"Term. Chic / Costco","rentedBike":false,"transitLeg":true,"duration":707.0,"steps":[]},{"startTime":1522700568000,"endTime":1522700919000,"departureDelay":0,"arrivalDelay":0,"realTime":false,"distance":454.769,"pathway":false,"mode":"WALK","route":"","agencyTimeZoneOffset":-14400000,"interlineWithPreviousLeg":false,"from":{"name":"Saguenéens (no. 250)","stopId":"1:2107","stopCode":"2107","lon":-71.063122,"lat":48.40452,"arrival":1522700567000,"departure":1522700568000,"zoneId":"NA","stopIndex":15,"stopSequence":16,"vertexType":"TRANSIT"},"to":{"name":"Destination","lon":-71.062841,"lat":48.401546,"arrival":1522700919000,"orig":"","vertexType":"NORMAL"},"legGeometry":{"points":"s_mfHvnvpL`AkAdA_CFJFRDTJ^V\\~CfCRRb@Tt@j@h@f@~@iC`@gA","length":15},"rentedBike":false,"transitLeg":false,"duration":351.0,"steps":[{"distance":107.157,"relativeDirection":"DEPART","streetName":"Rue des Saguenéens","absoluteDirection":"SOUTHEAST","stayOn":false,"area":false,"bogusName":false,"lon":-71.0629911627914,"lat":48.404585857466685,"elevation":[]},{"distance":253.217,"relativeDirection":"RIGHT","streetName":"Rue Bach","absoluteDirection":"SOUTHWEST","stayOn":false,"area":false,"bogusName":false,"lon":-71.0619727,"lat":48.403908900000005,"elevation":[]},{"distance":94.395,"relativeDirection":"LEFT","streetName":"road","absoluteDirection":"SOUTHEAST","stayOn":false,"area":false,"bogusName":true,"lon":-71.06386160000001,"lat":48.402058200000006,"elevation":[]}]}],"tooSloped":false},{"duration":2663,"startTime":1522698686000,"endTime":1522701349000,"walkTime":1145,"transitTime":1516,"waitingTime":2,"walkDistance":1493.0122105219855,"walkLimitExceeded":false,"elevationLost":0.0,"elevationGained":0.0,"transfers":0,"legs":[{"startTime":1522698686000,"endTime":1522699659000,"departureDelay":0,"arrivalDelay":0,"realTime":false,"distance":1271.3490000000002,"pathway":false,"mode":"WALK","route":"","agencyTimeZoneOffset":-14400000,"interlineWithPreviousLeg":false,"from":{"name":"Origin","lon":-71.091035,"lat":48.424151,"departure":1522698686000,"orig":"","vertexType":"NORMAL"},"to":{"name":"boul. Saguenay / Albert","stopId":"1:158","stopCode":"158","lon":-71.089619,"lat":48.434041,"arrival":1522699659000,"departure":1522699660000,"zoneId":"NA","stopIndex":29,"stopSequence":30,"vertexType":"TRANSIT"},"legGeometry":{"points":"k{pfHp|{pLQj@wEiF??SQaCsAa@Y_Cu@}@KqBk@aC]eBEkGBm@?oBD{@EoAMaAYqAg@eAm@iBkAMMCJa@|ASdAGp@WnE","length":27},"rentedBike":false,"transitLeg":false,"duration":973.0,"steps":[{"distance":19.727,"relativeDirection":"DEPART","streetName":"Rue du Stade","absoluteDirection":"NORTHWEST","stayOn":false,"area":false,"bogusName":false,"lon":-71.09080475726259,"lat":48.42438118336711,"elevation":[]},{"distance":1081.943,"relativeDirection":"RIGHT","streetName":"Rue J.-R.-Théberge","absoluteDirection":"NORTHEAST","stayOn":false,"area":false,"bogusName":false,"lon":-71.09102750000001,"lat":48.4244793,"elevation":[]},{"distance":169.679,"relativeDirection":"LEFT","streetName":"Boulevard du Saguenay Ouest","absoluteDirection":"NORTHWEST","stayOn":false,"area":false,"bogusName":false,"lon":-71.0874263,"lat":48.433672300000005,"elevation":[]}]},{"startTime":1522699660000,"endTime":1522699860000,"departureDelay":0,"arrivalDelay":0,"realTime":false,"distance":1834.8912322043236,"pathway":false,"mode":"BUS","route":"3","agencyName":"Société de Transport du Saguenay","agencyUrl":"http://ville.saguenay.ca/fr/services-aux-citoyens/transport-sts","agencyTimeZoneOffset":-14400000,"routeColor":"FF0000","routeType":3,"routeId":"1:3","routeTextColor":"FFFFFF","interlineWithPreviousLeg":false,"tripBlockId":"7","headsign":"Terminus Chicoutimi","agencyId":"0","tripId":"1:217339","serviceDate":"20180402","from":{"name":"boul. Saguenay / Albert","stopId":"1:158","stopCode":"158","lon":-71.089619,"lat":48.434041,"arrival":1522699659000,"departure":1522699660000,"zoneId":"NA","stopIndex":29,"stopSequence":30,"vertexType":"TRANSIT"},"to":{"name":"Terminus Chicoutimi","stopId":"1:1289","stopCode":"1289","lon":-71.066163,"lat":48.428677,"arrival":1522699860000,"departure":1522700100000,"zoneId":"NA","stopIndex":32,"stopSequence":33,"vertexType":"TRANSIT"},"legGeometry":{"points":"exrfH`u{pLPiDN_BZcB`@mAxGgV|Ju^\\eBVgBLcB|@}^FkAF}DJyDPwGvAHVyL","length":17},"routeShortName":"3","routeLongName":"Chic/Jonq via Boul. Saguenay","rentedBike":false,"transitLeg":true,"duration":200.0,"steps":[]},{"startTime":1522700100000,"endTime":1522701176000,"departureDelay":0,"arrivalDelay":0,"realTime":false,"distance":5408.791385525205,"pathway":false,"mode":"BUS","route":"175","agencyName":"Société de Transport du Saguenay","agencyUrl":"http://ville.saguenay.ca/fr/services-aux-citoyens/transport-sts","agencyTimeZoneOffset":-14400000,"routeColor":"FF00FF","routeType":3,"routeId":"1:175","routeTextColor":"FFFFFF","interlineWithPreviousLeg":true,"tripBlockId":"7","headsign":"Costco","agencyId":"0","tripId":"1:217340","serviceDate":"20180402","from":{"name":"Terminus Chicoutimi","stopId":"1:1289","stopCode":"1289","lon":-71.066163,"lat":48.428677,"arrival":1522699860000,"departure":1522700100000,"zoneId":"NA","stopIndex":0,"stopSequence":1,"vertexType":"TRANSIT"},"to":{"name":"boul. Talbot (no. 1494) (Tim-Horton)","stopId":"1:1854","stopCode":"1854","lon":-71.060941,"lat":48.402118,"arrival":1522701176000,"departure":1522701177000,"zoneId":"NA","stopIndex":21,"stopSequence":22,"vertexType":"TRANSIT"},"legGeometry":{"points":"kvqfH~awpL~CgBbAqa@FwCBkAOsHAg@bAYUwMKoE@mB@kJ@iFbEf@xEj@iCtYp@r@z@`ABBvHtHXRx@l@VwAvAgB\\qBIuAC]g@yEzDuLbBbBvAxAMx@|@v@`A~@Xw@~D~DPxFZtA~ApE`N{LpFmEb@[ROl@[vDQXKfA[|@q@fAsBlEmMr@sBhCsKz@dAjB|@dM`GzCvAXrCr@~Gx@]PEr@ObACn@FrBb@|@Ch@Kx@U~HsB^KZ|DJpII~Fa@rFUzBi@bDUxAm@nCcAlDM^RTfD`D","length":81},"routeShortName":"175","routeLongName":"Term. Chic / Costco","rentedBike":false,"transitLeg":true,"duration":1076.0,"steps":[]},{"startTime":1522701177000,"endTime":1522701349000,"departureDelay":0,"arrivalDelay":0,"realTime":false,"distance":221.529,"pathway":false,"mode":"WALK","route":"","agencyTimeZoneOffset":-14400000,"interlineWithPreviousLeg":false,"from":{"name":"boul. Talbot (no. 1494) (Tim-Horton)","stopId":"1:1854","stopCode":"1854","lon":-71.060941,"lat":48.402118,"arrival":1522701176000,"departure":1522701177000,"zoneId":"NA","stopIndex":21,"stopSequence":22,"vertexType":"TRANSIT"},"to":{"name":"Destination","lon":-71.062841,"lat":48.401546,"arrival":1522701349000,"orig":"","vertexType":"NORMAL"},"legGeometry":{"points":"}olfHhavpLjAhAvBtB}AhE","length":4},"rentedBike":false,"transitLeg":false,"duration":172.0,"steps":[{"distance":130.24,"relativeDirection":"DEPART","streetName":"Boulevard Talbot","absoluteDirection":"SOUTHWEST","stayOn":false,"area":false,"bogusName":false,"lon":-71.06084575275527,"lat":48.40207691199218,"elevation":[]},{"distance":91.289,"relativeDirection":"RIGHT","streetName":"road","absoluteDirection":"NORTHWEST","stayOn":false,"area":false,"bogusName":false,"lon":-71.06180710000001,"lat":48.4010948,"elevation":[]}]}],"tooSloped":false},{"duration":2172,"startTime":1522700977000,"endTime":1522703149000,"walkTime":379,"transitTime":1551,"waitingTime":242,"walkDistance":476.5323533788976,"walkLimitExceeded":false,"elevationLost":0.0,"elevationGained":0.0,"transfers":1,"legs":[{"startTime":1522700977000,"endTime":1522701184000,"departureDelay":0,"arrivalDelay":0,"realTime":false,"distance":254.862,"pathway":false,"mode":"WALK","route":"","agencyTimeZoneOffset":-14400000,"interlineWithPreviousLeg":false,"from":{"name":"Origin","lon":-71.091035,"lat":48.424151,"departure":1522700977000,"orig":"","vertexType":"NORMAL"},"to":{"name":"ch. de la Réserve / Albanel","stopId":"1:623","stopCode":"623","lon":-71.0885,"lat":48.4237,"arrival":1522701184000,"departure":1522701185000,"zoneId":"NA","stopIndex":28,"stopSequence":29,"vertexType":"TRANSIT"},"legGeometry":{"points":"k{pfHp|{pL|@iCoAoAfA_DRi@^eATf@??","length":8},"rentedBike":false,"transitLeg":false,"duration":207.0,"steps":[{"distance":61.461,"relativeDirection":"DEPART","streetName":"Rue du Stade","absoluteDirection":"SOUTHEAST","stayOn":false,"area":false,"bogusName":false,"lon":-71.09080475726259,"lat":48.42438118336711,"elevation":[]},{"distance":52.592,"relativeDirection":"LEFT","streetName":"Rue Émile Grouard","absoluteDirection":"NORTHEAST","stayOn":false,"area":false,"bogusName":false,"lon":-71.0901108,"lat":48.4240755,"elevation":[]},{"distance":121.227,"relativeDirection":"RIGHT","streetName":"Rue Albanel","absoluteDirection":"SOUTHEAST","stayOn":false,"area":false,"bogusName":false,"lon":-71.089719,"lat":48.42447060000001,"elevation":[]},{"distance":19.582,"relativeDirection":"RIGHT","streetName":"Chemin de la Réserve","absoluteDirection":"SOUTHWEST","stayOn":false,"area":false,"bogusName":false,"lon":-71.0883591,"lat":48.423858900000006,"elevation":[]}]},{"startTime":1522701185000,"endTime":1522701660000,"departureDelay":0,"arrivalDelay":0,"realTime":false,"distance":2160.2166227334155,"pathway":false,"mode":"BUS","route":"16","agencyName":"Société de Transport du Saguenay","agencyUrl":"http://ville.saguenay.ca/fr/services-aux-citoyens/transport-sts","agencyTimeZoneOffset":-14400000,"routeColor":"00FF00","routeType":3,"routeId":"1:16","routeTextColor":"000000","interlineWithPreviousLeg":false,"tripBlockId":"34","headsign":"Terminus Chicoutimi","agencyId":"0","tripId":"1:218226","serviceDate":"20180402","from":{"name":"ch. de la Réserve / Albanel","stopId":"1:623","stopCode":"623","lon":-71.0885,"lat":48.4237,"arrival":1522701184000,"departure":1522701185000,"zoneId":"NA","stopIndex":28,"stopSequence":29,"vertexType":"TRANSIT"},"to":{"name":"Terminus Chicoutimi","stopId":"1:1289","stopCode":"1289","lon":-71.066163,"lat":48.428677,"arrival":1522701660000,"departure":1522701900000,"zoneId":"NA","stopIndex":35,"stopSequence":36,"vertexType":"TRANSIT"},"legGeometry":{"points":"wwpfHzn{pLqBsFQ_@wA_DyAaD_AoBQ[sAuC{@sBeCcGqAwC[g@]a@aAw@[_@cA}A_@w@GU[iDWaDzByCv@cA`@e@TSp@g@nAo@nBm@ZSf@c@PMb@[b@_@b@e@PYP]N_@La@P{@NcB@IBcAG_A{@sEEg@oAP}@DiBDFeBMa@iBCq@FmBPFcEDoBNiHyDWN_HBoA@Y@m@","length":60},"routeShortName":"16","routeLongName":"Côte de la Réserve","rentedBike":false,"transitLeg":true,"duration":475.0,"steps":[]},{"startTime":1522701900000,"endTime":1522702976000,"departureDelay":0,"arrivalDelay":0,"realTime":false,"distance":5408.791385525205,"pathway":false,"mode":"BUS","route":"175","agencyName":"Société de Transport du Saguenay","agencyUrl":"http://ville.saguenay.ca/fr/services-aux-citoyens/transport-sts","agencyTimeZoneOffset":-14400000,"routeColor":"FF00FF","routeType":3,"routeId":"1:175","routeTextColor":"FFFFFF","interlineWithPreviousLeg":false,"tripBlockId":"8","headsign":"Costco","agencyId":"0","tripId":"1:217377","serviceDate":"20180402","from":{"name":"Terminus Chicoutimi","stopId":"1:1289","stopCode":"1289","lon":-71.066163,"lat":48.428677,"arrival":1522701660000,"departure":1522701900000,"zoneId":"NA","stopIndex":0,"stopSequence":1,"vertexType":"TRANSIT"},"to":{"name":"boul. Talbot (no. 1494) (Tim-Horton)","stopId":"1:1854","stopCode":"1854","lon":-71.060941,"lat":48.402118,"arrival":1522702976000,"departure":1522702977000,"zoneId":"NA","stopIndex":21,"stopSequence":22,"vertexType":"TRANSIT"},"legGeometry":{"points":"kvqfH~awpL~CgBbAqa@FwCBkAOsHAg@bAYUwMKoE@mB@kJ@iFbEf@xEj@iCtYp@r@z@`ABBvHtHXRx@l@VwAvAgB\\qBIuAC]g@yEzDuLbBbBvAxAMx@|@v@`A~@Xw@~D~DPxFZtA~ApE`N{LpFmEb@[ROl@[vDQXKfA[|@q@fAsBlEmMr@sBhCsKz@dAjB|@dM`GzCvAXrCr@~Gx@]PEr@ObACn@FrBb@|@Ch@Kx@U~HsB^KZ|DJpII~Fa@rFUzBi@bDUxAm@nCcAlDM^RTfD`D","length":81},"routeShortName":"175","routeLongName":"Term. Chic / Costco","rentedBike":false,"transitLeg":true,"duration":1076.0,"steps":[]},{"startTime":1522702977000,"endTime":1522703149000,"departureDelay":0,"arrivalDelay":0,"realTime":false,"distance":221.529,"pathway":false,"mode":"WALK","route":"","agencyTimeZoneOffset":-14400000,"interlineWithPreviousLeg":false,"from":{"name":"boul. Talbot (no. 1494) (Tim-Horton)","stopId":"1:1854","stopCode":"1854","lon":-71.060941,"lat":48.402118,"arrival":1522702976000,"departure":1522702977000,"zoneId":"NA","stopIndex":21,"stopSequence":22,"vertexType":"TRANSIT"},"to":{"name":"Destination","lon":-71.062841,"lat":48.401546,"arrival":1522703149000,"orig":"","vertexType":"NORMAL"},"legGeometry":{"points":"}olfHhavpLjAhAvBtB}AhE","length":4},"rentedBike":false,"transitLeg":false,"duration":172.0,"steps":[{"distance":130.24,"relativeDirection":"DEPART","streetName":"Boulevard Talbot","absoluteDirection":"SOUTHWEST","stayOn":false,"area":false,"bogusName":false,"lon":-71.06084575275527,"lat":48.40207691199218,"elevation":[]},{"distance":91.289,"relativeDirection":"RIGHT","streetName":"road","absoluteDirection":"NORTHWEST","stayOn":false,"area":false,"bogusName":false,"lon":-71.06180710000001,"lat":48.4010948,"elevation":[]}]}],"tooSloped":false}]},"debugOutput":{"precalculationTime":21,"pathCalculationTime":25,"pathTimes":[15,4,6],"renderingTime":0,"totalTime":46,"timedOut":false},"elevationMetadata":{"ellipsoidToGeoidDifference":-28.885904201182168,"geoidElevation":false}}