{"requestParameters":{"date":"2018/04/02","walkSpeed":"1.33","walkReluctance":"2.0","fromPlace":"48.395997,-71.081066","maxWalkDistance":"3000","waitReluctance":"1.0","carSpeed":"33","numItineraries":"3","waitAtBeginningFactor":"0.4","mode":"TRANSIT,WALK","ignoreRealtimeUpdates":"false","stairsReluctance":"2.0","toPlace":"48.403995,-71.09676","time":"12:10:00"},"plan":{"date":1522685400000,"from":{"name":"Origin","lon":-71.081066,"lat":48.395997,"orig":"","vertexType":"NORMAL"},"to":{"name":"Destination","lon":-71.09676,"lat":48.403995,"orig":"","vertexType":"NORMAL"},"itineraries":[{"duration":1311,"startTime":1522685400000,"endTime":1522686711000,"walkTime":1311,"transitTime":0,"waitingTime":0,"walkDistance":1711.629781951248,"walkLimitExceeded":false,"elevationLost":0.0,"elevationGained":0.0,"transfers":0,"legs":[{"startTime":1522685400000,"endTime":1522686711000,"departureDelay":0,"arrivalDelay":0,"realTime":false,"distance":1711.5169999999998,"pathway":false,"mode":"WALK","route":"","agencyTimeZoneOffset":-14400000,"interlineWithPreviousLeg":false,"from":{"name":"Origin","lon":-71.081066,"lat":48.395997,"departure":1522685400000,"orig":"","vertexType":"NORMAL"},"to":{"name":"Destination","lon":-71.09676,"lat":48.403995,"arrival":1522686711000,"orig":"","vertexType":"NORMAL"},"legGeometry":{"points":"aikfHt`zpLy@rBeAhDOO}C_D{@y@EE}@_As@pCKd@{@lD_@|AcBnICJ{@~DmA|F}AxIc@lBCJy@xDwAtGi@Xa@jAA?{EvMy@tBGPsCrHOQKM","length":30},"rentedBike":false,"transitLeg":false,"duration":1311.0,"steps":[{"distance":127.46600000000001,"relativeDirection":"DEPART","streetName":"Rue Mauriac","absoluteDirection":"NORTHWEST","stayOn":false,"area":false,"bogusName":false,"lon":-71.08122667371514,"lat":48.39585458588334,"elevation":[]},{"distance":201.998,"relativeDirection":"RIGHT","streetName":"Rue Malraux","absoluteDirection":"NORTHEAST","stayOn":false,"area":false,"bogusName":false,"lon":-71.0826531,"lat":48.396498900000005,"elevation":[]},{"distance":913.406,"relativeDirection":"LEFT","streetName":"bike path","absoluteDirection":"NORTHWEST","stayOn":false,"area":false,"bogusName":true,"lon":-71.0811336,"lat":48.3980096,"elevation":[]},{"distance":449.30899999999997,"relativeDirection":"SLIGHTLY_LEFT","streetName":"Boulevard Barrette","absoluteDirection":"NORTHWEST","stayOn":false,"area":false,"bogusName":false,"lon":-71.0921587,"lat":48.401604500000005,"elevation":[]},{"distance":19.338,"relativeDirection":"RIGHT","streetName":"Boulevard Saint-Paul","absoluteDirection":"NORTHEAST","stayOn":false,"area":false,"bogusName":false,"lon":-71.0971116,"lat":48.4039529,"elevation":[]}]}],"tooSloped":false},{"duration":675,"startTime":1522686933000,"endTime":1522687608000,"walkTime":596,"transitTime":77,"waitingTime":2,"walkDistance":766.8248872146609,"walkLimitExceeded":false,"elevationLost":0.0,"elevationGained":0.0,"transfers":0,"legs":[{"startTime":1522686933000,"endTime":1522687042000,"departureDelay":0,"arrivalDelay":0,"realTime":false,"distance":137.77200000000002,"pathway":false,"mode":"WALK","route":"","agencyTimeZoneOffset":-14400000,"interlineWithPreviousLeg":false,"from":{"name":"Origin","lon":-71.081066,"lat":48.395997,"departure":1522686933000,"orig":"","vertexType":"NORMAL"},"to":{"name":"Malraux / Mauriac","stopId":"1:1979","stopCode":"1979","lon":-71.082747,"lat":48.396652,"arrival":1522687042000,"departure":1522687043000,"zoneId":"NA","stopIndex":25,"stopSequence":26,"vertexType":"TRANSIT"},"legGeometry":{"points":"aikfHt`zpLy@rBeAhDOO","length":4},"rentedBike":false,"transitLeg":false,"duration":109.0,"steps":[{"distance":127.46600000000001,"relativeDirection":"DEPART","streetName":"Rue Mauriac","absoluteDirection":"NORTHWEST","stayOn":false,"area":false,"bogusName":false,"lon":-71.08122667371514,"lat":48.39585458588334,"elevation":[]},{"distance":10.306,"relativeDirection":"RIGHT","streetName":"Rue Malraux","absoluteDirection":"NORTHEAST","stayOn":false,"area":false,"bogusName":false,"lon":-71.0826531,"lat":48.396498900000005,"elevation":[]}]},{"startTime":1522687043000,"endTime":1522687120000,"departureDelay":0,"arrivalDelay":0,"realTime":false,"distance":1025.3884664159339,"pathway":false,"mode":"BUS","route":"14","agencyName":"Société de Transport du Saguenay","agencyUrl":"http://ville.saguenay.ca/fr/services-aux-citoyens/transport-sts","agencyTimeZoneOffset":-14400000,"routeColor":"C0C000","routeType":3,"routeId":"1:14","routeTextColor":"000000","interlineWithPreviousLeg":false,"tripBlockId":"32","headsign":"Talbot / Barrette","agencyId":"0","tripId":"1:218158","serviceDate":"20180402","from":{"name":"Malraux / Mauriac","stopId":"1:1979","stopCode":"1979","lon":-71.082747,"lat":48.396652,"arrival":1522687042000,"departure":1522687043000,"zoneId":"NA","stopIndex":25,"stopSequence":26,"vertexType":"TRANSIT"},"to":{"name":"Malraux / Pagnol","stopId":"1:1978","stopCode":"1978","lon":-71.093388,"lat":48.400416,"arrival":1522687120000,"departure":1522687121000,"zoneId":"NA","stopIndex":29,"stopSequence":30,"vertexType":"TRANSIT"},"legGeometry":{"points":"umkfHlizpL`BhB?pHaBhRqAbLK~@qBxFqB|FcC~GyC\\aDkD","length":11},"routeShortName":"14","routeLongName":"Coopérative","rentedBike":false,"transitLeg":true,"duration":77.0,"steps":[]},{"startTime":1522687121000,"endTime":1522687608000,"departureDelay":0,"arrivalDelay":0,"realTime":false,"distance":628.948,"pathway":false,"mode":"WALK","route":"","agencyTimeZoneOffset":-14400000,"interlineWithPreviousLeg":false,"from":{"name":"Malraux / Pagnol","stopId":"1:1978","stopCode":"1978","lon":-71.093388,"lat":48.400416,"arrival":1522687120000,"departure":1522687121000,"zoneId":"NA","stopIndex":29,"stopSequence":30,"vertexType":"TRANSIT"},"to":{"name":"Destination","lon":-71.09676,"lat":48.403995,"arrival":1522687608000,"orig":"","vertexType":"NORMAL"},"legGeometry":{"points":"selfHzl|pLkF{Fa@jAA?{EvMy@tBGPsCrHOQKM","length":10},"rentedBike":false,"transitLeg":false,"duration":487.0,"steps":[{"distance":160.301,"relativeDirection":"DEPART","streetName":"Rue Malraux","absoluteDirection":"NORTHEAST","stayOn":false,"area":false,"bogusName":false,"lon":-71.09341079342245,"lat":48.40042668071038,"elevation":[]},{"distance":449.30899999999997,"relativeDirection":"LEFT","streetName":"Boulevard Barrette","absoluteDirection":"NORTHWEST","stayOn":false,"area":false,"bogusName":false,"lon":-71.0921587,"lat":48.401604500000005,"elevation":[]},{"distance":19.338,"relativeDirection":"RIGHT","streetName":"Boulevard Saint-Paul","absoluteDirection":"NORTHEAST","stayOn":false,"area":false,"bogusName":false,"lon":-71.0971116,"lat":48.4039529,"elevation":[]}]}],"tooSloped":false},{"duration":887,"startTime":1522687071000,"endTime":1522687958000,"walkTime":806,"transitTime":79,"waitingTime":2,"walkDistance":1036.583097739873,"walkLimitExceeded":false,"elevationLost":0.0,"elevationGained":0.0,"transfers":0,"legs":[{"startTime":1522687071000,"endTime":1522687386000,"departureDelay":0,"arrivalDelay":0,"realTime":false,"distance":402.99000000000007,"pathway":false,"mode":"WALK","route":"","agencyTimeZoneOffset":-14400000,"interlineWithPreviousLeg":false,"from":{"name":"Origin","lon":-71.081066,"lat":48.395997,"departure":1522687071000,"orig":"","vertexType":"NORMAL"},"to":{"name":"boul. Barrette / Bégin","stopId":"1:468","stopCode":"468","lon":-71.080331,"lat":48.397988,"arrival":1522687386000,"departure":1522687387000,"zoneId":"NA","stopIndex":3,"stopSequence":4,"vertexType":"TRANSIT"},"legGeometry":{"points":"aikfHt`zpLy@rBeAhDOO}C_D{@y@EE}@_AKIUSFUb@eB","length":12},"rentedBike":false,"transitLeg":false,"duration":315.0,"steps":[{"distance":127.46600000000001,"relativeDirection":"DEPART","streetName":"Rue Mauriac","absoluteDirection":"NORTHWEST","stayOn":false,"area":false,"bogusName":false,"lon":-71.08122667371514,"lat":48.39585458588334,"elevation":[]},{"distance":223.05999999999997,"relativeDirection":"RIGHT","streetName":"Rue Malraux","absoluteDirection":"NORTHEAST","stayOn":false,"area":false,"bogusName":false,"lon":-71.0826531,"lat":48.396498900000005,"elevation":[]},{"distance":52.464,"relativeDirection":"RIGHT","streetName":"Boulevard Barrette","absoluteDirection":"SOUTHEAST","stayOn":false,"area":false,"bogusName":false,"lon":-71.080988,"lat":48.3981725,"elevation":[]}]},{"startTime":1522687387000,"endTime":1522687466000,"departureDelay":0,"arrivalDelay":0,"realTime":false,"distance":1052.0822776498258,"pathway":false,"mode":"BUS","route":"14","agencyName":"Société de Transport du Saguenay","agencyUrl":"http://ville.saguenay.ca/fr/services-aux-citoyens/transport-sts","agencyTimeZoneOffset":-14400000,"routeColor":"C0C000","routeType":3,"routeId":"1:14","routeTextColor":"000000","interlineWithPreviousLeg":false,"tripBlockId":"33","headsign":"Terminus Chicoutimi","agencyId":"0","tripId":"1:218184","serviceDate":"20180402","from":{"name":"boul. Barrette / Bégin","stopId":"1:468","stopCode":"468","lon":-71.080331,"lat":48.397988,"arrival":1522687386000,"departure":1522687387000,"zoneId":"NA","stopIndex":3,"stopSequence":4,"vertexType":"TRANSIT"},"to":{"name":"Malraux / Pagnol","stopId":"1:441","stopCode":"441","lon":-71.09356,"lat":48.400447,"arrival":1522687466000,"departure":1522687467000,"zoneId":"NA","stopIndex":6,"stopSequence":7,"vertexType":"TRANSIT"},"legGeometry":{"points":"cvkfHf{ypLgChLmCzMwGd\\aDxOdFtF","length":6},"routeShortName":"14","routeLongName":"Coopérative","rentedBike":false,"transitLeg":true,"duration":79.0,"steps":[]},{"startTime":1522687467000,"endTime":1522687958000,"departureDelay":0,"arrivalDelay":0,"realTime":false,"distance":633.4540000000001,"pathway":false,"mode":"WALK","route":"","agencyTimeZoneOffset":-14400000,"interlineWithPreviousLeg":false,"from":{"name":"Malraux / Pagnol","stopId":"1:441","stopCode":"441","lon":-71.09356,"lat":48.400447,"arrival":1522687466000,"departure":1522687467000,"zoneId":"NA","stopIndex":6,"stopSequence":7,"vertexType":"TRANSIT"},"to":{"name":"Destination","lon":-71.09676,"lat":48.403995,"arrival":1522687958000,"orig":"","vertexType":"NORMAL"},"legGeometry":{"points":"melfH`m|pLEEkF{Fa@jAA?{EvMy@tBGPsCrHOQKM","length":11},"rentedBike":false,"transitLeg":false,"duration":491.0,"steps":[{"distance":164.807,"relativeDirection":"DEPART","streetName":"Rue Malraux","absoluteDirection":"NORTHEAST","stayOn":false,"area":false,"bogusName":false,"lon":-71.0934459868607,"lat":48.400393574945504,"elevation":[]},{"distance":449.30899999999997,"relativeDirection":"LEFT","streetName":"Boulevard Barrette","absoluteDirection":"NORTHWEST","stayOn":false,"area":false,"bogusName":false,"lon":-71.0921587,"lat":48.401604500000005,"elevation":[]},{"distance":19.338,"relativeDirection":"RIGHT","streetName":"Boulevard Saint-Paul","absoluteDirection":"NORTHEAST","stayOn":false,"area":false,"bogusName":false,"lon":-71.0971116,"lat":48.4039529,"elevation":[]}]}],"tooSloped":false}]},"debugOutput":{"precalculationTime":16,"pathCalculationTime":17,"pathTimes":[13,2,2],"renderingTime":0,"totalTime":33,"timedOut":false},"elevationMetadata":{"ellipsoidToGeoidDifference":-28.885904201182168,"geoidElevation":false}}