{"requestParameters":{"date":"2018/04/02","walkSpeed":"1.33","walkReluctance":"2.0","fromPlace":"48.428745,-71.05494099","maxWalkDistance":"3000","waitReluctance":"1.0","carSpeed":"33","numItineraries":"3","waitAtBeginningFactor":"0.4","mode":"TRANSIT,WALK","ignoreRealtimeUpdates":"false","stairsReluctance":"2.0","toPlace":"48.396952,-71.078943","time":"22:0:00"},"plan":{"date":1522720800000,"from":{"name":"Origin","lon":-71.05494099,"lat":48.428745,"orig":"","vertexType":"NORMAL"},"to":{"name":"Destination","lon":-71.078943,"lat":48.396952,"orig":"","vertexType":"NORMAL"},"itineraries":[{"duration":1926,"startTime":1522721756000,"endTime":1522723682000,"walkTime":866,"transitTime":1058,"waitingTime":2,"walkDistance":1113.9929398439472,"walkLimitExceeded":false,"elevationLost":0.0,"elevationGained":0.0,"transfers":0,"legs":[{"startTime":1522721756000,"endTime":1522721901000,"departureDelay":0,"arrivalDelay":0,"realTime":false,"distance":177.278,"pathway":false,"mode":"WALK","route":"","agencyTimeZoneOffset":-14400000,"interlineWithPreviousLeg":false,"from":{"name":"Origin","lon":-71.05494099,"lat":48.428745,"departure":1522721756000,"orig":"","vertexType":"NORMAL"},"to":{"name":"Hôtel-Dieu / Riverin","stopId":"1:339","stopCode":"339","lon":-71.054645,"lat":48.427256,"arrival":1522721901000,"departure":1522721902000,"zoneId":"NA","stopIndex":3,"stopSequence":4,"vertexType":"TRANSIT"},"legGeometry":{"points":"cuqfH~ztpLf@`BfD{@LAPDNs@","length":6},"rentedBike":false,"transitLeg":false,"duration":145.0,"steps":[{"distance":42.209,"relativeDirection":"DEPART","streetName":"Rue Racine Est","absoluteDirection":"SOUTHWEST","stayOn":false,"area":false,"bogusName":false,"lon":-71.05471815534266,"lat":48.42850156140915,"elevation":[]},{"distance":113.631,"relativeDirection":"LEFT","streetName":"Rue Riverin","absoluteDirection":"SOUTH","stayOn":false,"area":false,"bogusName":false,"lon":-71.0552071,"lat":48.4283045,"elevation":[]},{"distance":21.438,"relativeDirection":"LEFT","streetName":"Rue Saint-François-Xavier","absoluteDirection":"SOUTHEAST","stayOn":false,"area":false,"bogusName":false,"lon":-71.0549292,"lat":48.427308700000005,"elevation":[]}]},{"startTime":1522721902000,"endTime":1522722960000,"departureDelay":0,"arrivalDelay":0,"realTime":false,"distance":5541.463107828689,"pathway":false,"mode":"BUS","route":"175","agencyName":"Société de Transport du Saguenay","agencyUrl":"http://ville.saguenay.ca/fr/services-aux-citoyens/transport-sts","agencyTimeZoneOffset":-14400000,"routeColor":"FF00FF","routeType":3,"routeId":"1:175","routeTextColor":"FFFFFF","interlineWithPreviousLeg":false,"tripBlockId":"7","headsign":"Costco","agencyId":"0","tripId":"1:217352","serviceDate":"20180402","from":{"name":"Hôtel-Dieu / Riverin","stopId":"1:339","stopCode":"339","lon":-71.054645,"lat":48.427256,"arrival":1522721901000,"departure":1522721902000,"zoneId":"NA","stopIndex":3,"stopSequence":4,"vertexType":"TRANSIT"},"to":{"name":"boul. Talbot (no. 1870)","stopId":"1:1556","stopCode":"1556","lon":-71.069429,"lat":48.3951,"arrival":1522722960000,"departure":1522722961000,"zoneId":"NA","stopIndex":24,"stopSequence":25,"vertexType":"TRANSIT"},"legGeometry":{"points":"_nqfHrztpLKoE@mB@kJ@iFbEf@xEj@iCtYp@r@z@`ABBvHtHXRx@l@VwAvAgB\\qBIuAC]g@yEzDuLbBbBvAxAMx@|@v@`A~@Xw@~D~DPxFZtA~ApE`N{LpFmEb@[ROl@[vDQXKfA[|@q@fAsBlEmMr@sBhCsKz@dAjB|@dM`GzCvAXrCr@~Gx@]PEr@ObACn@FrBb@|@Ch@Kx@U~HsB^KZ|DJpII~Fa@rFUzBi@bDUxAm@nCcAlDM^RTfD`DjF`FjCrCrAvAbCfDjIfMdAzAfFpHd@n@nC`D","length":82},"routeShortName":"175","routeLongName":"Term. Chic / Costco","rentedBike":false,"transitLeg":true,"duration":1058.0,"steps":[]},{"startTime":1522722961000,"endTime":1522723682000,"departureDelay":0,"arrivalDelay":0,"realTime":false,"distance":936.5390000000001,"pathway":false,"mode":"WALK","route":"","agencyTimeZoneOffset":-14400000,"interlineWithPreviousLeg":false,"from":{"name":"boul. Talbot (no. 1870)","stopId":"1:1556","stopCode":"1556","lon":-71.069429,"lat":48.3951,"arrival":1522722960000,"departure":1522722961000,"zoneId":"NA","stopIndex":24,"stopSequence":25,"vertexType":"TRANSIT"},"to":{"name":"Destination","lon":-71.078943,"lat":48.396952,"arrival":1522723682000,"orig":"","vertexType":"NORMAL"},"legGeometry":{"points":"adkfHjvwpL~DxENPNN?H?PuCvH{@bC{@bCk@dBoA~EmAxEg@jBdAh@AN?LBNDLVZi@tAa@nAOEQLq@hC","length":24},"rentedBike":false,"transitLeg":false,"duration":721.0,"steps":[{"distance":155.26899999999998,"relativeDirection":"DEPART","streetName":"Boulevard Talbot","absoluteDirection":"SOUTHWEST","stayOn":false,"area":false,"bogusName":false,"lon":-71.0693341574882,"lat":48.39505259726926,"elevation":[]},{"distance":546.2370000000001,"relativeDirection":"RIGHT","streetName":"bike path","absoluteDirection":"WEST","stayOn":false,"area":false,"bogusName":true,"lon":-71.0705975,"lat":48.3939363,"elevation":[]},{"distance":41.863,"relativeDirection":"LEFT","streetName":"path","absoluteDirection":"SOUTH","stayOn":true,"area":false,"bogusName":true,"lon":-71.0768749,"lat":48.396494000000004,"elevation":[]},{"distance":40.991,"relativeDirection":"RIGHT","streetName":"Rue Jacques-Ferron","absoluteDirection":"WEST","stayOn":false,"area":false,"bogusName":false,"lon":-71.0770823,"lat":48.3961436,"elevation":[]},{"distance":74.603,"relativeDirection":"RIGHT","streetName":"path","absoluteDirection":"NORTHWEST","stayOn":false,"area":false,"bogusName":true,"lon":-71.077527,"lat":48.3959856,"elevation":[]},{"distance":77.576,"relativeDirection":"RIGHT","streetName":"Rue Rimbaud","absoluteDirection":"NORTH","stayOn":false,"area":false,"bogusName":false,"lon":-71.0783552,"lat":48.396369500000006,"elevation":[]}]}],"tooSloped":false},{"duration":2425,"startTime":1522721573000,"endTime":1522723998000,"walkTime":1038,"transitTime":1385,"waitingTime":2,"walkDistance":1324.233203000059,"walkLimitExceeded":false,"elevationLost":0.0,"elevationGained":0.0,"transfers":0,"legs":[{"startTime":1522721573000,"endTime":1522721934000,"departureDelay":0,"arrivalDelay":0,"realTime":false,"distance":442.044,"pathway":false,"mode":"WALK","route":"","agencyTimeZoneOffset":-14400000,"interlineWithPreviousLeg":false,"from":{"name":"Origin","lon":-71.05494099,"lat":48.428745,"departure":1522721573000,"orig":"","vertexType":"NORMAL"},"to":{"name":"Bégin / Jacques-Cartier","stopId":"1:67","stopCode":"67","lon":-71.055431,"lat":48.425501,"arrival":1522721934000,"departure":1522721935000,"zoneId":"NA","stopIndex":4,"stopSequence":5,"vertexType":"TRANSIT"},"legGeometry":{"points":"cuqfH~ztpLf@`BfD{@LAPD\\Jh@Vj@Vb@PrA\\@c@PyADSp@p@`@`@b@b@KZ","length":17},"rentedBike":false,"transitLeg":false,"duration":361.0,"steps":[{"distance":42.209,"relativeDirection":"DEPART","streetName":"Rue Racine Est","absoluteDirection":"SOUTHWEST","stayOn":false,"area":false,"bogusName":false,"lon":-71.05471815534266,"lat":48.42850156140915,"elevation":[]},{"distance":251.489,"relativeDirection":"LEFT","streetName":"Rue Riverin","absoluteDirection":"SOUTH","stayOn":false,"area":false,"bogusName":false,"lon":-71.0552071,"lat":48.4283045,"elevation":[]},{"distance":56.279,"relativeDirection":"LEFT","streetName":"Rue Jacques-Cartier Est","absoluteDirection":"EAST","stayOn":false,"area":false,"bogusName":false,"lon":-71.0554652,"lat":48.426123700000005,"elevation":[]},{"distance":80.02199999999999,"relativeDirection":"RIGHT","streetName":"Rue Bégin","absoluteDirection":"SOUTHWEST","stayOn":false,"area":false,"bogusName":false,"lon":-71.0547356,"lat":48.4259915,"elevation":[]},{"distance":12.045,"relativeDirection":"RIGHT","streetName":"Rue Gaudreault","absoluteDirection":"NORTHWEST","stayOn":false,"area":false,"bogusName":false,"lon":-71.0553392,"lat":48.4253936,"elevation":[]}]},{"startTime":1522721935000,"endTime":1522723320000,"departureDelay":0,"arrivalDelay":0,"realTime":false,"distance":7811.1755330523465,"pathway":false,"mode":"BUS","route":"15","agencyName":"Société de Transport du Saguenay","agencyUrl":"http://ville.saguenay.ca/fr/services-aux-citoyens/transport-sts","agencyTimeZoneOffset":-14400000,"routeColor":"FF00FF","routeType":3,"routeId":"1:15","routeTextColor":"FFFFFF","interlineWithPreviousLeg":false,"tripBlockId":"33","headsign":"Talbot / Barrette","agencyId":"0","tripId":"1:218203","serviceDate":"20180402","from":{"name":"Bégin / Jacques-Cartier","stopId":"1:67","stopCode":"67","lon":-71.055431,"lat":48.425501,"arrival":1522721934000,"departure":1522721935000,"zoneId":"NA","stopIndex":4,"stopSequence":5,"vertexType":"TRANSIT"},"to":{"name":"Roitelets / Sapins","stopId":"1:1543","stopCode":"1543","lon":-71.069553,"lat":48.393375,"arrival":1522723320000,"departure":1522723321000,"zoneId":"NA","stopIndex":35,"stopSequence":36,"vertexType":"TRANSIT"},"legGeometry":{"points":"_bqfHt~tpLvIpIr@r@\\mBfAaA`@gBOkB_@uF|DyL|DpDQ|@|@z@bA`ATw@dD~Ch@fA@`E~AjGuH`Iy@bBi@dCbEdEjJlJ`HbHlJpJ|J~JdAfALzDNzDrAdBrEKvBEbCv@d@TvFlC|DlBpMlGrB`AM}@hAwEC{B]oBiBmBsH_@_K{H`EgIvCaGfEoItDsH~DeItC{FnBoLbCaO?qLa@uJzF`ApF~@~@PzAgEeDcBf@qAWcKUqEx@Ef@ExDVjDxAFBrBvAfGjG@BjCzC~DxC@@zA~Cb@fCJlC?BsBre@?DWbOAn@?nEGnM@H\\hCzA~ELvAAlAi@jDo@nB","length":91},"routeShortName":"15","routeLongName":"Term. Chic / Costco","rentedBike":false,"transitLeg":true,"duration":1385.0,"steps":[]},{"startTime":1522723321000,"endTime":1522723998000,"departureDelay":0,"arrivalDelay":0,"realTime":false,"distance":881.958,"pathway":false,"mode":"WALK","route":"","agencyTimeZoneOffset":-14400000,"interlineWithPreviousLeg":false,"from":{"name":"Roitelets / Sapins","stopId":"1:1543","stopCode":"1543","lon":-71.069553,"lat":48.393375,"arrival":1522723320000,"departure":1522723321000,"zoneId":"NA","stopIndex":35,"stopSequence":36,"vertexType":"TRANSIT"},"to":{"name":"Destination","lon":-71.078943,"lat":48.396952,"arrival":1522723998000,"orig":"","vertexType":"NORMAL"},"legGeometry":{"points":"oyjfHxwwpL?@mAzCMHC@Qb@?H?PuCvH{@bC{@bCk@dBoA~EmAxEg@jBdAh@AN?LBNDLVZi@tAa@nAOEQLq@hC","length":26},"rentedBike":false,"transitLeg":false,"duration":677.0,"steps":[{"distance":646.925,"relativeDirection":"DEPART","streetName":"bike path","absoluteDirection":"NORTHWEST","stayOn":false,"area":false,"bogusName":true,"lon":-71.0695674967601,"lat":48.39336056343373,"elevation":[]},{"distance":41.863,"relativeDirection":"LEFT","streetName":"path","absoluteDirection":"SOUTH","stayOn":true,"area":false,"bogusName":true,"lon":-71.0768749,"lat":48.396494000000004,"elevation":[]},{"distance":40.991,"relativeDirection":"RIGHT","streetName":"Rue Jacques-Ferron","absoluteDirection":"WEST","stayOn":false,"area":false,"bogusName":false,"lon":-71.0770823,"lat":48.3961436,"elevation":[]},{"distance":74.603,"relativeDirection":"RIGHT","streetName":"path","absoluteDirection":"NORTHWEST","stayOn":false,"area":false,"bogusName":true,"lon":-71.077527,"lat":48.3959856,"elevation":[]},{"distance":77.576,"relativeDirection":"RIGHT","streetName":"Rue Rimbaud","absoluteDirection":"NORTH","stayOn":false,"area":false,"bogusName":false,"lon":-71.0783552,"lat":48.396369500000006,"elevation":[]}]}],"tooSloped":false},{"duration":1688,"startTime":1522723375000,"endTime":1522725063000,"walkTime":590,"transitTime":1096,"waitingTime":2,"walkDistance":735.405894730134,"walkLimitExceeded":false,"elevationLost":0.0,"elevationGained":0.0,"transfers":0,"legs":[{"startTime":1522723375000,"endTime":1522723736000,"departureDelay":0,"arrivalDelay":0,"realTime":false,"distance":442.044,"pathway":false,"mode":"WALK","route":"","agencyTimeZoneOffset":-14400000,"interlineWithPreviousLeg":false,"from":{"name":"Origin","lon":-71.05494099,"lat":48.428745,"departure":1522723375000,"orig":"","vertexType":"NORMAL"},"to":{"name":"Bégin / Jacques-Cartier","stopId":"1:67","stopCode":"67","lon":-71.055431,"lat":48.425501,"arrival":1522723736000,"departure":1522723737000,"zoneId":"NA","stopIndex":4,"stopSequence":5,"vertexType":"TRANSIT"},"legGeometry":{"points":"cuqfH~ztpLf@`BfD{@LAPD\\Jh@Vj@Vb@PrA\\@c@PyADSp@p@`@`@b@b@KZ","length":17},"rentedBike":false,"transitLeg":false,"duration":361.0,"steps":[{"distance":42.209,"relativeDirection":"DEPART","streetName":"Rue Racine Est","absoluteDirection":"SOUTHWEST","stayOn":false,"area":false,"bogusName":false,"lon":-71.05471815534266,"lat":48.42850156140915,"elevation":[]},{"distance":251.489,"relativeDirection":"LEFT","streetName":"Rue Riverin","absoluteDirection":"SOUTH","stayOn":false,"area":false,"bogusName":false,"lon":-71.0552071,"lat":48.4283045,"elevation":[]},{"distance":56.279,"relativeDirection":"LEFT","streetName":"Rue Jacques-Cartier Est","absoluteDirection":"EAST","stayOn":false,"area":false,"bogusName":false,"lon":-71.0554652,"lat":48.426123700000005,"elevation":[]},{"distance":80.02199999999999,"relativeDirection":"RIGHT","streetName":"Rue Bégin","absoluteDirection":"SOUTHWEST","stayOn":false,"area":false,"bogusName":false,"lon":-71.0547356,"lat":48.4259915,"elevation":[]},{"distance":12.045,"relativeDirection":"RIGHT","streetName":"Rue Gaudreault","absoluteDirection":"NORTHWEST","stayOn":false,"area":false,"bogusName":false,"lon":-71.0553392,"lat":48.4253936,"elevation":[]}]},{"startTime":1522723737000,"endTime":1522724833000,"departureDelay":0,"arrivalDelay":0,"realTime":false,"distance":5334.877649077114,"pathway":false,"mode":"BUS","route":"14","agencyName":"Société de Transport du Saguenay","agencyUrl":"http://ville.saguenay.ca/fr/services-aux-citoyens/transport-sts","agencyTimeZoneOffset":-14400000,"routeColor":"C0C000","routeType":3,"routeId":"1:14","routeTextColor":"000000","interlineWithPreviousLeg":false,"tripBlockId":"30","headsign":"Talbot / Barrette","agencyId":"0","tripId":"1:218119","serviceDate":"20180402","from":{"name":"Bégin / Jacques-Cartier","stopId":"1:67","stopCode":"67","lon":-71.055431,"lat":48.425501,"arrival":1522723736000,"departure":1522723737000,"zoneId":"NA","stopIndex":4,"stopSequence":5,"vertexType":"TRANSIT"},"to":{"name":"Église Évangélique (Malraux)","stopId":"1:1833","stopCode":"1833","lon":-71.0816,"lat":48.397718,"arrival":1522724833000,"departure":1522724834000,"zoneId":"NA","stopIndex":24,"stopSequence":25,"vertexType":"TRANSIT"},"legGeometry":{"points":"_bqfHr~tpLvIrIn@n@\\iATg@v@_ATg@LmABg@Is@c@iEAm@bAcDTcAtA{DJI|AxAvAvAQv@~@z@dA`ATq@`E~DL`@E`Ex@hDd@`B}FtFaAzAm@xAe@jCa@nDiAbm@SpKM`H]vBhDVzCTcAvCO^bEbEzK`LfBeEtK`KhAdAnCbCvBpCNR~BxAxBf@z@h@vAz@z@{DrCoITTlElEtAnB`@l@pFrD@?fDr@XgAjFuR\\yADm@b@gFd@_B`A}@tEvJBDvC`FtJ|LLNlClC|@^hCYVExCjCb@d@","length":79},"routeShortName":"14","routeLongName":"Coopérative","rentedBike":false,"transitLeg":true,"duration":1096.0,"steps":[]},{"startTime":1522724834000,"endTime":1522725063000,"departureDelay":0,"arrivalDelay":0,"realTime":false,"distance":293.154,"pathway":false,"mode":"WALK","route":"","agencyTimeZoneOffset":-14400000,"interlineWithPreviousLeg":false,"from":{"name":"Église Évangélique (Malraux)","stopId":"1:1833","stopCode":"1833","lon":-71.0816,"lat":48.397718,"arrival":1522724833000,"departure":1522724834000,"zoneId":"NA","stopIndex":24,"stopSequence":25,"vertexType":"TRANSIT"},"to":{"name":"Destination","lon":-71.078943,"lat":48.396952,"arrival":1522725063000,"orig":"","vertexType":"NORMAL"},"legGeometry":{"points":"ktkfHhbzpLz@x@z@eC`A{@Ka@y@}ACa@v@_DFU","length":9},"rentedBike":false,"transitLeg":false,"duration":229.0,"steps":[{"distance":39.526,"relativeDirection":"DEPART","streetName":"Rue Malraux","absoluteDirection":"SOUTHWEST","stayOn":false,"area":false,"bogusName":false,"lon":-71.0814802757171,"lat":48.39766491605333,"elevation":[]},{"distance":103.088,"relativeDirection":"LEFT","streetName":"path","absoluteDirection":"SOUTHEAST","stayOn":false,"area":false,"bogusName":true,"lon":-71.08177760000001,"lat":48.3973693,"elevation":[]},{"distance":150.54,"relativeDirection":"LEFT","streetName":"Rue Rimbaud","absoluteDirection":"NORTHEAST","stayOn":false,"area":false,"bogusName":false,"lon":-71.0808007,"lat":48.3967363,"elevation":[]}]}],"tooSloped":false}]},"debugOutput":{"precalculationTime":26,"pathCalculationTime":43,"pathTimes":[21,9,13],"renderingTime":0,"totalTime":69,"timedOut":false},"elevationMetadata":{"ellipsoidToGeoidDifference":-28.885904201182168,"geoidElevation":false}}