{"requestParameters":{"date":"2018/04/02","walkSpeed":"1.33","walkReluctance":"2.0","fromPlace":"48.39641,-71.081071","maxWalkDistance":"3000","waitReluctance":"1.0","carSpeed":"33","numItineraries":"3","waitAtBeginningFactor":"0.4","mode":"TRANSIT,WALK","ignoreRealtimeUpdates":"false","stairsReluctance":"2.0","toPlace":"48.423419,-71.039377","time":"9:0:00"},"plan":{"date":1522674000000,"from":{"name":"Origin","lon":-71.081071,"lat":48.39641,"orig":"","vertexType":"NORMAL"},"to":{"name":"Destination","lon":-71.039377,"lat":48.423419,"orig":"","vertexType":"NORMAL"},"itineraries":[{"duration":2048,"startTime":1522674828000,"endTime":1522676876000,"walkTime":1112,"transitTime":934,"waitingTime":2,"walkDistance":1408.219977435833,"walkLimitExceeded":false,"elevationLost":0.0,"elevationGained":0.0,"transfers":0,"legs":[{"startTime":1522674828000,"endTime":1522674945000,"departureDelay":0,"arrivalDelay":0,"realTime":false,"distance":145.359,"pathway":false,"mode":"WALK","route":"","agencyTimeZoneOffset":-14400000,"interlineWithPreviousLeg":false,"from":{"name":"Origin","lon":-71.081071,"lat":48.39641,"departure":1522674828000,"orig":"","vertexType":"NORMAL"},"to":{"name":"Malraux / Mauriac","stopId":"1:446","stopCode":"446","lon":-71.08268,"lat":48.396442,"arrival":1522674945000,"departure":1522674946000,"zoneId":"NA","stopIndex":10,"stopSequence":11,"vertexType":"TRANSIT"},"legGeometry":{"points":"omkfHr`zpLHXhAzAeAhDFH","length":5},"rentedBike":false,"transitLeg":false,"duration":117.0,"steps":[{"distance":64.805,"relativeDirection":"DEPART","streetName":"Rue Rimbaud","absoluteDirection":"SOUTHWEST","stayOn":false,"area":false,"bogusName":false,"lon":-71.08121619291143,"lat":48.3965684264065,"elevation":[]},{"distance":74.421,"relativeDirection":"RIGHT","streetName":"Rue Mauriac","absoluteDirection":"NORTHWEST","stayOn":false,"area":false,"bogusName":false,"lon":-71.0818017,"lat":48.3961406,"elevation":[]},{"distance":6.133,"relativeDirection":"LEFT","streetName":"Rue Malraux","absoluteDirection":"SOUTHWEST","stayOn":false,"area":false,"bogusName":false,"lon":-71.0826531,"lat":48.396498900000005,"elevation":[]}]},{"startTime":1522674946000,"endTime":1522675880000,"departureDelay":0,"arrivalDelay":0,"realTime":false,"distance":4988.381869591545,"pathway":false,"mode":"BUS","route":"14","agencyName":"Société de Transport du Saguenay","agencyUrl":"http://ville.saguenay.ca/fr/services-aux-citoyens/transport-sts","agencyTimeZoneOffset":-14400000,"routeColor":"C0C000","routeType":3,"routeId":"1:14","routeTextColor":"000000","interlineWithPreviousLeg":false,"tripBlockId":"31","headsign":"Terminus Chicoutimi","agencyId":"0","tripId":"1:218127","serviceDate":"20180402","from":{"name":"Malraux / Mauriac","stopId":"1:446","stopCode":"446","lon":-71.08268,"lat":48.396442,"arrival":1522674945000,"departure":1522674946000,"zoneId":"NA","stopIndex":10,"stopSequence":11,"vertexType":"TRANSIT"},"to":{"name":"Résidence de l' UQAC","stopId":"1:1928","stopCode":"1928","lon":-71.052293,"lat":48.421532,"arrival":1522675880000,"departure":1522675881000,"zoneId":"NA","stopIndex":30,"stopSequence":31,"vertexType":"TRANSIT"},"legGeometry":{"points":"}lkfHdjzpLuF}F}AaB_BkAC@qC\\gAWiBwBiKgMiCwEgEyHCGy@uB}@rAa@nAc@lFEf@mGvUYfAqCs@ICMCqFmDc@s@mAkBuEoESUgAhDiAfD}@zDyAcA_@Um@U{AWgB_Au@s@EEsBkCqFgF{IiI][aBhE}@}@oBmBwE{EwE{Ej@mBZeAa@SyEQg@CPcALuCx@{b@t@{[XoDd@sBl@iB~@gA`G{F{A{D_@sBFqDOq@iG{FGIoCkC","length":67},"routeShortName":"14","routeLongName":"Coopérative","rentedBike":false,"transitLeg":true,"duration":934.0,"steps":[]},{"startTime":1522675881000,"endTime":1522676876000,"departureDelay":0,"arrivalDelay":0,"realTime":false,"distance":1262.6200000000001,"pathway":false,"mode":"WALK","route":"","agencyTimeZoneOffset":-14400000,"interlineWithPreviousLeg":false,"from":{"name":"Résidence de l' UQAC","stopId":"1:1928","stopCode":"1928","lon":-71.052293,"lat":48.421532,"arrival":1522675880000,"departure":1522675881000,"zoneId":"NA","stopIndex":30,"stopSequence":31,"vertexType":"TRANSIT"},"to":{"name":"Destination","lon":-71.039377,"lat":48.423419,"arrival":1522676876000,"orig":"","vertexType":"NORMAL"},"legGeometry":{"points":"uipfHdltpLAAUUMKUSc@_@SQWQoAmAc@a@[Wi@m@W_@YOKGe@[KIMGq@YCEEcA?_@kA[d@cGDe@CYKMKCUGsAQ~@gLXwCHw@PsBNcB^gD?_AAI?E?G@GBEBCFSFO@cAPuB`@sE@GJqAXHFBD[","length":53},"rentedBike":false,"transitLeg":false,"duration":995.0,"steps":[{"distance":62.393,"relativeDirection":"DEPART","streetName":"Chemin Saint Thomas","absoluteDirection":"NORTHEAST","stayOn":false,"area":false,"bogusName":false,"lon":-71.05234990075473,"lat":48.421558735228686,"elevation":[]},{"distance":263.87899999999996,"relativeDirection":"CONTINUE","streetName":"road","absoluteDirection":"NORTHEAST","stayOn":false,"area":false,"bogusName":true,"lon":-71.051902,"lat":48.4220343,"elevation":[]},{"distance":37.224000000000004,"relativeDirection":"RIGHT","streetName":"path","absoluteDirection":"EAST","stayOn":true,"area":false,"bogusName":true,"lon":-71.0501431,"lat":48.4240852,"elevation":[]},{"distance":43.677,"relativeDirection":"LEFT","streetName":"Chemin Sydenham","absoluteDirection":"NORTH","stayOn":false,"area":false,"bogusName":false,"lon":-71.0496408,"lat":48.424114100000004,"elevation":[]},{"distance":197.333,"relativeDirection":"RIGHT","streetName":"Rue Duberger","absoluteDirection":"EAST","stayOn":false,"area":false,"bogusName":false,"lon":-71.0495042,"lat":48.4244963,"elevation":[]},{"distance":443.078,"relativeDirection":"RIGHT","streetName":"Rue Jacques-Cartier Est","absoluteDirection":"EAST","stayOn":false,"area":false,"bogusName":false,"lon":-71.047663,"lat":48.424941800000006,"elevation":[]},{"distance":184.73600000000002,"relativeDirection":"SLIGHTLY_LEFT","streetName":"Rue Jacques Cartier","absoluteDirection":"EAST","stayOn":false,"area":false,"bogusName":false,"lon":-71.0418774,"lat":48.423999300000006,"elevation":[]},{"distance":30.3,"relativeDirection":"RIGHT","streetName":"service road","absoluteDirection":"SOUTH","stayOn":false,"area":false,"bogusName":true,"lon":-71.0394333,"lat":48.4236505,"elevation":[]}]}],"tooSloped":false},{"duration":2554,"startTime":1522674322000,"endTime":1522676876000,"walkTime":1115,"transitTime":1437,"waitingTime":2,"walkDistance":1412.3963608943704,"walkLimitExceeded":false,"elevationLost":0.0,"elevationGained":0.0,"transfers":0,"legs":[{"startTime":1522674322000,"endTime":1522674442000,"departureDelay":0,"arrivalDelay":0,"realTime":false,"distance":149.532,"pathway":false,"mode":"WALK","route":"","agencyTimeZoneOffset":-14400000,"interlineWithPreviousLeg":false,"from":{"name":"Origin","lon":-71.081071,"lat":48.39641,"departure":1522674322000,"orig":"","vertexType":"NORMAL"},"to":{"name":"Malraux / Mauriac","stopId":"1:1979","stopCode":"1979","lon":-71.082747,"lat":48.396652,"arrival":1522674442000,"departure":1522674443000,"zoneId":"NA","stopIndex":25,"stopSequence":26,"vertexType":"TRANSIT"},"legGeometry":{"points":"omkfHr`zpLHXhAzAeAhDOO","length":5},"rentedBike":false,"transitLeg":false,"duration":120.0,"steps":[{"distance":64.805,"relativeDirection":"DEPART","streetName":"Rue Rimbaud","absoluteDirection":"SOUTHWEST","stayOn":false,"area":false,"bogusName":false,"lon":-71.08121619291143,"lat":48.3965684264065,"elevation":[]},{"distance":74.421,"relativeDirection":"RIGHT","streetName":"Rue Mauriac","absoluteDirection":"NORTHWEST","stayOn":false,"area":false,"bogusName":false,"lon":-71.0818017,"lat":48.3961406,"elevation":[]},{"distance":10.306,"relativeDirection":"RIGHT","streetName":"Rue Malraux","absoluteDirection":"NORTHEAST","stayOn":false,"area":false,"bogusName":false,"lon":-71.0826531,"lat":48.396498900000005,"elevation":[]}]},{"startTime":1522674443000,"endTime":1522674660000,"departureDelay":0,"arrivalDelay":0,"realTime":false,"distance":2995.8499893427174,"pathway":false,"mode":"BUS","route":"14","agencyName":"Société de Transport du Saguenay","agencyUrl":"http://ville.saguenay.ca/fr/services-aux-citoyens/transport-sts","agencyTimeZoneOffset":-14400000,"routeColor":"C0C000","routeType":3,"routeId":"1:14","routeTextColor":"000000","interlineWithPreviousLeg":false,"tripBlockId":"30","headsign":"Talbot / Barrette","agencyId":"0","tripId":"1:218091","serviceDate":"20180402","from":{"name":"Malraux / Mauriac","stopId":"1:1979","stopCode":"1979","lon":-71.082747,"lat":48.396652,"arrival":1522674442000,"departure":1522674443000,"zoneId":"NA","stopIndex":25,"stopSequence":26,"vertexType":"TRANSIT"},"to":{"name":"Roitelets / Sapins","stopId":"1:1543","stopCode":"1543","lon":-71.069553,"lat":48.393375,"arrival":1522674660000,"departure":1522674660000,"zoneId":"NA","stopIndex":35,"stopSequence":36,"vertexType":"TRANSIT"},"legGeometry":{"points":"umkfHlizpL`BhB?pHaBhRqAbLK~@qBxFqB|FcC~GyC\\aDkDcFsF~CgOtGm[j@oCvEoSl@_CxCmLjAeFpCeKrByHfAqCvH_SLa@","length":24},"routeShortName":"14","routeLongName":"Coopérative","rentedBike":false,"transitLeg":true,"duration":217.0,"steps":[]},{"startTime":1522674660000,"endTime":1522675880000,"departureDelay":0,"arrivalDelay":0,"realTime":false,"distance":7324.442027921428,"pathway":false,"mode":"BUS","route":"15","agencyName":"Société de Transport du Saguenay","agencyUrl":"http://ville.saguenay.ca/fr/services-aux-citoyens/transport-sts","agencyTimeZoneOffset":-14400000,"routeColor":"FF00FF","routeType":3,"routeId":"1:15","routeTextColor":"FFFFFF","interlineWithPreviousLeg":true,"tripBlockId":"30","headsign":"Terminus Chicoutimi","agencyId":"0","tripId":"1:218092","serviceDate":"20180402","from":{"name":"Roitelets / Sapins","stopId":"1:1543","stopCode":"1543","lon":-71.069553,"lat":48.393375,"arrival":1522674660000,"departure":1522674660000,"zoneId":"NA","stopIndex":0,"stopSequence":1,"vertexType":"TRANSIT"},"to":{"name":"Résidence de l' UQAC","stopId":"1:1928","stopCode":"1928","lon":-71.052293,"lat":48.421532,"arrival":1522675880000,"departure":1522675881000,"zoneId":"NA","stopIndex":30,"stopSequence":31,"vertexType":"TRANSIT"},"legGeometry":{"points":"_zjfHfwwpLx@}BHa@NaADq@@y@Cy@I{@Ka@O[Sg@c@mAWwAMyA?EC]?wABuABmFB{@BmDFuH@i@F[FsC@c@TuGEGVsHPuDLuBXsFDoA?W@]Cu@GcAKu@Q_ASo@a@y@a@o@MOUUeCqBiDsDqE{EiAcAcB_AqBgA_AQaBSaBG_@Bu@FG?h@fNKnDpCfBkAzDgA}@y@q@sDy@GAeGT~@~KKrKyAnL[hBUxAm@nCcAlDeCvGmA|CUr@}@~A_@\\_DvCEZcA|@UP_@d@Yl@oBdFeCxG_CfGYVQXS\\dK|HlFZbC\\p@zA\\rB@hBiArG{BNw@FiG}@iDwAECcCcBo@y@sEeGe@o@qAa@m@MoB?C@}BZwAc@oA_Bs@gDCKZ{Di@QECc@_@sAkAoBwB_EcE{A_BoAmAk@o@cCaCkIkIaJaJUUwBaCj@wCjAsCzGoG_CoHL{D_@kAqD{CQr@iAcAy@w@L{@wAuA","length":141},"routeShortName":"15","routeLongName":"Term. Chic / Costco","rentedBike":false,"transitLeg":true,"duration":1220.0,"steps":[]},{"startTime":1522675881000,"endTime":1522676876000,"departureDelay":0,"arrivalDelay":0,"realTime":false,"distance":1262.6200000000001,"pathway":false,"mode":"WALK","route":"","agencyTimeZoneOffset":-14400000,"interlineWithPreviousLeg":false,"from":{"name":"Résidence de l' UQAC","stopId":"1:1928","stopCode":"1928","lon":-71.052293,"lat":48.421532,"arrival":1522675880000,"departure":1522675881000,"zoneId":"NA","stopIndex":30,"stopSequence":31,"vertexType":"TRANSIT"},"to":{"name":"Destination","lon":-71.039377,"lat":48.423419,"arrival":1522676876000,"orig":"","vertexType":"NORMAL"},"legGeometry":{"points":"uipfHdltpLAAUUMKUSc@_@SQWQoAmAc@a@[Wi@m@W_@YOKGe@[KIMGq@YCEEcA?_@kA[d@cGDe@CYKMKCUGsAQ~@gLXwCHw@PsBNcB^gD?_AAI?E?G@GBEBCFSFO@cAPuB`@sE@GJqAXHFBD[","length":53},"rentedBike":false,"transitLeg":false,"duration":995.0,"steps":[{"distance":62.393,"relativeDirection":"DEPART","streetName":"Chemin Saint Thomas","absoluteDirection":"NORTHEAST","stayOn":false,"area":false,"bogusName":false,"lon":-71.05234990075473,"lat":48.421558735228686,"elevation":[]},{"distance":263.87899999999996,"relativeDirection":"CONTINUE","streetName":"road","absoluteDirection":"NORTHEAST","stayOn":false,"area":false,"bogusName":true,"lon":-71.051902,"lat":48.4220343,"elevation":[]},{"distance":37.224000000000004,"relativeDirection":"RIGHT","streetName":"path","absoluteDirection":"EAST","stayOn":true,"area":false,"bogusName":true,"lon":-71.0501431,"lat":48.4240852,"elevation":[]},{"distance":43.677,"relativeDirection":"LEFT","streetName":"Chemin Sydenham","absoluteDirection":"NORTH","stayOn":false,"area":false,"bogusName":false,"lon":-71.0496408,"lat":48.424114100000004,"elevation":[]},{"distance":197.333,"relativeDirection":"RIGHT","streetName":"Rue Duberger","absoluteDirection":"EAST","stayOn":false,"area":false,"bogusName":false,"lon":-71.0495042,"lat":48.4244963,"elevation":[]},{"distance":443.078,"relativeDirection":"RIGHT","streetName":"Rue Jacques-Cartier Est","absoluteDirection":"EAST","stayOn":false,"area":false,"bogusName":false,"lon":-71.047663,"lat":48.424941800000006,"elevation":[]},{"distance":184.73600000000002,"relativeDirection":"SLIGHTLY_LEFT","streetName":"Rue Jacques Cartier","absoluteDirection":"EAST","stayOn":false,"area":false,"bogusName":false,"lon":-71.0418774,"lat":48.423999300000006,"elevation":[]},{"distance":30.3,"relativeDirection":"RIGHT","streetName":"service road","absoluteDirection":"SOUTH","stayOn":false,"area":false,"bogusName":true,"lon":-71.0394333,"lat":48.4236505,"elevation":[]}]}],"tooSloped":false},{"duration":2048,"startTime":1522676628000,"endTime":1522678676000,"walkTime":1112,"transitTime":934,"waitingTime":2,"walkDistance":1408.219977435833,"walkLimitExceeded":false,"elevationLost":0.0,"elevationGained":0.0,"transfers":0,"legs":[{"startTime":1522676628000,"endTime":1522676745000,"departureDelay":0,"arrivalDelay":0,"realTime":false,"distance":145.359,"pathway":false,"mode":"WALK","route":"","agencyTimeZoneOffset":-14400000,"interlineWithPreviousLeg":false,"from":{"name":"Origin","lon":-71.081071,"lat":48.39641,"departure":1522676628000,"orig":"","vertexType":"NORMAL"},"to":{"name":"Malraux / Mauriac","stopId":"1:446","stopCode":"446","lon":-71.08268,"lat":48.396442,"arrival":1522676745000,"departure":1522676746000,"zoneId":"NA","stopIndex":10,"stopSequence":11,"vertexType":"TRANSIT"},"legGeometry":{"points":"omkfHr`zpLHXhAzAeAhDFH","length":5},"rentedBike":false,"transitLeg":false,"duration":117.0,"steps":[{"distance":64.805,"relativeDirection":"DEPART","streetName":"Rue Rimbaud","absoluteDirection":"SOUTHWEST","stayOn":false,"area":false,"bogusName":false,"lon":-71.08121619291143,"lat":48.3965684264065,"elevation":[]},{"distance":74.421,"relativeDirection":"RIGHT","streetName":"Rue Mauriac","absoluteDirection":"NORTHWEST","stayOn":false,"area":false,"bogusName":false,"lon":-71.0818017,"lat":48.3961406,"elevation":[]},{"distance":6.133,"relativeDirection":"LEFT","streetName":"Rue Malraux","absoluteDirection":"SOUTHWEST","stayOn":false,"area":false,"bogusName":false,"lon":-71.0826531,"lat":48.396498900000005,"elevation":[]}]},{"startTime":1522676746000,"endTime":1522677680000,"departureDelay":0,"arrivalDelay":0,"realTime":false,"distance":4988.381869591545,"pathway":false,"mode":"BUS","route":"14","agencyName":"Société de Transport du Saguenay","agencyUrl":"http://ville.saguenay.ca/fr/services-aux-citoyens/transport-sts","agencyTimeZoneOffset":-14400000,"routeColor":"C0C000","routeType":3,"routeId":"1:14","routeTextColor":"000000","interlineWithPreviousLeg":false,"tripBlockId":"33","headsign":"Terminus Chicoutimi","agencyId":"0","tripId":"1:218178","serviceDate":"20180402","from":{"name":"Malraux / Mauriac","stopId":"1:446","stopCode":"446","lon":-71.08268,"lat":48.396442,"arrival":1522676745000,"departure":1522676746000,"zoneId":"NA","stopIndex":10,"stopSequence":11,"vertexType":"TRANSIT"},"to":{"name":"Résidence de l' UQAC","stopId":"1:1928","stopCode":"1928","lon":-71.052293,"lat":48.421532,"arrival":1522677680000,"departure":1522677681000,"zoneId":"NA","stopIndex":30,"stopSequence":31,"vertexType":"TRANSIT"},"legGeometry":{"points":"}lkfHdjzpLuF}F}AaB_BkAC@qC\\gAWiBwBiKgMiCwEgEyHCGy@uB}@rAa@nAc@lFEf@mGvUYfAqCs@ICMCqFmDc@s@mAkBuEoESUgAhDiAfD}@zDyAcA_@Um@U{AWgB_Au@s@EEsBkCqFgF{IiI][aBhE}@}@oBmBwE{EwE{Ej@mBZeAa@SyEQg@CPcALuCx@{b@t@{[XoDd@sBl@iB~@gA`G{F{A{D_@sBFqDOq@iG{FGIoCkC","length":67},"routeShortName":"14","routeLongName":"Coopérative","rentedBike":false,"transitLeg":true,"duration":934.0,"steps":[]},{"startTime":1522677681000,"endTime":1522678676000,"departureDelay":0,"arrivalDelay":0,"realTime":false,"distance":1262.6200000000001,"pathway":false,"mode":"WALK","route":"","agencyTimeZoneOffset":-14400000,"interlineWithPreviousLeg":false,"from":{"name":"Résidence de l' UQAC","stopId":"1:1928","stopCode":"1928","lon":-71.052293,"lat":48.421532,"arrival":1522677680000,"departure":1522677681000,"zoneId":"NA","stopIndex":30,"stopSequence":31,"vertexType":"TRANSIT"},"to":{"name":"Destination","lon":-71.039377,"lat":48.423419,"arrival":1522678676000,"orig":"","vertexType":"NORMAL"},"legGeometry":{"points":"uipfHdltpLAAUUMKUSc@_@SQWQoAmAc@a@[Wi@m@W_@YOKGe@[KIMGq@YCEEcA?_@kA[d@cGDe@CYKMKCUGsAQ~@gLXwCHw@PsBNcB^gD?_AAI?E?G@GBEBCFSFO@cAPuB`@sE@GJqAXHFBD[","length":53},"rentedBike":false,"transitLeg":false,"duration":995.0,"steps":[{"distance":62.393,"relativeDirection":"DEPART","streetName":"Chemin Saint Thomas","absoluteDirection":"NORTHEAST","stayOn":false,"area":false,"bogusName":false,"lon":-71.05234990075473,"lat":48.421558735228686,"elevation":[]},{"distance":263.87899999999996,"relativeDirection":"CONTINUE","streetName":"road","absoluteDirection":"NORTHEAST","stayOn":false,"area":false,"bogusName":true,"lon":-71.051902,"lat":48.4220343,"elevation":[]},{"distance":37.224000000000004,"relativeDirection":"RIGHT","streetName":"path","absoluteDirection":"EAST","stayOn":true,"area":false,"bogusName":true,"lon":-71.0501431,"lat":48.4240852,"elevation":[]},{"distance":43.677,"relativeDirection":"LEFT","streetName":"Chemin Sydenham","absoluteDirection":"NORTH","stayOn":false,"area":false,"bogusName":false,"lon":-71.0496408,"lat":48.424114100000004,"elevation":[]},{"distance":197.333,"relativeDirection":"RIGHT","streetName":"Rue Duberger","absoluteDirection":"EAST","stayOn":false,"area":false,"bogusName":false,"lon":-71.0495042,"lat":48.4244963,"elevation":[]},{"distance":443.078,"relativeDirection":"RIGHT","streetName":"Rue Jacques-Cartier Est","absoluteDirection":"EAST","stayOn":false,"area":false,"bogusName":false,"lon":-71.047663,"lat":48.424941800000006,"elevation":[]},{"distance":184.73600000000002,"relativeDirection":"SLIGHTLY_LEFT","streetName":"Rue Jacques Cartier","absoluteDirection":"EAST","stayOn":false,"area":false,"bogusName":false,"lon":-71.0418774,"lat":48.423999300000006,"elevation":[]},{"distance":30.3,"relativeDirection":"RIGHT","streetName":"service road","absoluteDirection":"SOUTH","stayOn":false,"area":false,"bogusName":true,"lon":-71.0394333,"lat":48.4236505,"elevation":[]}]}],"tooSloped":false}]},"debugOutput":{"precalculationTime":25,"pathCalculationTime":41,"pathTimes":[20,10,11],"renderingTime":0,"totalTime":66,"timedOut":false},"elevationMetadata":{"ellipsoidToGeoidDifference":-28.885904201182168,"geoidElevation":false}}