{"requestParameters":{"date":"2018/04/02","walkSpeed":"1.33","walkReluctance":"2.0","fromPlace":"48.400313,-71.075848","maxWalkDistance":"3000","waitReluctance":"1.0","carSpeed":"33","numItineraries":"3","waitAtBeginningFactor":"0.4","mode":"TRANSIT,WALK","ignoreRealtimeUpdates":"false","stairsReluctance":"2.0","toPlace":"48.430429,-71.02599499","time":"10:15:00"},"plan":{"date":1522678500000,"from":{"name":"Origin","lon":-71.075848,"lat":48.400313,"orig":"","vertexType":"NORMAL"},"to":{"name":"Destination","lon":-71.02599499,"lat":48.430429,"orig":"","vertexType":"NORMAL"},"itineraries":[{"duration":2923,"startTime":1522678535000,"endTime":1522681458000,"walkTime":1935,"transitTime":986,"waitingTime":2,"walkDistance":2472.0216766765425,"walkLimitExceeded":false,"elevationLost":0.0,"elevationGained":0.0,"transfers":0,"legs":[{"startTime":1522678535000,"endTime":1522680453000,"departureDelay":0,"arrivalDelay":0,"realTime":false,"distance":2450.169,"pathway":false,"mode":"WALK","route":"","agencyTimeZoneOffset":-14400000,"interlineWithPreviousLeg":false,"from":{"name":"Origin","lon":-71.075848,"lat":48.400313,"departure":1522678535000,"orig":"","vertexType":"NORMAL"},"to":{"name":"Champs-Élysées / Chopin","stopId":"1:570","stopCode":"570","lon":-71.058565,"lat":48.409684,"arrival":1522680453000,"departure":1522680454000,"zoneId":"NA","stopIndex":11,"stopSequence":12,"vertexType":"TRANSIT"},"legGeometry":{"points":"qclfHp_ypLP}B}A_@uBJk@IOM{AkAM^{@dCk@zAc@bAy@bAMNe@{@gA}BwAyC_AmBIUYs@CqAAw@~@aF?C@cBOmAY{@o@}@q@Ss@Uw@EN_D@YLY@CbAmCmJqFsBcCELqB{BTi@Py@_@g@mD{BmAy@_AkGIs@@wAB[FaAj@gBpC}HqAgAe@a@k@e@ECiAe@}@i@n@}A","length":58},"rentedBike":false,"transitLeg":false,"duration":1918.0,"steps":[{"distance":47.636,"relativeDirection":"DEPART","streetName":"Rue de Crespieul","absoluteDirection":"EAST","stayOn":false,"area":false,"bogusName":false,"lon":-71.07592063340928,"lat":48.40009930166804,"elevation":[]},{"distance":212.997,"relativeDirection":"LEFT","streetName":"Rue de la Place Royale","absoluteDirection":"NORTH","stayOn":false,"area":false,"bogusName":false,"lon":-71.07529120000001,"lat":48.400005,"elevation":[]},{"distance":198.84300000000002,"relativeDirection":"LEFT","streetName":"Rue Saint-Urbain","absoluteDirection":"NORTHWEST","stayOn":false,"area":false,"bogusName":false,"lon":-71.07469180000001,"lat":48.401827600000004,"elevation":[]},{"distance":616.942,"relativeDirection":"RIGHT","streetName":"Rue Bégin","absoluteDirection":"NORTHEAST","stayOn":false,"area":false,"bogusName":false,"lon":-71.0767486,"lat":48.402957,"elevation":[]},{"distance":148.098,"relativeDirection":"RIGHT","streetName":"Rue Des Jésuites","absoluteDirection":"EAST","stayOn":false,"area":false,"bogusName":false,"lon":-71.07054690000001,"lat":48.4053844,"elevation":[]},{"distance":222.016,"relativeDirection":"LEFT","streetName":"Rue Jean Bourdon","absoluteDirection":"NORTHEAST","stayOn":false,"area":false,"bogusName":false,"lon":-71.068752,"lat":48.4048767,"elevation":[]},{"distance":164.304,"relativeDirection":"CONTINUE","streetName":"path","absoluteDirection":"NORTHEAST","stayOn":false,"area":false,"bogusName":true,"lon":-71.0675429,"lat":48.4067049,"elevation":[]},{"distance":173.83,"relativeDirection":"RIGHT","streetName":"Rue Duhaime","absoluteDirection":"SOUTHEAST","stayOn":false,"area":false,"bogusName":false,"lon":-71.0663385,"lat":48.4078874,"elevation":[]},{"distance":430.19599999999997,"relativeDirection":"CONTINUE","streetName":"Rue Belleau","absoluteDirection":"NORTHEAST","stayOn":false,"area":false,"bogusName":false,"lon":-71.06501420000001,"lat":48.408712400000006,"elevation":[]},{"distance":191.274,"relativeDirection":"LEFT","streetName":"Rue Bizet","absoluteDirection":"NORTHEAST","stayOn":false,"area":false,"bogusName":false,"lon":-71.0601022,"lat":48.4084523,"elevation":[]},{"distance":44.033,"relativeDirection":"RIGHT","streetName":"Rue des Champs-Élysées","absoluteDirection":"SOUTHEAST","stayOn":false,"area":false,"bogusName":false,"lon":-71.0589618,"lat":48.409989800000005,"elevation":[]}]},{"startTime":1522680454000,"endTime":1522681440000,"departureDelay":0,"arrivalDelay":0,"realTime":false,"distance":5762.584888818768,"pathway":false,"mode":"BUS","route":"12","agencyName":"Société de Transport du Saguenay","agencyUrl":"http://ville.saguenay.ca/fr/services-aux-citoyens/transport-sts","agencyTimeZoneOffset":-14400000,"routeColor":"556B2F","routeType":3,"routeId":"1:12","routeTextColor":"FFFFFF","interlineWithPreviousLeg":false,"tripBlockId":"29","headsign":"Terminus Chicoutimi","agencyId":"0","tripId":"1:218060","serviceDate":"20180402","from":{"name":"Champs-Élysées / Chopin","stopId":"1:570","stopCode":"570","lon":-71.058565,"lat":48.409684,"arrival":1522680453000,"departure":1522680454000,"zoneId":"NA","stopIndex":11,"stopSequence":12,"vertexType":"TRANSIT"},"to":{"name":"nouveau","stopId":"1:2304","stopCode":"2304","lon":-71.026011,"lat":48.430204,"arrival":1522681440000,"departure":1522681441000,"zoneId":"NA","stopIndex":25,"stopSequence":26,"vertexType":"TRANSIT"},"legGeometry":{"points":"o_nfH`supLrGcPxFoNlCyGa@yFYkD}CyA}KmFgD_BgAgBn@kFD_NoIgrAmD_WcAaLaDHoDJi`@wVoAbDbA|AnBU|B|AfBlAyLtKoGxFcFqDkJaHgEoDmDwC_TqQsBeB{HjWfAvAfM|O","length":34},"routeShortName":"12","routeLongName":"Rivière du Moulin","rentedBike":false,"transitLeg":true,"duration":986.0,"steps":[]},{"startTime":1522681441000,"endTime":1522681458000,"departureDelay":0,"arrivalDelay":0,"realTime":false,"distance":21.381999999999998,"pathway":false,"mode":"WALK","route":"","agencyTimeZoneOffset":-14400000,"interlineWithPreviousLeg":false,"from":{"name":"nouveau","stopId":"1:2304","stopCode":"2304","lon":-71.026011,"lat":48.430204,"arrival":1522681440000,"departure":1522681441000,"zoneId":"NA","stopIndex":25,"stopSequence":26,"vertexType":"TRANSIT"},"to":{"name":"Destination","lon":-71.02599499,"lat":48.430429,"arrival":1522681458000,"orig":"","vertexType":"NORMAL"},"legGeometry":{"points":"m_rfH|fopLMMQQ","length":3},"rentedBike":false,"transitLeg":false,"duration":17.0,"steps":[{"distance":21.381999999999998,"relativeDirection":"DEPART","streetName":"Rue Arthur-Hamel","absoluteDirection":"NORTHEAST","stayOn":false,"area":false,"bogusName":false,"lon":-71.02590303997721,"lat":48.43015553479973,"elevation":[]}]}],"tooSloped":false},{"duration":2432,"startTime":1522680099000,"endTime":1522682531000,"walkTime":290,"transitTime":1720,"waitingTime":422,"walkDistance":372.4182857122113,"walkLimitExceeded":false,"elevationLost":0.0,"elevationGained":0.0,"transfers":1,"legs":[{"startTime":1522680099000,"endTime":1522680379000,"departureDelay":0,"arrivalDelay":0,"realTime":false,"distance":359.68699999999995,"pathway":false,"mode":"WALK","route":"","agencyTimeZoneOffset":-14400000,"interlineWithPreviousLeg":false,"from":{"name":"Origin","lon":-71.075848,"lat":48.400313,"departure":1522680099000,"orig":"","vertexType":"NORMAL"},"to":{"name":"Bégin / Vingt-et-Un","stopId":"1:1981","stopCode":"1981","lon":-71.079949,"lat":48.400245,"arrival":1522680379000,"departure":1522680380000,"zoneId":"NA","stopIndex":13,"stopSequence":14,"vertexType":"TRANSIT"},"legGeometry":{"points":"qclfHp_ypL_@lEUvCDp@zAxBqB`G@@\\^","length":8},"rentedBike":false,"transitLeg":false,"duration":280.0,"steps":[{"distance":222.88099999999997,"relativeDirection":"DEPART","streetName":"Rue de Crespieul","absoluteDirection":"WEST","stayOn":false,"area":false,"bogusName":false,"lon":-71.07592063340928,"lat":48.40009930166804,"elevation":[]},{"distance":114.817,"relativeDirection":"RIGHT","streetName":"Rue des Vingt-et-Un","absoluteDirection":"NORTHWEST","stayOn":false,"area":false,"bogusName":false,"lon":-71.07857220000001,"lat":48.399870500000006,"elevation":[]},{"distance":21.989,"relativeDirection":"LEFT","streetName":"Rue Bégin","absoluteDirection":"SOUTHWEST","stayOn":false,"area":false,"bogusName":false,"lon":-71.0798627,"lat":48.400446800000005,"elevation":[]}]},{"startTime":1522680380000,"endTime":1522681680000,"departureDelay":0,"arrivalDelay":0,"realTime":false,"distance":6099.726569775104,"pathway":false,"mode":"BUS","route":"14","agencyName":"Société de Transport du Saguenay","agencyUrl":"http://ville.saguenay.ca/fr/services-aux-citoyens/transport-sts","agencyTimeZoneOffset":-14400000,"routeColor":"C0C000","routeType":3,"routeId":"1:14","routeTextColor":"000000","interlineWithPreviousLeg":false,"tripBlockId":"33","headsign":"Terminus Chicoutimi","agencyId":"0","tripId":"1:218180","serviceDate":"20180402","from":{"name":"Bégin / Vingt-et-Un","stopId":"1:1981","stopCode":"1981","lon":-71.079949,"lat":48.400245,"arrival":1522680379000,"departure":1522680380000,"zoneId":"NA","stopIndex":13,"stopSequence":14,"vertexType":"TRANSIT"},"to":{"name":"Terminus Chicoutimi","stopId":"1:1289","stopCode":"1289","lon":-71.066163,"lat":48.428677,"arrival":1522681680000,"departure":1522682100000,"zoneId":"NA","stopIndex":37,"stopSequence":38,"vertexType":"TRANSIT"},"legGeometry":{"points":"ydlfHhyypLiKgMiCwEgEyHCGy@uB}@rAa@nAc@lFEf@mGvUYfAqCs@ICMCqFmDc@s@mAkBuEoESUgAhDiAfD}@zDyAcA_@Um@U{AWgB_Au@s@EEsBkCqFgF{IiI][aBhE}@}@oBmBwE{EwE{Ej@mBZeAa@SyEQg@CPcALuCx@{b@t@{[XoDd@sBl@iB~@gA`G{F{A{D_@sBFqDOq@iG{FGIoCkCgBgBsDpLHzBBT`@~COnBQf@gAjAg@bBuDmDmFgFa@_@w@s@CfAOrBEtAGbA?jBQtC?|@ExKMdIG~EUnLEhC}CKkBOkCOYbC","length":89},"routeShortName":"14","routeLongName":"Coopérative","rentedBike":false,"transitLeg":true,"duration":1300.0,"steps":[]},{"startTime":1522682100000,"endTime":1522682520000,"departureDelay":0,"arrivalDelay":0,"realTime":false,"distance":3124.3531449342636,"pathway":false,"mode":"BUS","route":"12","agencyName":"Société de Transport du Saguenay","agencyUrl":"http://ville.saguenay.ca/fr/services-aux-citoyens/transport-sts","agencyTimeZoneOffset":-14400000,"routeColor":"556B2F","routeType":3,"routeId":"1:12","routeTextColor":"FFFFFF","interlineWithPreviousLeg":false,"tripBlockId":"28","headsign":"Terminus UQAC","agencyId":"0","tripId":"1:218035","serviceDate":"20180402","from":{"name":"Terminus Chicoutimi","stopId":"1:1289","stopCode":"1289","lon":-71.066163,"lat":48.428677,"arrival":1522681680000,"departure":1522682100000,"zoneId":"NA","stopIndex":0,"stopSequence":1,"vertexType":"TRANSIT"},"to":{"name":"Arthur-Hamel / Cèdres","stopId":"1:1525","stopCode":"1525","lon":-71.025769,"lat":48.43019,"arrival":1522682520000,"departure":1522682521000,"zoneId":"NA","stopIndex":12,"stopSequence":13,"vertexType":"TRANSIT"},"legGeometry":{"points":"evqfHpbwpLpFcj@IaKmFy^_DaZz@u]SeV}@aNs@gKToKd@gTnCyHkGuL","length":13},"routeShortName":"12","routeLongName":"Rivière du Moulin","rentedBike":false,"transitLeg":true,"duration":420.0,"steps":[]},{"startTime":1522682521000,"endTime":1522682531000,"departureDelay":0,"arrivalDelay":0,"realTime":false,"distance":12.667,"pathway":false,"mode":"WALK","route":"","agencyTimeZoneOffset":-14400000,"interlineWithPreviousLeg":false,"from":{"name":"Arthur-Hamel / Cèdres","stopId":"1:1525","stopCode":"1525","lon":-71.025769,"lat":48.43019,"arrival":1522682520000,"departure":1522682521000,"zoneId":"NA","stopIndex":12,"stopSequence":13,"vertexType":"TRANSIT"},"to":{"name":"Destination","lon":-71.02599499,"lat":48.430429,"arrival":1522682531000,"orig":"","vertexType":"NORMAL"},"legGeometry":{"points":"{_rfHnfopLQQ","length":2},"rentedBike":false,"transitLeg":false,"duration":10.0,"steps":[{"distance":12.667,"relativeDirection":"DEPART","streetName":"Rue Arthur-Hamel","absoluteDirection":"NORTHEAST","stayOn":false,"area":false,"bogusName":false,"lon":-71.02583684388401,"lat":48.430220456359244,"elevation":[]}]}],"tooSloped":false},{"duration":3081,"startTime":1522680177000,"endTime":1522683258000,"walkTime":660,"transitTime":1877,"waitingTime":544,"walkDistance":842.8903834536974,"walkLimitExceeded":false,"elevationLost":0.0,"elevationGained":0.0,"transfers":1,"legs":[{"startTime":1522680177000,"endTime":1522680820000,"departureDelay":0,"arrivalDelay":0,"realTime":false,"distance":821.3550000000001,"pathway":false,"mode":"WALK","route":"","agencyTimeZoneOffset":-14400000,"interlineWithPreviousLeg":false,"from":{"name":"Origin","lon":-71.075848,"lat":48.400313,"departure":1522680177000,"orig":"","vertexType":"NORMAL"},"to":{"name":"Angoulême / Bégin","stopId":"1:53","stopCode":"53","lon":-71.073604,"lat":48.405143,"arrival":1522680820000,"departure":1522680821000,"zoneId":"NA","stopIndex":18,"stopSequence":19,"vertexType":"TRANSIT"},"legGeometry":{"points":"qclfHp_ypLP}B}A_@uBJk@IOM{AkAM^{@dCk@zAc@bAy@bAMNe@{@gA}BwAyC_AmBIUYs@CqAyBB@W","length":22},"rentedBike":false,"transitLeg":false,"duration":643.0,"steps":[{"distance":47.636,"relativeDirection":"DEPART","streetName":"Rue de Crespieul","absoluteDirection":"EAST","stayOn":false,"area":false,"bogusName":false,"lon":-71.07592063340928,"lat":48.40009930166804,"elevation":[]},{"distance":212.997,"relativeDirection":"LEFT","streetName":"Rue de la Place Royale","absoluteDirection":"NORTH","stayOn":false,"area":false,"bogusName":false,"lon":-71.07529120000001,"lat":48.400005,"elevation":[]},{"distance":198.84300000000002,"relativeDirection":"LEFT","streetName":"Rue Saint-Urbain","absoluteDirection":"NORTHWEST","stayOn":false,"area":false,"bogusName":false,"lon":-71.07469180000001,"lat":48.401827600000004,"elevation":[]},{"distance":285.025,"relativeDirection":"RIGHT","streetName":"Rue Bégin","absoluteDirection":"NORTHEAST","stayOn":false,"area":false,"bogusName":false,"lon":-71.0767486,"lat":48.402957,"elevation":[]},{"distance":67.789,"relativeDirection":"LEFT","streetName":"Rue d'Angoulème","absoluteDirection":"NORTH","stayOn":false,"area":false,"bogusName":false,"lon":-71.0737143,"lat":48.404464100000006,"elevation":[]},{"distance":9.065,"relativeDirection":"RIGHT","streetName":"Rue R. E. Joron","absoluteDirection":"EAST","stayOn":false,"area":false,"bogusName":false,"lon":-71.073734,"lat":48.4050736,"elevation":[]}]},{"startTime":1522680821000,"endTime":1522681334000,"departureDelay":0,"arrivalDelay":0,"realTime":false,"distance":2863.6627927180475,"pathway":false,"mode":"BUS","route":"15","agencyName":"Société de Transport du Saguenay","agencyUrl":"http://ville.saguenay.ca/fr/services-aux-citoyens/transport-sts","agencyTimeZoneOffset":-14400000,"routeColor":"FF00FF","routeType":3,"routeId":"1:15","routeTextColor":"FFFFFF","interlineWithPreviousLeg":false,"tripBlockId":"32","headsign":"Terminus Chicoutimi","agencyId":"0","tripId":"1:218155","serviceDate":"20180402","from":{"name":"Angoulême / Bégin","stopId":"1:53","stopCode":"53","lon":-71.073604,"lat":48.405143,"arrival":1522680820000,"departure":1522680821000,"zoneId":"NA","stopIndex":18,"stopSequence":19,"vertexType":"TRANSIT"},"to":{"name":"Cégep de Chicoutimi (voie réservée)","stopId":"1:65","stopCode":"65","lon":-71.054799,"lat":48.423007,"arrival":1522681334000,"departure":1522681876000,"zoneId":"NA","stopIndex":31,"stopSequence":32,"vertexType":"TRANSIT"},"legGeometry":{"points":"acmfH`rxpLw@FiG}@iDwAECcCcBo@y@sEeGe@o@qAa@m@MoB?C@}BZwAc@oA_Bs@gDCKZ{Di@QECc@_@sAkAoBwB_EcE{A_BoAmAk@o@cCaCkIkIaJaJUUwBaCj@wCjAsCzGoG_CoHL{D_@kAqD{CQr@iAcAy@w@L{@wAuA_B_B_EpLDh@NbB","length":49},"routeShortName":"15","routeLongName":"Term. Chic / Costco","rentedBike":false,"transitLeg":true,"duration":513.0,"steps":[]},{"startTime":1522681876000,"endTime":1522683240000,"departureDelay":0,"arrivalDelay":0,"realTime":false,"distance":7757.123962143384,"pathway":false,"mode":"BUS","route":"12","agencyName":"Société de Transport du Saguenay","agencyUrl":"http://ville.saguenay.ca/fr/services-aux-citoyens/transport-sts","agencyTimeZoneOffset":-14400000,"routeColor":"556B2F","routeType":3,"routeId":"1:12","routeTextColor":"FFFFFF","interlineWithPreviousLeg":false,"tripBlockId":"26","headsign":"Terminus Chicoutimi","agencyId":"0","tripId":"1:217973","serviceDate":"20180402","from":{"name":"Cégep de Chicoutimi (voie réservée)","stopId":"1:65","stopCode":"65","lon":-71.054799,"lat":48.423007,"arrival":1522681334000,"departure":1522681876000,"zoneId":"NA","stopIndex":2,"stopSequence":3,"vertexType":"TRANSIT"},"to":{"name":"nouveau","stopId":"1:2304","stopCode":"2304","lon":-71.026011,"lat":48.430204,"arrival":1522683240000,"departure":1522683241000,"zoneId":"NA","stopIndex":25,"stopSequence":26,"vertexType":"TRANSIT"},"legGeometry":{"points":"wrpfHn{tpLv@fCa@nDaC`D~E`F~MfNjJnJ~GbHnCpCv@iBlAgIdCmFbAqDtBeCjFm@`Gs@hFo@xAmBrGcPxFoNlCyGa@yFYkD}CyA}KmFgD_BgAgBn@kFD_NoIgrAmD_WcAaLaDHoDJi`@wVoAbDbA|AnBU|B|AfBlAyLtKoGxFcFqDkJaHgEoDmDwC_TqQsBeB{HjWfAvAfM|O","length":51},"routeShortName":"12","routeLongName":"Rivière du Moulin","rentedBike":false,"transitLeg":true,"duration":1364.0,"steps":[]},{"startTime":1522683241000,"endTime":1522683258000,"departureDelay":0,"arrivalDelay":0,"realTime":false,"distance":21.381999999999998,"pathway":false,"mode":"WALK","route":"","agencyTimeZoneOffset":-14400000,"interlineWithPreviousLeg":false,"from":{"name":"nouveau","stopId":"1:2304","stopCode":"2304","lon":-71.026011,"lat":48.430204,"arrival":1522683240000,"departure":1522683241000,"zoneId":"NA","stopIndex":25,"stopSequence":26,"vertexType":"TRANSIT"},"to":{"name":"Destination","lon":-71.02599499,"lat":48.430429,"arrival":1522683258000,"orig":"","vertexType":"NORMAL"},"legGeometry":{"points":"m_rfH|fopLMMQQ","length":3},"rentedBike":false,"transitLeg":false,"duration":17.0,"steps":[{"distance":21.381999999999998,"relativeDirection":"DEPART","streetName":"Rue Arthur-Hamel","absoluteDirection":"NORTHEAST","stayOn":false,"area":false,"bogusName":false,"lon":-71.02590303997721,"lat":48.43015553479973,"elevation":[]}]}],"tooSloped":false}]},"debugOutput":{"precalculationTime":21,"pathCalculationTime":54,"pathTimes":[27,14,13],"renderingTime":1,"totalTime":76,"timedOut":false},"elevationMetadata":{"ellipsoidToGeoidDifference":-28.885904201182168,"geoidElevation":false}}