{"requestParameters":{"date":"2018/04/02","walkSpeed":"1.33","walkReluctance":"2.0","fromPlace":"48.422927,-71.03518599","maxWalkDistance":"3000","waitReluctance":"1.0","carSpeed":"33","numItineraries":"3","waitAtBeginningFactor":"0.4","mode":"TRANSIT,WALK","ignoreRealtimeUpdates":"false","stairsReluctance":"2.0","toPlace":"48.397177,-71.077055","time":"22:0:00"},"plan":{"date":1522720800000,"from":{"name":"Origin","lon":-71.03518599,"lat":48.422927,"orig":"","vertexType":"NORMAL"},"to":{"name":"Destination","lon":-71.077055,"lat":48.397177,"orig":"","vertexType":"NORMAL"},"itineraries":[{"duration":2569,"startTime":1522720975000,"endTime":1522723544000,"walkTime":1607,"transitTime":960,"waitingTime":2,"walkDistance":2048.1006240488687,"walkLimitExceeded":false,"elevationLost":0.0,"elevationGained":0.0,"transfers":0,"legs":[{"startTime":1522720975000,"endTime":1522721999000,"departureDelay":0,"arrivalDelay":0,"realTime":false,"distance":1288.2439999999997,"pathway":false,"mode":"WALK","route":"","agencyTimeZoneOffset":-14400000,"interlineWithPreviousLeg":false,"from":{"name":"Origin","lon":-71.03518599,"lat":48.422927,"departure":1522720975000,"orig":"","vertexType":"NORMAL"},"to":{"name":"Hôpital de Chicoutimi (Saint-Vallier)","stopId":"1:342","stopCode":"342","lon":-71.050416,"lat":48.426429,"arrival":1522721999000,"departure":1522722000000,"zoneId":"NA","stopIndex":6,"stopSequence":7,"vertexType":"TRANSIT"},"legGeometry":{"points":"mrpfHz`qpLwAbPAPEHEJGLEDCDAH?F@H@F@PAV?`@CRQhBKpAAFa@rEQtBAbAGNGRCBCDAF?F?D@H?~@_@fDObBQrBIv@YvC_AfLAFOtBCVC^YvCc@EEx@CnACf@GNQ?iB[_@EG?K^G?","length":53},"rentedBike":false,"transitLeg":false,"duration":1024.0,"steps":[{"distance":214.424,"relativeDirection":"DEPART","streetName":"Rue Jacques Cartier","absoluteDirection":"WEST","stayOn":false,"area":false,"bogusName":false,"lon":-71.03517622513799,"lat":48.422953732301984,"elevation":[]},{"distance":17.411,"relativeDirection":"SLIGHTLY_RIGHT","streetName":"Rue Jacques Cartier","absoluteDirection":"NORTHWEST","stayOn":true,"area":false,"bogusName":false,"lon":-71.03800000000001,"lat":48.4234087,"elevation":[]},{"distance":21.197000000000003,"relativeDirection":"CIRCLE_COUNTERCLOCKWISE","streetName":"road","absoluteDirection":"NORTHWEST","exit":"3","stayOn":false,"area":false,"bogusName":true,"lon":-71.03818580000001,"lat":48.4235046,"elevation":[]},{"distance":28.149,"relativeDirection":"SLIGHTLY_RIGHT","streetName":"road","absoluteDirection":"WEST","stayOn":false,"area":false,"bogusName":true,"lon":-71.0384255,"lat":48.423540900000006,"elevation":[]},{"distance":232.496,"relativeDirection":"CONTINUE","streetName":"Rue Jacques Cartier","absoluteDirection":"WEST","stayOn":false,"area":false,"bogusName":false,"lon":-71.0388063,"lat":48.423543900000006,"elevation":[]},{"distance":570.089,"relativeDirection":"SLIGHTLY_RIGHT","streetName":"Rue Jacques-Cartier Est","absoluteDirection":"NORTHWEST","stayOn":false,"area":false,"bogusName":false,"lon":-71.0418774,"lat":48.423999300000006,"elevation":[]},{"distance":19.537,"relativeDirection":"RIGHT","streetName":"path","absoluteDirection":"NORTH","stayOn":false,"area":false,"bogusName":true,"lon":-71.04933630000001,"lat":48.425208100000006,"elevation":[]},{"distance":66.589,"relativeDirection":"LEFT","streetName":"service road","absoluteDirection":"WEST","stayOn":true,"area":false,"bogusName":true,"lon":-71.0493017,"lat":48.4253823,"elevation":[]},{"distance":99.413,"relativeDirection":"RIGHT","streetName":"service road","absoluteDirection":"NORTH","stayOn":true,"area":false,"bogusName":true,"lon":-71.05019700000001,"lat":48.425456700000005,"elevation":[]},{"distance":13.926,"relativeDirection":"LEFT","streetName":"path","absoluteDirection":"NORTHWEST","stayOn":true,"area":false,"bogusName":true,"lon":-71.0501005,"lat":48.426314600000005,"elevation":[]},{"distance":5.013,"relativeDirection":"RIGHT","streetName":"Rue Saint-Vallier","absoluteDirection":"NORTH","stayOn":false,"area":false,"bogusName":false,"lon":-71.05026840000001,"lat":48.426371800000005,"elevation":[]}]},{"startTime":1522722000000,"endTime":1522722960000,"departureDelay":0,"arrivalDelay":0,"realTime":false,"distance":5168.18421568146,"pathway":false,"mode":"BUS","route":"175","agencyName":"Société de Transport du Saguenay","agencyUrl":"http://ville.saguenay.ca/fr/services-aux-citoyens/transport-sts","agencyTimeZoneOffset":-14400000,"routeColor":"FF00FF","routeType":3,"routeId":"1:175","routeTextColor":"FFFFFF","interlineWithPreviousLeg":false,"tripBlockId":"7","headsign":"Costco","agencyId":"0","tripId":"1:217352","serviceDate":"20180402","from":{"name":"Hôpital de Chicoutimi (Saint-Vallier)","stopId":"1:342","stopCode":"342","lon":-71.050416,"lat":48.426429,"arrival":1522721999000,"departure":1522722000000,"zoneId":"NA","stopIndex":6,"stopSequence":7,"vertexType":"TRANSIT"},"to":{"name":"boul. Talbot (no. 1870)","stopId":"1:1556","stopCode":"1556","lon":-71.069429,"lat":48.3951,"arrival":1522722960000,"departure":1522722961000,"zoneId":"NA","stopIndex":24,"stopSequence":25,"vertexType":"TRANSIT"},"legGeometry":{"points":"ahqfHf_tpLxEj@iCtYp@r@z@`ABBvHtHXRx@l@VwAvAgB\\qBIuAC]g@yEzDuLbBbBvAxAMx@|@v@`A~@Xw@~D~DPxFZtA~ApE`N{LpFmEb@[ROl@[vDQXKfA[|@q@fAsBlEmMr@sBhCsKz@dAjB|@dM`GzCvAXrCr@~Gx@]PEr@ObACn@FrBb@|@Ch@Kx@U~HsB^KZ|DJpII~Fa@rFUzBi@bDUxAm@nCcAlDM^RTfD`DjF`FjCrCrAvAbCfDjIfMdAzAfFpHd@n@nC`D","length":77},"routeShortName":"175","routeLongName":"Term. Chic / Costco","rentedBike":false,"transitLeg":true,"duration":960.0,"steps":[]},{"startTime":1522722961000,"endTime":1522723544000,"departureDelay":0,"arrivalDelay":0,"realTime":false,"distance":759.507,"pathway":false,"mode":"WALK","route":"","agencyTimeZoneOffset":-14400000,"interlineWithPreviousLeg":false,"from":{"name":"boul. Talbot (no. 1870)","stopId":"1:1556","stopCode":"1556","lon":-71.069429,"lat":48.3951,"arrival":1522722960000,"departure":1522722961000,"zoneId":"NA","stopIndex":24,"stopSequence":25,"vertexType":"TRANSIT"},"to":{"name":"Destination","lon":-71.077055,"lat":48.397177,"arrival":1522723544000,"orig":"","vertexType":"NORMAL"},"legGeometry":{"points":"adkfHjvwpL~DxENP}EfMy@xBWl@e@dBGRiArEgBzG[fAw@u@","length":12},"rentedBike":false,"transitLeg":false,"duration":583.0,"steps":[{"distance":145.045,"relativeDirection":"DEPART","streetName":"Boulevard Talbot","absoluteDirection":"SOUTHWEST","stayOn":false,"area":false,"bogusName":false,"lon":-71.0693341574882,"lat":48.39505259726926,"elevation":[]},{"distance":576.721,"relativeDirection":"RIGHT","streetName":"Boulevard Barrette","absoluteDirection":"NORTHWEST","stayOn":false,"area":false,"bogusName":false,"lon":-71.0705155,"lat":48.394010400000006,"elevation":[]},{"distance":37.741,"relativeDirection":"RIGHT","streetName":"Rue des Cent-Associés","absoluteDirection":"NORTHEAST","stayOn":false,"area":false,"bogusName":false,"lon":-71.07708930000001,"lat":48.396790800000005,"elevation":[]}]}],"tooSloped":false},{"duration":2941,"startTime":1522722271000,"endTime":1522725212000,"walkTime":272,"transitTime":1767,"waitingTime":902,"walkDistance":334.37498495776,"walkLimitExceeded":false,"elevationLost":0.0,"elevationGained":0.0,"transfers":1,"legs":[{"startTime":1522722271000,"endTime":1522722357000,"departureDelay":0,"arrivalDelay":0,"realTime":false,"distance":107.713,"pathway":false,"mode":"WALK","route":"","agencyTimeZoneOffset":-14400000,"interlineWithPreviousLeg":false,"from":{"name":"Origin","lon":-71.03518599,"lat":48.422927,"departure":1522722271000,"orig":"","vertexType":"NORMAL"},"to":{"name":"Chabanel / Jacques-Cartier","stopId":"1:1566","stopCode":"1566","lon":-71.034562,"lat":48.422529,"arrival":1522722357000,"departure":1522722358000,"zoneId":"NA","stopIndex":12,"stopSequence":13,"vertexType":"TRANSIT"},"legGeometry":{"points":"mrpfHz`qpL\\uDt@\\??HH","length":5},"rentedBike":false,"transitLeg":false,"duration":86.0,"steps":[{"distance":69.067,"relativeDirection":"DEPART","streetName":"Rue Jacques Cartier","absoluteDirection":"EAST","stayOn":false,"area":false,"bogusName":false,"lon":-71.03517622513799,"lat":48.422953732301984,"elevation":[]},{"distance":38.646,"relativeDirection":"RIGHT","streetName":"Rue Chabanel","absoluteDirection":"SOUTH","stayOn":false,"area":false,"bogusName":false,"lon":-71.03426660000001,"lat":48.4228074,"elevation":[]}]},{"startTime":1522722358000,"endTime":1522723020000,"departureDelay":0,"arrivalDelay":0,"realTime":false,"distance":3075.4102825167197,"pathway":false,"mode":"BUS","route":"10","agencyName":"Société de Transport du Saguenay","agencyUrl":"http://ville.saguenay.ca/fr/services-aux-citoyens/transport-sts","agencyTimeZoneOffset":-14400000,"routeColor":"0000FF","routeType":3,"routeId":"1:10","routeTextColor":"FFFFFF","interlineWithPreviousLeg":false,"tripBlockId":"29","headsign":"Terminus UQAC","agencyId":"0","tripId":"1:218083","serviceDate":"20180402","from":{"name":"Chabanel / Jacques-Cartier","stopId":"1:1566","stopCode":"1566","lon":-71.034562,"lat":48.422529,"arrival":1522722357000,"departure":1522722358000,"zoneId":"NA","stopIndex":12,"stopSequence":13,"vertexType":"TRANSIT"},"to":{"name":"Terminus UQAC","stopId":"1:1670","stopCode":"1670","lon":-71.053369,"lat":48.420903,"arrival":1522723020000,"departure":1522723920000,"zoneId":"NA","stopIndex":24,"stopSequence":25,"vertexType":"TRANSIT"},"legGeometry":{"points":"oopfHl|ppL|@z@HdAlBbD`Av@b@\\v@d@`@BpBAzAXl@t@XZt@lCl@tAnBpB~@~@lDjDr@r@zDrDnAlAjBrBl@pBPlBCj@KrAAHSpAe@jB_A|Bz@xAvA~BvB|BdN|Nc@bAuA~C}VeWaEpLeIrU|D~EfDdEwLpKeBgGAsE]gAoD}CUt@a@_@USMM","length":49},"routeShortName":"10","routeLongName":"Notre-Dame du Saguenay","rentedBike":false,"transitLeg":true,"duration":662.0,"steps":[]},{"startTime":1522723920000,"endTime":1522725025000,"departureDelay":0,"arrivalDelay":0,"realTime":false,"distance":7209.744891686531,"pathway":false,"mode":"BUS","route":"14","agencyName":"Société de Transport du Saguenay","agencyUrl":"http://ville.saguenay.ca/fr/services-aux-citoyens/transport-sts","agencyTimeZoneOffset":-14400000,"routeColor":"C0C000","routeType":3,"routeId":"1:14","routeTextColor":"000000","interlineWithPreviousLeg":false,"tripBlockId":"30","headsign":"Talbot / Barrette","agencyId":"0","tripId":"1:218119","serviceDate":"20180402","from":{"name":"Terminus UQAC","stopId":"1:1670","stopCode":"1670","lon":-71.053369,"lat":48.420903,"arrival":1522723020000,"departure":1522723920000,"zoneId":"NA","stopIndex":8,"stopSequence":9,"vertexType":"TRANSIT"},"to":{"name":"boul. Barrette / Jacques-Ferron","stopId":"1:271","stopCode":"271","lon":-71.07524,"lat":48.395917,"arrival":1522725025000,"departure":1522725026000,"zoneId":"NA","stopIndex":33,"stopSequence":34,"vertexType":"TRANSIT"},"legGeometry":{"points":"sepfHrrtpLdA`ATq@`E~DL`@E`Ex@hDd@`B}FtFaAzAm@xAe@jCa@nDiAbm@SpKM`H]vBhDVzCTcAvCO^bEbEzK`LfBeEtK`KhAdAnCbCvBpCNR~BxAxBf@z@h@vAz@z@{DrCoITTlElEtAnB`@l@pFrD@?fDr@XgAjFuR\\yADm@b@gFd@_B`A}@tEvJBDvC`FtJ|LLNlClC|@^hCYVExCjCb@d@vE`F`BhB?pHaBhRqAbLK~@qBxFqB|FcC~GyC\\aDkDcFsF~CgOtGm[j@oCvEoSl@_CxCmLjAeFpCeK","length":80},"routeShortName":"14","routeLongName":"Coopérative","rentedBike":false,"transitLeg":true,"duration":1105.0,"steps":[]},{"startTime":1522725026000,"endTime":1522725212000,"departureDelay":0,"arrivalDelay":0,"realTime":false,"distance":226.51800000000003,"pathway":false,"mode":"WALK","route":"","agencyTimeZoneOffset":-14400000,"interlineWithPreviousLeg":false,"from":{"name":"boul. Barrette / Jacques-Ferron","stopId":"1:271","stopCode":"271","lon":-71.07524,"lat":48.395917,"arrival":1522725025000,"departure":1522725026000,"zoneId":"NA","stopIndex":33,"stopSequence":34,"vertexType":"TRANSIT"},"to":{"name":"Destination","lon":-71.077055,"lat":48.397177,"arrival":1522725212000,"orig":"","vertexType":"NORMAL"},"legGeometry":{"points":"kikfHh{xpLmAxEg@jBGIWS[fAw@u@","length":7},"rentedBike":false,"transitLeg":false,"duration":186.0,"steps":[{"distance":136.7,"relativeDirection":"DEPART","streetName":"bike path","absoluteDirection":"NORTHWEST","stayOn":false,"area":false,"bogusName":true,"lon":-71.07524885323046,"lat":48.39590612634041,"elevation":[]},{"distance":20.795,"relativeDirection":"RIGHT","streetName":"path","absoluteDirection":"NORTHEAST","stayOn":true,"area":false,"bogusName":true,"lon":-71.0768749,"lat":48.396494000000004,"elevation":[]},{"distance":31.282,"relativeDirection":"LEFT","streetName":"Boulevard Barrette","absoluteDirection":"NORTHWEST","stayOn":false,"area":false,"bogusName":false,"lon":-71.07672170000001,"lat":48.396650900000004,"elevation":[]},{"distance":37.741,"relativeDirection":"RIGHT","streetName":"Rue des Cent-Associés","absoluteDirection":"NORTHEAST","stayOn":false,"area":false,"bogusName":false,"lon":-71.07708930000001,"lat":48.396790800000005,"elevation":[]}]}],"tooSloped":false},{"duration":2569,"startTime":1522722775000,"endTime":1522725344000,"walkTime":1607,"transitTime":960,"waitingTime":2,"walkDistance":2048.1006240488687,"walkLimitExceeded":false,"elevationLost":0.0,"elevationGained":0.0,"transfers":0,"legs":[{"startTime":1522722775000,"endTime":1522723799000,"departureDelay":0,"arrivalDelay":0,"realTime":false,"distance":1288.2439999999997,"pathway":false,"mode":"WALK","route":"","agencyTimeZoneOffset":-14400000,"interlineWithPreviousLeg":false,"from":{"name":"Origin","lon":-71.03518599,"lat":48.422927,"departure":1522722775000,"orig":"","vertexType":"NORMAL"},"to":{"name":"Hôpital de Chicoutimi (Saint-Vallier)","stopId":"1:342","stopCode":"342","lon":-71.050416,"lat":48.426429,"arrival":1522723799000,"departure":1522723800000,"zoneId":"NA","stopIndex":6,"stopSequence":7,"vertexType":"TRANSIT"},"legGeometry":{"points":"mrpfHz`qpLwAbPAPEHEJGLEDCDAH?F@H@F@PAV?`@CRQhBKpAAFa@rEQtBAbAGNGRCBCDAF?F?D@H?~@_@fDObBQrBIv@YvC_AfLAFOtBCVC^YvCc@EEx@CnACf@GNQ?iB[_@EG?K^G?","length":53},"rentedBike":false,"transitLeg":false,"duration":1024.0,"steps":[{"distance":214.424,"relativeDirection":"DEPART","streetName":"Rue Jacques Cartier","absoluteDirection":"WEST","stayOn":false,"area":false,"bogusName":false,"lon":-71.03517622513799,"lat":48.422953732301984,"elevation":[]},{"distance":17.411,"relativeDirection":"SLIGHTLY_RIGHT","streetName":"Rue Jacques Cartier","absoluteDirection":"NORTHWEST","stayOn":true,"area":false,"bogusName":false,"lon":-71.03800000000001,"lat":48.4234087,"elevation":[]},{"distance":21.197000000000003,"relativeDirection":"CIRCLE_COUNTERCLOCKWISE","streetName":"road","absoluteDirection":"NORTHWEST","exit":"3","stayOn":false,"area":false,"bogusName":true,"lon":-71.03818580000001,"lat":48.4235046,"elevation":[]},{"distance":28.149,"relativeDirection":"SLIGHTLY_RIGHT","streetName":"road","absoluteDirection":"WEST","stayOn":false,"area":false,"bogusName":true,"lon":-71.0384255,"lat":48.423540900000006,"elevation":[]},{"distance":232.496,"relativeDirection":"CONTINUE","streetName":"Rue Jacques Cartier","absoluteDirection":"WEST","stayOn":false,"area":false,"bogusName":false,"lon":-71.0388063,"lat":48.423543900000006,"elevation":[]},{"distance":570.089,"relativeDirection":"SLIGHTLY_RIGHT","streetName":"Rue Jacques-Cartier Est","absoluteDirection":"NORTHWEST","stayOn":false,"area":false,"bogusName":false,"lon":-71.0418774,"lat":48.423999300000006,"elevation":[]},{"distance":19.537,"relativeDirection":"RIGHT","streetName":"path","absoluteDirection":"NORTH","stayOn":false,"area":false,"bogusName":true,"lon":-71.04933630000001,"lat":48.425208100000006,"elevation":[]},{"distance":66.589,"relativeDirection":"LEFT","streetName":"service road","absoluteDirection":"WEST","stayOn":true,"area":false,"bogusName":true,"lon":-71.0493017,"lat":48.4253823,"elevation":[]},{"distance":99.413,"relativeDirection":"RIGHT","streetName":"service road","absoluteDirection":"NORTH","stayOn":true,"area":false,"bogusName":true,"lon":-71.05019700000001,"lat":48.425456700000005,"elevation":[]},{"distance":13.926,"relativeDirection":"LEFT","streetName":"path","absoluteDirection":"NORTHWEST","stayOn":true,"area":false,"bogusName":true,"lon":-71.0501005,"lat":48.426314600000005,"elevation":[]},{"distance":5.013,"relativeDirection":"RIGHT","streetName":"Rue Saint-Vallier","absoluteDirection":"NORTH","stayOn":false,"area":false,"bogusName":false,"lon":-71.05026840000001,"lat":48.426371800000005,"elevation":[]}]},{"startTime":1522723800000,"endTime":1522724760000,"departureDelay":0,"arrivalDelay":0,"realTime":false,"distance":5168.18421568146,"pathway":false,"mode":"BUS","route":"175","agencyName":"Société de Transport du Saguenay","agencyUrl":"http://ville.saguenay.ca/fr/services-aux-citoyens/transport-sts","agencyTimeZoneOffset":-14400000,"routeColor":"FF00FF","routeType":3,"routeId":"1:175","routeTextColor":"FFFFFF","interlineWithPreviousLeg":false,"tripBlockId":"8","headsign":"Costco","agencyId":"0","tripId":"1:217389","serviceDate":"20180402","from":{"name":"Hôpital de Chicoutimi (Saint-Vallier)","stopId":"1:342","stopCode":"342","lon":-71.050416,"lat":48.426429,"arrival":1522723799000,"departure":1522723800000,"zoneId":"NA","stopIndex":6,"stopSequence":7,"vertexType":"TRANSIT"},"to":{"name":"boul. Talbot (no. 1870)","stopId":"1:1556","stopCode":"1556","lon":-71.069429,"lat":48.3951,"arrival":1522724760000,"departure":1522724761000,"zoneId":"NA","stopIndex":24,"stopSequence":25,"vertexType":"TRANSIT"},"legGeometry":{"points":"ahqfHf_tpLxEj@iCtYp@r@z@`ABBvHtHXRx@l@VwAvAgB\\qBIuAC]g@yEzDuLbBbBvAxAMx@|@v@`A~@Xw@~D~DPxFZtA~ApE`N{LpFmEb@[ROl@[vDQXKfA[|@q@fAsBlEmMr@sBhCsKz@dAjB|@dM`GzCvAXrCr@~Gx@]PEr@ObACn@FrBb@|@Ch@Kx@U~HsB^KZ|DJpII~Fa@rFUzBi@bDUxAm@nCcAlDM^RTfD`DjF`FjCrCrAvAbCfDjIfMdAzAfFpHd@n@nC`D","length":77},"routeShortName":"175","routeLongName":"Term. Chic / Costco","rentedBike":false,"transitLeg":true,"duration":960.0,"steps":[]},{"startTime":1522724761000,"endTime":1522725344000,"departureDelay":0,"arrivalDelay":0,"realTime":false,"distance":759.507,"pathway":false,"mode":"WALK","route":"","agencyTimeZoneOffset":-14400000,"interlineWithPreviousLeg":false,"from":{"name":"boul. Talbot (no. 1870)","stopId":"1:1556","stopCode":"1556","lon":-71.069429,"lat":48.3951,"arrival":1522724760000,"departure":1522724761000,"zoneId":"NA","stopIndex":24,"stopSequence":25,"vertexType":"TRANSIT"},"to":{"name":"Destination","lon":-71.077055,"lat":48.397177,"arrival":1522725344000,"orig":"","vertexType":"NORMAL"},"legGeometry":{"points":"adkfHjvwpL~DxENP}EfMy@xBWl@e@dBGRiArEgBzG[fAw@u@","length":12},"rentedBike":false,"transitLeg":false,"duration":583.0,"steps":[{"distance":145.045,"relativeDirection":"DEPART","streetName":"Boulevard Talbot","absoluteDirection":"SOUTHWEST","stayOn":false,"area":false,"bogusName":false,"lon":-71.0693341574882,"lat":48.39505259726926,"elevation":[]},{"distance":576.721,"relativeDirection":"RIGHT","streetName":"Boulevard Barrette","absoluteDirection":"NORTHWEST","stayOn":false,"area":false,"bogusName":false,"lon":-71.0705155,"lat":48.394010400000006,"elevation":[]},{"distance":37.741,"relativeDirection":"RIGHT","streetName":"Rue des Cent-Associés","absoluteDirection":"NORTHEAST","stayOn":false,"area":false,"bogusName":false,"lon":-71.07708930000001,"lat":48.396790800000005,"elevation":[]}]}],"tooSloped":false}]},"debugOutput":{"precalculationTime":25,"pathCalculationTime":46,"pathTimes":[24,11,11],"renderingTime":1,"totalTime":72,"timedOut":false},"elevationMetadata":{"ellipsoidToGeoidDifference":-28.885904201182168,"geoidElevation":false}}