{"requestParameters":{"date":"2018/04/02","walkSpeed":"1.33","walkReluctance":"2.0","fromPlace":"48.416027,-71.084944","maxWalkDistance":"3000","waitReluctance":"1.0","carSpeed":"33","numItineraries":"3","waitAtBeginningFactor":"0.4","mode":"TRANSIT,WALK","ignoreRealtimeUpdates":"false","stairsReluctance":"2.0","toPlace":"48.395887,-71.083131","time":"15:0:00"},"plan":{"date":1522695600000,"from":{"name":"Origin","lon":-71.084944,"lat":48.416027,"orig":"","vertexType":"NORMAL"},"to":{"name":"Destination","lon":-71.083131,"lat":48.395887,"orig":"","vertexType":"NORMAL"},"itineraries":[{"duration":1953,"startTime":1522695953000,"endTime":1522697906000,"walkTime":1644,"transitTime":307,"waitingTime":2,"walkDistance":2141.2111278130583,"walkLimitExceeded":false,"elevationLost":0.0,"elevationGained":0.0,"transfers":0,"legs":[{"startTime":1522695953000,"endTime":1522697535000,"departureDelay":0,"arrivalDelay":0,"realTime":false,"distance":2061.393,"pathway":false,"mode":"WALK","route":"","agencyTimeZoneOffset":-14400000,"interlineWithPreviousLeg":false,"from":{"name":"Origin","lon":-71.084944,"lat":48.416027,"departure":1522695953000,"orig":"","vertexType":"NORMAL"},"to":{"name":"Boily / Garnier","stopId":"1:1567","stopCode":"1567","lon":-71.080057,"lat":48.411756,"arrival":1522697535000,"departure":1522697536000,"zoneId":"NA","stopIndex":15,"stopSequence":16,"vertexType":"TRANSIT"},"legGeometry":{"points":"wiofHzxzpLWNINOh@]r@a@l@Ml@_@][]SIQAKFEV?ZPlAVz@Vp@`Ah@t@d@pBbAl@`@f@JP?LNJRPRr@b@d@\\j@ZrAN^BVOj@q@RQ`AaAH?BBBJIHGf@ITKXMRQ\\Qf@GV?PDD\\Ih@]\\KZGNDHFHh@JPZVTVLVP@RLn@wCJ?PIXY|A{DiBkCk@y@cBcC{@sBi@gBi@qDZQHCnAi@f@YnAoBz@gDXaDV{Bz@wDoAs@","length":82},"alerts":[{"alertHeaderText":"Unpaved surface"}],"rentedBike":false,"transitLeg":false,"duration":1582.0,"steps":[{"distance":1127.061,"relativeDirection":"DEPART","streetName":"path","absoluteDirection":"NORTH","stayOn":false,"area":false,"bogusName":true,"lon":-71.0850992,"lat":48.4164455,"elevation":[],"alerts":[{"alertHeaderText":"Unpaved surface"}]},{"distance":121.414,"relativeDirection":"RIGHT","streetName":"Rue Martin-Bouvard","absoluteDirection":"SOUTH","stayOn":false,"area":false,"bogusName":false,"lon":-71.08914440000001,"lat":48.4121377,"elevation":[]},{"distance":353.491,"relativeDirection":"LEFT","streetName":"Boulevard Saint-Paul","absoluteDirection":"NORTHEAST","stayOn":false,"area":false,"bogusName":false,"lon":-71.088029,"lat":48.4113872,"elevation":[]},{"distance":22.995,"relativeDirection":"RIGHT","streetName":"Rue Saint-Augustin","absoluteDirection":"SOUTH","stayOn":false,"area":false,"bogusName":false,"lon":-71.0843859,"lat":48.413356300000004,"elevation":[]},{"distance":387.072,"relativeDirection":"CONTINUE","streetName":"Rue Garnier","absoluteDirection":"SOUTH","stayOn":false,"area":false,"bogusName":false,"lon":-71.0842714,"lat":48.413164,"elevation":[]},{"distance":49.36,"relativeDirection":"LEFT","streetName":"Rue Boily","absoluteDirection":"NORTHEAST","stayOn":false,"area":false,"bogusName":false,"lon":-71.0801867,"lat":48.41131,"elevation":[]}]},{"startTime":1522697536000,"endTime":1522697843000,"departureDelay":0,"arrivalDelay":0,"realTime":false,"distance":2122.569523748646,"pathway":false,"mode":"BUS","route":"14","agencyName":"Société de Transport du Saguenay","agencyUrl":"http://ville.saguenay.ca/fr/services-aux-citoyens/transport-sts","agencyTimeZoneOffset":-14400000,"routeColor":"C0C000","routeType":3,"routeId":"1:14","routeTextColor":"000000","interlineWithPreviousLeg":false,"tripBlockId":"32","headsign":"Talbot / Barrette","agencyId":"0","tripId":"1:218164","serviceDate":"20180402","from":{"name":"Boily / Garnier","stopId":"1:1567","stopCode":"1567","lon":-71.080057,"lat":48.411756,"arrival":1522697535000,"departure":1522697536000,"zoneId":"NA","stopIndex":15,"stopSequence":16,"vertexType":"TRANSIT"},"to":{"name":"Malraux / Mauriac","stopId":"1:1979","stopCode":"1979","lon":-71.082747,"lat":48.396652,"arrival":1522697843000,"departure":1522697844000,"zoneId":"NA","stopIndex":25,"stopSequence":26,"vertexType":"TRANSIT"},"legGeometry":{"points":"elnfHnxypLvAz@z@{DrCoITTlElEtAnB`@l@pFrD@?fDr@XgAjFuR\\yADm@b@gFd@_B`A}@tEvJBDvC`FtJ|LLNlClC|@^hCYVExCjCb@d@vE`F","length":30},"routeShortName":"14","routeLongName":"Coopérative","rentedBike":false,"transitLeg":true,"duration":307.0,"steps":[]},{"startTime":1522697844000,"endTime":1522697906000,"departureDelay":0,"arrivalDelay":0,"realTime":false,"distance":79.61699999999999,"pathway":false,"mode":"WALK","route":"","agencyTimeZoneOffset":-14400000,"interlineWithPreviousLeg":false,"from":{"name":"Malraux / Mauriac","stopId":"1:1979","stopCode":"1979","lon":-71.082747,"lat":48.396652,"arrival":1522697843000,"departure":1522697844000,"zoneId":"NA","stopIndex":25,"stopSequence":26,"vertexType":"TRANSIT"},"to":{"name":"Destination","lon":-71.083131,"lat":48.395887,"arrival":1522697906000,"orig":"","vertexType":"NORMAL"},"legGeometry":{"points":"qmkfHbizpLNNFHtAlB","length":4},"rentedBike":false,"transitLeg":false,"duration":62.0,"steps":[{"distance":79.61699999999999,"relativeDirection":"DEPART","streetName":"Rue Malraux","absoluteDirection":"SOUTHWEST","stayOn":false,"area":false,"bogusName":false,"lon":-71.08257556801581,"lat":48.39657598034157,"elevation":[]}]}],"tooSloped":false},{"duration":2331,"startTime":1522696064000,"endTime":1522698395000,"walkTime":2249,"transitTime":80,"waitingTime":2,"walkDistance":2942.2161503691586,"walkLimitExceeded":false,"elevationLost":0.0,"elevationGained":0.0,"transfers":0,"legs":[{"startTime":1522696064000,"endTime":1522698265000,"departureDelay":0,"arrivalDelay":0,"realTime":false,"distance":2878.828,"pathway":false,"mode":"WALK","route":"","agencyTimeZoneOffset":-14400000,"interlineWithPreviousLeg":false,"from":{"name":"Origin","lon":-71.084944,"lat":48.416027,"departure":1522696064000,"orig":"","vertexType":"NORMAL"},"to":{"name":"Malraux / Pagnol","stopId":"1:441","stopCode":"441","lon":-71.09356,"lat":48.400447,"arrival":1522698265000,"departure":1522698266000,"zoneId":"NA","stopIndex":6,"stopSequence":7,"vertexType":"TRANSIT"},"legGeometry":{"points":"wiofHzxzpLWNINOh@]r@a@l@Ml@_@][]SIQAKFEV?ZPlAVz@Vp@`Ah@t@d@pBbAl@`@f@JP?LNJRPRr@b@d@\\j@ZrAN^BVOj@q@RQ`AaAH?BBBJIHGf@ITKXMRQ\\Qf@GV?PDD\\Ih@]\\KZGNDHFHh@JPZVTVLVP@RLn@wCJ?PIXY|A{Dj@j@BBfAbAlDhFlC`EpB~CxAxBf@t@n@~@NTxAuDjAwC~IhIdHrGnCfCzEwM@?`@kAjFzFDD","length":86},"alerts":[{"alertHeaderText":"Unpaved surface"}],"rentedBike":false,"transitLeg":false,"duration":2201.0,"steps":[{"distance":1127.061,"relativeDirection":"DEPART","streetName":"path","absoluteDirection":"NORTH","stayOn":false,"area":false,"bogusName":true,"lon":-71.0850992,"lat":48.4164455,"elevation":[],"alerts":[{"alertHeaderText":"Unpaved surface"}]},{"distance":121.414,"relativeDirection":"RIGHT","streetName":"Rue Martin-Bouvard","absoluteDirection":"SOUTH","stayOn":false,"area":false,"bogusName":false,"lon":-71.08914440000001,"lat":48.4121377,"elevation":[]},{"distance":546.91,"relativeDirection":"RIGHT","streetName":"Boulevard Saint-Paul","absoluteDirection":"SOUTHWEST","stayOn":false,"area":false,"bogusName":false,"lon":-71.088029,"lat":48.4113872,"elevation":[]},{"distance":154.358,"relativeDirection":"LEFT","streetName":"Rue Descartes","absoluteDirection":"SOUTHEAST","stayOn":false,"area":false,"bogusName":false,"lon":-71.0928554,"lat":48.4076662,"elevation":[]},{"distance":517.189,"relativeDirection":"RIGHT","streetName":"Rue Voltaire","absoluteDirection":"SOUTHWEST","stayOn":false,"area":false,"bogusName":false,"lon":-71.09118190000001,"lat":48.4068338,"elevation":[]},{"distance":247.08900000000003,"relativeDirection":"LEFT","streetName":"Boulevard Barrette","absoluteDirection":"SOUTHEAST","stayOn":false,"area":false,"bogusName":false,"lon":-71.0948911,"lat":48.4028879,"elevation":[]},{"distance":164.807,"relativeDirection":"RIGHT","streetName":"Rue Malraux","absoluteDirection":"SOUTHWEST","stayOn":false,"area":false,"bogusName":false,"lon":-71.0921587,"lat":48.401604500000005,"elevation":[]}]},{"startTime":1522698266000,"endTime":1522698346000,"departureDelay":0,"arrivalDelay":0,"realTime":false,"distance":1043.4975053867192,"pathway":false,"mode":"BUS","route":"14","agencyName":"Société de Transport du Saguenay","agencyUrl":"http://ville.saguenay.ca/fr/services-aux-citoyens/transport-sts","agencyTimeZoneOffset":-14400000,"routeColor":"C0C000","routeType":3,"routeId":"1:14","routeTextColor":"000000","interlineWithPreviousLeg":false,"tripBlockId":"33","headsign":"Terminus Chicoutimi","agencyId":"0","tripId":"1:218190","serviceDate":"20180402","from":{"name":"Malraux / Pagnol","stopId":"1:441","stopCode":"441","lon":-71.09356,"lat":48.400447,"arrival":1522698265000,"departure":1522698266000,"zoneId":"NA","stopIndex":6,"stopSequence":7,"vertexType":"TRANSIT"},"to":{"name":"Malraux / Mauriac","stopId":"1:446","stopCode":"446","lon":-71.08268,"lat":48.396442,"arrival":1522698346000,"departure":1522698347000,"zoneId":"NA","stopIndex":10,"stopSequence":11,"vertexType":"TRANSIT"},"legGeometry":{"points":"melfHbm|pLhCtCdDY|F_On@aB`B_GNoBvAyT|@sNuAyA","length":10},"routeShortName":"14","routeLongName":"Coopérative","rentedBike":false,"transitLeg":true,"duration":80.0,"steps":[]},{"startTime":1522698347000,"endTime":1522698395000,"departureDelay":0,"arrivalDelay":0,"realTime":false,"distance":63.178,"pathway":false,"mode":"WALK","route":"","agencyTimeZoneOffset":-14400000,"interlineWithPreviousLeg":false,"from":{"name":"Malraux / Mauriac","stopId":"1:446","stopCode":"446","lon":-71.08268,"lat":48.396442,"arrival":1522698346000,"departure":1522698347000,"zoneId":"NA","stopIndex":10,"stopSequence":11,"vertexType":"TRANSIT"},"to":{"name":"Destination","lon":-71.083131,"lat":48.395887,"arrival":1522698395000,"orig":"","vertexType":"NORMAL"},"legGeometry":{"points":"ylkfH|izpLtAlB","length":2},"rentedBike":false,"transitLeg":false,"duration":48.0,"steps":[{"distance":63.178,"relativeDirection":"DEPART","streetName":"Rue Malraux","absoluteDirection":"SOUTHWEST","stayOn":false,"area":false,"bogusName":false,"lon":-71.08270626503317,"lat":48.3964565289992,"elevation":[]}]}],"tooSloped":false},{"duration":1953,"startTime":1522697753000,"endTime":1522699706000,"walkTime":1644,"transitTime":307,"waitingTime":2,"walkDistance":2141.2111278130583,"walkLimitExceeded":false,"elevationLost":0.0,"elevationGained":0.0,"transfers":0,"legs":[{"startTime":1522697753000,"endTime":1522699335000,"departureDelay":0,"arrivalDelay":0,"realTime":false,"distance":2061.393,"pathway":false,"mode":"WALK","route":"","agencyTimeZoneOffset":-14400000,"interlineWithPreviousLeg":false,"from":{"name":"Origin","lon":-71.084944,"lat":48.416027,"departure":1522697753000,"orig":"","vertexType":"NORMAL"},"to":{"name":"Boily / Garnier","stopId":"1:1567","stopCode":"1567","lon":-71.080057,"lat":48.411756,"arrival":1522699335000,"departure":1522699336000,"zoneId":"NA","stopIndex":15,"stopSequence":16,"vertexType":"TRANSIT"},"legGeometry":{"points":"wiofHzxzpLWNINOh@]r@a@l@Ml@_@][]SIQAKFEV?ZPlAVz@Vp@`Ah@t@d@pBbAl@`@f@JP?LNJRPRr@b@d@\\j@ZrAN^BVOj@q@RQ`AaAH?BBBJIHGf@ITKXMRQ\\Qf@GV?PDD\\Ih@]\\KZGNDHFHh@JPZVTVLVP@RLn@wCJ?PIXY|A{DiBkCk@y@cBcC{@sBi@gBi@qDZQHCnAi@f@YnAoBz@gDXaDV{Bz@wDoAs@","length":82},"alerts":[{"alertHeaderText":"Unpaved surface"}],"rentedBike":false,"transitLeg":false,"duration":1582.0,"steps":[{"distance":1127.061,"relativeDirection":"DEPART","streetName":"path","absoluteDirection":"NORTH","stayOn":false,"area":false,"bogusName":true,"lon":-71.0850992,"lat":48.4164455,"elevation":[],"alerts":[{"alertHeaderText":"Unpaved surface"}]},{"distance":121.414,"relativeDirection":"RIGHT","streetName":"Rue Martin-Bouvard","absoluteDirection":"SOUTH","stayOn":false,"area":false,"bogusName":false,"lon":-71.08914440000001,"lat":48.4121377,"elevation":[]},{"distance":353.491,"relativeDirection":"LEFT","streetName":"Boulevard Saint-Paul","absoluteDirection":"NORTHEAST","stayOn":false,"area":false,"bogusName":false,"lon":-71.088029,"lat":48.4113872,"elevation":[]},{"distance":22.995,"relativeDirection":"RIGHT","streetName":"Rue Saint-Augustin","absoluteDirection":"SOUTH","stayOn":false,"area":false,"bogusName":false,"lon":-71.0843859,"lat":48.413356300000004,"elevation":[]},{"distance":387.072,"relativeDirection":"CONTINUE","streetName":"Rue Garnier","absoluteDirection":"SOUTH","stayOn":false,"area":false,"bogusName":false,"lon":-71.0842714,"lat":48.413164,"elevation":[]},{"distance":49.36,"relativeDirection":"LEFT","streetName":"Rue Boily","absoluteDirection":"NORTHEAST","stayOn":false,"area":false,"bogusName":false,"lon":-71.0801867,"lat":48.41131,"elevation":[]}]},{"startTime":1522699336000,"endTime":1522699643000,"departureDelay":0,"arrivalDelay":0,"realTime":false,"distance":2122.569523748646,"pathway":false,"mode":"BUS","route":"14","agencyName":"Société de Transport du Saguenay","agencyUrl":"http://ville.saguenay.ca/fr/services-aux-citoyens/transport-sts","agencyTimeZoneOffset":-14400000,"routeColor":"C0C000","routeType":3,"routeId":"1:14","routeTextColor":"000000","interlineWithPreviousLeg":false,"tripBlockId":"30","headsign":"Talbot / Barrette","agencyId":"0","tripId":"1:218105","serviceDate":"20180402","from":{"name":"Boily / Garnier","stopId":"1:1567","stopCode":"1567","lon":-71.080057,"lat":48.411756,"arrival":1522699335000,"departure":1522699336000,"zoneId":"NA","stopIndex":15,"stopSequence":16,"vertexType":"TRANSIT"},"to":{"name":"Malraux / Mauriac","stopId":"1:1979","stopCode":"1979","lon":-71.082747,"lat":48.396652,"arrival":1522699643000,"departure":1522699644000,"zoneId":"NA","stopIndex":25,"stopSequence":26,"vertexType":"TRANSIT"},"legGeometry":{"points":"elnfHnxypLvAz@z@{DrCoITTlElEtAnB`@l@pFrD@?fDr@XgAjFuR\\yADm@b@gFd@_B`A}@tEvJBDvC`FtJ|LLNlClC|@^hCYVExCjCb@d@vE`F","length":30},"routeShortName":"14","routeLongName":"Coopérative","rentedBike":false,"transitLeg":true,"duration":307.0,"steps":[]},{"startTime":1522699644000,"endTime":1522699706000,"departureDelay":0,"arrivalDelay":0,"realTime":false,"distance":79.61699999999999,"pathway":false,"mode":"WALK","route":"","agencyTimeZoneOffset":-14400000,"interlineWithPreviousLeg":false,"from":{"name":"Malraux / Mauriac","stopId":"1:1979","stopCode":"1979","lon":-71.082747,"lat":48.396652,"arrival":1522699643000,"departure":1522699644000,"zoneId":"NA","stopIndex":25,"stopSequence":26,"vertexType":"TRANSIT"},"to":{"name":"Destination","lon":-71.083131,"lat":48.395887,"arrival":1522699706000,"orig":"","vertexType":"NORMAL"},"legGeometry":{"points":"qmkfHbizpLNNFHtAlB","length":4},"rentedBike":false,"transitLeg":false,"duration":62.0,"steps":[{"distance":79.61699999999999,"relativeDirection":"DEPART","streetName":"Rue Malraux","absoluteDirection":"SOUTHWEST","stayOn":false,"area":false,"bogusName":false,"lon":-71.08257556801581,"lat":48.39657598034157,"elevation":[]}]}],"tooSloped":false}]},"debugOutput":{"precalculationTime":14,"pathCalculationTime":16,"pathTimes":[10,4,2],"renderingTime":0,"totalTime":30,"timedOut":false},"elevationMetadata":{"ellipsoidToGeoidDifference":-28.885904201182168,"geoidElevation":false}}