{"requestParameters":{"date":"2018/04/02","walkSpeed":"1.33","walkReluctance":"2.0","fromPlace":"48.425547,-71.06227699","maxWalkDistance":"3000","waitReluctance":"1.0","carSpeed":"33","numItineraries":"3","waitAtBeginningFactor":"0.4","mode":"TRANSIT,WALK","ignoreRealtimeUpdates":"false","stairsReluctance":"2.0","toPlace":"48.426232,-71.067087","time":"8:45:00"},"plan":{"date":1522673100000,"from":{"name":"Origin","lon":-71.06227699,"lat":48.425547,"orig":"","vertexType":"NORMAL"},"to":{"name":"Destination","lon":-71.067087,"lat":48.426232,"orig":"","vertexType":"NORMAL"},"itineraries":[{"duration":358,"startTime":1522673100000,"endTime":1522673458000,"walkTime":358,"transitTime":0,"waitingTime":0,"walkDistance":450.0269398471737,"walkLimitExceeded":false,"elevationLost":0.0,"elevationGained":0.0,"transfers":0,"legs":[{"startTime":1522673100000,"endTime":1522673458000,"departureDelay":0,"arrivalDelay":0,"realTime":false,"distance":449.9510000000001,"pathway":false,"mode":"WALK","route":"","agencyTimeZoneOffset":-14400000,"interlineWithPreviousLeg":false,"from":{"name":"Origin","lon":-71.06227699,"lat":48.425547,"departure":1522673100000,"orig":"","vertexType":"NORMAL"},"to":{"name":"Destination","lon":-71.067087,"lat":48.426232,"arrival":1522673458000,"orig":"","vertexType":"NORMAL"},"legGeometry":{"points":"wbqfHhmvpLi@AG?q@KeAQAX?REvBCd@AVA\\CpAAx@A^Ar@EvCKdEH@hAJ","length":19},"rentedBike":false,"transitLeg":false,"duration":358.0,"steps":[{"distance":95.096,"relativeDirection":"DEPART","streetName":"Rue Saint-Sacrement","absoluteDirection":"NORTH","stayOn":false,"area":false,"bogusName":false,"lon":-71.06276889719847,"lat":48.42556265101473,"elevation":[]},{"distance":307.827,"relativeDirection":"LEFT","streetName":"Rue Jacques-Cartier Est","absoluteDirection":"WEST","stayOn":false,"area":false,"bogusName":false,"lon":-71.062607,"lat":48.426410000000004,"elevation":[]},{"distance":47.028,"relativeDirection":"LEFT","streetName":"Rue Lemieux","absoluteDirection":"SOUTH","stayOn":false,"area":false,"bogusName":false,"lon":-71.0667645,"lat":48.4266343,"elevation":[]}]}],"tooSloped":false},{"duration":287,"startTime":1522674191000,"endTime":1522674478000,"walkTime":211,"transitTime":74,"waitingTime":2,"walkDistance":264.05629323091136,"walkLimitExceeded":false,"elevationLost":0.0,"elevationGained":0.0,"transfers":0,"legs":[{"startTime":1522674191000,"endTime":1522674318000,"departureDelay":0,"arrivalDelay":0,"realTime":false,"distance":159.714,"pathway":false,"mode":"WALK","route":"","agencyTimeZoneOffset":-14400000,"interlineWithPreviousLeg":false,"from":{"name":"Origin","lon":-71.06227699,"lat":48.425547,"departure":1522674191000,"orig":"","vertexType":"NORMAL"},"to":{"name":"Conservatoire (Jacques-Cartier)","stopId":"1:69","stopCode":"69","lon":-71.06173,"lat":48.42643,"arrival":1522674318000,"departure":1522674319000,"zoneId":"NA","stopIndex":35,"stopSequence":36,"vertexType":"TRANSIT"},"legGeometry":{"points":"wbqfHhmvpLi@AG?q@KeAQBeABgB","length":7},"rentedBike":false,"transitLeg":false,"duration":127.0,"steps":[{"distance":95.096,"relativeDirection":"DEPART","streetName":"Rue Saint-Sacrement","absoluteDirection":"NORTH","stayOn":false,"area":false,"bogusName":false,"lon":-71.06276889719847,"lat":48.42556265101473,"elevation":[]},{"distance":64.618,"relativeDirection":"RIGHT","streetName":"Rue Jacques-Cartier Est","absoluteDirection":"EAST","stayOn":false,"area":false,"bogusName":false,"lon":-71.062607,"lat":48.426410000000004,"elevation":[]}]},{"startTime":1522674319000,"endTime":1522674393000,"departureDelay":0,"arrivalDelay":0,"realTime":false,"distance":429.38723183450827,"pathway":false,"mode":"BUS","route":"15","agencyName":"Société de Transport du Saguenay","agencyUrl":"http://ville.saguenay.ca/fr/services-aux-citoyens/transport-sts","agencyTimeZoneOffset":-14400000,"routeColor":"FF00FF","routeType":3,"routeId":"1:15","routeTextColor":"FFFFFF","interlineWithPreviousLeg":false,"tripBlockId":"32","headsign":"Terminus Chicoutimi","agencyId":"0","tripId":"1:218151","serviceDate":"20180402","from":{"name":"Conservatoire (Jacques-Cartier)","stopId":"1:69","stopCode":"69","lon":-71.06173,"lat":48.42643,"arrival":1522674318000,"departure":1522674319000,"zoneId":"NA","stopIndex":35,"stopSequence":36,"vertexType":"TRANSIT"},"to":{"name":"Jacques-Cartier / Tessier","stopId":"1:62","stopCode":"62","lon":-71.067531,"lat":48.426736,"arrival":1522674393000,"departure":1522674394000,"zoneId":"NA","stopIndex":37,"stopSequence":38,"vertexType":"TRANSIT"},"legGeometry":{"points":"wgqfHzfvpLKvJU|F?XQlJC~@ChA","length":7},"routeShortName":"15","routeLongName":"Term. Chic / Costco","rentedBike":false,"transitLeg":true,"duration":74.0,"steps":[]},{"startTime":1522674394000,"endTime":1522674478000,"departureDelay":0,"arrivalDelay":0,"realTime":false,"distance":104.275,"pathway":false,"mode":"WALK","route":"","agencyTimeZoneOffset":-14400000,"interlineWithPreviousLeg":false,"from":{"name":"Jacques-Cartier / Tessier","stopId":"1:62","stopCode":"62","lon":-71.067531,"lat":48.426736,"arrival":1522674393000,"departure":1522674394000,"zoneId":"NA","stopIndex":37,"stopSequence":38,"vertexType":"TRANSIT"},"to":{"name":"Destination","lon":-71.067087,"lat":48.426232,"arrival":1522674478000,"orig":"","vertexType":"NORMAL"},"legGeometry":{"points":"uiqfHbkwpLBwABaAH@hAJ","length":5},"rentedBike":false,"transitLeg":false,"duration":84.0,"steps":[{"distance":57.247,"relativeDirection":"DEPART","streetName":"Rue Jacques-Cartier Est","absoluteDirection":"EAST","stayOn":false,"area":false,"bogusName":false,"lon":-71.0675380239516,"lat":48.42667414840684,"elevation":[]},{"distance":47.028,"relativeDirection":"RIGHT","streetName":"Rue Lemieux","absoluteDirection":"SOUTH","stayOn":false,"area":false,"bogusName":false,"lon":-71.0667645,"lat":48.4266343,"elevation":[]}]}],"tooSloped":false},{"duration":317,"startTime":1522674235000,"endTime":1522674552000,"walkTime":266,"transitTime":49,"waitingTime":2,"walkDistance":336.4844210504238,"walkLimitExceeded":false,"elevationLost":0.0,"elevationGained":0.0,"transfers":0,"legs":[{"startTime":1522674235000,"endTime":1522674362000,"departureDelay":0,"arrivalDelay":0,"realTime":false,"distance":159.714,"pathway":false,"mode":"WALK","route":"","agencyTimeZoneOffset":-14400000,"interlineWithPreviousLeg":false,"from":{"name":"Origin","lon":-71.06227699,"lat":48.425547,"departure":1522674235000,"orig":"","vertexType":"NORMAL"},"to":{"name":"Conservatoire (Jacques-Cartier)","stopId":"1:69","stopCode":"69","lon":-71.06173,"lat":48.42643,"arrival":1522674362000,"departure":1522674363000,"zoneId":"NA","stopIndex":35,"stopSequence":36,"vertexType":"TRANSIT"},"legGeometry":{"points":"wbqfHhmvpLi@AG?q@KeAQBeABgB","length":7},"rentedBike":false,"transitLeg":false,"duration":127.0,"steps":[{"distance":95.096,"relativeDirection":"DEPART","streetName":"Rue Saint-Sacrement","absoluteDirection":"NORTH","stayOn":false,"area":false,"bogusName":false,"lon":-71.06276889719847,"lat":48.42556265101473,"elevation":[]},{"distance":64.618,"relativeDirection":"RIGHT","streetName":"Rue Jacques-Cartier Est","absoluteDirection":"EAST","stayOn":false,"area":false,"bogusName":false,"lon":-71.062607,"lat":48.426410000000004,"elevation":[]}]},{"startTime":1522674363000,"endTime":1522674412000,"departureDelay":0,"arrivalDelay":0,"realTime":false,"distance":242.56351239553635,"pathway":false,"mode":"BUS","route":"14","agencyName":"Société de Transport du Saguenay","agencyUrl":"http://ville.saguenay.ca/fr/services-aux-citoyens/transport-sts","agencyTimeZoneOffset":-14400000,"routeColor":"C0C000","routeType":3,"routeId":"1:14","routeTextColor":"000000","interlineWithPreviousLeg":false,"tripBlockId":"33","headsign":"Terminus Chicoutimi","agencyId":"0","tripId":"1:218176","serviceDate":"20180402","from":{"name":"Conservatoire (Jacques-Cartier)","stopId":"1:69","stopCode":"69","lon":-71.06173,"lat":48.42643,"arrival":1522674362000,"departure":1522674363000,"zoneId":"NA","stopIndex":35,"stopSequence":36,"vertexType":"TRANSIT"},"to":{"name":"Jacques-Cartier / Morin","stopId":"1:1930","stopCode":"1930","lon":-71.065007,"lat":48.426603,"arrival":1522674412000,"departure":1522674413000,"zoneId":"NA","stopIndex":36,"stopSequence":37,"vertexType":"TRANSIT"},"legGeometry":{"points":"{gqfHzfvpLG~EUnL","length":3},"routeShortName":"14","routeLongName":"Coopérative","rentedBike":false,"transitLeg":true,"duration":49.0,"steps":[]},{"startTime":1522674413000,"endTime":1522674552000,"departureDelay":0,"arrivalDelay":0,"realTime":false,"distance":176.702,"pathway":false,"mode":"WALK","route":"","agencyTimeZoneOffset":-14400000,"interlineWithPreviousLeg":false,"from":{"name":"Jacques-Cartier / Morin","stopId":"1:1930","stopCode":"1930","lon":-71.065007,"lat":48.426603,"arrival":1522674412000,"departure":1522674413000,"zoneId":"NA","stopIndex":36,"stopSequence":37,"vertexType":"TRANSIT"},"to":{"name":"Destination","lon":-71.067087,"lat":48.426232,"arrival":1522674552000,"orig":"","vertexType":"NORMAL"},"legGeometry":{"points":"{hqfHj{vpLEvCKdEH@hAJ","length":5},"rentedBike":false,"transitLeg":false,"duration":139.0,"steps":[{"distance":129.674,"relativeDirection":"DEPART","streetName":"Rue Jacques-Cartier Est","absoluteDirection":"WEST","stayOn":false,"area":false,"bogusName":false,"lon":-71.06501225432459,"lat":48.42654615659386,"elevation":[]},{"distance":47.028,"relativeDirection":"LEFT","streetName":"Rue Lemieux","absoluteDirection":"SOUTH","stayOn":false,"area":false,"bogusName":false,"lon":-71.0667645,"lat":48.4266343,"elevation":[]}]}],"tooSloped":false}]},"debugOutput":{"precalculationTime":41,"pathCalculationTime":17,"pathTimes":[5,10,2],"renderingTime":0,"totalTime":58,"timedOut":false},"elevationMetadata":{"ellipsoidToGeoidDifference":-28.885904201182168,"geoidElevation":false}}