{"requestParameters":{"date":"2018/04/02","walkSpeed":"1.33","walkReluctance":"2.0","fromPlace":"48.394784,-71.077217","maxWalkDistance":"3000","waitReluctance":"1.0","carSpeed":"33","numItineraries":"3","waitAtBeginningFactor":"0.4","mode":"TRANSIT,WALK","ignoreRealtimeUpdates":"false","stairsReluctance":"2.0","toPlace":"48.396984,-71.09024499","time":"16:0:00"},"plan":{"date":1522699200000,"from":{"name":"Origin","lon":-71.077217,"lat":48.394784,"orig":"","vertexType":"NORMAL"},"to":{"name":"Destination","lon":-71.09024499,"lat":48.396984,"orig":"","vertexType":"NORMAL"},"itineraries":[{"duration":469,"startTime":1522699232000,"endTime":1522699701000,"walkTime":428,"transitTime":39,"waitingTime":2,"walkDistance":547.0720300715732,"walkLimitExceeded":false,"elevationLost":0.0,"elevationGained":0.0,"transfers":0,"legs":[{"startTime":1522699232000,"endTime":1522699642000,"departureDelay":0,"arrivalDelay":0,"realTime":false,"distance":523.3320000000001,"pathway":false,"mode":"WALK","route":"","agencyTimeZoneOffset":-14400000,"interlineWithPreviousLeg":false,"from":{"name":"Origin","lon":-71.077217,"lat":48.394784,"departure":1522699232000,"orig":"","vertexType":"NORMAL"},"to":{"name":"Malraux / Mauriac","stopId":"1:1979","stopCode":"1979","lon":-71.082747,"lat":48.396652,"arrival":1522699642000,"departure":1522699643000,"zoneId":"NA","stopIndex":25,"stopSequence":26,"vertexType":"TRANSIT"},"legGeometry":{"points":"cckfHjgypLOxAw@vBGNgAxCbBhBLPqEdLeAhDOO","length":10},"rentedBike":false,"transitLeg":false,"duration":410.0,"steps":[{"distance":165.889,"relativeDirection":"DEPART","streetName":"Rue Flaubert","absoluteDirection":"WEST","stayOn":false,"area":false,"bogusName":false,"lon":-71.0771708551869,"lat":48.394909985719934,"elevation":[]},{"distance":78.087,"relativeDirection":"LEFT","streetName":"Rue Rimbaud","absoluteDirection":"SOUTHWEST","stayOn":false,"area":false,"bogusName":false,"lon":-71.0790798,"lat":48.3956639,"elevation":[]},{"distance":269.05,"relativeDirection":"RIGHT","streetName":"Rue Mauriac","absoluteDirection":"NORTHWEST","stayOn":false,"area":false,"bogusName":false,"lon":-71.0796919,"lat":48.3950912,"elevation":[]},{"distance":10.306,"relativeDirection":"RIGHT","streetName":"Rue Malraux","absoluteDirection":"NORTHEAST","stayOn":false,"area":false,"bogusName":false,"lon":-71.0826531,"lat":48.396498900000005,"elevation":[]}]},{"startTime":1522699643000,"endTime":1522699682000,"departureDelay":0,"arrivalDelay":0,"realTime":false,"distance":528.0325269595855,"pathway":false,"mode":"BUS","route":"14","agencyName":"Société de Transport du Saguenay","agencyUrl":"http://ville.saguenay.ca/fr/services-aux-citoyens/transport-sts","agencyTimeZoneOffset":-14400000,"routeColor":"C0C000","routeType":3,"routeId":"1:14","routeTextColor":"000000","interlineWithPreviousLeg":false,"tripBlockId":"30","headsign":"Talbot / Barrette","agencyId":"0","tripId":"1:218105","serviceDate":"20180402","from":{"name":"Malraux / Mauriac","stopId":"1:1979","stopCode":"1979","lon":-71.082747,"lat":48.396652,"arrival":1522699642000,"departure":1522699643000,"zoneId":"NA","stopIndex":25,"stopSequence":26,"vertexType":"TRANSIT"},"to":{"name":"Malraux / Antonin Artaud","stopId":"1:1602","stopCode":"1602","lon":-71.08988,"lat":48.396998,"arrival":1522699682000,"departure":1522699683000,"zoneId":"NA","stopIndex":26,"stopSequence":27,"vertexType":"TRANSIT"},"legGeometry":{"points":"umkfHlizpL`BhB?pHaBhRqAbL","length":5},"routeShortName":"14","routeLongName":"Coopérative","rentedBike":false,"transitLeg":true,"duration":39.0,"steps":[]},{"startTime":1522699683000,"endTime":1522699701000,"departureDelay":0,"arrivalDelay":0,"realTime":false,"distance":23.628,"pathway":false,"mode":"WALK","route":"","agencyTimeZoneOffset":-14400000,"interlineWithPreviousLeg":false,"from":{"name":"Malraux / Antonin Artaud","stopId":"1:1602","stopCode":"1602","lon":-71.08988,"lat":48.396998,"arrival":1522699682000,"departure":1522699683000,"zoneId":"NA","stopIndex":26,"stopSequence":27,"vertexType":"TRANSIT"},"to":{"name":"Destination","lon":-71.09024499,"lat":48.396984,"arrival":1522699701000,"orig":"","vertexType":"NORMAL"},"legGeometry":{"points":"wokfH`w{pLMl@CJ","length":3},"rentedBike":false,"transitLeg":false,"duration":18.0,"steps":[{"distance":23.628,"relativeDirection":"DEPART","streetName":"Rue Malraux","absoluteDirection":"NORTHWEST","stayOn":false,"area":false,"bogusName":false,"lon":-71.08992438217443,"lat":48.3969271453528,"elevation":[]}]}],"tooSloped":false},{"duration":866,"startTime":1522699200000,"endTime":1522700066000,"walkTime":866,"transitTime":0,"waitingTime":0,"walkDistance":1112.6130977398725,"walkLimitExceeded":false,"elevationLost":0.0,"elevationGained":0.0,"transfers":0,"legs":[{"startTime":1522699200000,"endTime":1522700066000,"departureDelay":0,"arrivalDelay":0,"realTime":false,"distance":1112.474,"pathway":false,"mode":"WALK","route":"","agencyTimeZoneOffset":-14400000,"interlineWithPreviousLeg":false,"from":{"name":"Origin","lon":-71.077217,"lat":48.394784,"departure":1522699200000,"orig":"","vertexType":"NORMAL"},"to":{"name":"Destination","lon":-71.09024499,"lat":48.396984,"arrival":1522700066000,"orig":"","vertexType":"NORMAL"},"legGeometry":{"points":"cckfHjgypLOxAw@vBGNgAxCbBhBLPqEdLeAhDFHtAlBLr@K`CKbA_@tEANALMhB}AfQUdCCNMl@CJ","length":23},"rentedBike":false,"transitLeg":false,"duration":866.0,"steps":[{"distance":165.889,"relativeDirection":"DEPART","streetName":"Rue Flaubert","absoluteDirection":"WEST","stayOn":false,"area":false,"bogusName":false,"lon":-71.0771708551869,"lat":48.394909985719934,"elevation":[]},{"distance":78.087,"relativeDirection":"LEFT","streetName":"Rue Rimbaud","absoluteDirection":"SOUTHWEST","stayOn":false,"area":false,"bogusName":false,"lon":-71.0790798,"lat":48.3956639,"elevation":[]},{"distance":269.05,"relativeDirection":"RIGHT","streetName":"Rue Mauriac","absoluteDirection":"NORTHWEST","stayOn":false,"area":false,"bogusName":false,"lon":-71.0796919,"lat":48.3950912,"elevation":[]},{"distance":599.4480000000001,"relativeDirection":"LEFT","streetName":"Rue Malraux","absoluteDirection":"SOUTHWEST","stayOn":false,"area":false,"bogusName":false,"lon":-71.0826531,"lat":48.396498900000005,"elevation":[]}]}],"tooSloped":false},{"duration":493,"startTime":1522699681000,"endTime":1522700174000,"walkTime":350,"transitTime":141,"waitingTime":2,"walkDistance":436.43516540978555,"walkLimitExceeded":false,"elevationLost":0.0,"elevationGained":0.0,"transfers":0,"legs":[{"startTime":1522699681000,"endTime":1522699968000,"departureDelay":0,"arrivalDelay":0,"realTime":false,"distance":355.56399999999996,"pathway":false,"mode":"WALK","route":"","agencyTimeZoneOffset":-14400000,"interlineWithPreviousLeg":false,"from":{"name":"Origin","lon":-71.077217,"lat":48.394784,"departure":1522699681000,"orig":"","vertexType":"NORMAL"},"to":{"name":"boul. Barrette / Cent Associés","stopId":"1:1596","stopCode":"1596","lon":-71.07741,"lat":48.396946,"arrival":1522699968000,"departure":1522699969000,"zoneId":"NA","stopIndex":2,"stopSequence":3,"vertexType":"TRANSIT"},"legGeometry":{"points":"cckfHjgypLOxAw@vBGNc@g@cBsBW[EMCO?M@OeAi@GIWS[fAWdA","length":16},"rentedBike":false,"transitLeg":false,"duration":287.0,"steps":[{"distance":96.134,"relativeDirection":"DEPART","streetName":"Rue Flaubert","absoluteDirection":"WEST","stayOn":false,"area":false,"bogusName":false,"lon":-71.0771708551869,"lat":48.394909985719934,"elevation":[]},{"distance":136.44799999999998,"relativeDirection":"RIGHT","streetName":"Rue Jacques-Ferron","absoluteDirection":"NORTHEAST","stayOn":false,"area":false,"bogusName":false,"lon":-71.0783084,"lat":48.395301700000005,"elevation":[]},{"distance":62.658,"relativeDirection":"LEFT","streetName":"path","absoluteDirection":"NORTH","stayOn":false,"area":false,"bogusName":true,"lon":-71.0770823,"lat":48.3961436,"elevation":[]},{"distance":60.324,"relativeDirection":"LEFT","streetName":"Boulevard Barrette","absoluteDirection":"NORTHWEST","stayOn":false,"area":false,"bogusName":false,"lon":-71.07672170000001,"lat":48.396650900000004,"elevation":[]}]},{"startTime":1522699969000,"endTime":1522700110000,"departureDelay":0,"arrivalDelay":0,"realTime":false,"distance":1850.089118359112,"pathway":false,"mode":"BUS","route":"14","agencyName":"Société de Transport du Saguenay","agencyUrl":"http://ville.saguenay.ca/fr/services-aux-citoyens/transport-sts","agencyTimeZoneOffset":-14400000,"routeColor":"C0C000","routeType":3,"routeId":"1:14","routeTextColor":"000000","interlineWithPreviousLeg":false,"tripBlockId":"31","headsign":"Terminus Chicoutimi","agencyId":"0","tripId":"1:218141","serviceDate":"20180402","from":{"name":"boul. Barrette / Cent Associés","stopId":"1:1596","stopCode":"1596","lon":-71.07741,"lat":48.396946,"arrival":1522699968000,"departure":1522699969000,"zoneId":"NA","stopIndex":2,"stopSequence":3,"vertexType":"TRANSIT"},"to":{"name":"Malraux / Antonin Artaud","stopId":"1:1592","stopCode":"1592","lon":-71.089203,"lat":48.396726,"arrival":1522700110000,"departure":1522700111000,"zoneId":"NA","stopIndex":8,"stopSequence":9,"vertexType":"TRANSIT"},"legGeometry":{"points":"uokfH~hypLcD`Mi@dCgChLmCzMwGd\\aDxOdFtFhCtCdDY|F_On@aB`B_GNoB","length":14},"routeShortName":"14","routeLongName":"Coopérative","rentedBike":false,"transitLeg":true,"duration":141.0,"steps":[]},{"startTime":1522700111000,"endTime":1522700174000,"departureDelay":0,"arrivalDelay":0,"realTime":false,"distance":80.755,"pathway":false,"mode":"WALK","route":"","agencyTimeZoneOffset":-14400000,"interlineWithPreviousLeg":false,"from":{"name":"Malraux / Antonin Artaud","stopId":"1:1592","stopCode":"1592","lon":-71.089203,"lat":48.396726,"arrival":1522700110000,"departure":1522700111000,"zoneId":"NA","stopIndex":8,"stopSequence":9,"vertexType":"TRANSIT"},"to":{"name":"Destination","lon":-71.09024499,"lat":48.396984,"arrival":1522700174000,"orig":"","vertexType":"NORMAL"},"legGeometry":{"points":"}nkfHjr{pLUdCCNMl@CJ","length":5},"rentedBike":false,"transitLeg":false,"duration":63.0,"steps":[{"distance":80.755,"relativeDirection":"DEPART","streetName":"Rue Malraux","absoluteDirection":"WEST","stayOn":false,"area":false,"bogusName":false,"lon":-71.08917703776801,"lat":48.39679637743311,"elevation":[]}]}],"tooSloped":false}]},"debugOutput":{"precalculationTime":19,"pathCalculationTime":19,"pathTimes":[10,8,1],"renderingTime":0,"totalTime":38,"timedOut":false},"elevationMetadata":{"ellipsoidToGeoidDifference":-28.885904201182168,"geoidElevation":false}}