{"requestParameters":{"date":"2018/04/02","walkSpeed":"1.33","walkReluctance":"2.0","fromPlace":"48.394714,-71.076811","maxWalkDistance":"3000","waitReluctance":"1.0","carSpeed":"33","numItineraries":"3","waitAtBeginningFactor":"0.4","mode":"TRANSIT,WALK","ignoreRealtimeUpdates":"false","stairsReluctance":"2.0","toPlace":"48.396984,-71.09024499","time":"10:0:00"},"plan":{"date":1522677600000,"from":{"name":"Origin","lon":-71.076811,"lat":48.394714,"orig":"","vertexType":"NORMAL"},"to":{"name":"Destination","lon":-71.09024499,"lat":48.396984,"orig":"","vertexType":"NORMAL"},"itineraries":[{"duration":493,"startTime":1522677608000,"endTime":1522678101000,"walkTime":452,"transitTime":39,"waitingTime":2,"walkDistance":578.0489248081606,"walkLimitExceeded":false,"elevationLost":0.0,"elevationGained":0.0,"transfers":0,"legs":[{"startTime":1522677608000,"endTime":1522678042000,"departureDelay":0,"arrivalDelay":0,"realTime":false,"distance":554.301,"pathway":false,"mode":"WALK","route":"","agencyTimeZoneOffset":-14400000,"interlineWithPreviousLeg":false,"from":{"name":"Origin","lon":-71.076811,"lat":48.394714,"departure":1522677608000,"orig":"","vertexType":"NORMAL"},"to":{"name":"Malraux / Mauriac","stopId":"1:1979","stopCode":"1979","lon":-71.082747,"lat":48.396652,"arrival":1522678042000,"departure":1522678043000,"zoneId":"NA","stopIndex":25,"stopSequence":26,"vertexType":"TRANSIT"},"legGeometry":{"points":"wbkfHxdypLGv@SrBw@vBGNgAxCbBhBLPqEdLeAhDOO","length":11},"rentedBike":false,"transitLeg":false,"duration":434.0,"steps":[{"distance":196.858,"relativeDirection":"DEPART","streetName":"Rue Flaubert","absoluteDirection":"WEST","stayOn":false,"area":false,"bogusName":false,"lon":-71.0767633674054,"lat":48.39484425355627,"elevation":[]},{"distance":78.087,"relativeDirection":"LEFT","streetName":"Rue Rimbaud","absoluteDirection":"SOUTHWEST","stayOn":false,"area":false,"bogusName":false,"lon":-71.0790798,"lat":48.3956639,"elevation":[]},{"distance":269.05,"relativeDirection":"RIGHT","streetName":"Rue Mauriac","absoluteDirection":"NORTHWEST","stayOn":false,"area":false,"bogusName":false,"lon":-71.0796919,"lat":48.3950912,"elevation":[]},{"distance":10.306,"relativeDirection":"RIGHT","streetName":"Rue Malraux","absoluteDirection":"NORTHEAST","stayOn":false,"area":false,"bogusName":false,"lon":-71.0826531,"lat":48.396498900000005,"elevation":[]}]},{"startTime":1522678043000,"endTime":1522678082000,"departureDelay":0,"arrivalDelay":0,"realTime":false,"distance":528.0325269595855,"pathway":false,"mode":"BUS","route":"14","agencyName":"Société de Transport du Saguenay","agencyUrl":"http://ville.saguenay.ca/fr/services-aux-citoyens/transport-sts","agencyTimeZoneOffset":-14400000,"routeColor":"C0C000","routeType":3,"routeId":"1:14","routeTextColor":"000000","interlineWithPreviousLeg":false,"tripBlockId":"30","headsign":"Talbot / Barrette","agencyId":"0","tripId":"1:218093","serviceDate":"20180402","from":{"name":"Malraux / Mauriac","stopId":"1:1979","stopCode":"1979","lon":-71.082747,"lat":48.396652,"arrival":1522678042000,"departure":1522678043000,"zoneId":"NA","stopIndex":25,"stopSequence":26,"vertexType":"TRANSIT"},"to":{"name":"Malraux / Antonin Artaud","stopId":"1:1602","stopCode":"1602","lon":-71.08988,"lat":48.396998,"arrival":1522678082000,"departure":1522678083000,"zoneId":"NA","stopIndex":26,"stopSequence":27,"vertexType":"TRANSIT"},"legGeometry":{"points":"umkfHlizpL`BhB?pHaBhRqAbL","length":5},"routeShortName":"14","routeLongName":"Coopérative","rentedBike":false,"transitLeg":true,"duration":39.0,"steps":[]},{"startTime":1522678083000,"endTime":1522678101000,"departureDelay":0,"arrivalDelay":0,"realTime":false,"distance":23.628,"pathway":false,"mode":"WALK","route":"","agencyTimeZoneOffset":-14400000,"interlineWithPreviousLeg":false,"from":{"name":"Malraux / Antonin Artaud","stopId":"1:1602","stopCode":"1602","lon":-71.08988,"lat":48.396998,"arrival":1522678082000,"departure":1522678083000,"zoneId":"NA","stopIndex":26,"stopSequence":27,"vertexType":"TRANSIT"},"to":{"name":"Destination","lon":-71.09024499,"lat":48.396984,"arrival":1522678101000,"orig":"","vertexType":"NORMAL"},"legGeometry":{"points":"wokfH`w{pLMl@CJ","length":3},"rentedBike":false,"transitLeg":false,"duration":18.0,"steps":[{"distance":23.628,"relativeDirection":"DEPART","streetName":"Rue Malraux","absoluteDirection":"NORTHWEST","stayOn":false,"area":false,"bogusName":false,"lon":-71.08992438217443,"lat":48.3969271453528,"elevation":[]}]}],"tooSloped":false},{"duration":890,"startTime":1522677600000,"endTime":1522678490000,"walkTime":890,"transitTime":0,"waitingTime":0,"walkDistance":1143.5899924764599,"walkLimitExceeded":false,"elevationLost":0.0,"elevationGained":0.0,"transfers":0,"legs":[{"startTime":1522677600000,"endTime":1522678490000,"departureDelay":0,"arrivalDelay":0,"realTime":false,"distance":1143.443,"pathway":false,"mode":"WALK","route":"","agencyTimeZoneOffset":-14400000,"interlineWithPreviousLeg":false,"from":{"name":"Origin","lon":-71.076811,"lat":48.394714,"departure":1522677600000,"orig":"","vertexType":"NORMAL"},"to":{"name":"Destination","lon":-71.09024499,"lat":48.396984,"arrival":1522678490000,"orig":"","vertexType":"NORMAL"},"legGeometry":{"points":"wbkfHxdypLGv@SrBw@vBGNgAxCbBhBLPqEdLeAhDFHtAlBLr@K`CKbA_@tEANALMhB}AfQUdCCNMl@CJ","length":24},"rentedBike":false,"transitLeg":false,"duration":890.0,"steps":[{"distance":196.858,"relativeDirection":"DEPART","streetName":"Rue Flaubert","absoluteDirection":"WEST","stayOn":false,"area":false,"bogusName":false,"lon":-71.0767633674054,"lat":48.39484425355627,"elevation":[]},{"distance":78.087,"relativeDirection":"LEFT","streetName":"Rue Rimbaud","absoluteDirection":"SOUTHWEST","stayOn":false,"area":false,"bogusName":false,"lon":-71.0790798,"lat":48.3956639,"elevation":[]},{"distance":269.05,"relativeDirection":"RIGHT","streetName":"Rue Mauriac","absoluteDirection":"NORTHWEST","stayOn":false,"area":false,"bogusName":false,"lon":-71.0796919,"lat":48.3950912,"elevation":[]},{"distance":599.4480000000001,"relativeDirection":"LEFT","streetName":"Rue Malraux","absoluteDirection":"SOUTHWEST","stayOn":false,"area":false,"bogusName":false,"lon":-71.0826531,"lat":48.396498900000005,"elevation":[]}]}],"tooSloped":false},{"duration":517,"startTime":1522678057000,"endTime":1522678574000,"walkTime":374,"transitTime":141,"waitingTime":2,"walkDistance":467.41206014637294,"walkLimitExceeded":false,"elevationLost":0.0,"elevationGained":0.0,"transfers":0,"legs":[{"startTime":1522678057000,"endTime":1522678368000,"departureDelay":0,"arrivalDelay":0,"realTime":false,"distance":386.533,"pathway":false,"mode":"WALK","route":"","agencyTimeZoneOffset":-14400000,"interlineWithPreviousLeg":false,"from":{"name":"Origin","lon":-71.076811,"lat":48.394714,"departure":1522678057000,"orig":"","vertexType":"NORMAL"},"to":{"name":"boul. Barrette / Cent Associés","stopId":"1:1596","stopCode":"1596","lon":-71.07741,"lat":48.396946,"arrival":1522678368000,"departure":1522678369000,"zoneId":"NA","stopIndex":2,"stopSequence":3,"vertexType":"TRANSIT"},"legGeometry":{"points":"wbkfHxdypLGv@SrBw@vBGNc@g@cBsBW[EMCO?M@OeAi@GIWS[fAWdA","length":17},"rentedBike":false,"transitLeg":false,"duration":311.0,"steps":[{"distance":127.10300000000001,"relativeDirection":"DEPART","streetName":"Rue Flaubert","absoluteDirection":"WEST","stayOn":false,"area":false,"bogusName":false,"lon":-71.0767633674054,"lat":48.39484425355627,"elevation":[]},{"distance":136.44799999999998,"relativeDirection":"RIGHT","streetName":"Rue Jacques-Ferron","absoluteDirection":"NORTHEAST","stayOn":false,"area":false,"bogusName":false,"lon":-71.0783084,"lat":48.395301700000005,"elevation":[]},{"distance":62.658,"relativeDirection":"LEFT","streetName":"path","absoluteDirection":"NORTH","stayOn":false,"area":false,"bogusName":true,"lon":-71.0770823,"lat":48.3961436,"elevation":[]},{"distance":60.324,"relativeDirection":"LEFT","streetName":"Boulevard Barrette","absoluteDirection":"NORTHWEST","stayOn":false,"area":false,"bogusName":false,"lon":-71.07672170000001,"lat":48.396650900000004,"elevation":[]}]},{"startTime":1522678369000,"endTime":1522678510000,"departureDelay":0,"arrivalDelay":0,"realTime":false,"distance":1850.089118359112,"pathway":false,"mode":"BUS","route":"14","agencyName":"Société de Transport du Saguenay","agencyUrl":"http://ville.saguenay.ca/fr/services-aux-citoyens/transport-sts","agencyTimeZoneOffset":-14400000,"routeColor":"C0C000","routeType":3,"routeId":"1:14","routeTextColor":"000000","interlineWithPreviousLeg":false,"tripBlockId":"31","headsign":"Terminus Chicoutimi","agencyId":"0","tripId":"1:218129","serviceDate":"20180402","from":{"name":"boul. Barrette / Cent Associés","stopId":"1:1596","stopCode":"1596","lon":-71.07741,"lat":48.396946,"arrival":1522678368000,"departure":1522678369000,"zoneId":"NA","stopIndex":2,"stopSequence":3,"vertexType":"TRANSIT"},"to":{"name":"Malraux / Antonin Artaud","stopId":"1:1592","stopCode":"1592","lon":-71.089203,"lat":48.396726,"arrival":1522678510000,"departure":1522678511000,"zoneId":"NA","stopIndex":8,"stopSequence":9,"vertexType":"TRANSIT"},"legGeometry":{"points":"uokfH~hypLcD`Mi@dCgChLmCzMwGd\\aDxOdFtFhCtCdDY|F_On@aB`B_GNoB","length":14},"routeShortName":"14","routeLongName":"Coopérative","rentedBike":false,"transitLeg":true,"duration":141.0,"steps":[]},{"startTime":1522678511000,"endTime":1522678574000,"departureDelay":0,"arrivalDelay":0,"realTime":false,"distance":80.755,"pathway":false,"mode":"WALK","route":"","agencyTimeZoneOffset":-14400000,"interlineWithPreviousLeg":false,"from":{"name":"Malraux / Antonin Artaud","stopId":"1:1592","stopCode":"1592","lon":-71.089203,"lat":48.396726,"arrival":1522678510000,"departure":1522678511000,"zoneId":"NA","stopIndex":8,"stopSequence":9,"vertexType":"TRANSIT"},"to":{"name":"Destination","lon":-71.09024499,"lat":48.396984,"arrival":1522678574000,"orig":"","vertexType":"NORMAL"},"legGeometry":{"points":"}nkfHjr{pLUdCCNMl@CJ","length":5},"rentedBike":false,"transitLeg":false,"duration":63.0,"steps":[{"distance":80.755,"relativeDirection":"DEPART","streetName":"Rue Malraux","absoluteDirection":"WEST","stayOn":false,"area":false,"bogusName":false,"lon":-71.08917703776801,"lat":48.39679637743311,"elevation":[]}]}],"tooSloped":false}]},"debugOutput":{"precalculationTime":19,"pathCalculationTime":16,"pathTimes":[8,7,1],"renderingTime":0,"totalTime":35,"timedOut":false},"elevationMetadata":{"ellipsoidToGeoidDifference":-28.885904201182168,"geoidElevation":false}}