{"requestParameters":{"date":"2018/04/02","walkSpeed":"1.33","walkReluctance":"2.0","fromPlace":"48.396984,-71.09024499","maxWalkDistance":"3000","waitReluctance":"1.0","carSpeed":"33","numItineraries":"3","waitAtBeginningFactor":"0.4","mode":"TRANSIT,WALK","ignoreRealtimeUpdates":"false","stairsReluctance":"2.0","toPlace":"48.394714,-71.076811","time":"22:0:00"},"plan":{"date":1522720800000,"from":{"name":"Origin","lon":-71.09024499,"lat":48.396984,"orig":"","vertexType":"NORMAL"},"to":{"name":"Destination","lon":-71.076811,"lat":48.394714,"orig":"","vertexType":"NORMAL"},"itineraries":[{"duration":890,"startTime":1522720800000,"endTime":1522721690000,"walkTime":890,"transitTime":0,"waitingTime":0,"walkDistance":1143.58999247646,"walkLimitExceeded":false,"elevationLost":0.0,"elevationGained":0.0,"transfers":0,"legs":[{"startTime":1522720800000,"endTime":1522721690000,"departureDelay":0,"arrivalDelay":0,"realTime":false,"distance":1143.4430000000002,"pathway":false,"mode":"WALK","route":"","agencyTimeZoneOffset":-14400000,"interlineWithPreviousLeg":false,"from":{"name":"Origin","lon":-71.09024499,"lat":48.396984,"departure":1522720800000,"orig":"","vertexType":"NORMAL"},"to":{"name":"Destination","lon":-71.076811,"lat":48.394714,"arrival":1522721690000,"orig":"","vertexType":"NORMAL"},"legGeometry":{"points":"ipkfHzx{pLBKLm@BOTeC|AgQLiB@M@O^uEJcAJaCMs@uAmBGIdAiDpEeLMQcBiBfAyCFOv@wBRsBFw@","length":24},"rentedBike":false,"transitLeg":false,"duration":890.0,"steps":[{"distance":599.4480000000001,"relativeDirection":"DEPART","streetName":"Rue Malraux","absoluteDirection":"SOUTHEAST","stayOn":false,"area":false,"bogusName":false,"lon":-71.09021397575344,"lat":48.39701626383657,"elevation":[]},{"distance":269.05,"relativeDirection":"RIGHT","streetName":"Rue Mauriac","absoluteDirection":"SOUTHEAST","stayOn":false,"area":false,"bogusName":false,"lon":-71.0826531,"lat":48.396498900000005,"elevation":[]},{"distance":78.087,"relativeDirection":"LEFT","streetName":"Rue Rimbaud","absoluteDirection":"NORTHEAST","stayOn":false,"area":false,"bogusName":false,"lon":-71.0796919,"lat":48.3950912,"elevation":[]},{"distance":196.858,"relativeDirection":"RIGHT","streetName":"Rue Flaubert","absoluteDirection":"SOUTHEAST","stayOn":false,"area":false,"bogusName":false,"lon":-71.0790798,"lat":48.3956639,"elevation":[]}]}],"tooSloped":false},{"duration":511,"startTime":1522721263000,"endTime":1522721774000,"walkTime":366,"transitTime":143,"waitingTime":2,"walkDistance":465.85666165043557,"walkLimitExceeded":false,"elevationLost":0.0,"elevationGained":0.0,"transfers":0,"legs":[{"startTime":1522721263000,"endTime":1522721281000,"departureDelay":0,"arrivalDelay":0,"realTime":false,"distance":23.628,"pathway":false,"mode":"WALK","route":"","agencyTimeZoneOffset":-14400000,"interlineWithPreviousLeg":false,"from":{"name":"Origin","lon":-71.09024499,"lat":48.396984,"departure":1522721263000,"orig":"","vertexType":"NORMAL"},"to":{"name":"Malraux / Antonin Artaud","stopId":"1:1602","stopCode":"1602","lon":-71.08988,"lat":48.396998,"arrival":1522721281000,"departure":1522721282000,"zoneId":"NA","stopIndex":26,"stopSequence":27,"vertexType":"TRANSIT"},"legGeometry":{"points":"ipkfHzx{pLBKLm@","length":3},"rentedBike":false,"transitLeg":false,"duration":18.0,"steps":[{"distance":23.628,"relativeDirection":"DEPART","streetName":"Rue Malraux","absoluteDirection":"SOUTHEAST","stayOn":false,"area":false,"bogusName":false,"lon":-71.09021397575344,"lat":48.39701626383657,"elevation":[]}]},{"startTime":1522721282000,"endTime":1522721425000,"departureDelay":0,"arrivalDelay":0,"realTime":false,"distance":1961.2184946705859,"pathway":false,"mode":"BUS","route":"14","agencyName":"Société de Transport du Saguenay","agencyUrl":"http://ville.saguenay.ca/fr/services-aux-citoyens/transport-sts","agencyTimeZoneOffset":-14400000,"routeColor":"C0C000","routeType":3,"routeId":"1:14","routeTextColor":"000000","interlineWithPreviousLeg":false,"tripBlockId":"30","headsign":"Talbot / Barrette","agencyId":"0","tripId":"1:218117","serviceDate":"20180402","from":{"name":"Malraux / Antonin Artaud","stopId":"1:1602","stopCode":"1602","lon":-71.08988,"lat":48.396998,"arrival":1522721281000,"departure":1522721282000,"zoneId":"NA","stopIndex":26,"stopSequence":27,"vertexType":"TRANSIT"},"to":{"name":"boul. Barrette / Jacques-Ferron","stopId":"1:271","stopCode":"271","lon":-71.07524,"lat":48.395917,"arrival":1522721425000,"departure":1522721426000,"zoneId":"NA","stopIndex":33,"stopSequence":34,"vertexType":"TRANSIT"},"legGeometry":{"points":"gpkfHvv{pLK~@qBxFqB|FcC~GyC\\aDkDcFsF~CgOtGm[j@oCvEoSl@_CxCmLjAeFpCeK","length":16},"routeShortName":"14","routeLongName":"Coopérative","rentedBike":false,"transitLeg":true,"duration":143.0,"steps":[]},{"startTime":1522721426000,"endTime":1522721774000,"departureDelay":0,"arrivalDelay":0,"realTime":false,"distance":442.114,"pathway":false,"mode":"WALK","route":"","agencyTimeZoneOffset":-14400000,"interlineWithPreviousLeg":false,"from":{"name":"boul. Barrette / Jacques-Ferron","stopId":"1:271","stopCode":"271","lon":-71.07524,"lat":48.395917,"arrival":1522721425000,"departure":1522721426000,"zoneId":"NA","stopIndex":33,"stopSequence":34,"vertexType":"TRANSIT"},"to":{"name":"Destination","lon":-71.076811,"lat":48.394714,"arrival":1522721774000,"orig":"","vertexType":"NORMAL"},"legGeometry":{"points":"kikfHh{xpLmAxEg@jBdAh@AN?LBNDLVZbBrBb@f@FOv@wBRsBFw@","length":15},"rentedBike":false,"transitLeg":false,"duration":348.0,"steps":[{"distance":136.7,"relativeDirection":"DEPART","streetName":"bike path","absoluteDirection":"NORTHWEST","stayOn":false,"area":false,"bogusName":true,"lon":-71.07524885323046,"lat":48.39590612634041,"elevation":[]},{"distance":41.863,"relativeDirection":"LEFT","streetName":"path","absoluteDirection":"SOUTH","stayOn":true,"area":false,"bogusName":true,"lon":-71.0768749,"lat":48.396494000000004,"elevation":[]},{"distance":136.44799999999998,"relativeDirection":"RIGHT","streetName":"Rue Jacques-Ferron","absoluteDirection":"WEST","stayOn":false,"area":false,"bogusName":false,"lon":-71.0770823,"lat":48.3961436,"elevation":[]},{"distance":127.10300000000001,"relativeDirection":"LEFT","streetName":"Rue Flaubert","absoluteDirection":"SOUTHEAST","stayOn":false,"area":false,"bogusName":false,"lon":-71.0783084,"lat":48.395301700000005,"elevation":[]}]}],"tooSloped":false},{"duration":511,"startTime":1522724863000,"endTime":1522725374000,"walkTime":366,"transitTime":143,"waitingTime":2,"walkDistance":465.85666165043557,"walkLimitExceeded":false,"elevationLost":0.0,"elevationGained":0.0,"transfers":0,"legs":[{"startTime":1522724863000,"endTime":1522724881000,"departureDelay":0,"arrivalDelay":0,"realTime":false,"distance":23.628,"pathway":false,"mode":"WALK","route":"","agencyTimeZoneOffset":-14400000,"interlineWithPreviousLeg":false,"from":{"name":"Origin","lon":-71.09024499,"lat":48.396984,"departure":1522724863000,"orig":"","vertexType":"NORMAL"},"to":{"name":"Malraux / Antonin Artaud","stopId":"1:1602","stopCode":"1602","lon":-71.08988,"lat":48.396998,"arrival":1522724881000,"departure":1522724882000,"zoneId":"NA","stopIndex":26,"stopSequence":27,"vertexType":"TRANSIT"},"legGeometry":{"points":"ipkfHzx{pLBKLm@","length":3},"rentedBike":false,"transitLeg":false,"duration":18.0,"steps":[{"distance":23.628,"relativeDirection":"DEPART","streetName":"Rue Malraux","absoluteDirection":"SOUTHEAST","stayOn":false,"area":false,"bogusName":false,"lon":-71.09021397575344,"lat":48.39701626383657,"elevation":[]}]},{"startTime":1522724882000,"endTime":1522725025000,"departureDelay":0,"arrivalDelay":0,"realTime":false,"distance":1961.2184946705859,"pathway":false,"mode":"BUS","route":"14","agencyName":"Société de Transport du Saguenay","agencyUrl":"http://ville.saguenay.ca/fr/services-aux-citoyens/transport-sts","agencyTimeZoneOffset":-14400000,"routeColor":"C0C000","routeType":3,"routeId":"1:14","routeTextColor":"000000","interlineWithPreviousLeg":false,"tripBlockId":"30","headsign":"Talbot / Barrette","agencyId":"0","tripId":"1:218119","serviceDate":"20180402","from":{"name":"Malraux / Antonin Artaud","stopId":"1:1602","stopCode":"1602","lon":-71.08988,"lat":48.396998,"arrival":1522724881000,"departure":1522724882000,"zoneId":"NA","stopIndex":26,"stopSequence":27,"vertexType":"TRANSIT"},"to":{"name":"boul. Barrette / Jacques-Ferron","stopId":"1:271","stopCode":"271","lon":-71.07524,"lat":48.395917,"arrival":1522725025000,"departure":1522725026000,"zoneId":"NA","stopIndex":33,"stopSequence":34,"vertexType":"TRANSIT"},"legGeometry":{"points":"gpkfHvv{pLK~@qBxFqB|FcC~GyC\\aDkDcFsF~CgOtGm[j@oCvEoSl@_CxCmLjAeFpCeK","length":16},"routeShortName":"14","routeLongName":"Coopérative","rentedBike":false,"transitLeg":true,"duration":143.0,"steps":[]},{"startTime":1522725026000,"endTime":1522725374000,"departureDelay":0,"arrivalDelay":0,"realTime":false,"distance":442.114,"pathway":false,"mode":"WALK","route":"","agencyTimeZoneOffset":-14400000,"interlineWithPreviousLeg":false,"from":{"name":"boul. Barrette / Jacques-Ferron","stopId":"1:271","stopCode":"271","lon":-71.07524,"lat":48.395917,"arrival":1522725025000,"departure":1522725026000,"zoneId":"NA","stopIndex":33,"stopSequence":34,"vertexType":"TRANSIT"},"to":{"name":"Destination","lon":-71.076811,"lat":48.394714,"arrival":1522725374000,"orig":"","vertexType":"NORMAL"},"legGeometry":{"points":"kikfHh{xpLmAxEg@jBdAh@AN?LBNDLVZbBrBb@f@FOv@wBRsBFw@","length":15},"rentedBike":false,"transitLeg":false,"duration":348.0,"steps":[{"distance":136.7,"relativeDirection":"DEPART","streetName":"bike path","absoluteDirection":"NORTHWEST","stayOn":false,"area":false,"bogusName":true,"lon":-71.07524885323046,"lat":48.39590612634041,"elevation":[]},{"distance":41.863,"relativeDirection":"LEFT","streetName":"path","absoluteDirection":"SOUTH","stayOn":true,"area":false,"bogusName":true,"lon":-71.0768749,"lat":48.396494000000004,"elevation":[]},{"distance":136.44799999999998,"relativeDirection":"RIGHT","streetName":"Rue Jacques-Ferron","absoluteDirection":"WEST","stayOn":false,"area":false,"bogusName":false,"lon":-71.0770823,"lat":48.3961436,"elevation":[]},{"distance":127.10300000000001,"relativeDirection":"LEFT","streetName":"Rue Flaubert","absoluteDirection":"SOUTHEAST","stayOn":false,"area":false,"bogusName":false,"lon":-71.0783084,"lat":48.395301700000005,"elevation":[]}]}],"tooSloped":false}]},"debugOutput":{"precalculationTime":19,"pathCalculationTime":15,"pathTimes":[7,4,4],"renderingTime":0,"totalTime":34,"timedOut":false},"elevationMetadata":{"ellipsoidToGeoidDifference":-28.885904201182168,"geoidElevation":false}}