{"requestParameters":{"date":"2018/04/02","walkSpeed":"1.33","walkReluctance":"2.0","fromPlace":"48.426433,-71.06748899","maxWalkDistance":"3000","waitReluctance":"1.0","carSpeed":"33","numItineraries":"3","waitAtBeginningFactor":"0.4","mode":"TRANSIT,WALK","ignoreRealtimeUpdates":"false","stairsReluctance":"2.0","toPlace":"48.395687,-71.076417","time":"16:0:00"},"plan":{"date":1522699200000,"from":{"name":"Origin","lon":-71.06748899,"lat":48.426433,"orig":"","vertexType":"NORMAL"},"to":{"name":"Destination","lon":-71.076417,"lat":48.395687,"orig":"","vertexType":"NORMAL"},"itineraries":[{"duration":1949,"startTime":1522699784000,"endTime":1522701733000,"walkTime":647,"transitTime":1300,"waitingTime":2,"walkDistance":828.0872105219851,"walkLimitExceeded":false,"elevationLost":0.0,"elevationGained":0.0,"transfers":0,"legs":[{"startTime":1522699784000,"endTime":1522699939000,"departureDelay":0,"arrivalDelay":0,"realTime":false,"distance":199.959,"pathway":false,"mode":"WALK","route":"","agencyTimeZoneOffset":-14400000,"interlineWithPreviousLeg":false,"from":{"name":"Origin","lon":-71.06748899,"lat":48.426433,"departure":1522699784000,"orig":"","vertexType":"NORMAL"},"to":{"name":"Jacques-Cartier / Morin","stopId":"1:70","stopCode":"70","lon":-71.064766,"lat":48.426469,"arrival":1522699939000,"departure":1522699940000,"zoneId":"NA","stopIndex":1,"stopSequence":2,"vertexType":"TRANSIT"},"legGeometry":{"points":"uiqfHtjwpLBiABaAJeEDwC@s@","length":6},"rentedBike":false,"transitLeg":false,"duration":155.0,"steps":[{"distance":199.959,"relativeDirection":"DEPART","streetName":"Rue Jacques-Cartier Est","absoluteDirection":"EAST","stayOn":false,"area":false,"bogusName":false,"lon":-71.06746203668236,"lat":48.42667034866264,"elevation":[]}]},{"startTime":1522699940000,"endTime":1522701240000,"departureDelay":0,"arrivalDelay":0,"realTime":false,"distance":7744.479226511841,"pathway":false,"mode":"BUS","route":"415S","agencyName":"Société de Transport du Saguenay","agencyUrl":"http://ville.saguenay.ca/fr/services-aux-citoyens/transport-sts","agencyTimeZoneOffset":-14400000,"routeColor":"8B0000","routeType":3,"routeId":"1:415S","routeTextColor":"FFFFFF","interlineWithPreviousLeg":false,"tripBlockId":"68","headsign":"Costco","agencyId":"0","tripId":"1:218587","serviceDate":"20180402","from":{"name":"Jacques-Cartier / Morin","stopId":"1:70","stopCode":"70","lon":-71.064766,"lat":48.426469,"arrival":1522699939000,"departure":1522699940000,"zoneId":"NA","stopIndex":1,"stopSequence":2,"vertexType":"TRANSIT"},"to":{"name":"Roitelets / Sapins","stopId":"1:1513","stopCode":"1513","lon":-71.069396,"lat":48.393523,"arrival":1522701240000,"departure":1522701241000,"zoneId":"NA","stopIndex":30,"stopSequence":31,"vertexType":"TRANSIT"},"legGeometry":{"points":"whqfHvyvpLRcFJgLNuNDkCHkFVoKT}@dBnBBBpInIdG`GtFrFv@p@hCvCf@f@lJjJpLpLj@n@nAlA`BbBxD~DnBvBvBjBd@Tv@FzBD^Bt@Pd@TRLNJZXj@\\p@Rd@D~CEtBIh@@D@XFXHh@_B`CmGhC{GlBcFXm@^e@RQdA}@PAzCmCLKd@q@p@mAXw@zBcGhAmCR]nAaFl@yC?Cl@mEd@Jd@Vb@\\LNVVRZb@bA^n@Zb@n@r@lAjAfBtBZu@vCoHBGTs@XiARg@`CqGtAwDTm@V]w@qAW]gCoCqBsBiBqBeAeAA?{@i@w@_@aAUo@IUCe@A{AFyAZMwAu@uFy@kFfEgB|DaBv@YPEr@QfAQtAK`BF`BR~@PrB|@B@|AfAhAbA|EhF|CdDdCpBb@d@^j@@B`@x@Rn@P~@Jt@FbABt@At@EnAEz@SvDMtBQtDWrHIDStGCb@ErCD\\Ah@KbNCz@ClFCtA?vABb@LxAVvAb@lARf@NZJ`@Hz@Bx@Ax@Ep@O`AS|@_@`AONEJ","length":163},"routeShortName":"415S","routeLongName":"Term. Chic / Costco","rentedBike":false,"transitLeg":true,"duration":1300.0,"steps":[]},{"startTime":1522701241000,"endTime":1522701733000,"departureDelay":0,"arrivalDelay":0,"realTime":false,"distance":627.994,"pathway":false,"mode":"WALK","route":"","agencyTimeZoneOffset":-14400000,"interlineWithPreviousLeg":false,"from":{"name":"Roitelets / Sapins","stopId":"1:1513","stopCode":"1513","lon":-71.069396,"lat":48.393523,"arrival":1522701240000,"departure":1522701241000,"zoneId":"NA","stopIndex":30,"stopSequence":31,"vertexType":"TRANSIT"},"to":{"name":"Destination","lon":-71.076417,"lat":48.395687,"arrival":1522701733000,"orig":"","vertexType":"NORMAL"},"legGeometry":{"points":"ezjfH`wwpLoAzCABGPQb@NNGLAFaHzQW`As@rCi@vBhA~@_@jBCD","length":15},"rentedBike":false,"transitLeg":false,"duration":492.0,"steps":[{"distance":81.964,"relativeDirection":"DEPART","streetName":"Rue Des Roitelets","absoluteDirection":"NORTHWEST","stayOn":false,"area":false,"bogusName":false,"lon":-71.06944914116431,"lat":48.393476769189846,"elevation":[]},{"distance":451.562,"relativeDirection":"CONTINUE","streetName":"Boulevard Barrette","absoluteDirection":"NORTHWEST","stayOn":false,"area":false,"bogusName":false,"lon":-71.0703318,"lat":48.3939238,"elevation":[]},{"distance":94.46799999999999,"relativeDirection":"LEFT","streetName":"Rue Jacques-Ferron","absoluteDirection":"SOUTHWEST","stayOn":false,"area":false,"bogusName":false,"lon":-71.0753974,"lat":48.396028400000006,"elevation":[]}]}],"tooSloped":false},{"duration":1805,"startTime":1522700016000,"endTime":1522701821000,"walkTime":350,"transitTime":1453,"waitingTime":2,"walkDistance":446.7520451105863,"walkLimitExceeded":false,"elevationLost":0.0,"elevationGained":0.0,"transfers":0,"legs":[{"startTime":1522700016000,"endTime":1522700171000,"departureDelay":0,"arrivalDelay":0,"realTime":false,"distance":199.959,"pathway":false,"mode":"WALK","route":"","agencyTimeZoneOffset":-14400000,"interlineWithPreviousLeg":false,"from":{"name":"Origin","lon":-71.06748899,"lat":48.426433,"departure":1522700016000,"orig":"","vertexType":"NORMAL"},"to":{"name":"Jacques-Cartier / Morin","stopId":"1:70","stopCode":"70","lon":-71.064766,"lat":48.426469,"arrival":1522700171000,"departure":1522700172000,"zoneId":"NA","stopIndex":1,"stopSequence":2,"vertexType":"TRANSIT"},"legGeometry":{"points":"uiqfHtjwpLBiABaAJeEDwC@s@","length":6},"rentedBike":false,"transitLeg":false,"duration":155.0,"steps":[{"distance":199.959,"relativeDirection":"DEPART","streetName":"Rue Jacques-Cartier Est","absoluteDirection":"EAST","stayOn":false,"area":false,"bogusName":false,"lon":-71.06746203668236,"lat":48.42667034866264,"elevation":[]}]},{"startTime":1522700172000,"endTime":1522701625000,"departureDelay":0,"arrivalDelay":0,"realTime":false,"distance":8673.143018059684,"pathway":false,"mode":"BUS","route":"14","agencyName":"Société de Transport du Saguenay","agencyUrl":"http://ville.saguenay.ca/fr/services-aux-citoyens/transport-sts","agencyTimeZoneOffset":-14400000,"routeColor":"C0C000","routeType":3,"routeId":"1:14","routeTextColor":"000000","interlineWithPreviousLeg":false,"tripBlockId":"32","headsign":"Talbot / Barrette","agencyId":"0","tripId":"1:218166","serviceDate":"20180402","from":{"name":"Jacques-Cartier / Morin","stopId":"1:70","stopCode":"70","lon":-71.064766,"lat":48.426469,"arrival":1522700171000,"departure":1522700172000,"zoneId":"NA","stopIndex":1,"stopSequence":2,"vertexType":"TRANSIT"},"to":{"name":"boul. Barrette / Jacques-Ferron","stopId":"1:271","stopCode":"271","lon":-71.07524,"lat":48.395917,"arrival":1522701625000,"departure":1522701626000,"zoneId":"NA","stopIndex":33,"stopSequence":34,"vertexType":"TRANSIT"},"legGeometry":{"points":"qhqfHxyvpLTmSHwFB{I@m@@eBH_AF}A@w@Dq@@i@B}B@Y@e@D]F_@@SHQCKnBnBvIrIn@n@\\iATg@v@_ATg@LmABg@Is@c@iEAm@bAcDTcAtA{DJI|AxAvAvAQv@~@z@dA`ATq@`E~DL`@E`Ex@hDd@`B}FtFaAzAm@xAe@jCa@nDiAbm@SpKM`H]vBhDVzCTcAvCO^bEbEzK`LfBeEtK`KhAdAnCbCvBpCNR~BxAxBf@z@h@vAz@z@{DrCoITTlElEtAnB`@l@pFrD@?fDr@XgAjFuR\\yADm@b@gFd@_B`A}@tEvJBDvC`FtJ|LLNlClC|@^hCYVExCjCb@d@vE`F`BhB?pHaBhRqAbLK~@qBxFqB|FcC~GyC\\aDkDcFsF~CgOtGm[j@oCvEoSl@_CxCmLjAeFpCeK","length":118},"routeShortName":"14","routeLongName":"Coopérative","rentedBike":false,"transitLeg":true,"duration":1453.0,"steps":[]},{"startTime":1522701626000,"endTime":1522701821000,"departureDelay":0,"arrivalDelay":0,"realTime":false,"distance":246.725,"pathway":false,"mode":"WALK","route":"","agencyTimeZoneOffset":-14400000,"interlineWithPreviousLeg":false,"from":{"name":"boul. Barrette / Jacques-Ferron","stopId":"1:271","stopCode":"271","lon":-71.07524,"lat":48.395917,"arrival":1522701625000,"departure":1522701626000,"zoneId":"NA","stopIndex":33,"stopSequence":34,"vertexType":"TRANSIT"},"to":{"name":"Destination","lon":-71.076417,"lat":48.395687,"arrival":1522701821000,"orig":"","vertexType":"NORMAL"},"legGeometry":{"points":"kikfHh{xpLmAxEg@jBdAh@|@_D","length":5},"rentedBike":false,"transitLeg":false,"duration":195.0,"steps":[{"distance":136.7,"relativeDirection":"DEPART","streetName":"bike path","absoluteDirection":"NORTHWEST","stayOn":false,"area":false,"bogusName":true,"lon":-71.07524885323046,"lat":48.39590612634041,"elevation":[]},{"distance":41.863,"relativeDirection":"LEFT","streetName":"path","absoluteDirection":"SOUTH","stayOn":true,"area":false,"bogusName":true,"lon":-71.0768749,"lat":48.396494000000004,"elevation":[]},{"distance":68.162,"relativeDirection":"LEFT","streetName":"Rue Jacques-Ferron","absoluteDirection":"SOUTHEAST","stayOn":false,"area":false,"bogusName":false,"lon":-71.0770823,"lat":48.3961436,"elevation":[]}]}],"tooSloped":false},{"duration":1914,"startTime":1522700014000,"endTime":1522701928000,"walkTime":313,"transitTime":1599,"waitingTime":2,"walkDistance":391.1759323284738,"walkLimitExceeded":false,"elevationLost":0.0,"elevationGained":0.0,"transfers":0,"legs":[{"startTime":1522700014000,"endTime":1522700169000,"departureDelay":0,"arrivalDelay":0,"realTime":false,"distance":199.959,"pathway":false,"mode":"WALK","route":"","agencyTimeZoneOffset":-14400000,"interlineWithPreviousLeg":false,"from":{"name":"Origin","lon":-71.06748899,"lat":48.426433,"departure":1522700014000,"orig":"","vertexType":"NORMAL"},"to":{"name":"Jacques-Cartier / Morin","stopId":"1:70","stopCode":"70","lon":-71.064766,"lat":48.426469,"arrival":1522700169000,"departure":1522700170000,"zoneId":"NA","stopIndex":1,"stopSequence":2,"vertexType":"TRANSIT"},"legGeometry":{"points":"uiqfHtjwpLBiABaAJeEDwC@s@","length":6},"rentedBike":false,"transitLeg":false,"duration":155.0,"steps":[{"distance":199.959,"relativeDirection":"DEPART","streetName":"Rue Jacques-Cartier Est","absoluteDirection":"EAST","stayOn":false,"area":false,"bogusName":false,"lon":-71.06746203668236,"lat":48.42667034866264,"elevation":[]}]},{"startTime":1522700170000,"endTime":1522701720000,"departureDelay":0,"arrivalDelay":0,"realTime":false,"distance":8514.514196449898,"pathway":false,"mode":"BUS","route":"15","agencyName":"Société de Transport du Saguenay","agencyUrl":"http://ville.saguenay.ca/fr/services-aux-citoyens/transport-sts","agencyTimeZoneOffset":-14400000,"routeColor":"FF00FF","routeType":3,"routeId":"1:15","routeTextColor":"FFFFFF","interlineWithPreviousLeg":false,"tripBlockId":"33","headsign":"Talbot / Barrette","agencyId":"0","tripId":"1:218191","serviceDate":"20180402","from":{"name":"Jacques-Cartier / Morin","stopId":"1:70","stopCode":"70","lon":-71.064766,"lat":48.426469,"arrival":1522700169000,"departure":1522700170000,"zoneId":"NA","stopIndex":1,"stopSequence":2,"vertexType":"TRANSIT"},"to":{"name":"Roitelets / Sapins","stopId":"1:1543","stopCode":"1543","lon":-71.069553,"lat":48.393375,"arrival":1522701720000,"departure":1522701720000,"zoneId":"NA","stopIndex":35,"stopSequence":36,"vertexType":"TRANSIT"},"legGeometry":{"points":"}hqfHvyvpLZkS\\aSN_K^eIrBpBvIpIr@r@\\mBfAaA`@gBOkB_@uF|DyL|DpDQ|@|@z@bA`ATw@dD~Ch@fA@`E~AjGuH`Iy@bBi@dCbEdEjJlJ`HbHlJpJ|J~JdAfALzDNzDrAdBrEKvBEbCv@d@TvFlC|DlBpMlGrB`AM}@hAwEC{B]oBiBmBsH_@_K{H`EgIvCaGfEoItDsH~DeItC{FnBoLbCaO?qLa@uJzF`ApF~@~@PzAgEeDcBf@qAWcKUqEx@Ef@ExDVjDxAFBrBvAfGjG@BjCzC~DxC@@zA~Cb@fCJlC?BsBre@?DWbOAn@?nEGnM@H\\hCzA~ELvAAlAi@jDo@nB","length":96},"routeShortName":"15","routeLongName":"Term. Chic / Costco","rentedBike":false,"transitLeg":true,"duration":1550.0,"steps":[]},{"startTime":1522701720000,"endTime":1522701769000,"departureDelay":0,"arrivalDelay":0,"realTime":false,"distance":705.0412596293729,"pathway":false,"mode":"BUS","route":"14","agencyName":"Société de Transport du Saguenay","agencyUrl":"http://ville.saguenay.ca/fr/services-aux-citoyens/transport-sts","agencyTimeZoneOffset":-14400000,"routeColor":"C0C000","routeType":3,"routeId":"1:14","routeTextColor":"000000","interlineWithPreviousLeg":true,"tripBlockId":"33","headsign":"Terminus Chicoutimi","agencyId":"0","tripId":"1:218192","serviceDate":"20180402","from":{"name":"Roitelets / Sapins","stopId":"1:1513","stopCode":"1513","lon":-71.069396,"lat":48.393523,"arrival":1522701720000,"departure":1522701720000,"zoneId":"NA","stopIndex":0,"stopSequence":1,"vertexType":"TRANSIT"},"to":{"name":"boul. Barrette / Cent Associés","stopId":"1:1596","stopCode":"1596","lon":-71.07741,"lat":48.396946,"arrival":1522701769000,"departure":1522701770000,"zoneId":"NA","stopIndex":2,"stopSequence":3,"vertexType":"TRANSIT"},"legGeometry":{"points":"azjfHfwwpLiEfLuBzFsAnDgGzSWfA","length":6},"routeShortName":"14","routeLongName":"Coopérative","rentedBike":false,"transitLeg":true,"duration":49.0,"steps":[]},{"startTime":1522701770000,"endTime":1522701928000,"departureDelay":0,"arrivalDelay":0,"realTime":false,"distance":191.144,"pathway":false,"mode":"WALK","route":"","agencyTimeZoneOffset":-14400000,"interlineWithPreviousLeg":false,"from":{"name":"boul. Barrette / Cent Associés","stopId":"1:1596","stopCode":"1596","lon":-71.07741,"lat":48.396946,"arrival":1522701769000,"departure":1522701770000,"zoneId":"NA","stopIndex":2,"stopSequence":3,"vertexType":"TRANSIT"},"to":{"name":"Destination","lon":-71.076417,"lat":48.395687,"arrival":1522701928000,"orig":"","vertexType":"NORMAL"},"legGeometry":{"points":"uokfH~hypLVeAZgAVRFHdAh@|@_D","length":7},"rentedBike":false,"transitLeg":false,"duration":158.0,"steps":[{"distance":60.324,"relativeDirection":"DEPART","streetName":"Boulevard Barrette","absoluteDirection":"SOUTHEAST","stayOn":false,"area":false,"bogusName":false,"lon":-71.07743498753288,"lat":48.396915450431145,"elevation":[]},{"distance":62.658,"relativeDirection":"RIGHT","streetName":"path","absoluteDirection":"SOUTHWEST","stayOn":false,"area":false,"bogusName":true,"lon":-71.07672170000001,"lat":48.396650900000004,"elevation":[]},{"distance":68.162,"relativeDirection":"LEFT","streetName":"Rue Jacques-Ferron","absoluteDirection":"SOUTHEAST","stayOn":false,"area":false,"bogusName":false,"lon":-71.0770823,"lat":48.3961436,"elevation":[]}]}],"tooSloped":false}]},"debugOutput":{"precalculationTime":32,"pathCalculationTime":35,"pathTimes":[18,7,10],"renderingTime":0,"totalTime":67,"timedOut":false},"elevationMetadata":{"ellipsoidToGeoidDifference":-28.885904201182168,"geoidElevation":false}}