{"requestParameters":{"date":"2018/04/02","walkSpeed":"1.33","walkReluctance":"2.0","fromPlace":"48.39082,-71.073186","maxWalkDistance":"3000","waitReluctance":"1.0","carSpeed":"33","numItineraries":"3","waitAtBeginningFactor":"0.4","mode":"TRANSIT,WALK","ignoreRealtimeUpdates":"false","stairsReluctance":"2.0","toPlace":"48.395567,-71.075308","time":"11:15:00"},"plan":{"date":1522682100000,"from":{"name":"Origin","lon":-71.073186,"lat":48.39082,"orig":"","vertexType":"NORMAL"},"to":{"name":"Destination","lon":-71.075308,"lat":48.395567,"orig":"","vertexType":"NORMAL"},"itineraries":[{"duration":691,"startTime":1522682100000,"endTime":1522682791000,"walkTime":691,"transitTime":0,"waitingTime":0,"walkDistance":900.3369849593732,"walkLimitExceeded":false,"elevationLost":0.0,"elevationGained":0.0,"transfers":0,"legs":[{"startTime":1522682100000,"endTime":1522682791000,"departureDelay":0,"arrivalDelay":0,"realTime":false,"distance":900.2429999999999,"pathway":false,"mode":"WALK","route":"","agencyTimeZoneOffset":-14400000,"interlineWithPreviousLeg":false,"from":{"name":"Origin","lon":-71.073186,"lat":48.39082,"departure":1522682100000,"orig":"","vertexType":"NORMAL"},"to":{"name":"Destination","lon":-71.075308,"lat":48.395567,"arrival":1522682791000,"orig":"","vertexType":"NORMAL"},"legGeometry":{"points":"yjjfH|pxpLgGeHmAyAsEkFKMQb@GLAFaHzQW`As@rCi@vBhA~@\\W","length":14},"rentedBike":false,"transitLeg":false,"duration":691.0,"steps":[{"distance":391.964,"relativeDirection":"DEPART","streetName":"Boulevard Talbot","absoluteDirection":"NORTHEAST","stayOn":false,"area":false,"bogusName":false,"lon":-71.07358739800073,"lat":48.39101857376674,"elevation":[]},{"distance":441.378,"relativeDirection":"LEFT","streetName":"Boulevard Barrette","absoluteDirection":"NORTHWEST","stayOn":false,"area":false,"bogusName":false,"lon":-71.07041720000001,"lat":48.393846,"elevation":[]},{"distance":66.901,"relativeDirection":"LEFT","streetName":"Rue Jacques-Ferron","absoluteDirection":"SOUTHWEST","stayOn":false,"area":false,"bogusName":false,"lon":-71.0753974,"lat":48.396028400000006,"elevation":[]}]}],"tooSloped":false},{"duration":541,"startTime":1522682391000,"endTime":1522682932000,"walkTime":474,"transitTime":65,"waitingTime":2,"walkDistance":610.2246090195358,"walkLimitExceeded":false,"elevationLost":0.0,"elevationGained":0.0,"transfers":0,"legs":[{"startTime":1522682391000,"endTime":1522682394000,"departureDelay":0,"arrivalDelay":0,"realTime":false,"distance":3.42,"pathway":false,"mode":"WALK","route":"","agencyTimeZoneOffset":-14400000,"interlineWithPreviousLeg":false,"from":{"name":"Origin","lon":-71.073186,"lat":48.39082,"departure":1522682391000,"orig":"","vertexType":"NORMAL"},"to":{"name":"boul. Talbot / Soeurs","stopId":"1:38","stopCode":"38","lon":-71.073496,"lat":48.390935,"arrival":1522682394000,"departure":1522682395000,"zoneId":"NA","stopIndex":6,"stopSequence":7,"vertexType":"TRANSIT"},"legGeometry":{"points":"yjjfH|pxpLBD","length":2},"rentedBike":false,"transitLeg":false,"duration":3.0,"steps":[{"distance":3.42,"relativeDirection":"DEPART","streetName":"Boulevard Talbot","absoluteDirection":"SOUTHWEST","stayOn":false,"area":false,"bogusName":false,"lon":-71.07358739800073,"lat":48.39101857376674,"elevation":[]}]},{"startTime":1522682395000,"endTime":1522682460000,"departureDelay":0,"arrivalDelay":0,"realTime":false,"distance":493.8049569268952,"pathway":false,"mode":"BUS","route":"175","agencyName":"Société de Transport du Saguenay","agencyUrl":"http://ville.saguenay.ca/fr/services-aux-citoyens/transport-sts","agencyTimeZoneOffset":-14400000,"routeColor":"FF00FF","routeType":3,"routeId":"1:175","routeTextColor":"FFFFFF","interlineWithPreviousLeg":false,"tripBlockId":"10","headsign":"Terminus Chicoutimi","agencyId":"0","tripId":"1:217436","serviceDate":"20180402","from":{"name":"boul. Talbot / Soeurs","stopId":"1:38","stopCode":"38","lon":-71.073496,"lat":48.390935,"arrival":1522682394000,"departure":1522682395000,"zoneId":"NA","stopIndex":6,"stopSequence":7,"vertexType":"TRANSIT"},"to":{"name":"boul. Talbot / boul. Barrette","stopId":"1:49","stopCode":"49","lon":-71.069502,"lat":48.394497,"arrival":1522682460000,"departure":1522682461000,"zoneId":"NA","stopIndex":7,"stopSequence":8,"vertexType":"TRANSIT"},"legGeometry":{"points":"sjjfH`qxpLaO_QkEsE","length":3},"routeShortName":"175","routeLongName":"Term. Chic / Costco","rentedBike":false,"transitLeg":true,"duration":65.0,"steps":[]},{"startTime":1522682461000,"endTime":1522682932000,"departureDelay":0,"arrivalDelay":0,"realTime":false,"distance":606.7109999999999,"pathway":false,"mode":"WALK","route":"","agencyTimeZoneOffset":-14400000,"interlineWithPreviousLeg":false,"from":{"name":"boul. Talbot / boul. Barrette","stopId":"1:49","stopCode":"49","lon":-71.069502,"lat":48.394497,"arrival":1522682460000,"departure":1522682461000,"zoneId":"NA","stopIndex":7,"stopSequence":8,"vertexType":"TRANSIT"},"to":{"name":"Destination","lon":-71.075308,"lat":48.395567,"arrival":1522682932000,"orig":"","vertexType":"NORMAL"},"legGeometry":{"points":"}`kfHdxwpL|BlCNNQb@GLAFaHzQW`As@rCi@vBhA~@\\W","length":12},"rentedBike":false,"transitLeg":false,"duration":471.0,"steps":[{"distance":98.432,"relativeDirection":"DEPART","streetName":"Boulevard Talbot","absoluteDirection":"SOUTHWEST","stayOn":false,"area":false,"bogusName":false,"lon":-71.06962085488986,"lat":48.394555935445034,"elevation":[]},{"distance":441.378,"relativeDirection":"RIGHT","streetName":"Boulevard Barrette","absoluteDirection":"NORTHWEST","stayOn":false,"area":false,"bogusName":false,"lon":-71.07041720000001,"lat":48.393846,"elevation":[]},{"distance":66.901,"relativeDirection":"LEFT","streetName":"Rue Jacques-Ferron","absoluteDirection":"SOUTHWEST","stayOn":false,"area":false,"bogusName":false,"lon":-71.0753974,"lat":48.396028400000006,"elevation":[]}]}],"tooSloped":false},{"duration":541,"startTime":1522683291000,"endTime":1522683832000,"walkTime":474,"transitTime":65,"waitingTime":2,"walkDistance":610.2246090195358,"walkLimitExceeded":false,"elevationLost":0.0,"elevationGained":0.0,"transfers":0,"legs":[{"startTime":1522683291000,"endTime":1522683294000,"departureDelay":0,"arrivalDelay":0,"realTime":false,"distance":3.42,"pathway":false,"mode":"WALK","route":"","agencyTimeZoneOffset":-14400000,"interlineWithPreviousLeg":false,"from":{"name":"Origin","lon":-71.073186,"lat":48.39082,"departure":1522683291000,"orig":"","vertexType":"NORMAL"},"to":{"name":"boul. Talbot / Soeurs","stopId":"1:38","stopCode":"38","lon":-71.073496,"lat":48.390935,"arrival":1522683294000,"departure":1522683295000,"zoneId":"NA","stopIndex":6,"stopSequence":7,"vertexType":"TRANSIT"},"legGeometry":{"points":"yjjfH|pxpLBD","length":2},"rentedBike":false,"transitLeg":false,"duration":3.0,"steps":[{"distance":3.42,"relativeDirection":"DEPART","streetName":"Boulevard Talbot","absoluteDirection":"SOUTHWEST","stayOn":false,"area":false,"bogusName":false,"lon":-71.07358739800073,"lat":48.39101857376674,"elevation":[]}]},{"startTime":1522683295000,"endTime":1522683360000,"departureDelay":0,"arrivalDelay":0,"realTime":false,"distance":493.8049569268952,"pathway":false,"mode":"BUS","route":"175","agencyName":"Société de Transport du Saguenay","agencyUrl":"http://ville.saguenay.ca/fr/services-aux-citoyens/transport-sts","agencyTimeZoneOffset":-14400000,"routeColor":"FF00FF","routeType":3,"routeId":"1:175","routeTextColor":"FFFFFF","interlineWithPreviousLeg":false,"tripBlockId":"78","headsign":"Terminus Chicoutimi","agencyId":"0","tripId":"1:218642","serviceDate":"20180402","from":{"name":"boul. Talbot / Soeurs","stopId":"1:38","stopCode":"38","lon":-71.073496,"lat":48.390935,"arrival":1522683294000,"departure":1522683295000,"zoneId":"NA","stopIndex":6,"stopSequence":7,"vertexType":"TRANSIT"},"to":{"name":"boul. Talbot / boul. Barrette","stopId":"1:49","stopCode":"49","lon":-71.069502,"lat":48.394497,"arrival":1522683360000,"departure":1522683361000,"zoneId":"NA","stopIndex":7,"stopSequence":8,"vertexType":"TRANSIT"},"legGeometry":{"points":"sjjfH`qxpLaO_QkEsE","length":3},"routeShortName":"175","routeLongName":"Term. Chic / Costco","rentedBike":false,"transitLeg":true,"duration":65.0,"steps":[]},{"startTime":1522683361000,"endTime":1522683832000,"departureDelay":0,"arrivalDelay":0,"realTime":false,"distance":606.7109999999999,"pathway":false,"mode":"WALK","route":"","agencyTimeZoneOffset":-14400000,"interlineWithPreviousLeg":false,"from":{"name":"boul. Talbot / boul. Barrette","stopId":"1:49","stopCode":"49","lon":-71.069502,"lat":48.394497,"arrival":1522683360000,"departure":1522683361000,"zoneId":"NA","stopIndex":7,"stopSequence":8,"vertexType":"TRANSIT"},"to":{"name":"Destination","lon":-71.075308,"lat":48.395567,"arrival":1522683832000,"orig":"","vertexType":"NORMAL"},"legGeometry":{"points":"}`kfHdxwpL|BlCNNQb@GLAFaHzQW`As@rCi@vBhA~@\\W","length":12},"rentedBike":false,"transitLeg":false,"duration":471.0,"steps":[{"distance":98.432,"relativeDirection":"DEPART","streetName":"Boulevard Talbot","absoluteDirection":"SOUTHWEST","stayOn":false,"area":false,"bogusName":false,"lon":-71.06962085488986,"lat":48.394555935445034,"elevation":[]},{"distance":441.378,"relativeDirection":"RIGHT","streetName":"Boulevard Barrette","absoluteDirection":"NORTHWEST","stayOn":false,"area":false,"bogusName":false,"lon":-71.07041720000001,"lat":48.393846,"elevation":[]},{"distance":66.901,"relativeDirection":"LEFT","streetName":"Rue Jacques-Ferron","absoluteDirection":"SOUTHWEST","stayOn":false,"area":false,"bogusName":false,"lon":-71.0753974,"lat":48.396028400000006,"elevation":[]}]}],"tooSloped":false}]},"debugOutput":{"precalculationTime":21,"pathCalculationTime":13,"pathTimes":[7,5,1],"renderingTime":1,"totalTime":35,"timedOut":false},"elevationMetadata":{"ellipsoidToGeoidDifference":-28.885904201182168,"geoidElevation":false}}