{"requestParameters":{"date":"2018/04/02","walkSpeed":"1.33","walkReluctance":"2.0","fromPlace":"48.397676,-71.074454","maxWalkDistance":"3000","waitReluctance":"1.0","carSpeed":"33","numItineraries":"3","waitAtBeginningFactor":"0.4","mode":"TRANSIT,WALK","ignoreRealtimeUpdates":"false","stairsReluctance":"2.0","toPlace":"48.418436,-71.035021","time":"8:0:00"},"plan":{"date":1522670400000,"from":{"name":"Origin","lon":-71.074454,"lat":48.397676,"orig":"","vertexType":"NORMAL"},"to":{"name":"Destination","lon":-71.035021,"lat":48.418436,"orig":"","vertexType":"NORMAL"},"itineraries":[{"duration":1529,"startTime":1522670471000,"endTime":1522672000000,"walkTime":684,"transitTime":843,"waitingTime":2,"walkDistance":869.4634436032969,"walkLimitExceeded":false,"elevationLost":0.0,"elevationGained":0.0,"transfers":0,"legs":[{"startTime":1522670471000,"endTime":1522670876000,"departureDelay":0,"arrivalDelay":0,"realTime":false,"distance":522.869,"pathway":false,"mode":"WALK","route":"","agencyTimeZoneOffset":-14400000,"interlineWithPreviousLeg":false,"from":{"name":"Origin","lon":-71.074454,"lat":48.397676,"departure":1522670471000,"orig":"","vertexType":"NORMAL"},"to":{"name":"Bégin / Vingt-et-Un","stopId":"1:1981","stopCode":"1981","lon":-71.079949,"lat":48.400245,"arrival":1522670876000,"departure":1522670877000,"zoneId":"NA","stopIndex":2,"stopSequence":3,"vertexType":"TRANSIT"},"legGeometry":{"points":"_vkfH`uxpL_@vA[|@c@lAuAlD{B|GsApDqB`G@@\\^","length":10},"rentedBike":false,"transitLeg":false,"duration":405.0,"steps":[{"distance":500.88,"relativeDirection":"DEPART","streetName":"Rue des Vingt-et-Un","absoluteDirection":"NORTHWEST","stayOn":false,"area":false,"bogusName":false,"lon":-71.07424604640293,"lat":48.39792506586006,"elevation":[]},{"distance":21.989,"relativeDirection":"LEFT","streetName":"Rue Bégin","absoluteDirection":"SOUTHWEST","stayOn":false,"area":false,"bogusName":false,"lon":-71.0798627,"lat":48.400446800000005,"elevation":[]}]},{"startTime":1522670877000,"endTime":1522671720000,"departureDelay":0,"arrivalDelay":0,"realTime":false,"distance":4334.206276597634,"pathway":false,"mode":"BUS","route":"204S","agencyName":"Société de Transport du Saguenay","agencyUrl":"http://ville.saguenay.ca/fr/services-aux-citoyens/transport-sts","agencyTimeZoneOffset":-14400000,"routeColor":"8B0000","routeType":3,"routeId":"1:204S","routeTextColor":"FFFFFF","interlineWithPreviousLeg":false,"tripBlockId":"103","headsign":"Séminaire","agencyId":"0","tripId":"1:218793","serviceDate":"20180402","from":{"name":"Bégin / Vingt-et-Un","stopId":"1:1981","stopCode":"1981","lon":-71.079949,"lat":48.400245,"arrival":1522670876000,"departure":1522670877000,"zoneId":"NA","stopIndex":2,"stopSequence":3,"vertexType":"TRANSIT"},"to":{"name":"Séminaire de Chicoutimi (Chabanel)","stopId":"1:1902","stopCode":"1902","lon":-71.037893,"lat":48.41769,"arrival":1522671720000,"departure":1522671721000,"zoneId":"NA","stopIndex":12,"stopSequence":13,"vertexType":"TRANSIT"},"legGeometry":{"points":"{dlfHlyypLa@e@jEkLbCcHqAwAm@k@SQc@O}@Q{A_@]AmBJOEKEEEi@k@s@g@m@bB]x@o@fBSf@U\\k@x@ORc@s@iD{GkA{BAEGQGSG[Ee@Ag@@_@F{@T_AL_@Li@?ELs@fAPdA[Rk@?WVSJUJUIc@SQ]EEa@a@gAc@s@i@w@S[uAqAk@hBSbBICOEi@Ei@?eCEUAUCi@Qo@_@uCcCyCgCh@_B`CmGhC{GlBcFXm@^e@RQdA}@PAzCmCLKd@q@p@mAXw@zBcGhAmCR]ik@oh@{o@wq@}BgBaCaBcDcBFM|JqZsCuClAkBHCZd@JFRCf@VNc@","length":101},"routeShortName":"204S","routeLongName":"Séminaire - Domaine du Royaume","rentedBike":false,"transitLeg":true,"duration":843.0,"steps":[]},{"startTime":1522671721000,"endTime":1522672000000,"departureDelay":0,"arrivalDelay":0,"realTime":false,"distance":346.417,"pathway":false,"mode":"WALK","route":"","agencyTimeZoneOffset":-14400000,"interlineWithPreviousLeg":false,"from":{"name":"Séminaire de Chicoutimi (Chabanel)","stopId":"1:1902","stopCode":"1902","lon":-71.037893,"lat":48.41769,"arrival":1522671720000,"departure":1522671721000,"zoneId":"NA","stopIndex":12,"stopSequence":13,"vertexType":"TRANSIT"},"to":{"name":"Destination","lon":-71.035021,"lat":48.418436,"arrival":1522672000000,"orig":"","vertexType":"NORMAL"},"legGeometry":{"points":"kqofH~qqpLQj@E?E?O]OBO?MMK_@UWSWUKMISGQKOKIOA]LSRo@H{@Co@GgBC_ABe@Dg@","length":26},"rentedBike":false,"transitLeg":false,"duration":279.0,"steps":[{"distance":21.334,"relativeDirection":"DEPART","streetName":"service road","absoluteDirection":"NORTHWEST","stayOn":false,"area":false,"bogusName":true,"lon":-71.0379161128933,"lat":48.417666291722945,"elevation":[]},{"distance":325.08299999999997,"relativeDirection":"RIGHT","streetName":"service road","absoluteDirection":"NORTHEAST","stayOn":true,"area":false,"bogusName":true,"lon":-71.03813170000001,"lat":48.417780300000004,"elevation":[]}]}],"tooSloped":false},{"duration":1543,"startTime":1522670457000,"endTime":1522672000000,"walkTime":1048,"transitTime":493,"waitingTime":2,"walkDistance":1346.0917819480214,"walkLimitExceeded":false,"elevationLost":0.0,"elevationGained":0.0,"transfers":0,"legs":[{"startTime":1522670457000,"endTime":1522671226000,"departureDelay":0,"arrivalDelay":0,"realTime":false,"distance":999.462,"pathway":false,"mode":"WALK","route":"","agencyTimeZoneOffset":-14400000,"interlineWithPreviousLeg":false,"from":{"name":"Origin","lon":-71.074454,"lat":48.397676,"departure":1522670457000,"orig":"","vertexType":"NORMAL"},"to":{"name":"boul. Talbot / boul. Barrette","stopId":"1:49","stopCode":"49","lon":-71.069502,"lat":48.394497,"arrival":1522671226000,"departure":1522671227000,"zoneId":"NA","stopIndex":26,"stopSequence":27,"vertexType":"TRANSIT"},"legGeometry":{"points":"_vkfH`uxpL_@vA[|@c@lAv@`Ax@bAxB|BtAnAZgAfB{GhAsEFSd@eBVm@x@yB|EgMPc@}BmC","length":18},"rentedBike":false,"transitLeg":false,"duration":769.0,"steps":[{"distance":99.243,"relativeDirection":"DEPART","streetName":"Rue des Vingt-et-Un","absoluteDirection":"NORTHWEST","stayOn":false,"area":false,"bogusName":false,"lon":-71.07424604640293,"lat":48.39792506586006,"elevation":[]},{"distance":219.137,"relativeDirection":"LEFT","streetName":"Rue des Cent-Associés","absoluteDirection":"SOUTHWEST","stayOn":false,"area":false,"bogusName":false,"lon":-71.0753823,"lat":48.3984004,"elevation":[]},{"distance":593.355,"relativeDirection":"LEFT","streetName":"Boulevard Barrette","absoluteDirection":"SOUTHEAST","stayOn":false,"area":false,"bogusName":false,"lon":-71.07708930000001,"lat":48.396790800000005,"elevation":[]},{"distance":87.727,"relativeDirection":"LEFT","streetName":"Boulevard Talbot","absoluteDirection":"NORTHEAST","stayOn":false,"area":false,"bogusName":false,"lon":-71.0703318,"lat":48.3939238,"elevation":[]}]},{"startTime":1522671227000,"endTime":1522671720000,"departureDelay":0,"arrivalDelay":0,"realTime":false,"distance":3478.260328213659,"pathway":false,"mode":"BUS","route":"202S","agencyName":"Société de Transport du Saguenay","agencyUrl":"http://ville.saguenay.ca/fr/services-aux-citoyens/transport-sts","agencyTimeZoneOffset":-14400000,"routeColor":"8B0000","routeType":3,"routeId":"1:202S","routeTextColor":"FFFFFF","interlineWithPreviousLeg":false,"tripBlockId":"41","headsign":"Séminaire","agencyId":"0","tripId":"1:218357","serviceDate":"20180402","from":{"name":"boul. Talbot / boul. Barrette","stopId":"1:49","stopCode":"49","lon":-71.069502,"lat":48.394497,"arrival":1522671226000,"departure":1522671227000,"zoneId":"NA","stopIndex":26,"stopSequence":27,"vertexType":"TRANSIT"},"to":{"name":"Séminaire de Chicoutimi (Chabanel)","stopId":"1:1902","stopCode":"1902","lon":-71.037893,"lat":48.41769,"arrival":1522671720000,"departure":1522671721000,"zoneId":"NA","stopIndex":29,"stopSequence":30,"vertexType":"TRANSIT"},"legGeometry":{"points":"{`kfH`xwpLqDeEkDwE_DwEkJgNW_@gEqFyG_H}s@up@{o@wq@}BgBaCaBcDcBFM|JqZsCuClAkBHCZd@JFRCf@VNc@","length":23},"routeShortName":"202S","routeLongName":"Séminaire - Term. Jonq","rentedBike":false,"transitLeg":true,"duration":493.0,"steps":[]},{"startTime":1522671721000,"endTime":1522672000000,"departureDelay":0,"arrivalDelay":0,"realTime":false,"distance":346.417,"pathway":false,"mode":"WALK","route":"","agencyTimeZoneOffset":-14400000,"interlineWithPreviousLeg":false,"from":{"name":"Séminaire de Chicoutimi (Chabanel)","stopId":"1:1902","stopCode":"1902","lon":-71.037893,"lat":48.41769,"arrival":1522671720000,"departure":1522671721000,"zoneId":"NA","stopIndex":29,"stopSequence":30,"vertexType":"TRANSIT"},"to":{"name":"Destination","lon":-71.035021,"lat":48.418436,"arrival":1522672000000,"orig":"","vertexType":"NORMAL"},"legGeometry":{"points":"kqofH~qqpLQj@E?E?O]OBO?MMK_@UWSWUKMISGQKOKIOA]LSRo@H{@Co@GgBC_ABe@Dg@","length":26},"rentedBike":false,"transitLeg":false,"duration":279.0,"steps":[{"distance":21.334,"relativeDirection":"DEPART","streetName":"service road","absoluteDirection":"NORTHWEST","stayOn":false,"area":false,"bogusName":true,"lon":-71.0379161128933,"lat":48.417666291722945,"elevation":[]},{"distance":325.08299999999997,"relativeDirection":"RIGHT","streetName":"service road","absoluteDirection":"NORTHEAST","stayOn":true,"area":false,"bogusName":true,"lon":-71.03813170000001,"lat":48.417780300000004,"elevation":[]}]}],"tooSloped":false},{"duration":1940,"startTime":1522670420000,"endTime":1522672360000,"walkTime":668,"transitTime":1096,"waitingTime":176,"walkDistance":848.510443603297,"walkLimitExceeded":false,"elevationLost":0.0,"elevationGained":0.0,"transfers":1,"legs":[{"startTime":1522670420000,"endTime":1522670809000,"departureDelay":0,"arrivalDelay":0,"realTime":false,"distance":501.916,"pathway":false,"mode":"WALK","route":"","agencyTimeZoneOffset":-14400000,"interlineWithPreviousLeg":false,"from":{"name":"Origin","lon":-71.074454,"lat":48.397676,"departure":1522670420000,"orig":"","vertexType":"NORMAL"},"to":{"name":"Bégin / Vingt-et-Un","stopId":"1:449","stopCode":"449","lon":-71.08,"lat":48.4005,"arrival":1522670809000,"departure":1522670810000,"zoneId":"NA","stopIndex":22,"stopSequence":23,"vertexType":"TRANSIT"},"legGeometry":{"points":"_vkfH`uxpL_@vA[|@c@lAuAlD{B|GsApDqB`G@@","length":9},"rentedBike":false,"transitLeg":false,"duration":389.0,"steps":[{"distance":500.88,"relativeDirection":"DEPART","streetName":"Rue des Vingt-et-Un","absoluteDirection":"NORTHWEST","stayOn":false,"area":false,"bogusName":false,"lon":-71.07424604640293,"lat":48.39792506586006,"elevation":[]},{"distance":1.036,"relativeDirection":"LEFT","streetName":"Rue Bégin","absoluteDirection":"SOUTHWEST","stayOn":false,"area":false,"bogusName":false,"lon":-71.0798627,"lat":48.400446800000005,"elevation":[]}]},{"startTime":1522670810000,"endTime":1522670899000,"departureDelay":0,"arrivalDelay":0,"realTime":false,"distance":1254.3553892654306,"pathway":false,"mode":"BUS","route":"14","agencyName":"Société de Transport du Saguenay","agencyUrl":"http://ville.saguenay.ca/fr/services-aux-citoyens/transport-sts","agencyTimeZoneOffset":-14400000,"routeColor":"C0C000","routeType":3,"routeId":"1:14","routeTextColor":"000000","interlineWithPreviousLeg":false,"tripBlockId":"30","headsign":"Talbot / Barrette","agencyId":"0","tripId":"1:218089","serviceDate":"20180402","from":{"name":"Bégin / Vingt-et-Un","stopId":"1:449","stopCode":"449","lon":-71.08,"lat":48.4005,"arrival":1522670809000,"departure":1522670810000,"zoneId":"NA","stopIndex":22,"stopSequence":23,"vertexType":"TRANSIT"},"to":{"name":"Malraux / Paul Morand","stopId":"1:92","stopCode":"92","lon":-71.092693,"lat":48.398228,"arrival":1522670899000,"departure":1522671073000,"zoneId":"NA","stopIndex":28,"stopSequence":29,"vertexType":"TRANSIT"},"legGeometry":{"points":"yelfHjxypLlClC|@^hCYVExCjCb@d@vE`F`BhB?pHaBhRqAbLK~@qBxFqB|F","length":15},"routeShortName":"14","routeLongName":"Coopérative","rentedBike":false,"transitLeg":true,"duration":89.0,"steps":[]},{"startTime":1522671073000,"endTime":1522672080000,"departureDelay":0,"arrivalDelay":0,"realTime":false,"distance":5724.455405201078,"pathway":false,"mode":"BUS","route":"205S","agencyName":"Société de Transport du Saguenay","agencyUrl":"http://ville.saguenay.ca/fr/services-aux-citoyens/transport-sts","agencyTimeZoneOffset":-14400000,"routeColor":"8B0000","routeType":3,"routeId":"1:205S","routeTextColor":"FFFFFF","interlineWithPreviousLeg":false,"tripBlockId":"49","headsign":"Séminaire","agencyId":"0","tripId":"1:218411","serviceDate":"20180402","from":{"name":"Malraux / Paul Morand","stopId":"1:92","stopCode":"92","lon":-71.092693,"lat":48.398228,"arrival":1522670899000,"departure":1522671073000,"zoneId":"NA","stopIndex":13,"stopSequence":14,"vertexType":"TRANSIT"},"to":{"name":"Séminaire de Chicoutimi (Chabanel)","stopId":"1:1902","stopCode":"1902","lon":-71.037893,"lat":48.41769,"arrival":1522672080000,"departure":1522672081000,"zoneId":"NA","stopIndex":24,"stopSequence":25,"vertexType":"TRANSIT"},"legGeometry":{"points":"qwkfHth|pLiCvGKPMJOBqABWASGQQcCqCiFcGsBwB|BiGRm@Nq@lAoG@IAICIEGoPcLkDqBa@Qm@Oa@AGyBGoAa@oDo@qDS_Ba@kEG[MWg@_@IHULQAw@M_A_@IIKI[[YWaBy@aAu@o@m@KK]a@}A_CcD{C[[eCsBoBmB]q@WeBy@wMIUwB{D{AcDsEmKUCrDoKoByB}DcE}A_BoAmAk@o@aC_CkIkIaJaJWWuB_C\\{AZkANe@P]^s@`@k@fAgAfDwCtC_CxQaPRQHG^Q\\Mb@I~CILCHAXKXMXQRQPQT[\\s@^aAtAaERc@{b@ed@}BgBaCaBaDcBFMzJqZsCsClAmBHCZf@JFRCf@TL]@E","length":115},"routeShortName":"205S","routeLongName":"Séminaire - Bégin/Malraux","rentedBike":false,"transitLeg":true,"duration":1007.0,"steps":[]},{"startTime":1522672081000,"endTime":1522672360000,"departureDelay":0,"arrivalDelay":0,"realTime":false,"distance":346.417,"pathway":false,"mode":"WALK","route":"","agencyTimeZoneOffset":-14400000,"interlineWithPreviousLeg":false,"from":{"name":"Séminaire de Chicoutimi (Chabanel)","stopId":"1:1902","stopCode":"1902","lon":-71.037893,"lat":48.41769,"arrival":1522672080000,"departure":1522672081000,"zoneId":"NA","stopIndex":24,"stopSequence":25,"vertexType":"TRANSIT"},"to":{"name":"Destination","lon":-71.035021,"lat":48.418436,"arrival":1522672360000,"orig":"","vertexType":"NORMAL"},"legGeometry":{"points":"kqofH~qqpLQj@E?E?O]OBO?MMK_@UWSWUKMISGQKOKIOA]LSRo@H{@Co@GgBC_ABe@Dg@","length":26},"rentedBike":false,"transitLeg":false,"duration":279.0,"steps":[{"distance":21.334,"relativeDirection":"DEPART","streetName":"service road","absoluteDirection":"NORTHWEST","stayOn":false,"area":false,"bogusName":true,"lon":-71.0379161128933,"lat":48.417666291722945,"elevation":[]},{"distance":325.08299999999997,"relativeDirection":"RIGHT","streetName":"service road","absoluteDirection":"NORTHEAST","stayOn":true,"area":false,"bogusName":true,"lon":-71.03813170000001,"lat":48.417780300000004,"elevation":[]}]}],"tooSloped":false}]},"debugOutput":{"precalculationTime":25,"pathCalculationTime":24,"pathTimes":[14,3,7],"renderingTime":1,"totalTime":50,"timedOut":false},"elevationMetadata":{"ellipsoidToGeoidDifference":-28.885904201182168,"geoidElevation":false}}