{"requestParameters":{"date":"2018/04/02","walkSpeed":"1.33","walkReluctance":"2.0","fromPlace":"48.401407,-71.072862","maxWalkDistance":"3000","waitReluctance":"1.0","carSpeed":"33","numItineraries":"3","waitAtBeginningFactor":"0.4","mode":"TRANSIT,WALK","ignoreRealtimeUpdates":"false","stairsReluctance":"2.0","toPlace":"48.39881,-71.114215","time":"7:30:00"},"plan":{"date":1522668600000,"from":{"name":"Origin","lon":-71.072862,"lat":48.401407,"orig":"","vertexType":"NORMAL"},"to":{"name":"Destination","lon":-71.114215,"lat":48.39881,"orig":"","vertexType":"NORMAL"},"itineraries":[{"duration":1977,"startTime":1522668629000,"endTime":1522670606000,"walkTime":988,"transitTime":412,"waitingTime":577,"walkDistance":1280.790060146373,"walkLimitExceeded":false,"elevationLost":0.0,"elevationGained":0.0,"transfers":1,"legs":[{"startTime":1522668629000,"endTime":1522668982000,"departureDelay":0,"arrivalDelay":0,"realTime":false,"distance":443.51400000000007,"pathway":false,"mode":"WALK","route":"","agencyTimeZoneOffset":-14400000,"interlineWithPreviousLeg":false,"from":{"name":"Origin","lon":-71.072862,"lat":48.401407,"departure":1522668629000,"orig":"","vertexType":"NORMAL"},"to":{"name":"Bégin / Château Richer","stopId":"1:1982","stopCode":"1982","lon":-71.076545,"lat":48.403266,"arrival":1522668982000,"departure":1522668983000,"zoneId":"NA","stopIndex":21,"stopSequence":22,"vertexType":"TRANSIT"},"legGeometry":{"points":"gllfHtmxpLiA}@g@|Bl@bDB~@C`@M^{@dCk@zAc@bAy@bAMNe@{@K^","length":14},"rentedBike":false,"transitLeg":false,"duration":353.0,"steps":[{"distance":47.095,"relativeDirection":"DEPART","streetName":"Rue de l'Intendant","absoluteDirection":"NORTHEAST","stayOn":false,"area":false,"bogusName":false,"lon":-71.0730625257081,"lat":48.40148152808941,"elevation":[]},{"distance":352.975,"relativeDirection":"LEFT","streetName":"Rue Saint-Urbain","absoluteDirection":"NORTHWEST","stayOn":false,"area":false,"bogusName":false,"lon":-71.0727509,"lat":48.4018511,"elevation":[]},{"distance":30.161,"relativeDirection":"RIGHT","streetName":"Rue Bégin","absoluteDirection":"NORTHEAST","stayOn":false,"area":false,"bogusName":false,"lon":-71.0767486,"lat":48.402957,"elevation":[]},{"distance":13.283,"relativeDirection":"LEFT","streetName":"Rue Château-Richer","absoluteDirection":"NORTHWEST","stayOn":false,"area":false,"bogusName":false,"lon":-71.0764477,"lat":48.403140500000006,"elevation":[]}]},{"startTime":1522668983000,"endTime":1522669120000,"departureDelay":0,"arrivalDelay":0,"realTime":false,"distance":1902.5650247158167,"pathway":false,"mode":"BUS","route":"14","agencyName":"Société de Transport du Saguenay","agencyUrl":"http://ville.saguenay.ca/fr/services-aux-citoyens/transport-sts","agencyTimeZoneOffset":-14400000,"routeColor":"C0C000","routeType":3,"routeId":"1:14","routeTextColor":"000000","interlineWithPreviousLeg":false,"tripBlockId":"32","headsign":"Talbot / Barrette","agencyId":"0","tripId":"1:218148","serviceDate":"20180402","from":{"name":"Bégin / Château Richer","stopId":"1:1982","stopCode":"1982","lon":-71.076545,"lat":48.403266,"arrival":1522668982000,"departure":1522668983000,"zoneId":"NA","stopIndex":21,"stopSequence":22,"vertexType":"TRANSIT"},"to":{"name":"Malraux / Pagnol","stopId":"1:1978","stopCode":"1978","lon":-71.093388,"lat":48.400416,"arrival":1522669120000,"departure":1522669120000,"zoneId":"NA","stopIndex":29,"stopSequence":30,"vertexType":"TRANSIT"},"legGeometry":{"points":"yvlfHtbypLBDvC`FtJ|LLNlClC|@^hCYVExCjCb@d@vE`F`BhB?pHaBhRqAbLK~@qBxFqB|FcC~GyC\\aDkD","length":22},"routeShortName":"14","routeLongName":"Coopérative","rentedBike":false,"transitLeg":true,"duration":137.0,"steps":[]},{"startTime":1522669120000,"endTime":1522669708000,"departureDelay":0,"arrivalDelay":0,"realTime":false,"distance":778.2059999999999,"pathway":false,"mode":"WALK","route":"","agencyTimeZoneOffset":-14400000,"interlineWithPreviousLeg":false,"from":{"name":"Malraux / Pagnol","stopId":"1:1978","stopCode":"1978","lon":-71.093388,"lat":48.400416,"arrival":1522669120000,"departure":1522669120000,"zoneId":"NA","stopIndex":29,"stopSequence":30,"vertexType":"TRANSIT"},"to":{"name":"boul. Barrette / Estacade","stopId":"1:465","stopCode":"465","lon":-71.098983,"lat":48.40478,"arrival":1522669708000,"departure":1522670283000,"zoneId":"NA","stopIndex":15,"stopSequence":16,"vertexType":"TRANSIT"},"legGeometry":{"points":"selfHzl|pLkF{Fa@jAA?{EvMy@tBGPsCrH@b@kBtEg@bBM\\","length":12},"rentedBike":false,"transitLeg":false,"duration":588.0,"steps":[{"distance":160.301,"relativeDirection":"DEPART","streetName":"Rue Malraux","absoluteDirection":"NORTHEAST","stayOn":false,"area":false,"bogusName":false,"lon":-71.09341079342245,"lat":48.40042668071038,"elevation":[]},{"distance":449.30899999999997,"relativeDirection":"LEFT","streetName":"Boulevard Barrette","absoluteDirection":"NORTHWEST","stayOn":false,"area":false,"bogusName":false,"lon":-71.0921587,"lat":48.401604500000005,"elevation":[]},{"distance":168.596,"relativeDirection":"SLIGHTLY_LEFT","streetName":"bike path","absoluteDirection":"WEST","stayOn":false,"area":false,"bogusName":true,"lon":-71.0971116,"lat":48.4039529,"elevation":[]}]},{"startTime":1522670283000,"endTime":1522670558000,"departureDelay":0,"arrivalDelay":0,"realTime":false,"distance":2218.178451020747,"pathway":false,"mode":"BUS","route":"11","agencyName":"Société de Transport du Saguenay","agencyUrl":"http://ville.saguenay.ca/fr/services-aux-citoyens/transport-sts","agencyTimeZoneOffset":-14400000,"routeColor":"FF0000","routeType":3,"routeId":"1:11","routeTextColor":"FFFFFF","interlineWithPreviousLeg":false,"tripBlockId":"35","headsign":"Boul.Royaume/St-Pierre","agencyId":"0","tripId":"1:218244","serviceDate":"20180402","from":{"name":"boul. Barrette / Estacade","stopId":"1:465","stopCode":"465","lon":-71.098983,"lat":48.40478,"arrival":1522669708000,"departure":1522670283000,"zoneId":"NA","stopIndex":15,"stopSequence":16,"vertexType":"TRANSIT"},"to":{"name":"Manic / Outardes","stopId":"1:474","stopCode":"474","lon":-71.113129,"lat":48.39895,"arrival":1522670558000,"departure":1522670559000,"zoneId":"NA","stopIndex":21,"stopSequence":22,"vertexType":"TRANSIT"},"legGeometry":{"points":"i`mfHdp}pL|CyI~IrJtAzAmKrWsE`LzJjL|P}d@Ri@hCpEpBdCHJzPrR_AhC}Ppd@","length":15},"routeShortName":"11","routeLongName":"Chic/Faubourg via St-Paul","rentedBike":false,"transitLeg":true,"duration":275.0,"steps":[]},{"startTime":1522670559000,"endTime":1522670606000,"departureDelay":0,"arrivalDelay":0,"realTime":false,"distance":58.946000000000005,"pathway":false,"mode":"WALK","route":"","agencyTimeZoneOffset":-14400000,"interlineWithPreviousLeg":false,"from":{"name":"Manic / Outardes","stopId":"1:474","stopCode":"474","lon":-71.113129,"lat":48.39895,"arrival":1522670558000,"departure":1522670559000,"zoneId":"NA","stopIndex":21,"stopSequence":22,"vertexType":"TRANSIT"},"to":{"name":"Destination","lon":-71.114215,"lat":48.39881,"arrival":1522670606000,"orig":"","vertexType":"NORMAL"},"legGeometry":{"points":"u|kfHth`qLJNhAjA","length":3},"rentedBike":false,"transitLeg":false,"duration":47.0,"steps":[{"distance":9.505,"relativeDirection":"DEPART","streetName":"Rue de la Manouane","absoluteDirection":"SOUTHWEST","stayOn":false,"area":false,"bogusName":false,"lon":-71.11322643182017,"lat":48.398999027375844,"elevation":[]},{"distance":49.441,"relativeDirection":"CONTINUE","streetName":"Rue des Outardes","absoluteDirection":"SOUTHWEST","stayOn":false,"area":false,"bogusName":false,"lon":-71.1133042,"lat":48.3989309,"elevation":[]}]}],"tooSloped":false},{"duration":3102,"startTime":1522669304000,"endTime":1522672406000,"walkTime":350,"transitTime":2330,"waitingTime":422,"walkDistance":449.00012781789917,"walkLimitExceeded":false,"elevationLost":0.0,"elevationGained":0.0,"transfers":1,"legs":[{"startTime":1522669304000,"endTime":1522669607000,"departureDelay":0,"arrivalDelay":0,"realTime":false,"distance":390.00300000000004,"pathway":false,"mode":"WALK","route":"","agencyTimeZoneOffset":-14400000,"interlineWithPreviousLeg":false,"from":{"name":"Origin","lon":-71.072862,"lat":48.401407,"departure":1522669304000,"orig":"","vertexType":"NORMAL"},"to":{"name":"Bégin / St-Urbain","stopId":"1:450","stopCode":"450","lon":-71.076619,"lat":48.402909,"arrival":1522669607000,"departure":1522669608000,"zoneId":"NA","stopIndex":14,"stopSequence":15,"vertexType":"TRANSIT"},"legGeometry":{"points":"gllfHtmxpLiA}@g@|Bl@bDB~@C`@M^{@dCk@zAc@bAy@bA","length":11},"rentedBike":false,"transitLeg":false,"duration":303.0,"steps":[{"distance":47.095,"relativeDirection":"DEPART","streetName":"Rue de l'Intendant","absoluteDirection":"NORTHEAST","stayOn":false,"area":false,"bogusName":false,"lon":-71.0730625257081,"lat":48.40148152808941,"elevation":[]},{"distance":342.908,"relativeDirection":"LEFT","streetName":"Rue Saint-Urbain","absoluteDirection":"NORTHWEST","stayOn":false,"area":false,"bogusName":false,"lon":-71.0727509,"lat":48.4018511,"elevation":[]}]},{"startTime":1522669608000,"endTime":1522670880000,"departureDelay":0,"arrivalDelay":0,"realTime":false,"distance":5714.783357533471,"pathway":false,"mode":"BUS","route":"14","agencyName":"Société de Transport du Saguenay","agencyUrl":"http://ville.saguenay.ca/fr/services-aux-citoyens/transport-sts","agencyTimeZoneOffset":-14400000,"routeColor":"C0C000","routeType":3,"routeId":"1:14","routeTextColor":"000000","interlineWithPreviousLeg":false,"tripBlockId":"33","headsign":"Terminus Chicoutimi","agencyId":"0","tripId":"1:218174","serviceDate":"20180402","from":{"name":"Bégin / St-Urbain","stopId":"1:450","stopCode":"450","lon":-71.076619,"lat":48.402909,"arrival":1522669607000,"departure":1522669608000,"zoneId":"NA","stopIndex":14,"stopSequence":15,"vertexType":"TRANSIT"},"to":{"name":"Terminus Chicoutimi","stopId":"1:1289","stopCode":"1289","lon":-71.066163,"lat":48.428677,"arrival":1522670880000,"departure":1522671300000,"zoneId":"NA","stopIndex":37,"stopSequence":38,"vertexType":"TRANSIT"},"legGeometry":{"points":"mulfHhdypLgEyHCGy@uB}@rAa@nAc@lFEf@mGvUYfAqCs@ICMCqFmDc@s@mAkBuEoESUgAhDiAfD}@zDyAcA_@Um@U{AWgB_Au@s@EEsBkCqFgF{IiI][aBhE}@}@oBmBwE{EwE{Ej@mBZeAa@SyEQg@CPcALuCx@{b@t@{[XoDd@sBl@iB~@gA`G{F{A{D_@sBFqDOq@iG{FGIoCkCgBgBsDpLHzBBT`@~COnBQf@gAjAg@bBuDmDmFgFa@_@w@s@CfAOrBEtAGbA?jBQtC?|@ExKMdIG~EUnLEhC}CKkBOkCOYbC","length":87},"routeShortName":"14","routeLongName":"Coopérative","rentedBike":false,"transitLeg":true,"duration":1272.0,"steps":[]},{"startTime":1522671300000,"endTime":1522672358000,"departureDelay":0,"arrivalDelay":0,"realTime":false,"distance":6053.410947371643,"pathway":false,"mode":"BUS","route":"11","agencyName":"Société de Transport du Saguenay","agencyUrl":"http://ville.saguenay.ca/fr/services-aux-citoyens/transport-sts","agencyTimeZoneOffset":-14400000,"routeColor":"FF0000","routeType":3,"routeId":"1:11","routeTextColor":"FFFFFF","interlineWithPreviousLeg":false,"tripBlockId":"37","headsign":"Boul.Royaume/St-Pierre","agencyId":"0","tripId":"1:218306","serviceDate":"20180402","from":{"name":"Terminus Chicoutimi","stopId":"1:1289","stopCode":"1289","lon":-71.066163,"lat":48.428677,"arrival":1522670880000,"departure":1522671300000,"zoneId":"NA","stopIndex":0,"stopSequence":1,"vertexType":"TRANSIT"},"to":{"name":"Manic / Outardes","stopId":"1:474","stopCode":"474","lon":-71.113129,"lat":48.39895,"arrival":1522672358000,"departure":1522672359000,"zoneId":"NA","stopIndex":21,"stopSequence":22,"vertexType":"TRANSIT"},"legGeometry":{"points":"evqfHzcwpLk@?UhKfIh@dKp@GnDIfDOtEE~@Ff@x@rEF~@CbAALO~ADRNJXBr@DfGRPBPJLN@@FPFTBX?TE`BhBR@?J@NELKFOlAiDL[bA`AfIjIbGdGzDzD`A~An@`ApApBpClEvJrOR\\bAfBLa@t@]LjAVvAVbAVv@^bAXj@b@t@xEtGh@r@n@x@FDjA|AlBpCnJ|NNTX`@V`@eCtHpFjH{FhPcB|Ft@|CEAdCnEdHKrBz@lGiQ|CyI~IrJtAzAmKrWsE`LzJjL|P}d@Ri@hCpEpBdCHJzPrR_AhC}Ppd@","length":91},"routeShortName":"11","routeLongName":"Chic/Faubourg via St-Paul","rentedBike":false,"transitLeg":true,"duration":1058.0,"steps":[]},{"startTime":1522672359000,"endTime":1522672406000,"departureDelay":0,"arrivalDelay":0,"realTime":false,"distance":58.946000000000005,"pathway":false,"mode":"WALK","route":"","agencyTimeZoneOffset":-14400000,"interlineWithPreviousLeg":false,"from":{"name":"Manic / Outardes","stopId":"1:474","stopCode":"474","lon":-71.113129,"lat":48.39895,"arrival":1522672358000,"departure":1522672359000,"zoneId":"NA","stopIndex":21,"stopSequence":22,"vertexType":"TRANSIT"},"to":{"name":"Destination","lon":-71.114215,"lat":48.39881,"arrival":1522672406000,"orig":"","vertexType":"NORMAL"},"legGeometry":{"points":"u|kfHth`qLJNhAjA","length":3},"rentedBike":false,"transitLeg":false,"duration":47.0,"steps":[{"distance":9.505,"relativeDirection":"DEPART","streetName":"Rue de la Manouane","absoluteDirection":"SOUTHWEST","stayOn":false,"area":false,"bogusName":false,"lon":-71.11322643182017,"lat":48.398999027375844,"elevation":[]},{"distance":49.441,"relativeDirection":"CONTINUE","streetName":"Rue des Outardes","absoluteDirection":"SOUTHWEST","stayOn":false,"area":false,"bogusName":false,"lon":-71.1133042,"lat":48.3989309,"elevation":[]}]}],"tooSloped":false},{"duration":2221,"startTime":1522671985000,"endTime":1522674206000,"walkTime":1821,"transitTime":398,"waitingTime":2,"walkDistance":2344.16604510252,"walkLimitExceeded":false,"elevationLost":0.0,"elevationGained":0.0,"transfers":0,"legs":[{"startTime":1522671985000,"endTime":1522673759000,"departureDelay":0,"arrivalDelay":0,"realTime":false,"distance":2284.902,"pathway":false,"mode":"WALK","route":"","agencyTimeZoneOffset":-14400000,"interlineWithPreviousLeg":false,"from":{"name":"Origin","lon":-71.072862,"lat":48.401407,"departure":1522671985000,"orig":"","vertexType":"NORMAL"},"to":{"name":"boul. St-Paul / Descartes","stopId":"1:467","stopCode":"467","lon":-71.092615,"lat":48.408095,"arrival":1522673759000,"departure":1522673760000,"zoneId":"NA","stopIndex":14,"stopSequence":15,"vertexType":"TRANSIT"},"legGeometry":{"points":"gllfHtmxpLiA}@g@|Bl@bDB~@C`@M^{@dCk@zAc@bAy@bAMNe@{@gA}BwAyC_AmBU\\g@p@a@pAMzAUpC??Gf@WbAW`AyEpQ??YdAv@t@VpA^dDNbA??v@tD`@jC@^TjE}Av@oA|Ao@hBITyAdAo@TEdAJnALfAf@vD\\~CClAWfBOt@kAvCyAtDOUo@_A","length":55},"rentedBike":false,"transitLeg":false,"duration":1774.0,"steps":[{"distance":47.095,"relativeDirection":"DEPART","streetName":"Rue de l'Intendant","absoluteDirection":"NORTHEAST","stayOn":false,"area":false,"bogusName":false,"lon":-71.0730625257081,"lat":48.40148152808941,"elevation":[]},{"distance":352.975,"relativeDirection":"LEFT","streetName":"Rue Saint-Urbain","absoluteDirection":"NORTHWEST","stayOn":false,"area":false,"bogusName":false,"lon":-71.0727509,"lat":48.4018511,"elevation":[]},{"distance":220.405,"relativeDirection":"RIGHT","streetName":"Rue Bégin","absoluteDirection":"NORTHEAST","stayOn":false,"area":false,"bogusName":false,"lon":-71.0767486,"lat":48.402957,"elevation":[]},{"distance":523.6,"relativeDirection":"LEFT","streetName":"Rue Ballantyne","absoluteDirection":"NORTHWEST","stayOn":false,"area":false,"bogusName":false,"lon":-71.07449910000001,"lat":48.4042602,"elevation":[]},{"distance":377.609,"relativeDirection":"LEFT","streetName":"Rue Jolliet","absoluteDirection":"SOUTHWEST","stayOn":false,"area":false,"bogusName":false,"lon":-71.08068800000001,"lat":48.406426800000006,"elevation":[]},{"distance":253.84,"relativeDirection":"RIGHT","streetName":"Rue Victor-Guimond","absoluteDirection":"NORTH","stayOn":false,"area":false,"bogusName":false,"lon":-71.08532290000001,"lat":48.405216,"elevation":[]},{"distance":462.09800000000007,"relativeDirection":"LEFT","streetName":"Rue Descartes","absoluteDirection":"WEST","stayOn":false,"area":false,"bogusName":false,"lon":-71.0871764,"lat":48.4070606,"elevation":[]},{"distance":47.28,"relativeDirection":"RIGHT","streetName":"Boulevard Saint-Paul","absoluteDirection":"NORTHEAST","stayOn":false,"area":false,"bogusName":false,"lon":-71.0928554,"lat":48.4076662,"elevation":[]}]},{"startTime":1522673760000,"endTime":1522674158000,"departureDelay":0,"arrivalDelay":0,"realTime":false,"distance":2815.5320315720487,"pathway":false,"mode":"BUS","route":"11","agencyName":"Société de Transport du Saguenay","agencyUrl":"http://ville.saguenay.ca/fr/services-aux-citoyens/transport-sts","agencyTimeZoneOffset":-14400000,"routeColor":"FF0000","routeType":3,"routeId":"1:11","routeTextColor":"FFFFFF","interlineWithPreviousLeg":false,"tripBlockId":"34","headsign":"Boul.Royaume/St-Pierre","agencyId":"0","tripId":"1:218211","serviceDate":"20180402","from":{"name":"boul. St-Paul / Descartes","stopId":"1:467","stopCode":"467","lon":-71.092615,"lat":48.408095,"arrival":1522673759000,"departure":1522673760000,"zoneId":"NA","stopIndex":14,"stopSequence":15,"vertexType":"TRANSIT"},"to":{"name":"Manic / Outardes","stopId":"1:474","stopCode":"474","lon":-71.113129,"lat":48.39895,"arrival":1522674158000,"departure":1522674159000,"zoneId":"NA","stopIndex":21,"stopSequence":22,"vertexType":"TRANSIT"},"legGeometry":{"points":"eumfHdg|pLX`@V`@eCtHpFjH{FhPcB|Ft@|CEAdCnEdHKrBz@lGiQ|CyI~IrJtAzAmKrWsE`LzJjL|P}d@Ri@hCpEpBdCHJzPrR_AhC}Ppd@","length":27},"routeShortName":"11","routeLongName":"Chic/Faubourg via St-Paul","rentedBike":false,"transitLeg":true,"duration":398.0,"steps":[]},{"startTime":1522674159000,"endTime":1522674206000,"departureDelay":0,"arrivalDelay":0,"realTime":false,"distance":58.946000000000005,"pathway":false,"mode":"WALK","route":"","agencyTimeZoneOffset":-14400000,"interlineWithPreviousLeg":false,"from":{"name":"Manic / Outardes","stopId":"1:474","stopCode":"474","lon":-71.113129,"lat":48.39895,"arrival":1522674158000,"departure":1522674159000,"zoneId":"NA","stopIndex":21,"stopSequence":22,"vertexType":"TRANSIT"},"to":{"name":"Destination","lon":-71.114215,"lat":48.39881,"arrival":1522674206000,"orig":"","vertexType":"NORMAL"},"legGeometry":{"points":"u|kfHth`qLJNhAjA","length":3},"rentedBike":false,"transitLeg":false,"duration":47.0,"steps":[{"distance":9.505,"relativeDirection":"DEPART","streetName":"Rue de la Manouane","absoluteDirection":"SOUTHWEST","stayOn":false,"area":false,"bogusName":false,"lon":-71.11322643182017,"lat":48.398999027375844,"elevation":[]},{"distance":49.441,"relativeDirection":"CONTINUE","streetName":"Rue des Outardes","absoluteDirection":"SOUTHWEST","stayOn":false,"area":false,"bogusName":false,"lon":-71.1133042,"lat":48.3989309,"elevation":[]}]}],"tooSloped":false}]},"debugOutput":{"precalculationTime":15,"pathCalculationTime":47,"pathTimes":[22,12,12],"renderingTime":0,"totalTime":62,"timedOut":false},"elevationMetadata":{"ellipsoidToGeoidDifference":-28.885904201182168,"geoidElevation":false}}