{"requestParameters":{"date":"2018/04/02","walkSpeed":"1.33","walkReluctance":"2.0","fromPlace":"48.401407,-71.072862","maxWalkDistance":"3000","waitReluctance":"1.0","carSpeed":"33","numItineraries":"3","waitAtBeginningFactor":"0.4","mode":"TRANSIT,WALK","ignoreRealtimeUpdates":"false","stairsReluctance":"2.0","toPlace":"48.415945,-71.064919","time":"8:0:00"},"plan":{"date":1522670400000,"from":{"name":"Origin","lon":-71.072862,"lat":48.401407,"orig":"","vertexType":"NORMAL"},"to":{"name":"Destination","lon":-71.064919,"lat":48.415945,"orig":"","vertexType":"NORMAL"},"itineraries":[{"duration":1242,"startTime":1522670429000,"endTime":1522671671000,"walkTime":432,"transitTime":608,"waitingTime":202,"walkDistance":546.2970601463729,"walkLimitExceeded":false,"elevationLost":0.0,"elevationGained":0.0,"transfers":1,"legs":[{"startTime":1522670429000,"endTime":1522670782000,"departureDelay":0,"arrivalDelay":0,"realTime":false,"distance":443.51400000000007,"pathway":false,"mode":"WALK","route":"","agencyTimeZoneOffset":-14400000,"interlineWithPreviousLeg":false,"from":{"name":"Origin","lon":-71.072862,"lat":48.401407,"departure":1522670429000,"orig":"","vertexType":"NORMAL"},"to":{"name":"Bégin / Château Richer","stopId":"1:1982","stopCode":"1982","lon":-71.076545,"lat":48.403266,"arrival":1522670782000,"departure":1522670783000,"zoneId":"NA","stopIndex":21,"stopSequence":22,"vertexType":"TRANSIT"},"legGeometry":{"points":"gllfHtmxpLiA}@g@|Bl@bDB~@C`@M^{@dCk@zAc@bAy@bAMNe@{@K^","length":14},"rentedBike":false,"transitLeg":false,"duration":353.0,"steps":[{"distance":47.095,"relativeDirection":"DEPART","streetName":"Rue de l'Intendant","absoluteDirection":"NORTHEAST","stayOn":false,"area":false,"bogusName":false,"lon":-71.0730625257081,"lat":48.40148152808941,"elevation":[]},{"distance":352.975,"relativeDirection":"LEFT","streetName":"Rue Saint-Urbain","absoluteDirection":"NORTHWEST","stayOn":false,"area":false,"bogusName":false,"lon":-71.0727509,"lat":48.4018511,"elevation":[]},{"distance":30.161,"relativeDirection":"RIGHT","streetName":"Rue Bégin","absoluteDirection":"NORTHEAST","stayOn":false,"area":false,"bogusName":false,"lon":-71.0767486,"lat":48.402957,"elevation":[]},{"distance":13.283,"relativeDirection":"LEFT","streetName":"Rue Château-Richer","absoluteDirection":"NORTHWEST","stayOn":false,"area":false,"bogusName":false,"lon":-71.0764477,"lat":48.403140500000006,"elevation":[]}]},{"startTime":1522670783000,"endTime":1522670920000,"departureDelay":0,"arrivalDelay":0,"realTime":false,"distance":1902.5650247158167,"pathway":false,"mode":"BUS","route":"14","agencyName":"Société de Transport du Saguenay","agencyUrl":"http://ville.saguenay.ca/fr/services-aux-citoyens/transport-sts","agencyTimeZoneOffset":-14400000,"routeColor":"C0C000","routeType":3,"routeId":"1:14","routeTextColor":"000000","interlineWithPreviousLeg":false,"tripBlockId":"30","headsign":"Talbot / Barrette","agencyId":"0","tripId":"1:218089","serviceDate":"20180402","from":{"name":"Bégin / Château Richer","stopId":"1:1982","stopCode":"1982","lon":-71.076545,"lat":48.403266,"arrival":1522670782000,"departure":1522670783000,"zoneId":"NA","stopIndex":21,"stopSequence":22,"vertexType":"TRANSIT"},"to":{"name":"Malraux / Pagnol","stopId":"1:1978","stopCode":"1978","lon":-71.093388,"lat":48.400416,"arrival":1522670920000,"departure":1522671120000,"zoneId":"NA","stopIndex":29,"stopSequence":30,"vertexType":"TRANSIT"},"legGeometry":{"points":"yvlfHtbypLBDvC`FtJ|LLNlClC|@^hCYVExCjCb@d@vE`F`BhB?pHaBhRqAbLK~@qBxFqB|FcC~GyC\\aDkD","length":22},"routeShortName":"14","routeLongName":"Coopérative","rentedBike":false,"transitLeg":true,"duration":137.0,"steps":[]},{"startTime":1522671120000,"endTime":1522671591000,"departureDelay":0,"arrivalDelay":0,"realTime":false,"distance":2865.033385449806,"pathway":false,"mode":"BUS","route":"205S","agencyName":"Société de Transport du Saguenay","agencyUrl":"http://ville.saguenay.ca/fr/services-aux-citoyens/transport-sts","agencyTimeZoneOffset":-14400000,"routeColor":"8B0000","routeType":3,"routeId":"1:205S","routeTextColor":"FFFFFF","interlineWithPreviousLeg":false,"tripBlockId":"49","headsign":"Séminaire","agencyId":"0","tripId":"1:218411","serviceDate":"20180402","from":{"name":"Malraux / Pagnol","stopId":"1:1978","stopCode":"1978","lon":-71.093388,"lat":48.400416,"arrival":1522670920000,"departure":1522671120000,"zoneId":"NA","stopIndex":14,"stopSequence":15,"vertexType":"TRANSIT"},"to":{"name":"Résidence Funéraire (Bégin)","stopId":"1:582","stopCode":"582","lon":-71.063981,"lat":48.416642,"arrival":1522671591000,"departure":1522671592000,"zoneId":"NA","stopIndex":19,"stopSequence":20,"vertexType":"TRANSIT"},"legGeometry":{"points":"yelfHdm|pLiFcGsBwB|BiGRm@Nq@lAoG@IAICIEGoPcLkDqBa@Qm@Oa@AGyBGoAa@oDo@qDS_Ba@kEG[MWg@_@IHULQAw@M_A_@IIKI[[YWaBy@aAu@o@m@KK]a@}A_CcD{C[[eCsBoBmB]q@WeBy@wMIUwB{D{AcDsEmKUCrDoKoByB}DcE}A_BoAmAk@o@aC_C","length":59},"routeShortName":"205S","routeLongName":"Séminaire - Bégin/Malraux","rentedBike":false,"transitLeg":true,"duration":471.0,"steps":[]},{"startTime":1522671592000,"endTime":1522671671000,"departureDelay":0,"arrivalDelay":0,"realTime":false,"distance":102.65899999999999,"pathway":false,"mode":"WALK","route":"","agencyTimeZoneOffset":-14400000,"interlineWithPreviousLeg":false,"from":{"name":"Résidence Funéraire (Bégin)","stopId":"1:582","stopCode":"582","lon":-71.063981,"lat":48.416642,"arrival":1522671591000,"departure":1522671592000,"zoneId":"NA","stopIndex":19,"stopSequence":20,"vertexType":"TRANSIT"},"to":{"name":"Destination","lon":-71.064919,"lat":48.415945,"arrival":1522671671000,"orig":"","vertexType":"NORMAL"},"legGeometry":{"points":"gkofHpuvpL\\X|A`BFDTT","length":5},"rentedBike":false,"transitLeg":false,"duration":79.0,"steps":[{"distance":102.65899999999999,"relativeDirection":"DEPART","streetName":"Rue Bégin","absoluteDirection":"SOUTHWEST","stayOn":false,"area":false,"bogusName":false,"lon":-71.0640821702576,"lat":48.416683565223295,"elevation":[]}]}],"tooSloped":false},{"duration":1281,"startTime":1522670723000,"endTime":1522672004000,"walkTime":1103,"transitTime":176,"waitingTime":2,"walkDistance":1431.9293233057113,"walkLimitExceeded":false,"elevationLost":0.0,"elevationGained":0.0,"transfers":0,"legs":[{"startTime":1522670723000,"endTime":1522671026000,"departureDelay":0,"arrivalDelay":0,"realTime":false,"distance":390.00300000000004,"pathway":false,"mode":"WALK","route":"","agencyTimeZoneOffset":-14400000,"interlineWithPreviousLeg":false,"from":{"name":"Origin","lon":-71.072862,"lat":48.401407,"departure":1522670723000,"orig":"","vertexType":"NORMAL"},"to":{"name":"Bégin / St-Urbain","stopId":"1:450","stopCode":"450","lon":-71.076619,"lat":48.402909,"arrival":1522671026000,"departure":1522671027000,"zoneId":"NA","stopIndex":3,"stopSequence":4,"vertexType":"TRANSIT"},"legGeometry":{"points":"gllfHtmxpLiA}@g@|Bl@bDB~@C`@M^{@dCk@zAc@bAy@bA","length":11},"rentedBike":false,"transitLeg":false,"duration":303.0,"steps":[{"distance":47.095,"relativeDirection":"DEPART","streetName":"Rue de l'Intendant","absoluteDirection":"NORTHEAST","stayOn":false,"area":false,"bogusName":false,"lon":-71.0730625257081,"lat":48.40148152808941,"elevation":[]},{"distance":342.908,"relativeDirection":"LEFT","streetName":"Rue Saint-Urbain","absoluteDirection":"NORTHWEST","stayOn":false,"area":false,"bogusName":false,"lon":-71.0727509,"lat":48.4018511,"elevation":[]}]},{"startTime":1522671027000,"endTime":1522671203000,"departureDelay":0,"arrivalDelay":0,"realTime":false,"distance":967.4793105590684,"pathway":false,"mode":"BUS","route":"204S","agencyName":"Société de Transport du Saguenay","agencyUrl":"http://ville.saguenay.ca/fr/services-aux-citoyens/transport-sts","agencyTimeZoneOffset":-14400000,"routeColor":"8B0000","routeType":3,"routeId":"1:204S","routeTextColor":"FFFFFF","interlineWithPreviousLeg":false,"tripBlockId":"103","headsign":"Séminaire","agencyId":"0","tripId":"1:218793","serviceDate":"20180402","from":{"name":"Bégin / St-Urbain","stopId":"1:450","stopCode":"450","lon":-71.076619,"lat":48.402909,"arrival":1522671026000,"departure":1522671027000,"zoneId":"NA","stopIndex":3,"stopSequence":4,"vertexType":"TRANSIT"},"to":{"name":"Bégin (no. 1273)","stopId":"1:1597","stopCode":"1597","lon":-71.069519,"lat":48.407442,"arrival":1522671203000,"departure":1522671204000,"zoneId":"NA","stopIndex":7,"stopSequence":8,"vertexType":"TRANSIT"},"legGeometry":{"points":"}tlfHhdypLORc@s@iD{GkA{BAEGQGSG[Ee@Ag@@_@F{@T_AL_@Li@?ELs@fAPdA[Rk@?WVSJUJUIc@SQ]EEa@a@gAc@s@i@w@S[uAqAk@hBSbBICOEi@Ei@?eCEUAUCi@Qo@_@uCcC","length":46},"routeShortName":"204S","routeLongName":"Séminaire - Domaine du Royaume","rentedBike":false,"transitLeg":true,"duration":176.0,"steps":[]},{"startTime":1522671204000,"endTime":1522672004000,"departureDelay":0,"arrivalDelay":0,"realTime":false,"distance":1041.847,"pathway":false,"mode":"WALK","route":"","agencyTimeZoneOffset":-14400000,"interlineWithPreviousLeg":false,"from":{"name":"Bégin (no. 1273)","stopId":"1:1597","stopCode":"1597","lon":-71.069519,"lat":48.407442,"arrival":1522671203000,"departure":1522671204000,"zoneId":"NA","stopIndex":7,"stopSequence":8,"vertexType":"TRANSIT"},"to":{"name":"Destination","lon":-71.064919,"lat":48.415945,"arrival":1522672004000,"orig":"","vertexType":"NORMAL"},"legGeometry":{"points":"qqmfHxwwpLcDiCSO]CGAo@HqBFi@?uBJi@?SAa@UkA{@A?m@e@w@Yw@E{CGK?MUs@m@{@u@UI_BwBsCqCw@w@CCGGsCqCMOYW","length":31},"rentedBike":false,"transitLeg":false,"duration":800.0,"steps":[{"distance":607.917,"relativeDirection":"DEPART","streetName":"Rue Bégin","absoluteDirection":"NORTHEAST","stayOn":false,"area":false,"bogusName":false,"lon":-71.06956656949733,"lat":48.40745977504378,"elevation":[]},{"distance":433.93000000000006,"relativeDirection":"RIGHT","streetName":"Rue Bégin","absoluteDirection":"NORTHEAST","stayOn":true,"area":false,"bogusName":false,"lon":-71.0681022,"lat":48.4126786,"elevation":[]}]}],"tooSloped":false},{"duration":920,"startTime":1522671222000,"endTime":1522672142000,"walkTime":677,"transitTime":241,"waitingTime":2,"walkDistance":864.751233078085,"walkLimitExceeded":false,"elevationLost":0.0,"elevationGained":0.0,"transfers":0,"legs":[{"startTime":1522671222000,"endTime":1522671820000,"departureDelay":0,"arrivalDelay":0,"realTime":false,"distance":761.9490000000001,"pathway":false,"mode":"WALK","route":"","agencyTimeZoneOffset":-14400000,"interlineWithPreviousLeg":false,"from":{"name":"Origin","lon":-71.072862,"lat":48.401407,"departure":1522671222000,"orig":"","vertexType":"NORMAL"},"to":{"name":"Angoulême / Bégin","stopId":"1:53","stopCode":"53","lon":-71.073604,"lat":48.405143,"arrival":1522671820000,"departure":1522671821000,"zoneId":"NA","stopIndex":18,"stopSequence":19,"vertexType":"TRANSIT"},"legGeometry":{"points":"gllfHtmxpLiA}@g@|Bl@bDB~@C`@M^{@dCk@zAc@bAy@bAMNe@{@gA}BwAyC_AmBIUYs@CqAyBB@W","length":21},"rentedBike":false,"transitLeg":false,"duration":598.0,"steps":[{"distance":47.095,"relativeDirection":"DEPART","streetName":"Rue de l'Intendant","absoluteDirection":"NORTHEAST","stayOn":false,"area":false,"bogusName":false,"lon":-71.0730625257081,"lat":48.40148152808941,"elevation":[]},{"distance":352.975,"relativeDirection":"LEFT","streetName":"Rue Saint-Urbain","absoluteDirection":"NORTHWEST","stayOn":false,"area":false,"bogusName":false,"lon":-71.0727509,"lat":48.4018511,"elevation":[]},{"distance":285.025,"relativeDirection":"RIGHT","streetName":"Rue Bégin","absoluteDirection":"NORTHEAST","stayOn":false,"area":false,"bogusName":false,"lon":-71.0767486,"lat":48.402957,"elevation":[]},{"distance":67.789,"relativeDirection":"LEFT","streetName":"Rue d'Angoulème","absoluteDirection":"NORTH","stayOn":false,"area":false,"bogusName":false,"lon":-71.0737143,"lat":48.404464100000006,"elevation":[]},{"distance":9.065,"relativeDirection":"RIGHT","streetName":"Rue R. E. Joron","absoluteDirection":"EAST","stayOn":false,"area":false,"bogusName":false,"lon":-71.073734,"lat":48.4050736,"elevation":[]}]},{"startTime":1522671821000,"endTime":1522672062000,"departureDelay":0,"arrivalDelay":0,"realTime":false,"distance":1511.2581452911643,"pathway":false,"mode":"BUS","route":"15","agencyName":"Société de Transport du Saguenay","agencyUrl":"http://ville.saguenay.ca/fr/services-aux-citoyens/transport-sts","agencyTimeZoneOffset":-14400000,"routeColor":"FF00FF","routeType":3,"routeId":"1:15","routeTextColor":"FFFFFF","interlineWithPreviousLeg":false,"tripBlockId":"30","headsign":"Terminus Chicoutimi","agencyId":"0","tripId":"1:218090","serviceDate":"20180402","from":{"name":"Angoulême / Bégin","stopId":"1:53","stopCode":"53","lon":-71.073604,"lat":48.405143,"arrival":1522671820000,"departure":1522671821000,"zoneId":"NA","stopIndex":18,"stopSequence":19,"vertexType":"TRANSIT"},"to":{"name":"Résidence Funéraire (Bégin)","stopId":"1:582","stopCode":"582","lon":-71.063981,"lat":48.416642,"arrival":1522672062000,"departure":1522672063000,"zoneId":"NA","stopIndex":26,"stopSequence":27,"vertexType":"TRANSIT"},"legGeometry":{"points":"acmfH`rxpLw@FiG}@iDwAECcCcBo@y@sEeGe@o@qAa@m@MoB?C@}BZwAc@oA_Bs@gDCKZ{Di@QECc@_@sAkAoBwB_EcE{A_BoAmAk@o@cCaC","length":29},"routeShortName":"15","routeLongName":"Term. Chic / Costco","rentedBike":false,"transitLeg":true,"duration":241.0,"steps":[]},{"startTime":1522672063000,"endTime":1522672142000,"departureDelay":0,"arrivalDelay":0,"realTime":false,"distance":102.65899999999999,"pathway":false,"mode":"WALK","route":"","agencyTimeZoneOffset":-14400000,"interlineWithPreviousLeg":false,"from":{"name":"Résidence Funéraire (Bégin)","stopId":"1:582","stopCode":"582","lon":-71.063981,"lat":48.416642,"arrival":1522672062000,"departure":1522672063000,"zoneId":"NA","stopIndex":26,"stopSequence":27,"vertexType":"TRANSIT"},"to":{"name":"Destination","lon":-71.064919,"lat":48.415945,"arrival":1522672142000,"orig":"","vertexType":"NORMAL"},"legGeometry":{"points":"gkofHpuvpL\\X|A`BFDTT","length":5},"rentedBike":false,"transitLeg":false,"duration":79.0,"steps":[{"distance":102.65899999999999,"relativeDirection":"DEPART","streetName":"Rue Bégin","absoluteDirection":"SOUTHWEST","stayOn":false,"area":false,"bogusName":false,"lon":-71.0640821702576,"lat":48.416683565223295,"elevation":[]}]}],"tooSloped":false}]},"debugOutput":{"precalculationTime":53,"pathCalculationTime":28,"pathTimes":[13,11,4],"renderingTime":0,"totalTime":81,"timedOut":false},"elevationMetadata":{"ellipsoidToGeoidDifference":-28.885904201182168,"geoidElevation":false}}