{"requestParameters":{"date":"2018/04/02","walkSpeed":"1.33","walkReluctance":"2.0","fromPlace":"48.398436,-71.068128","maxWalkDistance":"3000","waitReluctance":"1.0","carSpeed":"33","numItineraries":"3","waitAtBeginningFactor":"0.4","mode":"TRANSIT,WALK","ignoreRealtimeUpdates":"false","stairsReluctance":"2.0","toPlace":"48.393297,-71.050177","time":"10:0:00"},"plan":{"date":1522677600000,"from":{"name":"Origin","lon":-71.068128,"lat":48.398436,"orig":"","vertexType":"NORMAL"},"to":{"name":"Destination","lon":-71.050177,"lat":48.393297,"orig":"","vertexType":"NORMAL"},"itineraries":[{"duration":1014,"startTime":1522678984000,"endTime":1522679998000,"walkTime":712,"transitTime":300,"waitingTime":2,"walkDistance":929.3193533821243,"walkLimitExceeded":false,"elevationLost":0.0,"elevationGained":0.0,"transfers":0,"legs":[{"startTime":1522678984000,"endTime":1522679693000,"departureDelay":0,"arrivalDelay":0,"realTime":false,"distance":925.8100000000001,"pathway":false,"mode":"WALK","route":"","agencyTimeZoneOffset":-14400000,"interlineWithPreviousLeg":false,"from":{"name":"Origin","lon":-71.068128,"lat":48.398436,"departure":1522678984000,"orig":"","vertexType":"NORMAL"},"to":{"name":"Saguenéens / Maristes","stopId":"1:1999","stopCode":"1999","lon":-71.06394,"lat":48.405813,"arrival":1522679693000,"departure":1522679694000,"zoneId":"NA","stopIndex":21,"stopSequence":22,"vertexType":"TRANSIT"},"legGeometry":{"points":"yykfHxowpL}AiCk@cA{@c@u@AgFn@_BS}CiCgGgFs@[CCaBu@}BaAGEOIiAaDcA~@","length":17},"rentedBike":false,"transitLeg":false,"duration":709.0,"steps":[{"distance":881.538,"relativeDirection":"DEPART","streetName":"Rue Des Maristes","absoluteDirection":"NORTHEAST","stayOn":false,"area":false,"bogusName":false,"lon":-71.0682823222413,"lat":48.398537457999836,"elevation":[]},{"distance":44.272,"relativeDirection":"LEFT","streetName":"Rue des Saguenéens","absoluteDirection":"NORTHWEST","stayOn":false,"area":false,"bogusName":false,"lon":-71.0637066,"lat":48.4054395,"elevation":[]}]},{"startTime":1522679694000,"endTime":1522679994000,"departureDelay":0,"arrivalDelay":0,"realTime":false,"distance":2337.046179101236,"pathway":false,"mode":"BUS","route":"15","agencyName":"Société de Transport du Saguenay","agencyUrl":"http://ville.saguenay.ca/fr/services-aux-citoyens/transport-sts","agencyTimeZoneOffset":-14400000,"routeColor":"FF00FF","routeType":3,"routeId":"1:15","routeTextColor":"FFFFFF","interlineWithPreviousLeg":false,"tripBlockId":"33","headsign":"Talbot / Barrette","agencyId":"0","tripId":"1:218179","serviceDate":"20180402","from":{"name":"Saguenéens / Maristes","stopId":"1:1999","stopCode":"1999","lon":-71.06394,"lat":48.405813,"arrival":1522679693000,"departure":1522679694000,"zoneId":"NA","stopIndex":21,"stopSequence":22,"vertexType":"TRANSIT"},"to":{"name":"Résidence Villa du Saguenay (Roitelets)","stopId":"1:1546","stopCode":"1546","lon":-71.050627,"lat":48.393589,"arrival":1522679994000,"departure":1522679995000,"zoneId":"NA","stopIndex":30,"stopSequence":31,"vertexType":"TRANSIT"},"legGeometry":{"points":"{emfHpvvpLtDsH~DeItC{FnBoLbCaO?qLa@uJzF`ApF~@~@PzAgEeDcBf@qAWcKUqEx@Ef@ExDVjDxAFBrBvAfGjG@BjCzC~DxC","length":26},"routeShortName":"15","routeLongName":"Term. Chic / Costco","rentedBike":false,"transitLeg":true,"duration":300.0,"steps":[]},{"startTime":1522679995000,"endTime":1522679998000,"departureDelay":0,"arrivalDelay":0,"realTime":false,"distance":3.468,"pathway":false,"mode":"WALK","route":"","agencyTimeZoneOffset":-14400000,"interlineWithPreviousLeg":false,"from":{"name":"Résidence Villa du Saguenay (Roitelets)","stopId":"1:1546","stopCode":"1546","lon":-71.050627,"lat":48.393589,"arrival":1522679994000,"departure":1522679995000,"zoneId":"NA","stopIndex":30,"stopSequence":31,"vertexType":"TRANSIT"},"to":{"name":"Destination","lon":-71.050177,"lat":48.393297,"arrival":1522679998000,"orig":"","vertexType":"NORMAL"},"legGeometry":{"points":"e{jfH|atpLBD","length":2},"rentedBike":false,"transitLeg":false,"duration":3.0,"steps":[{"distance":3.468,"relativeDirection":"DEPART","streetName":"bike path","absoluteDirection":"SOUTHWEST","stayOn":false,"area":false,"bogusName":false,"lon":-71.05070830576834,"lat":48.39363439480543,"elevation":[]}]}],"tooSloped":false},{"duration":1591,"startTime":1522678674000,"endTime":1522680265000,"walkTime":1088,"transitTime":501,"waitingTime":2,"walkDistance":1406.669263151272,"walkLimitExceeded":false,"elevationLost":0.0,"elevationGained":0.0,"transfers":0,"legs":[{"startTime":1522678674000,"endTime":1522679759000,"departureDelay":0,"arrivalDelay":0,"realTime":false,"distance":1402.996,"pathway":false,"mode":"WALK","route":"","agencyTimeZoneOffset":-14400000,"interlineWithPreviousLeg":false,"from":{"name":"Origin","lon":-71.068128,"lat":48.398436,"departure":1522678674000,"orig":"","vertexType":"NORMAL"},"to":{"name":"Ballantyne / Garon","stopId":"1:539","stopCode":"539","lon":-71.076506,"lat":48.404894,"arrival":1522679759000,"departure":1522679760000,"zoneId":"NA","stopIndex":20,"stopSequence":21,"vertexType":"TRANSIT"},"legGeometry":{"points":"yykfHxowpL}AiCk@cA{@c@u@AgFn@_BS}CiCmA`DYr@kB`Fc@hAkB~EX`@t@jA`@hAB\\Fr@BjA?RUl@aA\\gAQ_A`F@v@BpAXr@HTU\\g@p@a@pAMzAUpC","length":33},"rentedBike":false,"transitLeg":false,"duration":1085.0,"steps":[{"distance":458.367,"relativeDirection":"DEPART","streetName":"Rue Des Maristes","absoluteDirection":"NORTHEAST","stayOn":false,"area":false,"bogusName":false,"lon":-71.0682823222413,"lat":48.398537457999836,"elevation":[]},{"distance":337.264,"relativeDirection":"LEFT","streetName":"Rue Saint-Siméon","absoluteDirection":"NORTHWEST","stayOn":false,"area":false,"bogusName":false,"lon":-71.066518,"lat":48.4022202,"elevation":[]},{"distance":259.696,"relativeDirection":"LEFT","streetName":"Rue Des Éboulements","absoluteDirection":"SOUTHWEST","stayOn":false,"area":false,"bogusName":false,"lon":-71.0702093,"lat":48.404007400000005,"elevation":[]},{"distance":176.20199999999997,"relativeDirection":"LEFT","streetName":"Rue Bégin","absoluteDirection":"NORTHWEST","stayOn":false,"area":false,"bogusName":false,"lon":-71.0723037,"lat":48.4041535,"elevation":[]},{"distance":171.46699999999998,"relativeDirection":"RIGHT","streetName":"Rue Ballantyne","absoluteDirection":"NORTHWEST","stayOn":false,"area":false,"bogusName":false,"lon":-71.07449910000001,"lat":48.4042602,"elevation":[]}]},{"startTime":1522679760000,"endTime":1522680060000,"departureDelay":0,"arrivalDelay":0,"realTime":false,"distance":4054.0750637910855,"pathway":false,"mode":"BUS","route":"14","agencyName":"Société de Transport du Saguenay","agencyUrl":"http://ville.saguenay.ca/fr/services-aux-citoyens/transport-sts","agencyTimeZoneOffset":-14400000,"routeColor":"C0C000","routeType":3,"routeId":"1:14","routeTextColor":"000000","interlineWithPreviousLeg":false,"tripBlockId":"32","headsign":"Talbot / Barrette","agencyId":"0","tripId":"1:218154","serviceDate":"20180402","from":{"name":"Ballantyne / Garon","stopId":"1:539","stopCode":"539","lon":-71.076506,"lat":48.404894,"arrival":1522679759000,"departure":1522679760000,"zoneId":"NA","stopIndex":20,"stopSequence":21,"vertexType":"TRANSIT"},"to":{"name":"Roitelets / Sapins","stopId":"1:1543","stopCode":"1543","lon":-71.069553,"lat":48.393375,"arrival":1522680060000,"departure":1522680060000,"zoneId":"NA","stopIndex":35,"stopSequence":36,"vertexType":"TRANSIT"},"legGeometry":{"points":"{amfHbcypLb@gFd@_B`A}@tEvJBDvC`FtJ|LLNlClC|@^hCYVExCjCb@d@vE`F`BhB?pHaBhRqAbLK~@qBxFqB|FcC~GyC\\aDkDcFsF~CgOtGm[j@oCvEoSl@_CxCmLjAeFpCeKrByHfAqCvH_SLa@","length":39},"routeShortName":"14","routeLongName":"Coopérative","rentedBike":false,"transitLeg":true,"duration":300.0,"steps":[]},{"startTime":1522680060000,"endTime":1522680261000,"departureDelay":0,"arrivalDelay":0,"realTime":false,"distance":1417.6790644138782,"pathway":false,"mode":"BUS","route":"15","agencyName":"Société de Transport du Saguenay","agencyUrl":"http://ville.saguenay.ca/fr/services-aux-citoyens/transport-sts","agencyTimeZoneOffset":-14400000,"routeColor":"FF00FF","routeType":3,"routeId":"1:15","routeTextColor":"FFFFFF","interlineWithPreviousLeg":true,"tripBlockId":"32","headsign":"Terminus Chicoutimi","agencyId":"0","tripId":"1:218155","serviceDate":"20180402","from":{"name":"Roitelets / Sapins","stopId":"1:1543","stopCode":"1543","lon":-71.069553,"lat":48.393375,"arrival":1522680060000,"departure":1522680060000,"zoneId":"NA","stopIndex":0,"stopSequence":1,"vertexType":"TRANSIT"},"to":{"name":"Résidence Villa du Saguenay (Roitelets)","stopId":"1:1546","stopCode":"1546","lon":-71.050627,"lat":48.393589,"arrival":1522680261000,"departure":1522680262000,"zoneId":"NA","stopIndex":5,"stopSequence":6,"vertexType":"TRANSIT"},"legGeometry":{"points":"_zjfHfwwpLx@}BHa@NaADq@@y@Cy@I{@Ka@O[Sg@c@mAWwAMyA?EC]?wABuABmFB{@BmDFuH@i@F[FsC@c@TuGEGVsHPuDLuBXsFDoA?W@]Cu@GcAKu@Q_ASo@a@y@a@o@MO","length":43},"routeShortName":"15","routeLongName":"Term. Chic / Costco","rentedBike":false,"transitLeg":true,"duration":201.0,"steps":[]},{"startTime":1522680262000,"endTime":1522680265000,"departureDelay":0,"arrivalDelay":0,"realTime":false,"distance":3.468,"pathway":false,"mode":"WALK","route":"","agencyTimeZoneOffset":-14400000,"interlineWithPreviousLeg":false,"from":{"name":"Résidence Villa du Saguenay (Roitelets)","stopId":"1:1546","stopCode":"1546","lon":-71.050627,"lat":48.393589,"arrival":1522680261000,"departure":1522680262000,"zoneId":"NA","stopIndex":5,"stopSequence":6,"vertexType":"TRANSIT"},"to":{"name":"Destination","lon":-71.050177,"lat":48.393297,"arrival":1522680265000,"orig":"","vertexType":"NORMAL"},"legGeometry":{"points":"e{jfH|atpLBD","length":2},"rentedBike":false,"transitLeg":false,"duration":3.0,"steps":[{"distance":3.468,"relativeDirection":"DEPART","streetName":"bike path","absoluteDirection":"SOUTHWEST","stayOn":false,"area":false,"bogusName":false,"lon":-71.05070830576834,"lat":48.39363439480543,"elevation":[]}]}],"tooSloped":false},{"duration":1014,"startTime":1522680784000,"endTime":1522681798000,"walkTime":712,"transitTime":300,"waitingTime":2,"walkDistance":929.3193533821243,"walkLimitExceeded":false,"elevationLost":0.0,"elevationGained":0.0,"transfers":0,"legs":[{"startTime":1522680784000,"endTime":1522681493000,"departureDelay":0,"arrivalDelay":0,"realTime":false,"distance":925.8100000000001,"pathway":false,"mode":"WALK","route":"","agencyTimeZoneOffset":-14400000,"interlineWithPreviousLeg":false,"from":{"name":"Origin","lon":-71.068128,"lat":48.398436,"departure":1522680784000,"orig":"","vertexType":"NORMAL"},"to":{"name":"Saguenéens / Maristes","stopId":"1:1999","stopCode":"1999","lon":-71.06394,"lat":48.405813,"arrival":1522681493000,"departure":1522681494000,"zoneId":"NA","stopIndex":21,"stopSequence":22,"vertexType":"TRANSIT"},"legGeometry":{"points":"yykfHxowpL}AiCk@cA{@c@u@AgFn@_BS}CiCgGgFs@[CCaBu@}BaAGEOIiAaDcA~@","length":17},"rentedBike":false,"transitLeg":false,"duration":709.0,"steps":[{"distance":881.538,"relativeDirection":"DEPART","streetName":"Rue Des Maristes","absoluteDirection":"NORTHEAST","stayOn":false,"area":false,"bogusName":false,"lon":-71.0682823222413,"lat":48.398537457999836,"elevation":[]},{"distance":44.272,"relativeDirection":"LEFT","streetName":"Rue des Saguenéens","absoluteDirection":"NORTHWEST","stayOn":false,"area":false,"bogusName":false,"lon":-71.0637066,"lat":48.4054395,"elevation":[]}]},{"startTime":1522681494000,"endTime":1522681794000,"departureDelay":0,"arrivalDelay":0,"realTime":false,"distance":2337.046179101236,"pathway":false,"mode":"BUS","route":"15","agencyName":"Société de Transport du Saguenay","agencyUrl":"http://ville.saguenay.ca/fr/services-aux-citoyens/transport-sts","agencyTimeZoneOffset":-14400000,"routeColor":"FF00FF","routeType":3,"routeId":"1:15","routeTextColor":"FFFFFF","interlineWithPreviousLeg":false,"tripBlockId":"31","headsign":"Talbot / Barrette","agencyId":"0","tripId":"1:218130","serviceDate":"20180402","from":{"name":"Saguenéens / Maristes","stopId":"1:1999","stopCode":"1999","lon":-71.06394,"lat":48.405813,"arrival":1522681493000,"departure":1522681494000,"zoneId":"NA","stopIndex":21,"stopSequence":22,"vertexType":"TRANSIT"},"to":{"name":"Résidence Villa du Saguenay (Roitelets)","stopId":"1:1546","stopCode":"1546","lon":-71.050627,"lat":48.393589,"arrival":1522681794000,"departure":1522681795000,"zoneId":"NA","stopIndex":30,"stopSequence":31,"vertexType":"TRANSIT"},"legGeometry":{"points":"{emfHpvvpLtDsH~DeItC{FnBoLbCaO?qLa@uJzF`ApF~@~@PzAgEeDcBf@qAWcKUqEx@Ef@ExDVjDxAFBrBvAfGjG@BjCzC~DxC","length":26},"routeShortName":"15","routeLongName":"Term. Chic / Costco","rentedBike":false,"transitLeg":true,"duration":300.0,"steps":[]},{"startTime":1522681795000,"endTime":1522681798000,"departureDelay":0,"arrivalDelay":0,"realTime":false,"distance":3.468,"pathway":false,"mode":"WALK","route":"","agencyTimeZoneOffset":-14400000,"interlineWithPreviousLeg":false,"from":{"name":"Résidence Villa du Saguenay (Roitelets)","stopId":"1:1546","stopCode":"1546","lon":-71.050627,"lat":48.393589,"arrival":1522681794000,"departure":1522681795000,"zoneId":"NA","stopIndex":30,"stopSequence":31,"vertexType":"TRANSIT"},"to":{"name":"Destination","lon":-71.050177,"lat":48.393297,"arrival":1522681798000,"orig":"","vertexType":"NORMAL"},"legGeometry":{"points":"e{jfH|atpLBD","length":2},"rentedBike":false,"transitLeg":false,"duration":3.0,"steps":[{"distance":3.468,"relativeDirection":"DEPART","streetName":"bike path","absoluteDirection":"SOUTHWEST","stayOn":false,"area":false,"bogusName":false,"lon":-71.05070830576834,"lat":48.39363439480543,"elevation":[]}]}],"tooSloped":false}]},"debugOutput":{"precalculationTime":25,"pathCalculationTime":36,"pathTimes":[18,9,9],"renderingTime":0,"totalTime":61,"timedOut":false},"elevationMetadata":{"ellipsoidToGeoidDifference":-28.885904201182168,"geoidElevation":false}}