{"requestParameters":{"date":"2018/04/02","walkSpeed":"1.33","walkReluctance":"2.0","fromPlace":"48.402548,-71.069825","maxWalkDistance":"3000","waitReluctance":"1.0","carSpeed":"33","numItineraries":"3","waitAtBeginningFactor":"0.4","mode":"TRANSIT,WALK","ignoreRealtimeUpdates":"false","stairsReluctance":"2.0","toPlace":"48.442018,-71.082997","time":"13:0:00"},"plan":{"date":1522688400000,"from":{"name":"Origin","lon":-71.069825,"lat":48.402548,"orig":"","vertexType":"NORMAL"},"to":{"name":"Destination","lon":-71.082997,"lat":48.442018,"orig":"","vertexType":"NORMAL"},"itineraries":[{"duration":2500,"startTime":1522689261000,"endTime":1522691761000,"walkTime":784,"transitTime":1294,"waitingTime":422,"walkDistance":985.4220150277199,"walkLimitExceeded":false,"elevationLost":0.0,"elevationGained":0.0,"transfers":1,"legs":[{"startTime":1522689261000,"endTime":1522689820000,"departureDelay":0,"arrivalDelay":0,"realTime":false,"distance":700.8349999999999,"pathway":false,"mode":"WALK","route":"","agencyTimeZoneOffset":-14400000,"interlineWithPreviousLeg":false,"from":{"name":"Origin","lon":-71.069825,"lat":48.402548,"departure":1522689261000,"orig":"","vertexType":"NORMAL"},"to":{"name":"Angoulême / Bégin","stopId":"1:53","stopCode":"53","lon":-71.073604,"lat":48.405143,"arrival":1522689820000,"departure":1522689821000,"zoneId":"NA","stopIndex":18,"stopSequence":19,"vertexType":"TRANSIT"},"legGeometry":{"points":"eslfHpywpLC[CG[s@o@yAu@o@c@hAkB~EX`@t@jA`@hAB\\Fr@BjA?RUl@aA\\gAQ_A`F@v@yBB@W","length":22},"rentedBike":false,"transitLeg":false,"duration":559.0,"steps":[{"distance":115.90899999999999,"relativeDirection":"DEPART","streetName":"Rue de Clermont","absoluteDirection":"EAST","stayOn":false,"area":false,"bogusName":false,"lon":-71.06984230140095,"lat":48.40259783912991,"elevation":[]},{"distance":136.794,"relativeDirection":"LEFT","streetName":"Rue Saint-Siméon","absoluteDirection":"NORTHWEST","stayOn":false,"area":false,"bogusName":false,"lon":-71.06871310000001,"lat":48.4032816,"elevation":[]},{"distance":259.696,"relativeDirection":"LEFT","streetName":"Rue Des Éboulements","absoluteDirection":"SOUTHWEST","stayOn":false,"area":false,"bogusName":false,"lon":-71.0702093,"lat":48.404007400000005,"elevation":[]},{"distance":111.582,"relativeDirection":"LEFT","streetName":"Rue Bégin","absoluteDirection":"NORTHWEST","stayOn":false,"area":false,"bogusName":false,"lon":-71.0723037,"lat":48.4041535,"elevation":[]},{"distance":67.789,"relativeDirection":"RIGHT","streetName":"Rue d'Angoulème","absoluteDirection":"NORTH","stayOn":false,"area":false,"bogusName":false,"lon":-71.0737143,"lat":48.404464100000006,"elevation":[]},{"distance":9.065,"relativeDirection":"RIGHT","streetName":"Rue R. E. Joron","absoluteDirection":"EAST","stayOn":false,"area":false,"bogusName":false,"lon":-71.073734,"lat":48.4050736,"elevation":[]}]},{"startTime":1522689821000,"endTime":1522690680000,"departureDelay":0,"arrivalDelay":0,"realTime":false,"distance":4464.524105661683,"pathway":false,"mode":"BUS","route":"15","agencyName":"Société de Transport du Saguenay","agencyUrl":"http://ville.saguenay.ca/fr/services-aux-citoyens/transport-sts","agencyTimeZoneOffset":-14400000,"routeColor":"FF00FF","routeType":3,"routeId":"1:15","routeTextColor":"FFFFFF","interlineWithPreviousLeg":false,"tripBlockId":"30","headsign":"Terminus Chicoutimi","agencyId":"0","tripId":"1:218100","serviceDate":"20180402","from":{"name":"Angoulême / Bégin","stopId":"1:53","stopCode":"53","lon":-71.073604,"lat":48.405143,"arrival":1522689820000,"departure":1522689821000,"zoneId":"NA","stopIndex":18,"stopSequence":19,"vertexType":"TRANSIT"},"to":{"name":"Terminus Chicoutimi","stopId":"1:1289","stopCode":"1289","lon":-71.066163,"lat":48.428677,"arrival":1522690680000,"departure":1522691100000,"zoneId":"NA","stopIndex":39,"stopSequence":40,"vertexType":"TRANSIT"},"legGeometry":{"points":"acmfH`rxpLw@FiG}@iDwAECcCcBo@y@sEeGe@o@qAa@m@MoB?C@}BZwAc@oA_Bs@gDCKZ{Di@QECc@_@sAkAoBwB_EcE{A_BoAmAk@o@cCaCkIkIaJaJUUwBaCj@wCjAsCzGoG_CoHL{D_@kAqD{CQr@iAcAy@w@L{@wAuA_B_B_EpLDh@NbBVvCIxBg@`Am@l@Sb@a@rAqDqDmEkE]a@kAqAU|@WnKG|DGxDOdPKvJU|F?XQlJC~@ChAIzEcCOaIi@VwL","length":74},"routeShortName":"15","routeLongName":"Term. Chic / Costco","rentedBike":false,"transitLeg":true,"duration":859.0,"steps":[]},{"startTime":1522691100000,"endTime":1522691535000,"departureDelay":0,"arrivalDelay":0,"realTime":false,"distance":2564.7507384376695,"pathway":false,"mode":"BUS","route":"20","agencyName":"Société de Transport du Saguenay","agencyUrl":"http://ville.saguenay.ca/fr/services-aux-citoyens/transport-sts","agencyTimeZoneOffset":-14400000,"routeColor":"0000FF","routeType":3,"routeId":"1:20","routeTextColor":"FFFFFF","interlineWithPreviousLeg":false,"tripBlockId":"3","headsign":"Terminus Chicoutimi","agencyId":"0","tripId":"1:217201","serviceDate":"20180402","from":{"name":"Terminus Chicoutimi","stopId":"1:1289","stopCode":"1289","lon":-71.066163,"lat":48.428677,"arrival":1522690680000,"departure":1522691100000,"zoneId":"NA","stopIndex":0,"stopSequence":1,"vertexType":"TRANSIT"},"to":{"name":"St-Albert / Roussel","stopId":"1:680","stopCode":"680","lon":-71.079859,"lat":48.441152,"arrival":1522691535000,"departure":1522691536000,"zoneId":"NA","stopIndex":5,"stopSequence":6,"vertexType":"TRANSIT"},"legGeometry":{"points":"evqfHzcwpLg@?UhKwAIWACp@O\\WjGOfGCRK^KJMHQB_AMg@Gw`@eR}@g@u@Su@Ia@Ck@Dm@HwAf@c@VeAx@iAlAU^[d@eLtTsAvBg@bAPVd@t@PNNF@@P?TI`@YLITGV?NBTFRNNP`@OLCHGHIFMDSR{ARaBbDdAb@H`Fd@EbAE`AIdBK`AOdAMd@EJKR}B~Bw@`Bs@dB]bAWb@q@jAaB|BkA~A}@nAu@I","length":76},"routeShortName":"20","routeLongName":"Sainte-Claire","rentedBike":false,"transitLeg":true,"duration":435.0,"steps":[]},{"startTime":1522691536000,"endTime":1522691761000,"departureDelay":0,"arrivalDelay":0,"realTime":false,"distance":284.281,"pathway":false,"mode":"WALK","route":"","agencyTimeZoneOffset":-14400000,"interlineWithPreviousLeg":false,"from":{"name":"St-Albert / Roussel","stopId":"1:680","stopCode":"680","lon":-71.079859,"lat":48.441152,"arrival":1522691535000,"departure":1522691536000,"zoneId":"NA","stopIndex":5,"stopSequence":6,"vertexType":"TRANSIT"},"to":{"name":"Destination","lon":-71.082997,"lat":48.442018,"arrival":1522691761000,"orig":"","vertexType":"NORMAL"},"legGeometry":{"points":"gdtfHzxypL?@D?h@LMPOVMTOn@CJCPAF?nAAjA?L?L?PANALCLALCJIZCLYrA[tA","length":25},"rentedBike":false,"transitLeg":false,"duration":225.0,"steps":[{"distance":26.952,"relativeDirection":"DEPART","streetName":"Rue Saint-Albert","absoluteDirection":"SOUTH","stayOn":false,"area":false,"bogusName":false,"lon":-71.0799793301524,"lat":48.441165372596494,"elevation":[]},{"distance":257.329,"relativeDirection":"HARD_RIGHT","streetName":"Rue Roussel","absoluteDirection":"NORTHWEST","stayOn":false,"area":false,"bogusName":false,"lon":-71.0800502,"lat":48.4409276,"elevation":[]}]}],"tooSloped":false},{"duration":3175,"startTime":1522688831000,"endTime":1522692006000,"walkTime":1174,"transitTime":1579,"waitingTime":422,"walkDistance":1494.1026842000817,"walkLimitExceeded":false,"elevationLost":0.0,"elevationGained":0.0,"transfers":1,"legs":[{"startTime":1522688831000,"endTime":1522689419000,"departureDelay":0,"arrivalDelay":0,"realTime":false,"distance":742.1649999999998,"pathway":false,"mode":"WALK","route":"","agencyTimeZoneOffset":-14400000,"interlineWithPreviousLeg":false,"from":{"name":"Origin","lon":-71.069825,"lat":48.402548,"departure":1522688831000,"orig":"","vertexType":"NORMAL"},"to":{"name":"Bégin / Ballantyne","stopId":"1:451","stopCode":"451","lon":-71.07501,"lat":48.403916,"arrival":1522689419000,"departure":1522689420000,"zoneId":"NA","stopIndex":15,"stopSequence":16,"vertexType":"TRANSIT"},"legGeometry":{"points":"eslfHpywpLC[CG[s@o@yAu@o@c@hAkB~EX`@t@jA`@hAB\\Fr@BjA?RUl@aA\\gAQ_A`F@v@BpAXr@HT~@lB","length":24},"rentedBike":false,"transitLeg":false,"duration":588.0,"steps":[{"distance":115.90899999999999,"relativeDirection":"DEPART","streetName":"Rue de Clermont","absoluteDirection":"EAST","stayOn":false,"area":false,"bogusName":false,"lon":-71.06984230140095,"lat":48.40259783912991,"elevation":[]},{"distance":136.794,"relativeDirection":"LEFT","streetName":"Rue Saint-Siméon","absoluteDirection":"NORTHWEST","stayOn":false,"area":false,"bogusName":false,"lon":-71.06871310000001,"lat":48.4032816,"elevation":[]},{"distance":259.696,"relativeDirection":"LEFT","streetName":"Rue Des Éboulements","absoluteDirection":"SOUTHWEST","stayOn":false,"area":false,"bogusName":false,"lon":-71.0702093,"lat":48.404007400000005,"elevation":[]},{"distance":229.76599999999996,"relativeDirection":"LEFT","streetName":"Rue Bégin","absoluteDirection":"NORTHWEST","stayOn":false,"area":false,"bogusName":false,"lon":-71.0723037,"lat":48.4041535,"elevation":[]}]},{"startTime":1522689420000,"endTime":1522690680000,"departureDelay":0,"arrivalDelay":0,"realTime":false,"distance":5551.547225735559,"pathway":false,"mode":"BUS","route":"14","agencyName":"Société de Transport du Saguenay","agencyUrl":"http://ville.saguenay.ca/fr/services-aux-citoyens/transport-sts","agencyTimeZoneOffset":-14400000,"routeColor":"C0C000","routeType":3,"routeId":"1:14","routeTextColor":"000000","interlineWithPreviousLeg":false,"tripBlockId":"31","headsign":"Terminus Chicoutimi","agencyId":"0","tripId":"1:218135","serviceDate":"20180402","from":{"name":"Bégin / Ballantyne","stopId":"1:451","stopCode":"451","lon":-71.07501,"lat":48.403916,"arrival":1522689419000,"departure":1522689420000,"zoneId":"NA","stopIndex":15,"stopSequence":16,"vertexType":"TRANSIT"},"to":{"name":"Terminus Chicoutimi","stopId":"1:1289","stopCode":"1289","lon":-71.066163,"lat":48.428677,"arrival":1522690680000,"departure":1522691100000,"zoneId":"NA","stopIndex":37,"stopSequence":38,"vertexType":"TRANSIT"},"legGeometry":{"points":"y{lfHfzxpLy@uB}@rAa@nAc@lFEf@mGvUYfAqCs@ICMCqFmDc@s@mAkBuEoESUgAhDiAfD}@zDyAcA_@Um@U{AWgB_Au@s@EEsBkCqFgF{IiI][aBhE}@}@oBmBwE{EwE{Ej@mBZeAa@SyEQg@CPcALuCx@{b@t@{[XoDd@sBl@iB~@gA`G{F{A{D_@sBFqDOq@iG{FGIoCkCgBgBsDpLHzBBT`@~COnBQf@gAjAg@bBuDmDmFgFa@_@w@s@CfAOrBEtAGbA?jBQtC?|@ExKMdIG~EUnLEhC}CKkBOkCOYbC","length":85},"routeShortName":"14","routeLongName":"Coopérative","rentedBike":false,"transitLeg":true,"duration":1260.0,"steps":[]},{"startTime":1522691100000,"endTime":1522691419000,"departureDelay":0,"arrivalDelay":0,"realTime":false,"distance":2130.322985965611,"pathway":false,"mode":"BUS","route":"23","agencyName":"Société de Transport du Saguenay","agencyUrl":"http://ville.saguenay.ca/fr/services-aux-citoyens/transport-sts","agencyTimeZoneOffset":-14400000,"routeColor":"FF00FF","routeType":3,"routeId":"1:23","routeTextColor":"FFFFFF","interlineWithPreviousLeg":false,"tripBlockId":"5","headsign":"Terminus Chicoutimi","agencyId":"0","tripId":"1:217264","serviceDate":"20180402","from":{"name":"Terminus Chicoutimi","stopId":"1:1289","stopCode":"1289","lon":-71.066163,"lat":48.428677,"arrival":1522690680000,"departure":1522691100000,"zoneId":"NA","stopIndex":0,"stopSequence":1,"vertexType":"TRANSIT"},"to":{"name":"Place de la Colline (boul. Ste-Geneviève)","stopId":"1:706","stopCode":"706","lon":-71.080094,"lat":48.44485,"arrival":1522691419000,"departure":1522691420000,"zoneId":"NA","stopIndex":2,"stopSequence":3,"vertexType":"TRANSIT"},"legGeometry":{"points":"kwqfHjbwpLF_CkAOYCm@rRO\\WjGOfGCRK^KJMHQB_AMg@Gw`@eR}@g@u@Su@Ia@Ck@Dm@HwAf@c@VeAx@iAlAU^[d@eLtTsAvB_CvEuAnCmBlE}@|B_BvFoC`J","length":36},"routeShortName":"23","routeLongName":"Côte Verdun via Aréna du Plateau","rentedBike":false,"transitLeg":true,"duration":319.0,"steps":[]},{"startTime":1522691420000,"endTime":1522692006000,"departureDelay":0,"arrivalDelay":0,"realTime":false,"distance":751.6139999999998,"pathway":false,"mode":"WALK","route":"","agencyTimeZoneOffset":-14400000,"interlineWithPreviousLeg":false,"from":{"name":"Place de la Colline (boul. Ste-Geneviève)","stopId":"1:706","stopCode":"706","lon":-71.080094,"lat":48.44485,"arrival":1522691419000,"departure":1522691420000,"zoneId":"NA","stopIndex":2,"stopSequence":3,"vertexType":"TRANSIT"},"to":{"name":"Destination","lon":-71.082997,"lat":48.442018,"arrival":1522692006000,"orig":"","vertexType":"NORMAL"},"legGeometry":{"points":"a{tfHxyypLdBkFPRb@`@TJ\\LhCv@nBn@PFNDZDd@DXAb@?`@C^?\\?L@?@D?h@LMPOVMTOn@CJCPAF?nAAjA?L?L?PANALCLALCJIZCLYrA[tA","length":42},"rentedBike":false,"transitLeg":false,"duration":586.0,"steps":[{"distance":103.974,"relativeDirection":"DEPART","streetName":"Boulevard Sainte-Geneviève","absoluteDirection":"SOUTHEAST","stayOn":false,"area":false,"bogusName":false,"lon":-71.08012797466124,"lat":48.44481509343017,"elevation":[]},{"distance":390.311,"relativeDirection":"RIGHT","streetName":"Rue Saint-Albert","absoluteDirection":"SOUTHWEST","stayOn":false,"area":false,"bogusName":false,"lon":-71.07894370000001,"lat":48.444307900000005,"elevation":[]},{"distance":257.329,"relativeDirection":"HARD_RIGHT","streetName":"Rue Roussel","absoluteDirection":"NORTHWEST","stayOn":false,"area":false,"bogusName":false,"lon":-71.0800502,"lat":48.4409276,"elevation":[]}]}],"tooSloped":false},{"duration":2500,"startTime":1522691061000,"endTime":1522693561000,"walkTime":784,"transitTime":1294,"waitingTime":422,"walkDistance":985.4220150277199,"walkLimitExceeded":false,"elevationLost":0.0,"elevationGained":0.0,"transfers":1,"legs":[{"startTime":1522691061000,"endTime":1522691620000,"departureDelay":0,"arrivalDelay":0,"realTime":false,"distance":700.8349999999999,"pathway":false,"mode":"WALK","route":"","agencyTimeZoneOffset":-14400000,"interlineWithPreviousLeg":false,"from":{"name":"Origin","lon":-71.069825,"lat":48.402548,"departure":1522691061000,"orig":"","vertexType":"NORMAL"},"to":{"name":"Angoulême / Bégin","stopId":"1:53","stopCode":"53","lon":-71.073604,"lat":48.405143,"arrival":1522691620000,"departure":1522691621000,"zoneId":"NA","stopIndex":18,"stopSequence":19,"vertexType":"TRANSIT"},"legGeometry":{"points":"eslfHpywpLC[CG[s@o@yAu@o@c@hAkB~EX`@t@jA`@hAB\\Fr@BjA?RUl@aA\\gAQ_A`F@v@yBB@W","length":22},"rentedBike":false,"transitLeg":false,"duration":559.0,"steps":[{"distance":115.90899999999999,"relativeDirection":"DEPART","streetName":"Rue de Clermont","absoluteDirection":"EAST","stayOn":false,"area":false,"bogusName":false,"lon":-71.06984230140095,"lat":48.40259783912991,"elevation":[]},{"distance":136.794,"relativeDirection":"LEFT","streetName":"Rue Saint-Siméon","absoluteDirection":"NORTHWEST","stayOn":false,"area":false,"bogusName":false,"lon":-71.06871310000001,"lat":48.4032816,"elevation":[]},{"distance":259.696,"relativeDirection":"LEFT","streetName":"Rue Des Éboulements","absoluteDirection":"SOUTHWEST","stayOn":false,"area":false,"bogusName":false,"lon":-71.0702093,"lat":48.404007400000005,"elevation":[]},{"distance":111.582,"relativeDirection":"LEFT","streetName":"Rue Bégin","absoluteDirection":"NORTHWEST","stayOn":false,"area":false,"bogusName":false,"lon":-71.0723037,"lat":48.4041535,"elevation":[]},{"distance":67.789,"relativeDirection":"RIGHT","streetName":"Rue d'Angoulème","absoluteDirection":"NORTH","stayOn":false,"area":false,"bogusName":false,"lon":-71.0737143,"lat":48.404464100000006,"elevation":[]},{"distance":9.065,"relativeDirection":"RIGHT","streetName":"Rue R. E. Joron","absoluteDirection":"EAST","stayOn":false,"area":false,"bogusName":false,"lon":-71.073734,"lat":48.4050736,"elevation":[]}]},{"startTime":1522691621000,"endTime":1522692480000,"departureDelay":0,"arrivalDelay":0,"realTime":false,"distance":4464.524105661683,"pathway":false,"mode":"BUS","route":"15","agencyName":"Société de Transport du Saguenay","agencyUrl":"http://ville.saguenay.ca/fr/services-aux-citoyens/transport-sts","agencyTimeZoneOffset":-14400000,"routeColor":"FF00FF","routeType":3,"routeId":"1:15","routeTextColor":"FFFFFF","interlineWithPreviousLeg":false,"tripBlockId":"32","headsign":"Terminus Chicoutimi","agencyId":"0","tripId":"1:218161","serviceDate":"20180402","from":{"name":"Angoulême / Bégin","stopId":"1:53","stopCode":"53","lon":-71.073604,"lat":48.405143,"arrival":1522691620000,"departure":1522691621000,"zoneId":"NA","stopIndex":18,"stopSequence":19,"vertexType":"TRANSIT"},"to":{"name":"Terminus Chicoutimi","stopId":"1:1289","stopCode":"1289","lon":-71.066163,"lat":48.428677,"arrival":1522692480000,"departure":1522692900000,"zoneId":"NA","stopIndex":39,"stopSequence":40,"vertexType":"TRANSIT"},"legGeometry":{"points":"acmfH`rxpLw@FiG}@iDwAECcCcBo@y@sEeGe@o@qAa@m@MoB?C@}BZwAc@oA_Bs@gDCKZ{Di@QECc@_@sAkAoBwB_EcE{A_BoAmAk@o@cCaCkIkIaJaJUUwBaCj@wCjAsCzGoG_CoHL{D_@kAqD{CQr@iAcAy@w@L{@wAuA_B_B_EpLDh@NbBVvCIxBg@`Am@l@Sb@a@rAqDqDmEkE]a@kAqAU|@WnKG|DGxDOdPKvJU|F?XQlJC~@ChAIzEcCOaIi@VwL","length":74},"routeShortName":"15","routeLongName":"Term. Chic / Costco","rentedBike":false,"transitLeg":true,"duration":859.0,"steps":[]},{"startTime":1522692900000,"endTime":1522693335000,"departureDelay":0,"arrivalDelay":0,"realTime":false,"distance":2564.7507384376695,"pathway":false,"mode":"BUS","route":"20","agencyName":"Société de Transport du Saguenay","agencyUrl":"http://ville.saguenay.ca/fr/services-aux-citoyens/transport-sts","agencyTimeZoneOffset":-14400000,"routeColor":"0000FF","routeType":3,"routeId":"1:20","routeTextColor":"FFFFFF","interlineWithPreviousLeg":false,"tripBlockId":"1","headsign":"Terminus Chicoutimi","agencyId":"0","tripId":"1:217145","serviceDate":"20180402","from":{"name":"Terminus Chicoutimi","stopId":"1:1289","stopCode":"1289","lon":-71.066163,"lat":48.428677,"arrival":1522692480000,"departure":1522692900000,"zoneId":"NA","stopIndex":0,"stopSequence":1,"vertexType":"TRANSIT"},"to":{"name":"St-Albert / Roussel","stopId":"1:680","stopCode":"680","lon":-71.079859,"lat":48.441152,"arrival":1522693335000,"departure":1522693336000,"zoneId":"NA","stopIndex":5,"stopSequence":6,"vertexType":"TRANSIT"},"legGeometry":{"points":"evqfHzcwpLg@?UhKwAIWACp@O\\WjGOfGCRK^KJMHQB_AMg@Gw`@eR}@g@u@Su@Ia@Ck@Dm@HwAf@c@VeAx@iAlAU^[d@eLtTsAvBg@bAPVd@t@PNNF@@P?TI`@YLITGV?NBTFRNNP`@OLCHGHIFMDSR{ARaBbDdAb@H`Fd@EbAE`AIdBK`AOdAMd@EJKR}B~Bw@`Bs@dB]bAWb@q@jAaB|BkA~A}@nAu@I","length":76},"routeShortName":"20","routeLongName":"Sainte-Claire","rentedBike":false,"transitLeg":true,"duration":435.0,"steps":[]},{"startTime":1522693336000,"endTime":1522693561000,"departureDelay":0,"arrivalDelay":0,"realTime":false,"distance":284.281,"pathway":false,"mode":"WALK","route":"","agencyTimeZoneOffset":-14400000,"interlineWithPreviousLeg":false,"from":{"name":"St-Albert / Roussel","stopId":"1:680","stopCode":"680","lon":-71.079859,"lat":48.441152,"arrival":1522693335000,"departure":1522693336000,"zoneId":"NA","stopIndex":5,"stopSequence":6,"vertexType":"TRANSIT"},"to":{"name":"Destination","lon":-71.082997,"lat":48.442018,"arrival":1522693561000,"orig":"","vertexType":"NORMAL"},"legGeometry":{"points":"gdtfHzxypL?@D?h@LMPOVMTOn@CJCPAF?nAAjA?L?L?PANALCLALCJIZCLYrA[tA","length":25},"rentedBike":false,"transitLeg":false,"duration":225.0,"steps":[{"distance":26.952,"relativeDirection":"DEPART","streetName":"Rue Saint-Albert","absoluteDirection":"SOUTH","stayOn":false,"area":false,"bogusName":false,"lon":-71.0799793301524,"lat":48.441165372596494,"elevation":[]},{"distance":257.329,"relativeDirection":"HARD_RIGHT","streetName":"Rue Roussel","absoluteDirection":"NORTHWEST","stayOn":false,"area":false,"bogusName":false,"lon":-71.0800502,"lat":48.4409276,"elevation":[]}]}],"tooSloped":false}]},"debugOutput":{"precalculationTime":22,"pathCalculationTime":57,"pathTimes":[26,15,16],"renderingTime":1,"totalTime":80,"timedOut":false},"elevationMetadata":{"ellipsoidToGeoidDifference":-28.885904201182168,"geoidElevation":false}}