{"requestParameters":{"date":"2018/04/02","walkSpeed":"1.33","walkReluctance":"2.0","fromPlace":"48.399637,-71.074368","maxWalkDistance":"3000","waitReluctance":"1.0","carSpeed":"33","numItineraries":"3","waitAtBeginningFactor":"0.4","mode":"TRANSIT,WALK","ignoreRealtimeUpdates":"false","stairsReluctance":"2.0","toPlace":"48.395327,-71.071431","time":"16:0:00"},"plan":{"date":1522699200000,"from":{"name":"Origin","lon":-71.074368,"lat":48.399637,"orig":"","vertexType":"NORMAL"},"to":{"name":"Destination","lon":-71.071431,"lat":48.395327,"orig":"","vertexType":"NORMAL"},"itineraries":[{"duration":751,"startTime":1522699200000,"endTime":1522699951000,"walkTime":751,"transitTime":0,"waitingTime":0,"walkDistance":965.1223834536972,"walkLimitExceeded":false,"elevationLost":0.0,"elevationGained":0.0,"transfers":0,"legs":[{"startTime":1522699200000,"endTime":1522699951000,"departureDelay":0,"arrivalDelay":0,"realTime":false,"distance":964.9689999999999,"pathway":false,"mode":"WALK","route":"","agencyTimeZoneOffset":-14400000,"interlineWithPreviousLeg":false,"from":{"name":"Origin","lon":-71.074368,"lat":48.399637,"departure":1522699200000,"orig":"","vertexType":"NORMAL"},"to":{"name":"Destination","lon":-71.071431,"lat":48.395327,"arrival":1522699951000,"orig":"","vertexType":"NORMAL"},"legGeometry":{"points":"salfHduxpLYpAQzBxAf@nCvCtAmDv@`Ax@bAxB|BtAnAZgAfB{GhAsEFSd@eBVm@x@yBfAsC","length":18},"rentedBike":false,"transitLeg":false,"duration":751.0,"steps":[{"distance":80.095,"relativeDirection":"DEPART","streetName":"Rue de Crespieul","absoluteDirection":"NORTHWEST","stayOn":false,"area":false,"bogusName":false,"lon":-71.07426371539955,"lat":48.39978623771526,"elevation":[]},{"distance":149.491,"relativeDirection":"LEFT","streetName":"Rue de la Place Royale","absoluteDirection":"SOUTH","stayOn":false,"area":false,"bogusName":false,"lon":-71.07529120000001,"lat":48.400005,"elevation":[]},{"distance":80.599,"relativeDirection":"LEFT","streetName":"Rue des Vingt-et-Un","absoluteDirection":"SOUTHEAST","stayOn":false,"area":false,"bogusName":false,"lon":-71.0762516,"lat":48.3988389,"elevation":[]},{"distance":219.137,"relativeDirection":"RIGHT","streetName":"Rue des Cent-Associés","absoluteDirection":"SOUTHWEST","stayOn":false,"area":false,"bogusName":false,"lon":-71.0753823,"lat":48.3984004,"elevation":[]},{"distance":435.64699999999993,"relativeDirection":"LEFT","streetName":"Boulevard Barrette","absoluteDirection":"SOUTHEAST","stayOn":false,"area":false,"bogusName":false,"lon":-71.07708930000001,"lat":48.396790800000005,"elevation":[]}]}],"tooSloped":false},{"duration":814,"startTime":1522699247000,"endTime":1522700061000,"walkTime":562,"transitTime":250,"waitingTime":2,"walkDistance":718.5926014992226,"walkLimitExceeded":false,"elevationLost":0.0,"elevationGained":0.0,"transfers":0,"legs":[{"startTime":1522699247000,"endTime":1522699609000,"departureDelay":0,"arrivalDelay":0,"realTime":false,"distance":466.466,"pathway":false,"mode":"WALK","route":"","agencyTimeZoneOffset":-14400000,"interlineWithPreviousLeg":false,"from":{"name":"Origin","lon":-71.074368,"lat":48.399637,"departure":1522699247000,"orig":"","vertexType":"NORMAL"},"to":{"name":"Bégin / Vingt-et-Un","stopId":"1:449","stopCode":"449","lon":-71.08,"lat":48.4005,"arrival":1522699609000,"departure":1522699610000,"zoneId":"NA","stopIndex":22,"stopSequence":23,"vertexType":"TRANSIT"},"legGeometry":{"points":"salfHduxpLYpAQzBq@jIUvCDp@zAxBqB`G@@","length":9},"rentedBike":false,"transitLeg":false,"duration":362.0,"steps":[{"distance":350.613,"relativeDirection":"DEPART","streetName":"Rue de Crespieul","absoluteDirection":"NORTHWEST","stayOn":false,"area":false,"bogusName":false,"lon":-71.07426371539955,"lat":48.39978623771526,"elevation":[]},{"distance":114.817,"relativeDirection":"RIGHT","streetName":"Rue des Vingt-et-Un","absoluteDirection":"NORTHWEST","stayOn":false,"area":false,"bogusName":false,"lon":-71.07857220000001,"lat":48.399870500000006,"elevation":[]},{"distance":1.036,"relativeDirection":"LEFT","streetName":"Rue Bégin","absoluteDirection":"SOUTHWEST","stayOn":false,"area":false,"bogusName":false,"lon":-71.0798627,"lat":48.400446800000005,"elevation":[]}]},{"startTime":1522699610000,"endTime":1522699860000,"departureDelay":0,"arrivalDelay":0,"realTime":false,"distance":3473.4633343290975,"pathway":false,"mode":"BUS","route":"14","agencyName":"Société de Transport du Saguenay","agencyUrl":"http://ville.saguenay.ca/fr/services-aux-citoyens/transport-sts","agencyTimeZoneOffset":-14400000,"routeColor":"C0C000","routeType":3,"routeId":"1:14","routeTextColor":"000000","interlineWithPreviousLeg":false,"tripBlockId":"30","headsign":"Talbot / Barrette","agencyId":"0","tripId":"1:218105","serviceDate":"20180402","from":{"name":"Bégin / Vingt-et-Un","stopId":"1:449","stopCode":"449","lon":-71.08,"lat":48.4005,"arrival":1522699609000,"departure":1522699610000,"zoneId":"NA","stopIndex":22,"stopSequence":23,"vertexType":"TRANSIT"},"to":{"name":"Roitelets / Sapins","stopId":"1:1543","stopCode":"1543","lon":-71.069553,"lat":48.393375,"arrival":1522699860000,"departure":1522699861000,"zoneId":"NA","stopIndex":35,"stopSequence":36,"vertexType":"TRANSIT"},"legGeometry":{"points":"yelfHjxypLlClC|@^hCYVExCjCb@d@vE`F`BhB?pHaBhRqAbLK~@qBxFqB|FcC~GyC\\aDkDcFsF~CgOtGm[j@oCvEoSl@_CxCmLjAeFpCeKrByHfAqCvH_SLa@","length":31},"routeShortName":"14","routeLongName":"Coopérative","rentedBike":false,"transitLeg":true,"duration":250.0,"steps":[]},{"startTime":1522699861000,"endTime":1522700061000,"departureDelay":0,"arrivalDelay":0,"realTime":false,"distance":251.986,"pathway":false,"mode":"WALK","route":"","agencyTimeZoneOffset":-14400000,"interlineWithPreviousLeg":false,"from":{"name":"Roitelets / Sapins","stopId":"1:1543","stopCode":"1543","lon":-71.069553,"lat":48.393375,"arrival":1522699860000,"departure":1522699861000,"zoneId":"NA","stopIndex":35,"stopSequence":36,"vertexType":"TRANSIT"},"to":{"name":"Destination","lon":-71.071431,"lat":48.395327,"arrival":1522700061000,"orig":"","vertexType":"NORMAL"},"legGeometry":{"points":"oyjfHxwwpL?@mAzCMHC@Qb@OOuCrH","length":8},"rentedBike":false,"transitLeg":false,"duration":200.0,"steps":[{"distance":84.014,"relativeDirection":"DEPART","streetName":"bike path","absoluteDirection":"NORTHWEST","stayOn":false,"area":false,"bogusName":true,"lon":-71.0695674967601,"lat":48.39336056343373,"elevation":[]},{"distance":167.972,"relativeDirection":"SLIGHTLY_LEFT","streetName":"Boulevard Barrette","absoluteDirection":"NORTHWEST","stayOn":false,"area":false,"bogusName":false,"lon":-71.07041720000001,"lat":48.393846,"elevation":[]}]}],"tooSloped":false}]},"debugOutput":{"precalculationTime":38,"pathCalculationTime":28,"pathTimes":[13,7,8],"renderingTime":0,"totalTime":66,"timedOut":false},"elevationMetadata":{"ellipsoidToGeoidDifference":-28.885904201182168,"geoidElevation":false}}