{"requestParameters":{"date":"2018/04/02","walkSpeed":"1.33","walkReluctance":"2.0","fromPlace":"48.397419,-71.069913","maxWalkDistance":"3000","waitReluctance":"1.0","carSpeed":"33","numItineraries":"3","waitAtBeginningFactor":"0.4","mode":"TRANSIT,WALK","ignoreRealtimeUpdates":"false","stairsReluctance":"2.0","toPlace":"48.309498,-71.11380099","time":"7:5:00"},"plan":{"date":1522667100000,"from":{"name":"Origin","lon":-71.069913,"lat":48.397419,"orig":"","vertexType":"NORMAL"},"to":{"name":"Destination","lon":-71.11380099,"lat":48.309498,"orig":"","vertexType":"NORMAL"},"itineraries":[{"duration":3903,"startTime":1522681974000,"endTime":1522685877000,"walkTime":1457,"transitTime":1664,"waitingTime":782,"walkDistance":1894.6323909707837,"walkLimitExceeded":false,"elevationLost":0.0,"elevationGained":0.0,"transfers":1,"legs":[{"startTime":1522681974000,"endTime":1522683175000,"departureDelay":0,"arrivalDelay":0,"realTime":false,"distance":1569.196,"pathway":false,"mode":"WALK","route":"","agencyTimeZoneOffset":-14400000,"interlineWithPreviousLeg":false,"from":{"name":"Origin","lon":-71.069913,"lat":48.397419,"departure":1522681974000,"orig":"","vertexType":"NORMAL"},"to":{"name":"boul. Talbot (no. 1494) (Tim-Horton)","stopId":"1:1854","stopCode":"1854","lon":-71.060941,"lat":48.402118,"arrival":1522683175000,"departure":1522683176000,"zoneId":"NA","stopIndex":21,"stopSequence":22,"vertexType":"TRANSIT"},"legGeometry":{"points":"qskfHh{wpL{@iA]o@a@cBQ{@wC_Fk@cA{@c@u@AgFn@_BS}CiCgGgFs@[CCaBu@}BaAGEOIiAaDRE|@w@jAcAJK`AkAdA_CvByF~@sBLWfDbD","length":30},"rentedBike":false,"transitLeg":false,"duration":1201.0,"steps":[{"distance":1060.231,"relativeDirection":"DEPART","streetName":"Rue Des Maristes","absoluteDirection":"NORTHEAST","stayOn":false,"area":false,"bogusName":false,"lon":-71.070123,"lat":48.397533,"elevation":[]},{"distance":397.81600000000003,"relativeDirection":"RIGHT","streetName":"Rue des Saguenéens","absoluteDirection":"SOUTH","stayOn":false,"area":false,"bogusName":false,"lon":-71.0637066,"lat":48.4054395,"elevation":[]},{"distance":111.149,"relativeDirection":"RIGHT","streetName":"Boulevard Talbot","absoluteDirection":"SOUTHWEST","stayOn":false,"area":false,"bogusName":false,"lon":-71.0600254,"lat":48.4029151,"elevation":[]}]},{"startTime":1522683176000,"endTime":1522683720000,"departureDelay":0,"arrivalDelay":0,"realTime":false,"distance":2957.6941281470627,"pathway":false,"mode":"BUS","route":"175","agencyName":"Société de Transport du Saguenay","agencyUrl":"http://ville.saguenay.ca/fr/services-aux-citoyens/transport-sts","agencyTimeZoneOffset":-14400000,"routeColor":"FF00FF","routeType":3,"routeId":"1:175","routeTextColor":"FFFFFF","interlineWithPreviousLeg":false,"tripBlockId":"6","headsign":"Costco","agencyId":"0","tripId":"1:217294","serviceDate":"20180402","from":{"name":"boul. Talbot (no. 1494) (Tim-Horton)","stopId":"1:1854","stopCode":"1854","lon":-71.060941,"lat":48.402118,"arrival":1522683175000,"departure":1522683176000,"zoneId":"NA","stopIndex":21,"stopSequence":22,"vertexType":"TRANSIT"},"to":{"name":"COSTCO","stopId":"1:1710","stopCode":"1710","lon":-71.085767,"lat":48.382333,"arrival":1522683720000,"departure":1522684500000,"zoneId":"NA","stopIndex":30,"stopSequence":31,"vertexType":"TRANSIT"},"legGeometry":{"points":"_plfHjavpLjF`FjCrCrAvAbCfDjIfMdAzAfFpHd@n@nC`DlXv[b@f@mCtHv@v@p@r@_@p@uAcBjDoJhAzApBrBrFvGjDdEbD|DZb@~DrEbDfDrA~ApLbNpG|GyCtHwBcC","length":31},"routeShortName":"175","routeLongName":"Term. Chic / Costco","rentedBike":false,"transitLeg":true,"duration":544.0,"steps":[]},{"startTime":1522684500000,"endTime":1522685620000,"departureDelay":0,"arrivalDelay":0,"realTime":false,"distance":14795.97921397807,"pathway":false,"mode":"BUS","route":"62","agencyName":"Société de Transport du Saguenay","agencyUrl":"http://ville.saguenay.ca/fr/services-aux-citoyens/transport-sts","agencyTimeZoneOffset":-14400000,"routeColor":"00FFFF","routeType":3,"routeId":"1:62","routeTextColor":"000000","interlineWithPreviousLeg":false,"tripBlockId":"73","headsign":"Costco","agencyId":"0","tripId":"1:218619","serviceDate":"20180402","from":{"name":"COSTCO","stopId":"1:1710","stopCode":"1710","lon":-71.085767,"lat":48.382333,"arrival":1522683720000,"departure":1522684500000,"zoneId":"NA","stopIndex":0,"stopSequence":1,"vertexType":"TRANSIT"},"to":{"name":"Boulevard / Culture","stopId":"1:319","stopCode":"319","lon":-71.117175,"lat":48.310379,"arrival":1522685620000,"departure":1522685621000,"zoneId":"NA","stopIndex":17,"stopSequence":18,"vertexType":"TRANSIT"},"legGeometry":{"points":"uthfHh}zpLUYyAcBs@`BjChDJn@Nr@`@x@PNlFwMHWbFmMBc@~d@skANe@Jk@H_AD_ABuADs@Hk@Lc@N_@X_@ZYbAq@pA]hDuA~UqLAEjJ_EjRiIrJeEdCmAbAs@rAkAbCyC|@cB|@sBpEkN|cA}`D~@wCz@~@~GjH|^d`@fNxNng@di@dJrJ`aAtcA`@d@RZJVNn@Dr@nAp_@HzAHx@ZxAlDzN|DlPjIn]P~@JbB@b@?b@IdAiA|KObAU`A_HfTCDt_AzaA^h@BFDTBV?VATADwBlGCPCl@Jt@pBnG^pBFd@DlAEdCGhCElAg@pG?nAF~@PnAVxAp@lF^`B^dAxAnC@@pAzAr@lAPp@Lj@Dh@HjB@fAWzFA~BQAOAQGWMk@k@QSM[M_@IY_@_AQWSO_DcBUEYLa@VWLYPyGrNeC`GoAzBw@t@kCvBkBvAg@`@[\\g@t@i@bACF}AlE","length":139},"routeShortName":"62","routeLongName":"Portage des Roches Sud","rentedBike":false,"transitLeg":true,"duration":1120.0,"steps":[]},{"startTime":1522685621000,"endTime":1522685877000,"departureDelay":0,"arrivalDelay":0,"realTime":false,"distance":325.23,"pathway":false,"mode":"WALK","route":"","agencyTimeZoneOffset":-14400000,"interlineWithPreviousLeg":false,"from":{"name":"Boulevard / Culture","stopId":"1:319","stopCode":"319","lon":-71.117175,"lat":48.310379,"arrival":1522685620000,"departure":1522685621000,"zoneId":"NA","stopIndex":17,"stopSequence":18,"vertexType":"TRANSIT"},"to":{"name":"Destination","lon":-71.11380099,"lat":48.309498,"arrival":1522685877000,"orig":"","vertexType":"NORMAL"},"legGeometry":{"points":"qrzeHtaaqLf@yAwBqB`BqEvB}CYq@","length":6},"rentedBike":false,"transitLeg":false,"duration":256.0,"steps":[{"distance":39.857,"relativeDirection":"DEPART","streetName":"Rue du Boulevard","absoluteDirection":"SOUTHEAST","stayOn":false,"area":false,"bogusName":false,"lon":-71.11722134605982,"lat":48.310334116525226,"elevation":[]},{"distance":79.487,"relativeDirection":"LEFT","streetName":"Rue de la culture","absoluteDirection":"NORTHEAST","stayOn":false,"area":false,"bogusName":false,"lon":-71.11677710000001,"lat":48.3101312,"elevation":[]},{"distance":183.303,"relativeDirection":"RIGHT","streetName":"Rue de la Moisson","absoluteDirection":"SOUTHEAST","stayOn":false,"area":false,"bogusName":false,"lon":-71.1162046,"lat":48.3107362,"elevation":[]},{"distance":22.583,"relativeDirection":"LEFT","streetName":"rue de la Moisson","absoluteDirection":"NORTHEAST","stayOn":false,"area":false,"bogusName":false,"lon":-71.1143612,"lat":48.309649900000004,"elevation":[]}]}],"tooSloped":false},{"duration":3468,"startTime":1522684674000,"endTime":1522688142000,"walkTime":1429,"transitTime":1257,"waitingTime":782,"walkDistance":1856.3397593919215,"walkLimitExceeded":false,"elevationLost":0.0,"elevationGained":0.0,"transfers":1,"legs":[{"startTime":1522684674000,"endTime":1522685875000,"departureDelay":0,"arrivalDelay":0,"realTime":false,"distance":1569.196,"pathway":false,"mode":"WALK","route":"","agencyTimeZoneOffset":-14400000,"interlineWithPreviousLeg":false,"from":{"name":"Origin","lon":-71.069913,"lat":48.397419,"departure":1522684674000,"orig":"","vertexType":"NORMAL"},"to":{"name":"boul. Talbot (no. 1494) (Tim-Horton)","stopId":"1:1854","stopCode":"1854","lon":-71.060941,"lat":48.402118,"arrival":1522685875000,"departure":1522685876000,"zoneId":"NA","stopIndex":21,"stopSequence":22,"vertexType":"TRANSIT"},"legGeometry":{"points":"qskfHh{wpL{@iA]o@a@cBQ{@wC_Fk@cA{@c@u@AgFn@_BS}CiCgGgFs@[CCaBu@}BaAGEOIiAaDRE|@w@jAcAJK`AkAdA_CvByF~@sBLWfDbD","length":30},"rentedBike":false,"transitLeg":false,"duration":1201.0,"steps":[{"distance":1060.231,"relativeDirection":"DEPART","streetName":"Rue Des Maristes","absoluteDirection":"NORTHEAST","stayOn":false,"area":false,"bogusName":false,"lon":-71.070123,"lat":48.397533,"elevation":[]},{"distance":397.81600000000003,"relativeDirection":"RIGHT","streetName":"Rue des Saguenéens","absoluteDirection":"SOUTH","stayOn":false,"area":false,"bogusName":false,"lon":-71.0637066,"lat":48.4054395,"elevation":[]},{"distance":111.149,"relativeDirection":"RIGHT","streetName":"Boulevard Talbot","absoluteDirection":"SOUTHWEST","stayOn":false,"area":false,"bogusName":false,"lon":-71.0600254,"lat":48.4029151,"elevation":[]}]},{"startTime":1522685876000,"endTime":1522686420000,"departureDelay":0,"arrivalDelay":0,"realTime":false,"distance":2957.6941281470627,"pathway":false,"mode":"BUS","route":"175","agencyName":"Société de Transport du Saguenay","agencyUrl":"http://ville.saguenay.ca/fr/services-aux-citoyens/transport-sts","agencyTimeZoneOffset":-14400000,"routeColor":"FF00FF","routeType":3,"routeId":"1:175","routeTextColor":"FFFFFF","interlineWithPreviousLeg":false,"tripBlockId":"78","headsign":"Costco","agencyId":"0","tripId":"1:218643","serviceDate":"20180402","from":{"name":"boul. Talbot (no. 1494) (Tim-Horton)","stopId":"1:1854","stopCode":"1854","lon":-71.060941,"lat":48.402118,"arrival":1522685875000,"departure":1522685876000,"zoneId":"NA","stopIndex":21,"stopSequence":22,"vertexType":"TRANSIT"},"to":{"name":"COSTCO","stopId":"1:1710","stopCode":"1710","lon":-71.085767,"lat":48.382333,"arrival":1522686420000,"departure":1522687200000,"zoneId":"NA","stopIndex":30,"stopSequence":31,"vertexType":"TRANSIT"},"legGeometry":{"points":"_plfHjavpLjF`FjCrCrAvAbCfDjIfMdAzAfFpHd@n@nC`DlXv[b@f@mCtHv@v@p@r@_@p@uAcBjDoJhAzApBrBrFvGjDdEbD|DZb@~DrEbDfDrA~ApLbNpG|GyCtHwBcC","length":31},"routeShortName":"175","routeLongName":"Term. Chic / Costco","rentedBike":false,"transitLeg":true,"duration":544.0,"steps":[]},{"startTime":1522687200000,"endTime":1522687913000,"departureDelay":0,"arrivalDelay":0,"realTime":false,"distance":12422.394472284284,"pathway":false,"mode":"BUS","route":"60","agencyName":"Société de Transport du Saguenay","agencyUrl":"http://ville.saguenay.ca/fr/services-aux-citoyens/transport-sts","agencyTimeZoneOffset":-14400000,"routeColor":"00FFFF","routeType":3,"routeId":"1:60","routeTextColor":"000000","interlineWithPreviousLeg":false,"tripBlockId":"73","headsign":"Costco","agencyId":"0","tripId":"1:218620","serviceDate":"20180402","from":{"name":"COSTCO","stopId":"1:1710","stopCode":"1710","lon":-71.085767,"lat":48.382333,"arrival":1522686420000,"departure":1522687200000,"zoneId":"NA","stopIndex":0,"stopSequence":1,"vertexType":"TRANSIT"},"to":{"name":"Boulevard / Culture","stopId":"1:1736","stopCode":"1736","lon":-71.116866,"lat":48.310034,"arrival":1522687913000,"departure":1522687914000,"zoneId":"NA","stopIndex":11,"stopSequence":12,"vertexType":"TRANSIT"},"legGeometry":{"points":"uthfHh}zpLoB}Bs@`BjChDZbB`@x@iDvI}@fC_AvC[jAi@`CUbBUxBUdCIlD]to@K`IEt@ElBQlEMrBWvDa@jEq@nFa@rC_AnFi@bCo@pCiAbEEFsC|INZxAfB~DjFxFfFzAdBbA`BlA|Bt@z@z@x@zAhAbBjAfKlGz@~@vApBbApAbDdDdExDLJpIjIvAzBlBdDbAbBfAtAt@|@|@~@tHhHhBlCrCfFx@fAT^bA`AjC~BdI~JpGjHt@bA`AdAvb@xf@`EvEjFjFxAtAd@j@l@z@xC`Fn@v@NNNJ^Xj@Xv@Zz@ZND`@Lx@Rp@LXDrDH|@?p@?VCN?D?VK`@ONIZUVS^]Zc@t@wATs@P}@F_@Jm@JcA@QPsA\\uBXuAdAqDLe@H]zAuHd@kBzAuFXy@NYXg@f@g@|@{@dAy@vC{Br@m@RQRWVa@b@_AdC}Gn@aBl@{Aj@oATe@b@i@\\Y\\Qd@QvDy@r@Ud@Up@i@Z[X]^i@LUL_@^gAxGgUVaAPq@PaAL{@Fq@@eACoBKwFAiCD_AFe@V_AbVqq@Pw@bl@bm@~A|AtE|DnEnDjDdCf`@vVbCdBnAfAjClCpDkJjAgD`KqYbDiJpIeV|IcW","length":176},"routeShortName":"60","routeLongName":"Portage des Roches Nord","rentedBike":false,"transitLeg":true,"duration":713.0,"steps":[]},{"startTime":1522687914000,"endTime":1522688142000,"departureDelay":0,"arrivalDelay":0,"realTime":false,"distance":286.93999999999994,"pathway":false,"mode":"WALK","route":"","agencyTimeZoneOffset":-14400000,"interlineWithPreviousLeg":false,"from":{"name":"Boulevard / Culture","stopId":"1:1736","stopCode":"1736","lon":-71.116866,"lat":48.310034,"arrival":1522687913000,"departure":1522687914000,"zoneId":"NA","stopIndex":11,"stopSequence":12,"vertexType":"TRANSIT"},"to":{"name":"Destination","lon":-71.11380099,"lat":48.309498,"arrival":1522688142000,"orig":"","vertexType":"NORMAL"},"legGeometry":{"points":"gqzeHx~`qLA@wBqB`BqEvB}CYq@","length":6},"rentedBike":false,"transitLeg":false,"duration":228.0,"steps":[{"distance":1.567,"relativeDirection":"DEPART","streetName":"Rue du Boulevard","absoluteDirection":"NORTHWEST","stayOn":false,"area":false,"bogusName":false,"lon":-71.1167604981061,"lat":48.31012243914006,"elevation":[]},{"distance":79.487,"relativeDirection":"RIGHT","streetName":"Rue de la culture","absoluteDirection":"NORTHEAST","stayOn":false,"area":false,"bogusName":false,"lon":-71.11677710000001,"lat":48.3101312,"elevation":[]},{"distance":183.303,"relativeDirection":"RIGHT","streetName":"Rue de la Moisson","absoluteDirection":"SOUTHEAST","stayOn":false,"area":false,"bogusName":false,"lon":-71.1162046,"lat":48.3107362,"elevation":[]},{"distance":22.583,"relativeDirection":"LEFT","streetName":"rue de la Moisson","absoluteDirection":"NORTHEAST","stayOn":false,"area":false,"bogusName":false,"lon":-71.1143612,"lat":48.309649900000004,"elevation":[]}]}],"tooSloped":false},{"duration":3436,"startTime":1522696034000,"endTime":1522699470000,"walkTime":1457,"transitTime":1977,"waitingTime":2,"walkDistance":1894.6323909707837,"walkLimitExceeded":false,"elevationLost":0.0,"elevationGained":0.0,"transfers":0,"legs":[{"startTime":1522696034000,"endTime":1522697235000,"departureDelay":0,"arrivalDelay":0,"realTime":false,"distance":1569.196,"pathway":false,"mode":"WALK","route":"","agencyTimeZoneOffset":-14400000,"interlineWithPreviousLeg":false,"from":{"name":"Origin","lon":-71.069913,"lat":48.397419,"departure":1522696034000,"orig":"","vertexType":"NORMAL"},"to":{"name":"boul. Talbot (no. 1494) (Tim-Horton)","stopId":"1:1854","stopCode":"1854","lon":-71.060941,"lat":48.402118,"arrival":1522697235000,"departure":1522697236000,"zoneId":"NA","stopIndex":2,"stopSequence":3,"vertexType":"TRANSIT"},"legGeometry":{"points":"qskfHh{wpL{@iA]o@a@cBQ{@wC_Fk@cA{@c@u@AgFn@_BS}CiCgGgFs@[CCaBu@}BaAGEOIiAaDRE|@w@jAcAJK`AkAdA_CvByF~@sBLWfDbD","length":30},"rentedBike":false,"transitLeg":false,"duration":1201.0,"steps":[{"distance":1060.231,"relativeDirection":"DEPART","streetName":"Rue Des Maristes","absoluteDirection":"NORTHEAST","stayOn":false,"area":false,"bogusName":false,"lon":-71.070123,"lat":48.397533,"elevation":[]},{"distance":397.81600000000003,"relativeDirection":"RIGHT","streetName":"Rue des Saguenéens","absoluteDirection":"SOUTH","stayOn":false,"area":false,"bogusName":false,"lon":-71.0637066,"lat":48.4054395,"elevation":[]},{"distance":111.149,"relativeDirection":"RIGHT","streetName":"Boulevard Talbot","absoluteDirection":"SOUTHWEST","stayOn":false,"area":false,"bogusName":false,"lon":-71.0600254,"lat":48.4029151,"elevation":[]}]},{"startTime":1522697236000,"endTime":1522697700000,"departureDelay":0,"arrivalDelay":0,"realTime":false,"distance":2880.056948678177,"pathway":false,"mode":"BUS","route":"208S","agencyName":"Société de Transport du Saguenay","agencyUrl":"http://ville.saguenay.ca/fr/services-aux-citoyens/transport-sts","agencyTimeZoneOffset":-14400000,"routeColor":"8B0000","routeType":3,"routeId":"1:208S","routeTextColor":"FFFFFF","interlineWithPreviousLeg":false,"tripBlockId":"107","headsign":"Costco","agencyId":"0","tripId":"1:218820","serviceDate":"20180402","from":{"name":"boul. Talbot (no. 1494) (Tim-Horton)","stopId":"1:1854","stopCode":"1854","lon":-71.060941,"lat":48.402118,"arrival":1522697235000,"departure":1522697236000,"zoneId":"NA","stopIndex":2,"stopSequence":3,"vertexType":"TRANSIT"},"to":{"name":"COSTCO","stopId":"1:1710","stopCode":"1710","lon":-71.085767,"lat":48.382333,"arrival":1522697700000,"departure":1522698000000,"zoneId":"NA","stopIndex":10,"stopSequence":11,"vertexType":"TRANSIT"},"legGeometry":{"points":"_plfHjavpLjF`FjCrCrAvAbCfDjIfMdAzAfFpHd@n@nC`DlXv[j@n@dEfErFvGjDdEbD|DZb@~DrEbDfDrA~AhD~DfGbHpG|GyCtHwBcC","length":25},"routeShortName":"208S","routeLongName":"Séminaire - Laterrière","rentedBike":false,"transitLeg":true,"duration":464.0,"steps":[]},{"startTime":1522698000000,"endTime":1522699213000,"departureDelay":0,"arrivalDelay":0,"realTime":false,"distance":14795.97921397807,"pathway":false,"mode":"BUS","route":"62","agencyName":"Société de Transport du Saguenay","agencyUrl":"http://ville.saguenay.ca/fr/services-aux-citoyens/transport-sts","agencyTimeZoneOffset":-14400000,"routeColor":"00FFFF","routeType":3,"routeId":"1:62","routeTextColor":"000000","interlineWithPreviousLeg":true,"tripBlockId":"107","headsign":"Barrage Port. Roches","agencyId":"0","tripId":"1:218821","serviceDate":"20180402","from":{"name":"COSTCO","stopId":"1:1710","stopCode":"1710","lon":-71.085767,"lat":48.382333,"arrival":1522697700000,"departure":1522698000000,"zoneId":"NA","stopIndex":0,"stopSequence":1,"vertexType":"TRANSIT"},"to":{"name":"Boulevard / Culture","stopId":"1:319","stopCode":"319","lon":-71.117175,"lat":48.310379,"arrival":1522699213000,"departure":1522699214000,"zoneId":"NA","stopIndex":17,"stopSequence":18,"vertexType":"TRANSIT"},"legGeometry":{"points":"uthfHh}zpLoB}Bs@`BjChDZbB`@x@PNlFwMHWbFmMBc@~d@skANe@Jk@H_AD_ABuADs@Hk@Lc@N_@X_@ZYbAq@pA]hDuA~UqLAEjJ_EjRiIrJeEdCmAbAs@rAkAbCyC|@cB|@sBpEkN|cA}`D~@wCz@~@~GjH|^d`@fNxNng@di@dJrJ`aAtcA`@d@RZJVNn@Dr@nAp_@HzAHx@ZxAlDzN|DlPjIn]P~@JbB@b@?b@IdAiA|KObAU`A_HfTCDt_AzaA^h@BFDTBV?VATADwBlGCPCl@Jt@pBnG^pBFd@DlAEdCGhCElAg@pG?nAF~@PnAVxAp@lF^`B^dAxAnC@@pAzAr@lAPp@Lj@Dh@HjB@fAWzFA~BQAOAQGWMk@k@QSM[M_@IY_@_AQWSO_DcBUEYLa@VWLYPyGrNeC`GoAzBw@t@kCvBkBvAg@`@[\\g@t@i@bACF}AlE","length":137},"routeShortName":"62","routeLongName":"Portage des Roches Sud","rentedBike":false,"transitLeg":true,"duration":1213.0,"steps":[]},{"startTime":1522699214000,"endTime":1522699470000,"departureDelay":0,"arrivalDelay":0,"realTime":false,"distance":325.23,"pathway":false,"mode":"WALK","route":"","agencyTimeZoneOffset":-14400000,"interlineWithPreviousLeg":false,"from":{"name":"Boulevard / Culture","stopId":"1:319","stopCode":"319","lon":-71.117175,"lat":48.310379,"arrival":1522699213000,"departure":1522699214000,"zoneId":"NA","stopIndex":17,"stopSequence":18,"vertexType":"TRANSIT"},"to":{"name":"Destination","lon":-71.11380099,"lat":48.309498,"arrival":1522699470000,"orig":"","vertexType":"NORMAL"},"legGeometry":{"points":"qrzeHtaaqLf@yAwBqB`BqEvB}CYq@","length":6},"rentedBike":false,"transitLeg":false,"duration":256.0,"steps":[{"distance":39.857,"relativeDirection":"DEPART","streetName":"Rue du Boulevard","absoluteDirection":"SOUTHEAST","stayOn":false,"area":false,"bogusName":false,"lon":-71.11722134605982,"lat":48.310334116525226,"elevation":[]},{"distance":79.487,"relativeDirection":"LEFT","streetName":"Rue de la culture","absoluteDirection":"NORTHEAST","stayOn":false,"area":false,"bogusName":false,"lon":-71.11677710000001,"lat":48.3101312,"elevation":[]},{"distance":183.303,"relativeDirection":"RIGHT","streetName":"Rue de la Moisson","absoluteDirection":"SOUTHEAST","stayOn":false,"area":false,"bogusName":false,"lon":-71.1162046,"lat":48.3107362,"elevation":[]},{"distance":22.583,"relativeDirection":"LEFT","streetName":"rue de la Moisson","absoluteDirection":"NORTHEAST","stayOn":false,"area":false,"bogusName":false,"lon":-71.1143612,"lat":48.309649900000004,"elevation":[]}]}],"tooSloped":false}]},"debugOutput":{"precalculationTime":14,"pathCalculationTime":100,"pathTimes":[38,28,34],"renderingTime":1,"totalTime":115,"timedOut":false},"elevationMetadata":{"ellipsoidToGeoidDifference":-28.885904201182168,"geoidElevation":false}}