{"requestParameters":{"date":"2018/04/02","walkSpeed":"1.33","walkReluctance":"2.0","fromPlace":"48.428222,-71.06148799","maxWalkDistance":"3000","waitReluctance":"1.0","carSpeed":"33","numItineraries":"3","waitAtBeginningFactor":"0.4","mode":"TRANSIT,WALK","ignoreRealtimeUpdates":"false","stairsReluctance":"2.0","toPlace":"48.401546,-71.062841","time":"10:15:00"},"plan":{"date":1522678500000,"from":{"name":"Origin","lon":-71.06148799,"lat":48.428222,"orig":"","vertexType":"NORMAL"},"to":{"name":"Destination","lon":-71.062841,"lat":48.401546,"orig":"","vertexType":"NORMAL"},"itineraries":[{"duration":1463,"startTime":1522680086000,"endTime":1522681549000,"walkTime":507,"transitTime":954,"waitingTime":2,"walkDistance":635.9111428520723,"walkLimitExceeded":false,"elevationLost":0.0,"elevationGained":0.0,"transfers":0,"legs":[{"startTime":1522680086000,"endTime":1522680421000,"departureDelay":0,"arrivalDelay":0,"realTime":false,"distance":414.225,"pathway":false,"mode":"WALK","route":"","agencyTimeZoneOffset":-14400000,"interlineWithPreviousLeg":false,"from":{"name":"Origin","lon":-71.06148799,"lat":48.428222,"departure":1522680086000,"orig":"","vertexType":"NORMAL"},"to":{"name":"Racine / Havre","stopId":"1:1639","stopCode":"1639","lon":-71.059267,"lat":48.427469,"arrival":1522680421000,"departure":1522680422000,"zoneId":"NA","stopIndex":1,"stopSequence":2,"vertexType":"TRANSIT"},"legGeometry":{"points":"ctqfHrfvpLGPGJKAc@AI?i@E@yCEgF|@B\\@h@?b@DzANDuAB_A","length":16},"rentedBike":false,"transitLeg":false,"duration":335.0,"steps":[{"distance":69.732,"relativeDirection":"DEPART","streetName":"service road","absoluteDirection":"NORTHWEST","stayOn":false,"area":false,"bogusName":true,"lon":-71.06169410000001,"lat":48.428342,"elevation":[]},{"distance":142.448,"relativeDirection":"RIGHT","streetName":"Boulevard du Saguenay Est","absoluteDirection":"EAST","stayOn":false,"area":false,"bogusName":false,"lon":-71.06179730000001,"lat":48.428920700000006,"elevation":[]},{"distance":146.047,"relativeDirection":"RIGHT","streetName":"Rue La Fontaine","absoluteDirection":"SOUTH","stayOn":false,"area":false,"bogusName":false,"lon":-71.0598676,"lat":48.428941300000005,"elevation":[]},{"distance":55.998000000000005,"relativeDirection":"LEFT","streetName":"Rue Racine Est","absoluteDirection":"EAST","stayOn":false,"area":false,"bogusName":false,"lon":-71.0600075,"lat":48.4276324,"elevation":[]}]},{"startTime":1522680422000,"endTime":1522681376000,"departureDelay":0,"arrivalDelay":0,"realTime":false,"distance":4882.541287827642,"pathway":false,"mode":"BUS","route":"175","agencyName":"Société de Transport du Saguenay","agencyUrl":"http://ville.saguenay.ca/fr/services-aux-citoyens/transport-sts","agencyTimeZoneOffset":-14400000,"routeColor":"FF00FF","routeType":3,"routeId":"1:175","routeTextColor":"FFFFFF","interlineWithPreviousLeg":false,"tripBlockId":"8","headsign":"Costco","agencyId":"0","tripId":"1:217365","serviceDate":"20180402","from":{"name":"Racine / Havre","stopId":"1:1639","stopCode":"1639","lon":-71.059267,"lat":48.427469,"arrival":1522680421000,"departure":1522680422000,"zoneId":"NA","stopIndex":1,"stopSequence":2,"vertexType":"TRANSIT"},"to":{"name":"boul. Talbot (no. 1494) (Tim-Horton)","stopId":"1:1854","stopCode":"1854","lon":-71.060941,"lat":48.402118,"arrival":1522681376000,"departure":1522681377000,"zoneId":"NA","stopIndex":21,"stopSequence":22,"vertexType":"TRANSIT"},"legGeometry":{"points":"_oqfHlwupLBkAOsHAg@bAYUwMKoE@mB@kJ@iFbEf@xEj@iCtYp@r@z@`ABBvHtHXRx@l@VwAvAgB\\qBIuAC]g@yEzDuLbBbBvAxAMx@|@v@`A~@Xw@~D~DPxFZtA~ApE`N{LpFmEb@[ROl@[vDQXKfA[|@q@fAsBlEmMr@sBhCsKz@dAjB|@dM`GzCvAXrCr@~Gx@]PEr@ObACn@FrBb@|@Ch@Kx@U~HsB^KZ|DJpII~Fa@rFUzBi@bDUxAm@nCcAlDM^RTfD`D","length":78},"routeShortName":"175","routeLongName":"Term. Chic / Costco","rentedBike":false,"transitLeg":true,"duration":954.0,"steps":[]},{"startTime":1522681377000,"endTime":1522681549000,"departureDelay":0,"arrivalDelay":0,"realTime":false,"distance":221.529,"pathway":false,"mode":"WALK","route":"","agencyTimeZoneOffset":-14400000,"interlineWithPreviousLeg":false,"from":{"name":"boul. Talbot (no. 1494) (Tim-Horton)","stopId":"1:1854","stopCode":"1854","lon":-71.060941,"lat":48.402118,"arrival":1522681376000,"departure":1522681377000,"zoneId":"NA","stopIndex":21,"stopSequence":22,"vertexType":"TRANSIT"},"to":{"name":"Destination","lon":-71.062841,"lat":48.401546,"arrival":1522681549000,"orig":"","vertexType":"NORMAL"},"legGeometry":{"points":"}olfHhavpLjAhAvBtB}AhE","length":4},"rentedBike":false,"transitLeg":false,"duration":172.0,"steps":[{"distance":130.24,"relativeDirection":"DEPART","streetName":"Boulevard Talbot","absoluteDirection":"SOUTHWEST","stayOn":false,"area":false,"bogusName":false,"lon":-71.06084575275527,"lat":48.40207691199218,"elevation":[]},{"distance":91.289,"relativeDirection":"RIGHT","streetName":"road","absoluteDirection":"NORTHWEST","stayOn":false,"area":false,"bogusName":false,"lon":-71.06180710000001,"lat":48.4010948,"elevation":[]}]}],"tooSloped":false},{"duration":1906,"startTime":1522679986000,"endTime":1522681892000,"walkTime":645,"transitTime":1259,"waitingTime":2,"walkDistance":825.3354210471971,"walkLimitExceeded":false,"elevationLost":0.0,"elevationGained":0.0,"transfers":0,"legs":[{"startTime":1522679986000,"endTime":1522680299000,"departureDelay":0,"arrivalDelay":0,"realTime":false,"distance":397.699,"pathway":false,"mode":"WALK","route":"","agencyTimeZoneOffset":-14400000,"interlineWithPreviousLeg":false,"from":{"name":"Origin","lon":-71.06148799,"lat":48.428222,"departure":1522679986000,"orig":"","vertexType":"NORMAL"},"to":{"name":"Terminus Chicoutimi","stopId":"1:1289","stopCode":"1289","lon":-71.066163,"lat":48.428677,"arrival":1522680299000,"departure":1522680300000,"zoneId":"NA","stopIndex":0,"stopSequence":1,"vertexType":"TRANSIT"},"legGeometry":{"points":"ctqfHrfvpLGPGJKAc@AI?i@EGlFAb@i@xLN@~AL","length":12},"rentedBike":false,"transitLeg":false,"duration":313.0,"steps":[{"distance":69.732,"relativeDirection":"DEPART","streetName":"service road","absoluteDirection":"NORTHWEST","stayOn":false,"area":false,"bogusName":true,"lon":-71.06169410000001,"lat":48.428342,"elevation":[]},{"distance":265.625,"relativeDirection":"LEFT","streetName":"Boulevard du Saguenay Est","absoluteDirection":"WEST","stayOn":false,"area":false,"bogusName":false,"lon":-71.06179730000001,"lat":48.428920700000006,"elevation":[]},{"distance":62.342,"relativeDirection":"LEFT","streetName":"Rue Morin","absoluteDirection":"SOUTH","stayOn":false,"area":false,"bogusName":false,"lon":-71.0653717,"lat":48.429186300000005,"elevation":[]}]},{"startTime":1522680300000,"endTime":1522681559000,"departureDelay":0,"arrivalDelay":0,"realTime":false,"distance":5344.788688857265,"pathway":false,"mode":"BUS","route":"15","agencyName":"Société de Transport du Saguenay","agencyUrl":"http://ville.saguenay.ca/fr/services-aux-citoyens/transport-sts","agencyTimeZoneOffset":-14400000,"routeColor":"FF00FF","routeType":3,"routeId":"1:15","routeTextColor":"FFFFFF","interlineWithPreviousLeg":false,"tripBlockId":"31","headsign":"Talbot / Barrette","agencyId":"0","tripId":"1:218130","serviceDate":"20180402","from":{"name":"Terminus Chicoutimi","stopId":"1:1289","stopCode":"1289","lon":-71.066163,"lat":48.428677,"arrival":1522680299000,"departure":1522680300000,"zoneId":"NA","stopIndex":0,"stopSequence":1,"vertexType":"TRANSIT"},"to":{"name":"Saguenéens  / Bach","stopId":"1:575","stopCode":"575","lon":-71.061104,"lat":48.403689,"arrival":1522681559000,"departure":1522681560000,"zoneId":"NA","stopIndex":23,"stopSequence":24,"vertexType":"TRANSIT"},"legGeometry":{"points":"evqfHpbwpLPiCjKx@HiEZkS\\aSN_K^eIrBpBvIpIr@r@\\mBfAaA`@gBOkB_@uF|DyL|DpDQ|@|@z@bA`ATw@dD~Ch@fA@`E~AjGuH`Iy@bBi@dCbEdEjJlJ`HbHlJpJ|J~JdAfALzDNzDrAdBrEKvBEbCv@d@TvFlC|DlBpMlGrB`AM}@hAwEC{B]oBiBmBsH_@_K{H`EgIvCaGfEoItDsH~DeI","length":58},"routeShortName":"15","routeLongName":"Term. Chic / Costco","rentedBike":false,"transitLeg":true,"duration":1259.0,"steps":[]},{"startTime":1522681560000,"endTime":1522681892000,"departureDelay":0,"arrivalDelay":0,"realTime":false,"distance":427.4680000000001,"pathway":false,"mode":"WALK","route":"","agencyTimeZoneOffset":-14400000,"interlineWithPreviousLeg":false,"from":{"name":"Saguenéens  / Bach","stopId":"1:575","stopCode":"575","lon":-71.061104,"lat":48.403689,"arrival":1522681559000,"departure":1522681560000,"zoneId":"NA","stopIndex":23,"stopSequence":24,"vertexType":"TRANSIT"},"to":{"name":"Destination","lon":-71.062841,"lat":48.401546,"arrival":1522681892000,"orig":"","vertexType":"NORMAL"},"legGeometry":{"points":"wylfHfcvpLgAnCRRFJFRDTJ^V\\~CfCRRb@Tt@j@h@f@~@iC`@gA","length":15},"rentedBike":false,"transitLeg":false,"duration":332.0,"steps":[{"distance":66.956,"relativeDirection":"DEPART","streetName":"Rue des Saguenéens","absoluteDirection":"NORTHWEST","stayOn":false,"area":false,"bogusName":false,"lon":-71.0611521754673,"lat":48.403646208471976,"elevation":[]},{"distance":266.117,"relativeDirection":"LEFT","streetName":"Rue Bach","absoluteDirection":"SOUTHWEST","stayOn":false,"area":false,"bogusName":false,"lon":-71.06187870000001,"lat":48.404006700000004,"elevation":[]},{"distance":94.395,"relativeDirection":"LEFT","streetName":"road","absoluteDirection":"SOUTHEAST","stayOn":false,"area":false,"bogusName":true,"lon":-71.06386160000001,"lat":48.402058200000006,"elevation":[]}]}],"tooSloped":false},{"duration":1463,"startTime":1522681886000,"endTime":1522683349000,"walkTime":507,"transitTime":954,"waitingTime":2,"walkDistance":635.9111428520723,"walkLimitExceeded":false,"elevationLost":0.0,"elevationGained":0.0,"transfers":0,"legs":[{"startTime":1522681886000,"endTime":1522682221000,"departureDelay":0,"arrivalDelay":0,"realTime":false,"distance":414.225,"pathway":false,"mode":"WALK","route":"","agencyTimeZoneOffset":-14400000,"interlineWithPreviousLeg":false,"from":{"name":"Origin","lon":-71.06148799,"lat":48.428222,"departure":1522681886000,"orig":"","vertexType":"NORMAL"},"to":{"name":"Racine / Havre","stopId":"1:1639","stopCode":"1639","lon":-71.059267,"lat":48.427469,"arrival":1522682221000,"departure":1522682222000,"zoneId":"NA","stopIndex":1,"stopSequence":2,"vertexType":"TRANSIT"},"legGeometry":{"points":"ctqfHrfvpLGPGJKAc@AI?i@E@yCEgF|@B\\@h@?b@DzANDuAB_A","length":16},"rentedBike":false,"transitLeg":false,"duration":335.0,"steps":[{"distance":69.732,"relativeDirection":"DEPART","streetName":"service road","absoluteDirection":"NORTHWEST","stayOn":false,"area":false,"bogusName":true,"lon":-71.06169410000001,"lat":48.428342,"elevation":[]},{"distance":142.448,"relativeDirection":"RIGHT","streetName":"Boulevard du Saguenay Est","absoluteDirection":"EAST","stayOn":false,"area":false,"bogusName":false,"lon":-71.06179730000001,"lat":48.428920700000006,"elevation":[]},{"distance":146.047,"relativeDirection":"RIGHT","streetName":"Rue La Fontaine","absoluteDirection":"SOUTH","stayOn":false,"area":false,"bogusName":false,"lon":-71.0598676,"lat":48.428941300000005,"elevation":[]},{"distance":55.998000000000005,"relativeDirection":"LEFT","streetName":"Rue Racine Est","absoluteDirection":"EAST","stayOn":false,"area":false,"bogusName":false,"lon":-71.0600075,"lat":48.4276324,"elevation":[]}]},{"startTime":1522682222000,"endTime":1522683176000,"departureDelay":0,"arrivalDelay":0,"realTime":false,"distance":4882.541287827642,"pathway":false,"mode":"BUS","route":"175","agencyName":"Société de Transport du Saguenay","agencyUrl":"http://ville.saguenay.ca/fr/services-aux-citoyens/transport-sts","agencyTimeZoneOffset":-14400000,"routeColor":"FF00FF","routeType":3,"routeId":"1:175","routeTextColor":"FFFFFF","interlineWithPreviousLeg":false,"tripBlockId":"6","headsign":"Costco","agencyId":"0","tripId":"1:217294","serviceDate":"20180402","from":{"name":"Racine / Havre","stopId":"1:1639","stopCode":"1639","lon":-71.059267,"lat":48.427469,"arrival":1522682221000,"departure":1522682222000,"zoneId":"NA","stopIndex":1,"stopSequence":2,"vertexType":"TRANSIT"},"to":{"name":"boul. Talbot (no. 1494) (Tim-Horton)","stopId":"1:1854","stopCode":"1854","lon":-71.060941,"lat":48.402118,"arrival":1522683176000,"departure":1522683177000,"zoneId":"NA","stopIndex":21,"stopSequence":22,"vertexType":"TRANSIT"},"legGeometry":{"points":"_oqfHlwupLBkAOsHAg@bAYUwMKoE@mB@kJ@iFbEf@xEj@iCtYp@r@z@`ABBvHtHXRx@l@VwAvAgB\\qBIuAC]g@yEzDuLbBbBvAxAMx@|@v@`A~@Xw@~D~DPxFZtA~ApE`N{LpFmEb@[ROl@[vDQXKfA[|@q@fAsBlEmMr@sBhCsKz@dAjB|@dM`GzCvAXrCr@~Gx@]PEr@ObACn@FrBb@|@Ch@Kx@U~HsB^KZ|DJpII~Fa@rFUzBi@bDUxAm@nCcAlDM^RTfD`D","length":78},"routeShortName":"175","routeLongName":"Term. Chic / Costco","rentedBike":false,"transitLeg":true,"duration":954.0,"steps":[]},{"startTime":1522683177000,"endTime":1522683349000,"departureDelay":0,"arrivalDelay":0,"realTime":false,"distance":221.529,"pathway":false,"mode":"WALK","route":"","agencyTimeZoneOffset":-14400000,"interlineWithPreviousLeg":false,"from":{"name":"boul. Talbot (no. 1494) (Tim-Horton)","stopId":"1:1854","stopCode":"1854","lon":-71.060941,"lat":48.402118,"arrival":1522683176000,"departure":1522683177000,"zoneId":"NA","stopIndex":21,"stopSequence":22,"vertexType":"TRANSIT"},"to":{"name":"Destination","lon":-71.062841,"lat":48.401546,"arrival":1522683349000,"orig":"","vertexType":"NORMAL"},"legGeometry":{"points":"}olfHhavpLjAhAvBtB}AhE","length":4},"rentedBike":false,"transitLeg":false,"duration":172.0,"steps":[{"distance":130.24,"relativeDirection":"DEPART","streetName":"Boulevard Talbot","absoluteDirection":"SOUTHWEST","stayOn":false,"area":false,"bogusName":false,"lon":-71.06084575275527,"lat":48.40207691199218,"elevation":[]},{"distance":91.289,"relativeDirection":"RIGHT","streetName":"road","absoluteDirection":"NORTHWEST","stayOn":false,"area":false,"bogusName":false,"lon":-71.06180710000001,"lat":48.4010948,"elevation":[]}]}],"tooSloped":false}]},"debugOutput":{"precalculationTime":40,"pathCalculationTime":47,"pathTimes":[19,12,16],"renderingTime":0,"totalTime":87,"timedOut":false},"elevationMetadata":{"ellipsoidToGeoidDifference":-28.885904201182168,"geoidElevation":false}}