{"requestParameters":{"date":"2018/04/02","walkSpeed":"1.33","walkReluctance":"2.0","fromPlace":"48.394814,-71.081985","maxWalkDistance":"3000","waitReluctance":"1.0","carSpeed":"33","numItineraries":"3","waitAtBeginningFactor":"0.4","mode":"TRANSIT,WALK","ignoreRealtimeUpdates":"false","stairsReluctance":"2.0","toPlace":"48.440318,-71.07761499","time":"7:20:00"},"plan":{"date":1522668000000,"from":{"name":"Origin","lon":-71.081985,"lat":48.394814,"orig":"","vertexType":"NORMAL"},"to":{"name":"Destination","lon":-71.07761499,"lat":48.440318,"orig":"","vertexType":"NORMAL"},"itineraries":[{"duration":2532,"startTime":1522669353000,"endTime":1522671885000,"walkTime":356,"transitTime":1754,"waitingTime":422,"walkDistance":442.717684204922,"walkLimitExceeded":false,"elevationLost":0.0,"elevationGained":0.0,"transfers":1,"legs":[{"startTime":1522669353000,"endTime":1522669545000,"departureDelay":0,"arrivalDelay":0,"realTime":false,"distance":233.65200000000002,"pathway":false,"mode":"WALK","route":"","agencyTimeZoneOffset":-14400000,"interlineWithPreviousLeg":false,"from":{"name":"Origin","lon":-71.081985,"lat":48.394814,"departure":1522669353000,"orig":"","vertexType":"NORMAL"},"to":{"name":"Malraux / Mauriac","stopId":"1:446","stopCode":"446","lon":-71.08268,"lat":48.396442,"arrival":1522669545000,"departure":1522669546000,"zoneId":"NA","stopIndex":10,"stopSequence":11,"vertexType":"TRANSIT"},"legGeometry":{"points":"udkfH`czpLoA~CuBwBeAhDFH","length":5},"rentedBike":false,"transitLeg":false,"duration":192.0,"steps":[{"distance":73.918,"relativeDirection":"DEPART","streetName":"Rue Calvin","absoluteDirection":"NORTHWEST","stayOn":false,"area":false,"bogusName":false,"lon":-71.08160213568465,"lat":48.395159590291584,"elevation":[]},{"distance":79.18,"relativeDirection":"RIGHT","streetName":"Rue Rimbaud","absoluteDirection":"NORTHEAST","stayOn":false,"area":false,"bogusName":false,"lon":-71.08240860000001,"lat":48.395553500000005,"elevation":[]},{"distance":74.421,"relativeDirection":"LEFT","streetName":"Rue Mauriac","absoluteDirection":"NORTHWEST","stayOn":false,"area":false,"bogusName":false,"lon":-71.0818017,"lat":48.3961406,"elevation":[]},{"distance":6.133,"relativeDirection":"LEFT","streetName":"Rue Malraux","absoluteDirection":"SOUTHWEST","stayOn":false,"area":false,"bogusName":false,"lon":-71.0826531,"lat":48.396498900000005,"elevation":[]}]},{"startTime":1522669546000,"endTime":1522670880000,"departureDelay":0,"arrivalDelay":0,"realTime":false,"distance":6575.615828893012,"pathway":false,"mode":"BUS","route":"14","agencyName":"Société de Transport du Saguenay","agencyUrl":"http://ville.saguenay.ca/fr/services-aux-citoyens/transport-sts","agencyTimeZoneOffset":-14400000,"routeColor":"C0C000","routeType":3,"routeId":"1:14","routeTextColor":"000000","interlineWithPreviousLeg":false,"tripBlockId":"33","headsign":"Terminus Chicoutimi","agencyId":"0","tripId":"1:218174","serviceDate":"20180402","from":{"name":"Malraux / Mauriac","stopId":"1:446","stopCode":"446","lon":-71.08268,"lat":48.396442,"arrival":1522669545000,"departure":1522669546000,"zoneId":"NA","stopIndex":10,"stopSequence":11,"vertexType":"TRANSIT"},"to":{"name":"Terminus Chicoutimi","stopId":"1:1289","stopCode":"1289","lon":-71.066163,"lat":48.428677,"arrival":1522670880000,"departure":1522671300000,"zoneId":"NA","stopIndex":37,"stopSequence":38,"vertexType":"TRANSIT"},"legGeometry":{"points":"}lkfHdjzpLuF}F}AaB_BkAC@qC\\gAWiBwBiKgMiCwEgEyHCGy@uB}@rAa@nAc@lFEf@mGvUYfAqCs@ICMCqFmDc@s@mAkBuEoESUgAhDiAfD}@zDyAcA_@Um@U{AWgB_Au@s@EEsBkCqFgF{IiI][aBhE}@}@oBmBwE{EwE{Ej@mBZeAa@SyEQg@CPcALuCx@{b@t@{[XoDd@sBl@iB~@gA`G{F{A{D_@sBFqDOq@iG{FGIoCkCgBgBsDpLHzBBT`@~COnBQf@gAjAg@bBuDmDmFgFa@_@w@s@CfAOrBEtAGbA?jBQtC?|@ExKMdIG~EUnLEhC}CKkBOkCOYbC","length":96},"routeShortName":"14","routeLongName":"Coopérative","rentedBike":false,"transitLeg":true,"duration":1334.0,"steps":[]},{"startTime":1522671300000,"endTime":1522671720000,"departureDelay":0,"arrivalDelay":0,"realTime":false,"distance":2449.328848311191,"pathway":false,"mode":"BUS","route":"20","agencyName":"Société de Transport du Saguenay","agencyUrl":"http://ville.saguenay.ca/fr/services-aux-citoyens/transport-sts","agencyTimeZoneOffset":-14400000,"routeColor":"0000FF","routeType":3,"routeId":"1:20","routeTextColor":"FFFFFF","interlineWithPreviousLeg":false,"tripBlockId":"1","headsign":"Terminus Chicoutimi","agencyId":"0","tripId":"1:217133","serviceDate":"20180402","from":{"name":"Terminus Chicoutimi","stopId":"1:1289","stopCode":"1289","lon":-71.066163,"lat":48.428677,"arrival":1522670880000,"departure":1522671300000,"zoneId":"NA","stopIndex":0,"stopSequence":1,"vertexType":"TRANSIT"},"to":{"name":"Église Ste-Anne (Roussel / Hofman)","stopId":"1:679","stopCode":"679","lon":-71.07909,"lat":48.440248,"arrival":1522671720000,"departure":1522671721000,"zoneId":"NA","stopIndex":4,"stopSequence":5,"vertexType":"TRANSIT"},"legGeometry":{"points":"evqfHzcwpLg@?UhKwAIWACp@O\\WjGOfGCRK^KJMHQB_AMg@Gw`@eR}@g@u@Su@Ia@Ck@Dm@HwAf@c@VeAx@iAlAU^[d@eLtTsAvBg@bAPVd@t@PNNF@@P?TI`@YLITGV?NBTFRNNP`@OLCHGHIFMDSR{ARaBbDdAb@H`Fd@EbAE`AIdBK`AOdAMd@EJKR}B~Bw@`Bs@dB]bAWb@q@jAaB|B","length":73},"routeShortName":"20","routeLongName":"Sainte-Claire","rentedBike":false,"transitLeg":true,"duration":420.0,"steps":[]},{"startTime":1522671721000,"endTime":1522671885000,"departureDelay":0,"arrivalDelay":0,"realTime":false,"distance":208.892,"pathway":false,"mode":"WALK","route":"","agencyTimeZoneOffset":-14400000,"interlineWithPreviousLeg":false,"from":{"name":"Église Ste-Anne (Roussel / Hofman)","stopId":"1:679","stopCode":"679","lon":-71.07909,"lat":48.440248,"arrival":1522671720000,"departure":1522671721000,"zoneId":"NA","stopIndex":4,"stopSequence":5,"vertexType":"TRANSIT"},"to":{"name":"Destination","lon":-71.07761499,"lat":48.440318,"arrival":1522671885000,"orig":"","vertexType":"NORMAL"},"legGeometry":{"points":"e~sfHxsypLz@wA\\i@Z[Vc@DKy@wA_A}A","length":8},"rentedBike":false,"transitLeg":false,"duration":164.0,"steps":[{"distance":112.786,"relativeDirection":"DEPART","streetName":"Rue Roussel","absoluteDirection":"SOUTHEAST","stayOn":false,"area":false,"bogusName":false,"lon":-71.07916768756505,"lat":48.440198959612374,"elevation":[]},{"distance":96.106,"relativeDirection":"LEFT","streetName":"Rue Saint-Calixte","absoluteDirection":"NORTHEAST","stayOn":false,"area":false,"bogusName":false,"lon":-71.07813920000001,"lat":48.439451600000005,"elevation":[]}]}],"tooSloped":false},{"duration":3157,"startTime":1522668847000,"endTime":1522672004000,"walkTime":637,"transitTime":2098,"waitingTime":422,"walkDistance":800.4822405935583,"walkLimitExceeded":false,"elevationLost":0.0,"elevationGained":0.0,"transfers":1,"legs":[{"startTime":1522668847000,"endTime":1522669042000,"departureDelay":0,"arrivalDelay":0,"realTime":false,"distance":237.82500000000002,"pathway":false,"mode":"WALK","route":"","agencyTimeZoneOffset":-14400000,"interlineWithPreviousLeg":false,"from":{"name":"Origin","lon":-71.081985,"lat":48.394814,"departure":1522668847000,"orig":"","vertexType":"NORMAL"},"to":{"name":"Malraux / Mauriac","stopId":"1:1979","stopCode":"1979","lon":-71.082747,"lat":48.396652,"arrival":1522669042000,"departure":1522669043000,"zoneId":"NA","stopIndex":25,"stopSequence":26,"vertexType":"TRANSIT"},"legGeometry":{"points":"udkfH`czpLoA~CuBwBeAhDOO","length":5},"rentedBike":false,"transitLeg":false,"duration":195.0,"steps":[{"distance":73.918,"relativeDirection":"DEPART","streetName":"Rue Calvin","absoluteDirection":"NORTHWEST","stayOn":false,"area":false,"bogusName":false,"lon":-71.08160213568465,"lat":48.395159590291584,"elevation":[]},{"distance":79.18,"relativeDirection":"RIGHT","streetName":"Rue Rimbaud","absoluteDirection":"NORTHEAST","stayOn":false,"area":false,"bogusName":false,"lon":-71.08240860000001,"lat":48.395553500000005,"elevation":[]},{"distance":74.421,"relativeDirection":"LEFT","streetName":"Rue Mauriac","absoluteDirection":"NORTHWEST","stayOn":false,"area":false,"bogusName":false,"lon":-71.0818017,"lat":48.3961406,"elevation":[]},{"distance":10.306,"relativeDirection":"RIGHT","streetName":"Rue Malraux","absoluteDirection":"NORTHEAST","stayOn":false,"area":false,"bogusName":false,"lon":-71.0826531,"lat":48.396498900000005,"elevation":[]}]},{"startTime":1522669043000,"endTime":1522669260000,"departureDelay":0,"arrivalDelay":0,"realTime":false,"distance":2995.8499893427174,"pathway":false,"mode":"BUS","route":"14","agencyName":"Société de Transport du Saguenay","agencyUrl":"http://ville.saguenay.ca/fr/services-aux-citoyens/transport-sts","agencyTimeZoneOffset":-14400000,"routeColor":"C0C000","routeType":3,"routeId":"1:14","routeTextColor":"000000","interlineWithPreviousLeg":false,"tripBlockId":"32","headsign":"Talbot / Barrette","agencyId":"0","tripId":"1:218148","serviceDate":"20180402","from":{"name":"Malraux / Mauriac","stopId":"1:1979","stopCode":"1979","lon":-71.082747,"lat":48.396652,"arrival":1522669042000,"departure":1522669043000,"zoneId":"NA","stopIndex":25,"stopSequence":26,"vertexType":"TRANSIT"},"to":{"name":"Roitelets / Sapins","stopId":"1:1543","stopCode":"1543","lon":-71.069553,"lat":48.393375,"arrival":1522669260000,"departure":1522669260000,"zoneId":"NA","stopIndex":35,"stopSequence":36,"vertexType":"TRANSIT"},"legGeometry":{"points":"umkfHlizpL`BhB?pHaBhRqAbLK~@qBxFqB|FcC~GyC\\aDkDcFsF~CgOtGm[j@oCvEoSl@_CxCmLjAeFpCeKrByHfAqCvH_SLa@","length":24},"routeShortName":"14","routeLongName":"Coopérative","rentedBike":false,"transitLeg":true,"duration":217.0,"steps":[]},{"startTime":1522669260000,"endTime":1522670880000,"departureDelay":0,"arrivalDelay":0,"realTime":false,"distance":9172.482542384352,"pathway":false,"mode":"BUS","route":"15","agencyName":"Société de Transport du Saguenay","agencyUrl":"http://ville.saguenay.ca/fr/services-aux-citoyens/transport-sts","agencyTimeZoneOffset":-14400000,"routeColor":"FF00FF","routeType":3,"routeId":"1:15","routeTextColor":"FFFFFF","interlineWithPreviousLeg":true,"tripBlockId":"32","headsign":"Terminus Chicoutimi","agencyId":"0","tripId":"1:218149","serviceDate":"20180402","from":{"name":"Roitelets / Sapins","stopId":"1:1543","stopCode":"1543","lon":-71.069553,"lat":48.393375,"arrival":1522669260000,"departure":1522669260000,"zoneId":"NA","stopIndex":0,"stopSequence":1,"vertexType":"TRANSIT"},"to":{"name":"Terminus Chicoutimi","stopId":"1:1289","stopCode":"1289","lon":-71.066163,"lat":48.428677,"arrival":1522670880000,"departure":1522671300000,"zoneId":"NA","stopIndex":39,"stopSequence":40,"vertexType":"TRANSIT"},"legGeometry":{"points":"_zjfHfwwpLx@}BHa@NaADq@@y@Cy@I{@Ka@O[Sg@c@mAWwAMyA?EC]?wABuABmFB{@BmDFuH@i@F[FsC@c@TuGEGVsHPuDLuBXsFDoA?W@]Cu@GcAKu@Q_ASo@a@y@a@o@MOUUeCqBiDsDqE{EiAcAcB_AqBgA_AQaBSaBG_@Bu@FG?h@fNKnDpCfBkAzDgA}@y@q@sDy@GAeGT~@~KKrKyAnL[hBUxAm@nCcAlDeCvGmA|CUr@}@~A_@\\_DvCEZcA|@UP_@d@Yl@oBdFeCxG_CfGYVQXS\\dK|HlFZbC\\p@zA\\rB@hBiArG{BNw@FiG}@iDwAECcCcBo@y@sEeGe@o@qAa@m@MoB?C@}BZwAc@oA_Bs@gDCKZ{Di@QECc@_@sAkAoBwB_EcE{A_BoAmAk@o@cCaCkIkIaJaJUUwBaCj@wCjAsCzGoG_CoHL{D_@kAqD{CQr@iAcAy@w@L{@wAuA_B_B_EpLDh@NbBVvCIxBg@`Am@l@Sb@a@rAqDqDmEkE]a@kAqAU|@WnKG|DGxDOdPKvJU|F?XQlJC~@ChAIzEcCOaIi@VwL","length":170},"routeShortName":"15","routeLongName":"Term. Chic / Costco","rentedBike":false,"transitLeg":true,"duration":1620.0,"steps":[]},{"startTime":1522671300000,"endTime":1522671561000,"departureDelay":0,"arrivalDelay":0,"realTime":false,"distance":1644.4901640156816,"pathway":false,"mode":"BUS","route":"23","agencyName":"Société de Transport du Saguenay","agencyUrl":"http://ville.saguenay.ca/fr/services-aux-citoyens/transport-sts","agencyTimeZoneOffset":-14400000,"routeColor":"FF00FF","routeType":3,"routeId":"1:23","routeTextColor":"FFFFFF","interlineWithPreviousLeg":false,"tripBlockId":"4","headsign":"Terminus Chicoutimi","agencyId":"0","tripId":"1:217226","serviceDate":"20180402","from":{"name":"Terminus Chicoutimi","stopId":"1:1289","stopCode":"1289","lon":-71.066163,"lat":48.428677,"arrival":1522670880000,"departure":1522671300000,"zoneId":"NA","stopIndex":0,"stopSequence":1,"vertexType":"TRANSIT"},"to":{"name":"boul. Ste-Geneviève / Champs","stopId":"1:705","stopCode":"705","lon":-71.074706,"lat":48.442337,"arrival":1522671561000,"departure":1522671562000,"zoneId":"NA","stopIndex":1,"stopSequence":2,"vertexType":"TRANSIT"},"legGeometry":{"points":"kwqfHjbwpLF_CkAOYCm@rRO\\WjGOfGCRK^KJMHQB_AMg@Gw`@eR}@g@u@Su@Ia@Ck@Dm@HwAf@c@VeAx@iAlAU^[d@eLtTsAvB_CvE","length":31},"routeShortName":"23","routeLongName":"Côte Verdun via Aréna du Plateau","rentedBike":false,"transitLeg":true,"duration":261.0,"steps":[]},{"startTime":1522671562000,"endTime":1522672004000,"departureDelay":0,"arrivalDelay":0,"realTime":false,"distance":562.411,"pathway":false,"mode":"WALK","route":"","agencyTimeZoneOffset":-14400000,"interlineWithPreviousLeg":false,"from":{"name":"boul. Ste-Geneviève / Champs","stopId":"1:705","stopCode":"705","lon":-71.074706,"lat":48.442337,"arrival":1522671561000,"departure":1522671562000,"zoneId":"NA","stopIndex":1,"stopSequence":2,"vertexType":"TRANSIT"},"to":{"name":"Destination","lon":-71.07761499,"lat":48.440318,"arrival":1522672004000,"orig":"","vertexType":"NORMAL"},"legGeometry":{"points":"iktfHhxxpLnAeCRR^b@LNZLn@GbAo@z@NPDz@bCNd@JTTb@NZFN~@vAHH\\ZcAh@{ApAEJAL?LFJ","length":25},"rentedBike":false,"transitLeg":false,"duration":442.0,"steps":[{"distance":66.393,"relativeDirection":"DEPART","streetName":"Boulevard Sainte-Geneviève","absoluteDirection":"SOUTHEAST","stayOn":false,"area":false,"bogusName":false,"lon":-71.07476154891728,"lat":48.442296311215706,"elevation":[]},{"distance":174.187,"relativeDirection":"RIGHT","streetName":"Rue des Champs","absoluteDirection":"SOUTHWEST","stayOn":false,"area":false,"bogusName":false,"lon":-71.0740944,"lat":48.4418955,"elevation":[]},{"distance":199.517,"relativeDirection":"SLIGHTLY_RIGHT","streetName":"Rue des Champs","absoluteDirection":"SOUTHWEST","stayOn":true,"area":false,"bogusName":false,"lon":-71.07435980000001,"lat":48.4404586,"elevation":[]},{"distance":110.843,"relativeDirection":"HARD_RIGHT","streetName":"Rue Frontenac","absoluteDirection":"NORTHWEST","stayOn":false,"area":false,"bogusName":false,"lon":-71.0763494,"lat":48.4392658,"elevation":[]},{"distance":11.471,"relativeDirection":"LEFT","streetName":"Rue Saint-Calixte","absoluteDirection":"WEST","stayOn":false,"area":false,"bogusName":false,"lon":-71.0770979,"lat":48.4401002,"elevation":[]}]}],"tooSloped":false},{"duration":2532,"startTime":1522671153000,"endTime":1522673685000,"walkTime":356,"transitTime":1754,"waitingTime":422,"walkDistance":442.717684204922,"walkLimitExceeded":false,"elevationLost":0.0,"elevationGained":0.0,"transfers":1,"legs":[{"startTime":1522671153000,"endTime":1522671345000,"departureDelay":0,"arrivalDelay":0,"realTime":false,"distance":233.65200000000002,"pathway":false,"mode":"WALK","route":"","agencyTimeZoneOffset":-14400000,"interlineWithPreviousLeg":false,"from":{"name":"Origin","lon":-71.081985,"lat":48.394814,"departure":1522671153000,"orig":"","vertexType":"NORMAL"},"to":{"name":"Malraux / Mauriac","stopId":"1:446","stopCode":"446","lon":-71.08268,"lat":48.396442,"arrival":1522671345000,"departure":1522671346000,"zoneId":"NA","stopIndex":10,"stopSequence":11,"vertexType":"TRANSIT"},"legGeometry":{"points":"udkfH`czpLoA~CuBwBeAhDFH","length":5},"rentedBike":false,"transitLeg":false,"duration":192.0,"steps":[{"distance":73.918,"relativeDirection":"DEPART","streetName":"Rue Calvin","absoluteDirection":"NORTHWEST","stayOn":false,"area":false,"bogusName":false,"lon":-71.08160213568465,"lat":48.395159590291584,"elevation":[]},{"distance":79.18,"relativeDirection":"RIGHT","streetName":"Rue Rimbaud","absoluteDirection":"NORTHEAST","stayOn":false,"area":false,"bogusName":false,"lon":-71.08240860000001,"lat":48.395553500000005,"elevation":[]},{"distance":74.421,"relativeDirection":"LEFT","streetName":"Rue Mauriac","absoluteDirection":"NORTHWEST","stayOn":false,"area":false,"bogusName":false,"lon":-71.0818017,"lat":48.3961406,"elevation":[]},{"distance":6.133,"relativeDirection":"LEFT","streetName":"Rue Malraux","absoluteDirection":"SOUTHWEST","stayOn":false,"area":false,"bogusName":false,"lon":-71.0826531,"lat":48.396498900000005,"elevation":[]}]},{"startTime":1522671346000,"endTime":1522672680000,"departureDelay":0,"arrivalDelay":0,"realTime":false,"distance":6575.615828893012,"pathway":false,"mode":"BUS","route":"14","agencyName":"Société de Transport du Saguenay","agencyUrl":"http://ville.saguenay.ca/fr/services-aux-citoyens/transport-sts","agencyTimeZoneOffset":-14400000,"routeColor":"C0C000","routeType":3,"routeId":"1:14","routeTextColor":"000000","interlineWithPreviousLeg":false,"tripBlockId":"31","headsign":"Terminus Chicoutimi","agencyId":"0","tripId":"1:218125","serviceDate":"20180402","from":{"name":"Malraux / Mauriac","stopId":"1:446","stopCode":"446","lon":-71.08268,"lat":48.396442,"arrival":1522671345000,"departure":1522671346000,"zoneId":"NA","stopIndex":10,"stopSequence":11,"vertexType":"TRANSIT"},"to":{"name":"Terminus Chicoutimi","stopId":"1:1289","stopCode":"1289","lon":-71.066163,"lat":48.428677,"arrival":1522672680000,"departure":1522673100000,"zoneId":"NA","stopIndex":37,"stopSequence":38,"vertexType":"TRANSIT"},"legGeometry":{"points":"}lkfHdjzpLuF}F}AaB_BkAC@qC\\gAWiBwBiKgMiCwEgEyHCGy@uB}@rAa@nAc@lFEf@mGvUYfAqCs@ICMCqFmDc@s@mAkBuEoESUgAhDiAfD}@zDyAcA_@Um@U{AWgB_Au@s@EEsBkCqFgF{IiI][aBhE}@}@oBmBwE{EwE{Ej@mBZeAa@SyEQg@CPcALuCx@{b@t@{[XoDd@sBl@iB~@gA`G{F{A{D_@sBFqDOq@iG{FGIoCkCgBgBsDpLHzBBT`@~COnBQf@gAjAg@bBuDmDmFgFa@_@w@s@CfAOrBEtAGbA?jBQtC?|@ExKMdIG~EUnLEhC}CKkBOkCOYbC","length":96},"routeShortName":"14","routeLongName":"Coopérative","rentedBike":false,"transitLeg":true,"duration":1334.0,"steps":[]},{"startTime":1522673100000,"endTime":1522673520000,"departureDelay":0,"arrivalDelay":0,"realTime":false,"distance":2449.328848311191,"pathway":false,"mode":"BUS","route":"20","agencyName":"Société de Transport du Saguenay","agencyUrl":"http://ville.saguenay.ca/fr/services-aux-citoyens/transport-sts","agencyTimeZoneOffset":-14400000,"routeColor":"0000FF","routeType":3,"routeId":"1:20","routeTextColor":"FFFFFF","interlineWithPreviousLeg":false,"tripBlockId":"3","headsign":"Terminus Chicoutimi","agencyId":"0","tripId":"1:217191","serviceDate":"20180402","from":{"name":"Terminus Chicoutimi","stopId":"1:1289","stopCode":"1289","lon":-71.066163,"lat":48.428677,"arrival":1522672680000,"departure":1522673100000,"zoneId":"NA","stopIndex":0,"stopSequence":1,"vertexType":"TRANSIT"},"to":{"name":"Église Ste-Anne (Roussel / Hofman)","stopId":"1:679","stopCode":"679","lon":-71.07909,"lat":48.440248,"arrival":1522673520000,"departure":1522673521000,"zoneId":"NA","stopIndex":4,"stopSequence":5,"vertexType":"TRANSIT"},"legGeometry":{"points":"evqfHzcwpLg@?UhKwAIWACp@O\\WjGOfGCRK^KJMHQB_AMg@Gw`@eR}@g@u@Su@Ia@Ck@Dm@HwAf@c@VeAx@iAlAU^[d@eLtTsAvBg@bAPVd@t@PNNF@@P?TI`@YLITGV?NBTFRNNP`@OLCHGHIFMDSR{ARaBbDdAb@H`Fd@EbAE`AIdBK`AOdAMd@EJKR}B~Bw@`Bs@dB]bAWb@q@jAaB|B","length":73},"routeShortName":"20","routeLongName":"Sainte-Claire","rentedBike":false,"transitLeg":true,"duration":420.0,"steps":[]},{"startTime":1522673521000,"endTime":1522673685000,"departureDelay":0,"arrivalDelay":0,"realTime":false,"distance":208.892,"pathway":false,"mode":"WALK","route":"","agencyTimeZoneOffset":-14400000,"interlineWithPreviousLeg":false,"from":{"name":"Église Ste-Anne (Roussel / Hofman)","stopId":"1:679","stopCode":"679","lon":-71.07909,"lat":48.440248,"arrival":1522673520000,"departure":1522673521000,"zoneId":"NA","stopIndex":4,"stopSequence":5,"vertexType":"TRANSIT"},"to":{"name":"Destination","lon":-71.07761499,"lat":48.440318,"arrival":1522673685000,"orig":"","vertexType":"NORMAL"},"legGeometry":{"points":"e~sfHxsypLz@wA\\i@Z[Vc@DKy@wA_A}A","length":8},"rentedBike":false,"transitLeg":false,"duration":164.0,"steps":[{"distance":112.786,"relativeDirection":"DEPART","streetName":"Rue Roussel","absoluteDirection":"SOUTHEAST","stayOn":false,"area":false,"bogusName":false,"lon":-71.07916768756505,"lat":48.440198959612374,"elevation":[]},{"distance":96.106,"relativeDirection":"LEFT","streetName":"Rue Saint-Calixte","absoluteDirection":"NORTHEAST","stayOn":false,"area":false,"bogusName":false,"lon":-71.07813920000001,"lat":48.439451600000005,"elevation":[]}]}],"tooSloped":false}]},"debugOutput":{"precalculationTime":23,"pathCalculationTime":53,"pathTimes":[29,13,11],"renderingTime":0,"totalTime":76,"timedOut":false},"elevationMetadata":{"ellipsoidToGeoidDifference":-28.885904201182168,"geoidElevation":false}}