{"requestParameters":{"date":"2018/04/02","walkSpeed":"1.33","walkReluctance":"2.0","fromPlace":"48.440318,-71.07761499","maxWalkDistance":"3000","waitReluctance":"1.0","carSpeed":"33","numItineraries":"3","waitAtBeginningFactor":"0.4","mode":"TRANSIT,WALK","ignoreRealtimeUpdates":"false","stairsReluctance":"2.0","toPlace":"48.394814,-71.081985","time":"15:30:00"},"plan":{"date":1522697400000,"from":{"name":"Origin","lon":-71.07761499,"lat":48.440318,"orig":"","vertexType":"NORMAL"},"to":{"name":"Destination","lon":-71.081985,"lat":48.394814,"orig":"","vertexType":"NORMAL"},"itineraries":[{"duration":2265,"startTime":1522697571000,"endTime":1522699836000,"walkTime":320,"transitTime":1643,"waitingTime":302,"walkDistance":399.81984961954765,"walkLimitExceeded":false,"elevationLost":0.0,"elevationGained":0.0,"transfers":1,"legs":[{"startTime":1522697571000,"endTime":1522697699000,"departureDelay":0,"arrivalDelay":0,"realTime":false,"distance":161.855,"pathway":false,"mode":"WALK","route":"","agencyTimeZoneOffset":-14400000,"interlineWithPreviousLeg":false,"from":{"name":"Origin","lon":-71.07761499,"lat":48.440318,"departure":1522697571000,"orig":"","vertexType":"NORMAL"},"to":{"name":"Église Sainte-Anne (Roussel / Fabrique)","stopId":"1:701","stopCode":"701","lon":-71.078824,"lat":48.439832,"arrival":1522697699000,"departure":1522697700000,"zoneId":"NA","stopIndex":26,"stopSequence":27,"vertexType":"TRANSIT"},"legGeometry":{"points":"k}sfHtgypL~@|Ax@vAEJWb@[Z]h@","length":7},"rentedBike":false,"transitLeg":false,"duration":128.0,"steps":[{"distance":96.106,"relativeDirection":"DEPART","streetName":"Rue Saint-Calixte","absoluteDirection":"SOUTHWEST","stayOn":false,"area":false,"bogusName":false,"lon":-71.07722592641467,"lat":48.440067962211344,"elevation":[]},{"distance":65.749,"relativeDirection":"RIGHT","streetName":"Rue Roussel","absoluteDirection":"NORTHWEST","stayOn":false,"area":false,"bogusName":false,"lon":-71.07813920000001,"lat":48.439451600000005,"elevation":[]}]},{"startTime":1522697700000,"endTime":1522698000000,"departureDelay":0,"arrivalDelay":0,"realTime":false,"distance":2541.017793097814,"pathway":false,"mode":"BUS","route":"20","agencyName":"Société de Transport du Saguenay","agencyUrl":"http://ville.saguenay.ca/fr/services-aux-citoyens/transport-sts","agencyTimeZoneOffset":-14400000,"routeColor":"0000FF","routeType":3,"routeId":"1:20","routeTextColor":"FFFFFF","interlineWithPreviousLeg":false,"tripBlockId":"1","headsign":"Terminus Chicoutimi","agencyId":"0","tripId":"1:217147","serviceDate":"20180402","from":{"name":"Église Sainte-Anne (Roussel / Fabrique)","stopId":"1:701","stopCode":"701","lon":-71.078824,"lat":48.439832,"arrival":1522697699000,"departure":1522697700000,"zoneId":"NA","stopIndex":26,"stopSequence":27,"vertexType":"TRANSIT"},"to":{"name":"Terminus Chicoutimi","stopId":"1:1289","stopCode":"1289","lon":-71.066163,"lat":48.428677,"arrival":1522698000000,"departure":1522698300000,"zoneId":"NA","stopIndex":31,"stopSequence":32,"vertexType":"TRANSIT"},"legGeometry":{"points":"e|sfHdqypL^i@p@kAVc@\\cAr@eBv@aB|B_CJSDKLe@NeAJaAHeBBi@F{AaFe@c@IcDeAWtBOfAERGLIHIFMBa@NOQSOUGOCW?UFMHa@XUHQ?QIQOIM[g@rCmFhHqN~@eBr@cAt@_Av@}@RQPMz@k@tAe@REZG^Af@@X@VF`@Jn@XbClAr@Xt\\`PrAb@pA^hBTjAFj@Pb@JPHLLJNJRFXDT?X?ZEVEVKTMNMHMFOB}DWSGOSYcAN}FFkAF}DJyDPwGj@_QjAN~ALIpBGVITe@@","length":99},"routeShortName":"20","routeLongName":"Sainte-Claire","rentedBike":false,"transitLeg":true,"duration":300.0,"steps":[]},{"startTime":1522698300000,"endTime":1522699643000,"departureDelay":0,"arrivalDelay":0,"realTime":false,"distance":6450.1711084400995,"pathway":false,"mode":"BUS","route":"14","agencyName":"Société de Transport du Saguenay","agencyUrl":"http://ville.saguenay.ca/fr/services-aux-citoyens/transport-sts","agencyTimeZoneOffset":-14400000,"routeColor":"C0C000","routeType":3,"routeId":"1:14","routeTextColor":"000000","interlineWithPreviousLeg":false,"tripBlockId":"30","headsign":"Talbot / Barrette","agencyId":"0","tripId":"1:218105","serviceDate":"20180402","from":{"name":"Terminus Chicoutimi","stopId":"1:1289","stopCode":"1289","lon":-71.066163,"lat":48.428677,"arrival":1522698000000,"departure":1522698300000,"zoneId":"NA","stopIndex":0,"stopSequence":1,"vertexType":"TRANSIT"},"to":{"name":"Malraux / Mauriac","stopId":"1:1979","stopCode":"1979","lon":-71.082747,"lat":48.396652,"arrival":1522699643000,"departure":1522699644000,"zoneId":"NA","stopIndex":25,"stopSequence":26,"vertexType":"TRANSIT"},"legGeometry":{"points":"qvqfHnbwpLJkClLh@DsDTmSHwFB{I@m@@eBH_AF}A@w@Dq@@i@B}B@Y@e@D]F_@@SHQCKnBnBvIrIn@n@\\iATg@v@_ATg@LmABg@Is@c@iEAm@bAcDTcAtA{DJI|AxAvAvAQv@~@z@dA`ATq@`E~DL`@E`Ex@hDd@`B}FtFaAzAm@xAe@jCa@nDiAbm@SpKM`H]vBhDVzCTcAvCO^bEbEzK`LfBeEtK`KhAdAnCbCvBpCNR~BxAxBf@z@h@vAz@z@{DrCoITTlElEtAnB`@l@pFrD@?fDr@XgAjFuR\\yADm@b@gFd@_B`A}@tEvJBDvC`FtJ|LLNlClC|@^hCYVExCjCb@d@vE`F","length":102},"routeShortName":"14","routeLongName":"Coopérative","rentedBike":false,"transitLeg":true,"duration":1343.0,"steps":[]},{"startTime":1522699644000,"endTime":1522699836000,"departureDelay":0,"arrivalDelay":0,"realTime":false,"distance":237.82500000000002,"pathway":false,"mode":"WALK","route":"","agencyTimeZoneOffset":-14400000,"interlineWithPreviousLeg":false,"from":{"name":"Malraux / Mauriac","stopId":"1:1979","stopCode":"1979","lon":-71.082747,"lat":48.396652,"arrival":1522699643000,"departure":1522699644000,"zoneId":"NA","stopIndex":25,"stopSequence":26,"vertexType":"TRANSIT"},"to":{"name":"Destination","lon":-71.081985,"lat":48.394814,"arrival":1522699836000,"orig":"","vertexType":"NORMAL"},"legGeometry":{"points":"qmkfHbizpLNNdAiDtBvBnA_D","length":5},"rentedBike":false,"transitLeg":false,"duration":192.0,"steps":[{"distance":10.306,"relativeDirection":"DEPART","streetName":"Rue Malraux","absoluteDirection":"SOUTHWEST","stayOn":false,"area":false,"bogusName":false,"lon":-71.08257556801581,"lat":48.39657598034157,"elevation":[]},{"distance":74.421,"relativeDirection":"LEFT","streetName":"Rue Mauriac","absoluteDirection":"SOUTHEAST","stayOn":false,"area":false,"bogusName":false,"lon":-71.0826531,"lat":48.396498900000005,"elevation":[]},{"distance":79.18,"relativeDirection":"RIGHT","streetName":"Rue Rimbaud","absoluteDirection":"SOUTHWEST","stayOn":false,"area":false,"bogusName":false,"lon":-71.0818017,"lat":48.3961406,"elevation":[]},{"distance":73.918,"relativeDirection":"LEFT","streetName":"Rue Calvin","absoluteDirection":"SOUTHEAST","stayOn":false,"area":false,"bogusName":false,"lon":-71.08240860000001,"lat":48.395553500000005,"elevation":[]}]}],"tooSloped":false},{"duration":2265,"startTime":1522699371000,"endTime":1522701636000,"walkTime":320,"transitTime":1643,"waitingTime":302,"walkDistance":399.81984961954765,"walkLimitExceeded":false,"elevationLost":0.0,"elevationGained":0.0,"transfers":1,"legs":[{"startTime":1522699371000,"endTime":1522699499000,"departureDelay":0,"arrivalDelay":0,"realTime":false,"distance":161.855,"pathway":false,"mode":"WALK","route":"","agencyTimeZoneOffset":-14400000,"interlineWithPreviousLeg":false,"from":{"name":"Origin","lon":-71.07761499,"lat":48.440318,"departure":1522699371000,"orig":"","vertexType":"NORMAL"},"to":{"name":"Église Sainte-Anne (Roussel / Fabrique)","stopId":"1:701","stopCode":"701","lon":-71.078824,"lat":48.439832,"arrival":1522699499000,"departure":1522699500000,"zoneId":"NA","stopIndex":26,"stopSequence":27,"vertexType":"TRANSIT"},"legGeometry":{"points":"k}sfHtgypL~@|Ax@vAEJWb@[Z]h@","length":7},"rentedBike":false,"transitLeg":false,"duration":128.0,"steps":[{"distance":96.106,"relativeDirection":"DEPART","streetName":"Rue Saint-Calixte","absoluteDirection":"SOUTHWEST","stayOn":false,"area":false,"bogusName":false,"lon":-71.07722592641467,"lat":48.440067962211344,"elevation":[]},{"distance":65.749,"relativeDirection":"RIGHT","streetName":"Rue Roussel","absoluteDirection":"NORTHWEST","stayOn":false,"area":false,"bogusName":false,"lon":-71.07813920000001,"lat":48.439451600000005,"elevation":[]}]},{"startTime":1522699500000,"endTime":1522699800000,"departureDelay":0,"arrivalDelay":0,"realTime":false,"distance":2541.017793097814,"pathway":false,"mode":"BUS","route":"20","agencyName":"Société de Transport du Saguenay","agencyUrl":"http://ville.saguenay.ca/fr/services-aux-citoyens/transport-sts","agencyTimeZoneOffset":-14400000,"routeColor":"0000FF","routeType":3,"routeId":"1:20","routeTextColor":"FFFFFF","interlineWithPreviousLeg":false,"tripBlockId":"3","headsign":"Terminus Chicoutimi","agencyId":"0","tripId":"1:217205","serviceDate":"20180402","from":{"name":"Église Sainte-Anne (Roussel / Fabrique)","stopId":"1:701","stopCode":"701","lon":-71.078824,"lat":48.439832,"arrival":1522699499000,"departure":1522699500000,"zoneId":"NA","stopIndex":26,"stopSequence":27,"vertexType":"TRANSIT"},"to":{"name":"Terminus Chicoutimi","stopId":"1:1289","stopCode":"1289","lon":-71.066163,"lat":48.428677,"arrival":1522699800000,"departure":1522700100000,"zoneId":"NA","stopIndex":31,"stopSequence":32,"vertexType":"TRANSIT"},"legGeometry":{"points":"e|sfHdqypL^i@p@kAVc@\\cAr@eBv@aB|B_CJSDKLe@NeAJaAHeBBi@F{AaFe@c@IcDeAWtBOfAERGLIHIFMBa@NOQSOUGOCW?UFMHa@XUHQ?QIQOIM[g@rCmFhHqN~@eBr@cAt@_Av@}@RQPMz@k@tAe@REZG^Af@@X@VF`@Jn@XbClAr@Xt\\`PrAb@pA^hBTjAFj@Pb@JPHLLJNJRFXDT?X?ZEVEVKTMNMHMFOB}DWSGOSYcAN}FFkAF}DJyDPwGj@_QjAN~ALIpBGVITe@@","length":99},"routeShortName":"20","routeLongName":"Sainte-Claire","rentedBike":false,"transitLeg":true,"duration":300.0,"steps":[]},{"startTime":1522700100000,"endTime":1522701443000,"departureDelay":0,"arrivalDelay":0,"realTime":false,"distance":6450.1711084400995,"pathway":false,"mode":"BUS","route":"14","agencyName":"Société de Transport du Saguenay","agencyUrl":"http://ville.saguenay.ca/fr/services-aux-citoyens/transport-sts","agencyTimeZoneOffset":-14400000,"routeColor":"C0C000","routeType":3,"routeId":"1:14","routeTextColor":"000000","interlineWithPreviousLeg":false,"tripBlockId":"32","headsign":"Talbot / Barrette","agencyId":"0","tripId":"1:218166","serviceDate":"20180402","from":{"name":"Terminus Chicoutimi","stopId":"1:1289","stopCode":"1289","lon":-71.066163,"lat":48.428677,"arrival":1522699800000,"departure":1522700100000,"zoneId":"NA","stopIndex":0,"stopSequence":1,"vertexType":"TRANSIT"},"to":{"name":"Malraux / Mauriac","stopId":"1:1979","stopCode":"1979","lon":-71.082747,"lat":48.396652,"arrival":1522701443000,"departure":1522701444000,"zoneId":"NA","stopIndex":25,"stopSequence":26,"vertexType":"TRANSIT"},"legGeometry":{"points":"qvqfHnbwpLJkClLh@DsDTmSHwFB{I@m@@eBH_AF}A@w@Dq@@i@B}B@Y@e@D]F_@@SHQCKnBnBvIrIn@n@\\iATg@v@_ATg@LmABg@Is@c@iEAm@bAcDTcAtA{DJI|AxAvAvAQv@~@z@dA`ATq@`E~DL`@E`Ex@hDd@`B}FtFaAzAm@xAe@jCa@nDiAbm@SpKM`H]vBhDVzCTcAvCO^bEbEzK`LfBeEtK`KhAdAnCbCvBpCNR~BxAxBf@z@h@vAz@z@{DrCoITTlElEtAnB`@l@pFrD@?fDr@XgAjFuR\\yADm@b@gFd@_B`A}@tEvJBDvC`FtJ|LLNlClC|@^hCYVExCjCb@d@vE`F","length":102},"routeShortName":"14","routeLongName":"Coopérative","rentedBike":false,"transitLeg":true,"duration":1343.0,"steps":[]},{"startTime":1522701444000,"endTime":1522701636000,"departureDelay":0,"arrivalDelay":0,"realTime":false,"distance":237.82500000000002,"pathway":false,"mode":"WALK","route":"","agencyTimeZoneOffset":-14400000,"interlineWithPreviousLeg":false,"from":{"name":"Malraux / Mauriac","stopId":"1:1979","stopCode":"1979","lon":-71.082747,"lat":48.396652,"arrival":1522701443000,"departure":1522701444000,"zoneId":"NA","stopIndex":25,"stopSequence":26,"vertexType":"TRANSIT"},"to":{"name":"Destination","lon":-71.081985,"lat":48.394814,"arrival":1522701636000,"orig":"","vertexType":"NORMAL"},"legGeometry":{"points":"qmkfHbizpLNNdAiDtBvBnA_D","length":5},"rentedBike":false,"transitLeg":false,"duration":192.0,"steps":[{"distance":10.306,"relativeDirection":"DEPART","streetName":"Rue Malraux","absoluteDirection":"SOUTHWEST","stayOn":false,"area":false,"bogusName":false,"lon":-71.08257556801581,"lat":48.39657598034157,"elevation":[]},{"distance":74.421,"relativeDirection":"LEFT","streetName":"Rue Mauriac","absoluteDirection":"SOUTHEAST","stayOn":false,"area":false,"bogusName":false,"lon":-71.0826531,"lat":48.396498900000005,"elevation":[]},{"distance":79.18,"relativeDirection":"RIGHT","streetName":"Rue Rimbaud","absoluteDirection":"SOUTHWEST","stayOn":false,"area":false,"bogusName":false,"lon":-71.0818017,"lat":48.3961406,"elevation":[]},{"distance":73.918,"relativeDirection":"LEFT","streetName":"Rue Calvin","absoluteDirection":"SOUTHEAST","stayOn":false,"area":false,"bogusName":false,"lon":-71.08240860000001,"lat":48.395553500000005,"elevation":[]}]}],"tooSloped":false},{"duration":3009,"startTime":1522699127000,"endTime":1522702136000,"walkTime":621,"transitTime":2086,"waitingTime":302,"walkDistance":785.0901503691591,"walkLimitExceeded":false,"elevationLost":0.0,"elevationGained":0.0,"transfers":1,"legs":[{"startTime":1522699127000,"endTime":1522699559000,"departureDelay":0,"arrivalDelay":0,"realTime":false,"distance":551.2280000000001,"pathway":false,"mode":"WALK","route":"","agencyTimeZoneOffset":-14400000,"interlineWithPreviousLeg":false,"from":{"name":"Origin","lon":-71.07761499,"lat":48.440318,"departure":1522699127000,"orig":"","vertexType":"NORMAL"},"to":{"name":"boul. Ste-Geneviève (no. 453)","stopId":"1:736","stopCode":"736","lon":-71.0749,"lat":48.4422,"arrival":1522699559000,"departure":1522699560000,"zoneId":"NA","stopIndex":32,"stopSequence":33,"vertexType":"TRANSIT"},"legGeometry":{"points":"k}sfHtgypLGK?M@MDKzAqAbAi@][II_AwAGOO[Uc@KUOe@{@cCQE{@OcAn@o@F[MMO_@c@sAhC","length":24},"rentedBike":false,"transitLeg":false,"duration":432.0,"steps":[{"distance":11.471,"relativeDirection":"DEPART","streetName":"Rue Saint-Calixte","absoluteDirection":"EAST","stayOn":false,"area":false,"bogusName":false,"lon":-71.07722592641467,"lat":48.440067962211344,"elevation":[]},{"distance":110.843,"relativeDirection":"RIGHT","streetName":"Rue Frontenac","absoluteDirection":"EAST","stayOn":false,"area":false,"bogusName":false,"lon":-71.0770979,"lat":48.4401002,"elevation":[]},{"distance":360.163,"relativeDirection":"HARD_LEFT","streetName":"Rue des Champs","absoluteDirection":"NORTHEAST","stayOn":false,"area":false,"bogusName":false,"lon":-71.0763494,"lat":48.4392658,"elevation":[]},{"distance":68.751,"relativeDirection":"LEFT","streetName":"Boulevard Sainte-Geneviève","absoluteDirection":"NORTHWEST","stayOn":false,"area":false,"bogusName":false,"lon":-71.07419630000001,"lat":48.441794200000004,"elevation":[]}]},{"startTime":1522699560000,"endTime":1522699800000,"departureDelay":0,"arrivalDelay":0,"realTime":false,"distance":1742.5227930095011,"pathway":false,"mode":"BUS","route":"21","agencyName":"Société de Transport du Saguenay","agencyUrl":"http://ville.saguenay.ca/fr/services-aux-citoyens/transport-sts","agencyTimeZoneOffset":-14400000,"routeColor":"556B2F","routeType":3,"routeId":"1:21","routeTextColor":"FFFFFF","interlineWithPreviousLeg":false,"tripBlockId":"2","headsign":"Terminus Chicoutimi","agencyId":"0","tripId":"1:217174","serviceDate":"20180402","from":{"name":"boul. Ste-Geneviève (no. 453)","stopId":"1:736","stopCode":"736","lon":-71.0749,"lat":48.4422,"arrival":1522699559000,"departure":1522699560000,"zoneId":"NA","stopIndex":32,"stopSequence":33,"vertexType":"TRANSIT"},"to":{"name":"Terminus Chicoutimi","stopId":"1:1289","stopCode":"1289","lon":-71.066163,"lat":48.428677,"arrival":1522699800000,"departure":1522700100000,"zoneId":"NA","stopIndex":34,"stopSequence":35,"vertexType":"TRANSIT"},"legGeometry":{"points":"yjtfH`yxpLxAsCrCmFhHqN~@eBr@cAt@_Av@}@RQPMz@k@tAe@REZG^Af@@X@VF`@Jn@XbClAr@Xt\\`PrAb@pA^hBTjAFj@Pb@JPHLLJNJRFXDT?X?ZEVEVKTMNMHMFOB}DWSGOSYcAN}FFkAF}DJyDPwGvAHVyL","length":55},"routeShortName":"21","routeLongName":"Boul. Ste-Geneviève/Élie","rentedBike":false,"transitLeg":true,"duration":240.0,"steps":[]},{"startTime":1522700100000,"endTime":1522701720000,"departureDelay":0,"arrivalDelay":0,"realTime":false,"distance":8780.793308460485,"pathway":false,"mode":"BUS","route":"15","agencyName":"Société de Transport du Saguenay","agencyUrl":"http://ville.saguenay.ca/fr/services-aux-citoyens/transport-sts","agencyTimeZoneOffset":-14400000,"routeColor":"FF00FF","routeType":3,"routeId":"1:15","routeTextColor":"FFFFFF","interlineWithPreviousLeg":false,"tripBlockId":"33","headsign":"Talbot / Barrette","agencyId":"0","tripId":"1:218191","serviceDate":"20180402","from":{"name":"Terminus Chicoutimi","stopId":"1:1289","stopCode":"1289","lon":-71.066163,"lat":48.428677,"arrival":1522699800000,"departure":1522700100000,"zoneId":"NA","stopIndex":0,"stopSequence":1,"vertexType":"TRANSIT"},"to":{"name":"Roitelets / Sapins","stopId":"1:1543","stopCode":"1543","lon":-71.069553,"lat":48.393375,"arrival":1522701720000,"departure":1522701720000,"zoneId":"NA","stopIndex":35,"stopSequence":36,"vertexType":"TRANSIT"},"legGeometry":{"points":"evqfHpbwpLPiCjKx@HiEZkS\\aSN_K^eIrBpBvIpIr@r@\\mBfAaA`@gBOkB_@uF|DyL|DpDQ|@|@z@bA`ATw@dD~Ch@fA@`E~AjGuH`Iy@bBi@dCbEdEjJlJ`HbHlJpJ|J~JdAfALzDNzDrAdBrEKvBEbCv@d@TvFlC|DlBpMlGrB`AM}@hAwEC{B]oBiBmBsH_@_K{H`EgIvCaGfEoItDsH~DeItC{FnBoLbCaO?qLa@uJzF`ApF~@~@PzAgEeDcBf@qAWcKUqEx@Ef@ExDVjDxAFBrBvAfGjG@BjCzC~DxC@@zA~Cb@fCJlC?BsBre@?DWbOAn@?nEGnM@H\\hCzA~ELvAAlAi@jDo@nB","length":99},"routeShortName":"15","routeLongName":"Term. Chic / Costco","rentedBike":false,"transitLeg":true,"duration":1620.0,"steps":[]},{"startTime":1522701720000,"endTime":1522701946000,"departureDelay":0,"arrivalDelay":0,"realTime":false,"distance":3045.430472790684,"pathway":false,"mode":"BUS","route":"14","agencyName":"Société de Transport du Saguenay","agencyUrl":"http://ville.saguenay.ca/fr/services-aux-citoyens/transport-sts","agencyTimeZoneOffset":-14400000,"routeColor":"C0C000","routeType":3,"routeId":"1:14","routeTextColor":"000000","interlineWithPreviousLeg":true,"tripBlockId":"33","headsign":"Terminus Chicoutimi","agencyId":"0","tripId":"1:218192","serviceDate":"20180402","from":{"name":"Roitelets / Sapins","stopId":"1:1513","stopCode":"1513","lon":-71.069396,"lat":48.393523,"arrival":1522701720000,"departure":1522701720000,"zoneId":"NA","stopIndex":0,"stopSequence":1,"vertexType":"TRANSIT"},"to":{"name":"Malraux / Mauriac","stopId":"1:446","stopCode":"446","lon":-71.08268,"lat":48.396442,"arrival":1522701946000,"departure":1522701947000,"zoneId":"NA","stopIndex":10,"stopSequence":11,"vertexType":"TRANSIT"},"legGeometry":{"points":"azjfHfwwpLiEfLuBzFsAnDgGzSWfAcD`Mi@dCgChLmCzMwGd\\aDxOdFtFhCtCdDY|F_On@aB`B_GNoBvAyT|@sNuAyA","length":22},"routeShortName":"14","routeLongName":"Coopérative","rentedBike":false,"transitLeg":true,"duration":226.0,"steps":[]},{"startTime":1522701947000,"endTime":1522702136000,"departureDelay":0,"arrivalDelay":0,"realTime":false,"distance":233.65200000000002,"pathway":false,"mode":"WALK","route":"","agencyTimeZoneOffset":-14400000,"interlineWithPreviousLeg":false,"from":{"name":"Malraux / Mauriac","stopId":"1:446","stopCode":"446","lon":-71.08268,"lat":48.396442,"arrival":1522701946000,"departure":1522701947000,"zoneId":"NA","stopIndex":10,"stopSequence":11,"vertexType":"TRANSIT"},"to":{"name":"Destination","lon":-71.081985,"lat":48.394814,"arrival":1522702136000,"orig":"","vertexType":"NORMAL"},"legGeometry":{"points":"ylkfH|izpLGIdAiDtBvBnA_D","length":5},"rentedBike":false,"transitLeg":false,"duration":189.0,"steps":[{"distance":6.133,"relativeDirection":"DEPART","streetName":"Rue Malraux","absoluteDirection":"NORTHEAST","stayOn":false,"area":false,"bogusName":false,"lon":-71.08270626503317,"lat":48.3964565289992,"elevation":[]},{"distance":74.421,"relativeDirection":"RIGHT","streetName":"Rue Mauriac","absoluteDirection":"SOUTHEAST","stayOn":false,"area":false,"bogusName":false,"lon":-71.0826531,"lat":48.396498900000005,"elevation":[]},{"distance":79.18,"relativeDirection":"RIGHT","streetName":"Rue Rimbaud","absoluteDirection":"SOUTHWEST","stayOn":false,"area":false,"bogusName":false,"lon":-71.0818017,"lat":48.3961406,"elevation":[]},{"distance":73.918,"relativeDirection":"LEFT","streetName":"Rue Calvin","absoluteDirection":"SOUTHEAST","stayOn":false,"area":false,"bogusName":false,"lon":-71.08240860000001,"lat":48.395553500000005,"elevation":[]}]}],"tooSloped":false}]},"debugOutput":{"precalculationTime":22,"pathCalculationTime":33,"pathTimes":[19,6,8],"renderingTime":0,"totalTime":55,"timedOut":false},"elevationMetadata":{"ellipsoidToGeoidDifference":-28.885904201182168,"geoidElevation":false}}