{"requestParameters":{"date":"2018/04/02","walkSpeed":"1.33","walkReluctance":"2.0","fromPlace":"48.401061,-71.071953","maxWalkDistance":"3000","waitReluctance":"1.0","carSpeed":"33","numItineraries":"3","waitAtBeginningFactor":"0.4","mode":"TRANSIT,WALK","ignoreRealtimeUpdates":"false","stairsReluctance":"2.0","toPlace":"48.406351,-71.05878699","time":"9:15:00"},"plan":{"date":1522674900000,"from":{"name":"Origin","lon":-71.071953,"lat":48.401061,"orig":"","vertexType":"NORMAL"},"to":{"name":"Destination","lon":-71.05878699,"lat":48.406351,"orig":"","vertexType":"NORMAL"},"itineraries":[{"duration":1287,"startTime":1522675188000,"endTime":1522676475000,"walkTime":970,"transitTime":315,"waitingTime":2,"walkDistance":1249.3333608975972,"walkLimitExceeded":false,"elevationLost":0.0,"elevationGained":0.0,"transfers":0,"legs":[{"startTime":1522675188000,"endTime":1522675843000,"departureDelay":0,"arrivalDelay":0,"realTime":false,"distance":840.6320000000001,"pathway":false,"mode":"WALK","route":"","agencyTimeZoneOffset":-14400000,"interlineWithPreviousLeg":false,"from":{"name":"Origin","lon":-71.071953,"lat":48.401061,"departure":1522675188000,"orig":"","vertexType":"NORMAL"},"to":{"name":"Angoulême / Bégin","stopId":"1:536","stopCode":"536","lon":-71.073862,"lat":48.405153,"arrival":1522675843000,"departure":1522675844000,"zoneId":"NA","stopIndex":18,"stopSequence":19,"vertexType":"TRANSIT"},"legGeometry":{"points":"}ilfHtgxpLoAs@cAtDg@|Bl@bDB~@C`@M^{@dCk@zAc@bAy@bAMNe@{@gA}BwAyC_AmBIUYs@CqAyBBQ@","length":22},"rentedBike":false,"transitLeg":false,"duration":655.0,"steps":[{"distance":48.663,"relativeDirection":"DEPART","streetName":"Rue Des Gouverneurs","absoluteDirection":"NORTHEAST","stayOn":false,"area":false,"bogusName":false,"lon":-71.072108,"lat":48.401116,"elevation":[]},{"distance":429.34800000000007,"relativeDirection":"LEFT","streetName":"Rue Saint-Urbain","absoluteDirection":"NORTHWEST","stayOn":false,"area":false,"bogusName":false,"lon":-71.0718464,"lat":48.40151770000001,"elevation":[]},{"distance":285.025,"relativeDirection":"RIGHT","streetName":"Rue Bégin","absoluteDirection":"NORTHEAST","stayOn":false,"area":false,"bogusName":false,"lon":-71.0767486,"lat":48.402957,"elevation":[]},{"distance":77.596,"relativeDirection":"LEFT","streetName":"Rue d'Angoulème","absoluteDirection":"NORTH","stayOn":false,"area":false,"bogusName":false,"lon":-71.0737143,"lat":48.404464100000006,"elevation":[]}]},{"startTime":1522675844000,"endTime":1522676159000,"departureDelay":0,"arrivalDelay":0,"realTime":false,"distance":1177.5851058855465,"pathway":false,"mode":"BUS","route":"15","agencyName":"Société de Transport du Saguenay","agencyUrl":"http://ville.saguenay.ca/fr/services-aux-citoyens/transport-sts","agencyTimeZoneOffset":-14400000,"routeColor":"FF00FF","routeType":3,"routeId":"1:15","routeTextColor":"FFFFFF","interlineWithPreviousLeg":false,"tripBlockId":"33","headsign":"Talbot / Barrette","agencyId":"0","tripId":"1:218177","serviceDate":"20180402","from":{"name":"Angoulême / Bégin","stopId":"1:536","stopCode":"536","lon":-71.073862,"lat":48.405153,"arrival":1522675843000,"departure":1522675844000,"zoneId":"NA","stopIndex":18,"stopSequence":19,"vertexType":"TRANSIT"},"to":{"name":"Saguenéens  / Bach","stopId":"1:575","stopCode":"575","lon":-71.061104,"lat":48.403689,"arrival":1522676159000,"departure":1522676160000,"zoneId":"NA","stopIndex":23,"stopSequence":24,"vertexType":"TRANSIT"},"legGeometry":{"points":"mbmfHtoxpLrB`AM}@hAwEC{B]oBiBmBsH_@_K{H`EgIvCaGfEoItDsH~DeI","length":14},"routeShortName":"15","routeLongName":"Term. Chic / Costco","rentedBike":false,"transitLeg":true,"duration":315.0,"steps":[]},{"startTime":1522676160000,"endTime":1522676475000,"departureDelay":0,"arrivalDelay":0,"realTime":false,"distance":408.557,"pathway":false,"mode":"WALK","route":"","agencyTimeZoneOffset":-14400000,"interlineWithPreviousLeg":false,"from":{"name":"Saguenéens  / Bach","stopId":"1:575","stopCode":"575","lon":-71.061104,"lat":48.403689,"arrival":1522676159000,"departure":1522676160000,"zoneId":"NA","stopIndex":23,"stopSequence":24,"vertexType":"TRANSIT"},"to":{"name":"Destination","lon":-71.05878699,"lat":48.406351,"arrival":1522676475000,"orig":"","vertexType":"NORMAL"},"legGeometry":{"points":"wylfHfcvpLgAnC}EuEeE}Dw@q@k@g@","length":6},"rentedBike":false,"transitLeg":false,"duration":315.0,"steps":[{"distance":66.956,"relativeDirection":"DEPART","streetName":"Rue des Saguenéens","absoluteDirection":"NORTHWEST","stayOn":false,"area":false,"bogusName":false,"lon":-71.0611521754673,"lat":48.403646208471976,"elevation":[]},{"distance":341.601,"relativeDirection":"RIGHT","streetName":"Rue Bach","absoluteDirection":"NORTHEAST","stayOn":false,"area":false,"bogusName":false,"lon":-71.06187870000001,"lat":48.404006700000004,"elevation":[]}]}],"tooSloped":false},{"duration":1744,"startTime":1522674900000,"endTime":1522676644000,"walkTime":1744,"transitTime":0,"waitingTime":0,"walkDistance":2241.0434511171575,"walkLimitExceeded":false,"elevationLost":0.0,"elevationGained":0.0,"transfers":0,"legs":[{"startTime":1522674900000,"endTime":1522676644000,"departureDelay":0,"arrivalDelay":0,"realTime":false,"distance":2240.713,"pathway":false,"mode":"WALK","route":"","agencyTimeZoneOffset":-14400000,"interlineWithPreviousLeg":false,"from":{"name":"Origin","lon":-71.071953,"lat":48.401061,"departure":1522674900000,"orig":"","vertexType":"NORMAL"},"to":{"name":"Destination","lon":-71.05878699,"lat":48.406351,"arrival":1522676644000,"orig":"","vertexType":"NORMAL"},"legGeometry":{"points":"}ilfHtgxpLoAs@cAtDg@|Bl@bDB~@C`@M^{@dCk@zAc@bAy@bAMNe@{@gA}BwAyC_AmBIUYs@CqAAw@~@aF?C@cBOmAY{@o@}@q@Ss@Uw@EN_D@YLY@CbAmC`@gAl@{ADOFQnAoEzAqGs@[CCaBu@}BaAGEOIiAaDcBmFPe@`CmGNa@eE}Dw@q@k@g@","length":55},"rentedBike":false,"transitLeg":false,"duration":1744.0,"steps":[{"distance":48.663,"relativeDirection":"DEPART","streetName":"Rue Des Gouverneurs","absoluteDirection":"NORTHEAST","stayOn":false,"area":false,"bogusName":false,"lon":-71.072108,"lat":48.401116,"elevation":[]},{"distance":429.34800000000007,"relativeDirection":"LEFT","streetName":"Rue Saint-Urbain","absoluteDirection":"NORTHWEST","stayOn":false,"area":false,"bogusName":false,"lon":-71.0718464,"lat":48.40151770000001,"elevation":[]},{"distance":616.942,"relativeDirection":"RIGHT","streetName":"Rue Bégin","absoluteDirection":"NORTHEAST","stayOn":false,"area":false,"bogusName":false,"lon":-71.0767486,"lat":48.402957,"elevation":[]},{"distance":439.661,"relativeDirection":"RIGHT","streetName":"Rue Des Jésuites","absoluteDirection":"EAST","stayOn":false,"area":false,"bogusName":false,"lon":-71.07054690000001,"lat":48.4053844,"elevation":[]},{"distance":511.249,"relativeDirection":"LEFT","streetName":"Rue Des Maristes","absoluteDirection":"NORTH","stayOn":false,"area":false,"bogusName":false,"lon":-71.06535930000001,"lat":48.403545,"elevation":[]},{"distance":194.85000000000002,"relativeDirection":"LEFT","streetName":"Rue Bach","absoluteDirection":"NORTHEAST","stayOn":false,"area":false,"bogusName":false,"lon":-71.06080990000001,"lat":48.405119500000005,"elevation":[]}]}],"tooSloped":false},{"duration":1531,"startTime":1522675770000,"endTime":1522677301000,"walkTime":727,"transitTime":802,"waitingTime":2,"walkDistance":930.1721503707722,"walkLimitExceeded":false,"elevationLost":0.0,"elevationGained":0.0,"transfers":0,"legs":[{"startTime":1522675770000,"endTime":1522676182000,"departureDelay":0,"arrivalDelay":0,"realTime":false,"distance":521.455,"pathway":false,"mode":"WALK","route":"","agencyTimeZoneOffset":-14400000,"interlineWithPreviousLeg":false,"from":{"name":"Origin","lon":-71.071953,"lat":48.401061,"departure":1522675770000,"orig":"","vertexType":"NORMAL"},"to":{"name":"Bégin / Château Richer","stopId":"1:1982","stopCode":"1982","lon":-71.076545,"lat":48.403266,"arrival":1522676182000,"departure":1522676183000,"zoneId":"NA","stopIndex":21,"stopSequence":22,"vertexType":"TRANSIT"},"legGeometry":{"points":"}ilfHtgxpLoAs@cAtDg@|Bl@bDB~@C`@M^{@dCk@zAc@bAy@bAMNe@{@K^","length":15},"rentedBike":false,"transitLeg":false,"duration":412.0,"steps":[{"distance":48.663,"relativeDirection":"DEPART","streetName":"Rue Des Gouverneurs","absoluteDirection":"NORTHEAST","stayOn":false,"area":false,"bogusName":false,"lon":-71.072108,"lat":48.401116,"elevation":[]},{"distance":429.34800000000007,"relativeDirection":"LEFT","streetName":"Rue Saint-Urbain","absoluteDirection":"NORTHWEST","stayOn":false,"area":false,"bogusName":false,"lon":-71.0718464,"lat":48.40151770000001,"elevation":[]},{"distance":30.161,"relativeDirection":"RIGHT","streetName":"Rue Bégin","absoluteDirection":"NORTHEAST","stayOn":false,"area":false,"bogusName":false,"lon":-71.0767486,"lat":48.402957,"elevation":[]},{"distance":13.283,"relativeDirection":"LEFT","streetName":"Rue Château-Richer","absoluteDirection":"NORTHWEST","stayOn":false,"area":false,"bogusName":false,"lon":-71.0764477,"lat":48.403140500000006,"elevation":[]}]},{"startTime":1522676183000,"endTime":1522676460000,"departureDelay":0,"arrivalDelay":0,"realTime":false,"distance":3873.0265476426002,"pathway":false,"mode":"BUS","route":"14","agencyName":"Société de Transport du Saguenay","agencyUrl":"http://ville.saguenay.ca/fr/services-aux-citoyens/transport-sts","agencyTimeZoneOffset":-14400000,"routeColor":"C0C000","routeType":3,"routeId":"1:14","routeTextColor":"000000","interlineWithPreviousLeg":false,"tripBlockId":"32","headsign":"Talbot / Barrette","agencyId":"0","tripId":"1:218152","serviceDate":"20180402","from":{"name":"Bégin / Château Richer","stopId":"1:1982","stopCode":"1982","lon":-71.076545,"lat":48.403266,"arrival":1522676182000,"departure":1522676183000,"zoneId":"NA","stopIndex":21,"stopSequence":22,"vertexType":"TRANSIT"},"to":{"name":"Roitelets / Sapins","stopId":"1:1543","stopCode":"1543","lon":-71.069553,"lat":48.393375,"arrival":1522676460000,"departure":1522676460000,"zoneId":"NA","stopIndex":35,"stopSequence":36,"vertexType":"TRANSIT"},"legGeometry":{"points":"yvlfHtbypLBDvC`FtJ|LLNlClC|@^hCYVExCjCb@d@vE`F`BhB?pHaBhRqAbLK~@qBxFqB|FcC~GyC\\aDkDcFsF~CgOtGm[j@oCvEoSl@_CxCmLjAeFpCeKrByHfAqCvH_SLa@","length":35},"routeShortName":"14","routeLongName":"Coopérative","rentedBike":false,"transitLeg":true,"duration":277.0,"steps":[]},{"startTime":1522676460000,"endTime":1522676985000,"departureDelay":0,"arrivalDelay":0,"realTime":false,"distance":3436.004619603621,"pathway":false,"mode":"BUS","route":"15","agencyName":"Société de Transport du Saguenay","agencyUrl":"http://ville.saguenay.ca/fr/services-aux-citoyens/transport-sts","agencyTimeZoneOffset":-14400000,"routeColor":"FF00FF","routeType":3,"routeId":"1:15","routeTextColor":"FFFFFF","interlineWithPreviousLeg":true,"tripBlockId":"32","headsign":"Terminus Chicoutimi","agencyId":"0","tripId":"1:218153","serviceDate":"20180402","from":{"name":"Roitelets / Sapins","stopId":"1:1543","stopCode":"1543","lon":-71.069553,"lat":48.393375,"arrival":1522676460000,"departure":1522676460000,"zoneId":"NA","stopIndex":0,"stopSequence":1,"vertexType":"TRANSIT"},"to":{"name":"Saguenéens  / Bach","stopId":"1:575","stopCode":"575","lon":-71.061104,"lat":48.403689,"arrival":1522676985000,"departure":1522676986000,"zoneId":"NA","stopIndex":12,"stopSequence":13,"vertexType":"TRANSIT"},"legGeometry":{"points":"_zjfHfwwpLx@}BHa@NaADq@@y@Cy@I{@Ka@O[Sg@c@mAWwAMyA?EC]?wABuABmFB{@BmDFuH@i@F[FsC@c@TuGEGVsHPuDLuBXsFDoA?W@]Cu@GcAKu@Q_ASo@a@y@a@o@MOUUeCqBiDsDqE{EiAcAcB_AqBgA_AQaBSaBG_@Bu@FG?h@fNKnDpCfBkAzDgA}@y@q@sDy@GAeGT~@~KKrKyAnL[hBUxAm@nCcAlDeCvG","length":73},"routeShortName":"15","routeLongName":"Term. Chic / Costco","rentedBike":false,"transitLeg":true,"duration":525.0,"steps":[]},{"startTime":1522676986000,"endTime":1522677301000,"departureDelay":0,"arrivalDelay":0,"realTime":false,"distance":408.557,"pathway":false,"mode":"WALK","route":"","agencyTimeZoneOffset":-14400000,"interlineWithPreviousLeg":false,"from":{"name":"Saguenéens  / Bach","stopId":"1:575","stopCode":"575","lon":-71.061104,"lat":48.403689,"arrival":1522676985000,"departure":1522676986000,"zoneId":"NA","stopIndex":12,"stopSequence":13,"vertexType":"TRANSIT"},"to":{"name":"Destination","lon":-71.05878699,"lat":48.406351,"arrival":1522677301000,"orig":"","vertexType":"NORMAL"},"legGeometry":{"points":"wylfHfcvpLgAnC}EuEeE}Dw@q@k@g@","length":6},"rentedBike":false,"transitLeg":false,"duration":315.0,"steps":[{"distance":66.956,"relativeDirection":"DEPART","streetName":"Rue des Saguenéens","absoluteDirection":"NORTHWEST","stayOn":false,"area":false,"bogusName":false,"lon":-71.0611521754673,"lat":48.403646208471976,"elevation":[]},{"distance":341.601,"relativeDirection":"RIGHT","streetName":"Rue Bach","absoluteDirection":"NORTHEAST","stayOn":false,"area":false,"bogusName":false,"lon":-71.06187870000001,"lat":48.404006700000004,"elevation":[]}]}],"tooSloped":false}]},"debugOutput":{"precalculationTime":58,"pathCalculationTime":32,"pathTimes":[20,6,6],"renderingTime":1,"totalTime":91,"timedOut":false},"elevationMetadata":{"ellipsoidToGeoidDifference":-28.885904201182168,"geoidElevation":false}}