{"requestParameters":{"date":"2018/04/02","walkSpeed":"1.33","walkReluctance":"2.0","fromPlace":"48.406174,-71.06730899","maxWalkDistance":"3000","waitReluctance":"1.0","carSpeed":"33","numItineraries":"3","waitAtBeginningFactor":"0.4","mode":"TRANSIT,WALK","ignoreRealtimeUpdates":"false","stairsReluctance":"2.0","toPlace":"48.401326,-71.07101","time":"16:55:00"},"plan":{"date":1522702500000,"from":{"name":"Origin","lon":-71.06730899,"lat":48.406174,"orig":"","vertexType":"NORMAL"},"to":{"name":"Destination","lon":-71.07101,"lat":48.401326,"orig":"","vertexType":"NORMAL"},"itineraries":[{"duration":1187,"startTime":1522702500000,"endTime":1522703687000,"walkTime":1187,"transitTime":0,"waitingTime":0,"walkDistance":1524.0467518716084,"walkLimitExceeded":false,"elevationLost":0.0,"elevationGained":0.0,"transfers":0,"legs":[{"startTime":1522702500000,"endTime":1522703687000,"departureDelay":0,"arrivalDelay":0,"realTime":false,"distance":1523.796,"pathway":false,"mode":"WALK","route":"","agencyTimeZoneOffset":-14400000,"interlineWithPreviousLeg":false,"from":{"name":"Origin","lon":-71.06730899,"lat":48.406174,"departure":1522702500000,"orig":"","vertexType":"NORMAL"},"to":{"name":"Destination","lon":-71.07101,"lat":48.401326,"arrival":1522703687000,"orig":"","vertexType":"NORMAL"},"legGeometry":{"points":"ikmfHxgwpLq@jBlJpFcAlCABMXAXO~Cv@Dr@Tp@Rn@|@Xz@NlAAbB?B_A`F@v@BpAXr@HT~@lBvAxCfA|Bd@z@LOx@cAb@cAj@{Az@eCL_@Ba@C_Am@cDf@}BbAuDLg@`@iAJO","length":39},"rentedBike":false,"transitLeg":false,"duration":1187.0,"steps":[{"distance":48.362,"relativeDirection":"DEPART","streetName":"Rue Louis-Francoeur","absoluteDirection":"NORTHWEST","stayOn":false,"area":false,"bogusName":false,"lon":-71.06700976138976,"lat":48.406452103888526,"elevation":[]},{"distance":222.016,"relativeDirection":"LEFT","streetName":"Rue Jean Bourdon","absoluteDirection":"SOUTHWEST","stayOn":false,"area":false,"bogusName":false,"lon":-71.0675429,"lat":48.4067049,"elevation":[]},{"distance":148.098,"relativeDirection":"RIGHT","streetName":"Rue Des Jésuites","absoluteDirection":"NORTHWEST","stayOn":false,"area":false,"bogusName":false,"lon":-71.068752,"lat":48.4048767,"elevation":[]},{"distance":616.942,"relativeDirection":"LEFT","streetName":"Rue Bégin","absoluteDirection":"SOUTH","stayOn":false,"area":false,"bogusName":false,"lon":-71.07054690000001,"lat":48.4053844,"elevation":[]},{"distance":488.37800000000004,"relativeDirection":"LEFT","streetName":"Rue Saint-Urbain","absoluteDirection":"SOUTHEAST","stayOn":false,"area":false,"bogusName":false,"lon":-71.0767486,"lat":48.402957,"elevation":[]}]}],"tooSloped":false},{"duration":1266,"startTime":1522702909000,"endTime":1522704175000,"walkTime":490,"transitTime":774,"waitingTime":2,"walkDistance":629.616338343111,"walkLimitExceeded":false,"elevationLost":0.0,"elevationGained":0.0,"transfers":0,"legs":[{"startTime":1522702909000,"endTime":1522703033000,"departureDelay":0,"arrivalDelay":0,"realTime":false,"distance":151.21999999999997,"pathway":false,"mode":"WALK","route":"","agencyTimeZoneOffset":-14400000,"interlineWithPreviousLeg":false,"from":{"name":"Origin","lon":-71.06730899,"lat":48.406174,"departure":1522702909000,"orig":"","vertexType":"NORMAL"},"to":{"name":"Saguenéens (no. 129)","stopId":"1:2000","stopCode":"2000","lon":-71.067064,"lat":48.407463,"arrival":1522703033000,"departure":1522703034000,"zoneId":"NA","stopIndex":19,"stopSequence":20,"vertexType":"TRANSIT"},"legGeometry":{"points":"ikmfHxgwpLq@jBsBcCELQ`@","length":5},"rentedBike":false,"transitLeg":false,"duration":124.0,"steps":[{"distance":48.362,"relativeDirection":"DEPART","streetName":"Rue Louis-Francoeur","absoluteDirection":"NORTHWEST","stayOn":false,"area":false,"bogusName":false,"lon":-71.06700976138976,"lat":48.406452103888526,"elevation":[]},{"distance":80.88,"relativeDirection":"RIGHT","streetName":"path","absoluteDirection":"NORTHEAST","stayOn":false,"area":false,"bogusName":true,"lon":-71.0675429,"lat":48.4067049,"elevation":[]},{"distance":21.978,"relativeDirection":"LEFT","streetName":"Rue des Saguenéens","absoluteDirection":"NORTHWEST","stayOn":false,"area":false,"bogusName":false,"lon":-71.0668891,"lat":48.4072886,"elevation":[]}]},{"startTime":1522703034000,"endTime":1522703520000,"departureDelay":0,"arrivalDelay":0,"realTime":false,"distance":4049.867186547347,"pathway":false,"mode":"BUS","route":"15","agencyName":"Société de Transport du Saguenay","agencyUrl":"http://ville.saguenay.ca/fr/services-aux-citoyens/transport-sts","agencyTimeZoneOffset":-14400000,"routeColor":"FF00FF","routeType":3,"routeId":"1:15","routeTextColor":"FFFFFF","interlineWithPreviousLeg":false,"tripBlockId":"31","headsign":"Talbot / Barrette","agencyId":"0","tripId":"1:218142","serviceDate":"20180402","from":{"name":"Saguenéens (no. 129)","stopId":"1:2000","stopCode":"2000","lon":-71.067064,"lat":48.407463,"arrival":1522703033000,"departure":1522703034000,"zoneId":"NA","stopIndex":19,"stopSequence":20,"vertexType":"TRANSIT"},"to":{"name":"Roitelets / Sapins","stopId":"1:1543","stopCode":"1543","lon":-71.069553,"lat":48.393375,"arrival":1522703520000,"departure":1522703520000,"zoneId":"NA","stopIndex":35,"stopSequence":36,"vertexType":"TRANSIT"},"legGeometry":{"points":"{pmfHbiwpLvCaGfEoItDsH~DeItC{FnBoLbCaO?qLa@uJzF`ApF~@~@PzAgEeDcBf@qAWcKUqEx@Ef@ExDVjDxAFBrBvAfGjG@BjCzC~DxC@@zA~Cb@fCJlC?BsBre@?DWbOAn@?nEGnM@H\\hCzA~ELvAAlAi@jDo@nB","length":46},"routeShortName":"15","routeLongName":"Term. Chic / Costco","rentedBike":false,"transitLeg":true,"duration":486.0,"steps":[]},{"startTime":1522703520000,"endTime":1522703808000,"departureDelay":0,"arrivalDelay":0,"realTime":false,"distance":3906.262944150224,"pathway":false,"mode":"BUS","route":"14","agencyName":"Société de Transport du Saguenay","agencyUrl":"http://ville.saguenay.ca/fr/services-aux-citoyens/transport-sts","agencyTimeZoneOffset":-14400000,"routeColor":"C0C000","routeType":3,"routeId":"1:14","routeTextColor":"000000","interlineWithPreviousLeg":true,"tripBlockId":"31","headsign":"Terminus Chicoutimi","agencyId":"0","tripId":"1:218143","serviceDate":"20180402","from":{"name":"Roitelets / Sapins","stopId":"1:1513","stopCode":"1513","lon":-71.069396,"lat":48.393523,"arrival":1522703520000,"departure":1522703520000,"zoneId":"NA","stopIndex":0,"stopSequence":1,"vertexType":"TRANSIT"},"to":{"name":"Bégin / St-Urbain","stopId":"1:450","stopCode":"450","lon":-71.076619,"lat":48.402909,"arrival":1522703808000,"departure":1522703809000,"zoneId":"NA","stopIndex":14,"stopSequence":15,"vertexType":"TRANSIT"},"legGeometry":{"points":"azjfHfwwpLiEfLuBzFsAnDgGzSWfAcD`Mi@dCgChLmCzMwGd\\aDxOdFtFhCtCdDY|F_On@aB`B_GNoBvAyT|@sNuAyAuF}F}AaB_BkAC@qC\\gAWiBwBiKgMiCwE","length":31},"routeShortName":"14","routeLongName":"Coopérative","rentedBike":false,"transitLeg":true,"duration":288.0,"steps":[]},{"startTime":1522703809000,"endTime":1522704175000,"departureDelay":0,"arrivalDelay":0,"realTime":false,"distance":478.31100000000004,"pathway":false,"mode":"WALK","route":"","agencyTimeZoneOffset":-14400000,"interlineWithPreviousLeg":false,"from":{"name":"Bégin / St-Urbain","stopId":"1:450","stopCode":"450","lon":-71.076619,"lat":48.402909,"arrival":1522703808000,"departure":1522703809000,"zoneId":"NA","stopIndex":14,"stopSequence":15,"vertexType":"TRANSIT"},"to":{"name":"Destination","lon":-71.07101,"lat":48.401326,"arrival":1522704175000,"orig":"","vertexType":"NORMAL"},"legGeometry":{"points":"_ulfHddypLx@cAb@cAj@{Az@eCL_@Ba@C_Am@cDf@}BbAuDLg@`@iAJO","length":14},"rentedBike":false,"transitLeg":false,"duration":366.0,"steps":[{"distance":478.31100000000004,"relativeDirection":"DEPART","streetName":"Rue Saint-Urbain","absoluteDirection":"SOUTHEAST","stayOn":false,"area":false,"bogusName":false,"lon":-71.07666539442738,"lat":48.40288527781541,"elevation":[]}]}],"tooSloped":false},{"duration":929,"startTime":1522703954000,"endTime":1522704883000,"walkTime":785,"transitTime":142,"waitingTime":2,"walkDistance":1001.6521879642719,"walkLimitExceeded":false,"elevationLost":0.0,"elevationGained":0.0,"transfers":0,"legs":[{"startTime":1522703954000,"endTime":1522704078000,"departureDelay":0,"arrivalDelay":0,"realTime":false,"distance":151.21999999999997,"pathway":false,"mode":"WALK","route":"","agencyTimeZoneOffset":-14400000,"interlineWithPreviousLeg":false,"from":{"name":"Origin","lon":-71.06730899,"lat":48.406174,"departure":1522703954000,"orig":"","vertexType":"NORMAL"},"to":{"name":"Saguenéens (no. 129)","stopId":"1:2000","stopCode":"2000","lon":-71.067064,"lat":48.407463,"arrival":1522704078000,"departure":1522704079000,"zoneId":"NA","stopIndex":16,"stopSequence":17,"vertexType":"TRANSIT"},"legGeometry":{"points":"ikmfHxgwpLq@jBsBcCELQ`@","length":5},"rentedBike":false,"transitLeg":false,"duration":124.0,"steps":[{"distance":48.362,"relativeDirection":"DEPART","streetName":"Rue Louis-Francoeur","absoluteDirection":"NORTHWEST","stayOn":false,"area":false,"bogusName":false,"lon":-71.06700976138976,"lat":48.406452103888526,"elevation":[]},{"distance":80.88,"relativeDirection":"RIGHT","streetName":"path","absoluteDirection":"NORTHEAST","stayOn":false,"area":false,"bogusName":true,"lon":-71.0675429,"lat":48.4067049,"elevation":[]},{"distance":21.978,"relativeDirection":"LEFT","streetName":"Rue des Saguenéens","absoluteDirection":"NORTHWEST","stayOn":false,"area":false,"bogusName":false,"lon":-71.0668891,"lat":48.4072886,"elevation":[]}]},{"startTime":1522704079000,"endTime":1522704221000,"departureDelay":0,"arrivalDelay":0,"realTime":false,"distance":658.0912501749274,"pathway":false,"mode":"BUS","route":"15","agencyName":"Société de Transport du Saguenay","agencyUrl":"http://ville.saguenay.ca/fr/services-aux-citoyens/transport-sts","agencyTimeZoneOffset":-14400000,"routeColor":"FF00FF","routeType":3,"routeId":"1:15","routeTextColor":"FFFFFF","interlineWithPreviousLeg":false,"tripBlockId":"30","headsign":"Terminus Chicoutimi","agencyId":"0","tripId":"1:218108","serviceDate":"20180402","from":{"name":"Saguenéens (no. 129)","stopId":"1:2000","stopCode":"2000","lon":-71.067064,"lat":48.407463,"arrival":1522704078000,"departure":1522704079000,"zoneId":"NA","stopIndex":16,"stopSequence":17,"vertexType":"TRANSIT"},"to":{"name":"Angoulême / Bégin","stopId":"1:53","stopCode":"53","lon":-71.073604,"lat":48.405143,"arrival":1522704221000,"departure":1522704222000,"zoneId":"NA","stopIndex":18,"stopSequence":19,"vertexType":"TRANSIT"},"legGeometry":{"points":"eqmfHrhwpL_CfGYVQXS\\dK|HlFZbC\\p@zA\\rB@hBiArG{BN","length":13},"routeShortName":"15","routeLongName":"Term. Chic / Costco","rentedBike":false,"transitLeg":true,"duration":142.0,"steps":[]},{"startTime":1522704222000,"endTime":1522704883000,"departureDelay":0,"arrivalDelay":0,"realTime":false,"distance":850.2570000000001,"pathway":false,"mode":"WALK","route":"","agencyTimeZoneOffset":-14400000,"interlineWithPreviousLeg":false,"from":{"name":"Angoulême / Bégin","stopId":"1:53","stopCode":"53","lon":-71.073604,"lat":48.405143,"arrival":1522704221000,"departure":1522704222000,"zoneId":"NA","stopIndex":18,"stopSequence":19,"vertexType":"TRANSIT"},"to":{"name":"Destination","lon":-71.07101,"lat":48.401326,"arrival":1522704883000,"orig":"","vertexType":"NORMAL"},"legGeometry":{"points":"sbmfHbqxpLAVxBCBpAXr@HT~@lBvAxCfA|Bd@z@LOx@cAb@cAj@{Az@eCL_@Ba@C_Am@cDf@}BbAuDLg@`@iAJO","length":24},"rentedBike":false,"transitLeg":false,"duration":661.0,"steps":[{"distance":9.065,"relativeDirection":"DEPART","streetName":"Rue R. E. Joron","absoluteDirection":"WEST","stayOn":false,"area":false,"bogusName":false,"lon":-71.07361147295804,"lat":48.40506820485767,"elevation":[]},{"distance":67.789,"relativeDirection":"LEFT","streetName":"Rue d'Angoulème","absoluteDirection":"SOUTH","stayOn":false,"area":false,"bogusName":false,"lon":-71.073734,"lat":48.4050736,"elevation":[]},{"distance":285.025,"relativeDirection":"RIGHT","streetName":"Rue Bégin","absoluteDirection":"WEST","stayOn":false,"area":false,"bogusName":false,"lon":-71.0737143,"lat":48.404464100000006,"elevation":[]},{"distance":488.37800000000004,"relativeDirection":"LEFT","streetName":"Rue Saint-Urbain","absoluteDirection":"SOUTHEAST","stayOn":false,"area":false,"bogusName":false,"lon":-71.0767486,"lat":48.402957,"elevation":[]}]}],"tooSloped":false}]},"debugOutput":{"precalculationTime":61,"pathCalculationTime":44,"pathTimes":[23,9,12],"renderingTime":0,"totalTime":105,"timedOut":false},"elevationMetadata":{"ellipsoidToGeoidDifference":-28.885904201182168,"geoidElevation":false}}