{"requestParameters":{"date":"2018/04/02","walkSpeed":"1.33","walkReluctance":"2.0","fromPlace":"48.395355,-70.990925","maxWalkDistance":"3000","waitReluctance":"1.0","carSpeed":"33","numItineraries":"3","waitAtBeginningFactor":"0.4","mode":"TRANSIT,WALK","ignoreRealtimeUpdates":"false","stairsReluctance":"2.0","toPlace":"48.428244,-71.023648","time":"15:55:00"},"plan":{"date":1522698900000,"from":{"name":"Origin","lon":-70.990925,"lat":48.395355,"orig":"","vertexType":"NORMAL"},"to":{"name":"Destination","lon":-71.023648,"lat":48.428244,"orig":"","vertexType":"NORMAL"},"itineraries":[{"duration":2561,"startTime":1522700477000,"endTime":1522703038000,"walkTime":176,"transitTime":1843,"waitingTime":542,"walkDistance":223.31796240488688,"walkLimitExceeded":false,"elevationLost":0.0,"elevationGained":0.0,"transfers":1,"legs":[{"startTime":1522700477000,"endTime":1522700491000,"departureDelay":0,"arrivalDelay":0,"realTime":false,"distance":17.565,"pathway":false,"mode":"WALK","route":"","agencyTimeZoneOffset":-14400000,"interlineWithPreviousLeg":false,"from":{"name":"Origin","lon":-70.990925,"lat":48.395355,"departure":1522700477000,"orig":"","vertexType":"NORMAL"},"to":{"name":"boul. St-Jean-Baptiste (no. 2635)","stopId":"1:1940","stopCode":"1940","lon":-70.991287,"lat":48.395287,"arrival":1522700491000,"departure":1522700492000,"zoneId":"NA","stopIndex":44,"stopSequence":45,"vertexType":"TRANSIT"},"legGeometry":{"points":"idkfH~mhpLQf@","length":2},"rentedBike":false,"transitLeg":false,"duration":14.0,"steps":[{"distance":17.565,"relativeDirection":"DEPART","streetName":"Boulevard Saint-Jean-Baptiste","absoluteDirection":"NORTHWEST","stayOn":false,"area":false,"bogusName":false,"lon":-70.99119903147104,"lat":48.395094925869714,"elevation":[]}]},{"startTime":1522700492000,"endTime":1522701060000,"departureDelay":0,"arrivalDelay":0,"realTime":false,"distance":6814.695068847386,"pathway":false,"mode":"BUS","route":"6","agencyName":"Société de Transport du Saguenay","agencyUrl":"http://ville.saguenay.ca/fr/services-aux-citoyens/transport-sts","agencyTimeZoneOffset":-14400000,"routeColor":"FF0000","routeType":3,"routeId":"1:6","routeTextColor":"FFFFFF","interlineWithPreviousLeg":false,"tripBlockId":"25","headsign":"Terminus UQAC","agencyId":"0","tripId":"1:217946","serviceDate":"20180402","from":{"name":"boul. St-Jean-Baptiste (no. 2635)","stopId":"1:1940","stopCode":"1940","lon":-70.991287,"lat":48.395287,"arrival":1522700491000,"departure":1522700492000,"zoneId":"NA","stopIndex":44,"stopSequence":45,"vertexType":"TRANSIT"},"to":{"name":"Terminus UQAC","stopId":"1:1670","stopCode":"1670","lon":-71.053369,"lat":48.420903,"arrival":1522701060000,"departure":1522701600000,"zoneId":"NA","stopIndex":57,"stopSequence":58,"vertexType":"TRANSIT"},"legGeometry":{"points":"ydkfHjohpL}EtMeAlCaB|CMRqApBmErFeAtAs@jAu@`Bm@bBOh@]zAeCpNUlA_A`EkArDmCdHgG`PwIdUkP|b@uBrFu@hBw@bBg@z@i@z@m@~@WXYZ}InJeDdDy@j@yAn@@^h@bI`@jDdC~Nb@~DpExr@TlC`A`Ob@dIFlFE~BCv@Cn@Gl@_@fIgBpGwAvCeBlDuAxDyAxCyApAqANkABgAL{An@g@VYZy@x@aAr@qBnBqBxAsCdCqAfAqBtAgHfHoBzGwEmEu@s@wAqA}B{B]_@ZoAXc@z@{@XkADsAIs@e@gED{@nDqLdBfBxAzAQp@z@~@","length":87},"routeShortName":"6","routeLongName":"Term. Chic/Term. Baie via ch.Plateau","rentedBike":false,"transitLeg":true,"duration":568.0,"steps":[]},{"startTime":1522701600000,"endTime":1522702875000,"departureDelay":0,"arrivalDelay":0,"realTime":false,"distance":6991.523101155864,"pathway":false,"mode":"BUS","route":"12","agencyName":"Société de Transport du Saguenay","agencyUrl":"http://ville.saguenay.ca/fr/services-aux-citoyens/transport-sts","agencyTimeZoneOffset":-14400000,"routeColor":"556B2F","routeType":3,"routeId":"1:12","routeTextColor":"FFFFFF","interlineWithPreviousLeg":false,"tripBlockId":"29","headsign":"Terminus Chicoutimi","agencyId":"0","tripId":"1:218072","serviceDate":"20180402","from":{"name":"Terminus UQAC","stopId":"1:1670","stopCode":"1670","lon":-71.053369,"lat":48.420903,"arrival":1522701060000,"departure":1522701600000,"zoneId":"NA","stopIndex":0,"stopSequence":1,"vertexType":"TRANSIT"},"to":{"name":"nouveau","stopId":"1:2301","stopCode":"2301","lon":-71.021923,"lat":48.427058,"arrival":1522702875000,"departure":1522702876000,"zoneId":"NA","stopIndex":22,"stopSequence":23,"vertexType":"TRANSIT"},"legGeometry":{"points":"sepfHprtpL}@y@Pw@wAsAaB{A}DrL?jCv@fCa@nDaC`D~E`F~MfNjJnJ~GbHnCpCv@iBlAgIdCmFbAqDtBeCjFm@`Gs@hFo@xAmBrGcPxFoNlCyGa@yFYkD}CyA}KmFgD_BgAgBn@kFD_NoIgrAmD_WcAaLaDHoDJi`@wVoAbDbA|AnBU|B|AfBlAyLtKoGxFcFqDkJaHgEoDmDwC","length":52},"routeShortName":"12","routeLongName":"Rivière du Moulin","rentedBike":false,"transitLeg":true,"duration":1275.0,"steps":[]},{"startTime":1522702876000,"endTime":1522703038000,"departureDelay":0,"arrivalDelay":0,"realTime":false,"distance":205.71800000000002,"pathway":false,"mode":"WALK","route":"","agencyTimeZoneOffset":-14400000,"interlineWithPreviousLeg":false,"from":{"name":"nouveau","stopId":"1:2301","stopCode":"2301","lon":-71.021923,"lat":48.427058,"arrival":1522702875000,"departure":1522702876000,"zoneId":"NA","stopIndex":22,"stopSequence":23,"vertexType":"TRANSIT"},"to":{"name":"Destination","lon":-71.023648,"lat":48.428244,"arrival":1522703038000,"orig":"","vertexType":"NORMAL"},"legGeometry":{"points":"klqfHvnnpLAAw@s@}@|C_BdF","length":5},"rentedBike":false,"transitLeg":false,"duration":162.0,"steps":[{"distance":38.165,"relativeDirection":"DEPART","streetName":"Rue de Normandie","absoluteDirection":"NORTHEAST","stayOn":false,"area":false,"bogusName":false,"lon":-71.02203799489854,"lat":48.427104913712306,"elevation":[]},{"distance":167.553,"relativeDirection":"LEFT","streetName":"Rue des Érables","absoluteDirection":"NORTHWEST","stayOn":false,"area":false,"bogusName":false,"lon":-71.0217671,"lat":48.4273973,"elevation":[]}]}],"tooSloped":false},{"duration":1982,"startTime":1522701715000,"endTime":1522703697000,"walkTime":1810,"transitTime":170,"waitingTime":2,"walkDistance":2375.485345860198,"walkLimitExceeded":false,"elevationLost":0.0,"elevationGained":0.0,"transfers":0,"legs":[{"startTime":1522701715000,"endTime":1522701729000,"departureDelay":0,"arrivalDelay":0,"realTime":false,"distance":17.565,"pathway":false,"mode":"WALK","route":"","agencyTimeZoneOffset":-14400000,"interlineWithPreviousLeg":false,"from":{"name":"Origin","lon":-70.990925,"lat":48.395355,"departure":1522701715000,"orig":"","vertexType":"NORMAL"},"to":{"name":"boul. St-Jean-Baptiste (no. 2635)","stopId":"1:1940","stopCode":"1940","lon":-70.991287,"lat":48.395287,"arrival":1522701729000,"departure":1522701730000,"zoneId":"NA","stopIndex":30,"stopSequence":31,"vertexType":"TRANSIT"},"legGeometry":{"points":"idkfH~mhpLQf@","length":2},"rentedBike":false,"transitLeg":false,"duration":14.0,"steps":[{"distance":17.565,"relativeDirection":"DEPART","streetName":"Boulevard Saint-Jean-Baptiste","absoluteDirection":"NORTHWEST","stayOn":false,"area":false,"bogusName":false,"lon":-70.99119903147104,"lat":48.395094925869714,"elevation":[]}]},{"startTime":1522701730000,"endTime":1522701900000,"departureDelay":0,"arrivalDelay":0,"realTime":false,"distance":2737.183570221477,"pathway":false,"mode":"BUS","route":"5","agencyName":"Société de Transport du Saguenay","agencyUrl":"http://ville.saguenay.ca/fr/services-aux-citoyens/transport-sts","agencyTimeZoneOffset":-14400000,"routeColor":"FF0000","routeType":3,"routeId":"1:5","routeTextColor":"FFFFFF","interlineWithPreviousLeg":false,"tripBlockId":"24","headsign":"Terminus UQAC","agencyId":"0","tripId":"1:217919","serviceDate":"20180402","from":{"name":"boul. St-Jean-Baptiste (no. 2635)","stopId":"1:1940","stopCode":"1940","lon":-70.991287,"lat":48.395287,"arrival":1522701729000,"departure":1522701730000,"zoneId":"NA","stopIndex":30,"stopSequence":31,"vertexType":"TRANSIT"},"to":{"name":"boul. St-Jean-Baptiste (no. 1635)","stopId":"1:250","stopCode":"250","lon":-71.021029,"lat":48.40996,"arrival":1522701900000,"departure":1522701901000,"zoneId":"NA","stopIndex":37,"stopSequence":38,"vertexType":"TRANSIT"},"legGeometry":{"points":"ydkfHjohpL}EtMeAlCaB|CMRqApBmErFeAtAs@jAu@`Bm@bBOh@]zAeCpNUlA_A`EkArDmCdHgG`PwIdUkP|b@uBrFu@hBw@bBg@z@i@z@m@~@WX","length":28},"routeShortName":"5","routeLongName":"Term. Chic/Term. Baie via St-J.Batiste","rentedBike":false,"transitLeg":true,"duration":170.0,"steps":[]},{"startTime":1522701901000,"endTime":1522703697000,"departureDelay":0,"arrivalDelay":0,"realTime":false,"distance":2357.782,"pathway":false,"mode":"WALK","route":"","agencyTimeZoneOffset":-14400000,"interlineWithPreviousLeg":false,"from":{"name":"boul. St-Jean-Baptiste (no. 1635)","stopId":"1:250","stopCode":"250","lon":-71.021029,"lat":48.40996,"arrival":1522701900000,"departure":1522701901000,"zoneId":"NA","stopIndex":37,"stopSequence":38,"vertexType":"TRANSIT"},"to":{"name":"Destination","lon":-71.023648,"lat":48.428244,"arrival":1522703697000,"orig":"","vertexType":"NORMAL"},"legGeometry":{"points":"y`nfHdinpLSZwO`PKFgBdAq@JUDaBTOB_DUgIkFgVuO[S}EyCwAo@cC]wBCgBX{Af@wBlAaB|AyAxB[l@a@v@e@~@y@`BiApCqCgC_BdF","length":29},"rentedBike":false,"transitLeg":false,"duration":1796.0,"steps":[{"distance":445.701,"relativeDirection":"DEPART","streetName":"Boulevard Saint-Jean-Baptiste","absoluteDirection":"NORTHWEST","stayOn":false,"area":false,"bogusName":false,"lon":-71.02114835116168,"lat":48.40989145773341,"elevation":[]},{"distance":1716.0339999999999,"relativeDirection":"CONTINUE","streetName":"Boulevard du Saguenay Est","absoluteDirection":"NORTH","stayOn":false,"area":false,"bogusName":false,"lon":-71.0244078,"lat":48.413254800000004,"elevation":[]},{"distance":95.902,"relativeDirection":"RIGHT","streetName":"Rue de Paris","absoluteDirection":"NORTHEAST","stayOn":false,"area":false,"bogusName":false,"lon":-71.02324,"lat":48.426977,"elevation":[]},{"distance":100.145,"relativeDirection":"LEFT","streetName":"Rue des Érables","absoluteDirection":"NORTHWEST","stayOn":false,"area":false,"bogusName":false,"lon":-71.02255120000001,"lat":48.4277084,"elevation":[]}]}],"tooSloped":false},{"duration":2561,"startTime":1522704077000,"endTime":1522706638000,"walkTime":176,"transitTime":1843,"waitingTime":542,"walkDistance":223.31796240488688,"walkLimitExceeded":false,"elevationLost":0.0,"elevationGained":0.0,"transfers":1,"legs":[{"startTime":1522704077000,"endTime":1522704091000,"departureDelay":0,"arrivalDelay":0,"realTime":false,"distance":17.565,"pathway":false,"mode":"WALK","route":"","agencyTimeZoneOffset":-14400000,"interlineWithPreviousLeg":false,"from":{"name":"Origin","lon":-70.990925,"lat":48.395355,"departure":1522704077000,"orig":"","vertexType":"NORMAL"},"to":{"name":"boul. St-Jean-Baptiste (no. 2635)","stopId":"1:1940","stopCode":"1940","lon":-70.991287,"lat":48.395287,"arrival":1522704091000,"departure":1522704092000,"zoneId":"NA","stopIndex":44,"stopSequence":45,"vertexType":"TRANSIT"},"legGeometry":{"points":"idkfH~mhpLQf@","length":2},"rentedBike":false,"transitLeg":false,"duration":14.0,"steps":[{"distance":17.565,"relativeDirection":"DEPART","streetName":"Boulevard Saint-Jean-Baptiste","absoluteDirection":"NORTHWEST","stayOn":false,"area":false,"bogusName":false,"lon":-70.99119903147104,"lat":48.395094925869714,"elevation":[]}]},{"startTime":1522704092000,"endTime":1522704660000,"departureDelay":0,"arrivalDelay":0,"realTime":false,"distance":6814.695068847386,"pathway":false,"mode":"BUS","route":"6","agencyName":"Société de Transport du Saguenay","agencyUrl":"http://ville.saguenay.ca/fr/services-aux-citoyens/transport-sts","agencyTimeZoneOffset":-14400000,"routeColor":"FF0000","routeType":3,"routeId":"1:6","routeTextColor":"FFFFFF","interlineWithPreviousLeg":false,"tripBlockId":"25","headsign":"Terminus UQAC","agencyId":"0","tripId":"1:217948","serviceDate":"20180402","from":{"name":"boul. St-Jean-Baptiste (no. 2635)","stopId":"1:1940","stopCode":"1940","lon":-70.991287,"lat":48.395287,"arrival":1522704091000,"departure":1522704092000,"zoneId":"NA","stopIndex":44,"stopSequence":45,"vertexType":"TRANSIT"},"to":{"name":"Terminus UQAC","stopId":"1:1670","stopCode":"1670","lon":-71.053369,"lat":48.420903,"arrival":1522704660000,"departure":1522705200000,"zoneId":"NA","stopIndex":57,"stopSequence":58,"vertexType":"TRANSIT"},"legGeometry":{"points":"ydkfHjohpL}EtMeAlCaB|CMRqApBmErFeAtAs@jAu@`Bm@bBOh@]zAeCpNUlA_A`EkArDmCdHgG`PwIdUkP|b@uBrFu@hBw@bBg@z@i@z@m@~@WXYZ}InJeDdDy@j@yAn@@^h@bI`@jDdC~Nb@~DpExr@TlC`A`Ob@dIFlFE~BCv@Cn@Gl@_@fIgBpGwAvCeBlDuAxDyAxCyApAqANkABgAL{An@g@VYZy@x@aAr@qBnBqBxAsCdCqAfAqBtAgHfHoBzGwEmEu@s@wAqA}B{B]_@ZoAXc@z@{@XkADsAIs@e@gED{@nDqLdBfBxAzAQp@z@~@","length":87},"routeShortName":"6","routeLongName":"Term. Chic/Term. Baie via ch.Plateau","rentedBike":false,"transitLeg":true,"duration":568.0,"steps":[]},{"startTime":1522705200000,"endTime":1522706475000,"departureDelay":0,"arrivalDelay":0,"realTime":false,"distance":6991.523101155864,"pathway":false,"mode":"BUS","route":"12","agencyName":"Société de Transport du Saguenay","agencyUrl":"http://ville.saguenay.ca/fr/services-aux-citoyens/transport-sts","agencyTimeZoneOffset":-14400000,"routeColor":"556B2F","routeType":3,"routeId":"1:12","routeTextColor":"FFFFFF","interlineWithPreviousLeg":false,"tripBlockId":"29","headsign":"Terminus Chicoutimi","agencyId":"0","tripId":"1:218074","serviceDate":"20180402","from":{"name":"Terminus UQAC","stopId":"1:1670","stopCode":"1670","lon":-71.053369,"lat":48.420903,"arrival":1522704660000,"departure":1522705200000,"zoneId":"NA","stopIndex":0,"stopSequence":1,"vertexType":"TRANSIT"},"to":{"name":"nouveau","stopId":"1:2301","stopCode":"2301","lon":-71.021923,"lat":48.427058,"arrival":1522706475000,"departure":1522706476000,"zoneId":"NA","stopIndex":22,"stopSequence":23,"vertexType":"TRANSIT"},"legGeometry":{"points":"sepfHprtpL}@y@Pw@wAsAaB{A}DrL?jCv@fCa@nDaC`D~E`F~MfNjJnJ~GbHnCpCv@iBlAgIdCmFbAqDtBeCjFm@`Gs@hFo@xAmBrGcPxFoNlCyGa@yFYkD}CyA}KmFgD_BgAgBn@kFD_NoIgrAmD_WcAaLaDHoDJi`@wVoAbDbA|AnBU|B|AfBlAyLtKoGxFcFqDkJaHgEoDmDwC","length":52},"routeShortName":"12","routeLongName":"Rivière du Moulin","rentedBike":false,"transitLeg":true,"duration":1275.0,"steps":[]},{"startTime":1522706476000,"endTime":1522706638000,"departureDelay":0,"arrivalDelay":0,"realTime":false,"distance":205.71800000000002,"pathway":false,"mode":"WALK","route":"","agencyTimeZoneOffset":-14400000,"interlineWithPreviousLeg":false,"from":{"name":"nouveau","stopId":"1:2301","stopCode":"2301","lon":-71.021923,"lat":48.427058,"arrival":1522706475000,"departure":1522706476000,"zoneId":"NA","stopIndex":22,"stopSequence":23,"vertexType":"TRANSIT"},"to":{"name":"Destination","lon":-71.023648,"lat":48.428244,"arrival":1522706638000,"orig":"","vertexType":"NORMAL"},"legGeometry":{"points":"klqfHvnnpLAAw@s@}@|C_BdF","length":5},"rentedBike":false,"transitLeg":false,"duration":162.0,"steps":[{"distance":38.165,"relativeDirection":"DEPART","streetName":"Rue de Normandie","absoluteDirection":"NORTHEAST","stayOn":false,"area":false,"bogusName":false,"lon":-71.02203799489854,"lat":48.427104913712306,"elevation":[]},{"distance":167.553,"relativeDirection":"LEFT","streetName":"Rue des Érables","absoluteDirection":"NORTHWEST","stayOn":false,"area":false,"bogusName":false,"lon":-71.0217671,"lat":48.4273973,"elevation":[]}]}],"tooSloped":false}]},"debugOutput":{"precalculationTime":4,"pathCalculationTime":21,"pathTimes":[11,6,4],"renderingTime":0,"totalTime":25,"timedOut":false},"elevationMetadata":{"ellipsoidToGeoidDifference":-28.885904201182168,"geoidElevation":false}}