{"requestParameters":{"date":"2018/04/02","walkSpeed":"1.33","walkReluctance":"2.0","fromPlace":"48.390131,-71.08145899","maxWalkDistance":"3000","waitReluctance":"1.0","carSpeed":"33","numItineraries":"3","waitAtBeginningFactor":"0.4","mode":"TRANSIT,WALK","ignoreRealtimeUpdates":"false","stairsReluctance":"2.0","toPlace":"48.42632,-71.02324799","time":"17:0:00"},"plan":{"date":1522702800000,"from":{"name":"Origin","lon":-71.08145899,"lat":48.390131,"orig":"","vertexType":"NORMAL"},"to":{"name":"Destination","lon":-71.02324799,"lat":48.42632,"orig":"","vertexType":"NORMAL"},"itineraries":[{"duration":2712,"startTime":1522703514000,"endTime":1522706226000,"walkTime":428,"transitTime":1982,"waitingTime":302,"walkDistance":549.6269774406734,"walkLimitExceeded":false,"elevationLost":0.0,"elevationGained":0.0,"transfers":1,"legs":[{"startTime":1522703514000,"endTime":1522703856000,"departureDelay":0,"arrivalDelay":0,"realTime":false,"distance":447.96000000000004,"pathway":false,"mode":"WALK","route":"","agencyTimeZoneOffset":-14400000,"interlineWithPreviousLeg":false,"from":{"name":"Origin","lon":-71.08145899,"lat":48.390131,"departure":1522703514000,"orig":"","vertexType":"NORMAL"},"to":{"name":"Talbot / Néro","stopId":"1:78","stopCode":"78","lon":-71.077222,"lat":48.387713,"arrival":1522703856000,"departure":1522703857000,"zoneId":"NA","stopIndex":3,"stopSequence":4,"vertexType":"TRANSIT"},"legGeometry":{"points":"ibjfHrezpLXs@Vs@tI_TTi@Pa@HS}@eA","length":8},"alerts":[{"alertHeaderText":"Unpaved surface"}],"rentedBike":false,"transitLeg":false,"duration":342.0,"steps":[{"distance":405.13300000000004,"relativeDirection":"DEPART","streetName":"Rue Néron","absoluteDirection":"SOUTHEAST","stayOn":false,"area":false,"bogusName":false,"lon":-71.0820137718573,"lat":48.38965710300426,"elevation":[],"alerts":[{"alertHeaderText":"Unpaved surface"}]},{"distance":42.827,"relativeDirection":"LEFT","streetName":"Boulevard Talbot","absoluteDirection":"NORTHEAST","stayOn":false,"area":false,"bogusName":false,"lon":-71.07765280000001,"lat":48.3874465,"elevation":[]}]},{"startTime":1522703857000,"endTime":1522705200000,"departureDelay":0,"arrivalDelay":0,"realTime":false,"distance":6818.907605006419,"pathway":false,"mode":"BUS","route":"175","agencyName":"Société de Transport du Saguenay","agencyUrl":"http://ville.saguenay.ca/fr/services-aux-citoyens/transport-sts","agencyTimeZoneOffset":-14400000,"routeColor":"FF00FF","routeType":3,"routeId":"1:175","routeTextColor":"FFFFFF","interlineWithPreviousLeg":false,"tripBlockId":"10","headsign":"Terminus Chicoutimi","agencyId":"0","tripId":"1:217448","serviceDate":"20180402","from":{"name":"Talbot / Néro","stopId":"1:78","stopCode":"78","lon":-71.077222,"lat":48.387713,"arrival":1522703856000,"departure":1522703857000,"zoneId":"NA","stopIndex":3,"stopSequence":4,"vertexType":"TRANSIT"},"to":{"name":"Terminus Chicoutimi","stopId":"1:1289","stopCode":"1289","lon":-71.066163,"lat":48.428677,"arrival":1522705200000,"departure":1522705500000,"zoneId":"NA","stopIndex":27,"stopSequence":28,"vertexType":"TRANSIT"},"legGeometry":{"points":"evifHtgypLkJuKoAwA_CeCeExJ~AlB`@mAu@k@}@q@|C}Iw@}@aO_QkEsEiAoAgEsFkFsHqJ_N}FkImPkOuO{N_U_TcNgNcBcB{E`Jc@x@qG~@{BlAk@XgSrQqB_GAeFiEeEOt@gAeA_A_ATm@yAwAgBeBqDnL@nBF`@f@|C[dCuAfB]xAs@OmCmCmEkE]a@g@i@ZiGTmEl@oLaEe@cFk@?pH?tJDvBPjMB~Bo@PQDRbFKdGMhIOvIK|EQpHoCQEdC","length":70},"routeShortName":"175","routeLongName":"Term. Chic / Costco","rentedBike":false,"transitLeg":true,"duration":1343.0,"steps":[]},{"startTime":1522705500000,"endTime":1522706139000,"departureDelay":0,"arrivalDelay":0,"realTime":false,"distance":4346.273341583597,"pathway":false,"mode":"BUS","route":"12","agencyName":"Société de Transport du Saguenay","agencyUrl":"http://ville.saguenay.ca/fr/services-aux-citoyens/transport-sts","agencyTimeZoneOffset":-14400000,"routeColor":"556B2F","routeType":3,"routeId":"1:12","routeTextColor":"FFFFFF","interlineWithPreviousLeg":false,"tripBlockId":"27","headsign":"Terminus UQAC","agencyId":"0","tripId":"1:218022","serviceDate":"20180402","from":{"name":"Terminus Chicoutimi","stopId":"1:1289","stopCode":"1289","lon":-71.066163,"lat":48.428677,"arrival":1522705200000,"departure":1522705500000,"zoneId":"NA","stopIndex":0,"stopSequence":1,"vertexType":"TRANSIT"},"to":{"name":"Normandie / Terrasse","stopId":"1:1531","stopCode":"1531","lon":-71.02299,"lat":48.426196,"arrival":1522706139000,"departure":1522706140000,"zoneId":"NA","stopIndex":19,"stopSequence":20,"vertexType":"TRANSIT"},"legGeometry":{"points":"evqfHpbwpLpFcj@IaKmFy^_DaZz@u]SeV}@aNs@gKToKd@gTnCyHkGuLqFqJ_DeFf@iIvGsKlIrH`JlH`EfD","length":20},"routeShortName":"12","routeLongName":"Rivière du Moulin","rentedBike":false,"transitLeg":true,"duration":639.0,"steps":[]},{"startTime":1522706140000,"endTime":1522706226000,"departureDelay":0,"arrivalDelay":0,"realTime":false,"distance":101.576,"pathway":false,"mode":"WALK","route":"","agencyTimeZoneOffset":-14400000,"interlineWithPreviousLeg":false,"from":{"name":"Normandie / Terrasse","stopId":"1:1531","stopCode":"1531","lon":-71.02299,"lat":48.426196,"arrival":1522706139000,"departure":1522706140000,"zoneId":"NA","stopIndex":19,"stopSequence":20,"vertexType":"TRANSIT"},"to":{"name":"Destination","lon":-71.02324799,"lat":48.42632,"arrival":1522706226000,"orig":"","vertexType":"NORMAL"},"legGeometry":{"points":"mfqfH`tnpLPLX\\CrAgA?A?","length":6},"rentedBike":false,"transitLeg":false,"duration":86.0,"steps":[{"distance":29.770000000000003,"relativeDirection":"DEPART","streetName":"Rue de Normandie","absoluteDirection":"SOUTHWEST","stayOn":false,"area":false,"bogusName":false,"lon":-71.02288051293436,"lat":48.42615532364584,"elevation":[]},{"distance":31.131,"relativeDirection":"RIGHT","streetName":"Rue de la Terrasse","absoluteDirection":"WEST","stayOn":false,"area":false,"bogusName":false,"lon":-71.0231006,"lat":48.4259314,"elevation":[]},{"distance":40.675,"relativeDirection":"RIGHT","streetName":"Rue de Paris","absoluteDirection":"NORTH","stayOn":false,"area":false,"bogusName":false,"lon":-71.02352110000001,"lat":48.4259542,"elevation":[]}]}],"tooSloped":false},{"duration":2712,"startTime":1522705314000,"endTime":1522708026000,"walkTime":428,"transitTime":2282,"waitingTime":2,"walkDistance":549.6269774406734,"walkLimitExceeded":false,"elevationLost":0.0,"elevationGained":0.0,"transfers":1,"legs":[{"startTime":1522705314000,"endTime":1522705656000,"departureDelay":0,"arrivalDelay":0,"realTime":false,"distance":447.96000000000004,"pathway":false,"mode":"WALK","route":"","agencyTimeZoneOffset":-14400000,"interlineWithPreviousLeg":false,"from":{"name":"Origin","lon":-71.08145899,"lat":48.390131,"departure":1522705314000,"orig":"","vertexType":"NORMAL"},"to":{"name":"Talbot / Néro","stopId":"1:78","stopCode":"78","lon":-71.077222,"lat":48.387713,"arrival":1522705656000,"departure":1522705657000,"zoneId":"NA","stopIndex":3,"stopSequence":4,"vertexType":"TRANSIT"},"legGeometry":{"points":"ibjfHrezpLXs@Vs@tI_TTi@Pa@HS}@eA","length":8},"alerts":[{"alertHeaderText":"Unpaved surface"}],"rentedBike":false,"transitLeg":false,"duration":342.0,"steps":[{"distance":405.13300000000004,"relativeDirection":"DEPART","streetName":"Rue Néron","absoluteDirection":"SOUTHEAST","stayOn":false,"area":false,"bogusName":false,"lon":-71.0820137718573,"lat":48.38965710300426,"elevation":[],"alerts":[{"alertHeaderText":"Unpaved surface"}]},{"distance":42.827,"relativeDirection":"LEFT","streetName":"Boulevard Talbot","absoluteDirection":"NORTHEAST","stayOn":false,"area":false,"bogusName":false,"lon":-71.07765280000001,"lat":48.3874465,"elevation":[]}]},{"startTime":1522705657000,"endTime":1522706700000,"departureDelay":0,"arrivalDelay":0,"realTime":false,"distance":5582.914012502333,"pathway":false,"mode":"BUS","route":"175","agencyName":"Société de Transport du Saguenay","agencyUrl":"http://ville.saguenay.ca/fr/services-aux-citoyens/transport-sts","agencyTimeZoneOffset":-14400000,"routeColor":"FF00FF","routeType":3,"routeId":"1:175","routeTextColor":"FFFFFF","interlineWithPreviousLeg":false,"tripBlockId":"9","headsign":"Terminus Chicoutimi","agencyId":"0","tripId":"1:217414","serviceDate":"20180402","from":{"name":"Talbot / Néro","stopId":"1:78","stopCode":"78","lon":-71.077222,"lat":48.387713,"arrival":1522705656000,"departure":1522705657000,"zoneId":"NA","stopIndex":3,"stopSequence":4,"vertexType":"TRANSIT"},"to":{"name":"Hôpital de Chicoutimi (Saint-Vallier)","stopId":"1:410","stopCode":"410","lon":-71.050193,"lat":48.426282,"arrival":1522706700000,"departure":1522706700000,"zoneId":"NA","stopIndex":20,"stopSequence":21,"vertexType":"TRANSIT"},"legGeometry":{"points":"evifHtgypLkJuKoAwA_CeCeExJ~AlB`@mAu@k@}@q@|C}Iw@}@aO_QkEsEiAoAgEsFkFsHqJ_N}FkImPkOuO{N_U_TcNgNcBcB{E`Jc@x@qG~@{BlAk@XgSrQqB_GAeFiEeEOt@gAeA_A_ATm@yAwAgBeBqDnL@nBF`@f@|C[dCuAfB]xAs@OmCmCmEkE]a@g@i@ZiGTmEl@oLaEe@","length":54},"routeShortName":"175","routeLongName":"Term. Chic / Costco","rentedBike":false,"transitLeg":true,"duration":1043.0,"steps":[]},{"startTime":1522706700000,"endTime":1522707000000,"departureDelay":0,"arrivalDelay":0,"realTime":false,"distance":1235.9935925040847,"pathway":false,"mode":"BUS","route":"10","agencyName":"Société de Transport du Saguenay","agencyUrl":"http://ville.saguenay.ca/fr/services-aux-citoyens/transport-sts","agencyTimeZoneOffset":-14400000,"routeColor":"0000FF","routeType":3,"routeId":"1:10","routeTextColor":"FFFFFF","interlineWithPreviousLeg":false,"tripBlockId":"28","headsign":"Terminus Chicoutimi","agencyId":"0","tripId":"1:218048","serviceDate":"20180402","from":{"name":"Hôpital de Chicoutimi (Saint-Vallier)","stopId":"1:410","stopCode":"410","lon":-71.050193,"lat":48.426282,"arrival":1522706700000,"departure":1522706700000,"zoneId":"NA","stopIndex":14,"stopSequence":15,"vertexType":"TRANSIT"},"to":{"name":"Terminus Chicoutimi","stopId":"1:1289","stopCode":"1289","lon":-71.066163,"lat":48.428677,"arrival":1522707000000,"departure":1522707300000,"zoneId":"NA","stopIndex":21,"stopSequence":22,"vertexType":"TRANSIT"},"legGeometry":{"points":"igqfHj_tpLAAuEg@MDENF|GAjJDzBDdDLdHFbCo@RUFRbFG|FApAMvFa@tPOnHqBOIjDc@Q","length":22},"routeShortName":"10","routeLongName":"Notre-Dame du Saguenay","rentedBike":false,"transitLeg":true,"duration":300.0,"steps":[]},{"startTime":1522707300000,"endTime":1522707939000,"departureDelay":0,"arrivalDelay":0,"realTime":false,"distance":4346.273341583597,"pathway":false,"mode":"BUS","route":"12","agencyName":"Société de Transport du Saguenay","agencyUrl":"http://ville.saguenay.ca/fr/services-aux-citoyens/transport-sts","agencyTimeZoneOffset":-14400000,"routeColor":"556B2F","routeType":3,"routeId":"1:12","routeTextColor":"FFFFFF","interlineWithPreviousLeg":true,"tripBlockId":"28","headsign":"Terminus UQAC","agencyId":"0","tripId":"1:218049","serviceDate":"20180402","from":{"name":"Terminus Chicoutimi","stopId":"1:1289","stopCode":"1289","lon":-71.066163,"lat":48.428677,"arrival":1522707000000,"departure":1522707300000,"zoneId":"NA","stopIndex":0,"stopSequence":1,"vertexType":"TRANSIT"},"to":{"name":"Normandie / Terrasse","stopId":"1:1531","stopCode":"1531","lon":-71.02299,"lat":48.426196,"arrival":1522707939000,"departure":1522707940000,"zoneId":"NA","stopIndex":19,"stopSequence":20,"vertexType":"TRANSIT"},"legGeometry":{"points":"evqfHpbwpLpFcj@IaKmFy^_DaZz@u]SeV}@aNs@gKToKd@gTnCyHkGuLqFqJ_DeFf@iIvGsKlIrH`JlH`EfD","length":20},"routeShortName":"12","routeLongName":"Rivière du Moulin","rentedBike":false,"transitLeg":true,"duration":639.0,"steps":[]},{"startTime":1522707940000,"endTime":1522708026000,"departureDelay":0,"arrivalDelay":0,"realTime":false,"distance":101.576,"pathway":false,"mode":"WALK","route":"","agencyTimeZoneOffset":-14400000,"interlineWithPreviousLeg":false,"from":{"name":"Normandie / Terrasse","stopId":"1:1531","stopCode":"1531","lon":-71.02299,"lat":48.426196,"arrival":1522707939000,"departure":1522707940000,"zoneId":"NA","stopIndex":19,"stopSequence":20,"vertexType":"TRANSIT"},"to":{"name":"Destination","lon":-71.02324799,"lat":48.42632,"arrival":1522708026000,"orig":"","vertexType":"NORMAL"},"legGeometry":{"points":"mfqfH`tnpLPLX\\CrAgA?A?","length":6},"rentedBike":false,"transitLeg":false,"duration":86.0,"steps":[{"distance":29.770000000000003,"relativeDirection":"DEPART","streetName":"Rue de Normandie","absoluteDirection":"SOUTHWEST","stayOn":false,"area":false,"bogusName":false,"lon":-71.02288051293436,"lat":48.42615532364584,"elevation":[]},{"distance":31.131,"relativeDirection":"RIGHT","streetName":"Rue de la Terrasse","absoluteDirection":"WEST","stayOn":false,"area":false,"bogusName":false,"lon":-71.0231006,"lat":48.4259314,"elevation":[]},{"distance":40.675,"relativeDirection":"RIGHT","streetName":"Rue de Paris","absoluteDirection":"NORTH","stayOn":false,"area":false,"bogusName":false,"lon":-71.02352110000001,"lat":48.4259542,"elevation":[]}]}],"tooSloped":false},{"duration":3042,"startTime":1522707114000,"endTime":1522710156000,"walkTime":437,"transitTime":2061,"waitingTime":544,"walkDistance":560.4679774406734,"walkLimitExceeded":false,"elevationLost":0.0,"elevationGained":0.0,"transfers":1,"legs":[{"startTime":1522707114000,"endTime":1522707456000,"departureDelay":0,"arrivalDelay":0,"realTime":false,"distance":447.96000000000004,"pathway":false,"mode":"WALK","route":"","agencyTimeZoneOffset":-14400000,"interlineWithPreviousLeg":false,"from":{"name":"Origin","lon":-71.08145899,"lat":48.390131,"departure":1522707114000,"orig":"","vertexType":"NORMAL"},"to":{"name":"Talbot / Néro","stopId":"1:78","stopCode":"78","lon":-71.077222,"lat":48.387713,"arrival":1522707456000,"departure":1522707457000,"zoneId":"NA","stopIndex":3,"stopSequence":4,"vertexType":"TRANSIT"},"legGeometry":{"points":"ibjfHrezpLXs@Vs@tI_TTi@Pa@HS}@eA","length":8},"alerts":[{"alertHeaderText":"Unpaved surface"}],"rentedBike":false,"transitLeg":false,"duration":342.0,"steps":[{"distance":405.13300000000004,"relativeDirection":"DEPART","streetName":"Rue Néron","absoluteDirection":"SOUTHEAST","stayOn":false,"area":false,"bogusName":false,"lon":-71.0820137718573,"lat":48.38965710300426,"elevation":[],"alerts":[{"alertHeaderText":"Unpaved surface"}]},{"distance":42.827,"relativeDirection":"LEFT","streetName":"Boulevard Talbot","absoluteDirection":"NORTHEAST","stayOn":false,"area":false,"bogusName":false,"lon":-71.07765280000001,"lat":48.3874465,"elevation":[]}]},{"startTime":1522707457000,"endTime":1522708334000,"departureDelay":0,"arrivalDelay":0,"realTime":false,"distance":4847.57469812526,"pathway":false,"mode":"BUS","route":"175","agencyName":"Société de Transport du Saguenay","agencyUrl":"http://ville.saguenay.ca/fr/services-aux-citoyens/transport-sts","agencyTimeZoneOffset":-14400000,"routeColor":"FF00FF","routeType":3,"routeId":"1:175","routeTextColor":"FFFFFF","interlineWithPreviousLeg":false,"tripBlockId":"11","headsign":"Terminus Chicoutimi","agencyId":"0","tripId":"1:217485","serviceDate":"20180402","from":{"name":"Talbot / Néro","stopId":"1:78","stopCode":"78","lon":-71.077222,"lat":48.387713,"arrival":1522707456000,"departure":1522707457000,"zoneId":"NA","stopIndex":3,"stopSequence":4,"vertexType":"TRANSIT"},"to":{"name":"Cégep de Chicoutimi (voie réservée)","stopId":"1:65","stopCode":"65","lon":-71.054799,"lat":48.423007,"arrival":1522708334000,"departure":1522708876000,"zoneId":"NA","stopIndex":16,"stopSequence":17,"vertexType":"TRANSIT"},"legGeometry":{"points":"evifHtgypLkJuKoAwA_CeCeExJ~AlB`@mAu@k@}@q@|C}Iw@}@aO_QkEsEiAoAgEsFkFsHqJ_N}FkImPkOuO{N_U_TcNgNcBcB{E`Jc@x@qG~@{BlAk@XgSrQqB_GAeFiEeEOt@gAeA_A_ATm@yAwAgBeBqDnL@nBF`@","length":41},"routeShortName":"175","routeLongName":"Term. Chic / Costco","rentedBike":false,"transitLeg":true,"duration":877.0,"steps":[]},{"startTime":1522708876000,"endTime":1522710060000,"departureDelay":0,"arrivalDelay":0,"realTime":false,"distance":6527.222902160162,"pathway":false,"mode":"BUS","route":"12","agencyName":"Société de Transport du Saguenay","agencyUrl":"http://ville.saguenay.ca/fr/services-aux-citoyens/transport-sts","agencyTimeZoneOffset":-14400000,"routeColor":"556B2F","routeType":3,"routeId":"1:12","routeTextColor":"FFFFFF","interlineWithPreviousLeg":false,"tripBlockId":"29","headsign":"Terminus Chicoutimi","agencyId":"0","tripId":"1:218076","serviceDate":"20180402","from":{"name":"Cégep de Chicoutimi (voie réservée)","stopId":"1:65","stopCode":"65","lon":-71.054799,"lat":48.423007,"arrival":1522708334000,"departure":1522708876000,"zoneId":"NA","stopIndex":2,"stopSequence":3,"vertexType":"TRANSIT"},"to":{"name":"Normandie / Luberon","stopId":"1:1539","stopCode":"1539","lon":-71.0227,"lat":48.4262,"arrival":1522710060000,"departure":1522710061000,"zoneId":"NA","stopIndex":21,"stopSequence":22,"vertexType":"TRANSIT"},"legGeometry":{"points":"wrpfHn{tpLv@fCa@nDaC`D~E`F~MfNjJnJ~GbHnCpCv@iBlAgIdCmFbAqDtBeCjFm@`Gs@hFo@xAmBrGcPxFoNlCyGa@yFYkD}CyA}KmFgD_BgAgBn@kFD_NoIgrAmD_WcAaLaDHoDJi`@wVoAbDbA|AnBU|B|AfBlAyLtKoGxFcFqDkJaHgEoD","length":45},"routeShortName":"12","routeLongName":"Rivière du Moulin","rentedBike":false,"transitLeg":true,"duration":1184.0,"steps":[]},{"startTime":1522710061000,"endTime":1522710156000,"departureDelay":0,"arrivalDelay":0,"realTime":false,"distance":112.417,"pathway":false,"mode":"WALK","route":"","agencyTimeZoneOffset":-14400000,"interlineWithPreviousLeg":false,"from":{"name":"Normandie / Luberon","stopId":"1:1539","stopCode":"1539","lon":-71.0227,"lat":48.4262,"arrival":1522710060000,"departure":1522710061000,"zoneId":"NA","stopIndex":21,"stopSequence":22,"vertexType":"TRANSIT"},"to":{"name":"Destination","lon":-71.02324799,"lat":48.42632,"arrival":1522710156000,"orig":"","vertexType":"NORMAL"},"legGeometry":{"points":"_gqfHpsnpLPNPLX\\CrAgA?A?","length":7},"rentedBike":false,"transitLeg":false,"duration":95.0,"steps":[{"distance":40.611000000000004,"relativeDirection":"DEPART","streetName":"Rue de Normandie","absoluteDirection":"SOUTHWEST","stayOn":false,"area":false,"bogusName":false,"lon":-71.02280873633681,"lat":48.42624039743895,"elevation":[]},{"distance":31.131,"relativeDirection":"RIGHT","streetName":"Rue de la Terrasse","absoluteDirection":"WEST","stayOn":false,"area":false,"bogusName":false,"lon":-71.0231006,"lat":48.4259314,"elevation":[]},{"distance":40.675,"relativeDirection":"RIGHT","streetName":"Rue de Paris","absoluteDirection":"NORTH","stayOn":false,"area":false,"bogusName":false,"lon":-71.02352110000001,"lat":48.4259542,"elevation":[]}]}],"tooSloped":false}]},"debugOutput":{"precalculationTime":10,"pathCalculationTime":26,"pathTimes":[15,5,6],"renderingTime":0,"totalTime":36,"timedOut":false},"elevationMetadata":{"ellipsoidToGeoidDifference":-28.885904201182168,"geoidElevation":false}}