{"requestParameters":{"date":"2018/04/02","walkSpeed":"1.33","walkReluctance":"2.0","fromPlace":"48.423148,-71.052406","maxWalkDistance":"3000","waitReluctance":"1.0","carSpeed":"33","numItineraries":"3","waitAtBeginningFactor":"0.4","mode":"TRANSIT,WALK","ignoreRealtimeUpdates":"false","stairsReluctance":"2.0","toPlace":"48.409091,-71.05609099","time":"20:30:00"},"plan":{"date":1522715400000,"from":{"name":"Origin","lon":-71.052406,"lat":48.423148,"orig":"","vertexType":"NORMAL"},"to":{"name":"Destination","lon":-71.05609099,"lat":48.409091,"orig":"","vertexType":"NORMAL"},"itineraries":[{"duration":715,"startTime":1522715895000,"endTime":1522716610000,"walkTime":290,"transitTime":423,"waitingTime":2,"walkDistance":366.88533082441114,"walkLimitExceeded":false,"elevationLost":0.0,"elevationGained":0.0,"transfers":0,"legs":[{"startTime":1522715895000,"endTime":1522716075000,"departureDelay":0,"arrivalDelay":0,"realTime":false,"distance":229.888,"pathway":false,"mode":"WALK","route":"","agencyTimeZoneOffset":-14400000,"interlineWithPreviousLeg":false,"from":{"name":"Origin","lon":-71.052406,"lat":48.423148,"departure":1522715895000,"orig":"","vertexType":"NORMAL"},"to":{"name":"Cégep de Chicoutimi (voie réservée)","stopId":"1:65","stopCode":"65","lon":-71.054799,"lat":48.423007,"arrival":1522716075000,"departure":1522716076000,"zoneId":"NA","stopIndex":2,"stopSequence":3,"vertexType":"TRANSIT"},"legGeometry":{"points":"qspfHpltpL?n@CVWrB~A^_@hAUt@@z@Hn@BR","length":10},"rentedBike":false,"transitLeg":false,"duration":180.0,"steps":[{"distance":71.52,"relativeDirection":"DEPART","streetName":"service road","absoluteDirection":"WEST","stayOn":false,"area":false,"bogusName":false,"lon":-71.05240568397582,"lat":48.423135724671475,"elevation":[]},{"distance":54.189,"relativeDirection":"LEFT","streetName":"path","absoluteDirection":"SOUTH","stayOn":false,"area":false,"bogusName":true,"lon":-71.05334280000001,"lat":48.4232749,"elevation":[]},{"distance":104.179,"relativeDirection":"RIGHT","streetName":"bike path","absoluteDirection":"NORTHWEST","stayOn":true,"area":false,"bogusName":true,"lon":-71.053503,"lat":48.4227993,"elevation":[]}]},{"startTime":1522716076000,"endTime":1522716499000,"departureDelay":0,"arrivalDelay":0,"realTime":false,"distance":2248.2664360514104,"pathway":false,"mode":"BUS","route":"12","agencyName":"Société de Transport du Saguenay","agencyUrl":"http://ville.saguenay.ca/fr/services-aux-citoyens/transport-sts","agencyTimeZoneOffset":-14400000,"routeColor":"556B2F","routeType":3,"routeId":"1:12","routeTextColor":"FFFFFF","interlineWithPreviousLeg":false,"tripBlockId":"29","headsign":"Terminus Chicoutimi","agencyId":"0","tripId":"1:218080","serviceDate":"20180402","from":{"name":"Cégep de Chicoutimi (voie réservée)","stopId":"1:65","stopCode":"65","lon":-71.054799,"lat":48.423007,"arrival":1522716075000,"departure":1522716076000,"zoneId":"NA","stopIndex":2,"stopSequence":3,"vertexType":"TRANSIT"},"to":{"name":"Place du Saguenay (Champs-Élysées)","stopId":"1:571","stopCode":"571","lon":-71.055824,"lat":48.408307,"arrival":1522716499000,"departure":1522716500000,"zoneId":"NA","stopIndex":12,"stopSequence":13,"vertexType":"TRANSIT"},"legGeometry":{"points":"wrpfHn{tpLv@fCa@nDaC`D~E`F~MfNjJnJ~GbHnCpCv@iBlAgIdCmFbAqDtBeCjFm@`Gs@hFo@xAmBrGcP","length":19},"routeShortName":"12","routeLongName":"Rivière du Moulin","rentedBike":false,"transitLeg":true,"duration":423.0,"steps":[]},{"startTime":1522716500000,"endTime":1522716610000,"departureDelay":0,"arrivalDelay":0,"realTime":false,"distance":136.91500000000002,"pathway":false,"mode":"WALK","route":"","agencyTimeZoneOffset":-14400000,"interlineWithPreviousLeg":false,"from":{"name":"Place du Saguenay (Champs-Élysées)","stopId":"1:571","stopCode":"571","lon":-71.055824,"lat":48.408307,"arrival":1522716499000,"departure":1522716500000,"zoneId":"NA","stopIndex":12,"stopSequence":13,"vertexType":"TRANSIT"},"to":{"name":"Destination","lon":-71.05609099,"lat":48.409091,"arrival":1522716610000,"orig":"","vertexType":"NORMAL"},"legGeometry":{"points":"iwmfHnaupL]|@O`@M\\e@`AcAkA","length":6},"rentedBike":false,"transitLeg":false,"duration":110.0,"steps":[{"distance":89.62,"relativeDirection":"DEPART","streetName":"Rue des Champs-Élysées","absoluteDirection":"NORTHWEST","stayOn":false,"area":false,"bogusName":false,"lon":-71.05575512063196,"lat":48.408370203803415,"elevation":[]},{"distance":47.295,"relativeDirection":"RIGHT","streetName":"Rue Mozart","absoluteDirection":"NORTHEAST","stayOn":false,"area":false,"bogusName":false,"lon":-71.05671190000001,"lat":48.4088653,"elevation":[]}]}],"tooSloped":false},{"duration":1121,"startTime":1522716548000,"endTime":1522717669000,"walkTime":690,"transitTime":429,"waitingTime":2,"walkDistance":866.9847819496346,"walkLimitExceeded":false,"elevationLost":0.0,"elevationGained":0.0,"transfers":0,"legs":[{"startTime":1522716548000,"endTime":1522716759000,"departureDelay":0,"arrivalDelay":0,"realTime":false,"distance":256.03600000000006,"pathway":false,"mode":"WALK","route":"","agencyTimeZoneOffset":-14400000,"interlineWithPreviousLeg":false,"from":{"name":"Origin","lon":-71.052406,"lat":48.423148,"departure":1522716548000,"orig":"","vertexType":"NORMAL"},"to":{"name":"Cégep de Chicoutimi (voie réservée)","stopId":"1:75","stopCode":"75","lon":-71.055283,"lat":48.422761,"arrival":1522716759000,"departure":1522716760000,"zoneId":"NA","stopIndex":9,"stopSequence":10,"vertexType":"TRANSIT"},"legGeometry":{"points":"qspfHpltpL?n@CVWrBOpAP`AN`ANnCJAZELAFh@","length":12},"rentedBike":false,"transitLeg":false,"duration":211.0,"steps":[{"distance":239.42900000000003,"relativeDirection":"DEPART","streetName":"service road","absoluteDirection":"WEST","stayOn":false,"area":false,"bogusName":false,"lon":-71.05240568397582,"lat":48.423135724671475,"elevation":[]},{"distance":16.607,"relativeDirection":"RIGHT","streetName":"Chemin Saint Thomas","absoluteDirection":"WEST","stayOn":false,"area":false,"bogusName":false,"lon":-71.0550802,"lat":48.4228351,"elevation":[]}]},{"startTime":1522716760000,"endTime":1522717189000,"departureDelay":0,"arrivalDelay":0,"realTime":false,"distance":2129.5346560440207,"pathway":false,"mode":"BUS","route":"175","agencyName":"Société de Transport du Saguenay","agencyUrl":"http://ville.saguenay.ca/fr/services-aux-citoyens/transport-sts","agencyTimeZoneOffset":-14400000,"routeColor":"FF00FF","routeType":3,"routeId":"1:175","routeTextColor":"FFFFFF","interlineWithPreviousLeg":false,"tripBlockId":"7","headsign":"Costco","agencyId":"0","tripId":"1:217349","serviceDate":"20180402","from":{"name":"Cégep de Chicoutimi (voie réservée)","stopId":"1:75","stopCode":"75","lon":-71.055283,"lat":48.422761,"arrival":1522716759000,"departure":1522716760000,"zoneId":"NA","stopIndex":9,"stopSequence":10,"vertexType":"TRANSIT"},"to":{"name":"Émile Girardin / Roitelets","stopId":"1:253","stopCode":"253","lon":-71.050677,"lat":48.406726,"arrival":1522717189000,"departure":1522717190000,"zoneId":"NA","stopIndex":17,"stopSequence":18,"vertexType":"TRANSIT"},"legGeometry":{"points":"oqpfHr~tpLC]g@yEzDuLbBbBvAxAMx@|@v@`A~@Xw@~D~DPxFZtA~ApE`N{LpFmEb@[ROl@[vDQXKfA[|@q@fAsBlEmMr@sBhCsKz@dAjB|@dM`GzCvAXrC","length":32},"routeShortName":"175","routeLongName":"Term. Chic / Costco","rentedBike":false,"transitLeg":true,"duration":429.0,"steps":[]},{"startTime":1522717190000,"endTime":1522717669000,"departureDelay":0,"arrivalDelay":0,"realTime":false,"distance":610.786,"pathway":false,"mode":"WALK","route":"","agencyTimeZoneOffset":-14400000,"interlineWithPreviousLeg":false,"from":{"name":"Émile Girardin / Roitelets","stopId":"1:253","stopCode":"253","lon":-71.050677,"lat":48.406726,"arrival":1522717189000,"departure":1522717190000,"zoneId":"NA","stopIndex":17,"stopSequence":18,"vertexType":"TRANSIT"},"to":{"name":"Destination","lon":-71.05609099,"lat":48.409091,"arrival":1522717669000,"orig":"","vertexType":"NORMAL"},"legGeometry":{"points":"qlmfHnatpL@J@FFn@z@pEcA`AgAtAQTOb@aA~Cs@pBk@~AIRO`@GPm@|A]|@O`@M\\e@`AcAkA","length":21},"rentedBike":false,"transitLeg":false,"duration":479.0,"steps":[{"distance":110.098,"relativeDirection":"DEPART","streetName":"Rue Émile-Girardin","absoluteDirection":"WEST","stayOn":false,"area":false,"bogusName":false,"lon":-71.05063801296859,"lat":48.406654574894674,"elevation":[]},{"distance":453.39300000000003,"relativeDirection":"RIGHT","streetName":"Rue des Champs-Élysées","absoluteDirection":"NORTHWEST","stayOn":false,"area":false,"bogusName":false,"lon":-71.05202630000001,"lat":48.4062974,"elevation":[]},{"distance":47.295,"relativeDirection":"RIGHT","streetName":"Rue Mozart","absoluteDirection":"NORTHEAST","stayOn":false,"area":false,"bogusName":false,"lon":-71.05671190000001,"lat":48.4088653,"elevation":[]}]}],"tooSloped":false},{"duration":715,"startTime":1522717695000,"endTime":1522718410000,"walkTime":290,"transitTime":423,"waitingTime":2,"walkDistance":366.88533082441114,"walkLimitExceeded":false,"elevationLost":0.0,"elevationGained":0.0,"transfers":0,"legs":[{"startTime":1522717695000,"endTime":1522717875000,"departureDelay":0,"arrivalDelay":0,"realTime":false,"distance":229.888,"pathway":false,"mode":"WALK","route":"","agencyTimeZoneOffset":-14400000,"interlineWithPreviousLeg":false,"from":{"name":"Origin","lon":-71.052406,"lat":48.423148,"departure":1522717695000,"orig":"","vertexType":"NORMAL"},"to":{"name":"Cégep de Chicoutimi (voie réservée)","stopId":"1:65","stopCode":"65","lon":-71.054799,"lat":48.423007,"arrival":1522717875000,"departure":1522717876000,"zoneId":"NA","stopIndex":2,"stopSequence":3,"vertexType":"TRANSIT"},"legGeometry":{"points":"qspfHpltpL?n@CVWrB~A^_@hAUt@@z@Hn@BR","length":10},"rentedBike":false,"transitLeg":false,"duration":180.0,"steps":[{"distance":71.52,"relativeDirection":"DEPART","streetName":"service road","absoluteDirection":"WEST","stayOn":false,"area":false,"bogusName":false,"lon":-71.05240568397582,"lat":48.423135724671475,"elevation":[]},{"distance":54.189,"relativeDirection":"LEFT","streetName":"path","absoluteDirection":"SOUTH","stayOn":false,"area":false,"bogusName":true,"lon":-71.05334280000001,"lat":48.4232749,"elevation":[]},{"distance":104.179,"relativeDirection":"RIGHT","streetName":"bike path","absoluteDirection":"NORTHWEST","stayOn":true,"area":false,"bogusName":true,"lon":-71.053503,"lat":48.4227993,"elevation":[]}]},{"startTime":1522717876000,"endTime":1522718299000,"departureDelay":0,"arrivalDelay":0,"realTime":false,"distance":2248.2664360514104,"pathway":false,"mode":"BUS","route":"12","agencyName":"Société de Transport du Saguenay","agencyUrl":"http://ville.saguenay.ca/fr/services-aux-citoyens/transport-sts","agencyTimeZoneOffset":-14400000,"routeColor":"556B2F","routeType":3,"routeId":"1:12","routeTextColor":"FFFFFF","interlineWithPreviousLeg":false,"tripBlockId":"26","headsign":"Terminus Chicoutimi","agencyId":"0","tripId":"1:217993","serviceDate":"20180402","from":{"name":"Cégep de Chicoutimi (voie réservée)","stopId":"1:65","stopCode":"65","lon":-71.054799,"lat":48.423007,"arrival":1522717875000,"departure":1522717876000,"zoneId":"NA","stopIndex":2,"stopSequence":3,"vertexType":"TRANSIT"},"to":{"name":"Place du Saguenay (Champs-Élysées)","stopId":"1:571","stopCode":"571","lon":-71.055824,"lat":48.408307,"arrival":1522718299000,"departure":1522718300000,"zoneId":"NA","stopIndex":12,"stopSequence":13,"vertexType":"TRANSIT"},"legGeometry":{"points":"wrpfHn{tpLv@fCa@nDaC`D~E`F~MfNjJnJ~GbHnCpCv@iBlAgIdCmFbAqDtBeCjFm@`Gs@hFo@xAmBrGcP","length":19},"routeShortName":"12","routeLongName":"Rivière du Moulin","rentedBike":false,"transitLeg":true,"duration":423.0,"steps":[]},{"startTime":1522718300000,"endTime":1522718410000,"departureDelay":0,"arrivalDelay":0,"realTime":false,"distance":136.91500000000002,"pathway":false,"mode":"WALK","route":"","agencyTimeZoneOffset":-14400000,"interlineWithPreviousLeg":false,"from":{"name":"Place du Saguenay (Champs-Élysées)","stopId":"1:571","stopCode":"571","lon":-71.055824,"lat":48.408307,"arrival":1522718299000,"departure":1522718300000,"zoneId":"NA","stopIndex":12,"stopSequence":13,"vertexType":"TRANSIT"},"to":{"name":"Destination","lon":-71.05609099,"lat":48.409091,"arrival":1522718410000,"orig":"","vertexType":"NORMAL"},"legGeometry":{"points":"iwmfHnaupL]|@O`@M\\e@`AcAkA","length":6},"rentedBike":false,"transitLeg":false,"duration":110.0,"steps":[{"distance":89.62,"relativeDirection":"DEPART","streetName":"Rue des Champs-Élysées","absoluteDirection":"NORTHWEST","stayOn":false,"area":false,"bogusName":false,"lon":-71.05575512063196,"lat":48.408370203803415,"elevation":[]},{"distance":47.295,"relativeDirection":"RIGHT","streetName":"Rue Mozart","absoluteDirection":"NORTHEAST","stayOn":false,"area":false,"bogusName":false,"lon":-71.05671190000001,"lat":48.4088653,"elevation":[]}]}],"tooSloped":false}]},"debugOutput":{"precalculationTime":62,"pathCalculationTime":29,"pathTimes":[15,7,7],"renderingTime":0,"totalTime":91,"timedOut":false},"elevationMetadata":{"ellipsoidToGeoidDifference":-28.885904201182168,"geoidElevation":false}}