{"requestParameters":{"date":"2018/04/02","walkSpeed":"1.33","walkReluctance":"2.0","fromPlace":"48.44926,-71.087893","maxWalkDistance":"3000","waitReluctance":"1.0","carSpeed":"33","numItineraries":"3","waitAtBeginningFactor":"0.4","mode":"TRANSIT,WALK","ignoreRealtimeUpdates":"false","stairsReluctance":"2.0","toPlace":"48.448986,-71.085091","time":"16:0:00"},"plan":{"date":1522699200000,"from":{"name":"Origin","lon":-71.087893,"lat":48.44926,"orig":"","vertexType":"NORMAL"},"to":{"name":"Destination","lon":-71.085091,"lat":48.448986,"orig":"","vertexType":"NORMAL"},"itineraries":[{"duration":215,"startTime":1522699200000,"endTime":1522699415000,"walkTime":215,"transitTime":0,"waitingTime":0,"walkDistance":261.8613082666979,"walkLimitExceeded":false,"elevationLost":0.0,"elevationGained":0.0,"transfers":0,"legs":[{"startTime":1522699200000,"endTime":1522699415000,"departureDelay":0,"arrivalDelay":0,"realTime":false,"distance":261.738,"pathway":false,"mode":"WALK","route":"","agencyTimeZoneOffset":-14400000,"interlineWithPreviousLeg":false,"from":{"name":"Origin","lon":-71.087893,"lat":48.44926,"departure":1522699200000,"orig":"","vertexType":"NORMAL"},"to":{"name":"Destination","lon":-71.085091,"lat":48.448986,"arrival":1522699415000,"orig":"","vertexType":"NORMAL"},"legGeometry":{"points":"swufHbi{pLCB{AyBCOvAyBx@iAM[PU~@eA","length":9},"rentedBike":false,"transitLeg":false,"duration":215.0,"steps":[{"distance":3.06,"relativeDirection":"DEPART","streetName":"Rue Mézy","absoluteDirection":"NORTHWEST","stayOn":false,"area":false,"bogusName":false,"lon":-71.08769045014337,"lat":48.44938570279463,"elevation":[]},{"distance":68.239,"relativeDirection":"RIGHT","streetName":"Rue Panet","absoluteDirection":"NORTHEAST","stayOn":false,"area":false,"bogusName":false,"lon":-71.0877188,"lat":48.4494058,"elevation":[]},{"distance":11.826,"relativeDirection":"SLIGHTLY_RIGHT","streetName":"steps","absoluteDirection":"NORTHEAST","stayOn":false,"area":false,"bogusName":true,"lon":-71.0871001,"lat":48.449862100000004,"elevation":[]},{"distance":178.613,"relativeDirection":"RIGHT","streetName":"Boulevard Sainte-Geneviève","absoluteDirection":"SOUTHEAST","stayOn":false,"area":false,"bogusName":false,"lon":-71.08702840000001,"lat":48.449885900000005,"elevation":[]}]}],"tooSloped":false}]},"debugOutput":{"precalculationTime":10,"pathCalculationTime":12,"pathTimes":[0,7,5],"renderingTime":1,"totalTime":23,"timedOut":false},"elevationMetadata":{"ellipsoidToGeoidDifference":-28.885904201182168,"geoidElevation":false}}