{"requestParameters":{"date":"2018/04/02","walkSpeed":"1.33","walkReluctance":"2.0","fromPlace":"48.428727,-71.053926","maxWalkDistance":"3000","waitReluctance":"1.0","carSpeed":"33","numItineraries":"3","waitAtBeginningFactor":"0.4","mode":"TRANSIT,WALK","ignoreRealtimeUpdates":"false","stairsReluctance":"2.0","toPlace":"48.429318,-71.03761299","time":"17:15:00"},"plan":{"date":1522703700000,"from":{"name":"Origin","lon":-71.053926,"lat":48.428727,"orig":"","vertexType":"NORMAL"},"to":{"name":"Destination","lon":-71.03761299,"lat":48.429318,"orig":"","vertexType":"NORMAL"},"itineraries":[{"duration":298,"startTime":1522703750000,"endTime":1522704048000,"walkTime":142,"transitTime":154,"waitingTime":2,"walkDistance":181.23664661626236,"walkLimitExceeded":false,"elevationLost":0.0,"elevationGained":0.0,"transfers":0,"legs":[{"startTime":1522703750000,"endTime":1522703847000,"departureDelay":0,"arrivalDelay":0,"realTime":false,"distance":122.184,"pathway":false,"mode":"WALK","route":"","agencyTimeZoneOffset":-14400000,"interlineWithPreviousLeg":false,"from":{"name":"Origin","lon":-71.053926,"lat":48.428727,"departure":1522703750000,"orig":"","vertexType":"NORMAL"},"to":{"name":"Racine / Séminaire","stopId":"1:1523","stopCode":"1523","lon":-71.052243,"lat":48.428706,"arrival":1522703847000,"departure":1522703848000,"zoneId":"NA","stopIndex":3,"stopSequence":4,"vertexType":"TRANSIT"},"legGeometry":{"points":"{uqfHzutpLIiAEo@Ck@AWKgC","length":6},"rentedBike":false,"transitLeg":false,"duration":97.0,"steps":[{"distance":122.184,"relativeDirection":"DEPART","streetName":"Rue Racine Est","absoluteDirection":"EAST","stayOn":false,"area":false,"bogusName":false,"lon":-71.05389568833688,"lat":48.4286265656125,"elevation":[]}]},{"startTime":1522703848000,"endTime":1522704002000,"departureDelay":0,"arrivalDelay":0,"realTime":false,"distance":1150.372392521528,"pathway":false,"mode":"BUS","route":"12","agencyName":"Société de Transport du Saguenay","agencyUrl":"http://ville.saguenay.ca/fr/services-aux-citoyens/transport-sts","agencyTimeZoneOffset":-14400000,"routeColor":"556B2F","routeType":3,"routeId":"1:12","routeTextColor":"FFFFFF","interlineWithPreviousLeg":false,"tripBlockId":"28","headsign":"Terminus UQAC","agencyId":"0","tripId":"1:218047","serviceDate":"20180402","from":{"name":"Racine / Séminaire","stopId":"1:1523","stopCode":"1523","lon":-71.052243,"lat":48.428706,"arrival":1522703847000,"departure":1522703848000,"zoneId":"NA","stopIndex":3,"stopSequence":4,"vertexType":"TRANSIT"},"to":{"name":"boul. Saguenay / Vézina","stopId":"1:493","stopCode":"493","lon":-71.036884,"lat":48.429615,"arrival":1522704002000,"departure":1522704003000,"zoneId":"NA","stopIndex":7,"stopSequence":8,"vertexType":"TRANSIT"},"legGeometry":{"points":"kvqfHpktpL_DaZz@u]SeV}@aN","length":5},"routeShortName":"12","routeLongName":"Rivière du Moulin","rentedBike":false,"transitLeg":true,"duration":154.0,"steps":[]},{"startTime":1522704003000,"endTime":1522704048000,"departureDelay":0,"arrivalDelay":0,"realTime":false,"distance":59.044,"pathway":false,"mode":"WALK","route":"","agencyTimeZoneOffset":-14400000,"interlineWithPreviousLeg":false,"from":{"name":"boul. Saguenay / Vézina","stopId":"1:493","stopCode":"493","lon":-71.036884,"lat":48.429615,"arrival":1522704002000,"departure":1522704003000,"zoneId":"NA","stopIndex":7,"stopSequence":8,"vertexType":"TRANSIT"},"to":{"name":"Destination","lon":-71.03761299,"lat":48.429318,"arrival":1522704048000,"orig":"","vertexType":"NORMAL"},"legGeometry":{"points":"o|qfHtkqpL?@Dp@L~A@H","length":5},"rentedBike":false,"transitLeg":false,"duration":45.0,"steps":[{"distance":59.044,"relativeDirection":"DEPART","streetName":"Boulevard du Saguenay Est","absoluteDirection":"WEST","stayOn":false,"area":false,"bogusName":false,"lon":-71.03690716531274,"lat":48.42968734834309,"elevation":[]}]}],"tooSloped":false},{"duration":950,"startTime":1522703700000,"endTime":1522704650000,"walkTime":950,"transitTime":0,"waitingTime":0,"walkDistance":1237.7033609008242,"walkLimitExceeded":false,"elevationLost":0.0,"elevationGained":0.0,"transfers":0,"legs":[{"startTime":1522703700000,"endTime":1522704650000,"departureDelay":0,"arrivalDelay":0,"realTime":false,"distance":1237.6589999999999,"pathway":false,"mode":"WALK","route":"","agencyTimeZoneOffset":-14400000,"interlineWithPreviousLeg":false,"from":{"name":"Origin","lon":-71.053926,"lat":48.428727,"departure":1522703700000,"orig":"","vertexType":"NORMAL"},"to":{"name":"Destination","lon":-71.03761299,"lat":48.429318,"arrival":1522704650000,"orig":"","vertexType":"NORMAL"},"legGeometry":{"points":"{uqfHzutpLIiAEo@Ck@AWKgCCo@g@}@OQm@w@m@cBIm@Cq@@uH?g@@kC?kD@{A?[?}@?a@DmAB[PuBHkAB[Dy@DqA@q@@}@@M?ADqCA{JMuDCYGy@MiBKyAGgA","length":40},"rentedBike":false,"transitLeg":false,"duration":950.0,"steps":[{"distance":796.071,"relativeDirection":"DEPART","streetName":"Rue Racine Est","absoluteDirection":"EAST","stayOn":false,"area":false,"bogusName":false,"lon":-71.05389568833688,"lat":48.4286265656125,"elevation":[]},{"distance":441.588,"relativeDirection":"CONTINUE","streetName":"Boulevard du Saguenay Est","absoluteDirection":"EAST","stayOn":false,"area":false,"bogusName":false,"lon":-71.04363190000001,"lat":48.4293294,"elevation":[]}]}],"tooSloped":false},{"duration":298,"startTime":1522705550000,"endTime":1522705848000,"walkTime":142,"transitTime":154,"waitingTime":2,"walkDistance":181.23664661626236,"walkLimitExceeded":false,"elevationLost":0.0,"elevationGained":0.0,"transfers":0,"legs":[{"startTime":1522705550000,"endTime":1522705647000,"departureDelay":0,"arrivalDelay":0,"realTime":false,"distance":122.184,"pathway":false,"mode":"WALK","route":"","agencyTimeZoneOffset":-14400000,"interlineWithPreviousLeg":false,"from":{"name":"Origin","lon":-71.053926,"lat":48.428727,"departure":1522705550000,"orig":"","vertexType":"NORMAL"},"to":{"name":"Racine / Séminaire","stopId":"1:1523","stopCode":"1523","lon":-71.052243,"lat":48.428706,"arrival":1522705647000,"departure":1522705648000,"zoneId":"NA","stopIndex":3,"stopSequence":4,"vertexType":"TRANSIT"},"legGeometry":{"points":"{uqfHzutpLIiAEo@Ck@AWKgC","length":6},"rentedBike":false,"transitLeg":false,"duration":97.0,"steps":[{"distance":122.184,"relativeDirection":"DEPART","streetName":"Rue Racine Est","absoluteDirection":"EAST","stayOn":false,"area":false,"bogusName":false,"lon":-71.05389568833688,"lat":48.4286265656125,"elevation":[]}]},{"startTime":1522705648000,"endTime":1522705802000,"departureDelay":0,"arrivalDelay":0,"realTime":false,"distance":1150.372392521528,"pathway":false,"mode":"BUS","route":"12","agencyName":"Société de Transport du Saguenay","agencyUrl":"http://ville.saguenay.ca/fr/services-aux-citoyens/transport-sts","agencyTimeZoneOffset":-14400000,"routeColor":"556B2F","routeType":3,"routeId":"1:12","routeTextColor":"FFFFFF","interlineWithPreviousLeg":false,"tripBlockId":"27","headsign":"Terminus UQAC","agencyId":"0","tripId":"1:218022","serviceDate":"20180402","from":{"name":"Racine / Séminaire","stopId":"1:1523","stopCode":"1523","lon":-71.052243,"lat":48.428706,"arrival":1522705647000,"departure":1522705648000,"zoneId":"NA","stopIndex":3,"stopSequence":4,"vertexType":"TRANSIT"},"to":{"name":"boul. Saguenay / Vézina","stopId":"1:493","stopCode":"493","lon":-71.036884,"lat":48.429615,"arrival":1522705802000,"departure":1522705803000,"zoneId":"NA","stopIndex":7,"stopSequence":8,"vertexType":"TRANSIT"},"legGeometry":{"points":"kvqfHpktpL_DaZz@u]SeV}@aN","length":5},"routeShortName":"12","routeLongName":"Rivière du Moulin","rentedBike":false,"transitLeg":true,"duration":154.0,"steps":[]},{"startTime":1522705803000,"endTime":1522705848000,"departureDelay":0,"arrivalDelay":0,"realTime":false,"distance":59.044,"pathway":false,"mode":"WALK","route":"","agencyTimeZoneOffset":-14400000,"interlineWithPreviousLeg":false,"from":{"name":"boul. Saguenay / Vézina","stopId":"1:493","stopCode":"493","lon":-71.036884,"lat":48.429615,"arrival":1522705802000,"departure":1522705803000,"zoneId":"NA","stopIndex":7,"stopSequence":8,"vertexType":"TRANSIT"},"to":{"name":"Destination","lon":-71.03761299,"lat":48.429318,"arrival":1522705848000,"orig":"","vertexType":"NORMAL"},"legGeometry":{"points":"o|qfHtkqpL?@Dp@L~A@H","length":5},"rentedBike":false,"transitLeg":false,"duration":45.0,"steps":[{"distance":59.044,"relativeDirection":"DEPART","streetName":"Boulevard du Saguenay Est","absoluteDirection":"WEST","stayOn":false,"area":false,"bogusName":false,"lon":-71.03690716531274,"lat":48.42968734834309,"elevation":[]}]}],"tooSloped":false}]},"debugOutput":{"precalculationTime":26,"pathCalculationTime":19,"pathTimes":[11,5,3],"renderingTime":1,"totalTime":46,"timedOut":false},"elevationMetadata":{"ellipsoidToGeoidDifference":-28.885904201182168,"geoidElevation":false}}