{"requestParameters":{"date":"2018/04/02","walkSpeed":"1.33","walkReluctance":"2.0","fromPlace":"48.428934,-71.028285","maxWalkDistance":"3000","waitReluctance":"1.0","carSpeed":"33","numItineraries":"3","waitAtBeginningFactor":"0.4","mode":"TRANSIT,WALK","ignoreRealtimeUpdates":"false","stairsReluctance":"2.0","toPlace":"48.389278,-70.978831","time":"16:15:00"},"plan":{"date":1522700100000,"from":{"name":"Origin","lon":-71.028285,"lat":48.428934,"orig":"","vertexType":"NORMAL"},"to":{"name":"Destination","lon":-70.978831,"lat":48.389278,"orig":"","vertexType":"NORMAL"},"itineraries":[{"duration":1484,"startTime":1522700470000,"endTime":1522701954000,"walkTime":147,"transitTime":838,"waitingTime":499,"walkDistance":190.731,"walkLimitExceeded":false,"elevationLost":0.0,"elevationGained":0.0,"transfers":1,"legs":[{"startTime":1522700470000,"endTime":1522700490000,"departureDelay":0,"arrivalDelay":0,"realTime":false,"distance":25.184,"pathway":false,"mode":"WALK","route":"","agencyTimeZoneOffset":-14400000,"interlineWithPreviousLeg":false,"from":{"name":"Origin","lon":-71.028285,"lat":48.428934,"departure":1522700470000,"orig":"","vertexType":"NORMAL"},"to":{"name":"Auberge Le Parasol (boul. Saguenay)","stopId":"1:496","stopCode":"496","lon":-71.027958,"lat":48.428859,"arrival":1522700490000,"departure":1522700491000,"zoneId":"NA","stopIndex":11,"stopSequence":12,"vertexType":"TRANSIT"},"legGeometry":{"points":"oxqfHfuopL??@CRw@","length":4},"rentedBike":false,"transitLeg":false,"duration":20.0,"steps":[{"distance":25.184,"relativeDirection":"DEPART","streetName":"Boulevard du Saguenay Est","absoluteDirection":"SOUTHEAST","stayOn":false,"area":false,"bogusName":false,"lon":-71.02819514148429,"lat":48.42904430074981,"elevation":[]}]},{"startTime":1522700491000,"endTime":1522701083000,"departureDelay":0,"arrivalDelay":0,"realTime":false,"distance":3165.3316988751685,"pathway":false,"mode":"BUS","route":"12","agencyName":"Société de Transport du Saguenay","agencyUrl":"http://ville.saguenay.ca/fr/services-aux-citoyens/transport-sts","agencyTimeZoneOffset":-14400000,"routeColor":"556B2F","routeType":3,"routeId":"1:12","routeTextColor":"FFFFFF","interlineWithPreviousLeg":false,"tripBlockId":"28","headsign":"Terminus UQAC","agencyId":"0","tripId":"1:218045","serviceDate":"20180402","from":{"name":"Auberge Le Parasol (boul. Saguenay)","stopId":"1:496","stopCode":"496","lon":-71.027958,"lat":48.428859,"arrival":1522700490000,"departure":1522700491000,"zoneId":"NA","stopIndex":11,"stopSequence":12,"vertexType":"TRANSIT"},"to":{"name":"nouveau","stopId":"1:2297","stopCode":"2297","lon":-71.02468,"lat":48.413593,"arrival":1522701083000,"departure":1522701083000,"zoneId":"NA","stopIndex":25,"stopSequence":26,"vertexType":"TRANSIT"},"legGeometry":{"points":"iwqfHvsopLkGuLqFqJ_DeFf@iIvGsKlIrH`JlH`EfDnOdIdGlGjL|BzBiLv@}L`b@fN","length":15},"routeShortName":"12","routeLongName":"Rivière du Moulin","rentedBike":false,"transitLeg":true,"duration":592.0,"steps":[]},{"startTime":1522701083000,"endTime":1522701163000,"departureDelay":0,"arrivalDelay":0,"realTime":false,"distance":103.461,"pathway":false,"mode":"WALK","route":"","agencyTimeZoneOffset":-14400000,"interlineWithPreviousLeg":false,"from":{"name":"nouveau","stopId":"1:2297","stopCode":"2297","lon":-71.02468,"lat":48.413593,"arrival":1522701083000,"departure":1522701083000,"zoneId":"NA","stopIndex":25,"stopSequence":26,"vertexType":"TRANSIT"},"to":{"name":"boul. St-Jean-Baptiste / boul. Université","stopId":"1:196","stopCode":"196","lon":-71.024224,"lat":48.412686,"arrival":1522701163000,"departure":1522701660000,"zoneId":"NA","stopIndex":4,"stopSequence":5,"vertexType":"TRANSIT"},"legGeometry":{"points":"axnfHb~npLTEp@KfBeA","length":4},"rentedBike":false,"transitLeg":false,"duration":80.0,"steps":[{"distance":40.223,"relativeDirection":"DEPART","streetName":"Boulevard du Saguenay Est","absoluteDirection":"SOUTH","stayOn":false,"area":false,"bogusName":false,"lon":-71.02449091813529,"lat":48.41361228978169,"elevation":[]},{"distance":63.238,"relativeDirection":"CONTINUE","streetName":"Boulevard Saint-Jean-Baptiste","absoluteDirection":"SOUTHEAST","stayOn":false,"area":false,"bogusName":false,"lon":-71.0244078,"lat":48.413254800000004,"elevation":[]}]},{"startTime":1522701660000,"endTime":1522701906000,"departureDelay":0,"arrivalDelay":0,"realTime":false,"distance":4203.987845392342,"pathway":false,"mode":"BUS","route":"5","agencyName":"Société de Transport du Saguenay","agencyUrl":"http://ville.saguenay.ca/fr/services-aux-citoyens/transport-sts","agencyTimeZoneOffset":-14400000,"routeColor":"FF0000","routeType":3,"routeId":"1:5","routeTextColor":"FFFFFF","interlineWithPreviousLeg":false,"tripBlockId":"25","headsign":"Terminus La Baie","agencyId":"0","tripId":"1:217947","serviceDate":"20180402","from":{"name":"boul. St-Jean-Baptiste / boul. Université","stopId":"1:196","stopCode":"196","lon":-71.024224,"lat":48.412686,"arrival":1522701163000,"departure":1522701660000,"zoneId":"NA","stopIndex":4,"stopSequence":5,"vertexType":"TRANSIT"},"to":{"name":"boul. St-Jean-Baptiste (no. 3020)","stopId":"1:347","stopCode":"347","lon":-70.979615,"lat":48.389511,"arrival":1522701906000,"departure":1522701907000,"zoneId":"NA","stopIndex":17,"stopSequence":18,"vertexType":"TRANSIT"},"legGeometry":{"points":"qrnfHr{npLZUdDeD|IoJp@u@l@_Ah@{@f@{@DMp@uAt@iBnAgDrQme@lKwXnGoPlAaDjAsD~@aENy@jCeO\\{ANi@l@cBt@aBr@kAdAuAlEsFrAuBJO`B}CdAmCtEeMtEaMhCeHhJ}VjH}RpBqF","length":37},"routeShortName":"5","routeLongName":"Term. Chic/Term. Baie via St-J.Batiste","rentedBike":false,"transitLeg":true,"duration":246.0,"steps":[]},{"startTime":1522701907000,"endTime":1522701954000,"departureDelay":0,"arrivalDelay":0,"realTime":false,"distance":62.086,"pathway":false,"mode":"WALK","route":"","agencyTimeZoneOffset":-14400000,"interlineWithPreviousLeg":false,"from":{"name":"boul. St-Jean-Baptiste (no. 3020)","stopId":"1:347","stopCode":"347","lon":-70.979615,"lat":48.389511,"arrival":1522701906000,"departure":1522701907000,"zoneId":"NA","stopIndex":17,"stopSequence":18,"vertexType":"TRANSIT"},"to":{"name":"Destination","lon":-70.978831,"lat":48.389278,"arrival":1522701954000,"orig":"","vertexType":"NORMAL"},"legGeometry":{"points":"_bjfH~dfpL`AgC","length":2},"rentedBike":false,"transitLeg":false,"duration":47.0,"steps":[{"distance":62.086,"relativeDirection":"DEPART","streetName":"Boulevard Saint-Jean-Baptiste","absoluteDirection":"SOUTHEAST","stayOn":false,"area":false,"bogusName":false,"lon":-70.97951157227264,"lat":48.389605882205245,"elevation":[]}]}],"tooSloped":false},{"duration":1975,"startTime":1522701178000,"endTime":1522703153000,"walkTime":1728,"transitTime":245,"waitingTime":2,"walkDistance":2274.263932328473,"walkLimitExceeded":false,"elevationLost":0.0,"elevationGained":0.0,"transfers":0,"legs":[{"startTime":1522701178000,"endTime":1522702859000,"departureDelay":0,"arrivalDelay":0,"realTime":false,"distance":2212.1049999999996,"pathway":false,"mode":"WALK","route":"","agencyTimeZoneOffset":-14400000,"interlineWithPreviousLeg":false,"from":{"name":"Origin","lon":-71.028285,"lat":48.428934,"departure":1522701178000,"orig":"","vertexType":"NORMAL"},"to":{"name":"boul. St-Jean-Baptiste / boul. Université","stopId":"1:196","stopCode":"196","lon":-71.024224,"lat":48.412686,"arrival":1522702859000,"departure":1522702860000,"zoneId":"NA","stopIndex":4,"stopSequence":5,"vertexType":"TRANSIT"},"legGeometry":{"points":"oxqfHfuopL??@CRw@H]h@sBDOdCaJXeAvAoDRg@`AaChAqCx@aBd@_A`@w@Zm@xAyB`B}AvBmAzAg@fBYvBBbC\\vAn@|ExCZRfVtOfIjF~CTNC`BUTEp@KfBeA","length":35},"rentedBike":false,"transitLeg":false,"duration":1681.0,"steps":[{"distance":2148.8669999999997,"relativeDirection":"DEPART","streetName":"Boulevard du Saguenay Est","absoluteDirection":"SOUTHEAST","stayOn":false,"area":false,"bogusName":false,"lon":-71.02819514148429,"lat":48.42904430074981,"elevation":[]},{"distance":63.238,"relativeDirection":"CONTINUE","streetName":"Boulevard Saint-Jean-Baptiste","absoluteDirection":"SOUTHEAST","stayOn":false,"area":false,"bogusName":false,"lon":-71.0244078,"lat":48.413254800000004,"elevation":[]}]},{"startTime":1522702860000,"endTime":1522703105000,"departureDelay":0,"arrivalDelay":0,"realTime":false,"distance":4203.987845392342,"pathway":false,"mode":"BUS","route":"6","agencyName":"Société de Transport du Saguenay","agencyUrl":"http://ville.saguenay.ca/fr/services-aux-citoyens/transport-sts","agencyTimeZoneOffset":-14400000,"routeColor":"FF0000","routeType":3,"routeId":"1:6","routeTextColor":"FFFFFF","interlineWithPreviousLeg":false,"tripBlockId":"24","headsign":"Terminus La Baie","agencyId":"0","tripId":"1:217920","serviceDate":"20180402","from":{"name":"boul. St-Jean-Baptiste / boul. Université","stopId":"1:196","stopCode":"196","lon":-71.024224,"lat":48.412686,"arrival":1522702859000,"departure":1522702860000,"zoneId":"NA","stopIndex":4,"stopSequence":5,"vertexType":"TRANSIT"},"to":{"name":"boul. St-Jean-Baptiste (no. 3020)","stopId":"1:347","stopCode":"347","lon":-70.979615,"lat":48.389511,"arrival":1522703105000,"departure":1522703106000,"zoneId":"NA","stopIndex":17,"stopSequence":18,"vertexType":"TRANSIT"},"legGeometry":{"points":"qrnfHr{npLZUdDeD|IoJp@u@l@_Ah@{@f@{@DMp@uAt@iBnAgDrQme@lKwXnGoPlAaDjAsD~@aENy@jCeO\\{ANi@l@cBt@aBr@kAdAuAlEsFrAuBJO`B}CdAmCtEeMtEaMhCeHhJ}VjH}RpBqF","length":37},"routeShortName":"6","routeLongName":"Term. Chic/Term. Baie via ch.Plateau","rentedBike":false,"transitLeg":true,"duration":245.0,"steps":[]},{"startTime":1522703106000,"endTime":1522703153000,"departureDelay":0,"arrivalDelay":0,"realTime":false,"distance":62.086,"pathway":false,"mode":"WALK","route":"","agencyTimeZoneOffset":-14400000,"interlineWithPreviousLeg":false,"from":{"name":"boul. St-Jean-Baptiste (no. 3020)","stopId":"1:347","stopCode":"347","lon":-70.979615,"lat":48.389511,"arrival":1522703105000,"departure":1522703106000,"zoneId":"NA","stopIndex":17,"stopSequence":18,"vertexType":"TRANSIT"},"to":{"name":"Destination","lon":-70.978831,"lat":48.389278,"arrival":1522703153000,"orig":"","vertexType":"NORMAL"},"legGeometry":{"points":"_bjfH~dfpL`AgC","length":2},"rentedBike":false,"transitLeg":false,"duration":47.0,"steps":[{"distance":62.086,"relativeDirection":"DEPART","streetName":"Boulevard Saint-Jean-Baptiste","absoluteDirection":"SOUTHEAST","stayOn":false,"area":false,"bogusName":false,"lon":-70.97951157227264,"lat":48.389605882205245,"elevation":[]}]}],"tooSloped":false},{"duration":2557,"startTime":1522702270000,"endTime":1522704827000,"walkTime":67,"transitTime":2294,"waitingTime":196,"walkDistance":87.27,"walkLimitExceeded":false,"elevationLost":0.0,"elevationGained":0.0,"transfers":1,"legs":[{"startTime":1522702270000,"endTime":1522702290000,"departureDelay":0,"arrivalDelay":0,"realTime":false,"distance":25.184,"pathway":false,"mode":"WALK","route":"","agencyTimeZoneOffset":-14400000,"interlineWithPreviousLeg":false,"from":{"name":"Origin","lon":-71.028285,"lat":48.428934,"departure":1522702270000,"orig":"","vertexType":"NORMAL"},"to":{"name":"Auberge Le Parasol (boul. Saguenay)","stopId":"1:496","stopCode":"496","lon":-71.027958,"lat":48.428859,"arrival":1522702290000,"departure":1522702291000,"zoneId":"NA","stopIndex":11,"stopSequence":12,"vertexType":"TRANSIT"},"legGeometry":{"points":"oxqfHfuopL??@CRw@","length":4},"rentedBike":false,"transitLeg":false,"duration":20.0,"steps":[{"distance":25.184,"relativeDirection":"DEPART","streetName":"Boulevard du Saguenay Est","absoluteDirection":"SOUTHEAST","stayOn":false,"area":false,"bogusName":false,"lon":-71.02819514148429,"lat":48.42904430074981,"elevation":[]}]},{"startTime":1522702291000,"endTime":1522703565000,"departureDelay":0,"arrivalDelay":0,"realTime":false,"distance":8148.826794379837,"pathway":false,"mode":"BUS","route":"12","agencyName":"Société de Transport du Saguenay","agencyUrl":"http://ville.saguenay.ca/fr/services-aux-citoyens/transport-sts","agencyTimeZoneOffset":-14400000,"routeColor":"556B2F","routeType":3,"routeId":"1:12","routeTextColor":"FFFFFF","interlineWithPreviousLeg":false,"tripBlockId":"27","headsign":"Terminus UQAC","agencyId":"0","tripId":"1:218020","serviceDate":"20180402","from":{"name":"Auberge Le Parasol (boul. Saguenay)","stopId":"1:496","stopCode":"496","lon":-71.027958,"lat":48.428859,"arrival":1522702290000,"departure":1522702291000,"zoneId":"NA","stopIndex":11,"stopSequence":12,"vertexType":"TRANSIT"},"to":{"name":"Résidence de l' UQAC","stopId":"1:64","stopCode":"64","lon":-71.052396,"lat":48.421595,"arrival":1522703565000,"departure":1522703759000,"zoneId":"NA","stopIndex":38,"stopSequence":39,"vertexType":"TRANSIT"},"legGeometry":{"points":"iwqfHvsopLkGuLqFqJ_DeFf@iIvGsKlIrH`JlH`EfDnOdIdGlGjL|BzBiLv@}L`b@fNvVvrCdRvMcAjKcP~b@iHhDaGz@uSl[uCYmIeIeJ_J{J{JwCiThFaQ","length":28},"routeShortName":"12","routeLongName":"Rivière du Moulin","rentedBike":false,"transitLeg":true,"duration":1274.0,"steps":[]},{"startTime":1522703759000,"endTime":1522704779000,"departureDelay":0,"arrivalDelay":0,"realTime":false,"distance":7392.589841295377,"pathway":false,"mode":"BUS","route":"21S","agencyName":"Société de Transport du Saguenay","agencyUrl":"http://ville.saguenay.ca/fr/services-aux-citoyens/transport-sts","agencyTimeZoneOffset":-14400000,"routeColor":"8B0000","routeType":3,"routeId":"1:21S","routeTextColor":"FFFFFF","interlineWithPreviousLeg":false,"tripBlockId":"53","headsign":"Costco","agencyId":"0","tripId":"1:218475","serviceDate":"20180402","from":{"name":"Résidence de l' UQAC","stopId":"1:64","stopCode":"64","lon":-71.052396,"lat":48.421595,"arrival":1522703565000,"departure":1522703759000,"zoneId":"NA","stopIndex":6,"stopSequence":7,"vertexType":"TRANSIT"},"to":{"name":"boul. St-Jean-Baptiste (no. 3020)","stopId":"1:347","stopCode":"347","lon":-70.979615,"lat":48.389511,"arrival":1522704779000,"departure":1522704780000,"zoneId":"NA","stopIndex":25,"stopSequence":26,"vertexType":"TRANSIT"},"legGeometry":{"points":"wipfH`ltpLxA|AtCsIFIHAtErE~B~BVRPl@hDhD|@|@JJt@nAP^ZPLb@dHiGRQHG^Q\\Mb@I~CILCHAXKXMXQRQPQT[\\s@^aAtAaERc@zAkEbB}Eh@sBh@qCPcANoAPqBFyAFsA@q@CeBKkDc@cIsF_{@QqBe@cHc@aEeC_Oa@iDk@iIKWvAo@^WXQdDeD|IqJp@u@l@_Ah@{@f@{@FMn@uAt@iBpAgDpQoe@nKwXlGoPlA_DjAsD~@aENy@jCeO\\{ANi@l@cBt@aBr@kAdAuAlEsFtAwBHM`B}CdAmCvEgMrEaMhCeHhJ}VjH{RpBqF","length":94},"routeShortName":"21S","routeLongName":"Term. Chic -> Cégep / UQAC -> Costco","rentedBike":false,"transitLeg":true,"duration":1020.0,"steps":[]},{"startTime":1522704780000,"endTime":1522704827000,"departureDelay":0,"arrivalDelay":0,"realTime":false,"distance":62.086,"pathway":false,"mode":"WALK","route":"","agencyTimeZoneOffset":-14400000,"interlineWithPreviousLeg":false,"from":{"name":"boul. St-Jean-Baptiste (no. 3020)","stopId":"1:347","stopCode":"347","lon":-70.979615,"lat":48.389511,"arrival":1522704779000,"departure":1522704780000,"zoneId":"NA","stopIndex":25,"stopSequence":26,"vertexType":"TRANSIT"},"to":{"name":"Destination","lon":-70.978831,"lat":48.389278,"arrival":1522704827000,"orig":"","vertexType":"NORMAL"},"legGeometry":{"points":"_bjfH~dfpL`AgC","length":2},"rentedBike":false,"transitLeg":false,"duration":47.0,"steps":[{"distance":62.086,"relativeDirection":"DEPART","streetName":"Boulevard Saint-Jean-Baptiste","absoluteDirection":"SOUTHEAST","stayOn":false,"area":false,"bogusName":false,"lon":-70.97951157227264,"lat":48.389605882205245,"elevation":[]}]}],"tooSloped":false}]},"debugOutput":{"precalculationTime":7,"pathCalculationTime":33,"pathTimes":[14,11,8],"renderingTime":1,"totalTime":41,"timedOut":false},"elevationMetadata":{"ellipsoidToGeoidDifference":-28.885904201182168,"geoidElevation":false}}