{"requestParameters":{"date":"2018/04/02","walkSpeed":"1.33","walkReluctance":"2.0","fromPlace":"48.460601,-71.049761","maxWalkDistance":"3000","waitReluctance":"1.0","carSpeed":"33","numItineraries":"3","waitAtBeginningFactor":"0.4","mode":"TRANSIT,WALK","ignoreRealtimeUpdates":"false","stairsReluctance":"2.0","toPlace":"48.423631,-71.039793","time":"8:30:00"},"plan":{"date":1522672200000,"from":{"name":"Origin","lon":-71.049761,"lat":48.460601,"orig":"","vertexType":"NORMAL"},"to":{"name":"Destination","lon":-71.039793,"lat":48.423631,"orig":"","vertexType":"NORMAL"},"itineraries":[{"duration":2091,"startTime":1522673465000,"endTime":1522675556000,"walkTime":367,"transitTime":1422,"waitingTime":302,"walkDistance":459.3566842065354,"walkLimitExceeded":false,"elevationLost":0.0,"elevationGained":0.0,"transfers":1,"legs":[{"startTime":1522673465000,"endTime":1522673766000,"departureDelay":0,"arrivalDelay":0,"realTime":false,"distance":384.857,"pathway":false,"mode":"WALK","route":"","agencyTimeZoneOffset":-14400000,"interlineWithPreviousLeg":false,"from":{"name":"Origin","lon":-71.049761,"lat":48.460601,"departure":1522673465000,"orig":"","vertexType":"NORMAL"},"to":{"name":"Isabelle / Marco","stopId":"1:751","stopCode":"751","lon":-71.050975,"lat":48.457507,"arrival":1522673766000,"departure":1522673767000,"zoneId":"NA","stopIndex":15,"stopSequence":16,"vertexType":"TRANSIT"},"legGeometry":{"points":"u}wfH`|spLDGH?DBDD@PARR`@Rb@PKPOZQ^Ad@AHBbGbB~Bl@PFB@","length":19},"rentedBike":false,"transitLeg":false,"duration":301.0,"steps":[{"distance":65.354,"relativeDirection":"DEPART","streetName":"Rue Normand","absoluteDirection":"SOUTH","stayOn":false,"area":false,"bogusName":false,"lon":-71.049765,"lat":48.46059,"elevation":[]},{"distance":319.503,"relativeDirection":"LEFT","streetName":"Rue Marco","absoluteDirection":"SOUTH","stayOn":false,"area":false,"bogusName":false,"lon":-71.05031360000001,"lat":48.460256900000005,"elevation":[]}]},{"startTime":1522673767000,"endTime":1522674600000,"departureDelay":0,"arrivalDelay":0,"realTime":false,"distance":5014.968877073836,"pathway":false,"mode":"BUS","route":"22","agencyName":"Société de Transport du Saguenay","agencyUrl":"http://ville.saguenay.ca/fr/services-aux-citoyens/transport-sts","agencyTimeZoneOffset":-14400000,"routeColor":"C0C000","routeType":3,"routeId":"1:22","routeTextColor":"000000","interlineWithPreviousLeg":false,"tripBlockId":"1","headsign":"Terminus Chicoutimi","agencyId":"0","tripId":"1:217134","serviceDate":"20180402","from":{"name":"Isabelle / Marco","stopId":"1:751","stopCode":"751","lon":-71.050975,"lat":48.457507,"arrival":1522673766000,"departure":1522673767000,"zoneId":"NA","stopIndex":15,"stopSequence":16,"vertexType":"TRANSIT"},"to":{"name":"Terminus Chicoutimi","stopId":"1:1289","stopCode":"1289","lon":-71.066163,"lat":48.428677,"arrival":1522674600000,"departure":1522674900000,"zoneId":"NA","stopIndex":35,"stopSequence":36,"vertexType":"TRANSIT"},"legGeometry":{"points":"ijwfH`ctpL`@LHDFFFJ^hAFVDZBXBn@@H@RBLFTHNHHJFLBP@j@OLAJAN@@?l@NTwBDQFMFIJGHCL?H@hGjB`GjBz@VNJJRBTAVQdAn@XrAh@uCvSeA|He@hCo@|AiBbD~@^|IrDhAb@qAfJSzAMr@Yz@xAhDFNpBdFRp@Hl@Jz@BXXrCHl@Lh@Nf@r@nAr@r@`@PLFbAVH_AXeC@IdB_Mh@_EJk@x@x@bA`A|BrBnDrCl@f@|BlBrAbAj@d@ZTXNd@@lA[ZxDN|Ad@fAz@tB~AzDZ|@Zv@x@vBP\\h@~@PVrCmFhHqN~@eBr@cAt@_Av@}@RQPMz@k@tAe@REZG^Af@@X@VF`@Jn@XbClAr@Xt\\`PrAb@pA^hBTjAFj@Pb@JPHLLJNJRFXDT?X?ZEVEVKTMNMHMFOB}DWSGOSYcAN}FFkAF}DJyDd@wPV_HjAN~ALIzBQb@e@@","length":157},"routeShortName":"22","routeLongName":"Vanier","rentedBike":false,"transitLeg":true,"duration":833.0,"steps":[]},{"startTime":1522674900000,"endTime":1522675489000,"departureDelay":0,"arrivalDelay":0,"realTime":false,"distance":2704.712362975673,"pathway":false,"mode":"BUS","route":"10","agencyName":"Société de Transport du Saguenay","agencyUrl":"http://ville.saguenay.ca/fr/services-aux-citoyens/transport-sts","agencyTimeZoneOffset":-14400000,"routeColor":"0000FF","routeType":3,"routeId":"1:10","routeTextColor":"FFFFFF","interlineWithPreviousLeg":false,"tripBlockId":"29","headsign":"Terminus UQAC","agencyId":"0","tripId":"1:218057","serviceDate":"20180402","from":{"name":"Terminus Chicoutimi","stopId":"1:1289","stopCode":"1289","lon":-71.066163,"lat":48.428677,"arrival":1522674600000,"departure":1522674900000,"zoneId":"NA","stopIndex":0,"stopSequence":1,"vertexType":"TRANSIT"},"to":{"name":"Complexe Sagamie","stopId":"1:1565","stopCode":"1565","lon":-71.039089,"lat":48.423475,"arrival":1522675489000,"departure":1522675490000,"zoneId":"NA","stopIndex":11,"stopSequence":12,"vertexType":"TRANSIT"},"legGeometry":{"points":"svqfHnbwpLDmCdDZ\\kO`@mQBuCD}DQ_ECk@^Cd@QWkL?m@IuF@gA?eH?cAEuEDO^AjD`@B@rEf@T_FjBXpDd@hCObDaCfCaHbFqN`CwG_J_CwMiDGe@T}C\\yELaCJeA","length":38},"routeShortName":"10","routeLongName":"Notre-Dame du Saguenay","rentedBike":false,"transitLeg":true,"duration":589.0,"steps":[]},{"startTime":1522675490000,"endTime":1522675556000,"departureDelay":0,"arrivalDelay":0,"realTime":false,"distance":74.376,"pathway":false,"mode":"WALK","route":"","agencyTimeZoneOffset":-14400000,"interlineWithPreviousLeg":false,"from":{"name":"Complexe Sagamie","stopId":"1:1565","stopCode":"1565","lon":-71.039089,"lat":48.423475,"arrival":1522675489000,"departure":1522675490000,"zoneId":"NA","stopIndex":11,"stopSequence":12,"vertexType":"TRANSIT"},"to":{"name":"Destination","lon":-71.039793,"lat":48.423631,"arrival":1522675556000,"orig":"","vertexType":"NORMAL"},"legGeometry":{"points":"gupfHnyqpLGb@Gh@GCYII`A","length":6},"rentedBike":false,"transitLeg":false,"duration":66.0,"steps":[{"distance":49.061,"relativeDirection":"DEPART","streetName":"service road","absoluteDirection":"WEST","stayOn":false,"area":false,"bogusName":true,"lon":-71.03911523041273,"lat":48.423409719784964,"elevation":[]},{"distance":25.315,"relativeDirection":"LEFT","streetName":"Rue Jacques Cartier","absoluteDirection":"WEST","stayOn":false,"area":false,"bogusName":false,"lon":-71.0394333,"lat":48.4236505,"elevation":[]}]}],"tooSloped":false},{"duration":3495,"startTime":1522672442000,"endTime":1522675937000,"walkTime":2053,"transitTime":840,"waitingTime":602,"walkDistance":2639.2446466065826,"walkLimitExceeded":false,"elevationLost":0.0,"elevationGained":0.0,"transfers":1,"legs":[{"startTime":1522672442000,"endTime":1522673759000,"departureDelay":0,"arrivalDelay":0,"realTime":false,"distance":1698.4640000000002,"pathway":false,"mode":"WALK","route":"","agencyTimeZoneOffset":-14400000,"interlineWithPreviousLeg":false,"from":{"name":"Origin","lon":-71.049761,"lat":48.460601,"departure":1522672442000,"orig":"","vertexType":"NORMAL"},"to":{"name":"Verdun / Riviera","stopId":"1:2023","stopCode":"2023","lon":-71.057875,"lat":48.449739,"arrival":1522673759000,"departure":1522673760000,"zoneId":"NA","stopIndex":14,"stopSequence":15,"vertexType":"TRANSIT"},"legGeometry":{"points":"u}wfH`|spLDGH?DBDD@PARR`@Rb@PKPOZQ^Ad@AHBg@`Ed@JNFTFD@HDFDFBFFFDFFDHFHHPHTHXNj@Rl@LRDDJDHBH?JAD?F?DADCDE\\x@HVJRDJJPJNpA~BXj@~AlDNF`A^QhBAHAPdDfAxAb@JLBHBH@N?JWnCtAb@rE|APBPAHKHOZoCbC~@PFNFxCdAvCfAVHbBp@~@sAf@y@","length":82},"rentedBike":false,"transitLeg":false,"duration":1317.0,"steps":[{"distance":65.354,"relativeDirection":"DEPART","streetName":"Rue Normand","absoluteDirection":"SOUTH","stayOn":false,"area":false,"bogusName":false,"lon":-71.049765,"lat":48.46059,"elevation":[]},{"distance":83.749,"relativeDirection":"LEFT","streetName":"Rue Marco","absoluteDirection":"SOUTH","stayOn":false,"area":false,"bogusName":false,"lon":-71.05031360000001,"lat":48.460256900000005,"elevation":[]},{"distance":74.741,"relativeDirection":"RIGHT","streetName":"path","absoluteDirection":"WEST","stayOn":false,"area":false,"bogusName":true,"lon":-71.0500873,"lat":48.4595397,"elevation":[]},{"distance":216.262,"relativeDirection":"LEFT","streetName":"Rue Isabelle","absoluteDirection":"SOUTH","stayOn":false,"area":false,"bogusName":false,"lon":-71.0510555,"lat":48.4597386,"elevation":[]},{"distance":289.137,"relativeDirection":"RIGHT","streetName":"Rue Julie","absoluteDirection":"SOUTHWEST","stayOn":false,"area":false,"bogusName":false,"lon":-71.0523893,"lat":48.458192200000006,"elevation":[]},{"distance":50.778,"relativeDirection":"RIGHT","streetName":"Rue Caroline","absoluteDirection":"WEST","stayOn":false,"area":false,"bogusName":false,"lon":-71.0550587,"lat":48.4563597,"elevation":[]},{"distance":230.55,"relativeDirection":"LEFT","streetName":"Rue Vanier","absoluteDirection":"SOUTH","stayOn":false,"area":false,"bogusName":false,"lon":-71.0557276,"lat":48.456468,"elevation":[]},{"distance":262.836,"relativeDirection":"LEFT","streetName":"Rue Labelle","absoluteDirection":"SOUTH","stayOn":false,"area":false,"bogusName":false,"lon":-71.0572977,"lat":48.4551938,"elevation":[]},{"distance":87.615,"relativeDirection":"RIGHT","streetName":"Rue Fabre","absoluteDirection":"SOUTH","stayOn":false,"area":false,"bogusName":false,"lon":-71.05709610000001,"lat":48.45328790000001,"elevation":[]},{"distance":260.302,"relativeDirection":"CONTINUE","streetName":"Rue Richelieu","absoluteDirection":"SOUTH","stayOn":false,"area":false,"bogusName":false,"lon":-71.0574594,"lat":48.4525377,"elevation":[]},{"distance":77.14,"relativeDirection":"LEFT","streetName":"Rue de Verdun","absoluteDirection":"SOUTHEAST","stayOn":false,"area":false,"bogusName":false,"lon":-71.05850140000001,"lat":48.450301200000006,"elevation":[]}]},{"startTime":1522673760000,"endTime":1522674300000,"departureDelay":0,"arrivalDelay":0,"realTime":false,"distance":3566.9301798582574,"pathway":false,"mode":"BUS","route":"23","agencyName":"Société de Transport du Saguenay","agencyUrl":"http://ville.saguenay.ca/fr/services-aux-citoyens/transport-sts","agencyTimeZoneOffset":-14400000,"routeColor":"FF00FF","routeType":3,"routeId":"1:23","routeTextColor":"FFFFFF","interlineWithPreviousLeg":false,"tripBlockId":"5","headsign":"Terminus Chicoutimi","agencyId":"0","tripId":"1:217254","serviceDate":"20180402","from":{"name":"Verdun / Riviera","stopId":"1:2023","stopCode":"2023","lon":-71.057875,"lat":48.449739,"arrival":1522673759000,"departure":1522673760000,"zoneId":"NA","stopIndex":14,"stopSequence":15,"vertexType":"TRANSIT"},"to":{"name":"Terminus Chicoutimi","stopId":"1:1289","stopCode":"1289","lon":-71.066163,"lat":48.428677,"arrival":1522674300000,"departure":1522674900000,"zoneId":"NA","stopIndex":26,"stopSequence":27,"vertexType":"TRANSIT"},"legGeometry":{"points":"czufHhnupLT[~CkFf@s@\\e@x@}@jAeAXQZStBaAh@]`@]`@i@l@kDF_@R{AFWFMPIPC`@BT@V?TAVKLENCLCJ@J@xAb@x@Zz@\\CP?R@N@NFLFF`GtBx@Xw@pG@l@B\\DXL\\RZDFXPf@N@v@Bp@Dr@l@~HNlAH\\@HLd@\\z@Xd@X\\RTXRr@Zn@PfExAvDpALnBJt@Pp@|@`DHZPn@`@rBNnAFr@DbA?bB@jABzA?p@A???A???A?A???A@??A?A@??A@?@A??@A@???@A@?@?@A@?@?@?@?@???@?@?@?@?@?@@@?@?@@@?@@@?@@@?@@?@@??@@@?E`@Kr@]rACVEl@I|AAr@JbAWJe@FUAM?a@Ke@YYWWa@v@}@RQPMz@k@tAe@REZG^Af@@X@VF`@Jn@XbClAr@Xt\\`PrAb@pA^hBTjAFj@Pb@JPHLLJNJRFXDT?X?ZEVEVKTMNMHMFOB}DWSGOSYcAN}FFkAF}DJyDd@wPV_HjAN~ALI`C","length":195},"routeShortName":"23","routeLongName":"Côte Verdun via Aréna du Plateau","rentedBike":false,"transitLeg":true,"duration":540.0,"steps":[]},{"startTime":1522674900000,"endTime":1522675200000,"departureDelay":0,"arrivalDelay":0,"realTime":false,"distance":1242.678141622333,"pathway":false,"mode":"BUS","route":"175","agencyName":"Société de Transport du Saguenay","agencyUrl":"http://ville.saguenay.ca/fr/services-aux-citoyens/transport-sts","agencyTimeZoneOffset":-14400000,"routeColor":"FF00FF","routeType":3,"routeId":"1:175","routeTextColor":"FFFFFF","interlineWithPreviousLeg":false,"tripBlockId":"8","headsign":"Costco","agencyId":"0","tripId":"1:217362","serviceDate":"20180402","from":{"name":"Terminus Chicoutimi","stopId":"1:1289","stopCode":"1289","lon":-71.066163,"lat":48.428677,"arrival":1522674300000,"departure":1522674900000,"zoneId":"NA","stopIndex":0,"stopSequence":1,"vertexType":"TRANSIT"},"to":{"name":"Hôpital de Chicoutimi (Saint-Vallier)","stopId":"1:342","stopCode":"342","lon":-71.050416,"lat":48.426429,"arrival":1522675200000,"departure":1522675201000,"zoneId":"NA","stopIndex":6,"stopSequence":7,"vertexType":"TRANSIT"},"legGeometry":{"points":"kvqfH~awpL~CgBbAqa@FwCBkAOsHAg@bAYUwMKoE@mB@kJ@iFbEf@","length":14},"routeShortName":"175","routeLongName":"Term. Chic / Costco","rentedBike":false,"transitLeg":true,"duration":300.0,"steps":[]},{"startTime":1522675201000,"endTime":1522675937000,"departureDelay":0,"arrivalDelay":0,"realTime":false,"distance":940.4720000000001,"pathway":false,"mode":"WALK","route":"","agencyTimeZoneOffset":-14400000,"interlineWithPreviousLeg":false,"from":{"name":"Hôpital de Chicoutimi (Saint-Vallier)","stopId":"1:342","stopCode":"342","lon":-71.050416,"lat":48.426429,"arrival":1522675200000,"departure":1522675201000,"zoneId":"NA","stopIndex":6,"stopSequence":7,"vertexType":"TRANSIT"},"to":{"name":"Destination","lon":-71.039793,"lat":48.423631,"arrival":1522675937000,"orig":"","vertexType":"NORMAL"},"legGeometry":{"points":"ahqfHd_tpLF?lEt@Du@TyDXwCB_@BWNuB@G~@gLXwCHw@PsBNcB^gD?_AAI?E?G@GBEBCFSFO@cAPuB`@sE@G@O","length":30},"rentedBike":false,"transitLeg":false,"duration":736.0,"steps":[{"distance":121.256,"relativeDirection":"DEPART","streetName":"Rue Saint-Vallier","absoluteDirection":"SOUTH","stayOn":false,"area":false,"bogusName":false,"lon":-71.05026027647143,"lat":48.426416552989835,"elevation":[]},{"distance":659.7959999999999,"relativeDirection":"LEFT","streetName":"Rue Jacques-Cartier Est","absoluteDirection":"EAST","stayOn":false,"area":false,"bogusName":false,"lon":-71.0505352,"lat":48.4253415,"elevation":[]},{"distance":159.42000000000002,"relativeDirection":"SLIGHTLY_LEFT","streetName":"Rue Jacques Cartier","absoluteDirection":"EAST","stayOn":false,"area":false,"bogusName":false,"lon":-71.0418774,"lat":48.423999300000006,"elevation":[]}]}],"tooSloped":false},{"duration":2091,"startTime":1522675265000,"endTime":1522677356000,"walkTime":367,"transitTime":1422,"waitingTime":302,"walkDistance":459.3566842065354,"walkLimitExceeded":false,"elevationLost":0.0,"elevationGained":0.0,"transfers":1,"legs":[{"startTime":1522675265000,"endTime":1522675566000,"departureDelay":0,"arrivalDelay":0,"realTime":false,"distance":384.857,"pathway":false,"mode":"WALK","route":"","agencyTimeZoneOffset":-14400000,"interlineWithPreviousLeg":false,"from":{"name":"Origin","lon":-71.049761,"lat":48.460601,"departure":1522675265000,"orig":"","vertexType":"NORMAL"},"to":{"name":"Isabelle / Marco","stopId":"1:751","stopCode":"751","lon":-71.050975,"lat":48.457507,"arrival":1522675566000,"departure":1522675567000,"zoneId":"NA","stopIndex":15,"stopSequence":16,"vertexType":"TRANSIT"},"legGeometry":{"points":"u}wfH`|spLDGH?DBDD@PARR`@Rb@PKPOZQ^Ad@AHBbGbB~Bl@PFB@","length":19},"rentedBike":false,"transitLeg":false,"duration":301.0,"steps":[{"distance":65.354,"relativeDirection":"DEPART","streetName":"Rue Normand","absoluteDirection":"SOUTH","stayOn":false,"area":false,"bogusName":false,"lon":-71.049765,"lat":48.46059,"elevation":[]},{"distance":319.503,"relativeDirection":"LEFT","streetName":"Rue Marco","absoluteDirection":"SOUTH","stayOn":false,"area":false,"bogusName":false,"lon":-71.05031360000001,"lat":48.460256900000005,"elevation":[]}]},{"startTime":1522675567000,"endTime":1522676400000,"departureDelay":0,"arrivalDelay":0,"realTime":false,"distance":5014.968877073836,"pathway":false,"mode":"BUS","route":"22","agencyName":"Société de Transport du Saguenay","agencyUrl":"http://ville.saguenay.ca/fr/services-aux-citoyens/transport-sts","agencyTimeZoneOffset":-14400000,"routeColor":"C0C000","routeType":3,"routeId":"1:22","routeTextColor":"000000","interlineWithPreviousLeg":false,"tripBlockId":"3","headsign":"Terminus Chicoutimi","agencyId":"0","tripId":"1:217192","serviceDate":"20180402","from":{"name":"Isabelle / Marco","stopId":"1:751","stopCode":"751","lon":-71.050975,"lat":48.457507,"arrival":1522675566000,"departure":1522675567000,"zoneId":"NA","stopIndex":15,"stopSequence":16,"vertexType":"TRANSIT"},"to":{"name":"Terminus Chicoutimi","stopId":"1:1289","stopCode":"1289","lon":-71.066163,"lat":48.428677,"arrival":1522676400000,"departure":1522676700000,"zoneId":"NA","stopIndex":35,"stopSequence":36,"vertexType":"TRANSIT"},"legGeometry":{"points":"ijwfH`ctpL`@LHDFFFJ^hAFVDZBXBn@@H@RBLFTHNHHJFLBP@j@OLAJAN@@?l@NTwBDQFMFIJGHCL?H@hGjB`GjBz@VNJJRBTAVQdAn@XrAh@uCvSeA|He@hCo@|AiBbD~@^|IrDhAb@qAfJSzAMr@Yz@xAhDFNpBdFRp@Hl@Jz@BXXrCHl@Lh@Nf@r@nAr@r@`@PLFbAVH_AXeC@IdB_Mh@_EJk@x@x@bA`A|BrBnDrCl@f@|BlBrAbAj@d@ZTXNd@@lA[ZxDN|Ad@fAz@tB~AzDZ|@Zv@x@vBP\\h@~@PVrCmFhHqN~@eBr@cAt@_Av@}@RQPMz@k@tAe@REZG^Af@@X@VF`@Jn@XbClAr@Xt\\`PrAb@pA^hBTjAFj@Pb@JPHLLJNJRFXDT?X?ZEVEVKTMNMHMFOB}DWSGOSYcAN}FFkAF}DJyDd@wPV_HjAN~ALIzBQb@e@@","length":157},"routeShortName":"22","routeLongName":"Vanier","rentedBike":false,"transitLeg":true,"duration":833.0,"steps":[]},{"startTime":1522676700000,"endTime":1522677289000,"departureDelay":0,"arrivalDelay":0,"realTime":false,"distance":2704.712362975673,"pathway":false,"mode":"BUS","route":"10","agencyName":"Société de Transport du Saguenay","agencyUrl":"http://ville.saguenay.ca/fr/services-aux-citoyens/transport-sts","agencyTimeZoneOffset":-14400000,"routeColor":"0000FF","routeType":3,"routeId":"1:10","routeTextColor":"FFFFFF","interlineWithPreviousLeg":false,"tripBlockId":"26","headsign":"Terminus UQAC","agencyId":"0","tripId":"1:217970","serviceDate":"20180402","from":{"name":"Terminus Chicoutimi","stopId":"1:1289","stopCode":"1289","lon":-71.066163,"lat":48.428677,"arrival":1522676400000,"departure":1522676700000,"zoneId":"NA","stopIndex":0,"stopSequence":1,"vertexType":"TRANSIT"},"to":{"name":"Complexe Sagamie","stopId":"1:1565","stopCode":"1565","lon":-71.039089,"lat":48.423475,"arrival":1522677289000,"departure":1522677290000,"zoneId":"NA","stopIndex":11,"stopSequence":12,"vertexType":"TRANSIT"},"legGeometry":{"points":"svqfHnbwpLDmCdDZ\\kO`@mQBuCD}DQ_ECk@^Cd@QWkL?m@IuF@gA?eH?cAEuEDO^AjD`@B@rEf@T_FjBXpDd@hCObDaCfCaHbFqN`CwG_J_CwMiDGe@T}C\\yELaCJeA","length":38},"routeShortName":"10","routeLongName":"Notre-Dame du Saguenay","rentedBike":false,"transitLeg":true,"duration":589.0,"steps":[]},{"startTime":1522677290000,"endTime":1522677356000,"departureDelay":0,"arrivalDelay":0,"realTime":false,"distance":74.376,"pathway":false,"mode":"WALK","route":"","agencyTimeZoneOffset":-14400000,"interlineWithPreviousLeg":false,"from":{"name":"Complexe Sagamie","stopId":"1:1565","stopCode":"1565","lon":-71.039089,"lat":48.423475,"arrival":1522677289000,"departure":1522677290000,"zoneId":"NA","stopIndex":11,"stopSequence":12,"vertexType":"TRANSIT"},"to":{"name":"Destination","lon":-71.039793,"lat":48.423631,"arrival":1522677356000,"orig":"","vertexType":"NORMAL"},"legGeometry":{"points":"gupfHnyqpLGb@Gh@GCYII`A","length":6},"rentedBike":false,"transitLeg":false,"duration":66.0,"steps":[{"distance":49.061,"relativeDirection":"DEPART","streetName":"service road","absoluteDirection":"WEST","stayOn":false,"area":false,"bogusName":true,"lon":-71.03911523041273,"lat":48.423409719784964,"elevation":[]},{"distance":25.315,"relativeDirection":"LEFT","streetName":"Rue Jacques Cartier","absoluteDirection":"WEST","stayOn":false,"area":false,"bogusName":false,"lon":-71.0394333,"lat":48.4236505,"elevation":[]}]}],"tooSloped":false}]},"debugOutput":{"precalculationTime":21,"pathCalculationTime":18,"pathTimes":[10,5,3],"renderingTime":1,"totalTime":40,"timedOut":false},"elevationMetadata":{"ellipsoidToGeoidDifference":-28.885904201182168,"geoidElevation":false}}