{"requestParameters":{"date":"2018/04/02","walkSpeed":"1.33","walkReluctance":"2.0","fromPlace":"48.382579,-71.08294499","maxWalkDistance":"3000","waitReluctance":"1.0","carSpeed":"33","numItineraries":"3","waitAtBeginningFactor":"0.4","mode":"TRANSIT,WALK","ignoreRealtimeUpdates":"false","stairsReluctance":"2.0","toPlace":"48.428199,-71.026184","time":"11:30:00"},"plan":{"date":1522683000000,"from":{"name":"Origin","lon":-71.08294499,"lat":48.382579,"orig":"","vertexType":"NORMAL"},"to":{"name":"Destination","lon":-71.026184,"lat":48.428199,"orig":"","vertexType":"NORMAL"},"itineraries":[{"duration":2434,"startTime":1522683773000,"endTime":1522686207000,"walkTime":268,"transitTime":1864,"waitingTime":302,"walkDistance":343.79013533659906,"walkLimitExceeded":false,"elevationLost":0.0,"elevationGained":0.0,"transfers":1,"legs":[{"startTime":1522683773000,"endTime":1522683926000,"departureDelay":0,"arrivalDelay":0,"realTime":false,"distance":193.43099999999998,"pathway":false,"mode":"WALK","route":"","agencyTimeZoneOffset":-14400000,"interlineWithPreviousLeg":false,"from":{"name":"Origin","lon":-71.08294499,"lat":48.382579,"departure":1522683773000,"orig":"","vertexType":"NORMAL"},"to":{"name":"COSTCO","stopId":"1:1542","stopCode":"1542","lon":-71.084272,"lat":48.383644,"arrival":1522683926000,"departure":1522683927000,"zoneId":"NA","stopIndex":1,"stopSequence":2,"vertexType":"TRANSIT"},"legGeometry":{"points":"ovhfH|lzpLDd@Sp@uB`FiAqA","length":5},"rentedBike":false,"transitLeg":false,"duration":153.0,"steps":[{"distance":193.43099999999998,"relativeDirection":"DEPART","streetName":"service road","absoluteDirection":"WEST","stayOn":false,"area":false,"bogusName":true,"lon":-71.08318940000001,"lat":48.382641400000004,"elevation":[]}]},{"startTime":1522683927000,"endTime":1522685400000,"departureDelay":0,"arrivalDelay":0,"realTime":false,"distance":7537.518634354049,"pathway":false,"mode":"BUS","route":"175","agencyName":"Société de Transport du Saguenay","agencyUrl":"http://ville.saguenay.ca/fr/services-aux-citoyens/transport-sts","agencyTimeZoneOffset":-14400000,"routeColor":"FF00FF","routeType":3,"routeId":"1:175","routeTextColor":"FFFFFF","interlineWithPreviousLeg":false,"tripBlockId":"9","headsign":"Terminus Chicoutimi","agencyId":"0","tripId":"1:217402","serviceDate":"20180402","from":{"name":"COSTCO","stopId":"1:1542","stopCode":"1542","lon":-71.084272,"lat":48.383644,"arrival":1522683926000,"departure":1522683927000,"zoneId":"NA","stopIndex":1,"stopSequence":2,"vertexType":"TRANSIT"},"to":{"name":"Terminus Chicoutimi","stopId":"1:1289","stopCode":"1289","lon":-71.066163,"lat":48.428677,"arrival":1522685400000,"departure":1522685700000,"zoneId":"NA","stopIndex":27,"stopSequence":28,"vertexType":"TRANSIT"},"legGeometry":{"points":"y|hfHzszpLwCqDrCsGN_@uEoFoEiFUWSUqCwC]a@{ByC{@cAkJuKoAwA_CeCeExJ~AlB`@mAu@k@}@q@|C}Iw@}@aO_QkEsEiAoAgEsFkFsHqJ_N}FkImPkOuO{N_U_TcNgNcBcB{E`Jc@x@qG~@{BlAk@XgSrQqB_GAeFiEeEOt@gAeA_A_ATm@yAwAgBeBqDnL@nBF`@f@|C[dCuAfB]xAs@OmCmCmEkE]a@g@i@ZiGTmEl@oLaEe@cFk@?pH?tJDvBPjMB~Bo@PQDRbFKdGMhIOvIK|EQpHoCQEdC","length":81},"routeShortName":"175","routeLongName":"Term. Chic / Costco","rentedBike":false,"transitLeg":true,"duration":1473.0,"steps":[]},{"startTime":1522685700000,"endTime":1522686091000,"departureDelay":0,"arrivalDelay":0,"realTime":false,"distance":2905.2877763841147,"pathway":false,"mode":"BUS","route":"12","agencyName":"Société de Transport du Saguenay","agencyUrl":"http://ville.saguenay.ca/fr/services-aux-citoyens/transport-sts","agencyTimeZoneOffset":-14400000,"routeColor":"556B2F","routeType":3,"routeId":"1:12","routeTextColor":"FFFFFF","interlineWithPreviousLeg":false,"tripBlockId":"28","headsign":"Terminus UQAC","agencyId":"0","tripId":"1:218037","serviceDate":"20180402","from":{"name":"Terminus Chicoutimi","stopId":"1:1289","stopCode":"1289","lon":-71.066163,"lat":48.428677,"arrival":1522685400000,"departure":1522685700000,"zoneId":"NA","stopIndex":0,"stopSequence":1,"vertexType":"TRANSIT"},"to":{"name":"Auberge Le Parasol (boul. Saguenay)","stopId":"1:496","stopCode":"496","lon":-71.027958,"lat":48.428859,"arrival":1522686091000,"departure":1522686092000,"zoneId":"NA","stopIndex":11,"stopSequence":12,"vertexType":"TRANSIT"},"legGeometry":{"points":"evqfHpbwpLpFcj@IaKmFy^_DaZz@u]SeV}@aNs@gKToKd@gTnCyH","length":12},"routeShortName":"12","routeLongName":"Rivière du Moulin","rentedBike":false,"transitLeg":true,"duration":391.0,"steps":[]},{"startTime":1522686092000,"endTime":1522686207000,"departureDelay":0,"arrivalDelay":0,"realTime":false,"distance":150.305,"pathway":false,"mode":"WALK","route":"","agencyTimeZoneOffset":-14400000,"interlineWithPreviousLeg":false,"from":{"name":"Auberge Le Parasol (boul. Saguenay)","stopId":"1:496","stopCode":"496","lon":-71.027958,"lat":48.428859,"arrival":1522686091000,"departure":1522686092000,"zoneId":"NA","stopIndex":11,"stopSequence":12,"vertexType":"TRANSIT"},"to":{"name":"Destination","lon":-71.026184,"lat":48.428199,"arrival":1522686207000,"orig":"","vertexType":"NORMAL"},"legGeometry":{"points":"ywqfHjsopLH]h@sBDOhAaE","length":5},"rentedBike":false,"transitLeg":false,"duration":115.0,"steps":[{"distance":150.305,"relativeDirection":"DEPART","streetName":"Boulevard du Saguenay Est","absoluteDirection":"SOUTHEAST","stayOn":false,"area":false,"bogusName":false,"lon":-71.02789478397764,"lat":48.428936717982694,"elevation":[]}]}],"tooSloped":false},{"duration":2276,"startTime":1522684673000,"endTime":1522686949000,"walkTime":780,"transitTime":1330,"waitingTime":166,"walkDistance":1013.7079699219735,"walkLimitExceeded":false,"elevationLost":0.0,"elevationGained":0.0,"transfers":1,"legs":[{"startTime":1522684673000,"endTime":1522684826000,"departureDelay":0,"arrivalDelay":0,"realTime":false,"distance":193.43099999999998,"pathway":false,"mode":"WALK","route":"","agencyTimeZoneOffset":-14400000,"interlineWithPreviousLeg":false,"from":{"name":"Origin","lon":-71.08294499,"lat":48.382579,"departure":1522684673000,"orig":"","vertexType":"NORMAL"},"to":{"name":"COSTCO","stopId":"1:1542","stopCode":"1542","lon":-71.084272,"lat":48.383644,"arrival":1522684826000,"departure":1522684827000,"zoneId":"NA","stopIndex":1,"stopSequence":2,"vertexType":"TRANSIT"},"legGeometry":{"points":"ovhfH|lzpLDd@Sp@uB`FiAqA","length":5},"rentedBike":false,"transitLeg":false,"duration":153.0,"steps":[{"distance":193.43099999999998,"relativeDirection":"DEPART","streetName":"service road","absoluteDirection":"WEST","stayOn":false,"area":false,"bogusName":true,"lon":-71.08318940000001,"lat":48.382641400000004,"elevation":[]}]},{"startTime":1522684827000,"endTime":1522685520000,"departureDelay":0,"arrivalDelay":0,"realTime":false,"distance":4137.238289162289,"pathway":false,"mode":"BUS","route":"175","agencyName":"Société de Transport du Saguenay","agencyUrl":"http://ville.saguenay.ca/fr/services-aux-citoyens/transport-sts","agencyTimeZoneOffset":-14400000,"routeColor":"FF00FF","routeType":3,"routeId":"1:175","routeTextColor":"FFFFFF","interlineWithPreviousLeg":false,"tripBlockId":"81","headsign":"Terminus Chicoutimi","agencyId":"0","tripId":"1:218659","serviceDate":"20180402","from":{"name":"COSTCO","stopId":"1:1542","stopCode":"1542","lon":-71.084272,"lat":48.383644,"arrival":1522684826000,"departure":1522684827000,"zoneId":"NA","stopIndex":1,"stopSequence":2,"vertexType":"TRANSIT"},"to":{"name":"missingStopName","stopId":"1:1812","stopCode":"1812","lon":-71.051352,"lat":48.411592,"arrival":1522685520000,"departure":1522685520000,"zoneId":"NA","stopIndex":11,"stopSequence":12,"vertexType":"TRANSIT"},"legGeometry":{"points":"y|hfHzszpLwCqDrCsGN_@uEoFoEiFUWSUqCwC]a@{ByC{@cAkJuKoAwA_CeCeExJ~AlB`@mAu@k@}@q@|C}Iw@}@aO_QkEsEiAoAgEsFkFsHqJ_N}FkImPkOuO{N_U_TcNgN","length":33},"routeShortName":"175","routeLongName":"Term. Chic / Costco","rentedBike":false,"transitLeg":true,"duration":693.0,"steps":[]},{"startTime":1522685520000,"endTime":1522685859000,"departureDelay":0,"arrivalDelay":0,"realTime":false,"distance":447.89099999999996,"pathway":false,"mode":"WALK","route":"","agencyTimeZoneOffset":-14400000,"interlineWithPreviousLeg":false,"from":{"name":"missingStopName","stopId":"1:1812","stopCode":"1812","lon":-71.051352,"lat":48.411592,"arrival":1522685520000,"departure":1522685520000,"zoneId":"NA","stopIndex":11,"stopSequence":12,"vertexType":"TRANSIT"},"to":{"name":"Sûreté du Québec (Roitelets / Lorenzo-Genest)","stopId":"1:195","stopCode":"195","lon":-71.048189,"lat":48.4095,"arrival":1522685859000,"departure":1522686023000,"zoneId":"NA","stopIndex":16,"stopSequence":17,"vertexType":"TRANSIT"},"legGeometry":{"points":"wknfHtftpLbDfDvAyDVoAZsBVm@L}@b@{Bt@}DGC","length":10},"rentedBike":false,"transitLeg":false,"duration":339.0,"steps":[{"distance":110.331,"relativeDirection":"DEPART","streetName":"Boulevard Talbot","absoluteDirection":"SOUTHWEST","stayOn":false,"area":false,"bogusName":false,"lon":-71.05146038442705,"lat":48.41164093434771,"elevation":[]},{"distance":183.487,"relativeDirection":"LEFT","streetName":"path","absoluteDirection":"SOUTHEAST","stayOn":false,"area":false,"bogusName":true,"lon":-71.05230110000001,"lat":48.4108205,"elevation":[]},{"distance":149.905,"relativeDirection":"SLIGHTLY_LEFT","streetName":"Rue Lorenzo-Genest","absoluteDirection":"EAST","stayOn":false,"area":false,"bogusName":false,"lon":-71.0501637,"lat":48.4100046,"elevation":[]},{"distance":4.168,"relativeDirection":"LEFT","streetName":"Rue Des Roitelets","absoluteDirection":"NORTH","stayOn":false,"area":false,"bogusName":false,"lon":-71.0482898,"lat":48.409485700000005,"elevation":[]}]},{"startTime":1522686023000,"endTime":1522686660000,"departureDelay":0,"arrivalDelay":0,"realTime":false,"distance":3463.710639420212,"pathway":false,"mode":"BUS","route":"12","agencyName":"Société de Transport du Saguenay","agencyUrl":"http://ville.saguenay.ca/fr/services-aux-citoyens/transport-sts","agencyTimeZoneOffset":-14400000,"routeColor":"556B2F","routeType":3,"routeId":"1:12","routeTextColor":"FFFFFF","interlineWithPreviousLeg":false,"tripBlockId":"26","headsign":"Terminus Chicoutimi","agencyId":"0","tripId":"1:217975","serviceDate":"20180402","from":{"name":"Sûreté du Québec (Roitelets / Lorenzo-Genest)","stopId":"1:195","stopCode":"195","lon":-71.048189,"lat":48.4095,"arrival":1522685859000,"departure":1522686023000,"zoneId":"NA","stopIndex":16,"stopSequence":17,"vertexType":"TRANSIT"},"to":{"name":"Normandie / Luberon","stopId":"1:1539","stopCode":"1539","lon":-71.0227,"lat":48.4262,"arrival":1522686660000,"departure":1522686661000,"zoneId":"NA","stopIndex":21,"stopSequence":22,"vertexType":"TRANSIT"},"legGeometry":{"points":"k~mfHdrspLgD_BgAgBn@kFD_NoIgrAmD_WcAaLaDHoDJi`@wVoAbDbA|AnBU|B|AfBlAyLtKoGxFcFqDkJaHgEoD","length":21},"routeShortName":"12","routeLongName":"Rivière du Moulin","rentedBike":false,"transitLeg":true,"duration":637.0,"steps":[]},{"startTime":1522686661000,"endTime":1522686949000,"departureDelay":0,"arrivalDelay":0,"realTime":false,"distance":372.298,"pathway":false,"mode":"WALK","route":"","agencyTimeZoneOffset":-14400000,"interlineWithPreviousLeg":false,"from":{"name":"Normandie / Luberon","stopId":"1:1539","stopCode":"1539","lon":-71.0227,"lat":48.4262,"arrival":1522686660000,"departure":1522686661000,"zoneId":"NA","stopIndex":21,"stopSequence":22,"vertexType":"TRANSIT"},"to":{"name":"Destination","lon":-71.026184,"lat":48.428199,"arrival":1522686949000,"orig":"","vertexType":"NORMAL"},"legGeometry":{"points":"_gqfHpsnpLgA{@iApCaA`CSf@wAnDYdA{@~C","length":8},"rentedBike":false,"transitLeg":false,"duration":288.0,"steps":[{"distance":46.528,"relativeDirection":"DEPART","streetName":"Rue de Normandie","absoluteDirection":"NORTHEAST","stayOn":false,"area":false,"bogusName":false,"lon":-71.02280873633681,"lat":48.42624039743895,"elevation":[]},{"distance":325.77,"relativeDirection":"LEFT","streetName":"Boulevard du Saguenay Est","absoluteDirection":"NORTHWEST","stayOn":false,"area":false,"bogusName":false,"lon":-71.02250070000001,"lat":48.4266055,"elevation":[]}]}],"tooSloped":false},{"duration":2434,"startTime":1522685573000,"endTime":1522688007000,"walkTime":268,"transitTime":1864,"waitingTime":302,"walkDistance":343.79013533659906,"walkLimitExceeded":false,"elevationLost":0.0,"elevationGained":0.0,"transfers":1,"legs":[{"startTime":1522685573000,"endTime":1522685726000,"departureDelay":0,"arrivalDelay":0,"realTime":false,"distance":193.43099999999998,"pathway":false,"mode":"WALK","route":"","agencyTimeZoneOffset":-14400000,"interlineWithPreviousLeg":false,"from":{"name":"Origin","lon":-71.08294499,"lat":48.382579,"departure":1522685573000,"orig":"","vertexType":"NORMAL"},"to":{"name":"COSTCO","stopId":"1:1542","stopCode":"1542","lon":-71.084272,"lat":48.383644,"arrival":1522685726000,"departure":1522685727000,"zoneId":"NA","stopIndex":1,"stopSequence":2,"vertexType":"TRANSIT"},"legGeometry":{"points":"ovhfH|lzpLDd@Sp@uB`FiAqA","length":5},"rentedBike":false,"transitLeg":false,"duration":153.0,"steps":[{"distance":193.43099999999998,"relativeDirection":"DEPART","streetName":"service road","absoluteDirection":"WEST","stayOn":false,"area":false,"bogusName":true,"lon":-71.08318940000001,"lat":48.382641400000004,"elevation":[]}]},{"startTime":1522685727000,"endTime":1522687200000,"departureDelay":0,"arrivalDelay":0,"realTime":false,"distance":7537.518634354049,"pathway":false,"mode":"BUS","route":"175","agencyName":"Société de Transport du Saguenay","agencyUrl":"http://ville.saguenay.ca/fr/services-aux-citoyens/transport-sts","agencyTimeZoneOffset":-14400000,"routeColor":"FF00FF","routeType":3,"routeId":"1:175","routeTextColor":"FFFFFF","interlineWithPreviousLeg":false,"tripBlockId":"11","headsign":"Terminus Chicoutimi","agencyId":"0","tripId":"1:217473","serviceDate":"20180402","from":{"name":"COSTCO","stopId":"1:1542","stopCode":"1542","lon":-71.084272,"lat":48.383644,"arrival":1522685726000,"departure":1522685727000,"zoneId":"NA","stopIndex":1,"stopSequence":2,"vertexType":"TRANSIT"},"to":{"name":"Terminus Chicoutimi","stopId":"1:1289","stopCode":"1289","lon":-71.066163,"lat":48.428677,"arrival":1522687200000,"departure":1522687500000,"zoneId":"NA","stopIndex":27,"stopSequence":28,"vertexType":"TRANSIT"},"legGeometry":{"points":"y|hfHzszpLwCqDrCsGN_@uEoFoEiFUWSUqCwC]a@{ByC{@cAkJuKoAwA_CeCeExJ~AlB`@mAu@k@}@q@|C}Iw@}@aO_QkEsEiAoAgEsFkFsHqJ_N}FkImPkOuO{N_U_TcNgNcBcB{E`Jc@x@qG~@{BlAk@XgSrQqB_GAeFiEeEOt@gAeA_A_ATm@yAwAgBeBqDnL@nBF`@f@|C[dCuAfB]xAs@OmCmCmEkE]a@g@i@ZiGTmEl@oLaEe@cFk@?pH?tJDvBPjMB~Bo@PQDRbFKdGMhIOvIK|EQpHoCQEdC","length":81},"routeShortName":"175","routeLongName":"Term. Chic / Costco","rentedBike":false,"transitLeg":true,"duration":1473.0,"steps":[]},{"startTime":1522687500000,"endTime":1522687891000,"departureDelay":0,"arrivalDelay":0,"realTime":false,"distance":2905.2877763841147,"pathway":false,"mode":"BUS","route":"12","agencyName":"Société de Transport du Saguenay","agencyUrl":"http://ville.saguenay.ca/fr/services-aux-citoyens/transport-sts","agencyTimeZoneOffset":-14400000,"routeColor":"556B2F","routeType":3,"routeId":"1:12","routeTextColor":"FFFFFF","interlineWithPreviousLeg":false,"tripBlockId":"27","headsign":"Terminus UQAC","agencyId":"0","tripId":"1:218012","serviceDate":"20180402","from":{"name":"Terminus Chicoutimi","stopId":"1:1289","stopCode":"1289","lon":-71.066163,"lat":48.428677,"arrival":1522687200000,"departure":1522687500000,"zoneId":"NA","stopIndex":0,"stopSequence":1,"vertexType":"TRANSIT"},"to":{"name":"Auberge Le Parasol (boul. Saguenay)","stopId":"1:496","stopCode":"496","lon":-71.027958,"lat":48.428859,"arrival":1522687891000,"departure":1522687892000,"zoneId":"NA","stopIndex":11,"stopSequence":12,"vertexType":"TRANSIT"},"legGeometry":{"points":"evqfHpbwpLpFcj@IaKmFy^_DaZz@u]SeV}@aNs@gKToKd@gTnCyH","length":12},"routeShortName":"12","routeLongName":"Rivière du Moulin","rentedBike":false,"transitLeg":true,"duration":391.0,"steps":[]},{"startTime":1522687892000,"endTime":1522688007000,"departureDelay":0,"arrivalDelay":0,"realTime":false,"distance":150.305,"pathway":false,"mode":"WALK","route":"","agencyTimeZoneOffset":-14400000,"interlineWithPreviousLeg":false,"from":{"name":"Auberge Le Parasol (boul. Saguenay)","stopId":"1:496","stopCode":"496","lon":-71.027958,"lat":48.428859,"arrival":1522687891000,"departure":1522687892000,"zoneId":"NA","stopIndex":11,"stopSequence":12,"vertexType":"TRANSIT"},"to":{"name":"Destination","lon":-71.026184,"lat":48.428199,"arrival":1522688007000,"orig":"","vertexType":"NORMAL"},"legGeometry":{"points":"ywqfHjsopLH]h@sBDOhAaE","length":5},"rentedBike":false,"transitLeg":false,"duration":115.0,"steps":[{"distance":150.305,"relativeDirection":"DEPART","streetName":"Boulevard du Saguenay Est","absoluteDirection":"SOUTHEAST","stayOn":false,"area":false,"bogusName":false,"lon":-71.02789478397764,"lat":48.428936717982694,"elevation":[]}]}],"tooSloped":false}]},"debugOutput":{"precalculationTime":9,"pathCalculationTime":18,"pathTimes":[7,8,3],"renderingTime":1,"totalTime":28,"timedOut":false},"elevationMetadata":{"ellipsoidToGeoidDifference":-28.885904201182168,"geoidElevation":false}}