{"requestParameters":{"date":"2018/04/02","walkSpeed":"1.33","walkReluctance":"2.0","fromPlace":"48.433289,-71.01997298","maxWalkDistance":"3000","waitReluctance":"1.0","carSpeed":"33","numItineraries":"3","waitAtBeginningFactor":"0.4","mode":"TRANSIT,WALK","ignoreRealtimeUpdates":"false","stairsReluctance":"2.0","toPlace":"48.445357,-71.026528","time":"21:0:00"},"plan":{"date":1522717200000,"from":{"name":"Origin","lon":-71.01997298,"lat":48.433289,"orig":"","vertexType":"NORMAL"},"to":{"name":"Destination","lon":-71.026528,"lat":48.445357,"orig":"","vertexType":"NORMAL"},"itineraries":[{"duration":3444,"startTime":1522718849000,"endTime":1522722293000,"walkTime":1971,"transitTime":1231,"waitingTime":242,"walkDistance":2558.8522030000586,"walkLimitExceeded":false,"elevationLost":0.0,"elevationGained":0.0,"transfers":1,"legs":[{"startTime":1522718849000,"endTime":1522719195000,"departureDelay":0,"arrivalDelay":0,"realTime":false,"distance":439.01300000000003,"pathway":false,"mode":"WALK","route":"","agencyTimeZoneOffset":-14400000,"interlineWithPreviousLeg":false,"from":{"name":"Origin","lon":-71.01997298,"lat":48.433289,"departure":1522718849000,"orig":"","vertexType":"NORMAL"},"to":{"name":"nouveau","stopId":"1:2303","stopCode":"2303","lon":-71.02291,"lat":48.432276,"arrival":1522719195000,"departure":1522719196000,"zoneId":"NA","stopIndex":24,"stopSequence":25,"vertexType":"TRANSIT"},"legGeometry":{"points":"asrfHxanpLGj@Eh@UbCq@vDXpAlAxEx@uA\\w@`@kAdAzA@?","length":12},"rentedBike":false,"transitLeg":false,"duration":346.0,"steps":[{"distance":155.975,"relativeDirection":"DEPART","streetName":"Rue de Nantes","absoluteDirection":"WEST","stayOn":false,"area":false,"bogusName":false,"lon":-71.01996928108787,"lat":48.433298914777204,"elevation":[]},{"distance":125.201,"relativeDirection":"LEFT","streetName":"Boulevard Renaud","absoluteDirection":"SOUTHWEST","stayOn":false,"area":false,"bogusName":false,"lon":-71.0219762,"lat":48.4337281,"elevation":[]},{"distance":105.887,"relativeDirection":"LEFT","streetName":"Rue du Perche","absoluteDirection":"SOUTHEAST","stayOn":false,"area":false,"bogusName":false,"lon":-71.0234782,"lat":48.433204200000006,"elevation":[]},{"distance":51.95,"relativeDirection":"RIGHT","streetName":"Rue Arthur-Hamel","absoluteDirection":"SOUTHWEST","stayOn":false,"area":false,"bogusName":false,"lon":-71.02238460000001,"lat":48.4325922,"elevation":[]}]},{"startTime":1522719196000,"endTime":1522719660000,"departureDelay":0,"arrivalDelay":0,"realTime":false,"distance":3308.741766648229,"pathway":false,"mode":"BUS","route":"12","agencyName":"Société de Transport du Saguenay","agencyUrl":"http://ville.saguenay.ca/fr/services-aux-citoyens/transport-sts","agencyTimeZoneOffset":-14400000,"routeColor":"556B2F","routeType":3,"routeId":"1:12","routeTextColor":"FFFFFF","interlineWithPreviousLeg":false,"tripBlockId":"26","headsign":"Terminus Chicoutimi","agencyId":"0","tripId":"1:217993","serviceDate":"20180402","from":{"name":"nouveau","stopId":"1:2303","stopCode":"2303","lon":-71.02291,"lat":48.432276,"arrival":1522719195000,"departure":1522719196000,"zoneId":"NA","stopIndex":24,"stopSequence":25,"vertexType":"TRANSIT"},"to":{"name":"Terminus Chicoutimi","stopId":"1:1289","stopCode":"1289","lon":-71.066163,"lat":48.428677,"arrival":1522719660000,"departure":1522719900000,"zoneId":"NA","stopIndex":33,"stopSequence":34,"vertexType":"TRANSIT"},"legGeometry":{"points":"qlrfH|snpLfM|O|FlHmB`IgA|Cy@`UYzHZvMR~Hr@~ZPvHsCrMFxf@|ApJj@nDDl]BvZdCXJhC","length":19},"routeShortName":"12","routeLongName":"Rivière du Moulin","rentedBike":false,"transitLeg":true,"duration":464.0,"steps":[]},{"startTime":1522719900000,"endTime":1522720667000,"departureDelay":0,"arrivalDelay":0,"realTime":false,"distance":5588.64034861953,"pathway":false,"mode":"BUS","route":"23","agencyName":"Société de Transport du Saguenay","agencyUrl":"http://ville.saguenay.ca/fr/services-aux-citoyens/transport-sts","agencyTimeZoneOffset":-14400000,"routeColor":"FF00FF","routeType":3,"routeId":"1:23","routeTextColor":"FFFFFF","interlineWithPreviousLeg":false,"tripBlockId":"5","headsign":"Terminus Chicoutimi","agencyId":"0","tripId":"1:217280","serviceDate":"20180402","from":{"name":"Terminus Chicoutimi","stopId":"1:1289","stopCode":"1289","lon":-71.066163,"lat":48.428677,"arrival":1522719660000,"departure":1522719900000,"zoneId":"NA","stopIndex":0,"stopSequence":1,"vertexType":"TRANSIT"},"to":{"name":"Verdun / Mgr Laval","stopId":"1:795","stopCode":"795","lon":-71.052912,"lat":48.444125,"arrival":1522720667000,"departure":1522720668000,"zoneId":"NA","stopIndex":17,"stopSequence":18,"vertexType":"TRANSIT"},"legGeometry":{"points":"kwqfHjbwpLF_CkAOYCm@rRO\\WjGOfGCRK^KJMHQB_AMg@Gw`@eR}@g@u@Su@Ia@Ck@Dm@HwAf@c@VeAx@iAlAU^[d@eLtTsAvB_CvEuAnCmBlE}@|B_BvFoC`JCD}@hCo@~Aq@pAs@fA{BlCqH|Iq@Bq@Im@UGCUi@Wm@ScA_@gGSaE@_@@_@@ERoBFe@No@`@gAbCyFNe@Ha@He@Fg@Du@Dg@Hc@Pa@RW\\S`@QZEm@eHM}B?GGi@Is@Ou@Qw@Mo@Kw@ImAGoBAk@aALa@?YEUKc@Yc@_@KOIUGUEWAW?YBqAH_AXeC@IdB_Mh@_EJk@d@kDhAqI`AgHz@oGBU?UAWCWUwAWD]B]AUEoAc@kE}AOIq@g@g@u@]w@b@s@T[~CkFf@s@\\e@x@}@jAeAXQZStBaAh@]`@]`@i@l@kDF_@R{AFWFMPIPC`@BT@V?TAVKLENCLCJ@J@xAb@x@Z","length":154},"routeShortName":"23","routeLongName":"Côte Verdun via Aréna du Plateau","rentedBike":false,"transitLeg":true,"duration":767.0,"steps":[]},{"startTime":1522720668000,"endTime":1522722293000,"departureDelay":0,"arrivalDelay":0,"realTime":false,"distance":2119.608,"pathway":false,"mode":"WALK","route":"","agencyTimeZoneOffset":-14400000,"interlineWithPreviousLeg":false,"from":{"name":"Verdun / Mgr Laval","stopId":"1:795","stopCode":"795","lon":-71.052912,"lat":48.444125,"arrival":1522720667000,"departure":1522720668000,"zoneId":"NA","stopIndex":17,"stopSequence":18,"vertexType":"TRANSIT"},"to":{"name":"Destination","lon":-71.026528,"lat":48.445357,"arrival":1522722293000,"orig":"","vertexType":"NORMAL"},"legGeometry":{"points":"svtfHbotpL~@^PsBr@_HViCHe@HYJOPQ|@w@GQUs@]qAc@eBAE[eBWcBAIOoAGc@Iw@IeCCe@AU[cFG{AGmAKiB[iGQmD?EKoBKqBO}CAo@AO?}A@_AD{@@a@TcDViDDs@B[T}CBc@VkDBQZoEH_B@I@s@?wAC{@E}@Ei@?AK_AKm@Kk@Mk@Mc@AGSi@Si@Wi@Wg@Ya@KQi@m@eBgBKK","length":72},"rentedBike":false,"transitLeg":false,"duration":1625.0,"steps":[{"distance":37.22,"relativeDirection":"DEPART","streetName":"Rue de Verdun","absoluteDirection":"SOUTH","stayOn":false,"area":false,"bogusName":false,"lon":-71.05281680528174,"lat":48.444103742156386,"elevation":[]},{"distance":293.978,"relativeDirection":"LEFT","streetName":"Rue Monseigneur-Laval","absoluteDirection":"EAST","stayOn":false,"area":false,"bogusName":false,"lon":-71.05297780000001,"lat":48.4437865,"elevation":[]},{"distance":1780.185,"relativeDirection":"LEFT","streetName":"Boulevard de Tadoussac","absoluteDirection":"NORTHEAST","stayOn":false,"area":false,"bogusName":false,"lon":-71.0494919,"lat":48.442756900000006,"elevation":[]},{"distance":8.225,"relativeDirection":"CONTINUE","streetName":"Route de Tadoussac","absoluteDirection":"NORTHEAST","stayOn":false,"area":false,"bogusName":false,"lon":-71.0269191,"lat":48.4454427,"elevation":[]}]}],"tooSloped":false},{"duration":2134,"startTime":1522720649000,"endTime":1522722783000,"walkTime":713,"transitTime":1179,"waitingTime":242,"walkDistance":918.9491804471854,"walkLimitExceeded":false,"elevationLost":0.0,"elevationGained":0.0,"transfers":1,"legs":[{"startTime":1522720649000,"endTime":1522720995000,"departureDelay":0,"arrivalDelay":0,"realTime":false,"distance":439.01300000000003,"pathway":false,"mode":"WALK","route":"","agencyTimeZoneOffset":-14400000,"interlineWithPreviousLeg":false,"from":{"name":"Origin","lon":-71.01997298,"lat":48.433289,"departure":1522720649000,"orig":"","vertexType":"NORMAL"},"to":{"name":"nouveau","stopId":"1:2303","stopCode":"2303","lon":-71.02291,"lat":48.432276,"arrival":1522720995000,"departure":1522720996000,"zoneId":"NA","stopIndex":24,"stopSequence":25,"vertexType":"TRANSIT"},"legGeometry":{"points":"asrfHxanpLGj@Eh@UbCq@vDXpAlAxEx@uA\\w@`@kAdAzA@?","length":12},"rentedBike":false,"transitLeg":false,"duration":346.0,"steps":[{"distance":155.975,"relativeDirection":"DEPART","streetName":"Rue de Nantes","absoluteDirection":"WEST","stayOn":false,"area":false,"bogusName":false,"lon":-71.01996928108787,"lat":48.433298914777204,"elevation":[]},{"distance":125.201,"relativeDirection":"LEFT","streetName":"Boulevard Renaud","absoluteDirection":"SOUTHWEST","stayOn":false,"area":false,"bogusName":false,"lon":-71.0219762,"lat":48.4337281,"elevation":[]},{"distance":105.887,"relativeDirection":"LEFT","streetName":"Rue du Perche","absoluteDirection":"SOUTHEAST","stayOn":false,"area":false,"bogusName":false,"lon":-71.0234782,"lat":48.433204200000006,"elevation":[]},{"distance":51.95,"relativeDirection":"RIGHT","streetName":"Rue Arthur-Hamel","absoluteDirection":"SOUTHWEST","stayOn":false,"area":false,"bogusName":false,"lon":-71.02238460000001,"lat":48.4325922,"elevation":[]}]},{"startTime":1522720996000,"endTime":1522721460000,"departureDelay":0,"arrivalDelay":0,"realTime":false,"distance":3308.741766648229,"pathway":false,"mode":"BUS","route":"12","agencyName":"Société de Transport du Saguenay","agencyUrl":"http://ville.saguenay.ca/fr/services-aux-citoyens/transport-sts","agencyTimeZoneOffset":-14400000,"routeColor":"556B2F","routeType":3,"routeId":"1:12","routeTextColor":"FFFFFF","interlineWithPreviousLeg":false,"tripBlockId":"29","headsign":"Terminus Chicoutimi","agencyId":"0","tripId":"1:218082","serviceDate":"20180402","from":{"name":"nouveau","stopId":"1:2303","stopCode":"2303","lon":-71.02291,"lat":48.432276,"arrival":1522720995000,"departure":1522720996000,"zoneId":"NA","stopIndex":24,"stopSequence":25,"vertexType":"TRANSIT"},"to":{"name":"Terminus Chicoutimi","stopId":"1:1289","stopCode":"1289","lon":-71.066163,"lat":48.428677,"arrival":1522721460000,"departure":1522721700000,"zoneId":"NA","stopIndex":33,"stopSequence":34,"vertexType":"TRANSIT"},"legGeometry":{"points":"qlrfH|snpLfM|O|FlHmB`IgA|Cy@`UYzHZvMR~Hr@~ZPvHsCrMFxf@|ApJj@nDDl]BvZdCXJhC","length":19},"routeShortName":"12","routeLongName":"Rivière du Moulin","rentedBike":false,"transitLeg":true,"duration":464.0,"steps":[]},{"startTime":1522721700000,"endTime":1522722415000,"departureDelay":0,"arrivalDelay":0,"realTime":false,"distance":4445.653150924742,"pathway":false,"mode":"BUS","route":"24","agencyName":"Société de Transport du Saguenay","agencyUrl":"http://ville.saguenay.ca/fr/services-aux-citoyens/transport-sts","agencyTimeZoneOffset":-14400000,"routeColor":"00FF00","routeType":3,"routeId":"1:24","routeTextColor":"000000","interlineWithPreviousLeg":false,"tripBlockId":"5","headsign":"Terminus Chicoutimi","agencyId":"0","tripId":"1:217281","serviceDate":"20180402","from":{"name":"Terminus Chicoutimi","stopId":"1:1289","stopCode":"1289","lon":-71.066163,"lat":48.428677,"arrival":1522721460000,"departure":1522721700000,"zoneId":"NA","stopIndex":0,"stopSequence":1,"vertexType":"TRANSIT"},"to":{"name":"Roussel / boul. Tadoussac","stopId":"1:819","stopCode":"819","lon":-71.032017,"lat":48.443307,"arrival":1522722415000,"departure":1522722416000,"zoneId":"NA","stopIndex":15,"stopSequence":16,"vertexType":"TRANSIT"},"legGeometry":{"points":"evqfHzcwpLg@?EhBO~GoBKCp@O\\WjGOfGCRK^KJMHQB_AMg@Gm\\wO]i@wAyA_@WUKMEwEm@Js@Da@??@@??@?@???@???@?@??A@???@A@??A@??A@A??@A?A??@A?A?A?A@A?A???A?A?A???A?A?A?A???A?AAA?A???AAA?A??AA?AA??AA??A??AA??A??AA?A???A????q@C{AAaB?mAEcAGs@OoAa@sB[kAYcASq@Ok@Qq@Ku@MoBKmAa@eHi@FKC_@I??iE}Ah@}DH}@?c@Ea@[_BA?My@Cm@?Y@g@Hu@b@sD\\_DBSyHsC_@MBQA}@IwAUoAcAkCWo@qDgJg@cBk@uBi@sC]aCWwCiKuDwQuGDWbAoGV{AxG~BPFhCdAn@Lx@BxA]QeDI}AzAW~ASQoDg@eKG{A?_@?m@?i@LeCJkAd@yGxAqSBs@p@^VRPR","length":168},"routeShortName":"24","routeLongName":"Saint-Luc","rentedBike":false,"transitLeg":true,"duration":715.0,"steps":[]},{"startTime":1522722416000,"endTime":1522722783000,"departureDelay":0,"arrivalDelay":0,"realTime":false,"distance":479.814,"pathway":false,"mode":"WALK","route":"","agencyTimeZoneOffset":-14400000,"interlineWithPreviousLeg":false,"from":{"name":"Roussel / boul. Tadoussac","stopId":"1:819","stopCode":"819","lon":-71.032017,"lat":48.443307,"arrival":1522722415000,"departure":1522722416000,"zoneId":"NA","stopIndex":15,"stopSequence":16,"vertexType":"TRANSIT"},"to":{"name":"Destination","lon":-71.026528,"lat":48.445357,"arrival":1522722783000,"orig":"","vertexType":"NORMAL"},"legGeometry":{"points":"iqtfHjlppLwAoA@s@?wAC{@E}@Ei@?AK_AKm@Kk@Mk@Mc@AGSi@Si@Wi@Wg@Ya@KQi@m@eBgBKK","length":23},"rentedBike":false,"transitLeg":false,"duration":367.0,"steps":[{"distance":57.27,"relativeDirection":"DEPART","streetName":"Rue Roussel","absoluteDirection":"NORTHEAST","stayOn":false,"area":false,"bogusName":false,"lon":-71.03189901568034,"lat":48.4432590979523,"elevation":[]},{"distance":414.319,"relativeDirection":"RIGHT","streetName":"Boulevard de Tadoussac","absoluteDirection":"EAST","stayOn":false,"area":false,"bogusName":false,"lon":-71.0314937,"lat":48.4436984,"elevation":[]},{"distance":8.225,"relativeDirection":"CONTINUE","streetName":"Route de Tadoussac","absoluteDirection":"NORTHEAST","stayOn":false,"area":false,"bogusName":false,"lon":-71.0269191,"lat":48.4454427,"elevation":[]}]}],"tooSloped":false},{"duration":2024,"startTime":1522722449000,"endTime":1522724473000,"walkTime":408,"transitTime":1074,"waitingTime":542,"walkDistance":521.2701202975859,"walkLimitExceeded":false,"elevationLost":0.0,"elevationGained":0.0,"transfers":1,"legs":[{"startTime":1522722449000,"endTime":1522722795000,"departureDelay":0,"arrivalDelay":0,"realTime":false,"distance":439.01300000000003,"pathway":false,"mode":"WALK","route":"","agencyTimeZoneOffset":-14400000,"interlineWithPreviousLeg":false,"from":{"name":"Origin","lon":-71.01997298,"lat":48.433289,"departure":1522722449000,"orig":"","vertexType":"NORMAL"},"to":{"name":"nouveau","stopId":"1:2303","stopCode":"2303","lon":-71.02291,"lat":48.432276,"arrival":1522722795000,"departure":1522722796000,"zoneId":"NA","stopIndex":24,"stopSequence":25,"vertexType":"TRANSIT"},"legGeometry":{"points":"asrfHxanpLGj@Eh@UbCq@vDXpAlAxEx@uA\\w@`@kAdAzA@?","length":12},"rentedBike":false,"transitLeg":false,"duration":346.0,"steps":[{"distance":155.975,"relativeDirection":"DEPART","streetName":"Rue de Nantes","absoluteDirection":"WEST","stayOn":false,"area":false,"bogusName":false,"lon":-71.01996928108787,"lat":48.433298914777204,"elevation":[]},{"distance":125.201,"relativeDirection":"LEFT","streetName":"Boulevard Renaud","absoluteDirection":"SOUTHWEST","stayOn":false,"area":false,"bogusName":false,"lon":-71.0219762,"lat":48.4337281,"elevation":[]},{"distance":105.887,"relativeDirection":"LEFT","streetName":"Rue du Perche","absoluteDirection":"SOUTHEAST","stayOn":false,"area":false,"bogusName":false,"lon":-71.0234782,"lat":48.433204200000006,"elevation":[]},{"distance":51.95,"relativeDirection":"RIGHT","streetName":"Rue Arthur-Hamel","absoluteDirection":"SOUTHWEST","stayOn":false,"area":false,"bogusName":false,"lon":-71.02238460000001,"lat":48.4325922,"elevation":[]}]},{"startTime":1522722796000,"endTime":1522723260000,"departureDelay":0,"arrivalDelay":0,"realTime":false,"distance":3308.741766648229,"pathway":false,"mode":"BUS","route":"12","agencyName":"Société de Transport du Saguenay","agencyUrl":"http://ville.saguenay.ca/fr/services-aux-citoyens/transport-sts","agencyTimeZoneOffset":-14400000,"routeColor":"556B2F","routeType":3,"routeId":"1:12","routeTextColor":"FFFFFF","interlineWithPreviousLeg":false,"tripBlockId":"26","headsign":"Terminus Chicoutimi","agencyId":"0","tripId":"1:217995","serviceDate":"20180402","from":{"name":"nouveau","stopId":"1:2303","stopCode":"2303","lon":-71.02291,"lat":48.432276,"arrival":1522722795000,"departure":1522722796000,"zoneId":"NA","stopIndex":24,"stopSequence":25,"vertexType":"TRANSIT"},"to":{"name":"Terminus Chicoutimi","stopId":"1:1289","stopCode":"1289","lon":-71.066163,"lat":48.428677,"arrival":1522723260000,"departure":1522723800000,"zoneId":"NA","stopIndex":33,"stopSequence":34,"vertexType":"TRANSIT"},"legGeometry":{"points":"qlrfH|snpLfM|O|FlHmB`IgA|Cy@`UYzHZvMR~Hr@~ZPvHsCrMFxf@|ApJj@nDDl]BvZdCXJhC","length":19},"routeShortName":"12","routeLongName":"Rivière du Moulin","rentedBike":false,"transitLeg":true,"duration":464.0,"steps":[]},{"startTime":1522723800000,"endTime":1522724410000,"departureDelay":0,"arrivalDelay":0,"realTime":false,"distance":4171.029224477871,"pathway":false,"mode":"BUS","route":"25","agencyName":"Société de Transport du Saguenay","agencyUrl":"http://ville.saguenay.ca/fr/services-aux-citoyens/transport-sts","agencyTimeZoneOffset":-14400000,"routeColor":"00FFFF","routeType":3,"routeId":"1:25","routeTextColor":"000000","interlineWithPreviousLeg":false,"tripBlockId":"21","headsign":"Roussel / Du Pont","agencyId":"0","tripId":"1:217824","serviceDate":"20180402","from":{"name":"Terminus Chicoutimi","stopId":"1:1289","stopCode":"1289","lon":-71.066163,"lat":48.428677,"arrival":1522723260000,"departure":1522723800000,"zoneId":"NA","stopIndex":0,"stopSequence":1,"vertexType":"TRANSIT"},"to":{"name":"boul. Tadoussac (no. 903)","stopId":"1:131","stopCode":"131","lon":-71.026122,"lat":48.446063,"arrival":1522724410000,"departure":1522724411000,"zoneId":"NA","stopIndex":8,"stopSequence":9,"vertexType":"TRANSIT"},"legGeometry":{"points":"avqfH``wpLc@E@o@kAOYCm@rRO\\WjGOfGCRK^KJMHQB_AMg@Gm\\wO]i@wAyA_@WUKMEwEm@Js@Da@??@@??@?@???@???@?@??A@???@A@??A@??A@A??@A?A??@A?A?A?A@A?A???A?A?A???A?A?A?A???A?AAA?A???AAA?A??AA?AA??AA??A??AA??A??AA?A???A????q@C{AAaB?mAEcAGs@OoAa@sB[kAYcASq@Ok@Qq@Ku@MoBiC}@yBu@AAyBu@o@Qs@[YSSUY]Ye@]{@Me@Kg@K{@CQm@_IEs@Cq@Aw@Do@LyAJ_ADYBUf@wDRaBHqABQA}@IwAUoAcAkCWo@qDgJg@cBk@uBi@sC]aCWwCs@}Mq@_NQoDg@eKG{A?_@?m@?i@LeCJkAd@yGl@sINsBZiEHsBAaA?u@C}@IaAGk@K{@UgA[mAOi@Uq@a@w@a@o@a@e@mBsB{@u@wAaB","length":174},"routeShortName":"25","routeLongName":"Valin","rentedBike":false,"transitLeg":true,"duration":610.0,"steps":[]},{"startTime":1522724411000,"endTime":1522724473000,"departureDelay":0,"arrivalDelay":0,"realTime":false,"distance":82.159,"pathway":false,"mode":"WALK","route":"","agencyTimeZoneOffset":-14400000,"interlineWithPreviousLeg":false,"from":{"name":"boul. Tadoussac (no. 903)","stopId":"1:131","stopCode":"131","lon":-71.026122,"lat":48.446063,"arrival":1522724410000,"departure":1522724411000,"zoneId":"NA","stopIndex":8,"stopSequence":9,"vertexType":"TRANSIT"},"to":{"name":"Destination","lon":-71.026528,"lat":48.445357,"arrival":1522724473000,"orig":"","vertexType":"NORMAL"},"legGeometry":{"points":"ecufH|hopLf@h@pArA","length":3},"rentedBike":false,"transitLeg":false,"duration":62.0,"steps":[{"distance":82.159,"relativeDirection":"DEPART","streetName":"Route de Tadoussac","absoluteDirection":"SOUTHWEST","stayOn":false,"area":false,"bogusName":false,"lon":-71.02622404031082,"lat":48.44611202624167,"elevation":[]}]}],"tooSloped":false}]},"debugOutput":{"precalculationTime":5,"pathCalculationTime":21,"pathTimes":[14,5,2],"renderingTime":1,"totalTime":27,"timedOut":false},"elevationMetadata":{"ellipsoidToGeoidDifference":-28.885904201182168,"geoidElevation":false}}