{"requestParameters":{"date":"2018/04/02","walkSpeed":"1.33","walkReluctance":"2.0","fromPlace":"48.406641,-71.058372","maxWalkDistance":"3000","waitReluctance":"1.0","carSpeed":"33","numItineraries":"3","waitAtBeginningFactor":"0.4","mode":"TRANSIT,WALK","ignoreRealtimeUpdates":"false","stairsReluctance":"2.0","toPlace":"48.403186,-71.09662898","time":"15:40:00"},"plan":{"date":1522698000000,"from":{"name":"Origin","lon":-71.058372,"lat":48.406641,"orig":"","vertexType":"NORMAL"},"to":{"name":"Destination","lon":-71.09662898,"lat":48.403186,"orig":"","vertexType":"NORMAL"},"itineraries":[{"duration":1365,"startTime":1522699112000,"endTime":1522700477000,"walkTime":856,"transitTime":507,"waitingTime":2,"walkDistance":1114.9162631544984,"walkLimitExceeded":false,"elevationLost":0.0,"elevationGained":0.0,"transfers":0,"legs":[{"startTime":1522699112000,"endTime":1522699558000,"departureDelay":0,"arrivalDelay":0,"realTime":false,"distance":579.513,"pathway":false,"mode":"WALK","route":"","agencyTimeZoneOffset":-14400000,"interlineWithPreviousLeg":false,"from":{"name":"Origin","lon":-71.058372,"lat":48.406641,"departure":1522699112000,"orig":"","vertexType":"NORMAL"},"to":{"name":"Saguenéens  / Bach","stopId":"1:575","stopCode":"575","lon":-71.061104,"lat":48.403689,"arrival":1522699558000,"departure":1522699559000,"zoneId":"NA","stopIndex":23,"stopSequence":24,"vertexType":"TRANSIT"},"legGeometry":{"points":"kkmfH`oupLBB^V\\CDI`Ax@xAjAzBlBZXr@_CjF~EPPyBvF","length":13},"rentedBike":false,"transitLeg":false,"duration":446.0,"steps":[{"distance":298.208,"relativeDirection":"DEPART","streetName":"parking aisle","absoluteDirection":"SOUTHWEST","stayOn":false,"area":false,"bogusName":false,"lon":-71.05792823187457,"lat":48.40646381876084,"elevation":[]},{"distance":167.019,"relativeDirection":"RIGHT","streetName":"Boulevard Talbot","absoluteDirection":"SOUTHWEST","stayOn":false,"area":false,"bogusName":false,"lon":-71.0587038,"lat":48.4043008,"elevation":[]},{"distance":114.286,"relativeDirection":"RIGHT","streetName":"Rue des Saguenéens","absoluteDirection":"NORTHWEST","stayOn":false,"area":false,"bogusName":false,"lon":-71.0599121,"lat":48.403030900000005,"elevation":[]}]},{"startTime":1522699559000,"endTime":1522699920000,"departureDelay":0,"arrivalDelay":0,"realTime":false,"distance":3436.0046196032185,"pathway":false,"mode":"BUS","route":"15","agencyName":"Société de Transport du Saguenay","agencyUrl":"http://ville.saguenay.ca/fr/services-aux-citoyens/transport-sts","agencyTimeZoneOffset":-14400000,"routeColor":"FF00FF","routeType":3,"routeId":"1:15","routeTextColor":"FFFFFF","interlineWithPreviousLeg":false,"tripBlockId":"31","headsign":"Talbot / Barrette","agencyId":"0","tripId":"1:218140","serviceDate":"20180402","from":{"name":"Saguenéens  / Bach","stopId":"1:575","stopCode":"575","lon":-71.061104,"lat":48.403689,"arrival":1522699558000,"departure":1522699559000,"zoneId":"NA","stopIndex":23,"stopSequence":24,"vertexType":"TRANSIT"},"to":{"name":"Roitelets / Sapins","stopId":"1:1543","stopCode":"1543","lon":-71.069553,"lat":48.393375,"arrival":1522699920000,"departure":1522699920000,"zoneId":"NA","stopIndex":35,"stopSequence":36,"vertexType":"TRANSIT"},"legGeometry":{"points":"ezlfHvbvpLtC{FnBoLbCaO?qLa@uJzF`ApF~@~@PzAgEeDcBf@qAWcKUqEx@Ef@ExDVjDxAFBrBvAfGjG@BjCzC~DxC@@zA~Cb@fCJlC?BsBre@?DWbOAn@?nEGnM@H\\hCzA~ELvAAlAi@jDo@nB","length":42},"routeShortName":"15","routeLongName":"Term. Chic / Costco","rentedBike":false,"transitLeg":true,"duration":361.0,"steps":[]},{"startTime":1522699920000,"endTime":1522700066000,"departureDelay":0,"arrivalDelay":0,"realTime":false,"distance":2001.932967403964,"pathway":false,"mode":"BUS","route":"14","agencyName":"Société de Transport du Saguenay","agencyUrl":"http://ville.saguenay.ca/fr/services-aux-citoyens/transport-sts","agencyTimeZoneOffset":-14400000,"routeColor":"C0C000","routeType":3,"routeId":"1:14","routeTextColor":"000000","interlineWithPreviousLeg":true,"tripBlockId":"31","headsign":"Terminus Chicoutimi","agencyId":"0","tripId":"1:218141","serviceDate":"20180402","from":{"name":"Roitelets / Sapins","stopId":"1:1513","stopCode":"1513","lon":-71.069396,"lat":48.393523,"arrival":1522699920000,"departure":1522699920000,"zoneId":"NA","stopIndex":0,"stopSequence":1,"vertexType":"TRANSIT"},"to":{"name":"Malraux / Pagnol","stopId":"1:441","stopCode":"441","lon":-71.09356,"lat":48.400447,"arrival":1522700066000,"departure":1522700067000,"zoneId":"NA","stopIndex":6,"stopSequence":7,"vertexType":"TRANSIT"},"legGeometry":{"points":"azjfHfwwpLiEfLuBzFsAnDgGzSWfAcD`Mi@dCgChLmCzMwGd\\aDxOdFtF","length":13},"routeShortName":"14","routeLongName":"Coopérative","rentedBike":false,"transitLeg":true,"duration":146.0,"steps":[]},{"startTime":1522700067000,"endTime":1522700477000,"departureDelay":0,"arrivalDelay":0,"realTime":false,"distance":535.298,"pathway":false,"mode":"WALK","route":"","agencyTimeZoneOffset":-14400000,"interlineWithPreviousLeg":false,"from":{"name":"Malraux / Pagnol","stopId":"1:441","stopCode":"441","lon":-71.09356,"lat":48.400447,"arrival":1522700066000,"departure":1522700067000,"zoneId":"NA","stopIndex":6,"stopSequence":7,"vertexType":"TRANSIT"},"to":{"name":"Destination","lon":-71.09662898,"lat":48.403186,"arrival":1522700477000,"orig":"","vertexType":"NORMAL"},"legGeometry":{"points":"melfH`m|pLEEkF{Fa@jAA?{EvMy@tBGP_AdC","length":9},"rentedBike":false,"transitLeg":false,"duration":410.0,"steps":[{"distance":164.807,"relativeDirection":"DEPART","streetName":"Rue Malraux","absoluteDirection":"NORTHEAST","stayOn":false,"area":false,"bogusName":false,"lon":-71.0934459868607,"lat":48.400393574945504,"elevation":[]},{"distance":370.491,"relativeDirection":"LEFT","streetName":"Boulevard Barrette","absoluteDirection":"NORTHWEST","stayOn":false,"area":false,"bogusName":false,"lon":-71.0921587,"lat":48.401604500000005,"elevation":[]}]}],"tooSloped":false},{"duration":1833,"startTime":1522699172000,"endTime":1522701005000,"walkTime":757,"transitTime":1074,"waitingTime":2,"walkDistance":953.2394811951833,"walkLimitExceeded":false,"elevationLost":0.0,"elevationGained":0.0,"transfers":0,"legs":[{"startTime":1522699172000,"endTime":1522699876000,"departureDelay":0,"arrivalDelay":0,"realTime":false,"distance":883.458,"pathway":false,"mode":"WALK","route":"","agencyTimeZoneOffset":-14400000,"interlineWithPreviousLeg":false,"from":{"name":"Origin","lon":-71.058372,"lat":48.406641,"departure":1522699172000,"orig":"","vertexType":"NORMAL"},"to":{"name":"Roitelets / Lorenzo Genest","stopId":"1:1926","stopCode":"1926","lon":-71.049632,"lat":48.407524,"arrival":1522699876000,"departure":1522699877000,"zoneId":"NA","stopIndex":12,"stopSequence":13,"vertexType":"TRANSIT"},"legGeometry":{"points":"kkmfH`oupLBB^V\\CDIFO\\eAJ]HWH[}DqDl@}B|@gCb@q@S_FJ@V?Z@o@kCs@{CES{@qEGo@AGAKEU?iAGUMYW]mB}@AA","length":32},"rentedBike":false,"transitLeg":false,"duration":704.0,"steps":[{"distance":105.184,"relativeDirection":"DEPART","streetName":"parking aisle","absoluteDirection":"SOUTHWEST","stayOn":false,"area":false,"bogusName":false,"lon":-71.05792823187457,"lat":48.40646381876084,"elevation":[]},{"distance":11.753,"relativeDirection":"CONTINUE","streetName":"service road","absoluteDirection":"SOUTHEAST","stayOn":false,"area":false,"bogusName":true,"lon":-71.05729810000001,"lat":48.4058038,"elevation":[]},{"distance":124.52,"relativeDirection":"LEFT","streetName":"Boulevard Talbot","absoluteDirection":"NORTHEAST","stayOn":false,"area":false,"bogusName":false,"lon":-71.0571583,"lat":48.4057532,"elevation":[]},{"distance":141.093,"relativeDirection":"RIGHT","streetName":"service road","absoluteDirection":"SOUTHEAST","stayOn":false,"area":false,"bogusName":true,"lon":-71.0562666,"lat":48.4067038,"elevation":[]},{"distance":83.48,"relativeDirection":"LEFT","streetName":"path","absoluteDirection":"EAST","stayOn":true,"area":false,"bogusName":true,"lon":-71.05470940000001,"lat":48.4059844,"elevation":[]},{"distance":165.414,"relativeDirection":"RIGHT","streetName":"service road","absoluteDirection":"SOUTH","stayOn":true,"area":false,"bogusName":true,"lon":-71.05358820000001,"lat":48.406082600000005,"elevation":[]},{"distance":146.36399999999998,"relativeDirection":"CONTINUE","streetName":"Rue Émile-Girardin","absoluteDirection":"NORTHEAST","stayOn":false,"area":false,"bogusName":false,"lon":-71.05202630000001,"lat":48.4062974,"elevation":[]},{"distance":39.358,"relativeDirection":"SLIGHTLY_LEFT","streetName":"link","absoluteDirection":"NORTHEAST","stayOn":false,"area":false,"bogusName":true,"lon":-71.0501541,"lat":48.406688800000005,"elevation":[]},{"distance":66.292,"relativeDirection":"SLIGHTLY_LEFT","streetName":"Rue Des Roitelets","absoluteDirection":"NORTH","stayOn":false,"area":false,"bogusName":false,"lon":-71.0497603,"lat":48.406919900000005,"elevation":[]}]},{"startTime":1522699877000,"endTime":1522700951000,"departureDelay":0,"arrivalDelay":0,"realTime":false,"distance":6121.935664805095,"pathway":false,"mode":"BUS","route":"214S","agencyName":"Société de Transport du Saguenay","agencyUrl":"http://ville.saguenay.ca/fr/services-aux-citoyens/transport-sts","agencyTimeZoneOffset":-14400000,"routeColor":"8B0000","routeType":3,"routeId":"1:214S","routeTextColor":"FFFFFF","interlineWithPreviousLeg":false,"headsign":"Carcajous / Martres","agencyId":"0","tripId":"1:218520","serviceDate":"20180402","from":{"name":"Roitelets / Lorenzo Genest","stopId":"1:1926","stopCode":"1926","lon":-71.049632,"lat":48.407524,"arrival":1522699876000,"departure":1522699877000,"zoneId":"NA","stopIndex":12,"stopSequence":13,"vertexType":"TRANSIT"},"to":{"name":"boul. Barrette / Voltaire","stopId":"1:477","stopCode":"477","lon":-71.095407,"lat":48.403241,"arrival":1522700951000,"departure":1522700952000,"zoneId":"NA","stopIndex":29,"stopSequence":30,"vertexType":"TRANSIT"},"legGeometry":{"points":"uqmfHdzspLHDbAb@pAb@tGuA~VwIJCxCqA~Ae@LElB]vFBtEfBPFzHpHx@v@XZdBjBz@t@hChB`@|@@Bv@`Bb@bCBjDpCg@fAIr@B@}DJ[NGjAD~@WjA_Ab@y@XeAL{@DaBfAqHx@}D~@mDiC_C{EuDq@jC@j@VRvHrGy@`E_@nC_@xCCNGrAMz@WbAc@v@mAfA{@RiAESDKZC|Do@CiAJkCb@IbBEn@GfAYbGu@zPKjD?NMzEMxLExKBnC\\zC~AlFHhAEnAO|ASbAo@nBADcI`TSj@}@bCeGzS_IqI|@oC~@mDQcDGcAEo@\\vG}@fD_ArC|HzIU~@mE|PCHcHxZABsGb\\aBlIk@bCOx@c@rAA@oGbQCF","length":110},"routeShortName":"214S","routeLongName":"Séminaire - Chicoutimi Sud","rentedBike":false,"transitLeg":true,"duration":1074.0,"steps":[]},{"startTime":1522700952000,"endTime":1522701005000,"departureDelay":0,"arrivalDelay":0,"realTime":false,"distance":69.539,"pathway":false,"mode":"WALK","route":"","agencyTimeZoneOffset":-14400000,"interlineWithPreviousLeg":false,"from":{"name":"boul. Barrette / Voltaire","stopId":"1:477","stopCode":"477","lon":-71.095407,"lat":48.403241,"arrival":1522700951000,"departure":1522700952000,"zoneId":"NA","stopIndex":29,"stopSequence":30,"vertexType":"TRANSIT"},"to":{"name":"Destination","lon":-71.09662898,"lat":48.403186,"arrival":1522701005000,"orig":"","vertexType":"NORMAL"},"legGeometry":{"points":"yvlfHxy|pLGP_AdC","length":3},"rentedBike":false,"transitLeg":false,"duration":53.0,"steps":[{"distance":69.539,"relativeDirection":"DEPART","streetName":"Boulevard Barrette","absoluteDirection":"NORTHWEST","stayOn":false,"area":false,"bogusName":false,"lon":-71.09548255149865,"lat":48.403171572977286,"elevation":[]}]}],"tooSloped":false},{"duration":1365,"startTime":1522700912000,"endTime":1522702277000,"walkTime":856,"transitTime":507,"waitingTime":2,"walkDistance":1114.9162631544984,"walkLimitExceeded":false,"elevationLost":0.0,"elevationGained":0.0,"transfers":0,"legs":[{"startTime":1522700912000,"endTime":1522701358000,"departureDelay":0,"arrivalDelay":0,"realTime":false,"distance":579.513,"pathway":false,"mode":"WALK","route":"","agencyTimeZoneOffset":-14400000,"interlineWithPreviousLeg":false,"from":{"name":"Origin","lon":-71.058372,"lat":48.406641,"departure":1522700912000,"orig":"","vertexType":"NORMAL"},"to":{"name":"Saguenéens  / Bach","stopId":"1:575","stopCode":"575","lon":-71.061104,"lat":48.403689,"arrival":1522701358000,"departure":1522701359000,"zoneId":"NA","stopIndex":23,"stopSequence":24,"vertexType":"TRANSIT"},"legGeometry":{"points":"kkmfH`oupLBB^V\\CDI`Ax@xAjAzBlBZXr@_CjF~EPPyBvF","length":13},"rentedBike":false,"transitLeg":false,"duration":446.0,"steps":[{"distance":298.208,"relativeDirection":"DEPART","streetName":"parking aisle","absoluteDirection":"SOUTHWEST","stayOn":false,"area":false,"bogusName":false,"lon":-71.05792823187457,"lat":48.40646381876084,"elevation":[]},{"distance":167.019,"relativeDirection":"RIGHT","streetName":"Boulevard Talbot","absoluteDirection":"SOUTHWEST","stayOn":false,"area":false,"bogusName":false,"lon":-71.0587038,"lat":48.4043008,"elevation":[]},{"distance":114.286,"relativeDirection":"RIGHT","streetName":"Rue des Saguenéens","absoluteDirection":"NORTHWEST","stayOn":false,"area":false,"bogusName":false,"lon":-71.0599121,"lat":48.403030900000005,"elevation":[]}]},{"startTime":1522701359000,"endTime":1522701720000,"departureDelay":0,"arrivalDelay":0,"realTime":false,"distance":3436.0046196032185,"pathway":false,"mode":"BUS","route":"15","agencyName":"Société de Transport du Saguenay","agencyUrl":"http://ville.saguenay.ca/fr/services-aux-citoyens/transport-sts","agencyTimeZoneOffset":-14400000,"routeColor":"FF00FF","routeType":3,"routeId":"1:15","routeTextColor":"FFFFFF","interlineWithPreviousLeg":false,"tripBlockId":"33","headsign":"Talbot / Barrette","agencyId":"0","tripId":"1:218191","serviceDate":"20180402","from":{"name":"Saguenéens  / Bach","stopId":"1:575","stopCode":"575","lon":-71.061104,"lat":48.403689,"arrival":1522701358000,"departure":1522701359000,"zoneId":"NA","stopIndex":23,"stopSequence":24,"vertexType":"TRANSIT"},"to":{"name":"Roitelets / Sapins","stopId":"1:1543","stopCode":"1543","lon":-71.069553,"lat":48.393375,"arrival":1522701720000,"departure":1522701720000,"zoneId":"NA","stopIndex":35,"stopSequence":36,"vertexType":"TRANSIT"},"legGeometry":{"points":"ezlfHvbvpLtC{FnBoLbCaO?qLa@uJzF`ApF~@~@PzAgEeDcBf@qAWcKUqEx@Ef@ExDVjDxAFBrBvAfGjG@BjCzC~DxC@@zA~Cb@fCJlC?BsBre@?DWbOAn@?nEGnM@H\\hCzA~ELvAAlAi@jDo@nB","length":42},"routeShortName":"15","routeLongName":"Term. Chic / Costco","rentedBike":false,"transitLeg":true,"duration":361.0,"steps":[]},{"startTime":1522701720000,"endTime":1522701866000,"departureDelay":0,"arrivalDelay":0,"realTime":false,"distance":2001.932967403964,"pathway":false,"mode":"BUS","route":"14","agencyName":"Société de Transport du Saguenay","agencyUrl":"http://ville.saguenay.ca/fr/services-aux-citoyens/transport-sts","agencyTimeZoneOffset":-14400000,"routeColor":"C0C000","routeType":3,"routeId":"1:14","routeTextColor":"000000","interlineWithPreviousLeg":true,"tripBlockId":"33","headsign":"Terminus Chicoutimi","agencyId":"0","tripId":"1:218192","serviceDate":"20180402","from":{"name":"Roitelets / Sapins","stopId":"1:1513","stopCode":"1513","lon":-71.069396,"lat":48.393523,"arrival":1522701720000,"departure":1522701720000,"zoneId":"NA","stopIndex":0,"stopSequence":1,"vertexType":"TRANSIT"},"to":{"name":"Malraux / Pagnol","stopId":"1:441","stopCode":"441","lon":-71.09356,"lat":48.400447,"arrival":1522701866000,"departure":1522701867000,"zoneId":"NA","stopIndex":6,"stopSequence":7,"vertexType":"TRANSIT"},"legGeometry":{"points":"azjfHfwwpLiEfLuBzFsAnDgGzSWfAcD`Mi@dCgChLmCzMwGd\\aDxOdFtF","length":13},"routeShortName":"14","routeLongName":"Coopérative","rentedBike":false,"transitLeg":true,"duration":146.0,"steps":[]},{"startTime":1522701867000,"endTime":1522702277000,"departureDelay":0,"arrivalDelay":0,"realTime":false,"distance":535.298,"pathway":false,"mode":"WALK","route":"","agencyTimeZoneOffset":-14400000,"interlineWithPreviousLeg":false,"from":{"name":"Malraux / Pagnol","stopId":"1:441","stopCode":"441","lon":-71.09356,"lat":48.400447,"arrival":1522701866000,"departure":1522701867000,"zoneId":"NA","stopIndex":6,"stopSequence":7,"vertexType":"TRANSIT"},"to":{"name":"Destination","lon":-71.09662898,"lat":48.403186,"arrival":1522702277000,"orig":"","vertexType":"NORMAL"},"legGeometry":{"points":"melfH`m|pLEEkF{Fa@jAA?{EvMy@tBGP_AdC","length":9},"rentedBike":false,"transitLeg":false,"duration":410.0,"steps":[{"distance":164.807,"relativeDirection":"DEPART","streetName":"Rue Malraux","absoluteDirection":"NORTHEAST","stayOn":false,"area":false,"bogusName":false,"lon":-71.0934459868607,"lat":48.400393574945504,"elevation":[]},{"distance":370.491,"relativeDirection":"LEFT","streetName":"Boulevard Barrette","absoluteDirection":"NORTHWEST","stayOn":false,"area":false,"bogusName":false,"lon":-71.0921587,"lat":48.401604500000005,"elevation":[]}]}],"tooSloped":false}]},"debugOutput":{"precalculationTime":35,"pathCalculationTime":51,"pathTimes":[23,11,17],"renderingTime":1,"totalTime":87,"timedOut":false},"elevationMetadata":{"ellipsoidToGeoidDifference":-28.885904201182168,"geoidElevation":false}}