{"requestParameters":{"date":"2018/04/02","walkSpeed":"1.33","walkReluctance":"2.0","fromPlace":"48.421405,-71.022808","maxWalkDistance":"3000","waitReluctance":"1.0","carSpeed":"33","numItineraries":"3","waitAtBeginningFactor":"0.4","mode":"TRANSIT,WALK","ignoreRealtimeUpdates":"false","stairsReluctance":"2.0","toPlace":"48.403952,-71.054642","time":"16:30:00"},"plan":{"date":1522701000000,"from":{"name":"Origin","lon":-71.022808,"lat":48.421405,"orig":"","vertexType":"NORMAL"},"to":{"name":"Destination","lon":-71.054642,"lat":48.403952,"orig":"","vertexType":"NORMAL"},"itineraries":[{"duration":1131,"startTime":1522702495000,"endTime":1522703626000,"walkTime":677,"transitTime":452,"waitingTime":2,"walkDistance":851.9749097691467,"walkLimitExceeded":false,"elevationLost":0.0,"elevationGained":0.0,"transfers":0,"legs":[{"startTime":1522702495000,"endTime":1522702739000,"departureDelay":0,"arrivalDelay":0,"realTime":false,"distance":311.293,"pathway":false,"mode":"WALK","route":"","agencyTimeZoneOffset":-14400000,"interlineWithPreviousLeg":false,"from":{"name":"Origin","lon":-71.022808,"lat":48.421405,"departure":1522702495000,"orig":"","vertexType":"NORMAL"},"to":{"name":"Gascogne / Provence","stopId":"1:1536","stopCode":"1536","lon":-71.022239,"lat":48.419203,"arrival":1522702739000,"departure":1522702740000,"zoneId":"NA","stopIndex":24,"stopSequence":25,"vertexType":"TRANSIT"},"legGeometry":{"points":"qipfHbrnpLJOl@y@h@u@Za@HM\\g@NZZn@HPBDTFPGDA`@ODADCPHTLJF\\RNHJB`@N@???","length":26},"rentedBike":false,"transitLeg":false,"duration":244.0,"steps":[{"distance":122.74600000000001,"relativeDirection":"DEPART","streetName":"Rue de Normandie","absoluteDirection":"SOUTHEAST","stayOn":false,"area":false,"bogusName":false,"lon":-71.0225720594234,"lat":48.42153541633201,"elevation":[]},{"distance":188.54699999999997,"relativeDirection":"RIGHT","streetName":"Rue de Gascogne","absoluteDirection":"SOUTHWEST","stayOn":false,"area":false,"bogusName":false,"lon":-71.0215,"lat":48.4206914,"elevation":[]}]},{"startTime":1522702740000,"endTime":1522703192000,"departureDelay":0,"arrivalDelay":0,"realTime":false,"distance":2826.8480788615807,"pathway":false,"mode":"BUS","route":"12","agencyName":"Société de Transport du Saguenay","agencyUrl":"http://ville.saguenay.ca/fr/services-aux-citoyens/transport-sts","agencyTimeZoneOffset":-14400000,"routeColor":"556B2F","routeType":3,"routeId":"1:12","routeTextColor":"FFFFFF","interlineWithPreviousLeg":false,"tripBlockId":"27","headsign":"Terminus UQAC","agencyId":"0","tripId":"1:218020","serviceDate":"20180402","from":{"name":"Gascogne / Provence","stopId":"1:1536","stopCode":"1536","lon":-71.022239,"lat":48.419203,"arrival":1522702739000,"departure":1522702740000,"zoneId":"NA","stopIndex":24,"stopSequence":25,"vertexType":"TRANSIT"},"to":{"name":"Émile Girardin / Roitelets","stopId":"1:253","stopCode":"253","lon":-71.050677,"lat":48.406726,"arrival":1522703192000,"departure":1522703193000,"zoneId":"NA","stopIndex":27,"stopSequence":28,"vertexType":"TRANSIT"},"legGeometry":{"points":"_{ofH~onpL`b@fNvVvrCdRvM","length":4},"routeShortName":"12","routeLongName":"Rivière du Moulin","rentedBike":false,"transitLeg":true,"duration":452.0,"steps":[]},{"startTime":1522703193000,"endTime":1522703626000,"departureDelay":0,"arrivalDelay":0,"realTime":false,"distance":540.518,"pathway":false,"mode":"WALK","route":"","agencyTimeZoneOffset":-14400000,"interlineWithPreviousLeg":false,"from":{"name":"Émile Girardin / Roitelets","stopId":"1:253","stopCode":"253","lon":-71.050677,"lat":48.406726,"arrival":1522703192000,"departure":1522703193000,"zoneId":"NA","stopIndex":27,"stopSequence":28,"vertexType":"TRANSIT"},"to":{"name":"Destination","lon":-71.054642,"lat":48.403952,"arrival":1522703626000,"orig":"","vertexType":"NORMAL"},"legGeometry":{"points":"qlmfHnatpL@J@FFn@z@pEt@]l@Qp@E|@B|@L?dBGRRRZXXXXVVTXVPROf@Wt@Xb@R\\T^R\\JL","length":26},"rentedBike":false,"transitLeg":false,"duration":433.0,"steps":[{"distance":110.098,"relativeDirection":"DEPART","streetName":"Rue Émile-Girardin","absoluteDirection":"WEST","stayOn":false,"area":false,"bogusName":false,"lon":-71.05063801296859,"lat":48.406654574894674,"elevation":[]},{"distance":155.611,"relativeDirection":"LEFT","streetName":"Rue des Champs-Élysées","absoluteDirection":"SOUTH","stayOn":false,"area":false,"bogusName":false,"lon":-71.05202630000001,"lat":48.4062974,"elevation":[]},{"distance":46.581,"relativeDirection":"RIGHT","streetName":"service road","absoluteDirection":"WEST","stayOn":false,"area":false,"bogusName":true,"lon":-71.05184220000001,"lat":48.4049276,"elevation":[]},{"distance":110.87500000000001,"relativeDirection":"LEFT","streetName":"service road","absoluteDirection":"SOUTHWEST","stayOn":true,"area":false,"bogusName":true,"lon":-71.05245930000001,"lat":48.4049623,"elevation":[]},{"distance":117.35300000000001,"relativeDirection":"RIGHT","streetName":"parking aisle","absoluteDirection":"NORTHWEST","stayOn":true,"area":false,"bogusName":true,"lon":-71.0532652,"lat":48.4041209,"elevation":[]}]}],"tooSloped":false},{"duration":1131,"startTime":1522704295000,"endTime":1522705426000,"walkTime":677,"transitTime":452,"waitingTime":2,"walkDistance":851.9749097691467,"walkLimitExceeded":false,"elevationLost":0.0,"elevationGained":0.0,"transfers":0,"legs":[{"startTime":1522704295000,"endTime":1522704539000,"departureDelay":0,"arrivalDelay":0,"realTime":false,"distance":311.293,"pathway":false,"mode":"WALK","route":"","agencyTimeZoneOffset":-14400000,"interlineWithPreviousLeg":false,"from":{"name":"Origin","lon":-71.022808,"lat":48.421405,"departure":1522704295000,"orig":"","vertexType":"NORMAL"},"to":{"name":"Gascogne / Provence","stopId":"1:1536","stopCode":"1536","lon":-71.022239,"lat":48.419203,"arrival":1522704539000,"departure":1522704540000,"zoneId":"NA","stopIndex":24,"stopSequence":25,"vertexType":"TRANSIT"},"legGeometry":{"points":"qipfHbrnpLJOl@y@h@u@Za@HM\\g@NZZn@HPBDTFPGDA`@ODADCPHTLJF\\RNHJB`@N@???","length":26},"rentedBike":false,"transitLeg":false,"duration":244.0,"steps":[{"distance":122.74600000000001,"relativeDirection":"DEPART","streetName":"Rue de Normandie","absoluteDirection":"SOUTHEAST","stayOn":false,"area":false,"bogusName":false,"lon":-71.0225720594234,"lat":48.42153541633201,"elevation":[]},{"distance":188.54699999999997,"relativeDirection":"RIGHT","streetName":"Rue de Gascogne","absoluteDirection":"SOUTHWEST","stayOn":false,"area":false,"bogusName":false,"lon":-71.0215,"lat":48.4206914,"elevation":[]}]},{"startTime":1522704540000,"endTime":1522704992000,"departureDelay":0,"arrivalDelay":0,"realTime":false,"distance":2826.8480788615807,"pathway":false,"mode":"BUS","route":"12","agencyName":"Société de Transport du Saguenay","agencyUrl":"http://ville.saguenay.ca/fr/services-aux-citoyens/transport-sts","agencyTimeZoneOffset":-14400000,"routeColor":"556B2F","routeType":3,"routeId":"1:12","routeTextColor":"FFFFFF","interlineWithPreviousLeg":false,"tripBlockId":"28","headsign":"Terminus UQAC","agencyId":"0","tripId":"1:218047","serviceDate":"20180402","from":{"name":"Gascogne / Provence","stopId":"1:1536","stopCode":"1536","lon":-71.022239,"lat":48.419203,"arrival":1522704539000,"departure":1522704540000,"zoneId":"NA","stopIndex":24,"stopSequence":25,"vertexType":"TRANSIT"},"to":{"name":"Émile Girardin / Roitelets","stopId":"1:253","stopCode":"253","lon":-71.050677,"lat":48.406726,"arrival":1522704992000,"departure":1522704993000,"zoneId":"NA","stopIndex":27,"stopSequence":28,"vertexType":"TRANSIT"},"legGeometry":{"points":"_{ofH~onpL`b@fNvVvrCdRvM","length":4},"routeShortName":"12","routeLongName":"Rivière du Moulin","rentedBike":false,"transitLeg":true,"duration":452.0,"steps":[]},{"startTime":1522704993000,"endTime":1522705426000,"departureDelay":0,"arrivalDelay":0,"realTime":false,"distance":540.518,"pathway":false,"mode":"WALK","route":"","agencyTimeZoneOffset":-14400000,"interlineWithPreviousLeg":false,"from":{"name":"Émile Girardin / Roitelets","stopId":"1:253","stopCode":"253","lon":-71.050677,"lat":48.406726,"arrival":1522704992000,"departure":1522704993000,"zoneId":"NA","stopIndex":27,"stopSequence":28,"vertexType":"TRANSIT"},"to":{"name":"Destination","lon":-71.054642,"lat":48.403952,"arrival":1522705426000,"orig":"","vertexType":"NORMAL"},"legGeometry":{"points":"qlmfHnatpL@J@FFn@z@pEt@]l@Qp@E|@B|@L?dBGRRRZXXXXVVTXVPROf@Wt@Xb@R\\T^R\\JL","length":26},"rentedBike":false,"transitLeg":false,"duration":433.0,"steps":[{"distance":110.098,"relativeDirection":"DEPART","streetName":"Rue Émile-Girardin","absoluteDirection":"WEST","stayOn":false,"area":false,"bogusName":false,"lon":-71.05063801296859,"lat":48.406654574894674,"elevation":[]},{"distance":155.611,"relativeDirection":"LEFT","streetName":"Rue des Champs-Élysées","absoluteDirection":"SOUTH","stayOn":false,"area":false,"bogusName":false,"lon":-71.05202630000001,"lat":48.4062974,"elevation":[]},{"distance":46.581,"relativeDirection":"RIGHT","streetName":"service road","absoluteDirection":"WEST","stayOn":false,"area":false,"bogusName":true,"lon":-71.05184220000001,"lat":48.4049276,"elevation":[]},{"distance":110.87500000000001,"relativeDirection":"LEFT","streetName":"service road","absoluteDirection":"SOUTHWEST","stayOn":true,"area":false,"bogusName":true,"lon":-71.05245930000001,"lat":48.4049623,"elevation":[]},{"distance":117.35300000000001,"relativeDirection":"RIGHT","streetName":"parking aisle","absoluteDirection":"NORTHWEST","stayOn":true,"area":false,"bogusName":true,"lon":-71.0532652,"lat":48.4041209,"elevation":[]}]}],"tooSloped":false},{"duration":1131,"startTime":1522706095000,"endTime":1522707226000,"walkTime":677,"transitTime":452,"waitingTime":2,"walkDistance":851.9749097691467,"walkLimitExceeded":false,"elevationLost":0.0,"elevationGained":0.0,"transfers":0,"legs":[{"startTime":1522706095000,"endTime":1522706339000,"departureDelay":0,"arrivalDelay":0,"realTime":false,"distance":311.293,"pathway":false,"mode":"WALK","route":"","agencyTimeZoneOffset":-14400000,"interlineWithPreviousLeg":false,"from":{"name":"Origin","lon":-71.022808,"lat":48.421405,"departure":1522706095000,"orig":"","vertexType":"NORMAL"},"to":{"name":"Gascogne / Provence","stopId":"1:1536","stopCode":"1536","lon":-71.022239,"lat":48.419203,"arrival":1522706339000,"departure":1522706340000,"zoneId":"NA","stopIndex":24,"stopSequence":25,"vertexType":"TRANSIT"},"legGeometry":{"points":"qipfHbrnpLJOl@y@h@u@Za@HM\\g@NZZn@HPBDTFPGDA`@ODADCPHTLJF\\RNHJB`@N@???","length":26},"rentedBike":false,"transitLeg":false,"duration":244.0,"steps":[{"distance":122.74600000000001,"relativeDirection":"DEPART","streetName":"Rue de Normandie","absoluteDirection":"SOUTHEAST","stayOn":false,"area":false,"bogusName":false,"lon":-71.0225720594234,"lat":48.42153541633201,"elevation":[]},{"distance":188.54699999999997,"relativeDirection":"RIGHT","streetName":"Rue de Gascogne","absoluteDirection":"SOUTHWEST","stayOn":false,"area":false,"bogusName":false,"lon":-71.0215,"lat":48.4206914,"elevation":[]}]},{"startTime":1522706340000,"endTime":1522706792000,"departureDelay":0,"arrivalDelay":0,"realTime":false,"distance":2826.8480788615807,"pathway":false,"mode":"BUS","route":"12","agencyName":"Société de Transport du Saguenay","agencyUrl":"http://ville.saguenay.ca/fr/services-aux-citoyens/transport-sts","agencyTimeZoneOffset":-14400000,"routeColor":"556B2F","routeType":3,"routeId":"1:12","routeTextColor":"FFFFFF","interlineWithPreviousLeg":false,"tripBlockId":"27","headsign":"Terminus UQAC","agencyId":"0","tripId":"1:218022","serviceDate":"20180402","from":{"name":"Gascogne / Provence","stopId":"1:1536","stopCode":"1536","lon":-71.022239,"lat":48.419203,"arrival":1522706339000,"departure":1522706340000,"zoneId":"NA","stopIndex":24,"stopSequence":25,"vertexType":"TRANSIT"},"to":{"name":"Émile Girardin / Roitelets","stopId":"1:253","stopCode":"253","lon":-71.050677,"lat":48.406726,"arrival":1522706792000,"departure":1522706793000,"zoneId":"NA","stopIndex":27,"stopSequence":28,"vertexType":"TRANSIT"},"legGeometry":{"points":"_{ofH~onpL`b@fNvVvrCdRvM","length":4},"routeShortName":"12","routeLongName":"Rivière du Moulin","rentedBike":false,"transitLeg":true,"duration":452.0,"steps":[]},{"startTime":1522706793000,"endTime":1522707226000,"departureDelay":0,"arrivalDelay":0,"realTime":false,"distance":540.518,"pathway":false,"mode":"WALK","route":"","agencyTimeZoneOffset":-14400000,"interlineWithPreviousLeg":false,"from":{"name":"Émile Girardin / Roitelets","stopId":"1:253","stopCode":"253","lon":-71.050677,"lat":48.406726,"arrival":1522706792000,"departure":1522706793000,"zoneId":"NA","stopIndex":27,"stopSequence":28,"vertexType":"TRANSIT"},"to":{"name":"Destination","lon":-71.054642,"lat":48.403952,"arrival":1522707226000,"orig":"","vertexType":"NORMAL"},"legGeometry":{"points":"qlmfHnatpL@J@FFn@z@pEt@]l@Qp@E|@B|@L?dBGRRRZXXXXVVTXVPROf@Wt@Xb@R\\T^R\\JL","length":26},"rentedBike":false,"transitLeg":false,"duration":433.0,"steps":[{"distance":110.098,"relativeDirection":"DEPART","streetName":"Rue Émile-Girardin","absoluteDirection":"WEST","stayOn":false,"area":false,"bogusName":false,"lon":-71.05063801296859,"lat":48.406654574894674,"elevation":[]},{"distance":155.611,"relativeDirection":"LEFT","streetName":"Rue des Champs-Élysées","absoluteDirection":"SOUTH","stayOn":false,"area":false,"bogusName":false,"lon":-71.05202630000001,"lat":48.4062974,"elevation":[]},{"distance":46.581,"relativeDirection":"RIGHT","streetName":"service road","absoluteDirection":"WEST","stayOn":false,"area":false,"bogusName":true,"lon":-71.05184220000001,"lat":48.4049276,"elevation":[]},{"distance":110.87500000000001,"relativeDirection":"LEFT","streetName":"service road","absoluteDirection":"SOUTHWEST","stayOn":true,"area":false,"bogusName":true,"lon":-71.05245930000001,"lat":48.4049623,"elevation":[]},{"distance":117.35300000000001,"relativeDirection":"RIGHT","streetName":"parking aisle","absoluteDirection":"NORTHWEST","stayOn":true,"area":false,"bogusName":true,"lon":-71.0532652,"lat":48.4041209,"elevation":[]}]}],"tooSloped":false}]},"debugOutput":{"precalculationTime":26,"pathCalculationTime":17,"pathTimes":[10,5,2],"renderingTime":1,"totalTime":44,"timedOut":false},"elevationMetadata":{"ellipsoidToGeoidDifference":-28.885904201182168,"geoidElevation":false}}