{"requestParameters":{"date":"2018/04/02","walkSpeed":"1.33","walkReluctance":"2.0","fromPlace":"48.418729,-71.053021","maxWalkDistance":"3000","waitReluctance":"1.0","carSpeed":"33","numItineraries":"3","waitAtBeginningFactor":"0.4","mode":"TRANSIT,WALK","ignoreRealtimeUpdates":"false","stairsReluctance":"2.0","toPlace":"48.42927,-71.045052","time":"17:15:00"},"plan":{"date":1522703700000,"from":{"name":"Origin","lon":-71.053021,"lat":48.418729,"orig":"","vertexType":"NORMAL"},"to":{"name":"Destination","lon":-71.045052,"lat":48.42927,"orig":"","vertexType":"NORMAL"},"itineraries":[{"duration":1440,"startTime":1522703700000,"endTime":1522705140000,"walkTime":1440,"transitTime":0,"waitingTime":0,"walkDistance":1819.9426841968552,"walkLimitExceeded":false,"elevationLost":0.0,"elevationGained":0.0,"transfers":0,"legs":[{"startTime":1522703700000,"endTime":1522705140000,"departureDelay":0,"arrivalDelay":0,"realTime":false,"distance":1819.519,"pathway":false,"mode":"WALK","route":"","agencyTimeZoneOffset":-14400000,"interlineWithPreviousLeg":false,"from":{"name":"Origin","lon":-71.053021,"lat":48.418729,"departure":1522703700000,"orig":"","vertexType":"NORMAL"},"to":{"name":"Destination","lon":-71.045052,"lat":48.42927,"arrival":1522705140000,"orig":"","vertexType":"NORMAL"},"legGeometry":{"points":"mwofHbotpLwBuBCA_AaATIQQSSCCw@w@u@u@UU_A{@Po@Lg@Tu@[]Ne@Jg@_@i@QMMGKOGOESCUAK@KCIBMEIBGIGBGIMBIQUIQGSCBC?E?EACCCEAGCQEUUS]_@}CcD_A_AKGKEwA]aCi@sBe@_@Ie@g@cEgAH{Ak@Q@YKi@U]a@c@YOq@GgA?i@H]AKGSKc@Sy@e@M?iBHiCFAp@EpAEx@CZIjACX","length":83},"alerts":[{"alertHeaderText":"Unpaved surface"}],"rentedBike":false,"transitLeg":false,"duration":1440.0,"steps":[{"distance":137.92600000000002,"relativeDirection":"DEPART","streetName":"path","absoluteDirection":"NORTHEAST","stayOn":false,"area":false,"bogusName":false,"lon":-71.05281450938897,"lat":48.41863935175929,"elevation":[]},{"distance":115.507,"relativeDirection":"HARD_LEFT","streetName":"Rue de la Fondation","absoluteDirection":"NORTHEAST","stayOn":false,"area":false,"bogusName":false,"lon":-71.0518321,"lat":48.419468900000005,"elevation":[]},{"distance":120.789,"relativeDirection":"CONTINUE","streetName":"service road","absoluteDirection":"NORTHEAST","stayOn":false,"area":false,"bogusName":true,"lon":-71.0509657,"lat":48.420334000000004,"elevation":[]},{"distance":32.842,"relativeDirection":"RIGHT","streetName":"service road","absoluteDirection":"SOUTHEAST","stayOn":true,"area":false,"bogusName":true,"lon":-71.049807,"lat":48.420520200000006,"elevation":[]},{"distance":243.322,"relativeDirection":"LEFT","streetName":"path","absoluteDirection":"NORTHEAST","stayOn":true,"area":false,"bogusName":true,"lon":-71.0494152,"lat":48.4203801,"elevation":[],"alerts":[{"alertHeaderText":"Unpaved surface"}]},{"distance":443.058,"relativeDirection":"LEFT","streetName":"Rue Bécard","absoluteDirection":"NORTH","stayOn":false,"area":false,"bogusName":false,"lon":-71.04789620000001,"lat":48.421103300000006,"elevation":[]},{"distance":387.904,"relativeDirection":"SLIGHTLY_RIGHT","streetName":"path","absoluteDirection":"NORTHEAST","stayOn":false,"area":false,"bogusName":true,"lon":-71.0455472,"lat":48.4246251,"elevation":[]},{"distance":218.841,"relativeDirection":"SLIGHTLY_RIGHT","streetName":"Rue du Bon-Conseil","absoluteDirection":"NORTH","stayOn":false,"area":false,"bogusName":false,"lon":-71.0436803,"lat":48.427398100000005,"elevation":[]},{"distance":18.327,"relativeDirection":"LEFT","streetName":"Boulevard du Saguenay Est","absoluteDirection":"WEST","stayOn":false,"area":false,"bogusName":false,"lon":-71.0433845,"lat":48.429314600000005,"elevation":[]},{"distance":101.003,"relativeDirection":"CONTINUE","streetName":"Rue Racine Est","absoluteDirection":"WEST","stayOn":false,"area":false,"bogusName":false,"lon":-71.04363190000001,"lat":48.4293294,"elevation":[]}]}],"tooSloped":false},{"duration":1271,"startTime":1522704381000,"endTime":1522705652000,"walkTime":941,"transitTime":328,"waitingTime":2,"walkDistance":1201.4611879642719,"walkLimitExceeded":false,"elevationLost":0.0,"elevationGained":0.0,"transfers":0,"legs":[{"startTime":1522704381000,"endTime":1522704659000,"departureDelay":0,"arrivalDelay":0,"realTime":false,"distance":348.519,"pathway":false,"mode":"WALK","route":"","agencyTimeZoneOffset":-14400000,"interlineWithPreviousLeg":false,"from":{"name":"Origin","lon":-71.053021,"lat":48.418729,"departure":1522704381000,"orig":"","vertexType":"NORMAL"},"to":{"name":"Terminus UQAC","stopId":"1:1670","stopCode":"1670","lon":-71.053369,"lat":48.420903,"arrival":1522704659000,"departure":1522704660000,"zoneId":"NA","stopIndex":14,"stopSequence":15,"vertexType":"TRANSIT"},"legGeometry":{"points":"mwofHbotpLwBuBCA_AaAq@XYz@Ur@e@vAg@vAUp@cAaA","length":11},"rentedBike":false,"transitLeg":false,"duration":278.0,"steps":[{"distance":281.082,"relativeDirection":"DEPART","streetName":"path","absoluteDirection":"NORTHEAST","stayOn":false,"area":false,"bogusName":false,"lon":-71.05281450938897,"lat":48.41863935175929,"elevation":[]},{"distance":67.437,"relativeDirection":"CONTINUE","streetName":"service road","absoluteDirection":"NORTHWEST","stayOn":false,"area":false,"bogusName":true,"lon":-71.05345460000001,"lat":48.4204518,"elevation":[]}]},{"startTime":1522704660000,"endTime":1522704988000,"departureDelay":0,"arrivalDelay":0,"realTime":false,"distance":1403.4448106392558,"pathway":false,"mode":"BUS","route":"175","agencyName":"Société de Transport du Saguenay","agencyUrl":"http://ville.saguenay.ca/fr/services-aux-citoyens/transport-sts","agencyTimeZoneOffset":-14400000,"routeColor":"FF00FF","routeType":3,"routeId":"1:175","routeTextColor":"FFFFFF","interlineWithPreviousLeg":false,"tripBlockId":"10","headsign":"Terminus Chicoutimi","agencyId":"0","tripId":"1:217448","serviceDate":"20180402","from":{"name":"Terminus UQAC","stopId":"1:1670","stopCode":"1670","lon":-71.053369,"lat":48.420903,"arrival":1522704659000,"departure":1522704660000,"zoneId":"NA","stopIndex":14,"stopSequence":15,"vertexType":"TRANSIT"},"to":{"name":"Hôtel-Dieu / Riverin","stopId":"1:338","stopCode":"338","lon":-71.054073,"lat":48.427466,"arrival":1522704988000,"departure":1522704989000,"zoneId":"NA","stopIndex":21,"stopSequence":22,"vertexType":"TRANSIT"},"legGeometry":{"points":"sepfHprtpL_A_ATm@yAwAgBeBqDnL@nBF`@f@|C[dCuAfB]xAs@OmCmCmEkE]a@g@i@ZiGTmEl@oLaEe@cFk@?pH?tJDvB","length":25},"routeShortName":"175","routeLongName":"Term. Chic / Costco","rentedBike":false,"transitLeg":true,"duration":328.0,"steps":[]},{"startTime":1522704989000,"endTime":1522705652000,"departureDelay":0,"arrivalDelay":0,"realTime":false,"distance":852.7669999999999,"pathway":false,"mode":"WALK","route":"","agencyTimeZoneOffset":-14400000,"interlineWithPreviousLeg":false,"from":{"name":"Hôtel-Dieu / Riverin","stopId":"1:338","stopCode":"338","lon":-71.054073,"lat":48.427466,"arrival":1522704988000,"departure":1522704989000,"zoneId":"NA","stopIndex":21,"stopSequence":22,"vertexType":"TRANSIT"},"to":{"name":"Destination","lon":-71.045052,"lat":48.42927,"arrival":1522705652000,"orig":"","vertexType":"NORMAL"},"legGeometry":{"points":"knqfH|vtpLC_CKCe@BwBJkAFEo@Ck@AWKgCCo@g@}@OQm@w@m@cBIm@Cq@@uH?g@@kC?kD@{A?[?}@?a@DmAB[L{A","length":28},"rentedBike":false,"transitLeg":false,"duration":663.0,"steps":[{"distance":47.75,"relativeDirection":"DEPART","streetName":"Rue de l'Hôtel-Dieu","absoluteDirection":"EAST","stayOn":false,"area":false,"bogusName":false,"lon":-71.05406930388979,"lat":48.42742042441727,"elevation":[]},{"distance":137.486,"relativeDirection":"LEFT","streetName":"Rue Bégin","absoluteDirection":"NORTH","stayOn":false,"area":false,"bogusName":false,"lon":-71.0534231,"lat":48.4274435,"elevation":[]},{"distance":667.531,"relativeDirection":"RIGHT","streetName":"Rue Racine Est","absoluteDirection":"EAST","stayOn":false,"area":false,"bogusName":false,"lon":-71.0535297,"lat":48.4286752,"elevation":[]}]}],"tooSloped":false},{"duration":1687,"startTime":1522704170000,"endTime":1522705857000,"walkTime":728,"transitTime":957,"waitingTime":2,"walkDistance":890.0751353269189,"walkLimitExceeded":false,"elevationLost":0.0,"elevationGained":0.0,"transfers":0,"legs":[{"startTime":1522704170000,"endTime":1522704784000,"departureDelay":0,"arrivalDelay":0,"realTime":false,"distance":741.3149999999999,"pathway":false,"mode":"WALK","route":"","agencyTimeZoneOffset":-14400000,"interlineWithPreviousLeg":false,"from":{"name":"Origin","lon":-71.053021,"lat":48.418729,"departure":1522704170000,"orig":"","vertexType":"NORMAL"},"to":{"name":"nouveau","stopId":"1:2285","stopCode":"2285","lon":-71.04706,"lat":48.42154,"arrival":1522704784000,"departure":1522704785000,"zoneId":"NA","stopIndex":13,"stopSequence":14,"vertexType":"TRANSIT"},"legGeometry":{"points":"mwofHbotpLwBuBCA_AaATIQQSSCCw@w@u@u@UU_A{@Po@Lg@Tu@[]Ne@Jg@_@i@QMMGKOGOESCUAK@KCIBMEIBGIGBGIMBIQUIQGSCBC?E?EACCCEAGCQEUUS]_@Rk@","length":50},"alerts":[{"alertHeaderText":"Unpaved surface"}],"rentedBike":false,"transitLeg":false,"duration":614.0,"steps":[{"distance":137.92600000000002,"relativeDirection":"DEPART","streetName":"path","absoluteDirection":"NORTHEAST","stayOn":false,"area":false,"bogusName":false,"lon":-71.05281450938897,"lat":48.41863935175929,"elevation":[]},{"distance":115.507,"relativeDirection":"HARD_LEFT","streetName":"Rue de la Fondation","absoluteDirection":"NORTHEAST","stayOn":false,"area":false,"bogusName":false,"lon":-71.0518321,"lat":48.419468900000005,"elevation":[]},{"distance":120.789,"relativeDirection":"CONTINUE","streetName":"service road","absoluteDirection":"NORTHEAST","stayOn":false,"area":false,"bogusName":true,"lon":-71.0509657,"lat":48.420334000000004,"elevation":[]},{"distance":32.842,"relativeDirection":"RIGHT","streetName":"service road","absoluteDirection":"SOUTHEAST","stayOn":true,"area":false,"bogusName":true,"lon":-71.049807,"lat":48.420520200000006,"elevation":[]},{"distance":243.322,"relativeDirection":"LEFT","streetName":"path","absoluteDirection":"NORTHEAST","stayOn":true,"area":false,"bogusName":true,"lon":-71.0494152,"lat":48.4203801,"elevation":[],"alerts":[{"alertHeaderText":"Unpaved surface"}]},{"distance":71.29999999999998,"relativeDirection":"LEFT","streetName":"Rue Bécard","absoluteDirection":"NORTH","stayOn":false,"area":false,"bogusName":false,"lon":-71.04789620000001,"lat":48.421103300000006,"elevation":[]},{"distance":19.629,"relativeDirection":"RIGHT","streetName":"Chemin Sydenham","absoluteDirection":"SOUTHEAST","stayOn":false,"area":false,"bogusName":false,"lon":-71.0473547,"lat":48.4215682,"elevation":[]}]},{"startTime":1522704785000,"endTime":1522705200000,"departureDelay":0,"arrivalDelay":0,"realTime":false,"distance":1811.7355077182299,"pathway":false,"mode":"BUS","route":"10","agencyName":"Société de Transport du Saguenay","agencyUrl":"http://ville.saguenay.ca/fr/services-aux-citoyens/transport-sts","agencyTimeZoneOffset":-14400000,"routeColor":"0000FF","routeType":3,"routeId":"1:10","routeTextColor":"FFFFFF","interlineWithPreviousLeg":false,"tripBlockId":"27","headsign":"Terminus Chicoutimi","agencyId":"0","tripId":"1:218021","serviceDate":"20180402","from":{"name":"nouveau","stopId":"1:2285","stopCode":"2285","lon":-71.04706,"lat":48.42154,"arrival":1522704784000,"departure":1522704785000,"zoneId":"NA","stopIndex":13,"stopSequence":14,"vertexType":"TRANSIT"},"to":{"name":"Terminus Chicoutimi","stopId":"1:1289","stopCode":"1289","lon":-71.066163,"lat":48.428677,"arrival":1522705200000,"departure":1522705500000,"zoneId":"NA","stopIndex":21,"stopSequence":22,"vertexType":"TRANSIT"},"legGeometry":{"points":"aipfHvkspL_BhE}AfD{BdByBh@iC]oDq@YbF_Ea@AAuEg@MDENF|GAjJDzBDdDLdHFbCo@RUFRbFG|FApAMvFa@tPOnHqBOIjDc@Q","length":30},"routeShortName":"10","routeLongName":"Notre-Dame du Saguenay","rentedBike":false,"transitLeg":true,"duration":415.0,"steps":[]},{"startTime":1522705500000,"endTime":1522705742000,"departureDelay":0,"arrivalDelay":0,"realTime":false,"distance":1762.8533684079105,"pathway":false,"mode":"BUS","route":"12","agencyName":"Société de Transport du Saguenay","agencyUrl":"http://ville.saguenay.ca/fr/services-aux-citoyens/transport-sts","agencyTimeZoneOffset":-14400000,"routeColor":"556B2F","routeType":3,"routeId":"1:12","routeTextColor":"FFFFFF","interlineWithPreviousLeg":true,"tripBlockId":"27","headsign":"Terminus UQAC","agencyId":"0","tripId":"1:218022","serviceDate":"20180402","from":{"name":"Terminus Chicoutimi","stopId":"1:1289","stopCode":"1289","lon":-71.066163,"lat":48.428677,"arrival":1522705200000,"departure":1522705500000,"zoneId":"NA","stopIndex":0,"stopSequence":1,"vertexType":"TRANSIT"},"to":{"name":"boul. Saguenay / Bon-Conseil","stopId":"1:491","stopCode":"491","lon":-71.043,"lat":48.4292,"arrival":1522705742000,"departure":1522705743000,"zoneId":"NA","stopIndex":5,"stopSequence":6,"vertexType":"TRANSIT"},"legGeometry":{"points":"evqfHpbwpLpFcj@IaKmFy^_DaZz@u]","length":6},"routeShortName":"12","routeLongName":"Rivière du Moulin","rentedBike":false,"transitLeg":true,"duration":242.0,"steps":[]},{"startTime":1522705743000,"endTime":1522705857000,"departureDelay":0,"arrivalDelay":0,"realTime":false,"distance":148.406,"pathway":false,"mode":"WALK","route":"","agencyTimeZoneOffset":-14400000,"interlineWithPreviousLeg":false,"from":{"name":"boul. Saguenay / Bon-Conseil","stopId":"1:491","stopCode":"491","lon":-71.043,"lat":48.4292,"arrival":1522705742000,"departure":1522705743000,"zoneId":"NA","stopIndex":5,"stopSequence":6,"vertexType":"TRANSIT"},"to":{"name":"Destination","lon":-71.045052,"lat":48.42927,"arrival":1522705857000,"orig":"","vertexType":"NORMAL"},"legGeometry":{"points":"azqfHvqrpL?@ALA|@Ap@EpAEx@CZIjACX","length":10},"rentedBike":false,"transitLeg":false,"duration":114.0,"steps":[{"distance":47.403000000000006,"relativeDirection":"DEPART","streetName":"Boulevard du Saguenay Est","absoluteDirection":"WEST","stayOn":false,"area":false,"bogusName":false,"lon":-71.04299134123569,"lat":48.42929662012274,"elevation":[]},{"distance":101.003,"relativeDirection":"CONTINUE","streetName":"Rue Racine Est","absoluteDirection":"WEST","stayOn":false,"area":false,"bogusName":false,"lon":-71.04363190000001,"lat":48.4293294,"elevation":[]}]}],"tooSloped":false}]},"debugOutput":{"precalculationTime":42,"pathCalculationTime":53,"pathTimes":[28,12,13],"renderingTime":1,"totalTime":96,"timedOut":false},"elevationMetadata":{"ellipsoidToGeoidDifference":-28.885904201182168,"geoidElevation":false}}