{"requestParameters":{"date":"2018/04/02","walkSpeed":"1.33","walkReluctance":"2.0","fromPlace":"48.433584,-71.024393","maxWalkDistance":"3000","waitReluctance":"1.0","carSpeed":"33","numItineraries":"3","waitAtBeginningFactor":"0.4","mode":"TRANSIT,WALK","ignoreRealtimeUpdates":"false","stairsReluctance":"2.0","toPlace":"48.427847,-71.06056399","time":"7:45:00"},"plan":{"date":1522669500000,"from":{"name":"Origin","lon":-71.024393,"lat":48.433584,"orig":"","vertexType":"NORMAL"},"to":{"name":"Destination","lon":-71.06056399,"lat":48.427847,"orig":"","vertexType":"NORMAL"},"itineraries":[{"duration":792,"startTime":1522670439000,"endTime":1522671231000,"walkTime":386,"transitTime":404,"waitingTime":2,"walkDistance":480.80509773987256,"walkLimitExceeded":false,"elevationLost":0.0,"elevationGained":0.0,"transfers":0,"legs":[{"startTime":1522670439000,"endTime":1522670595000,"departureDelay":0,"arrivalDelay":0,"realTime":false,"distance":194.87699999999998,"pathway":false,"mode":"WALK","route":"","agencyTimeZoneOffset":-14400000,"interlineWithPreviousLeg":false,"from":{"name":"Origin","lon":-71.024393,"lat":48.433584,"departure":1522670439000,"orig":"","vertexType":"NORMAL"},"to":{"name":"nouveau","stopId":"1:2303","stopCode":"2303","lon":-71.02291,"lat":48.432276,"arrival":1522670595000,"departure":1522670596000,"zoneId":"NA","stopIndex":24,"stopSequence":25,"vertexType":"TRANSIT"},"legGeometry":{"points":"mqrfHnznpLa@wAx@uA\\w@`@kAdAzA@?","length":7},"rentedBike":false,"transitLeg":false,"duration":156.0,"steps":[{"distance":37.04,"relativeDirection":"DEPART","streetName":"Boulevard Renaud","absoluteDirection":"NORTHEAST","stayOn":false,"area":false,"bogusName":false,"lon":-71.02391194221461,"lat":48.43303644749282,"elevation":[]},{"distance":105.887,"relativeDirection":"RIGHT","streetName":"Rue du Perche","absoluteDirection":"SOUTHEAST","stayOn":false,"area":false,"bogusName":false,"lon":-71.0234782,"lat":48.433204200000006,"elevation":[]},{"distance":51.95,"relativeDirection":"RIGHT","streetName":"Rue Arthur-Hamel","absoluteDirection":"SOUTHWEST","stayOn":false,"area":false,"bogusName":false,"lon":-71.02238460000001,"lat":48.4325922,"elevation":[]}]},{"startTime":1522670596000,"endTime":1522671000000,"departureDelay":0,"arrivalDelay":0,"realTime":false,"distance":2917.395079166214,"pathway":false,"mode":"BUS","route":"12","agencyName":"Société de Transport du Saguenay","agencyUrl":"http://ville.saguenay.ca/fr/services-aux-citoyens/transport-sts","agencyTimeZoneOffset":-14400000,"routeColor":"556B2F","routeType":3,"routeId":"1:12","routeTextColor":"FFFFFF","interlineWithPreviousLeg":false,"tripBlockId":"29","headsign":"Terminus Chicoutimi","agencyId":"0","tripId":"1:218054","serviceDate":"20180402","from":{"name":"nouveau","stopId":"1:2303","stopCode":"2303","lon":-71.02291,"lat":48.432276,"arrival":1522670595000,"departure":1522670596000,"zoneId":"NA","stopIndex":24,"stopSequence":25,"vertexType":"TRANSIT"},"to":{"name":"Agence du revenu Canada (Boul. Saguenay)","stopId":"1:412","stopCode":"412","lon":-71.060901,"lat":48.429119,"arrival":1522671000000,"departure":1522671001000,"zoneId":"NA","stopIndex":32,"stopSequence":33,"vertexType":"TRANSIT"},"legGeometry":{"points":"qlrfH|snpLfM|O|FlHmB`IgA|Cy@`UYzHZvMR~Hr@~ZPvHsCrMFxf@|ApJj@nDDl]","length":16},"routeShortName":"12","routeLongName":"Rivière du Moulin","rentedBike":false,"transitLeg":true,"duration":404.0,"steps":[]},{"startTime":1522671001000,"endTime":1522671231000,"departureDelay":0,"arrivalDelay":0,"realTime":false,"distance":285.789,"pathway":false,"mode":"WALK","route":"","agencyTimeZoneOffset":-14400000,"interlineWithPreviousLeg":false,"from":{"name":"Agence du revenu Canada (Boul. Saguenay)","stopId":"1:412","stopCode":"412","lon":-71.060901,"lat":48.429119,"arrival":1522671000000,"departure":1522671001000,"zoneId":"NA","stopIndex":32,"stopSequence":33,"vertexType":"TRANSIT"},"to":{"name":"Destination","lon":-71.06056399,"lat":48.427847,"arrival":1522671231000,"orig":"","vertexType":"NORMAL"},"legGeometry":{"points":"wxqfHravpLEqE`@B|@B\\@h@?b@DzANErB","length":9},"rentedBike":false,"transitLeg":false,"duration":230.0,"steps":[{"distance":77.944,"relativeDirection":"DEPART","streetName":"Boulevard du Saguenay Est","absoluteDirection":"EAST","stayOn":false,"area":false,"bogusName":false,"lon":-71.06089875875612,"lat":48.42908320382368,"elevation":[]},{"distance":165.145,"relativeDirection":"RIGHT","streetName":"Rue La Fontaine","absoluteDirection":"SOUTH","stayOn":false,"area":false,"bogusName":false,"lon":-71.05984330000001,"lat":48.4291123,"elevation":[]},{"distance":42.7,"relativeDirection":"RIGHT","streetName":"Rue Racine Est","absoluteDirection":"WEST","stayOn":false,"area":false,"bogusName":false,"lon":-71.0600075,"lat":48.4276324,"elevation":[]}]}],"tooSloped":false},{"duration":2003,"startTime":1522669820000,"endTime":1522671823000,"walkTime":896,"transitTime":1105,"waitingTime":2,"walkDistance":1120.294766907395,"walkLimitExceeded":false,"elevationLost":0.0,"elevationGained":0.0,"transfers":0,"legs":[{"startTime":1522669820000,"endTime":1522669975000,"departureDelay":0,"arrivalDelay":0,"realTime":false,"distance":194.515,"pathway":false,"mode":"WALK","route":"","agencyTimeZoneOffset":-14400000,"interlineWithPreviousLeg":false,"from":{"name":"Origin","lon":-71.024393,"lat":48.433584,"departure":1522669820000,"orig":"","vertexType":"NORMAL"},"to":{"name":"Arthur-Hamel / Perche","stopId":"1:1527","stopCode":"1527","lon":-71.02277,"lat":48.4322,"arrival":1522669975000,"departure":1522669976000,"zoneId":"NA","stopIndex":14,"stopSequence":15,"vertexType":"TRANSIT"},"legGeometry":{"points":"mqrfHnznpLa@wAx@uA\\w@`@kAdAzA","length":6},"rentedBike":false,"transitLeg":false,"duration":155.0,"steps":[{"distance":37.04,"relativeDirection":"DEPART","streetName":"Boulevard Renaud","absoluteDirection":"NORTHEAST","stayOn":false,"area":false,"bogusName":false,"lon":-71.02391194221461,"lat":48.43303644749282,"elevation":[]},{"distance":105.887,"relativeDirection":"RIGHT","streetName":"Rue du Perche","absoluteDirection":"SOUTHEAST","stayOn":false,"area":false,"bogusName":false,"lon":-71.0234782,"lat":48.433204200000006,"elevation":[]},{"distance":51.588,"relativeDirection":"RIGHT","streetName":"Rue Arthur-Hamel","absoluteDirection":"SOUTHWEST","stayOn":false,"area":false,"bogusName":false,"lon":-71.02238460000001,"lat":48.4325922,"elevation":[]}]},{"startTime":1522669976000,"endTime":1522671081000,"departureDelay":0,"arrivalDelay":0,"realTime":false,"distance":7099.8603314527545,"pathway":false,"mode":"BUS","route":"12","agencyName":"Société de Transport du Saguenay","agencyUrl":"http://ville.saguenay.ca/fr/services-aux-citoyens/transport-sts","agencyTimeZoneOffset":-14400000,"routeColor":"556B2F","routeType":3,"routeId":"1:12","routeTextColor":"FFFFFF","interlineWithPreviousLeg":false,"tripBlockId":"27","headsign":"Terminus UQAC","agencyId":"0","tripId":"1:218002","serviceDate":"20180402","from":{"name":"Arthur-Hamel / Perche","stopId":"1:1527","stopCode":"1527","lon":-71.02277,"lat":48.4322,"arrival":1522669975000,"departure":1522669976000,"zoneId":"NA","stopIndex":14,"stopSequence":15,"vertexType":"TRANSIT"},"to":{"name":"Bégin / Saint-Thomas","stopId":"1:563","stopCode":"563","lon":-71.0587,"lat":48.422,"arrival":1522671081000,"departure":1522671082000,"zoneId":"NA","stopIndex":36,"stopSequence":37,"vertexType":"TRANSIT"},"legGeometry":{"points":"glrfHhsnpLf@iIvGsKlIrH`JlH`EfDnOdIdGlGjL|BzBiLv@}L`b@fNvVvrCdRvMcAjKcP~b@iHhDaGz@uSl[uCYmIeIeJ_J{J{J","length":23},"routeShortName":"12","routeLongName":"Rivière du Moulin","rentedBike":false,"transitLeg":true,"duration":1105.0,"steps":[]},{"startTime":1522671082000,"endTime":1522671823000,"departureDelay":0,"arrivalDelay":0,"realTime":false,"distance":925.4730000000001,"pathway":false,"mode":"WALK","route":"","agencyTimeZoneOffset":-14400000,"interlineWithPreviousLeg":false,"from":{"name":"Bégin / Saint-Thomas","stopId":"1:563","stopCode":"563","lon":-71.0587,"lat":48.422,"arrival":1522671081000,"departure":1522671082000,"zoneId":"NA","stopIndex":36,"stopSequence":37,"vertexType":"TRANSIT"},"to":{"name":"Destination","lon":-71.06056399,"lat":48.427847,"arrival":1522671823000,"orig":"","vertexType":"NORMAL"},"legGeometry":{"points":"slpfHftupLKIeAkAWYiAgAaAcASOWWIIKIOl@EdACd@MLSICAOEk@CG?KACTM\\I\\Ax@Al@g@Zy@\\iG_@IpEy@DSNgAQ_@AmAEErB","length":35},"rentedBike":false,"transitLeg":false,"duration":741.0,"steps":[{"distance":208.109,"relativeDirection":"DEPART","streetName":"Rue Bégin","absoluteDirection":"NORTHEAST","stayOn":false,"area":false,"bogusName":false,"lon":-71.05875953651149,"lat":48.42202602664888,"elevation":[]},{"distance":127.559,"relativeDirection":"LEFT","streetName":"alley","absoluteDirection":"NORTHWEST","stayOn":false,"area":false,"bogusName":true,"lon":-71.05719760000001,"lat":48.4235836,"elevation":[]},{"distance":131.454,"relativeDirection":"LEFT","streetName":"path","absoluteDirection":"WEST","stayOn":true,"area":false,"bogusName":true,"lon":-71.0579166,"lat":48.424303900000005,"elevation":[]},{"distance":147.775,"relativeDirection":"SLIGHTLY_RIGHT","streetName":"Rue Maltais","absoluteDirection":"NORTH","stayOn":false,"area":false,"bogusName":false,"lon":-71.0591387,"lat":48.424959400000006,"elevation":[]},{"distance":77.273,"relativeDirection":"LEFT","streetName":"Rue Jacques-Cartier Est","absoluteDirection":"WEST","stayOn":false,"area":false,"bogusName":false,"lon":-71.0589782,"lat":48.426284100000004,"elevation":[]},{"distance":89.104,"relativeDirection":"RIGHT","streetName":"steps","absoluteDirection":"NORTH","stayOn":false,"area":false,"bogusName":true,"lon":-71.0600222,"lat":48.4263388,"elevation":[]},{"distance":101.499,"relativeDirection":"SLIGHTLY_RIGHT","streetName":"Rue La Fontaine","absoluteDirection":"NORTH","stayOn":false,"area":false,"bogusName":false,"lon":-71.0601336,"lat":48.4267252,"elevation":[]},{"distance":42.7,"relativeDirection":"LEFT","streetName":"Rue Racine Est","absoluteDirection":"WEST","stayOn":false,"area":false,"bogusName":false,"lon":-71.0600075,"lat":48.4276324,"elevation":[]}]}],"tooSloped":false},{"duration":792,"startTime":1522672239000,"endTime":1522673031000,"walkTime":386,"transitTime":404,"waitingTime":2,"walkDistance":480.80509773987256,"walkLimitExceeded":false,"elevationLost":0.0,"elevationGained":0.0,"transfers":0,"legs":[{"startTime":1522672239000,"endTime":1522672395000,"departureDelay":0,"arrivalDelay":0,"realTime":false,"distance":194.87699999999998,"pathway":false,"mode":"WALK","route":"","agencyTimeZoneOffset":-14400000,"interlineWithPreviousLeg":false,"from":{"name":"Origin","lon":-71.024393,"lat":48.433584,"departure":1522672239000,"orig":"","vertexType":"NORMAL"},"to":{"name":"nouveau","stopId":"1:2303","stopCode":"2303","lon":-71.02291,"lat":48.432276,"arrival":1522672395000,"departure":1522672396000,"zoneId":"NA","stopIndex":24,"stopSequence":25,"vertexType":"TRANSIT"},"legGeometry":{"points":"mqrfHnznpLa@wAx@uA\\w@`@kAdAzA@?","length":7},"rentedBike":false,"transitLeg":false,"duration":156.0,"steps":[{"distance":37.04,"relativeDirection":"DEPART","streetName":"Boulevard Renaud","absoluteDirection":"NORTHEAST","stayOn":false,"area":false,"bogusName":false,"lon":-71.02391194221461,"lat":48.43303644749282,"elevation":[]},{"distance":105.887,"relativeDirection":"RIGHT","streetName":"Rue du Perche","absoluteDirection":"SOUTHEAST","stayOn":false,"area":false,"bogusName":false,"lon":-71.0234782,"lat":48.433204200000006,"elevation":[]},{"distance":51.95,"relativeDirection":"RIGHT","streetName":"Rue Arthur-Hamel","absoluteDirection":"SOUTHWEST","stayOn":false,"area":false,"bogusName":false,"lon":-71.02238460000001,"lat":48.4325922,"elevation":[]}]},{"startTime":1522672396000,"endTime":1522672800000,"departureDelay":0,"arrivalDelay":0,"realTime":false,"distance":2917.395079166214,"pathway":false,"mode":"BUS","route":"12","agencyName":"Société de Transport du Saguenay","agencyUrl":"http://ville.saguenay.ca/fr/services-aux-citoyens/transport-sts","agencyTimeZoneOffset":-14400000,"routeColor":"556B2F","routeType":3,"routeId":"1:12","routeTextColor":"FFFFFF","interlineWithPreviousLeg":false,"tripBlockId":"26","headsign":"Terminus Chicoutimi","agencyId":"0","tripId":"1:217967","serviceDate":"20180402","from":{"name":"nouveau","stopId":"1:2303","stopCode":"2303","lon":-71.02291,"lat":48.432276,"arrival":1522672395000,"departure":1522672396000,"zoneId":"NA","stopIndex":24,"stopSequence":25,"vertexType":"TRANSIT"},"to":{"name":"Agence du revenu Canada (Boul. Saguenay)","stopId":"1:412","stopCode":"412","lon":-71.060901,"lat":48.429119,"arrival":1522672800000,"departure":1522672801000,"zoneId":"NA","stopIndex":32,"stopSequence":33,"vertexType":"TRANSIT"},"legGeometry":{"points":"qlrfH|snpLfM|O|FlHmB`IgA|Cy@`UYzHZvMR~Hr@~ZPvHsCrMFxf@|ApJj@nDDl]","length":16},"routeShortName":"12","routeLongName":"Rivière du Moulin","rentedBike":false,"transitLeg":true,"duration":404.0,"steps":[]},{"startTime":1522672801000,"endTime":1522673031000,"departureDelay":0,"arrivalDelay":0,"realTime":false,"distance":285.789,"pathway":false,"mode":"WALK","route":"","agencyTimeZoneOffset":-14400000,"interlineWithPreviousLeg":false,"from":{"name":"Agence du revenu Canada (Boul. Saguenay)","stopId":"1:412","stopCode":"412","lon":-71.060901,"lat":48.429119,"arrival":1522672800000,"departure":1522672801000,"zoneId":"NA","stopIndex":32,"stopSequence":33,"vertexType":"TRANSIT"},"to":{"name":"Destination","lon":-71.06056399,"lat":48.427847,"arrival":1522673031000,"orig":"","vertexType":"NORMAL"},"legGeometry":{"points":"wxqfHravpLEqE`@B|@B\\@h@?b@DzANErB","length":9},"rentedBike":false,"transitLeg":false,"duration":230.0,"steps":[{"distance":77.944,"relativeDirection":"DEPART","streetName":"Boulevard du Saguenay Est","absoluteDirection":"EAST","stayOn":false,"area":false,"bogusName":false,"lon":-71.06089875875612,"lat":48.42908320382368,"elevation":[]},{"distance":165.145,"relativeDirection":"RIGHT","streetName":"Rue La Fontaine","absoluteDirection":"SOUTH","stayOn":false,"area":false,"bogusName":false,"lon":-71.05984330000001,"lat":48.4291123,"elevation":[]},{"distance":42.7,"relativeDirection":"RIGHT","streetName":"Rue Racine Est","absoluteDirection":"WEST","stayOn":false,"area":false,"bogusName":false,"lon":-71.0600075,"lat":48.4276324,"elevation":[]}]}],"tooSloped":false}]},"debugOutput":{"precalculationTime":25,"pathCalculationTime":16,"pathTimes":[8,6,2],"renderingTime":0,"totalTime":41,"timedOut":false},"elevationMetadata":{"ellipsoidToGeoidDifference":-28.885904201182168,"geoidElevation":false}}