{"requestParameters":{"date":"2018/04/02","walkSpeed":"1.33","walkReluctance":"2.0","fromPlace":"48.425936,-71.055867","maxWalkDistance":"3000","waitReluctance":"1.0","carSpeed":"33","numItineraries":"3","waitAtBeginningFactor":"0.4","mode":"TRANSIT,WALK","ignoreRealtimeUpdates":"false","stairsReluctance":"2.0","toPlace":"48.403952,-71.054642","time":"12:30:00"},"plan":{"date":1522686600000,"from":{"name":"Origin","lon":-71.055867,"lat":48.425936,"orig":"","vertexType":"NORMAL"},"to":{"name":"Destination","lon":-71.054642,"lat":48.403952,"orig":"","vertexType":"NORMAL"},"itineraries":[{"duration":921,"startTime":1522686839000,"endTime":1522687760000,"walkTime":369,"transitTime":550,"waitingTime":2,"walkDistance":440.62232330087096,"walkLimitExceeded":false,"elevationLost":0.0,"elevationGained":0.0,"transfers":0,"legs":[{"startTime":1522686839000,"endTime":1522686986000,"departureDelay":0,"arrivalDelay":0,"realTime":false,"distance":176.31900000000002,"pathway":false,"mode":"WALK","route":"","agencyTimeZoneOffset":-14400000,"interlineWithPreviousLeg":false,"from":{"name":"Origin","lon":-71.055867,"lat":48.425936,"departure":1522686839000,"orig":"","vertexType":"NORMAL"},"to":{"name":"Bégin / Jacques-Cartier","stopId":"1:67","stopCode":"67","lon":-71.055431,"lat":48.425501,"arrival":1522686986000,"departure":1522686987000,"zoneId":"NA","stopIndex":7,"stopSequence":8,"vertexType":"TRANSIT"},"legGeometry":{"points":"kfqfH`bupLBkA@c@PyADSp@p@`@`@b@b@KZ","length":9},"rentedBike":false,"transitLeg":false,"duration":147.0,"steps":[{"distance":84.25200000000001,"relativeDirection":"DEPART","streetName":"Rue Jacques-Cartier Est","absoluteDirection":"EAST","stayOn":false,"area":false,"bogusName":false,"lon":-71.05584320367142,"lat":48.426142849122165,"elevation":[]},{"distance":80.02199999999999,"relativeDirection":"RIGHT","streetName":"Rue Bégin","absoluteDirection":"SOUTHWEST","stayOn":false,"area":false,"bogusName":false,"lon":-71.0547356,"lat":48.4259915,"elevation":[]},{"distance":12.045,"relativeDirection":"RIGHT","streetName":"Rue Gaudreault","absoluteDirection":"NORTHWEST","stayOn":false,"area":false,"bogusName":false,"lon":-71.0553392,"lat":48.4253936,"elevation":[]}]},{"startTime":1522686987000,"endTime":1522687537000,"departureDelay":0,"arrivalDelay":0,"realTime":false,"distance":2886.937770678334,"pathway":false,"mode":"BUS","route":"175","agencyName":"Société de Transport du Saguenay","agencyUrl":"http://ville.saguenay.ca/fr/services-aux-citoyens/transport-sts","agencyTimeZoneOffset":-14400000,"routeColor":"FF00FF","routeType":3,"routeId":"1:175","routeTextColor":"FFFFFF","interlineWithPreviousLeg":false,"tripBlockId":"81","headsign":"Costco","agencyId":"0","tripId":"1:218660","serviceDate":"20180402","from":{"name":"Bégin / Jacques-Cartier","stopId":"1:67","stopCode":"67","lon":-71.055431,"lat":48.425501,"arrival":1522686986000,"departure":1522686987000,"zoneId":"NA","stopIndex":7,"stopSequence":8,"vertexType":"TRANSIT"},"to":{"name":"Champs-Élysées (no. 1415)","stopId":"1:1925","stopCode":"1925","lon":-71.051931,"lat":48.403672,"arrival":1522687537000,"departure":1522687538000,"zoneId":"NA","stopIndex":18,"stopSequence":19,"vertexType":"TRANSIT"},"legGeometry":{"points":"cbqfH~~tpLBBvHtHXRx@l@VwAvAgB\\qBIuAC]g@yEzDuLbBbBvAxAMx@|@v@`A~@Xw@~D~DPxFZtA~ApE`N{LpFmEb@[ROl@[vDQXKfA[|@q@fAsBlEmMr@sBhCsKz@dAjB|@dM`GzCvAXrCr@~Gx@]PEr@ObACn@FrBb@|@Ch@Kx@U","length":50},"routeShortName":"175","routeLongName":"Term. Chic / Costco","rentedBike":false,"transitLeg":true,"duration":550.0,"steps":[]},{"startTime":1522687538000,"endTime":1522687760000,"departureDelay":0,"arrivalDelay":0,"realTime":false,"distance":264.074,"pathway":false,"mode":"WALK","route":"","agencyTimeZoneOffset":-14400000,"interlineWithPreviousLeg":false,"from":{"name":"Champs-Élysées (no. 1415)","stopId":"1:1925","stopCode":"1925","lon":-71.051931,"lat":48.403672,"arrival":1522687537000,"departure":1522687538000,"zoneId":"NA","stopIndex":18,"stopSequence":19,"vertexType":"TRANSIT"},"to":{"name":"Destination","lon":-71.054642,"lat":48.403952,"arrival":1522687760000,"orig":"","vertexType":"NORMAL"},"legGeometry":{"points":"czlfHphtpLOFe@L@zA?p@ELPNk@hBOf@Wt@Xb@R\\T^R\\JL","length":15},"rentedBike":false,"transitLeg":false,"duration":222.0,"steps":[{"distance":31.103,"relativeDirection":"DEPART","streetName":"Rue des Champs-Élysées","absoluteDirection":"NORTH","stayOn":false,"area":false,"bogusName":false,"lon":-71.05176919271997,"lat":48.40370108692007,"elevation":[]},{"distance":232.97099999999998,"relativeDirection":"LEFT","streetName":"parking aisle","absoluteDirection":"WEST","stayOn":false,"area":false,"bogusName":true,"lon":-71.0518792,"lat":48.4039711,"elevation":[]}]}],"tooSloped":false},{"duration":1139,"startTime":1522687367000,"endTime":1522688506000,"walkTime":654,"transitTime":483,"waitingTime":2,"walkDistance":791.6369097643068,"walkLimitExceeded":false,"elevationLost":0.0,"elevationGained":0.0,"transfers":0,"legs":[{"startTime":1522687367000,"endTime":1522687799000,"departureDelay":0,"arrivalDelay":0,"realTime":false,"distance":527.249,"pathway":false,"mode":"WALK","route":"","agencyTimeZoneOffset":-14400000,"interlineWithPreviousLeg":false,"from":{"name":"Origin","lon":-71.055867,"lat":48.425936,"departure":1522687367000,"orig":"","vertexType":"NORMAL"},"to":{"name":"Cégep de Chicoutimi (voie réservée)","stopId":"1:75","stopCode":"75","lon":-71.055283,"lat":48.422761,"arrival":1522687799000,"departure":1522687800000,"zoneId":"NA","stopIndex":14,"stopSequence":15,"vertexType":"TRANSIT"},"legGeometry":{"points":"kfqfH`bupLBkA@c@PyADSp@p@`@`@b@b@Z\\d@r@LR\\R`@kB^iAXa@L@vBJNFDBRHFBTFF@TBR?JAZELAFh@","length":29},"rentedBike":false,"transitLeg":false,"duration":432.0,"steps":[{"distance":84.25200000000001,"relativeDirection":"DEPART","streetName":"Rue Jacques-Cartier Est","absoluteDirection":"EAST","stayOn":false,"area":false,"bogusName":false,"lon":-71.05584320367142,"lat":48.426142849122165,"elevation":[]},{"distance":155.731,"relativeDirection":"RIGHT","streetName":"Rue Bégin","absoluteDirection":"SOUTHWEST","stayOn":false,"area":false,"bogusName":false,"lon":-71.0547356,"lat":48.4259915,"elevation":[]},{"distance":95.624,"relativeDirection":"LEFT","streetName":"Rue Price Est","absoluteDirection":"SOUTHEAST","stayOn":false,"area":false,"bogusName":false,"lon":-71.0559435,"lat":48.424848700000005,"elevation":[]},{"distance":7.917,"relativeDirection":"RIGHT","streetName":"Rue Price Est","absoluteDirection":"SOUTH","stayOn":true,"area":false,"bogusName":false,"lon":-71.0548694,"lat":48.4243849,"elevation":[]},{"distance":167.118,"relativeDirection":"CONTINUE","streetName":"service road","absoluteDirection":"SOUTH","stayOn":false,"area":false,"bogusName":true,"lon":-71.0548701,"lat":48.424313700000006,"elevation":[]},{"distance":16.607,"relativeDirection":"RIGHT","streetName":"Chemin Saint Thomas","absoluteDirection":"WEST","stayOn":false,"area":false,"bogusName":false,"lon":-71.0550802,"lat":48.4228351,"elevation":[]}]},{"startTime":1522687800000,"endTime":1522688283000,"departureDelay":0,"arrivalDelay":0,"realTime":false,"distance":2494.280412635614,"pathway":false,"mode":"BUS","route":"27","agencyName":"Société de Transport du Saguenay","agencyUrl":"http://ville.saguenay.ca/fr/services-aux-citoyens/transport-sts","agencyTimeZoneOffset":-14400000,"routeColor":"00FFFF","routeType":3,"routeId":"1:27","routeTextColor":"000000","interlineWithPreviousLeg":false,"tripBlockId":"98","headsign":"Place du Royaume","agencyId":"0","tripId":"1:218746","serviceDate":"20180402","from":{"name":"Cégep de Chicoutimi (voie réservée)","stopId":"1:75","stopCode":"75","lon":-71.055283,"lat":48.422761,"arrival":1522687799000,"departure":1522687800000,"zoneId":"NA","stopIndex":14,"stopSequence":15,"vertexType":"TRANSIT"},"to":{"name":"Champs-Élysées (no. 1415)","stopId":"1:1925","stopCode":"1925","lon":-71.051931,"lat":48.403672,"arrival":1522688283000,"departure":1522688284000,"zoneId":"NA","stopIndex":24,"stopSequence":25,"vertexType":"TRANSIT"},"legGeometry":{"points":"mqpfHr~tpL?Cc@eEAo@v@_C^aBn@aBh@_BJEt@l@d@f@@?tAzAnAwDnAwDrCpClArA??|A|Av@|@LVnDpD?@`A~@hAnBb@fA|AuAnAeAvBkBb@UBAj@a@|@UjCG\\A??x@WhAcAr@kAhA_Dr@uB`BqE@CXy@nBqGLo@^k@VOf@KjB~@@@~DlB~C|AbBt@FD`Bv@LJ^l@BH?~@B^BL@LFn@`@pBZdBt@_@n@Qt@En@Dp@Ft@LzBB`@Gt@S","length":75},"routeShortName":"27","routeLongName":"St-Honoré","rentedBike":false,"transitLeg":true,"duration":483.0,"steps":[]},{"startTime":1522688284000,"endTime":1522688506000,"departureDelay":0,"arrivalDelay":0,"realTime":false,"distance":264.074,"pathway":false,"mode":"WALK","route":"","agencyTimeZoneOffset":-14400000,"interlineWithPreviousLeg":false,"from":{"name":"Champs-Élysées (no. 1415)","stopId":"1:1925","stopCode":"1925","lon":-71.051931,"lat":48.403672,"arrival":1522688283000,"departure":1522688284000,"zoneId":"NA","stopIndex":24,"stopSequence":25,"vertexType":"TRANSIT"},"to":{"name":"Destination","lon":-71.054642,"lat":48.403952,"arrival":1522688506000,"orig":"","vertexType":"NORMAL"},"legGeometry":{"points":"czlfHphtpLOFe@L@zA?p@ELPNk@hBOf@Wt@Xb@R\\T^R\\JL","length":15},"rentedBike":false,"transitLeg":false,"duration":222.0,"steps":[{"distance":31.103,"relativeDirection":"DEPART","streetName":"Rue des Champs-Élysées","absoluteDirection":"NORTH","stayOn":false,"area":false,"bogusName":false,"lon":-71.05176919271997,"lat":48.40370108692007,"elevation":[]},{"distance":232.97099999999998,"relativeDirection":"LEFT","streetName":"parking aisle","absoluteDirection":"WEST","stayOn":false,"area":false,"bogusName":true,"lon":-71.0518792,"lat":48.4039711,"elevation":[]}]}],"tooSloped":false},{"duration":921,"startTime":1522687739000,"endTime":1522688660000,"walkTime":369,"transitTime":550,"waitingTime":2,"walkDistance":440.62232330087096,"walkLimitExceeded":false,"elevationLost":0.0,"elevationGained":0.0,"transfers":0,"legs":[{"startTime":1522687739000,"endTime":1522687886000,"departureDelay":0,"arrivalDelay":0,"realTime":false,"distance":176.31900000000002,"pathway":false,"mode":"WALK","route":"","agencyTimeZoneOffset":-14400000,"interlineWithPreviousLeg":false,"from":{"name":"Origin","lon":-71.055867,"lat":48.425936,"departure":1522687739000,"orig":"","vertexType":"NORMAL"},"to":{"name":"Bégin / Jacques-Cartier","stopId":"1:67","stopCode":"67","lon":-71.055431,"lat":48.425501,"arrival":1522687886000,"departure":1522687887000,"zoneId":"NA","stopIndex":7,"stopSequence":8,"vertexType":"TRANSIT"},"legGeometry":{"points":"kfqfH`bupLBkA@c@PyADSp@p@`@`@b@b@KZ","length":9},"rentedBike":false,"transitLeg":false,"duration":147.0,"steps":[{"distance":84.25200000000001,"relativeDirection":"DEPART","streetName":"Rue Jacques-Cartier Est","absoluteDirection":"EAST","stayOn":false,"area":false,"bogusName":false,"lon":-71.05584320367142,"lat":48.426142849122165,"elevation":[]},{"distance":80.02199999999999,"relativeDirection":"RIGHT","streetName":"Rue Bégin","absoluteDirection":"SOUTHWEST","stayOn":false,"area":false,"bogusName":false,"lon":-71.0547356,"lat":48.4259915,"elevation":[]},{"distance":12.045,"relativeDirection":"RIGHT","streetName":"Rue Gaudreault","absoluteDirection":"NORTHWEST","stayOn":false,"area":false,"bogusName":false,"lon":-71.0553392,"lat":48.4253936,"elevation":[]}]},{"startTime":1522687887000,"endTime":1522688437000,"departureDelay":0,"arrivalDelay":0,"realTime":false,"distance":2886.937770678334,"pathway":false,"mode":"BUS","route":"175","agencyName":"Société de Transport du Saguenay","agencyUrl":"http://ville.saguenay.ca/fr/services-aux-citoyens/transport-sts","agencyTimeZoneOffset":-14400000,"routeColor":"FF00FF","routeType":3,"routeId":"1:175","routeTextColor":"FFFFFF","interlineWithPreviousLeg":false,"tripBlockId":"6","headsign":"Costco","agencyId":"0","tripId":"1:217297","serviceDate":"20180402","from":{"name":"Bégin / Jacques-Cartier","stopId":"1:67","stopCode":"67","lon":-71.055431,"lat":48.425501,"arrival":1522687886000,"departure":1522687887000,"zoneId":"NA","stopIndex":7,"stopSequence":8,"vertexType":"TRANSIT"},"to":{"name":"Champs-Élysées (no. 1415)","stopId":"1:1925","stopCode":"1925","lon":-71.051931,"lat":48.403672,"arrival":1522688437000,"departure":1522688438000,"zoneId":"NA","stopIndex":18,"stopSequence":19,"vertexType":"TRANSIT"},"legGeometry":{"points":"cbqfH~~tpLBBvHtHXRx@l@VwAvAgB\\qBIuAC]g@yEzDuLbBbBvAxAMx@|@v@`A~@Xw@~D~DPxFZtA~ApE`N{LpFmEb@[ROl@[vDQXKfA[|@q@fAsBlEmMr@sBhCsKz@dAjB|@dM`GzCvAXrCr@~Gx@]PEr@ObACn@FrBb@|@Ch@Kx@U","length":50},"routeShortName":"175","routeLongName":"Term. Chic / Costco","rentedBike":false,"transitLeg":true,"duration":550.0,"steps":[]},{"startTime":1522688438000,"endTime":1522688660000,"departureDelay":0,"arrivalDelay":0,"realTime":false,"distance":264.074,"pathway":false,"mode":"WALK","route":"","agencyTimeZoneOffset":-14400000,"interlineWithPreviousLeg":false,"from":{"name":"Champs-Élysées (no. 1415)","stopId":"1:1925","stopCode":"1925","lon":-71.051931,"lat":48.403672,"arrival":1522688437000,"departure":1522688438000,"zoneId":"NA","stopIndex":18,"stopSequence":19,"vertexType":"TRANSIT"},"to":{"name":"Destination","lon":-71.054642,"lat":48.403952,"arrival":1522688660000,"orig":"","vertexType":"NORMAL"},"legGeometry":{"points":"czlfHphtpLOFe@L@zA?p@ELPNk@hBOf@Wt@Xb@R\\T^R\\JL","length":15},"rentedBike":false,"transitLeg":false,"duration":222.0,"steps":[{"distance":31.103,"relativeDirection":"DEPART","streetName":"Rue des Champs-Élysées","absoluteDirection":"NORTH","stayOn":false,"area":false,"bogusName":false,"lon":-71.05176919271997,"lat":48.40370108692007,"elevation":[]},{"distance":232.97099999999998,"relativeDirection":"LEFT","streetName":"parking aisle","absoluteDirection":"WEST","stayOn":false,"area":false,"bogusName":true,"lon":-71.0518792,"lat":48.4039711,"elevation":[]}]}],"tooSloped":false}]},"debugOutput":{"precalculationTime":29,"pathCalculationTime":20,"pathTimes":[14,2,4],"renderingTime":1,"totalTime":50,"timedOut":false},"elevationMetadata":{"ellipsoidToGeoidDifference":-28.885904201182168,"geoidElevation":false}}