{"requestParameters":{"date":"2018/04/02","walkSpeed":"1.33","walkReluctance":"2.0","fromPlace":"48.431581,-71.016033","maxWalkDistance":"3000","waitReluctance":"1.0","carSpeed":"33","numItineraries":"3","waitAtBeginningFactor":"0.4","mode":"TRANSIT,WALK","ignoreRealtimeUpdates":"false","stairsReluctance":"2.0","toPlace":"48.428598,-71.04071399","time":"17:0:00"},"plan":{"date":1522702800000,"from":{"name":"Origin","lon":-71.016033,"lat":48.431581,"orig":"","vertexType":"NORMAL"},"to":{"name":"Destination","lon":-71.04071399,"lat":48.428598,"orig":"","vertexType":"NORMAL"},"itineraries":[{"duration":1677,"startTime":1522702800000,"endTime":1522704477000,"walkTime":1677,"transitTime":0,"waitingTime":0,"walkDistance":2182.4802255593854,"walkLimitExceeded":false,"elevationLost":0.0,"elevationGained":0.0,"transfers":0,"legs":[{"startTime":1522702800000,"endTime":1522704477000,"departureDelay":0,"arrivalDelay":0,"realTime":false,"distance":2182.3399999999997,"pathway":false,"mode":"WALK","route":"","agencyTimeZoneOffset":-14400000,"interlineWithPreviousLeg":false,"from":{"name":"Origin","lon":-71.016033,"lat":48.431581,"departure":1522702800000,"orig":"","vertexType":"NORMAL"},"to":{"name":"Destination","lon":-71.04071399,"lat":48.428598,"arrival":1522704477000,"orig":"","vertexType":"NORMAL"},"legGeometry":{"points":"kirfHhhmpLu@dCyBvHoAhEu@|CGt@Eh@UbCq@vDXpAlAxEnBbHL\\vBnBtArAf@rAR~@l@fCn@|Dp@nBN\\fAJx@H\\PAb@Ax@AjBGdBEjBAd@IpDG~@ARAV?@MfCAXAREf@@vAFfAd@zHJjA?@Dp@L~AHpAJxALhBxA?`@BPJVTOtA@j@@rC@R","length":57},"rentedBike":false,"transitLeg":false,"duration":1677.0,"steps":[{"distance":503.46,"relativeDirection":"DEPART","streetName":"Rue de Nantes","absoluteDirection":"NORTHWEST","stayOn":false,"area":false,"bogusName":false,"lon":-71.01588316197005,"lat":48.431749414657894,"elevation":[]},{"distance":748.577,"relativeDirection":"LEFT","streetName":"Boulevard Renaud","absoluteDirection":"SOUTHWEST","stayOn":false,"area":false,"bogusName":false,"lon":-71.0219762,"lat":48.4337281,"elevation":[]},{"distance":723.413,"relativeDirection":"RIGHT","streetName":"Boulevard du Saguenay Est","absoluteDirection":"WEST","stayOn":false,"area":false,"bogusName":false,"lon":-71.02934660000001,"lat":48.4296457,"elevation":[]},{"distance":95.417,"relativeDirection":"LEFT","streetName":"Rue de l'École","absoluteDirection":"SOUTH","stayOn":false,"area":false,"bogusName":false,"lon":-71.03903790000001,"lat":48.429405700000004,"elevation":[]},{"distance":111.473,"relativeDirection":"RIGHT","streetName":"Rue Léonidas-Bélanger","absoluteDirection":"WEST","stayOn":false,"area":false,"bogusName":false,"lon":-71.03922080000001,"lat":48.428575900000006,"elevation":[]}]}],"tooSloped":false},{"duration":989,"startTime":1522704188000,"endTime":1522705177000,"walkTime":804,"transitTime":183,"waitingTime":2,"walkDistance":1033.8673157837845,"walkLimitExceeded":false,"elevationLost":0.0,"elevationGained":0.0,"transfers":0,"legs":[{"startTime":1522704188000,"endTime":1522704795000,"departureDelay":0,"arrivalDelay":0,"realTime":false,"distance":786.4979999999999,"pathway":false,"mode":"WALK","route":"","agencyTimeZoneOffset":-14400000,"interlineWithPreviousLeg":false,"from":{"name":"Origin","lon":-71.016033,"lat":48.431581,"departure":1522704188000,"orig":"","vertexType":"NORMAL"},"to":{"name":"nouveau","stopId":"1:2303","stopCode":"2303","lon":-71.02291,"lat":48.432276,"arrival":1522704795000,"departure":1522704796000,"zoneId":"NA","stopIndex":24,"stopSequence":25,"vertexType":"TRANSIT"},"legGeometry":{"points":"kirfHhhmpLu@dCyBvHoAhEu@|CGt@Eh@UbCq@vDXpAlAxEx@uA\\w@`@kAdAzA@?","length":16},"rentedBike":false,"transitLeg":false,"duration":607.0,"steps":[{"distance":503.46,"relativeDirection":"DEPART","streetName":"Rue de Nantes","absoluteDirection":"NORTHWEST","stayOn":false,"area":false,"bogusName":false,"lon":-71.01588316197005,"lat":48.431749414657894,"elevation":[]},{"distance":125.201,"relativeDirection":"LEFT","streetName":"Boulevard Renaud","absoluteDirection":"SOUTHWEST","stayOn":false,"area":false,"bogusName":false,"lon":-71.0219762,"lat":48.4337281,"elevation":[]},{"distance":105.887,"relativeDirection":"LEFT","streetName":"Rue du Perche","absoluteDirection":"SOUTHEAST","stayOn":false,"area":false,"bogusName":false,"lon":-71.0234782,"lat":48.433204200000006,"elevation":[]},{"distance":51.95,"relativeDirection":"RIGHT","streetName":"Rue Arthur-Hamel","absoluteDirection":"SOUTHWEST","stayOn":false,"area":false,"bogusName":false,"lon":-71.02238460000001,"lat":48.4325922,"elevation":[]}]},{"startTime":1522704796000,"endTime":1522704979000,"departureDelay":0,"arrivalDelay":0,"realTime":false,"distance":1254.232129856501,"pathway":false,"mode":"BUS","route":"12","agencyName":"Société de Transport du Saguenay","agencyUrl":"http://ville.saguenay.ca/fr/services-aux-citoyens/transport-sts","agencyTimeZoneOffset":-14400000,"routeColor":"556B2F","routeType":3,"routeId":"1:12","routeTextColor":"FFFFFF","interlineWithPreviousLeg":false,"tripBlockId":"26","headsign":"Terminus Chicoutimi","agencyId":"0","tripId":"1:217985","serviceDate":"20180402","from":{"name":"nouveau","stopId":"1:2303","stopCode":"2303","lon":-71.02291,"lat":48.432276,"arrival":1522704795000,"departure":1522704796000,"zoneId":"NA","stopIndex":24,"stopSequence":25,"vertexType":"TRANSIT"},"to":{"name":"boul. Saguenay / École","stopId":"1:1991","stopCode":"1991","lon":-71.038515,"lat":48.429521,"arrival":1522704979000,"departure":1522704980000,"zoneId":"NA","stopIndex":29,"stopSequence":30,"vertexType":"TRANSIT"},"legGeometry":{"points":"qlrfH|snpLfM|O|FlHmB`IgA|Cy@`UYzHZvMR~H","length":9},"routeShortName":"12","routeLongName":"Rivière du Moulin","rentedBike":false,"transitLeg":true,"duration":183.0,"steps":[]},{"startTime":1522704980000,"endTime":1522705177000,"departureDelay":0,"arrivalDelay":0,"realTime":false,"distance":247.19299999999998,"pathway":false,"mode":"WALK","route":"","agencyTimeZoneOffset":-14400000,"interlineWithPreviousLeg":false,"from":{"name":"boul. Saguenay / École","stopId":"1:1991","stopCode":"1991","lon":-71.038515,"lat":48.429521,"arrival":1522704979000,"departure":1522704980000,"zoneId":"NA","stopIndex":29,"stopSequence":30,"vertexType":"TRANSIT"},"to":{"name":"Destination","lon":-71.04071399,"lat":48.428598,"arrival":1522705177000,"orig":"","vertexType":"NORMAL"},"legGeometry":{"points":"e{qfHtuqpLLhBxA?`@BPJVTOtA@j@@rC@R","length":10},"rentedBike":false,"transitLeg":false,"duration":197.0,"steps":[{"distance":40.303,"relativeDirection":"DEPART","streetName":"Boulevard du Saguenay Est","absoluteDirection":"WEST","stayOn":false,"area":false,"bogusName":false,"lon":-71.03850139986375,"lat":48.429473884873794,"elevation":[]},{"distance":95.417,"relativeDirection":"LEFT","streetName":"Rue de l'École","absoluteDirection":"SOUTH","stayOn":false,"area":false,"bogusName":false,"lon":-71.03903790000001,"lat":48.429405700000004,"elevation":[]},{"distance":111.473,"relativeDirection":"RIGHT","streetName":"Rue Léonidas-Bélanger","absoluteDirection":"WEST","stayOn":false,"area":false,"bogusName":false,"lon":-71.03922080000001,"lat":48.428575900000006,"elevation":[]}]}],"tooSloped":false},{"duration":989,"startTime":1522705988000,"endTime":1522706977000,"walkTime":804,"transitTime":183,"waitingTime":2,"walkDistance":1033.8673157837845,"walkLimitExceeded":false,"elevationLost":0.0,"elevationGained":0.0,"transfers":0,"legs":[{"startTime":1522705988000,"endTime":1522706595000,"departureDelay":0,"arrivalDelay":0,"realTime":false,"distance":786.4979999999999,"pathway":false,"mode":"WALK","route":"","agencyTimeZoneOffset":-14400000,"interlineWithPreviousLeg":false,"from":{"name":"Origin","lon":-71.016033,"lat":48.431581,"departure":1522705988000,"orig":"","vertexType":"NORMAL"},"to":{"name":"nouveau","stopId":"1:2303","stopCode":"2303","lon":-71.02291,"lat":48.432276,"arrival":1522706595000,"departure":1522706596000,"zoneId":"NA","stopIndex":24,"stopSequence":25,"vertexType":"TRANSIT"},"legGeometry":{"points":"kirfHhhmpLu@dCyBvHoAhEu@|CGt@Eh@UbCq@vDXpAlAxEx@uA\\w@`@kAdAzA@?","length":16},"rentedBike":false,"transitLeg":false,"duration":607.0,"steps":[{"distance":503.46,"relativeDirection":"DEPART","streetName":"Rue de Nantes","absoluteDirection":"NORTHWEST","stayOn":false,"area":false,"bogusName":false,"lon":-71.01588316197005,"lat":48.431749414657894,"elevation":[]},{"distance":125.201,"relativeDirection":"LEFT","streetName":"Boulevard Renaud","absoluteDirection":"SOUTHWEST","stayOn":false,"area":false,"bogusName":false,"lon":-71.0219762,"lat":48.4337281,"elevation":[]},{"distance":105.887,"relativeDirection":"LEFT","streetName":"Rue du Perche","absoluteDirection":"SOUTHEAST","stayOn":false,"area":false,"bogusName":false,"lon":-71.0234782,"lat":48.433204200000006,"elevation":[]},{"distance":51.95,"relativeDirection":"RIGHT","streetName":"Rue Arthur-Hamel","absoluteDirection":"SOUTHWEST","stayOn":false,"area":false,"bogusName":false,"lon":-71.02238460000001,"lat":48.4325922,"elevation":[]}]},{"startTime":1522706596000,"endTime":1522706779000,"departureDelay":0,"arrivalDelay":0,"realTime":false,"distance":1254.232129856501,"pathway":false,"mode":"BUS","route":"12","agencyName":"Société de Transport du Saguenay","agencyUrl":"http://ville.saguenay.ca/fr/services-aux-citoyens/transport-sts","agencyTimeZoneOffset":-14400000,"routeColor":"556B2F","routeType":3,"routeId":"1:12","routeTextColor":"FFFFFF","interlineWithPreviousLeg":false,"tripBlockId":"29","headsign":"Terminus Chicoutimi","agencyId":"0","tripId":"1:218074","serviceDate":"20180402","from":{"name":"nouveau","stopId":"1:2303","stopCode":"2303","lon":-71.02291,"lat":48.432276,"arrival":1522706595000,"departure":1522706596000,"zoneId":"NA","stopIndex":24,"stopSequence":25,"vertexType":"TRANSIT"},"to":{"name":"boul. Saguenay / École","stopId":"1:1991","stopCode":"1991","lon":-71.038515,"lat":48.429521,"arrival":1522706779000,"departure":1522706780000,"zoneId":"NA","stopIndex":29,"stopSequence":30,"vertexType":"TRANSIT"},"legGeometry":{"points":"qlrfH|snpLfM|O|FlHmB`IgA|Cy@`UYzHZvMR~H","length":9},"routeShortName":"12","routeLongName":"Rivière du Moulin","rentedBike":false,"transitLeg":true,"duration":183.0,"steps":[]},{"startTime":1522706780000,"endTime":1522706977000,"departureDelay":0,"arrivalDelay":0,"realTime":false,"distance":247.19299999999998,"pathway":false,"mode":"WALK","route":"","agencyTimeZoneOffset":-14400000,"interlineWithPreviousLeg":false,"from":{"name":"boul. Saguenay / École","stopId":"1:1991","stopCode":"1991","lon":-71.038515,"lat":48.429521,"arrival":1522706779000,"departure":1522706780000,"zoneId":"NA","stopIndex":29,"stopSequence":30,"vertexType":"TRANSIT"},"to":{"name":"Destination","lon":-71.04071399,"lat":48.428598,"arrival":1522706977000,"orig":"","vertexType":"NORMAL"},"legGeometry":{"points":"e{qfHtuqpLLhBxA?`@BPJVTOtA@j@@rC@R","length":10},"rentedBike":false,"transitLeg":false,"duration":197.0,"steps":[{"distance":40.303,"relativeDirection":"DEPART","streetName":"Boulevard du Saguenay Est","absoluteDirection":"WEST","stayOn":false,"area":false,"bogusName":false,"lon":-71.03850139986375,"lat":48.429473884873794,"elevation":[]},{"distance":95.417,"relativeDirection":"LEFT","streetName":"Rue de l'École","absoluteDirection":"SOUTH","stayOn":false,"area":false,"bogusName":false,"lon":-71.03903790000001,"lat":48.429405700000004,"elevation":[]},{"distance":111.473,"relativeDirection":"RIGHT","streetName":"Rue Léonidas-Bélanger","absoluteDirection":"WEST","stayOn":false,"area":false,"bogusName":false,"lon":-71.03922080000001,"lat":48.428575900000006,"elevation":[]}]}],"tooSloped":false}]},"debugOutput":{"precalculationTime":16,"pathCalculationTime":14,"pathTimes":[8,5,1],"renderingTime":0,"totalTime":30,"timedOut":false},"elevationMetadata":{"ellipsoidToGeoidDifference":-28.885904201182168,"geoidElevation":false}}