{"requestParameters":{"date":"2018/04/02","walkSpeed":"1.33","walkReluctance":"2.0","fromPlace":"48.336351,-71.14490999","maxWalkDistance":"3000","waitReluctance":"1.0","carSpeed":"33","numItineraries":"3","waitAtBeginningFactor":"0.4","mode":"TRANSIT,WALK","ignoreRealtimeUpdates":"false","stairsReluctance":"2.0","toPlace":"48.428734,-71.042519","time":"17:10:00"},"plan":{"date":1522703400000,"from":{"name":"Origin","lon":-71.14490999,"lat":48.336351,"orig":"","vertexType":"NORMAL"},"to":{"name":"Destination","lon":-71.042519,"lat":48.428734,"orig":"","vertexType":"NORMAL"},"itineraries":[{"duration":4546,"startTime":1522708335000,"endTime":1522712881000,"walkTime":1314,"transitTime":2030,"waitingTime":1202,"walkDistance":1691.768052622833,"walkLimitExceeded":false,"elevationLost":0.0,"elevationGained":0.0,"transfers":1,"legs":[{"startTime":1522708335000,"endTime":1522708869000,"departureDelay":0,"arrivalDelay":0,"realTime":false,"distance":702.513,"pathway":false,"mode":"WALK","route":"","agencyTimeZoneOffset":-14400000,"interlineWithPreviousLeg":false,"from":{"name":"Origin","lon":-71.14490999,"lat":48.336351,"departure":1522708335000,"orig":"","vertexType":"NORMAL"},"to":{"name":"ch. St-Pierre / ch. Bouleaux","stopId":"1:1781","stopCode":"1781","lon":-71.141396,"lat":48.330881,"arrival":1522708869000,"departure":1522708870000,"zoneId":"NA","stopIndex":14,"stopSequence":15,"vertexType":"TRANSIT"},"legGeometry":{"points":"cu_fHrnfqLf@^j@NtAIhCc@dFgAbBq@vB_B`AeARSpDaF`AeBVk@","length":13},"rentedBike":false,"transitLeg":false,"duration":534.0,"steps":[{"distance":702.513,"relativeDirection":"DEPART","streetName":"Rang Saint-Pierre","absoluteDirection":"SOUTHWEST","stayOn":false,"area":false,"bogusName":false,"lon":-71.1448915238083,"lat":48.3363441866017,"elevation":[]}]},{"startTime":1522708870000,"endTime":1522709700000,"departureDelay":0,"arrivalDelay":0,"realTime":false,"distance":11302.735865051769,"pathway":false,"mode":"BUS","route":"60","agencyName":"Société de Transport du Saguenay","agencyUrl":"http://ville.saguenay.ca/fr/services-aux-citoyens/transport-sts","agencyTimeZoneOffset":-14400000,"routeColor":"00FFFF","routeType":3,"routeId":"1:60","routeTextColor":"000000","interlineWithPreviousLeg":false,"tripBlockId":"53","headsign":"Costco","agencyId":"0","tripId":"1:218477","serviceDate":"20180402","from":{"name":"ch. St-Pierre / ch. Bouleaux","stopId":"1:1781","stopCode":"1781","lon":-71.141396,"lat":48.330881,"arrival":1522708869000,"departure":1522708870000,"zoneId":"NA","stopIndex":14,"stopSequence":15,"vertexType":"TRANSIT"},"to":{"name":"COSTCO","stopId":"1:1710","stopCode":"1710","lon":-71.085767,"lat":48.382333,"arrival":1522709700000,"departure":1522710900000,"zoneId":"NA","stopIndex":26,"stopSequence":27,"vertexType":"TRANSIT"},"legGeometry":{"points":"kr~eHnyeqLQ^S\\{BtD}BxCyAvAyA`AqDtAiCn@yD\\w@DKAOCw@c@EAcRwRe@]_AWMAgJeB{BKe@LGDeAj@kAx@cEnC_BlAoAxAeB`DsBbIQbAiAhHk@tFMlAKzAYhCOnCKdDWjGKlAMxAa@vCWnAoBbFkH~Si@lAc@j@WNcAf@{@HiCYcBc@m@Wq@Iu@Qy@_@qBeAkAu@uAm@mImCsA_@yDs@qGk@eB[o@KWCgASaA]cBkAgPsN_FkEwAgAwAsAgAyBe@gBU}AAEMmB_@aEUaB_AeE}BqIy@mCmD{JsAuCu@_Ao@u@y@y@MOsIoKeHaKkEuFSYuAcBqA_BkDgDoBuA{JsFgKgEoBo@aAS_CAeDR}Ej@yHP{BMgBYwC{@kGoCsBs@wAUqAUaCM[eF_@{IE_B?{BBsA@]LkCHaAf@}D\\mBZkA@EXaAxBkGzFmOfD}ItBmFL[nAwDdAmDDSrBuIh@cC~@sFb@qCn@oF`@kEX{DLqBPkEDoBDs@LkIXco@FiDPmCToBVkBd@yBZmA~@uCjAoCRYtCyHQOa@y@[cBv@kB_@a@","length":162},"routeShortName":"60","routeLongName":"Portage des Roches Nord","rentedBike":false,"transitLeg":true,"duration":830.0,"steps":[]},{"startTime":1522710900000,"endTime":1522712100000,"departureDelay":0,"arrivalDelay":0,"realTime":false,"distance":6484.3919540148745,"pathway":false,"mode":"BUS","route":"175","agencyName":"Société de Transport du Saguenay","agencyUrl":"http://ville.saguenay.ca/fr/services-aux-citoyens/transport-sts","agencyTimeZoneOffset":-14400000,"routeColor":"FF00FF","routeType":3,"routeId":"1:175","routeTextColor":"FFFFFF","interlineWithPreviousLeg":false,"tripBlockId":"9","headsign":"Terminus Chicoutimi","agencyId":"0","tripId":"1:217417","serviceDate":"20180402","from":{"name":"COSTCO","stopId":"1:1710","stopCode":"1710","lon":-71.085767,"lat":48.382333,"arrival":1522709700000,"departure":1522710900000,"zoneId":"NA","stopIndex":0,"stopSequence":1,"vertexType":"TRANSIT"},"to":{"name":"Hôpital de Chicoutimi (Saint-Vallier)","stopId":"1:410","stopCode":"410","lon":-71.050193,"lat":48.426282,"arrival":1522712100000,"departure":1522712101000,"zoneId":"NA","stopIndex":20,"stopSequence":21,"vertexType":"TRANSIT"},"legGeometry":{"points":"euhfHt|zpL_BiBsCoDwCqDrCsGN_@uEoFoEiFUWSUqCwC]a@{ByC{@cAkJuKoAwA_CeCeExJ~AlB`@mAu@k@}@q@|C}Iw@}@aO_QkEsEiAoAgEsFkFsHqJ_N}FkImPkOuO{N_U_TcNgNcBcB{E`Jc@x@qG~@{BlAk@XgSrQqB_GAeFiEeEOt@gAeA_A_ATm@yAwAgBeBqDnL@nBF`@f@|C[dCuAfB]xAs@OmCmCmEkE]a@g@i@ZiGTmEl@oLaEe@","length":67},"routeShortName":"175","routeLongName":"Term. Chic / Costco","rentedBike":false,"transitLeg":true,"duration":1200.0,"steps":[]},{"startTime":1522712101000,"endTime":1522712881000,"departureDelay":0,"arrivalDelay":0,"realTime":false,"distance":988.984,"pathway":false,"mode":"WALK","route":"","agencyTimeZoneOffset":-14400000,"interlineWithPreviousLeg":false,"from":{"name":"Hôpital de Chicoutimi (Saint-Vallier)","stopId":"1:410","stopCode":"410","lon":-71.050193,"lat":48.426282,"arrival":1522712100000,"departure":1522712101000,"zoneId":"NA","stopIndex":20,"stopSequence":21,"vertexType":"TRANSIT"},"to":{"name":"Destination","lon":-71.042519,"lat":48.428734,"arrival":1522712881000,"orig":"","vertexType":"NORMAL"},"legGeometry":{"points":"egqfHd~spL^DhBZP?FOBg@BoADy@D{@AWAUm@kBEOC[Ga@FEh@kAgAk@ICN{CK}@_A{@d@qG@YKi@U]a@c@YOq@GgA?i@H]AKGSKc@Sy@e@M?iBH?eD","length":39},"rentedBike":false,"transitLeg":false,"duration":780.0,"steps":[{"distance":94.97,"relativeDirection":"DEPART","streetName":"service road","absoluteDirection":"SOUTH","stayOn":false,"area":false,"bogusName":true,"lon":-71.05010794672428,"lat":48.426274963568915,"elevation":[]},{"distance":273.061,"relativeDirection":"LEFT","streetName":"service road","absoluteDirection":"EAST","stayOn":true,"area":false,"bogusName":true,"lon":-71.05019700000001,"lat":48.425456700000005,"elevation":[]},{"distance":418.005,"relativeDirection":"RIGHT","streetName":"path","absoluteDirection":"EAST","stayOn":true,"area":false,"bogusName":true,"lon":-71.0471993,"lat":48.4258536,"elevation":[]},{"distance":141.779,"relativeDirection":"SLIGHTLY_RIGHT","streetName":"Rue du Bon-Conseil","absoluteDirection":"NORTH","stayOn":false,"area":false,"bogusName":false,"lon":-71.0436803,"lat":48.427398100000005,"elevation":[]},{"distance":61.169,"relativeDirection":"RIGHT","streetName":"Rue Léonidas-Bélanger","absoluteDirection":"EAST","stayOn":false,"area":false,"bogusName":false,"lon":-71.04334750000001,"lat":48.428622000000004,"elevation":[]}]}],"tooSloped":false},{"duration":7742,"startTime":1522706939000,"endTime":1522714681000,"walkTime":2912,"transitTime":2128,"waitingTime":2702,"walkDistance":3794.676436079756,"walkLimitExceeded":false,"elevationLost":0.0,"elevationGained":0.0,"transfers":1,"legs":[{"startTime":1522706939000,"endTime":1522709071000,"departureDelay":0,"arrivalDelay":0,"realTime":false,"distance":2805.3679999999995,"pathway":false,"mode":"WALK","route":"","agencyTimeZoneOffset":-14400000,"interlineWithPreviousLeg":false,"from":{"name":"Origin","lon":-71.14490999,"lat":48.336351,"departure":1522706939000,"orig":"","vertexType":"NORMAL"},"to":{"name":"Boulevard (no. 1557)","stopId":"1:2127","stopCode":"2127","lon":-71.130498,"lat":48.316221,"arrival":1522709071000,"departure":1522709072000,"zoneId":"NA","stopIndex":8,"stopSequence":9,"vertexType":"TRANSIT"},"legGeometry":{"points":"cu_fHrnfqLf@^j@NtAIhCc@dFgAbBq@vB_B`AeARSpDaF`AeBVk@~@cCpAyDrAsEpAaEd@aAjAiBf@o@V[BEJIx@w@~@m@jAs@p@QbAUpAKnKk@H@hF\\jNvAnFtFjBkF~AqElAmDpAuD\\q@|@cC`DgJ","length":41},"rentedBike":false,"transitLeg":false,"duration":2132.0,"steps":[{"distance":2200.8139999999994,"relativeDirection":"DEPART","streetName":"Rang Saint-Pierre","absoluteDirection":"SOUTHWEST","stayOn":false,"area":false,"bogusName":false,"lon":-71.1448915238083,"lat":48.3363441866017,"elevation":[]},{"distance":604.5540000000001,"relativeDirection":"LEFT","streetName":"Rue du Boulevard","absoluteDirection":"SOUTHEAST","stayOn":false,"area":false,"bogusName":false,"lon":-71.1371469,"lat":48.3193853,"elevation":[]}]},{"startTime":1522709072000,"endTime":1522710000000,"departureDelay":0,"arrivalDelay":0,"realTime":false,"distance":12454.09062520728,"pathway":false,"mode":"BUS","route":"62","agencyName":"Société de Transport du Saguenay","agencyUrl":"http://ville.saguenay.ca/fr/services-aux-citoyens/transport-sts","agencyTimeZoneOffset":-14400000,"routeColor":"00FFFF","routeType":3,"routeId":"1:62","routeTextColor":"000000","interlineWithPreviousLeg":false,"tripBlockId":"23","headsign":"Costco","agencyId":"0","tripId":"1:217896","serviceDate":"20180402","from":{"name":"Boulevard (no. 1557)","stopId":"1:2127","stopCode":"2127","lon":-71.130498,"lat":48.316221,"arrival":1522709071000,"departure":1522709072000,"zoneId":"NA","stopIndex":8,"stopSequence":9,"vertexType":"TRANSIT"},"to":{"name":"COSTCO","stopId":"1:1710","stopCode":"1710","lon":-71.085767,"lat":48.382333,"arrival":1522710000000,"departure":1522712700000,"zoneId":"NA","stopIndex":30,"stopSequence":31,"vertexType":"TRANSIT"},"legGeometry":{"points":"uw{eHhtcqL`KqYbDiJpIeV|IcWv@{Bh@cAf@u@Z]l@e@dBsAjCwBv@u@nA{BdCaGOOqAoBwA{B[i@kF{IyAwDSe@U_@o@eAkDwDoF}Fa@u@iIeQ}Qi`@_@s@a@y@}@_D_Im]y@eCgCwGsDyI]}@_@y@Sc@QSW[mBuAk@Y_@KiAe@a_@_KsUsEcAg@a@YEEcFyFsUsWmB_CqB_CeFoGmAuBi@oAEKiAsBsA{A_As@gEeCy@k@iBkBgGuG[Ya@_@qFuEg@e@qAeB{BcDq@{@iAsAgYc[qJkKyN{Ok@o@{BoAc@Sm@lBcFzO}@rB}@bBcCxCsAjAcAr@eClAsJdEoF~BsJdEsJbEAC{TpJmHjCiEhAHz@d@pGE~@I~@Kj@Od@_e@rkAUReFdMIXyCtHwBcC","length":107},"routeShortName":"62","routeLongName":"Portage des Roches Sud","rentedBike":false,"transitLeg":true,"duration":928.0,"steps":[]},{"startTime":1522712700000,"endTime":1522713900000,"departureDelay":0,"arrivalDelay":0,"realTime":false,"distance":6484.3919540148745,"pathway":false,"mode":"BUS","route":"175","agencyName":"Société de Transport du Saguenay","agencyUrl":"http://ville.saguenay.ca/fr/services-aux-citoyens/transport-sts","agencyTimeZoneOffset":-14400000,"routeColor":"FF00FF","routeType":3,"routeId":"1:175","routeTextColor":"FFFFFF","interlineWithPreviousLeg":false,"tripBlockId":"11","headsign":"Terminus Chicoutimi","agencyId":"0","tripId":"1:217488","serviceDate":"20180402","from":{"name":"COSTCO","stopId":"1:1710","stopCode":"1710","lon":-71.085767,"lat":48.382333,"arrival":1522710000000,"departure":1522712700000,"zoneId":"NA","stopIndex":0,"stopSequence":1,"vertexType":"TRANSIT"},"to":{"name":"Hôpital de Chicoutimi (Saint-Vallier)","stopId":"1:410","stopCode":"410","lon":-71.050193,"lat":48.426282,"arrival":1522713900000,"departure":1522713901000,"zoneId":"NA","stopIndex":20,"stopSequence":21,"vertexType":"TRANSIT"},"legGeometry":{"points":"euhfHt|zpL_BiBsCoDwCqDrCsGN_@uEoFoEiFUWSUqCwC]a@{ByC{@cAkJuKoAwA_CeCeExJ~AlB`@mAu@k@}@q@|C}Iw@}@aO_QkEsEiAoAgEsFkFsHqJ_N}FkImPkOuO{N_U_TcNgNcBcB{E`Jc@x@qG~@{BlAk@XgSrQqB_GAeFiEeEOt@gAeA_A_ATm@yAwAgBeBqDnL@nBF`@f@|C[dCuAfB]xAs@OmCmCmEkE]a@g@i@ZiGTmEl@oLaEe@","length":67},"routeShortName":"175","routeLongName":"Term. Chic / Costco","rentedBike":false,"transitLeg":true,"duration":1200.0,"steps":[]},{"startTime":1522713901000,"endTime":1522714681000,"departureDelay":0,"arrivalDelay":0,"realTime":false,"distance":988.984,"pathway":false,"mode":"WALK","route":"","agencyTimeZoneOffset":-14400000,"interlineWithPreviousLeg":false,"from":{"name":"Hôpital de Chicoutimi (Saint-Vallier)","stopId":"1:410","stopCode":"410","lon":-71.050193,"lat":48.426282,"arrival":1522713900000,"departure":1522713901000,"zoneId":"NA","stopIndex":20,"stopSequence":21,"vertexType":"TRANSIT"},"to":{"name":"Destination","lon":-71.042519,"lat":48.428734,"arrival":1522714681000,"orig":"","vertexType":"NORMAL"},"legGeometry":{"points":"egqfHd~spL^DhBZP?FOBg@BoADy@D{@AWAUm@kBEOC[Ga@FEh@kAgAk@ICN{CK}@_A{@d@qG@YKi@U]a@c@YOq@GgA?i@H]AKGSKc@Sy@e@M?iBH?eD","length":39},"rentedBike":false,"transitLeg":false,"duration":780.0,"steps":[{"distance":94.97,"relativeDirection":"DEPART","streetName":"service road","absoluteDirection":"SOUTH","stayOn":false,"area":false,"bogusName":true,"lon":-71.05010794672428,"lat":48.426274963568915,"elevation":[]},{"distance":273.061,"relativeDirection":"LEFT","streetName":"service road","absoluteDirection":"EAST","stayOn":true,"area":false,"bogusName":true,"lon":-71.05019700000001,"lat":48.425456700000005,"elevation":[]},{"distance":418.005,"relativeDirection":"RIGHT","streetName":"path","absoluteDirection":"EAST","stayOn":true,"area":false,"bogusName":true,"lon":-71.0471993,"lat":48.4258536,"elevation":[]},{"distance":141.779,"relativeDirection":"SLIGHTLY_RIGHT","streetName":"Rue du Bon-Conseil","absoluteDirection":"NORTH","stayOn":false,"area":false,"bogusName":false,"lon":-71.0436803,"lat":48.427398100000005,"elevation":[]},{"distance":61.169,"relativeDirection":"RIGHT","streetName":"Rue Léonidas-Bélanger","absoluteDirection":"EAST","stayOn":false,"area":false,"bogusName":false,"lon":-71.04334750000001,"lat":48.428622000000004,"elevation":[]}]}],"tooSloped":false}]},"debugOutput":{"precalculationTime":14,"pathCalculationTime":13,"pathTimes":[7,5],"renderingTime":1,"totalTime":28,"timedOut":false},"elevationMetadata":{"ellipsoidToGeoidDifference":-28.885904201182168,"geoidElevation":false}}