{"requestParameters":{"date":"2018/04/02","walkSpeed":"1.33","walkReluctance":"2.0","fromPlace":"48.427869,-71.05567499","maxWalkDistance":"3000","waitReluctance":"1.0","carSpeed":"33","numItineraries":"3","waitAtBeginningFactor":"0.4","mode":"TRANSIT,WALK","ignoreRealtimeUpdates":"false","stairsReluctance":"2.0","toPlace":"48.431581,-71.016033","time":"15:20:00"},"plan":{"date":1522696800000,"from":{"name":"Origin","lon":-71.05567499,"lat":48.427869,"orig":"","vertexType":"NORMAL"},"to":{"name":"Destination","lon":-71.016033,"lat":48.431581,"orig":"","vertexType":"NORMAL"},"itineraries":[{"duration":1084,"startTime":1522698298000,"endTime":1522699382000,"walkTime":701,"transitTime":381,"waitingTime":2,"walkDistance":911.4413759366107,"walkLimitExceeded":false,"elevationLost":0.0,"elevationGained":0.0,"transfers":0,"legs":[{"startTime":1522698298000,"endTime":1522698394000,"departureDelay":0,"arrivalDelay":0,"realTime":false,"distance":125.20500000000001,"pathway":false,"mode":"WALK","route":"","agencyTimeZoneOffset":-14400000,"interlineWithPreviousLeg":false,"from":{"name":"Origin","lon":-71.05567499,"lat":48.427869,"departure":1522698298000,"orig":"","vertexType":"NORMAL"},"to":{"name":"Racine / Labrecque","stopId":"1:515","stopCode":"515","lon":-71.057333,"lat":48.427512,"arrival":1522698394000,"departure":1522698395000,"zoneId":"NA","stopIndex":2,"stopSequence":3,"vertexType":"TRANSIT"},"legGeometry":{"points":"qrqfH`bupLtAdGFj@","length":3},"rentedBike":false,"transitLeg":false,"duration":96.0,"steps":[{"distance":125.20500000000001,"relativeDirection":"DEPART","streetName":"Rue Racine Est","absoluteDirection":"SOUTHWEST","stayOn":false,"area":false,"bogusName":false,"lon":-71.05584319822105,"lat":48.42809424513946,"elevation":[]}]},{"startTime":1522698395000,"endTime":1522698776000,"departureDelay":0,"arrivalDelay":0,"realTime":false,"distance":2769.860671898711,"pathway":false,"mode":"BUS","route":"12","agencyName":"Société de Transport du Saguenay","agencyUrl":"http://ville.saguenay.ca/fr/services-aux-citoyens/transport-sts","agencyTimeZoneOffset":-14400000,"routeColor":"556B2F","routeType":3,"routeId":"1:12","routeTextColor":"FFFFFF","interlineWithPreviousLeg":false,"tripBlockId":"27","headsign":"Terminus UQAC","agencyId":"0","tripId":"1:218018","serviceDate":"20180402","from":{"name":"Racine / Labrecque","stopId":"1:515","stopCode":"515","lon":-71.057333,"lat":48.427512,"arrival":1522698394000,"departure":1522698395000,"zoneId":"NA","stopIndex":2,"stopSequence":3,"vertexType":"TRANSIT"},"to":{"name":"Arthur-Hamel / Perche","stopId":"1:1527","stopCode":"1527","lon":-71.02277,"lat":48.4322,"arrival":1522698776000,"departure":1522698777000,"zoneId":"NA","stopIndex":14,"stopSequence":15,"vertexType":"TRANSIT"},"legGeometry":{"points":"}nqfHjkupLmFy^_DaZz@u]SeV}@aNs@gKToKd@gTnCyHkGuLqFqJ_DeF","length":13},"routeShortName":"12","routeLongName":"Rivière du Moulin","rentedBike":false,"transitLeg":true,"duration":381.0,"steps":[]},{"startTime":1522698777000,"endTime":1522699382000,"departureDelay":0,"arrivalDelay":0,"realTime":false,"distance":786.136,"pathway":false,"mode":"WALK","route":"","agencyTimeZoneOffset":-14400000,"interlineWithPreviousLeg":false,"from":{"name":"Arthur-Hamel / Perche","stopId":"1:1527","stopCode":"1527","lon":-71.02277,"lat":48.4322,"arrival":1522698776000,"departure":1522698777000,"zoneId":"NA","stopIndex":14,"stopSequence":15,"vertexType":"TRANSIT"},"to":{"name":"Destination","lon":-71.016033,"lat":48.431581,"arrival":1522699382000,"orig":"","vertexType":"NORMAL"},"legGeometry":{"points":"olrfHxsnpLeA{Aa@jA]v@y@tAmAyEYqAp@wDTcCDi@Fu@t@}CnAiExBwHt@eC","length":15},"rentedBike":false,"transitLeg":false,"duration":605.0,"steps":[{"distance":51.588,"relativeDirection":"DEPART","streetName":"Rue Arthur-Hamel","absoluteDirection":"NORTHEAST","stayOn":false,"area":false,"bogusName":false,"lon":-71.02284190781319,"lat":48.43224125053964,"elevation":[]},{"distance":105.887,"relativeDirection":"LEFT","streetName":"Rue du Perche","absoluteDirection":"NORTHWEST","stayOn":false,"area":false,"bogusName":false,"lon":-71.02238460000001,"lat":48.4325922,"elevation":[]},{"distance":125.201,"relativeDirection":"RIGHT","streetName":"Boulevard Renaud","absoluteDirection":"NORTHEAST","stayOn":false,"area":false,"bogusName":false,"lon":-71.0234782,"lat":48.433204200000006,"elevation":[]},{"distance":503.46,"relativeDirection":"RIGHT","streetName":"Rue de Nantes","absoluteDirection":"EAST","stayOn":false,"area":false,"bogusName":false,"lon":-71.0219762,"lat":48.4337281,"elevation":[]}]}],"tooSloped":false},{"duration":1083,"startTime":1522700005000,"endTime":1522701088000,"walkTime":353,"transitTime":728,"waitingTime":2,"walkDistance":443.1076466130356,"walkLimitExceeded":false,"elevationLost":0.0,"elevationGained":0.0,"transfers":0,"legs":[{"startTime":1522700005000,"endTime":1522700229000,"departureDelay":0,"arrivalDelay":0,"realTime":false,"distance":276.77099999999996,"pathway":false,"mode":"WALK","route":"","agencyTimeZoneOffset":-14400000,"interlineWithPreviousLeg":false,"from":{"name":"Origin","lon":-71.05567499,"lat":48.427869,"departure":1522700005000,"orig":"","vertexType":"NORMAL"},"to":{"name":"Place de la gare (boul. Saguenay/Salaberry)","stopId":"1:1521","stopCode":"1521","lon":-71.054522,"lat":48.429679,"arrival":1522700229000,"departure":1522700230000,"zoneId":"NA","stopIndex":2,"stopSequence":3,"vertexType":"TRANSIT"},"legGeometry":{"points":"qrqfH`bupLWiAQu@OF_Cx@QHOPc@}B_@EQL_@_B","length":11},"rentedBike":false,"transitLeg":false,"duration":224.0,"steps":[{"distance":52.434,"relativeDirection":"DEPART","streetName":"Rue Racine Est","absoluteDirection":"NORTHEAST","stayOn":false,"area":false,"bogusName":false,"lon":-71.05584319822105,"lat":48.42809424513946,"elevation":[]},{"distance":94.584,"relativeDirection":"LEFT","streetName":"Rue Riverin","absoluteDirection":"NORTH","stayOn":false,"area":false,"bogusName":false,"lon":-71.0552071,"lat":48.4283045,"elevation":[]},{"distance":90.312,"relativeDirection":"SLIGHTLY_LEFT","streetName":"path","absoluteDirection":"NORTHWEST","stayOn":false,"area":false,"bogusName":true,"lon":-71.05558330000001,"lat":48.429117600000005,"elevation":[]},{"distance":39.441,"relativeDirection":"RIGHT","streetName":"Boulevard du Saguenay Est","absoluteDirection":"NORTHEAST","stayOn":false,"area":false,"bogusName":false,"lon":-71.0550807,"lat":48.429626600000006,"elevation":[]}]},{"startTime":1522700230000,"endTime":1522700958000,"departureDelay":0,"arrivalDelay":0,"realTime":false,"distance":4621.748991052436,"pathway":false,"mode":"BUS","route":"13","agencyName":"Société de Transport du Saguenay","agencyUrl":"http://ville.saguenay.ca/fr/services-aux-citoyens/transport-sts","agencyTimeZoneOffset":-14400000,"routeColor":"00FFFF","routeType":3,"routeId":"1:13","routeTextColor":"000000","interlineWithPreviousLeg":false,"tripBlockId":"56","headsign":"St-Martin / St-Joseph","agencyId":"0","tripId":"1:218524","serviceDate":"20180402","from":{"name":"Place de la gare (boul. Saguenay/Salaberry)","stopId":"1:1521","stopCode":"1521","lon":-71.054522,"lat":48.429679,"arrival":1522700229000,"departure":1522700230000,"zoneId":"NA","stopIndex":2,"stopSequence":3,"vertexType":"TRANSIT"},"to":{"name":"rang St-Martin / St-Joseph","stopId":"1:30","stopCode":"30","lon":-71.014037,"lat":48.430898,"arrival":1522700958000,"departure":1522700959000,"zoneId":"NA","stopIndex":11,"stopSequence":12,"vertexType":"TRANSIT"},"legGeometry":{"points":"c}qfHhztpLGUa@}BKyAG_CG_H?}A?CCiAG_MAgEFy@f@eCh@sCd@eC`@_DLsAFcC?WDcFAyEIcDIcB?GW_Ee@wG?Aq@gK??GaA?yAHyBL{B?ELgCJ_FPiINm@t@}Ad@qA\\wA@CjEcPPg@bDiIhAoCzAeD|@aB|A_CfBeBdBaArBs@bB[lBH`CV`Bp@fDtBrAv@T{A?MA[Km@OOY[KG}@a@g@OWKLqAXkABMn@qAh@e@zCeC|@q@@AVWj@]pAaAr@IhATlAv@N^|@lBjBdELjAHxAJHDLCTMLMEGWDSNIGyAMmAcA}Bo@wAUk@[m@Ua@kA{@kASs@HsA~@i@\\i@b@mB|AiBxA_@Zc@|@IR]zAMpAy@MyF}@wIcFwIsFqDaCe@YuFwBkIaCyCy@","length":124},"routeShortName":"13","routeLongName":"Rang St-Martin / St-Jospeh","rentedBike":false,"transitLeg":true,"duration":728.0,"steps":[]},{"startTime":1522700959000,"endTime":1522701088000,"departureDelay":0,"arrivalDelay":0,"realTime":false,"distance":166.228,"pathway":false,"mode":"WALK","route":"","agencyTimeZoneOffset":-14400000,"interlineWithPreviousLeg":false,"from":{"name":"rang St-Martin / St-Joseph","stopId":"1:30","stopCode":"30","lon":-71.014037,"lat":48.430898,"arrival":1522700958000,"departure":1522700959000,"zoneId":"NA","stopIndex":11,"stopSequence":12,"vertexType":"TRANSIT"},"to":{"name":"Destination","lon":-71.016033,"lat":48.431581,"arrival":1522701088000,"orig":"","vertexType":"NORMAL"},"legGeometry":{"points":"edrfHt}lpL]IgC|I","length":3},"rentedBike":false,"transitLeg":false,"duration":129.0,"steps":[{"distance":16.633,"relativeDirection":"DEPART","streetName":"Rang Saint-Martin","absoluteDirection":"NORTH","stayOn":false,"area":false,"bogusName":false,"lon":-71.01418494901837,"lat":48.430919321248886,"elevation":[]},{"distance":149.595,"relativeDirection":"LEFT","streetName":"Rue de Nantes","absoluteDirection":"NORTHWEST","stayOn":false,"area":false,"bogusName":false,"lon":-71.0141371,"lat":48.4310655,"elevation":[]}]}],"tooSloped":false},{"duration":1084,"startTime":1522700098000,"endTime":1522701182000,"walkTime":701,"transitTime":381,"waitingTime":2,"walkDistance":911.4413759366107,"walkLimitExceeded":false,"elevationLost":0.0,"elevationGained":0.0,"transfers":0,"legs":[{"startTime":1522700098000,"endTime":1522700194000,"departureDelay":0,"arrivalDelay":0,"realTime":false,"distance":125.20500000000001,"pathway":false,"mode":"WALK","route":"","agencyTimeZoneOffset":-14400000,"interlineWithPreviousLeg":false,"from":{"name":"Origin","lon":-71.05567499,"lat":48.427869,"departure":1522700098000,"orig":"","vertexType":"NORMAL"},"to":{"name":"Racine / Labrecque","stopId":"1:515","stopCode":"515","lon":-71.057333,"lat":48.427512,"arrival":1522700194000,"departure":1522700195000,"zoneId":"NA","stopIndex":2,"stopSequence":3,"vertexType":"TRANSIT"},"legGeometry":{"points":"qrqfH`bupLtAdGFj@","length":3},"rentedBike":false,"transitLeg":false,"duration":96.0,"steps":[{"distance":125.20500000000001,"relativeDirection":"DEPART","streetName":"Rue Racine Est","absoluteDirection":"SOUTHWEST","stayOn":false,"area":false,"bogusName":false,"lon":-71.05584319822105,"lat":48.42809424513946,"elevation":[]}]},{"startTime":1522700195000,"endTime":1522700576000,"departureDelay":0,"arrivalDelay":0,"realTime":false,"distance":2769.860671898711,"pathway":false,"mode":"BUS","route":"12","agencyName":"Société de Transport du Saguenay","agencyUrl":"http://ville.saguenay.ca/fr/services-aux-citoyens/transport-sts","agencyTimeZoneOffset":-14400000,"routeColor":"556B2F","routeType":3,"routeId":"1:12","routeTextColor":"FFFFFF","interlineWithPreviousLeg":false,"tripBlockId":"28","headsign":"Terminus UQAC","agencyId":"0","tripId":"1:218045","serviceDate":"20180402","from":{"name":"Racine / Labrecque","stopId":"1:515","stopCode":"515","lon":-71.057333,"lat":48.427512,"arrival":1522700194000,"departure":1522700195000,"zoneId":"NA","stopIndex":2,"stopSequence":3,"vertexType":"TRANSIT"},"to":{"name":"Arthur-Hamel / Perche","stopId":"1:1527","stopCode":"1527","lon":-71.02277,"lat":48.4322,"arrival":1522700576000,"departure":1522700577000,"zoneId":"NA","stopIndex":14,"stopSequence":15,"vertexType":"TRANSIT"},"legGeometry":{"points":"}nqfHjkupLmFy^_DaZz@u]SeV}@aNs@gKToKd@gTnCyHkGuLqFqJ_DeF","length":13},"routeShortName":"12","routeLongName":"Rivière du Moulin","rentedBike":false,"transitLeg":true,"duration":381.0,"steps":[]},{"startTime":1522700577000,"endTime":1522701182000,"departureDelay":0,"arrivalDelay":0,"realTime":false,"distance":786.136,"pathway":false,"mode":"WALK","route":"","agencyTimeZoneOffset":-14400000,"interlineWithPreviousLeg":false,"from":{"name":"Arthur-Hamel / Perche","stopId":"1:1527","stopCode":"1527","lon":-71.02277,"lat":48.4322,"arrival":1522700576000,"departure":1522700577000,"zoneId":"NA","stopIndex":14,"stopSequence":15,"vertexType":"TRANSIT"},"to":{"name":"Destination","lon":-71.016033,"lat":48.431581,"arrival":1522701182000,"orig":"","vertexType":"NORMAL"},"legGeometry":{"points":"olrfHxsnpLeA{Aa@jA]v@y@tAmAyEYqAp@wDTcCDi@Fu@t@}CnAiExBwHt@eC","length":15},"rentedBike":false,"transitLeg":false,"duration":605.0,"steps":[{"distance":51.588,"relativeDirection":"DEPART","streetName":"Rue Arthur-Hamel","absoluteDirection":"NORTHEAST","stayOn":false,"area":false,"bogusName":false,"lon":-71.02284190781319,"lat":48.43224125053964,"elevation":[]},{"distance":105.887,"relativeDirection":"LEFT","streetName":"Rue du Perche","absoluteDirection":"NORTHWEST","stayOn":false,"area":false,"bogusName":false,"lon":-71.02238460000001,"lat":48.4325922,"elevation":[]},{"distance":125.201,"relativeDirection":"RIGHT","streetName":"Boulevard Renaud","absoluteDirection":"NORTHEAST","stayOn":false,"area":false,"bogusName":false,"lon":-71.0234782,"lat":48.433204200000006,"elevation":[]},{"distance":503.46,"relativeDirection":"RIGHT","streetName":"Rue de Nantes","absoluteDirection":"EAST","stayOn":false,"area":false,"bogusName":false,"lon":-71.0219762,"lat":48.4337281,"elevation":[]}]}],"tooSloped":false}]},"debugOutput":{"precalculationTime":18,"pathCalculationTime":32,"pathTimes":[16,6,10],"renderingTime":0,"totalTime":50,"timedOut":false},"elevationMetadata":{"ellipsoidToGeoidDifference":-28.885904201182168,"geoidElevation":false}}