{"requestParameters":{"date":"2018/04/02","walkSpeed":"1.33","walkReluctance":"2.0","fromPlace":"48.402909,-71.065988","maxWalkDistance":"3000","waitReluctance":"1.0","carSpeed":"33","numItineraries":"3","waitAtBeginningFactor":"0.4","mode":"TRANSIT,WALK","ignoreRealtimeUpdates":"false","stairsReluctance":"2.0","toPlace":"48.425627,-71.035702","time":"18:0:00"},"plan":{"date":1522706400000,"from":{"name":"Origin","lon":-71.065988,"lat":48.402909,"orig":"","vertexType":"NORMAL"},"to":{"name":"Destination","lon":-71.035702,"lat":48.425627,"orig":"","vertexType":"NORMAL"},"itineraries":[{"duration":2584,"startTime":1522706970000,"endTime":1522709554000,"walkTime":1982,"transitTime":600,"waitingTime":2,"walkDistance":2512.840067653779,"walkLimitExceeded":false,"elevationLost":0.0,"elevationGained":0.0,"transfers":0,"legs":[{"startTime":1522706970000,"endTime":1522707899000,"departureDelay":0,"arrivalDelay":0,"realTime":false,"distance":1185.2069999999999,"pathway":false,"mode":"WALK","route":"","agencyTimeZoneOffset":-14400000,"interlineWithPreviousLeg":false,"from":{"name":"Origin","lon":-71.065988,"lat":48.402909,"departure":1522706970000,"orig":"","vertexType":"NORMAL"},"to":{"name":"Place Royaume","stopId":"1:1801","stopCode":"1801","lon":-71.057017,"lat":48.405588,"arrival":1522707899000,"departure":1522707900000,"zoneId":"NA","stopIndex":10,"stopSequence":11,"vertexType":"TRANSIT"},"legGeometry":{"points":"_ulfHbawpLcCsBs@[CCaBu@}BaAGEOIiAaDHW`A_A`A}@V[t@_A`A{BfAoCxBwFJW@EkBeBiFwEt@aC[YUU][Y[[YY[[[a@zA","length":30},"rentedBike":false,"transitLeg":false,"duration":929.0,"steps":[{"distance":337.289,"relativeDirection":"DEPART","streetName":"Rue Des Maristes","absoluteDirection":"NORTHEAST","stayOn":false,"area":false,"bogusName":false,"lon":-71.06593382530556,"lat":48.40288811631587,"elevation":[]},{"distance":405.171,"relativeDirection":"RIGHT","streetName":"Rue des Saguenéens","absoluteDirection":"SOUTHEAST","stayOn":false,"area":false,"bogusName":false,"lon":-71.0637066,"lat":48.4054395,"elevation":[]},{"distance":223.313,"relativeDirection":"LEFT","streetName":"Boulevard Talbot","absoluteDirection":"NORTHEAST","stayOn":false,"area":false,"bogusName":false,"lon":-71.0597697,"lat":48.402967000000004,"elevation":[]},{"distance":219.43400000000003,"relativeDirection":"RIGHT","streetName":"parking aisle","absoluteDirection":"SOUTHEAST","stayOn":false,"area":false,"bogusName":true,"lon":-71.0581722,"lat":48.4046724,"elevation":[]}]},{"startTime":1522707900000,"endTime":1522708500000,"departureDelay":0,"arrivalDelay":0,"realTime":false,"distance":2952.0428540783687,"pathway":false,"mode":"BUS","route":"175","agencyName":"Société de Transport du Saguenay","agencyUrl":"http://ville.saguenay.ca/fr/services-aux-citoyens/transport-sts","agencyTimeZoneOffset":-14400000,"routeColor":"FF00FF","routeType":3,"routeId":"1:175","routeTextColor":"FFFFFF","interlineWithPreviousLeg":false,"tripBlockId":"11","headsign":"Terminus Chicoutimi","agencyId":"0","tripId":"1:217485","serviceDate":"20180402","from":{"name":"Place Royaume","stopId":"1:1801","stopCode":"1801","lon":-71.057017,"lat":48.405588,"arrival":1522707899000,"departure":1522707900000,"zoneId":"NA","stopIndex":10,"stopSequence":11,"vertexType":"TRANSIT"},"to":{"name":"Hôpital de Chicoutimi (Saint-Vallier)","stopId":"1:410","stopCode":"410","lon":-71.050193,"lat":48.426282,"arrival":1522708500000,"departure":1522708501000,"zoneId":"NA","stopIndex":20,"stopSequence":21,"vertexType":"TRANSIT"},"legGeometry":{"points":"sfmfH`kupL_U_TcNgNcBcB{E`Jc@x@qG~@{BlAk@XgSrQqB_GAeFiEeEOt@gAeA_A_ATm@yAwAgBeBqDnL@nBF`@f@|C[dCuAfB]xAs@OmCmCmEkE]a@g@i@ZiGTmEl@oLaEe@","length":35},"routeShortName":"175","routeLongName":"Term. Chic / Costco","rentedBike":false,"transitLeg":true,"duration":600.0,"steps":[]},{"startTime":1522708501000,"endTime":1522709554000,"departureDelay":0,"arrivalDelay":0,"realTime":false,"distance":1327.156,"pathway":false,"mode":"WALK","route":"","agencyTimeZoneOffset":-14400000,"interlineWithPreviousLeg":false,"from":{"name":"Hôpital de Chicoutimi (Saint-Vallier)","stopId":"1:410","stopCode":"410","lon":-71.050193,"lat":48.426282,"arrival":1522708500000,"departure":1522708501000,"zoneId":"NA","stopIndex":20,"stopSequence":21,"vertexType":"TRANSIT"},"to":{"name":"Destination","lon":-71.035702,"lat":48.425627,"arrival":1522709554000,"orig":"","vertexType":"NORMAL"},"legGeometry":{"points":"egqfHd~spL^DhBZP?FOBg@BoADy@b@DXwCB_@BWNuB@G~@gLXwCHw@PsBNcB^gD?_AAI?E?G@GBEBCFSFO@cAPuB`@sE@GJqAPiBBS?a@@WAQAGAISa@Sq@_AwCoA_Dc@{@i@c@s@QWBk@PBK","length":51},"rentedBike":false,"transitLeg":false,"duration":1053.0,"steps":[{"distance":94.97,"relativeDirection":"DEPART","streetName":"service road","absoluteDirection":"SOUTH","stayOn":false,"area":false,"bogusName":true,"lon":-71.05010794672428,"lat":48.426274963568915,"elevation":[]},{"distance":66.589,"relativeDirection":"LEFT","streetName":"service road","absoluteDirection":"EAST","stayOn":true,"area":false,"bogusName":true,"lon":-71.05019700000001,"lat":48.425456700000005,"elevation":[]},{"distance":19.537,"relativeDirection":"RIGHT","streetName":"path","absoluteDirection":"SOUTH","stayOn":true,"area":false,"bogusName":true,"lon":-71.0493017,"lat":48.4253823,"elevation":[]},{"distance":570.0889999999999,"relativeDirection":"LEFT","streetName":"Rue Jacques-Cartier Est","absoluteDirection":"EAST","stayOn":false,"area":false,"bogusName":false,"lon":-71.04933630000001,"lat":48.425208100000006,"elevation":[]},{"distance":232.496,"relativeDirection":"SLIGHTLY_LEFT","streetName":"Rue Jacques Cartier","absoluteDirection":"EAST","stayOn":false,"area":false,"bogusName":false,"lon":-71.0418774,"lat":48.423999300000006,"elevation":[]},{"distance":28.149,"relativeDirection":"CONTINUE","streetName":"road","absoluteDirection":"EAST","stayOn":false,"area":false,"bogusName":true,"lon":-71.0388063,"lat":48.423543900000006,"elevation":[]},{"distance":7.068,"relativeDirection":"CIRCLE_CLOCKWISE","streetName":"road","absoluteDirection":"NORTHEAST","exit":"1","stayOn":false,"area":false,"bogusName":true,"lon":-71.0384255,"lat":48.423540900000006,"elevation":[]},{"distance":303.386,"relativeDirection":"CONTINUE","streetName":"Rue du Foyer","absoluteDirection":"NORTHEAST","stayOn":false,"area":false,"bogusName":false,"lon":-71.0383391,"lat":48.423566400000006,"elevation":[]},{"distance":4.872,"relativeDirection":"HARD_RIGHT","streetName":"Rue Melançon","absoluteDirection":"SOUTHEAST","stayOn":false,"area":false,"bogusName":false,"lon":-71.03589020000001,"lat":48.425470100000005,"elevation":[]}]}],"tooSloped":false},{"duration":2222,"startTime":1522707336000,"endTime":1522709558000,"walkTime":1574,"transitTime":646,"waitingTime":2,"walkDistance":2005.3851729236449,"walkLimitExceeded":false,"elevationLost":0.0,"elevationGained":0.0,"transfers":0,"legs":[{"startTime":1522707336000,"endTime":1522707633000,"departureDelay":0,"arrivalDelay":0,"realTime":false,"distance":381.561,"pathway":false,"mode":"WALK","route":"","agencyTimeZoneOffset":-14400000,"interlineWithPreviousLeg":false,"from":{"name":"Origin","lon":-71.065988,"lat":48.402909,"departure":1522707336000,"orig":"","vertexType":"NORMAL"},"to":{"name":"Saguenéens / Maristes","stopId":"1:1999","stopCode":"1999","lon":-71.06394,"lat":48.405813,"arrival":1522707633000,"departure":1522707634000,"zoneId":"NA","stopIndex":14,"stopSequence":15,"vertexType":"TRANSIT"},"legGeometry":{"points":"_ulfHbawpLcCsBs@[CCaBu@}BaAGEOIiAaDcA~@","length":10},"rentedBike":false,"transitLeg":false,"duration":297.0,"steps":[{"distance":337.289,"relativeDirection":"DEPART","streetName":"Rue Des Maristes","absoluteDirection":"NORTHEAST","stayOn":false,"area":false,"bogusName":false,"lon":-71.06593382530556,"lat":48.40288811631587,"elevation":[]},{"distance":44.272,"relativeDirection":"LEFT","streetName":"Rue des Saguenéens","absoluteDirection":"NORTHWEST","stayOn":false,"area":false,"bogusName":false,"lon":-71.0637066,"lat":48.4054395,"elevation":[]}]},{"startTime":1522707634000,"endTime":1522708280000,"departureDelay":0,"arrivalDelay":0,"realTime":false,"distance":3569.716784406196,"pathway":false,"mode":"BUS","route":"15","agencyName":"Société de Transport du Saguenay","agencyUrl":"http://ville.saguenay.ca/fr/services-aux-citoyens/transport-sts","agencyTimeZoneOffset":-14400000,"routeColor":"FF00FF","routeType":3,"routeId":"1:15","routeTextColor":"FFFFFF","interlineWithPreviousLeg":false,"tripBlockId":"30","headsign":"Terminus Chicoutimi","agencyId":"0","tripId":"1:218110","serviceDate":"20180402","from":{"name":"Saguenéens / Maristes","stopId":"1:1999","stopCode":"1999","lon":-71.06394,"lat":48.405813,"arrival":1522707633000,"departure":1522707634000,"zoneId":"NA","stopIndex":14,"stopSequence":15,"vertexType":"TRANSIT"},"to":{"name":"Résidence de l' UQAC","stopId":"1:1928","stopCode":"1928","lon":-71.052293,"lat":48.421532,"arrival":1522708280000,"departure":1522708281000,"zoneId":"NA","stopIndex":30,"stopSequence":31,"vertexType":"TRANSIT"},"legGeometry":{"points":"_gmfHluvpLUP_@d@Yl@oBdFeCxG_CfGYVQXS\\dK|HlFZbC\\p@zA\\rB@hBiArG{BNw@FiG}@iDwAECcCcBo@y@sEeGe@o@qAa@m@MoB?C@}BZwAc@oA_Bs@gDCKZ{Di@QECc@_@sAkAoBwB_EcE{A_BoAmAk@o@cCaCkIkIaJaJUUwBaCj@wCjAsCzGoG_CoHL{D_@kAqD{CQr@iAcAy@w@L{@wAuA","length":62},"routeShortName":"15","routeLongName":"Term. Chic / Costco","rentedBike":false,"transitLeg":true,"duration":646.0,"steps":[]},{"startTime":1522708281000,"endTime":1522709558000,"departureDelay":0,"arrivalDelay":0,"realTime":false,"distance":1623.5550000000003,"pathway":false,"mode":"WALK","route":"","agencyTimeZoneOffset":-14400000,"interlineWithPreviousLeg":false,"from":{"name":"Résidence de l' UQAC","stopId":"1:1928","stopCode":"1928","lon":-71.052293,"lat":48.421532,"arrival":1522708280000,"departure":1522708281000,"zoneId":"NA","stopIndex":30,"stopSequence":31,"vertexType":"TRANSIT"},"to":{"name":"Destination","lon":-71.035702,"lat":48.425627,"arrival":1522709558000,"orig":"","vertexType":"NORMAL"},"legGeometry":{"points":"uipfHdltpLAAUUMKUSc@_@SQWQoAmAc@a@[Wi@m@W_@YOKGe@[KIMGq@YCEEcA?_@kA[d@cGDe@CYKMKCUGsAQ~@gLXwCHw@PsBNcB^gD?_AAI?E?G@GBEBCFSFO@cAPuB`@sE@GJqAPiBBS?a@@WAQAGAISa@Sq@_AwCoA_Dc@{@i@c@s@QWBk@PBK","length":67},"rentedBike":false,"transitLeg":false,"duration":1277.0,"steps":[{"distance":62.393,"relativeDirection":"DEPART","streetName":"Chemin Saint Thomas","absoluteDirection":"NORTHEAST","stayOn":false,"area":false,"bogusName":false,"lon":-71.05234990075473,"lat":48.421558735228686,"elevation":[]},{"distance":263.87899999999996,"relativeDirection":"CONTINUE","streetName":"road","absoluteDirection":"NORTHEAST","stayOn":false,"area":false,"bogusName":true,"lon":-71.051902,"lat":48.4220343,"elevation":[]},{"distance":37.224000000000004,"relativeDirection":"RIGHT","streetName":"path","absoluteDirection":"EAST","stayOn":true,"area":false,"bogusName":true,"lon":-71.0501431,"lat":48.4240852,"elevation":[]},{"distance":43.677,"relativeDirection":"LEFT","streetName":"Chemin Sydenham","absoluteDirection":"NORTH","stayOn":false,"area":false,"bogusName":false,"lon":-71.0496408,"lat":48.424114100000004,"elevation":[]},{"distance":197.333,"relativeDirection":"RIGHT","streetName":"Rue Duberger","absoluteDirection":"EAST","stayOn":false,"area":false,"bogusName":false,"lon":-71.0495042,"lat":48.4244963,"elevation":[]},{"distance":443.078,"relativeDirection":"RIGHT","streetName":"Rue Jacques-Cartier Est","absoluteDirection":"EAST","stayOn":false,"area":false,"bogusName":false,"lon":-71.047663,"lat":48.424941800000006,"elevation":[]},{"distance":232.496,"relativeDirection":"SLIGHTLY_LEFT","streetName":"Rue Jacques Cartier","absoluteDirection":"EAST","stayOn":false,"area":false,"bogusName":false,"lon":-71.0418774,"lat":48.423999300000006,"elevation":[]},{"distance":28.149,"relativeDirection":"CONTINUE","streetName":"road","absoluteDirection":"EAST","stayOn":false,"area":false,"bogusName":true,"lon":-71.0388063,"lat":48.423543900000006,"elevation":[]},{"distance":7.068,"relativeDirection":"CIRCLE_CLOCKWISE","streetName":"road","absoluteDirection":"NORTHEAST","exit":"1","stayOn":false,"area":false,"bogusName":true,"lon":-71.0384255,"lat":48.423540900000006,"elevation":[]},{"distance":303.386,"relativeDirection":"CONTINUE","streetName":"Rue du Foyer","absoluteDirection":"NORTHEAST","stayOn":false,"area":false,"bogusName":false,"lon":-71.0383391,"lat":48.423566400000006,"elevation":[]},{"distance":4.872,"relativeDirection":"HARD_RIGHT","streetName":"Rue Melançon","absoluteDirection":"SOUTHEAST","stayOn":false,"area":false,"bogusName":false,"lon":-71.03589020000001,"lat":48.425470100000005,"elevation":[]}]}],"tooSloped":false},{"duration":3467,"startTime":1522706540000,"endTime":1522710007000,"walkTime":1275,"transitTime":2190,"waitingTime":2,"walkDistance":1614.865315777331,"walkLimitExceeded":false,"elevationLost":0.0,"elevationGained":0.0,"transfers":0,"legs":[{"startTime":1522706540000,"endTime":1522707498000,"departureDelay":0,"arrivalDelay":0,"realTime":false,"distance":1231.3459999999998,"pathway":false,"mode":"WALK","route":"","agencyTimeZoneOffset":-14400000,"interlineWithPreviousLeg":false,"from":{"name":"Origin","lon":-71.065988,"lat":48.402909,"departure":1522706540000,"orig":"","vertexType":"NORMAL"},"to":{"name":"Place du Saguenay (Champs-Élysées)","stopId":"1:571","stopCode":"571","lon":-71.055824,"lat":48.408307,"arrival":1522707498000,"departure":1522707499000,"zoneId":"NA","stopIndex":12,"stopSequence":13,"vertexType":"TRANSIT"},"legGeometry":{"points":"_ulfHbawpLcCsBs@[CCaBu@}BaAGEOIiAaDcBmFPe@`CmGNa@eE}Dw@q@wAoAgGsF][YWMKbAwCgBgBL]Na@\\}@","length":25},"rentedBike":false,"transitLeg":false,"duration":958.0,"steps":[{"distance":595.711,"relativeDirection":"DEPART","streetName":"Rue Des Maristes","absoluteDirection":"NORTHEAST","stayOn":false,"area":false,"bogusName":false,"lon":-71.06593382530556,"lat":48.40288811631587,"elevation":[]},{"distance":440.94200000000006,"relativeDirection":"LEFT","streetName":"Rue Bach","absoluteDirection":"NORTHEAST","stayOn":false,"area":false,"bogusName":false,"lon":-71.06080990000001,"lat":48.405119500000005,"elevation":[]},{"distance":67.359,"relativeDirection":"RIGHT","streetName":"Rue Plamondon","absoluteDirection":"SOUTHEAST","stayOn":false,"area":false,"bogusName":false,"lon":-71.05766410000001,"lat":48.408490300000004,"elevation":[]},{"distance":69.905,"relativeDirection":"LEFT","streetName":"Rue Plamondon","absoluteDirection":"NORTHEAST","stayOn":true,"area":false,"bogusName":false,"lon":-71.05690750000001,"lat":48.408151600000004,"elevation":[]},{"distance":57.429,"relativeDirection":"RIGHT","streetName":"Rue des Champs-Élysées","absoluteDirection":"SOUTHEAST","stayOn":false,"area":false,"bogusName":false,"lon":-71.0563831,"lat":48.4086751,"elevation":[]}]},{"startTime":1522707499000,"endTime":1522708860000,"departureDelay":0,"arrivalDelay":0,"realTime":false,"distance":8492.902354570804,"pathway":false,"mode":"BUS","route":"12","agencyName":"Société de Transport du Saguenay","agencyUrl":"http://ville.saguenay.ca/fr/services-aux-citoyens/transport-sts","agencyTimeZoneOffset":-14400000,"routeColor":"556B2F","routeType":3,"routeId":"1:12","routeTextColor":"FFFFFF","interlineWithPreviousLeg":false,"tripBlockId":"26","headsign":"Terminus Chicoutimi","agencyId":"0","tripId":"1:217987","serviceDate":"20180402","from":{"name":"Place du Saguenay (Champs-Élysées)","stopId":"1:571","stopCode":"571","lon":-71.055824,"lat":48.408307,"arrival":1522707498000,"departure":1522707499000,"zoneId":"NA","stopIndex":12,"stopSequence":13,"vertexType":"TRANSIT"},"to":{"name":"Terminus Chicoutimi","stopId":"1:1289","stopCode":"1289","lon":-71.066163,"lat":48.428677,"arrival":1522708860000,"departure":1522709100000,"zoneId":"NA","stopIndex":33,"stopSequence":34,"vertexType":"TRANSIT"},"legGeometry":{"points":"{vmfH|aupLxFoNlCyGa@yFYkD}CyA}KmFgD_BgAgBn@kFD_NoIgrAmD_WcAaLaDHoDJi`@wVoAbDbA|AnBU|B|AfBlAyLtKoGxFcFqDkJaHgEoDmDwC_TqQsBeB{HjWfAvAfM|O|FlHmB`IgA|Cy@`UYzHZvMR~Hr@~ZPvHsCrMFxf@|ApJj@nDDl]BvZdCXJhC","length":50},"routeShortName":"12","routeLongName":"Rivière du Moulin","rentedBike":false,"transitLeg":true,"duration":1361.0,"steps":[]},{"startTime":1522709100000,"endTime":1522709689000,"departureDelay":0,"arrivalDelay":0,"realTime":false,"distance":2704.712362975673,"pathway":false,"mode":"BUS","route":"10","agencyName":"Société de Transport du Saguenay","agencyUrl":"http://ville.saguenay.ca/fr/services-aux-citoyens/transport-sts","agencyTimeZoneOffset":-14400000,"routeColor":"0000FF","routeType":3,"routeId":"1:10","routeTextColor":"FFFFFF","interlineWithPreviousLeg":true,"tripBlockId":"26","headsign":"Terminus UQAC","agencyId":"0","tripId":"1:217988","serviceDate":"20180402","from":{"name":"Terminus Chicoutimi","stopId":"1:1289","stopCode":"1289","lon":-71.066163,"lat":48.428677,"arrival":1522708860000,"departure":1522709100000,"zoneId":"NA","stopIndex":0,"stopSequence":1,"vertexType":"TRANSIT"},"to":{"name":"Complexe Sagamie","stopId":"1:1565","stopCode":"1565","lon":-71.039089,"lat":48.423475,"arrival":1522709689000,"departure":1522709690000,"zoneId":"NA","stopIndex":11,"stopSequence":12,"vertexType":"TRANSIT"},"legGeometry":{"points":"svqfHnbwpLDmCdDZ\\kO`@mQBuCD}DQ_ECk@^Cd@QWkL?m@IuF@gA?eH?cAEuEDO^AjD`@B@rEf@T_FjBXpDd@hCObDaCfCaHbFqN`CwG_J_CwMiDGe@T}C\\yELaCJeA","length":38},"routeShortName":"10","routeLongName":"Notre-Dame du Saguenay","rentedBike":false,"transitLeg":true,"duration":589.0,"steps":[]},{"startTime":1522709690000,"endTime":1522710007000,"departureDelay":0,"arrivalDelay":0,"realTime":false,"distance":383.14300000000003,"pathway":false,"mode":"WALK","route":"","agencyTimeZoneOffset":-14400000,"interlineWithPreviousLeg":false,"from":{"name":"Complexe Sagamie","stopId":"1:1565","stopCode":"1565","lon":-71.039089,"lat":48.423475,"arrival":1522709689000,"departure":1522709690000,"zoneId":"NA","stopIndex":11,"stopSequence":12,"vertexType":"TRANSIT"},"to":{"name":"Destination","lon":-71.035702,"lat":48.425627,"arrival":1522710007000,"orig":"","vertexType":"NORMAL"},"legGeometry":{"points":"gupfHnyqpL@M@Qc@IBS?a@@WAQAGAISa@Sq@_AwCoA_Dc@{@i@c@s@QWBk@PBK","length":20},"rentedBike":false,"transitLeg":false,"duration":317.0,"steps":[{"distance":32.128,"relativeDirection":"DEPART","streetName":"service road","absoluteDirection":"EAST","stayOn":false,"area":false,"bogusName":true,"lon":-71.03911523041273,"lat":48.423409719784964,"elevation":[]},{"distance":7.54,"relativeDirection":"RIGHT","streetName":"Rue Jacques Cartier","absoluteDirection":"EAST","stayOn":false,"area":false,"bogusName":false,"lon":-71.03890530000001,"lat":48.4235607,"elevation":[]},{"distance":28.149,"relativeDirection":"CONTINUE","streetName":"road","absoluteDirection":"EAST","stayOn":false,"area":false,"bogusName":true,"lon":-71.0388063,"lat":48.423543900000006,"elevation":[]},{"distance":7.068,"relativeDirection":"CIRCLE_CLOCKWISE","streetName":"road","absoluteDirection":"NORTHEAST","exit":"1","stayOn":false,"area":false,"bogusName":true,"lon":-71.0384255,"lat":48.423540900000006,"elevation":[]},{"distance":303.386,"relativeDirection":"CONTINUE","streetName":"Rue du Foyer","absoluteDirection":"NORTHEAST","stayOn":false,"area":false,"bogusName":false,"lon":-71.0383391,"lat":48.423566400000006,"elevation":[]},{"distance":4.872,"relativeDirection":"HARD_RIGHT","streetName":"Rue Melançon","absoluteDirection":"SOUTHEAST","stayOn":false,"area":false,"bogusName":false,"lon":-71.03589020000001,"lat":48.425470100000005,"elevation":[]}]}],"tooSloped":false}]},"debugOutput":{"precalculationTime":27,"pathCalculationTime":55,"pathTimes":[26,14,15],"renderingTime":0,"totalTime":82,"timedOut":false},"elevationMetadata":{"ellipsoidToGeoidDifference":-28.885904201182168,"geoidElevation":false}}