{"requestParameters":{"date":"2018/04/02","walkSpeed":"1.33","walkReluctance":"2.0","fromPlace":"48.425975,-71.04859999","maxWalkDistance":"3000","waitReluctance":"1.0","carSpeed":"33","numItineraries":"3","waitAtBeginningFactor":"0.4","mode":"TRANSIT,WALK","ignoreRealtimeUpdates":"false","stairsReluctance":"2.0","toPlace":"48.40513,-71.06202998","time":"13:35:00"},"plan":{"date":1522690500000,"from":{"name":"Origin","lon":-71.04859999,"lat":48.425975,"orig":"","vertexType":"NORMAL"},"to":{"name":"Destination","lon":-71.06202998,"lat":48.40513,"orig":"","vertexType":"NORMAL"},"itineraries":[{"duration":1615,"startTime":1522690857000,"endTime":1522692472000,"walkTime":654,"transitTime":959,"waitingTime":2,"walkDistance":824.4428195431344,"walkLimitExceeded":false,"elevationLost":0.0,"elevationGained":0.0,"transfers":0,"legs":[{"startTime":1522690857000,"endTime":1522691334000,"departureDelay":0,"arrivalDelay":0,"realTime":false,"distance":595.4490000000001,"pathway":false,"mode":"WALK","route":"","agencyTimeZoneOffset":-14400000,"interlineWithPreviousLeg":false,"from":{"name":"Origin","lon":-71.04859999,"lat":48.425975,"departure":1522690857000,"orig":"","vertexType":"NORMAL"},"to":{"name":"Bégin / Jacques-Cartier","stopId":"1:67","stopCode":"67","lon":-71.055431,"lat":48.425501,"arrival":1522691334000,"departure":1522691335000,"zoneId":"NA","stopIndex":4,"stopSequence":5,"vertexType":"TRANSIT"},"legGeometry":{"points":"wcqfHprspLDFFAHGl@jB@T@VEz@Ex@CnACf@TbAYnHItBGxAAf@OfBAFKb@]hA@h@DZJ\\DN`@`@b@b@KZ","length":27},"rentedBike":false,"transitLeg":false,"duration":477.0,"steps":[{"distance":168.006,"relativeDirection":"DEPART","streetName":"service road","absoluteDirection":"SOUTH","stayOn":false,"area":false,"bogusName":false,"lon":-71.04824,"lat":48.425726,"elevation":[]},{"distance":28.05,"relativeDirection":"SLIGHTLY_LEFT","streetName":"path","absoluteDirection":"SOUTHWEST","stayOn":false,"area":false,"bogusName":true,"lon":-71.05019700000001,"lat":48.425456700000005,"elevation":[]},{"distance":294.42900000000003,"relativeDirection":"SLIGHTLY_RIGHT","streetName":"Rue Jacques-Cartier Est","absoluteDirection":"WEST","stayOn":false,"area":false,"bogusName":false,"lon":-71.0505352,"lat":48.4253415,"elevation":[]},{"distance":45.819,"relativeDirection":"SLIGHTLY_LEFT","streetName":"link","absoluteDirection":"WEST","stayOn":false,"area":false,"bogusName":true,"lon":-71.054406,"lat":48.425870200000006,"elevation":[]},{"distance":47.1,"relativeDirection":"SLIGHTLY_LEFT","streetName":"Rue Bégin","absoluteDirection":"SOUTHWEST","stayOn":false,"area":false,"bogusName":false,"lon":-71.05498390000001,"lat":48.425745500000005,"elevation":[]},{"distance":12.045,"relativeDirection":"RIGHT","streetName":"Rue Gaudreault","absoluteDirection":"NORTHWEST","stayOn":false,"area":false,"bogusName":false,"lon":-71.0553392,"lat":48.4253936,"elevation":[]}]},{"startTime":1522691335000,"endTime":1522692294000,"departureDelay":0,"arrivalDelay":0,"realTime":false,"distance":4056.450289537234,"pathway":false,"mode":"BUS","route":"15","agencyName":"Société de Transport du Saguenay","agencyUrl":"http://ville.saguenay.ca/fr/services-aux-citoyens/transport-sts","agencyTimeZoneOffset":-14400000,"routeColor":"FF00FF","routeType":3,"routeId":"1:15","routeTextColor":"FFFFFF","interlineWithPreviousLeg":false,"tripBlockId":"31","headsign":"Talbot / Barrette","agencyId":"0","tripId":"1:218136","serviceDate":"20180402","from":{"name":"Bégin / Jacques-Cartier","stopId":"1:67","stopCode":"67","lon":-71.055431,"lat":48.425501,"arrival":1522691334000,"departure":1522691335000,"zoneId":"NA","stopIndex":4,"stopSequence":5,"vertexType":"TRANSIT"},"to":{"name":"Saguenéens / Maristes","stopId":"1:1999","stopCode":"1999","lon":-71.06394,"lat":48.405813,"arrival":1522692294000,"departure":1522692295000,"zoneId":"NA","stopIndex":21,"stopSequence":22,"vertexType":"TRANSIT"},"legGeometry":{"points":"_bqfHt~tpLvIpIr@r@\\mBfAaA`@gBOkB_@uF|DyL|DpDQ|@|@z@bA`ATw@dD~Ch@fA@`E~AjGuH`Iy@bBi@dCbEdEjJlJ`HbHlJpJ|J~JdAfALzDNzDrAdBrEKvBEbCv@d@TvFlC|DlBpMlGrB`AM}@hAwEC{B]oBiBmBsH_@_K{H`EgIvCaGfEoI","length":48},"routeShortName":"15","routeLongName":"Term. Chic / Costco","rentedBike":false,"transitLeg":true,"duration":959.0,"steps":[]},{"startTime":1522692295000,"endTime":1522692472000,"departureDelay":0,"arrivalDelay":0,"realTime":false,"distance":228.816,"pathway":false,"mode":"WALK","route":"","agencyTimeZoneOffset":-14400000,"interlineWithPreviousLeg":false,"from":{"name":"Saguenéens / Maristes","stopId":"1:1999","stopCode":"1999","lon":-71.06394,"lat":48.405813,"arrival":1522692294000,"departure":1522692295000,"zoneId":"NA","stopIndex":21,"stopSequence":22,"vertexType":"TRANSIT"},"to":{"name":"Destination","lon":-71.06202998,"lat":48.40513,"arrival":1522692472000,"orig":"","vertexType":"NORMAL"},"legGeometry":{"points":"agmfHduvpLbA_AcBmFPe@bAkC","length":5},"rentedBike":false,"transitLeg":false,"duration":177.0,"steps":[{"distance":44.272,"relativeDirection":"DEPART","streetName":"Rue des Saguenéens","absoluteDirection":"SOUTHEAST","stayOn":false,"area":false,"bogusName":false,"lon":-71.06402958721657,"lat":48.40577499056331,"elevation":[]},{"distance":184.544,"relativeDirection":"LEFT","streetName":"Rue Des Maristes","absoluteDirection":"NORTHEAST","stayOn":false,"area":false,"bogusName":false,"lon":-71.0637066,"lat":48.4054395,"elevation":[]}]}],"tooSloped":false},{"duration":1422,"startTime":1522691166000,"endTime":1522692588000,"walkTime":644,"transitTime":776,"waitingTime":2,"walkDistance":812.6654210455838,"walkLimitExceeded":false,"elevationLost":0.0,"elevationGained":0.0,"transfers":0,"legs":[{"startTime":1522691166000,"endTime":1522691399000,"departureDelay":0,"arrivalDelay":0,"realTime":false,"distance":286.35799999999995,"pathway":false,"mode":"WALK","route":"","agencyTimeZoneOffset":-14400000,"interlineWithPreviousLeg":false,"from":{"name":"Origin","lon":-71.04859999,"lat":48.425975,"departure":1522691166000,"orig":"","vertexType":"NORMAL"},"to":{"name":"Hôpital de Chicoutimi (Saint-Vallier)","stopId":"1:342","stopCode":"342","lon":-71.050416,"lat":48.426429,"arrival":1522691399000,"departure":1522691400000,"zoneId":"NA","stopIndex":6,"stopSequence":7,"vertexType":"TRANSIT"},"legGeometry":{"points":"wcqfHprspLDFFAHGl@jB@T@VEz@Ex@CnACf@GNQ?iB[_@EG?K^G?","length":18},"rentedBike":false,"transitLeg":false,"duration":233.0,"steps":[{"distance":168.006,"relativeDirection":"DEPART","streetName":"service road","absoluteDirection":"SOUTH","stayOn":false,"area":false,"bogusName":false,"lon":-71.04824,"lat":48.425726,"elevation":[]},{"distance":99.413,"relativeDirection":"RIGHT","streetName":"service road","absoluteDirection":"NORTH","stayOn":true,"area":false,"bogusName":true,"lon":-71.05019700000001,"lat":48.425456700000005,"elevation":[]},{"distance":13.926,"relativeDirection":"LEFT","streetName":"path","absoluteDirection":"NORTHWEST","stayOn":true,"area":false,"bogusName":true,"lon":-71.0501005,"lat":48.426314600000005,"elevation":[]},{"distance":5.013,"relativeDirection":"RIGHT","streetName":"Rue Saint-Vallier","absoluteDirection":"NORTH","stayOn":false,"area":false,"bogusName":false,"lon":-71.05026840000001,"lat":48.426371800000005,"elevation":[]}]},{"startTime":1522691400000,"endTime":1522692176000,"departureDelay":0,"arrivalDelay":0,"realTime":false,"distance":4166.113243902873,"pathway":false,"mode":"BUS","route":"175","agencyName":"Société de Transport du Saguenay","agencyUrl":"http://ville.saguenay.ca/fr/services-aux-citoyens/transport-sts","agencyTimeZoneOffset":-14400000,"routeColor":"FF00FF","routeType":3,"routeId":"1:175","routeTextColor":"FFFFFF","interlineWithPreviousLeg":false,"tripBlockId":"8","headsign":"Costco","agencyId":"0","tripId":"1:217371","serviceDate":"20180402","from":{"name":"Hôpital de Chicoutimi (Saint-Vallier)","stopId":"1:342","stopCode":"342","lon":-71.050416,"lat":48.426429,"arrival":1522691399000,"departure":1522691400000,"zoneId":"NA","stopIndex":6,"stopSequence":7,"vertexType":"TRANSIT"},"to":{"name":"boul. Talbot (no. 1494) (Tim-Horton)","stopId":"1:1854","stopCode":"1854","lon":-71.060941,"lat":48.402118,"arrival":1522692176000,"departure":1522692177000,"zoneId":"NA","stopIndex":21,"stopSequence":22,"vertexType":"TRANSIT"},"legGeometry":{"points":"ahqfHf_tpLxEj@iCtYp@r@z@`ABBvHtHXRx@l@VwAvAgB\\qBIuAC]g@yEzDuLbBbBvAxAMx@|@v@`A~@Xw@~D~DPxFZtA~ApE`N{LpFmEb@[ROl@[vDQXKfA[|@q@fAsBlEmMr@sBhCsKz@dAjB|@dM`GzCvAXrCr@~Gx@]PEr@ObACn@FrBb@|@Ch@Kx@U~HsB^KZ|DJpII~Fa@rFUzBi@bDUxAm@nCcAlDM^RTfD`D","length":68},"routeShortName":"175","routeLongName":"Term. Chic / Costco","rentedBike":false,"transitLeg":true,"duration":776.0,"steps":[]},{"startTime":1522692177000,"endTime":1522692588000,"departureDelay":0,"arrivalDelay":0,"realTime":false,"distance":526.089,"pathway":false,"mode":"WALK","route":"","agencyTimeZoneOffset":-14400000,"interlineWithPreviousLeg":false,"from":{"name":"boul. Talbot (no. 1494) (Tim-Horton)","stopId":"1:1854","stopCode":"1854","lon":-71.060941,"lat":48.402118,"arrival":1522692176000,"departure":1522692177000,"zoneId":"NA","stopIndex":21,"stopSequence":22,"vertexType":"TRANSIT"},"to":{"name":"Destination","lon":-71.06202998,"lat":48.40513,"arrival":1522692588000,"orig":"","vertexType":"NORMAL"},"legGeometry":{"points":"}olfHhavpLgDcDMV_ArBwBxFSS}EuEO`@}@`C","length":9},"rentedBike":false,"transitLeg":false,"duration":411.0,"steps":[{"distance":111.149,"relativeDirection":"DEPART","streetName":"Boulevard Talbot","absoluteDirection":"NORTHEAST","stayOn":false,"area":false,"bogusName":false,"lon":-71.06084575275527,"lat":48.40207691199218,"elevation":[]},{"distance":181.411,"relativeDirection":"LEFT","streetName":"Rue des Saguenéens","absoluteDirection":"NORTHWEST","stayOn":false,"area":false,"bogusName":false,"lon":-71.0600254,"lat":48.4029151,"elevation":[]},{"distance":159.651,"relativeDirection":"RIGHT","streetName":"Rue Bach","absoluteDirection":"NORTHEAST","stayOn":false,"area":false,"bogusName":false,"lon":-71.0619727,"lat":48.403908900000005,"elevation":[]},{"distance":73.878,"relativeDirection":"LEFT","streetName":"Rue Des Maristes","absoluteDirection":"NORTHWEST","stayOn":false,"area":false,"bogusName":false,"lon":-71.06080990000001,"lat":48.405119500000005,"elevation":[]}]}],"tooSloped":false},{"duration":1422,"startTime":1522692966000,"endTime":1522694388000,"walkTime":644,"transitTime":776,"waitingTime":2,"walkDistance":812.6654210455838,"walkLimitExceeded":false,"elevationLost":0.0,"elevationGained":0.0,"transfers":0,"legs":[{"startTime":1522692966000,"endTime":1522693199000,"departureDelay":0,"arrivalDelay":0,"realTime":false,"distance":286.35799999999995,"pathway":false,"mode":"WALK","route":"","agencyTimeZoneOffset":-14400000,"interlineWithPreviousLeg":false,"from":{"name":"Origin","lon":-71.04859999,"lat":48.425975,"departure":1522692966000,"orig":"","vertexType":"NORMAL"},"to":{"name":"Hôpital de Chicoutimi (Saint-Vallier)","stopId":"1:342","stopCode":"342","lon":-71.050416,"lat":48.426429,"arrival":1522693199000,"departure":1522693200000,"zoneId":"NA","stopIndex":6,"stopSequence":7,"vertexType":"TRANSIT"},"legGeometry":{"points":"wcqfHprspLDFFAHGl@jB@T@VEz@Ex@CnACf@GNQ?iB[_@EG?K^G?","length":18},"rentedBike":false,"transitLeg":false,"duration":233.0,"steps":[{"distance":168.006,"relativeDirection":"DEPART","streetName":"service road","absoluteDirection":"SOUTH","stayOn":false,"area":false,"bogusName":false,"lon":-71.04824,"lat":48.425726,"elevation":[]},{"distance":99.413,"relativeDirection":"RIGHT","streetName":"service road","absoluteDirection":"NORTH","stayOn":true,"area":false,"bogusName":true,"lon":-71.05019700000001,"lat":48.425456700000005,"elevation":[]},{"distance":13.926,"relativeDirection":"LEFT","streetName":"path","absoluteDirection":"NORTHWEST","stayOn":true,"area":false,"bogusName":true,"lon":-71.0501005,"lat":48.426314600000005,"elevation":[]},{"distance":5.013,"relativeDirection":"RIGHT","streetName":"Rue Saint-Vallier","absoluteDirection":"NORTH","stayOn":false,"area":false,"bogusName":false,"lon":-71.05026840000001,"lat":48.426371800000005,"elevation":[]}]},{"startTime":1522693200000,"endTime":1522693976000,"departureDelay":0,"arrivalDelay":0,"realTime":false,"distance":4166.113243902873,"pathway":false,"mode":"BUS","route":"175","agencyName":"Société de Transport du Saguenay","agencyUrl":"http://ville.saguenay.ca/fr/services-aux-citoyens/transport-sts","agencyTimeZoneOffset":-14400000,"routeColor":"FF00FF","routeType":3,"routeId":"1:175","routeTextColor":"FFFFFF","interlineWithPreviousLeg":false,"tripBlockId":"6","headsign":"Costco","agencyId":"0","tripId":"1:217300","serviceDate":"20180402","from":{"name":"Hôpital de Chicoutimi (Saint-Vallier)","stopId":"1:342","stopCode":"342","lon":-71.050416,"lat":48.426429,"arrival":1522693199000,"departure":1522693200000,"zoneId":"NA","stopIndex":6,"stopSequence":7,"vertexType":"TRANSIT"},"to":{"name":"boul. Talbot (no. 1494) (Tim-Horton)","stopId":"1:1854","stopCode":"1854","lon":-71.060941,"lat":48.402118,"arrival":1522693976000,"departure":1522693977000,"zoneId":"NA","stopIndex":21,"stopSequence":22,"vertexType":"TRANSIT"},"legGeometry":{"points":"ahqfHf_tpLxEj@iCtYp@r@z@`ABBvHtHXRx@l@VwAvAgB\\qBIuAC]g@yEzDuLbBbBvAxAMx@|@v@`A~@Xw@~D~DPxFZtA~ApE`N{LpFmEb@[ROl@[vDQXKfA[|@q@fAsBlEmMr@sBhCsKz@dAjB|@dM`GzCvAXrCr@~Gx@]PEr@ObACn@FrBb@|@Ch@Kx@U~HsB^KZ|DJpII~Fa@rFUzBi@bDUxAm@nCcAlDM^RTfD`D","length":68},"routeShortName":"175","routeLongName":"Term. Chic / Costco","rentedBike":false,"transitLeg":true,"duration":776.0,"steps":[]},{"startTime":1522693977000,"endTime":1522694388000,"departureDelay":0,"arrivalDelay":0,"realTime":false,"distance":526.089,"pathway":false,"mode":"WALK","route":"","agencyTimeZoneOffset":-14400000,"interlineWithPreviousLeg":false,"from":{"name":"boul. Talbot (no. 1494) (Tim-Horton)","stopId":"1:1854","stopCode":"1854","lon":-71.060941,"lat":48.402118,"arrival":1522693976000,"departure":1522693977000,"zoneId":"NA","stopIndex":21,"stopSequence":22,"vertexType":"TRANSIT"},"to":{"name":"Destination","lon":-71.06202998,"lat":48.40513,"arrival":1522694388000,"orig":"","vertexType":"NORMAL"},"legGeometry":{"points":"}olfHhavpLgDcDMV_ArBwBxFSS}EuEO`@}@`C","length":9},"rentedBike":false,"transitLeg":false,"duration":411.0,"steps":[{"distance":111.149,"relativeDirection":"DEPART","streetName":"Boulevard Talbot","absoluteDirection":"NORTHEAST","stayOn":false,"area":false,"bogusName":false,"lon":-71.06084575275527,"lat":48.40207691199218,"elevation":[]},{"distance":181.411,"relativeDirection":"LEFT","streetName":"Rue des Saguenéens","absoluteDirection":"NORTHWEST","stayOn":false,"area":false,"bogusName":false,"lon":-71.0600254,"lat":48.4029151,"elevation":[]},{"distance":159.651,"relativeDirection":"RIGHT","streetName":"Rue Bach","absoluteDirection":"NORTHEAST","stayOn":false,"area":false,"bogusName":false,"lon":-71.0619727,"lat":48.403908900000005,"elevation":[]},{"distance":73.878,"relativeDirection":"LEFT","streetName":"Rue Des Maristes","absoluteDirection":"NORTHWEST","stayOn":false,"area":false,"bogusName":false,"lon":-71.06080990000001,"lat":48.405119500000005,"elevation":[]}]}],"tooSloped":false}]},"debugOutput":{"precalculationTime":33,"pathCalculationTime":28,"pathTimes":[15,5,8],"renderingTime":1,"totalTime":62,"timedOut":false},"elevationMetadata":{"ellipsoidToGeoidDifference":-28.885904201182168,"geoidElevation":false}}