{"requestParameters":{"date":"2018/04/02","walkSpeed":"1.33","walkReluctance":"2.0","fromPlace":"48.426591,-71.057782","maxWalkDistance":"3000","waitReluctance":"1.0","carSpeed":"33","numItineraries":"3","waitAtBeginningFactor":"0.4","mode":"TRANSIT,WALK","ignoreRealtimeUpdates":"false","stairsReluctance":"2.0","toPlace":"48.42223,-71.036937","time":"19:0:00"},"plan":{"date":1522710000000,"from":{"name":"Origin","lon":-71.057782,"lat":48.426591,"orig":"","vertexType":"NORMAL"},"to":{"name":"Destination","lon":-71.036937,"lat":48.42223,"orig":"","vertexType":"NORMAL"},"itineraries":[{"duration":1299,"startTime":1522710000000,"endTime":1522711299000,"walkTime":1299,"transitTime":0,"waitingTime":0,"walkDistance":1661.92951127321,"walkLimitExceeded":false,"elevationLost":0.0,"elevationGained":0.0,"transfers":0,"legs":[{"startTime":1522710000000,"endTime":1522711299000,"departureDelay":0,"arrivalDelay":0,"realTime":false,"distance":1661.775,"pathway":false,"mode":"WALK","route":"","agencyTimeZoneOffset":-14400000,"interlineWithPreviousLeg":false,"from":{"name":"Origin","lon":-71.057782,"lat":48.426591,"departure":1522710000000,"orig":"","vertexType":"NORMAL"},"to":{"name":"Destination","lon":-71.036937,"lat":48.42223,"arrival":1522711299000,"orig":"","vertexType":"NORMAL"},"legGeometry":{"points":"_gqfHlnupLF{CN{H@c@PyADSRw@BI\\iAJc@@GNgB@g@FyAHuBXoHDu@TyDXwCB_@BWNuB@G~@gLXwCHw@PsBNcB^gD?_AAI?E?G@GBEBCFSFO@cAPuB`@sE@GJqAPiBBSFYF[FODEBGDGRSJCbBMh@eG","length":55},"rentedBike":false,"transitLeg":false,"duration":1299.0,"steps":[{"distance":1212.739,"relativeDirection":"DEPART","streetName":"Rue Jacques-Cartier Est","absoluteDirection":"EAST","stayOn":false,"area":false,"bogusName":false,"lon":-71.05782220488472,"lat":48.42624330360103,"elevation":[]},{"distance":261.819,"relativeDirection":"SLIGHTLY_LEFT","streetName":"Rue Jacques Cartier","absoluteDirection":"EAST","stayOn":false,"area":false,"bogusName":false,"lon":-71.0418774,"lat":48.423999300000006,"elevation":[]},{"distance":7.4510000000000005,"relativeDirection":"CIRCLE_COUNTERCLOCKWISE","streetName":"road","absoluteDirection":"SOUTHEAST","exit":"2","stayOn":false,"area":false,"bogusName":true,"lon":-71.0384566,"lat":48.4234208,"elevation":[]},{"distance":17.775,"relativeDirection":"SLIGHTLY_RIGHT","streetName":"road","absoluteDirection":"SOUTHEAST","stayOn":false,"area":false,"bogusName":true,"lon":-71.0383832,"lat":48.4233762,"elevation":[]},{"distance":63.035,"relativeDirection":"SLIGHTLY_RIGHT","streetName":"Rue des Franciscaines","absoluteDirection":"SOUTH","stayOn":false,"area":false,"bogusName":false,"lon":-71.0382491,"lat":48.423243400000004,"elevation":[]},{"distance":98.956,"relativeDirection":"LEFT","streetName":"Rue Desaulniers","absoluteDirection":"EAST","stayOn":false,"area":false,"bogusName":false,"lon":-71.0381534,"lat":48.422680500000006,"elevation":[]}]}],"tooSloped":false},{"duration":851,"startTime":1522710864000,"endTime":1522711715000,"walkTime":348,"transitTime":501,"waitingTime":2,"walkDistance":438.8515338309231,"walkLimitExceeded":false,"elevationLost":0.0,"elevationGained":0.0,"transfers":0,"legs":[{"startTime":1522710864000,"endTime":1522711056000,"departureDelay":0,"arrivalDelay":0,"realTime":false,"distance":238.42700000000002,"pathway":false,"mode":"WALK","route":"","agencyTimeZoneOffset":-14400000,"interlineWithPreviousLeg":false,"from":{"name":"Origin","lon":-71.057782,"lat":48.426591,"departure":1522710864000,"orig":"","vertexType":"NORMAL"},"to":{"name":"Racine / Labrecque","stopId":"1:515","stopCode":"515","lon":-71.057333,"lat":48.427512,"arrival":1522711056000,"departure":1522711057000,"zoneId":"NA","stopIndex":2,"stopSequence":3,"vertexType":"TRANSIT"},"legGeometry":{"points":"_gqfHlnupLF{CoCK_@?SBQDo@N]FFj@","length":9},"rentedBike":false,"transitLeg":false,"duration":192.0,"steps":[{"distance":57.56,"relativeDirection":"DEPART","streetName":"Rue Jacques-Cartier Est","absoluteDirection":"EAST","stayOn":false,"area":false,"bogusName":false,"lon":-71.05782220488472,"lat":48.42624330360103,"elevation":[]},{"distance":163.66,"relativeDirection":"LEFT","streetName":"Rue Labrecque","absoluteDirection":"NORTH","stayOn":false,"area":false,"bogusName":false,"lon":-71.05704440000001,"lat":48.4262037,"elevation":[]},{"distance":17.207,"relativeDirection":"LEFT","streetName":"Rue Racine Est","absoluteDirection":"WEST","stayOn":false,"area":false,"bogusName":false,"lon":-71.0571547,"lat":48.427663,"elevation":[]}]},{"startTime":1522711057000,"endTime":1522711558000,"departureDelay":0,"arrivalDelay":0,"realTime":false,"distance":2385.9076240316786,"pathway":false,"mode":"BUS","route":"10","agencyName":"Société de Transport du Saguenay","agencyUrl":"http://ville.saguenay.ca/fr/services-aux-citoyens/transport-sts","agencyTimeZoneOffset":-14400000,"routeColor":"0000FF","routeType":3,"routeId":"1:10","routeTextColor":"FFFFFF","interlineWithPreviousLeg":false,"tripBlockId":"29","headsign":"Terminus UQAC","agencyId":"0","tripId":"1:218077","serviceDate":"20180402","from":{"name":"Racine / Labrecque","stopId":"1:515","stopCode":"515","lon":-71.057333,"lat":48.427512,"arrival":1522711056000,"departure":1522711057000,"zoneId":"NA","stopIndex":2,"stopSequence":3,"vertexType":"TRANSIT"},"to":{"name":"Chabanel / Jacques-Cartier","stopId":"1:1566","stopCode":"1566","lon":-71.034562,"lat":48.422529,"arrival":1522711558000,"departure":1522711559000,"zoneId":"NA","stopIndex":12,"stopSequence":13,"vertexType":"TRANSIT"},"legGeometry":{"points":"ooqfHnkupLCk@^Cd@QWkL?m@IuF@gA?eH?cAEuEDO^AjD`@B@rEf@T_FjBXpDd@hCObDaCfCaHbFqN`CwG_J_CwMiDGe@T}C\\yELaCJeAJcAXw@Fk@M_@xBwVr@^LJ","length":38},"routeShortName":"10","routeLongName":"Notre-Dame du Saguenay","rentedBike":false,"transitLeg":true,"duration":501.0,"steps":[]},{"startTime":1522711559000,"endTime":1522711715000,"departureDelay":0,"arrivalDelay":0,"realTime":false,"distance":200.311,"pathway":false,"mode":"WALK","route":"","agencyTimeZoneOffset":-14400000,"interlineWithPreviousLeg":false,"from":{"name":"Chabanel / Jacques-Cartier","stopId":"1:1566","stopCode":"1566","lon":-71.034562,"lat":48.422529,"arrival":1522711558000,"departure":1522711559000,"zoneId":"NA","stopIndex":12,"stopSequence":13,"vertexType":"TRANSIT"},"to":{"name":"Destination","lon":-71.036937,"lat":48.42223,"arrival":1522711715000,"orig":"","vertexType":"NORMAL"},"legGeometry":{"points":"oopfHl|ppLj@h@RZD`@Oh@s@hI","length":6},"rentedBike":false,"transitLeg":false,"duration":156.0,"steps":[{"distance":57.314,"relativeDirection":"DEPART","streetName":"Rue Chabanel","absoluteDirection":"SOUTHWEST","stayOn":false,"area":false,"bogusName":false,"lon":-71.03446284396173,"lat":48.422486615312145,"elevation":[]},{"distance":142.997,"relativeDirection":"RIGHT","streetName":"Rue Desaulniers","absoluteDirection":"NORTHWEST","stayOn":false,"area":false,"bogusName":false,"lon":-71.034985,"lat":48.4221377,"elevation":[]}]}],"tooSloped":false},{"duration":851,"startTime":1522712664000,"endTime":1522713515000,"walkTime":348,"transitTime":501,"waitingTime":2,"walkDistance":438.8515338309231,"walkLimitExceeded":false,"elevationLost":0.0,"elevationGained":0.0,"transfers":0,"legs":[{"startTime":1522712664000,"endTime":1522712856000,"departureDelay":0,"arrivalDelay":0,"realTime":false,"distance":238.42700000000002,"pathway":false,"mode":"WALK","route":"","agencyTimeZoneOffset":-14400000,"interlineWithPreviousLeg":false,"from":{"name":"Origin","lon":-71.057782,"lat":48.426591,"departure":1522712664000,"orig":"","vertexType":"NORMAL"},"to":{"name":"Racine / Labrecque","stopId":"1:515","stopCode":"515","lon":-71.057333,"lat":48.427512,"arrival":1522712856000,"departure":1522712857000,"zoneId":"NA","stopIndex":2,"stopSequence":3,"vertexType":"TRANSIT"},"legGeometry":{"points":"_gqfHlnupLF{CoCK_@?SBQDo@N]FFj@","length":9},"rentedBike":false,"transitLeg":false,"duration":192.0,"steps":[{"distance":57.56,"relativeDirection":"DEPART","streetName":"Rue Jacques-Cartier Est","absoluteDirection":"EAST","stayOn":false,"area":false,"bogusName":false,"lon":-71.05782220488472,"lat":48.42624330360103,"elevation":[]},{"distance":163.66,"relativeDirection":"LEFT","streetName":"Rue Labrecque","absoluteDirection":"NORTH","stayOn":false,"area":false,"bogusName":false,"lon":-71.05704440000001,"lat":48.4262037,"elevation":[]},{"distance":17.207,"relativeDirection":"LEFT","streetName":"Rue Racine Est","absoluteDirection":"WEST","stayOn":false,"area":false,"bogusName":false,"lon":-71.0571547,"lat":48.427663,"elevation":[]}]},{"startTime":1522712857000,"endTime":1522713358000,"departureDelay":0,"arrivalDelay":0,"realTime":false,"distance":2385.9076240316786,"pathway":false,"mode":"BUS","route":"10","agencyName":"Société de Transport du Saguenay","agencyUrl":"http://ville.saguenay.ca/fr/services-aux-citoyens/transport-sts","agencyTimeZoneOffset":-14400000,"routeColor":"0000FF","routeType":3,"routeId":"1:10","routeTextColor":"FFFFFF","interlineWithPreviousLeg":false,"tripBlockId":"26","headsign":"Terminus UQAC","agencyId":"0","tripId":"1:217990","serviceDate":"20180402","from":{"name":"Racine / Labrecque","stopId":"1:515","stopCode":"515","lon":-71.057333,"lat":48.427512,"arrival":1522712856000,"departure":1522712857000,"zoneId":"NA","stopIndex":2,"stopSequence":3,"vertexType":"TRANSIT"},"to":{"name":"Chabanel / Jacques-Cartier","stopId":"1:1566","stopCode":"1566","lon":-71.034562,"lat":48.422529,"arrival":1522713358000,"departure":1522713359000,"zoneId":"NA","stopIndex":12,"stopSequence":13,"vertexType":"TRANSIT"},"legGeometry":{"points":"ooqfHnkupLCk@^Cd@QWkL?m@IuF@gA?eH?cAEuEDO^AjD`@B@rEf@T_FjBXpDd@hCObDaCfCaHbFqN`CwG_J_CwMiDGe@T}C\\yELaCJeAJcAXw@Fk@M_@xBwVr@^LJ","length":38},"routeShortName":"10","routeLongName":"Notre-Dame du Saguenay","rentedBike":false,"transitLeg":true,"duration":501.0,"steps":[]},{"startTime":1522713359000,"endTime":1522713515000,"departureDelay":0,"arrivalDelay":0,"realTime":false,"distance":200.311,"pathway":false,"mode":"WALK","route":"","agencyTimeZoneOffset":-14400000,"interlineWithPreviousLeg":false,"from":{"name":"Chabanel / Jacques-Cartier","stopId":"1:1566","stopCode":"1566","lon":-71.034562,"lat":48.422529,"arrival":1522713358000,"departure":1522713359000,"zoneId":"NA","stopIndex":12,"stopSequence":13,"vertexType":"TRANSIT"},"to":{"name":"Destination","lon":-71.036937,"lat":48.42223,"arrival":1522713515000,"orig":"","vertexType":"NORMAL"},"legGeometry":{"points":"oopfHl|ppLj@h@RZD`@Oh@s@hI","length":6},"rentedBike":false,"transitLeg":false,"duration":156.0,"steps":[{"distance":57.314,"relativeDirection":"DEPART","streetName":"Rue Chabanel","absoluteDirection":"SOUTHWEST","stayOn":false,"area":false,"bogusName":false,"lon":-71.03446284396173,"lat":48.422486615312145,"elevation":[]},{"distance":142.997,"relativeDirection":"RIGHT","streetName":"Rue Desaulniers","absoluteDirection":"NORTHWEST","stayOn":false,"area":false,"bogusName":false,"lon":-71.034985,"lat":48.4221377,"elevation":[]}]}],"tooSloped":false}]},"debugOutput":{"precalculationTime":42,"pathCalculationTime":48,"pathTimes":[32,8,8],"renderingTime":0,"totalTime":90,"timedOut":false},"elevationMetadata":{"ellipsoidToGeoidDifference":-28.885904201182168,"geoidElevation":false}}