{"requestParameters":{"date":"2018/04/02","walkSpeed":"1.33","walkReluctance":"2.0","fromPlace":"48.392867,-71.082794","maxWalkDistance":"3000","waitReluctance":"1.0","carSpeed":"33","numItineraries":"3","waitAtBeginningFactor":"0.4","mode":"TRANSIT,WALK","ignoreRealtimeUpdates":"false","stairsReluctance":"2.0","toPlace":"48.402885,-71.05983299","time":"9:30:00"},"plan":{"date":1522675800000,"from":{"name":"Origin","lon":-71.082794,"lat":48.392867,"orig":"","vertexType":"NORMAL"},"to":{"name":"Destination","lon":-71.05983299,"lat":48.402885,"orig":"","vertexType":"NORMAL"},"itineraries":[{"duration":1167,"startTime":1522676405000,"endTime":1522677572000,"walkTime":946,"transitTime":219,"waitingTime":2,"walkDistance":1234.6980300731864,"walkLimitExceeded":false,"elevationLost":0.0,"elevationGained":0.0,"transfers":0,"legs":[{"startTime":1522676405000,"endTime":1522676939000,"departureDelay":0,"arrivalDelay":0,"realTime":false,"distance":694.9770000000001,"pathway":false,"mode":"WALK","route":"","agencyTimeZoneOffset":-14400000,"interlineWithPreviousLeg":false,"from":{"name":"Origin","lon":-71.082794,"lat":48.392867,"departure":1522676405000,"orig":"","vertexType":"NORMAL"},"to":{"name":"nouveau","stopId":"1:2202","stopCode":"2202","lon":-71.075664,"lat":48.391099,"arrival":1522676939000,"departure":1522676940000,"zoneId":"NA","stopIndex":5,"stopSequence":6,"vertexType":"TRANSIT"},"legGeometry":{"points":"ivjfHbjzpLyBq@{@Y^eEHs@b@mCp@wAR]FMr@gALuBPuA\\mBp@sB^eAjB}EZ_A","length":17},"rentedBike":false,"transitLeg":false,"duration":534.0,"steps":[{"distance":104.914,"relativeDirection":"DEPART","streetName":"Rue du Syrah","absoluteDirection":"NORTH","stayOn":false,"area":false,"bogusName":false,"lon":-71.08273699439184,"lat":48.39285663969286,"elevation":[]},{"distance":590.0630000000001,"relativeDirection":"RIGHT","streetName":"Rue du Sauvignon","absoluteDirection":"EAST","stayOn":false,"area":false,"bogusName":false,"lon":-71.08235660000001,"lat":48.3937657,"elevation":[]}]},{"startTime":1522676940000,"endTime":1522677159000,"departureDelay":0,"arrivalDelay":0,"realTime":false,"distance":1291.9458550364989,"pathway":false,"mode":"BUS","route":"175","agencyName":"Société de Transport du Saguenay","agencyUrl":"http://ville.saguenay.ca/fr/services-aux-citoyens/transport-sts","agencyTimeZoneOffset":-14400000,"routeColor":"FF00FF","routeType":3,"routeId":"1:175","routeTextColor":"FFFFFF","interlineWithPreviousLeg":false,"tripBlockId":"10","headsign":"Terminus Chicoutimi","agencyId":"0","tripId":"1:217433","serviceDate":"20180402","from":{"name":"nouveau","stopId":"1:2202","stopCode":"2202","lon":-71.075664,"lat":48.391099,"arrival":1522676939000,"departure":1522676940000,"zoneId":"NA","stopIndex":5,"stopSequence":6,"vertexType":"TRANSIT"},"to":{"name":"boul. Talbot / Laurentides","stopId":"1:51","stopCode":"51","lon":-71.063914,"lat":48.398861,"arrival":1522677159000,"departure":1522677160000,"zoneId":"NA","stopIndex":9,"stopSequence":10,"vertexType":"TRANSIT"},"legGeometry":{"points":"{kjfHn_ypL}@q@|C}Iw@}@aO_QkEsEiAoAgEsFkFsHqJ_N","length":10},"routeShortName":"175","routeLongName":"Term. Chic / Costco","rentedBike":false,"transitLeg":true,"duration":219.0,"steps":[]},{"startTime":1522677160000,"endTime":1522677572000,"departureDelay":0,"arrivalDelay":0,"realTime":false,"distance":539.659,"pathway":false,"mode":"WALK","route":"","agencyTimeZoneOffset":-14400000,"interlineWithPreviousLeg":false,"from":{"name":"boul. Talbot / Laurentides","stopId":"1:51","stopCode":"51","lon":-71.063914,"lat":48.398861,"arrival":1522677159000,"departure":1522677160000,"zoneId":"NA","stopIndex":9,"stopSequence":10,"vertexType":"TRANSIT"},"to":{"name":"Destination","lon":-71.05983299,"lat":48.402885,"arrival":1522677572000,"orig":"","vertexType":"NORMAL"},"legGeometry":{"points":"e|kfH`uvpLGIW]eB_CoCqDqH_H{DqDMKGG","length":9},"rentedBike":false,"transitLeg":false,"duration":412.0,"steps":[{"distance":539.659,"relativeDirection":"DEPART","streetName":"Boulevard Talbot","absoluteDirection":"NORTHEAST","stayOn":false,"area":false,"bogusName":false,"lon":-71.06400548628389,"lat":48.398911410972886,"elevation":[]}]}],"tooSloped":false},{"duration":1940,"startTime":1522675800000,"endTime":1522677740000,"walkTime":1940,"transitTime":0,"waitingTime":0,"walkDistance":2543.582240598398,"walkLimitExceeded":false,"elevationLost":0.0,"elevationGained":0.0,"transfers":0,"legs":[{"startTime":1522675800000,"endTime":1522677740000,"departureDelay":0,"arrivalDelay":0,"realTime":false,"distance":2543.4860000000003,"pathway":false,"mode":"WALK","route":"","agencyTimeZoneOffset":-14400000,"interlineWithPreviousLeg":false,"from":{"name":"Origin","lon":-71.082794,"lat":48.392867,"departure":1522675800000,"orig":"","vertexType":"NORMAL"},"to":{"name":"Destination","lon":-71.05983299,"lat":48.402885,"arrival":1522677740000,"orig":"","vertexType":"NORMAL"},"legGeometry":{"points":"ivjfHbjzpLyBq@{@Y^eEHs@b@mCp@wAR]FMr@gALuBPuA\\mBp@sB^eAjB}EZ_Af@{A`AiCJ[N_@cAkAkGkHmAyAsEkFKMOO}BmCeCuCaHcJwA{BwI{MOQGIW]eB_CoCqDqH_H{DqDMKGG","length":41},"rentedBike":false,"transitLeg":false,"duration":1940.0,"steps":[{"distance":104.914,"relativeDirection":"DEPART","streetName":"Rue du Syrah","absoluteDirection":"NORTH","stayOn":false,"area":false,"bogusName":false,"lon":-71.08273699439184,"lat":48.39285663969286,"elevation":[]},{"distance":720.1030000000001,"relativeDirection":"RIGHT","streetName":"Rue du Sauvignon","absoluteDirection":"EAST","stayOn":false,"area":false,"bogusName":false,"lon":-71.08235660000001,"lat":48.3937657,"elevation":[]},{"distance":1718.4689999999998,"relativeDirection":"LEFT","streetName":"Boulevard Talbot","absoluteDirection":"NORTHEAST","stayOn":false,"area":false,"bogusName":false,"lon":-71.0739954,"lat":48.3906549,"elevation":[]}]}],"tooSloped":false},{"duration":1167,"startTime":1522678205000,"endTime":1522679372000,"walkTime":946,"transitTime":219,"waitingTime":2,"walkDistance":1234.6980300731864,"walkLimitExceeded":false,"elevationLost":0.0,"elevationGained":0.0,"transfers":0,"legs":[{"startTime":1522678205000,"endTime":1522678739000,"departureDelay":0,"arrivalDelay":0,"realTime":false,"distance":694.9770000000001,"pathway":false,"mode":"WALK","route":"","agencyTimeZoneOffset":-14400000,"interlineWithPreviousLeg":false,"from":{"name":"Origin","lon":-71.082794,"lat":48.392867,"departure":1522678205000,"orig":"","vertexType":"NORMAL"},"to":{"name":"nouveau","stopId":"1:2202","stopCode":"2202","lon":-71.075664,"lat":48.391099,"arrival":1522678739000,"departure":1522678740000,"zoneId":"NA","stopIndex":5,"stopSequence":6,"vertexType":"TRANSIT"},"legGeometry":{"points":"ivjfHbjzpLyBq@{@Y^eEHs@b@mCp@wAR]FMr@gALuBPuA\\mBp@sB^eAjB}EZ_A","length":17},"rentedBike":false,"transitLeg":false,"duration":534.0,"steps":[{"distance":104.914,"relativeDirection":"DEPART","streetName":"Rue du Syrah","absoluteDirection":"NORTH","stayOn":false,"area":false,"bogusName":false,"lon":-71.08273699439184,"lat":48.39285663969286,"elevation":[]},{"distance":590.0630000000001,"relativeDirection":"RIGHT","streetName":"Rue du Sauvignon","absoluteDirection":"EAST","stayOn":false,"area":false,"bogusName":false,"lon":-71.08235660000001,"lat":48.3937657,"elevation":[]}]},{"startTime":1522678740000,"endTime":1522678959000,"departureDelay":0,"arrivalDelay":0,"realTime":false,"distance":1291.9458550364989,"pathway":false,"mode":"BUS","route":"175","agencyName":"Société de Transport du Saguenay","agencyUrl":"http://ville.saguenay.ca/fr/services-aux-citoyens/transport-sts","agencyTimeZoneOffset":-14400000,"routeColor":"FF00FF","routeType":3,"routeId":"1:175","routeTextColor":"FFFFFF","interlineWithPreviousLeg":false,"tripBlockId":"9","headsign":"Terminus Chicoutimi","agencyId":"0","tripId":"1:217399","serviceDate":"20180402","from":{"name":"nouveau","stopId":"1:2202","stopCode":"2202","lon":-71.075664,"lat":48.391099,"arrival":1522678739000,"departure":1522678740000,"zoneId":"NA","stopIndex":5,"stopSequence":6,"vertexType":"TRANSIT"},"to":{"name":"boul. Talbot / Laurentides","stopId":"1:51","stopCode":"51","lon":-71.063914,"lat":48.398861,"arrival":1522678959000,"departure":1522678960000,"zoneId":"NA","stopIndex":9,"stopSequence":10,"vertexType":"TRANSIT"},"legGeometry":{"points":"{kjfHn_ypL}@q@|C}Iw@}@aO_QkEsEiAoAgEsFkFsHqJ_N","length":10},"routeShortName":"175","routeLongName":"Term. Chic / Costco","rentedBike":false,"transitLeg":true,"duration":219.0,"steps":[]},{"startTime":1522678960000,"endTime":1522679372000,"departureDelay":0,"arrivalDelay":0,"realTime":false,"distance":539.659,"pathway":false,"mode":"WALK","route":"","agencyTimeZoneOffset":-14400000,"interlineWithPreviousLeg":false,"from":{"name":"boul. Talbot / Laurentides","stopId":"1:51","stopCode":"51","lon":-71.063914,"lat":48.398861,"arrival":1522678959000,"departure":1522678960000,"zoneId":"NA","stopIndex":9,"stopSequence":10,"vertexType":"TRANSIT"},"to":{"name":"Destination","lon":-71.05983299,"lat":48.402885,"arrival":1522679372000,"orig":"","vertexType":"NORMAL"},"legGeometry":{"points":"e|kfH`uvpLGIW]eB_CoCqDqH_H{DqDMKGG","length":9},"rentedBike":false,"transitLeg":false,"duration":412.0,"steps":[{"distance":539.659,"relativeDirection":"DEPART","streetName":"Boulevard Talbot","absoluteDirection":"NORTHEAST","stayOn":false,"area":false,"bogusName":false,"lon":-71.06400548628389,"lat":48.398911410972886,"elevation":[]}]}],"tooSloped":false}]},"debugOutput":{"precalculationTime":33,"pathCalculationTime":18,"pathTimes":[7,7,4],"renderingTime":0,"totalTime":51,"timedOut":false},"elevationMetadata":{"ellipsoidToGeoidDifference":-28.885904201182168,"geoidElevation":false}}