{"requestParameters":{"date":"2018/04/02","walkSpeed":"1.33","walkReluctance":"2.0","fromPlace":"48.420605,-71.045089","maxWalkDistance":"3000","waitReluctance":"1.0","carSpeed":"33","numItineraries":"3","waitAtBeginningFactor":"0.4","mode":"TRANSIT,WALK","ignoreRealtimeUpdates":"false","stairsReluctance":"2.0","toPlace":"48.428097,-71.06920999","time":"7:45:00"},"plan":{"date":1522669500000,"from":{"name":"Origin","lon":-71.045089,"lat":48.420605,"orig":"","vertexType":"NORMAL"},"to":{"name":"Destination","lon":-71.06920999,"lat":48.428097,"orig":"","vertexType":"NORMAL"},"itineraries":[{"duration":1093,"startTime":1522669836000,"endTime":1522670929000,"walkTime":751,"transitTime":340,"waitingTime":2,"walkDistance":968.6789999967734,"walkLimitExceeded":false,"elevationLost":0.0,"elevationGained":0.0,"transfers":0,"legs":[{"startTime":1522669836000,"endTime":1522670479000,"departureDelay":0,"arrivalDelay":0,"realTime":false,"distance":831.531,"pathway":false,"mode":"WALK","route":"","agencyTimeZoneOffset":-14400000,"interlineWithPreviousLeg":false,"from":{"name":"Origin","lon":-71.045089,"lat":48.420605,"departure":1522669836000,"orig":"","vertexType":"NORMAL"},"to":{"name":"Résidence de l' UQAC","stopId":"1:1928","stopCode":"1928","lon":-71.052293,"lat":48.421532,"arrival":1522670479000,"departure":1522670480000,"zoneId":"NA","stopIndex":30,"stopSequence":31,"vertexType":"TRANSIT"},"legGeometry":{"points":"kcpfHf_spLgAzCoBnFSj@o@bBm@dBo@vA]`@aA~@GDi@f@}@Xs@DSx@I`@Cf@JHd@ZJFXNV^h@l@ZVb@`@nAlAVPRPb@^TRLJTT@@","length":32},"rentedBike":false,"transitLeg":false,"duration":643.0,"steps":[{"distance":493.13199999999995,"relativeDirection":"DEPART","streetName":"Chemin Sydenham","absoluteDirection":"NORTHWEST","stayOn":false,"area":false,"bogusName":false,"lon":-71.04515775579951,"lat":48.42054130015632,"elevation":[]},{"distance":52.897,"relativeDirection":"LEFT","streetName":"path","absoluteDirection":"NORTHWEST","stayOn":false,"area":false,"bogusName":true,"lon":-71.0496871,"lat":48.42357620000001,"elevation":[]},{"distance":223.10899999999998,"relativeDirection":"LEFT","streetName":"road","absoluteDirection":"SOUTHWEST","stayOn":true,"area":false,"bogusName":true,"lon":-71.0503491,"lat":48.423747000000006,"elevation":[]},{"distance":62.393,"relativeDirection":"CONTINUE","streetName":"Chemin Saint Thomas","absoluteDirection":"SOUTHWEST","stayOn":false,"area":false,"bogusName":false,"lon":-71.051902,"lat":48.4220343,"elevation":[]}]},{"startTime":1522670480000,"endTime":1522670820000,"departureDelay":0,"arrivalDelay":0,"realTime":false,"distance":1625.6004967681179,"pathway":false,"mode":"BUS","route":"15","agencyName":"Société de Transport du Saguenay","agencyUrl":"http://ville.saguenay.ca/fr/services-aux-citoyens/transport-sts","agencyTimeZoneOffset":-14400000,"routeColor":"FF00FF","routeType":3,"routeId":"1:15","routeTextColor":"FFFFFF","interlineWithPreviousLeg":false,"tripBlockId":"32","headsign":"Terminus Chicoutimi","agencyId":"0","tripId":"1:218149","serviceDate":"20180402","from":{"name":"Résidence de l' UQAC","stopId":"1:1928","stopCode":"1928","lon":-71.052293,"lat":48.421532,"arrival":1522670479000,"departure":1522670480000,"zoneId":"NA","stopIndex":30,"stopSequence":31,"vertexType":"TRANSIT"},"to":{"name":"Sainte-Anne / Racine","stopId":"1:558","stopCode":"558","lon":-71.068444,"lat":48.427369,"arrival":1522670820000,"departure":1522670821000,"zoneId":"NA","stopIndex":38,"stopSequence":39,"vertexType":"TRANSIT"},"legGeometry":{"points":"wipfHfltpL_B_B_EpLDh@NbBVvCIxBg@`Am@l@Sb@a@rAqDqDmEkE]a@kAqAU|@WnKG|DGxDOdPKvJU|F?XQlJC~@ChAIzEcCO","length":28},"routeShortName":"15","routeLongName":"Term. Chic / Costco","rentedBike":false,"transitLeg":true,"duration":340.0,"steps":[]},{"startTime":1522670821000,"endTime":1522670929000,"departureDelay":0,"arrivalDelay":0,"realTime":false,"distance":137.048,"pathway":false,"mode":"WALK","route":"","agencyTimeZoneOffset":-14400000,"interlineWithPreviousLeg":false,"from":{"name":"Sainte-Anne / Racine","stopId":"1:558","stopCode":"558","lon":-71.068444,"lat":48.427369,"arrival":1522670820000,"departure":1522670821000,"zoneId":"NA","stopIndex":38,"stopSequence":39,"vertexType":"TRANSIT"},"to":{"name":"Destination","lon":-71.06920999,"lat":48.428097,"arrival":1522670929000,"orig":"","vertexType":"NORMAL"},"legGeometry":{"points":"anqfHhqwpLGAg@C}AKErA?ZCh@","length":7},"rentedBike":false,"transitLeg":false,"duration":108.0,"steps":[{"distance":79.616,"relativeDirection":"DEPART","streetName":"Rue Sainte-Anne","absoluteDirection":"NORTH","stayOn":false,"area":false,"bogusName":false,"lon":-71.06852127104082,"lat":48.427371387668245,"elevation":[]},{"distance":57.432,"relativeDirection":"LEFT","streetName":"Rue Racine Ouest","absoluteDirection":"WEST","stayOn":false,"area":false,"bogusName":false,"lon":-71.06843,"lat":48.42808470000001,"elevation":[]}]}],"tooSloped":false},{"duration":718,"startTime":1522670549000,"endTime":1522671267000,"walkTime":271,"transitTime":445,"waitingTime":2,"walkDistance":348.3660902243994,"walkLimitExceeded":false,"elevationLost":0.0,"elevationGained":0.0,"transfers":0,"legs":[{"startTime":1522670549000,"endTime":1522670554000,"departureDelay":0,"arrivalDelay":0,"realTime":false,"distance":6.016,"pathway":false,"mode":"WALK","route":"","agencyTimeZoneOffset":-14400000,"interlineWithPreviousLeg":false,"from":{"name":"Origin","lon":-71.045089,"lat":48.420605,"departure":1522670549000,"orig":"","vertexType":"NORMAL"},"to":{"name":"nouveau","stopId":"1:2287","stopCode":"2287","lon":-71.044979,"lat":48.420614,"arrival":1522670554000,"departure":1522670555000,"zoneId":"NA","stopIndex":12,"stopSequence":13,"vertexType":"TRANSIT"},"legGeometry":{"points":"kcpfHf_spLFK","length":2},"rentedBike":false,"transitLeg":false,"duration":5.0,"steps":[{"distance":6.016,"relativeDirection":"DEPART","streetName":"Chemin Sydenham","absoluteDirection":"SOUTHEAST","stayOn":false,"area":false,"bogusName":false,"lon":-71.04515775579951,"lat":48.42054130015632,"elevation":[]}]},{"startTime":1522670555000,"endTime":1522671000000,"departureDelay":0,"arrivalDelay":0,"realTime":false,"distance":1996.6271468825676,"pathway":false,"mode":"BUS","route":"10","agencyName":"Société de Transport du Saguenay","agencyUrl":"http://ville.saguenay.ca/fr/services-aux-citoyens/transport-sts","agencyTimeZoneOffset":-14400000,"routeColor":"0000FF","routeType":3,"routeId":"1:10","routeTextColor":"FFFFFF","interlineWithPreviousLeg":false,"tripBlockId":"28","headsign":"Terminus Chicoutimi","agencyId":"0","tripId":"1:218028","serviceDate":"20180402","from":{"name":"nouveau","stopId":"1:2287","stopCode":"2287","lon":-71.044979,"lat":48.420614,"arrival":1522670554000,"departure":1522670555000,"zoneId":"NA","stopIndex":12,"stopSequence":13,"vertexType":"TRANSIT"},"to":{"name":"Terminus Chicoutimi","stopId":"1:1289","stopCode":"1289","lon":-71.066163,"lat":48.428677,"arrival":1522671000000,"departure":1522671001000,"zoneId":"NA","stopIndex":21,"stopSequence":22,"vertexType":"TRANSIT"},"legGeometry":{"points":"_cpfH~~rpLaEvK_BhE}AfD{BdByBh@iC]oDq@YbF_Ea@AAuEg@MDENF|GAjJDzBDdDLdHFbCo@RUFRbFG|FApAMvFa@tPOnHqBOIjDc@Q","length":31},"routeShortName":"10","routeLongName":"Notre-Dame du Saguenay","rentedBike":false,"transitLeg":true,"duration":445.0,"steps":[]},{"startTime":1522671001000,"endTime":1522671267000,"departureDelay":0,"arrivalDelay":0,"realTime":false,"distance":342.314,"pathway":false,"mode":"WALK","route":"","agencyTimeZoneOffset":-14400000,"interlineWithPreviousLeg":false,"from":{"name":"Terminus Chicoutimi","stopId":"1:1289","stopCode":"1289","lon":-71.066163,"lat":48.428677,"arrival":1522671000000,"departure":1522671001000,"zoneId":"NA","stopIndex":21,"stopSequence":22,"vertexType":"TRANSIT"},"to":{"name":"Destination","lon":-71.06920999,"lat":48.428097,"arrival":1522671267000,"orig":"","vertexType":"NORMAL"},"legGeometry":{"points":"{uqfHb~vpLbAJR@JDb@LQtGAv@Aj@EvDErA?ZCh@","length":12},"rentedBike":false,"transitLeg":false,"duration":266.0,"steps":[{"distance":77.207,"relativeDirection":"DEPART","streetName":"Rue Morin","absoluteDirection":"SOUTH","stayOn":false,"area":false,"bogusName":false,"lon":-71.0654590096484,"lat":48.428628638946556,"elevation":[]},{"distance":207.675,"relativeDirection":"RIGHT","streetName":"Rue Racine Est","absoluteDirection":"WEST","stayOn":false,"area":false,"bogusName":false,"lon":-71.0656238,"lat":48.4279449,"elevation":[]},{"distance":57.432,"relativeDirection":"CONTINUE","streetName":"Rue Racine Ouest","absoluteDirection":"WEST","stayOn":false,"area":false,"bogusName":false,"lon":-71.06843,"lat":48.42808470000001,"elevation":[]}]}],"tooSloped":false},{"duration":718,"startTime":1522672349000,"endTime":1522673067000,"walkTime":271,"transitTime":445,"waitingTime":2,"walkDistance":348.3660902243994,"walkLimitExceeded":false,"elevationLost":0.0,"elevationGained":0.0,"transfers":0,"legs":[{"startTime":1522672349000,"endTime":1522672354000,"departureDelay":0,"arrivalDelay":0,"realTime":false,"distance":6.016,"pathway":false,"mode":"WALK","route":"","agencyTimeZoneOffset":-14400000,"interlineWithPreviousLeg":false,"from":{"name":"Origin","lon":-71.045089,"lat":48.420605,"departure":1522672349000,"orig":"","vertexType":"NORMAL"},"to":{"name":"nouveau","stopId":"1:2287","stopCode":"2287","lon":-71.044979,"lat":48.420614,"arrival":1522672354000,"departure":1522672355000,"zoneId":"NA","stopIndex":12,"stopSequence":13,"vertexType":"TRANSIT"},"legGeometry":{"points":"kcpfHf_spLFK","length":2},"rentedBike":false,"transitLeg":false,"duration":5.0,"steps":[{"distance":6.016,"relativeDirection":"DEPART","streetName":"Chemin Sydenham","absoluteDirection":"SOUTHEAST","stayOn":false,"area":false,"bogusName":false,"lon":-71.04515775579951,"lat":48.42054130015632,"elevation":[]}]},{"startTime":1522672355000,"endTime":1522672800000,"departureDelay":0,"arrivalDelay":0,"realTime":false,"distance":1996.6271468825676,"pathway":false,"mode":"BUS","route":"10","agencyName":"Société de Transport du Saguenay","agencyUrl":"http://ville.saguenay.ca/fr/services-aux-citoyens/transport-sts","agencyTimeZoneOffset":-14400000,"routeColor":"0000FF","routeType":3,"routeId":"1:10","routeTextColor":"FFFFFF","interlineWithPreviousLeg":false,"tripBlockId":"27","headsign":"Terminus Chicoutimi","agencyId":"0","tripId":"1:218003","serviceDate":"20180402","from":{"name":"nouveau","stopId":"1:2287","stopCode":"2287","lon":-71.044979,"lat":48.420614,"arrival":1522672354000,"departure":1522672355000,"zoneId":"NA","stopIndex":12,"stopSequence":13,"vertexType":"TRANSIT"},"to":{"name":"Terminus Chicoutimi","stopId":"1:1289","stopCode":"1289","lon":-71.066163,"lat":48.428677,"arrival":1522672800000,"departure":1522672801000,"zoneId":"NA","stopIndex":21,"stopSequence":22,"vertexType":"TRANSIT"},"legGeometry":{"points":"_cpfH~~rpLaEvK_BhE}AfD{BdByBh@iC]oDq@YbF_Ea@AAuEg@MDENF|GAjJDzBDdDLdHFbCo@RUFRbFG|FApAMvFa@tPOnHqBOIjDc@Q","length":31},"routeShortName":"10","routeLongName":"Notre-Dame du Saguenay","rentedBike":false,"transitLeg":true,"duration":445.0,"steps":[]},{"startTime":1522672801000,"endTime":1522673067000,"departureDelay":0,"arrivalDelay":0,"realTime":false,"distance":342.314,"pathway":false,"mode":"WALK","route":"","agencyTimeZoneOffset":-14400000,"interlineWithPreviousLeg":false,"from":{"name":"Terminus Chicoutimi","stopId":"1:1289","stopCode":"1289","lon":-71.066163,"lat":48.428677,"arrival":1522672800000,"departure":1522672801000,"zoneId":"NA","stopIndex":21,"stopSequence":22,"vertexType":"TRANSIT"},"to":{"name":"Destination","lon":-71.06920999,"lat":48.428097,"arrival":1522673067000,"orig":"","vertexType":"NORMAL"},"legGeometry":{"points":"{uqfHb~vpLbAJR@JDb@LQtGAv@Aj@EvDErA?ZCh@","length":12},"rentedBike":false,"transitLeg":false,"duration":266.0,"steps":[{"distance":77.207,"relativeDirection":"DEPART","streetName":"Rue Morin","absoluteDirection":"SOUTH","stayOn":false,"area":false,"bogusName":false,"lon":-71.0654590096484,"lat":48.428628638946556,"elevation":[]},{"distance":207.675,"relativeDirection":"RIGHT","streetName":"Rue Racine Est","absoluteDirection":"WEST","stayOn":false,"area":false,"bogusName":false,"lon":-71.0656238,"lat":48.4279449,"elevation":[]},{"distance":57.432,"relativeDirection":"CONTINUE","streetName":"Rue Racine Ouest","absoluteDirection":"WEST","stayOn":false,"area":false,"bogusName":false,"lon":-71.06843,"lat":48.42808470000001,"elevation":[]}]}],"tooSloped":false}]},"debugOutput":{"precalculationTime":54,"pathCalculationTime":39,"pathTimes":[20,10,9],"renderingTime":0,"totalTime":93,"timedOut":false},"elevationMetadata":{"ellipsoidToGeoidDifference":-28.885904201182168,"geoidElevation":false}}