{"requestParameters":{"date":"2018/04/02","walkSpeed":"1.33","walkReluctance":"2.0","fromPlace":"48.418729,-71.053021","maxWalkDistance":"3000","waitReluctance":"1.0","carSpeed":"33","numItineraries":"3","waitAtBeginningFactor":"0.4","mode":"TRANSIT,WALK","ignoreRealtimeUpdates":"false","stairsReluctance":"2.0","toPlace":"48.416172,-71.03613","time":"17:0:00"},"plan":{"date":1522702800000,"from":{"name":"Origin","lon":-71.053021,"lat":48.418729,"orig":"","vertexType":"NORMAL"},"to":{"name":"Destination","lon":-71.03613,"lat":48.416172,"orig":"","vertexType":"NORMAL"},"itineraries":[{"duration":1221,"startTime":1522702800000,"endTime":1522704021000,"walkTime":1221,"transitTime":0,"waitingTime":0,"walkDistance":1562.447601495996,"walkLimitExceeded":false,"elevationLost":0.0,"elevationGained":0.0,"transfers":0,"legs":[{"startTime":1522702800000,"endTime":1522704021000,"departureDelay":0,"arrivalDelay":0,"realTime":false,"distance":1562.2070000000003,"pathway":false,"mode":"WALK","route":"","agencyTimeZoneOffset":-14400000,"interlineWithPreviousLeg":false,"from":{"name":"Origin","lon":-71.053021,"lat":48.418729,"departure":1522702800000,"orig":"","vertexType":"NORMAL"},"to":{"name":"Destination","lon":-71.03613,"lat":48.416172,"arrival":1522704021000,"orig":"","vertexType":"NORMAL"},"legGeometry":{"points":"mwofHbotpLd@f@DGKYJYpAmDVu@z@iCpCiIlAsDvAuDNa@Nc@HW^aA|A{EbAyCZoARsA@ILsA@i@OgBg@qBm@s@IKqAoAb@uB@a@Ge@Wo@}@aAQUyAqA^gAf@cBuC{CCSPo@jAmDLK??","length":42},"rentedBike":false,"transitLeg":false,"duration":1221.0,"steps":[{"distance":30.223,"relativeDirection":"DEPART","streetName":"path","absoluteDirection":"SOUTHWEST","stayOn":false,"area":false,"bogusName":false,"lon":-71.05281450938897,"lat":48.41863935175929,"elevation":[]},{"distance":11.392,"relativeDirection":"HARD_LEFT","streetName":"Rue de la Fondation","absoluteDirection":"NORTHEAST","stayOn":false,"area":false,"bogusName":false,"lon":-71.05297080000001,"lat":48.4184196,"elevation":[]},{"distance":1019.277,"relativeDirection":"RIGHT","streetName":"Rue Chabanel","absoluteDirection":"SOUTHEAST","stayOn":false,"area":false,"bogusName":false,"lon":-71.05284470000001,"lat":48.4184787,"elevation":[]},{"distance":211.18899999999996,"relativeDirection":"RIGHT","streetName":"Rue D'Argenson","absoluteDirection":"SOUTHEAST","stayOn":false,"area":false,"bogusName":false,"lon":-71.0414409,"lat":48.415486900000005,"elevation":[]},{"distance":74.458,"relativeDirection":"RIGHT","streetName":"Rue Pierre-Bédard","absoluteDirection":"SOUTHEAST","stayOn":false,"area":false,"bogusName":false,"lon":-71.0394002,"lat":48.4163058,"elevation":[]},{"distance":215.668,"relativeDirection":"LEFT","streetName":"Rue de Tracy","absoluteDirection":"NORTHEAST","stayOn":false,"area":false,"bogusName":false,"lon":-71.0385474,"lat":48.4159482,"elevation":[]}]}],"tooSloped":false},{"duration":1137,"startTime":1522703601000,"endTime":1522704738000,"walkTime":597,"transitTime":538,"waitingTime":2,"walkDistance":756.6610977398726,"walkLimitExceeded":false,"elevationLost":0.0,"elevationGained":0.0,"transfers":0,"legs":[{"startTime":1522703601000,"endTime":1522703879000,"departureDelay":0,"arrivalDelay":0,"realTime":false,"distance":348.519,"pathway":false,"mode":"WALK","route":"","agencyTimeZoneOffset":-14400000,"interlineWithPreviousLeg":false,"from":{"name":"Origin","lon":-71.053021,"lat":48.418729,"departure":1522703601000,"orig":"","vertexType":"NORMAL"},"to":{"name":"Terminus UQAC","stopId":"1:1670","stopCode":"1670","lon":-71.053369,"lat":48.420903,"arrival":1522703879000,"departure":1522703880000,"zoneId":"NA","stopIndex":0,"stopSequence":1,"vertexType":"TRANSIT"},"legGeometry":{"points":"mwofHbotpLwBuBCA_AaAq@XYz@Ur@e@vAg@vAUp@cAaA","length":11},"rentedBike":false,"transitLeg":false,"duration":278.0,"steps":[{"distance":281.082,"relativeDirection":"DEPART","streetName":"path","absoluteDirection":"NORTHEAST","stayOn":false,"area":false,"bogusName":false,"lon":-71.05281450938897,"lat":48.41863935175929,"elevation":[]},{"distance":67.437,"relativeDirection":"CONTINUE","streetName":"service road","absoluteDirection":"NORTHWEST","stayOn":false,"area":false,"bogusName":true,"lon":-71.05345460000001,"lat":48.4204518,"elevation":[]}]},{"startTime":1522703880000,"endTime":1522704418000,"departureDelay":0,"arrivalDelay":0,"realTime":false,"distance":1614.4541481282151,"pathway":false,"mode":"BUS","route":"10","agencyName":"Société de Transport du Saguenay","agencyUrl":"http://ville.saguenay.ca/fr/services-aux-citoyens/transport-sts","agencyTimeZoneOffset":-14400000,"routeColor":"0000FF","routeType":3,"routeId":"1:10","routeTextColor":"FFFFFF","interlineWithPreviousLeg":false,"tripBlockId":"27","headsign":"Terminus Chicoutimi","agencyId":"0","tripId":"1:218021","serviceDate":"20180402","from":{"name":"Terminus UQAC","stopId":"1:1670","stopCode":"1670","lon":-71.053369,"lat":48.420903,"arrival":1522703879000,"departure":1522703880000,"zoneId":"NA","stopIndex":0,"stopSequence":1,"vertexType":"TRANSIT"},"to":{"name":"nouveau","stopId":"1:2292","stopCode":"2292","lon":-71.039883,"lat":48.416961,"arrival":1522704418000,"departure":1522704419000,"zoneId":"NA","stopIndex":5,"stopSequence":6,"vertexType":"TRANSIT"},"legGeometry":{"points":"sepfHtrtpLbA`ATs@hEnDRlGbBbHtMcLsBsDkBcBkD}CvDkK`IuU`WjXhCsHqJ_K{BaCsB{B}AeCu@oAXu@hAoDP_BP{AQmCg@mB_BiBeBaBqFeF","length":28},"routeShortName":"10","routeLongName":"Notre-Dame du Saguenay","rentedBike":false,"transitLeg":true,"duration":538.0,"steps":[]},{"startTime":1522704419000,"endTime":1522704738000,"departureDelay":0,"arrivalDelay":0,"realTime":false,"distance":408.00300000000004,"pathway":false,"mode":"WALK","route":"","agencyTimeZoneOffset":-14400000,"interlineWithPreviousLeg":false,"from":{"name":"nouveau","stopId":"1:2292","stopCode":"2292","lon":-71.039883,"lat":48.416961,"arrival":1522704418000,"departure":1522704419000,"zoneId":"NA","stopIndex":5,"stopSequence":6,"vertexType":"TRANSIT"},"to":{"name":"Destination","lon":-71.03613,"lat":48.416172,"arrival":1522704738000,"orig":"","vertexType":"NORMAL"},"legGeometry":{"points":"gmofHz~qpLDD??l@v@vAoD^gAf@cBuC{CCSPo@jAmDLK??","length":13},"rentedBike":false,"transitLeg":false,"duration":319.0,"steps":[{"distance":36.558,"relativeDirection":"DEPART","streetName":"Rue Chabanel","absoluteDirection":"SOUTHWEST","stayOn":false,"area":false,"bogusName":false,"lon":-71.03997825155321,"lat":48.41700160612007,"elevation":[]},{"distance":155.777,"relativeDirection":"LEFT","streetName":"Rue Pierre-Bédard","absoluteDirection":"SOUTHEAST","stayOn":false,"area":false,"bogusName":false,"lon":-71.04028360000001,"lat":48.4167429,"elevation":[]},{"distance":215.668,"relativeDirection":"LEFT","streetName":"Rue de Tracy","absoluteDirection":"NORTHEAST","stayOn":false,"area":false,"bogusName":false,"lon":-71.0385474,"lat":48.4159482,"elevation":[]}]}],"tooSloped":false},{"duration":1271,"startTime":1522703533000,"endTime":1522704804000,"walkTime":894,"transitTime":375,"waitingTime":2,"walkDistance":1105.0863458521308,"walkLimitExceeded":false,"elevationLost":0.0,"elevationGained":0.0,"transfers":0,"legs":[{"startTime":1522703533000,"endTime":1522704112000,"departureDelay":0,"arrivalDelay":0,"realTime":false,"distance":700.795,"pathway":false,"mode":"WALK","route":"","agencyTimeZoneOffset":-14400000,"interlineWithPreviousLeg":false,"from":{"name":"Origin","lon":-71.053021,"lat":48.418729,"departure":1522703533000,"orig":"","vertexType":"NORMAL"},"to":{"name":"nouveau","stopId":"1:2284","stopCode":"2284","lon":-71.04764,"lat":48.421469,"arrival":1522704112000,"departure":1522704113000,"zoneId":"NA","stopIndex":7,"stopSequence":8,"vertexType":"TRANSIT"},"legGeometry":{"points":"mwofHbotpLwBuBCA_AaATIQQSSCCw@w@u@u@UU_A{@Po@Lg@Tu@[]Ne@Jg@_@i@QMMGKOGOESCUAK@KCIBMEIBGIGBGIMBIQUIQGSCBC?E?EACCCEAGCQEUUS","length":48},"alerts":[{"alertHeaderText":"Unpaved surface"}],"rentedBike":false,"transitLeg":false,"duration":579.0,"steps":[{"distance":137.92600000000002,"relativeDirection":"DEPART","streetName":"path","absoluteDirection":"NORTHEAST","stayOn":false,"area":false,"bogusName":false,"lon":-71.05281450938897,"lat":48.41863935175929,"elevation":[]},{"distance":115.507,"relativeDirection":"HARD_LEFT","streetName":"Rue de la Fondation","absoluteDirection":"NORTHEAST","stayOn":false,"area":false,"bogusName":false,"lon":-71.0518321,"lat":48.419468900000005,"elevation":[]},{"distance":120.789,"relativeDirection":"CONTINUE","streetName":"service road","absoluteDirection":"NORTHEAST","stayOn":false,"area":false,"bogusName":true,"lon":-71.0509657,"lat":48.420334000000004,"elevation":[]},{"distance":32.842,"relativeDirection":"RIGHT","streetName":"service road","absoluteDirection":"SOUTHEAST","stayOn":true,"area":false,"bogusName":true,"lon":-71.049807,"lat":48.420520200000006,"elevation":[]},{"distance":243.322,"relativeDirection":"LEFT","streetName":"path","absoluteDirection":"NORTHEAST","stayOn":true,"area":false,"bogusName":true,"lon":-71.0494152,"lat":48.4203801,"elevation":[],"alerts":[{"alertHeaderText":"Unpaved surface"}]},{"distance":50.40899999999999,"relativeDirection":"LEFT","streetName":"Rue Bécard","absoluteDirection":"NORTH","stayOn":false,"area":false,"bogusName":false,"lon":-71.04789620000001,"lat":48.421103300000006,"elevation":[]}]},{"startTime":1522704113000,"endTime":1522704488000,"departureDelay":0,"arrivalDelay":0,"realTime":false,"distance":1977.5868514455615,"pathway":false,"mode":"BUS","route":"10","agencyName":"Société de Transport du Saguenay","agencyUrl":"http://ville.saguenay.ca/fr/services-aux-citoyens/transport-sts","agencyTimeZoneOffset":-14400000,"routeColor":"0000FF","routeType":3,"routeId":"1:10","routeTextColor":"FFFFFF","interlineWithPreviousLeg":false,"tripBlockId":"29","headsign":"Terminus UQAC","agencyId":"0","tripId":"1:218073","serviceDate":"20180402","from":{"name":"nouveau","stopId":"1:2284","stopCode":"2284","lon":-71.04764,"lat":48.421469,"arrival":1522704112000,"departure":1522704113000,"zoneId":"NA","stopIndex":7,"stopSequence":8,"vertexType":"TRANSIT"},"to":{"name":"Chabanel / Pierre-Bédard","stopId":"1:352","stopCode":"352","lon":-71.040109,"lat":48.417024,"arrival":1522704488000,"departure":1522704489000,"zoneId":"NA","stopIndex":16,"stopSequence":17,"vertexType":"TRANSIT"},"legGeometry":{"points":"_jpfHzmspLbFqN`CwG_J_CwMiDGe@T}C\\yELaCJeAJcAXw@Fk@M_@xBwVr@^LJ|@z@HdAlBbD`Av@b@\\v@d@`@BpBAzAXl@t@XZt@lCl@tAnBpB~@~@lDjD","length":33},"routeShortName":"10","routeLongName":"Notre-Dame du Saguenay","rentedBike":false,"transitLeg":true,"duration":375.0,"steps":[]},{"startTime":1522704489000,"endTime":1522704804000,"departureDelay":0,"arrivalDelay":0,"realTime":false,"distance":403.903,"pathway":false,"mode":"WALK","route":"","agencyTimeZoneOffset":-14400000,"interlineWithPreviousLeg":false,"from":{"name":"Chabanel / Pierre-Bédard","stopId":"1:352","stopCode":"352","lon":-71.040109,"lat":48.417024,"arrival":1522704488000,"departure":1522704489000,"zoneId":"NA","stopIndex":16,"stopSequence":17,"vertexType":"TRANSIT"},"to":{"name":"Destination","lon":-71.03613,"lat":48.416172,"arrival":1522704804000,"orig":"","vertexType":"NORMAL"},"legGeometry":{"points":"amofH`_rpLl@v@vAoD^gAf@cBuC{CCSPo@jAmDLK??","length":11},"rentedBike":false,"transitLeg":false,"duration":315.0,"steps":[{"distance":32.458,"relativeDirection":"DEPART","streetName":"Rue Chabanel","absoluteDirection":"SOUTHWEST","stayOn":false,"area":false,"bogusName":false,"lon":-71.04000893735899,"lat":48.41697090142696,"elevation":[]},{"distance":155.777,"relativeDirection":"LEFT","streetName":"Rue Pierre-Bédard","absoluteDirection":"SOUTHEAST","stayOn":false,"area":false,"bogusName":false,"lon":-71.04028360000001,"lat":48.4167429,"elevation":[]},{"distance":215.668,"relativeDirection":"LEFT","streetName":"Rue de Tracy","absoluteDirection":"NORTHEAST","stayOn":false,"area":false,"bogusName":false,"lon":-71.0385474,"lat":48.4159482,"elevation":[]}]}],"tooSloped":false}]},"debugOutput":{"precalculationTime":44,"pathCalculationTime":33,"pathTimes":[18,7,8],"renderingTime":1,"totalTime":78,"timedOut":false},"elevationMetadata":{"ellipsoidToGeoidDifference":-28.885904201182168,"geoidElevation":false}}