{"requestParameters":{"date":"2018/04/02","walkSpeed":"1.33","walkReluctance":"2.0","fromPlace":"48.408707,-71.05524699","maxWalkDistance":"3000","waitReluctance":"1.0","carSpeed":"33","numItineraries":"3","waitAtBeginningFactor":"0.4","mode":"TRANSIT,WALK","ignoreRealtimeUpdates":"false","stairsReluctance":"2.0","toPlace":"48.398402,-71.065791","time":"13:30:00"},"plan":{"date":1522690200000,"from":{"name":"Origin","lon":-71.05524699,"lat":48.408707,"orig":"","vertexType":"NORMAL"},"to":{"name":"Destination","lon":-71.065791,"lat":48.398402,"orig":"","vertexType":"NORMAL"},"itineraries":[{"duration":1058,"startTime":1522690200000,"endTime":1522691258000,"walkTime":1058,"transitTime":0,"waitingTime":0,"walkDistance":1394.9881353382127,"walkLimitExceeded":false,"elevationLost":0.0,"elevationGained":0.0,"transfers":0,"legs":[{"startTime":1522690200000,"endTime":1522691258000,"departureDelay":0,"arrivalDelay":0,"realTime":false,"distance":1394.9840000000002,"pathway":false,"mode":"WALK","route":"","agencyTimeZoneOffset":-14400000,"interlineWithPreviousLeg":false,"from":{"name":"Origin","lon":-71.05524699,"lat":48.408707,"departure":1522690200000,"orig":"","vertexType":"NORMAL"},"to":{"name":"Destination","lon":-71.065791,"lat":48.398402,"arrival":1522691258000,"orig":"","vertexType":"NORMAL"},"legGeometry":{"points":"exmfHn{tpL`A~@NNjEzD`A~@pD|CJHtAlAtEjEjF~EPPVTfDbDjAhAvBtBbC`Cn@v@t@`AhCfDLN`@h@hDhF","length":22},"rentedBike":false,"transitLeg":false,"duration":1058.0,"steps":[{"distance":1394.9840000000002,"relativeDirection":"DEPART","streetName":"Boulevard Talbot","absoluteDirection":"SOUTHWEST","stayOn":false,"area":false,"bogusName":false,"lon":-71.05479494405348,"lat":48.408512028291746,"elevation":[]}]}],"tooSloped":false},{"duration":808,"startTime":1522691614000,"endTime":1522692422000,"walkTime":490,"transitTime":316,"waitingTime":2,"walkDistance":630.4345413512362,"walkLimitExceeded":false,"elevationLost":0.0,"elevationGained":0.0,"transfers":0,"legs":[{"startTime":1522691614000,"endTime":1522691988000,"departureDelay":0,"arrivalDelay":0,"realTime":false,"distance":477.387,"pathway":false,"mode":"WALK","route":"","agencyTimeZoneOffset":-14400000,"interlineWithPreviousLeg":false,"from":{"name":"Origin","lon":-71.05524699,"lat":48.408707,"departure":1522691614000,"orig":"","vertexType":"NORMAL"},"to":{"name":"Émile Girardin / Roitelets","stopId":"1:253","stopCode":"253","lon":-71.050677,"lat":48.406726,"arrival":1522691988000,"departure":1522691989000,"zoneId":"NA","stopIndex":17,"stopSequence":18,"vertexType":"TRANSIT"},"legGeometry":{"points":"exmfHn{tpL`A~@NNNa@HSj@_Br@qB`A_DNc@PUfAuAbAaA{@qEGo@AGAK","length":16},"rentedBike":false,"transitLeg":false,"duration":374.0,"steps":[{"distance":54.431,"relativeDirection":"DEPART","streetName":"Boulevard Talbot","absoluteDirection":"SOUTHWEST","stayOn":false,"area":false,"bogusName":false,"lon":-71.05479494405348,"lat":48.408512028291746,"elevation":[]},{"distance":312.858,"relativeDirection":"LEFT","streetName":"Rue des Champs-Élysées","absoluteDirection":"SOUTHEAST","stayOn":false,"area":false,"bogusName":false,"lon":-71.0551966,"lat":48.4081015,"elevation":[]},{"distance":110.09799999999998,"relativeDirection":"LEFT","streetName":"Rue Émile-Girardin","absoluteDirection":"NORTHEAST","stayOn":false,"area":false,"bogusName":false,"lon":-71.05202630000001,"lat":48.4062974,"elevation":[]}]},{"startTime":1522691989000,"endTime":1522692305000,"departureDelay":0,"arrivalDelay":0,"realTime":false,"distance":1949.8505048011605,"pathway":false,"mode":"BUS","route":"175","agencyName":"Société de Transport du Saguenay","agencyUrl":"http://ville.saguenay.ca/fr/services-aux-citoyens/transport-sts","agencyTimeZoneOffset":-14400000,"routeColor":"FF00FF","routeType":3,"routeId":"1:175","routeTextColor":"FFFFFF","interlineWithPreviousLeg":false,"tripBlockId":"8","headsign":"Costco","agencyId":"0","tripId":"1:217371","serviceDate":"20180402","from":{"name":"Émile Girardin / Roitelets","stopId":"1:253","stopCode":"253","lon":-71.050677,"lat":48.406726,"arrival":1522691988000,"departure":1522691989000,"zoneId":"NA","stopIndex":17,"stopSequence":18,"vertexType":"TRANSIT"},"to":{"name":"boul. Talbot (no. 1749)","stopId":"1:87","stopCode":"87","lon":-71.066836,"lat":48.397168,"arrival":1522692305000,"departure":1522692306000,"zoneId":"NA","stopIndex":23,"stopSequence":24,"vertexType":"TRANSIT"},"legGeometry":{"points":"_lmfHhatpLr@~Gx@]PEr@ObACn@FrBb@|@Ch@Kx@U~HsB^KZ|DJpII~Fa@rFUzBi@bDUxAm@nCcAlDM^RTfD`DjF`FjCrCrAvAbCfDjIfMdAzA","length":31},"routeShortName":"175","routeLongName":"Term. Chic / Costco","rentedBike":false,"transitLeg":true,"duration":316.0,"steps":[]},{"startTime":1522692306000,"endTime":1522692422000,"departureDelay":0,"arrivalDelay":0,"realTime":false,"distance":152.981,"pathway":false,"mode":"WALK","route":"","agencyTimeZoneOffset":-14400000,"interlineWithPreviousLeg":false,"from":{"name":"boul. Talbot (no. 1749)","stopId":"1:87","stopCode":"87","lon":-71.066836,"lat":48.397168,"arrival":1522692305000,"departure":1522692306000,"zoneId":"NA","stopIndex":23,"stopSequence":24,"vertexType":"TRANSIT"},"to":{"name":"Destination","lon":-71.065791,"lat":48.398402,"arrival":1522692422000,"orig":"","vertexType":"NORMAL"},"legGeometry":{"points":"_qkfHhfwpLMQ}DeG","length":3},"rentedBike":false,"transitLeg":false,"duration":116.0,"steps":[{"distance":152.981,"relativeDirection":"DEPART","streetName":"Boulevard Talbot","absoluteDirection":"NORTHEAST","stayOn":false,"area":false,"bogusName":false,"lon":-71.06676545512337,"lat":48.3971283699625,"elevation":[]}]}],"tooSloped":false},{"duration":808,"startTime":1522693414000,"endTime":1522694222000,"walkTime":490,"transitTime":316,"waitingTime":2,"walkDistance":630.4345413512362,"walkLimitExceeded":false,"elevationLost":0.0,"elevationGained":0.0,"transfers":0,"legs":[{"startTime":1522693414000,"endTime":1522693788000,"departureDelay":0,"arrivalDelay":0,"realTime":false,"distance":477.387,"pathway":false,"mode":"WALK","route":"","agencyTimeZoneOffset":-14400000,"interlineWithPreviousLeg":false,"from":{"name":"Origin","lon":-71.05524699,"lat":48.408707,"departure":1522693414000,"orig":"","vertexType":"NORMAL"},"to":{"name":"Émile Girardin / Roitelets","stopId":"1:253","stopCode":"253","lon":-71.050677,"lat":48.406726,"arrival":1522693788000,"departure":1522693789000,"zoneId":"NA","stopIndex":17,"stopSequence":18,"vertexType":"TRANSIT"},"legGeometry":{"points":"exmfHn{tpL`A~@NNNa@HSj@_Br@qB`A_DNc@PUfAuAbAaA{@qEGo@AGAK","length":16},"rentedBike":false,"transitLeg":false,"duration":374.0,"steps":[{"distance":54.431,"relativeDirection":"DEPART","streetName":"Boulevard Talbot","absoluteDirection":"SOUTHWEST","stayOn":false,"area":false,"bogusName":false,"lon":-71.05479494405348,"lat":48.408512028291746,"elevation":[]},{"distance":312.858,"relativeDirection":"LEFT","streetName":"Rue des Champs-Élysées","absoluteDirection":"SOUTHEAST","stayOn":false,"area":false,"bogusName":false,"lon":-71.0551966,"lat":48.4081015,"elevation":[]},{"distance":110.09799999999998,"relativeDirection":"LEFT","streetName":"Rue Émile-Girardin","absoluteDirection":"NORTHEAST","stayOn":false,"area":false,"bogusName":false,"lon":-71.05202630000001,"lat":48.4062974,"elevation":[]}]},{"startTime":1522693789000,"endTime":1522694105000,"departureDelay":0,"arrivalDelay":0,"realTime":false,"distance":1949.8505048011605,"pathway":false,"mode":"BUS","route":"175","agencyName":"Société de Transport du Saguenay","agencyUrl":"http://ville.saguenay.ca/fr/services-aux-citoyens/transport-sts","agencyTimeZoneOffset":-14400000,"routeColor":"FF00FF","routeType":3,"routeId":"1:175","routeTextColor":"FFFFFF","interlineWithPreviousLeg":false,"tripBlockId":"6","headsign":"Costco","agencyId":"0","tripId":"1:217300","serviceDate":"20180402","from":{"name":"Émile Girardin / Roitelets","stopId":"1:253","stopCode":"253","lon":-71.050677,"lat":48.406726,"arrival":1522693788000,"departure":1522693789000,"zoneId":"NA","stopIndex":17,"stopSequence":18,"vertexType":"TRANSIT"},"to":{"name":"boul. Talbot (no. 1749)","stopId":"1:87","stopCode":"87","lon":-71.066836,"lat":48.397168,"arrival":1522694105000,"departure":1522694106000,"zoneId":"NA","stopIndex":23,"stopSequence":24,"vertexType":"TRANSIT"},"legGeometry":{"points":"_lmfHhatpLr@~Gx@]PEr@ObACn@FrBb@|@Ch@Kx@U~HsB^KZ|DJpII~Fa@rFUzBi@bDUxAm@nCcAlDM^RTfD`DjF`FjCrCrAvAbCfDjIfMdAzA","length":31},"routeShortName":"175","routeLongName":"Term. Chic / Costco","rentedBike":false,"transitLeg":true,"duration":316.0,"steps":[]},{"startTime":1522694106000,"endTime":1522694222000,"departureDelay":0,"arrivalDelay":0,"realTime":false,"distance":152.981,"pathway":false,"mode":"WALK","route":"","agencyTimeZoneOffset":-14400000,"interlineWithPreviousLeg":false,"from":{"name":"boul. Talbot (no. 1749)","stopId":"1:87","stopCode":"87","lon":-71.066836,"lat":48.397168,"arrival":1522694105000,"departure":1522694106000,"zoneId":"NA","stopIndex":23,"stopSequence":24,"vertexType":"TRANSIT"},"to":{"name":"Destination","lon":-71.065791,"lat":48.398402,"arrival":1522694222000,"orig":"","vertexType":"NORMAL"},"legGeometry":{"points":"_qkfHhfwpLMQ}DeG","length":3},"rentedBike":false,"transitLeg":false,"duration":116.0,"steps":[{"distance":152.981,"relativeDirection":"DEPART","streetName":"Boulevard Talbot","absoluteDirection":"NORTHEAST","stayOn":false,"area":false,"bogusName":false,"lon":-71.06676545512337,"lat":48.3971283699625,"elevation":[]}]}],"tooSloped":false}]},"debugOutput":{"precalculationTime":52,"pathCalculationTime":49,"pathTimes":[27,7,15],"renderingTime":1,"totalTime":102,"timedOut":false},"elevationMetadata":{"ellipsoidToGeoidDifference":-28.885904201182168,"geoidElevation":false}}