{"requestParameters":{"date":"2018/04/02","walkSpeed":"1.33","walkReluctance":"2.0","fromPlace":"48.41608,-71.042317","maxWalkDistance":"3000","waitReluctance":"1.0","carSpeed":"33","numItineraries":"3","waitAtBeginningFactor":"0.4","mode":"TRANSIT,WALK","ignoreRealtimeUpdates":"false","stairsReluctance":"2.0","toPlace":"48.412691,-71.06630099","time":"8:25:00"},"plan":{"date":1522671900000,"from":{"name":"Origin","lon":-71.042317,"lat":48.41608,"orig":"","vertexType":"NORMAL"},"to":{"name":"Destination","lon":-71.06630099,"lat":48.412691,"orig":"","vertexType":"NORMAL"},"itineraries":[{"duration":1561,"startTime":1522672010000,"endTime":1522673571000,"walkTime":573,"transitTime":986,"waitingTime":2,"walkDistance":731.2570902211727,"walkLimitExceeded":false,"elevationLost":0.0,"elevationGained":0.0,"transfers":0,"legs":[{"startTime":1522672010000,"endTime":1522672113000,"departureDelay":0,"arrivalDelay":0,"realTime":false,"distance":127.08099999999999,"pathway":false,"mode":"WALK","route":"","agencyTimeZoneOffset":-14400000,"interlineWithPreviousLeg":false,"from":{"name":"Origin","lon":-71.042317,"lat":48.41608,"departure":1522672010000,"orig":"","vertexType":"NORMAL"},"to":{"name":"Chabanel / Scott","stopId":"1:353","stopCode":"353","lon":-71.041293,"lat":48.415832,"arrival":1522672113000,"departure":1522672114000,"zoneId":"NA","stopIndex":17,"stopSequence":18,"vertexType":"TRANSIT"},"legGeometry":{"points":"gfofHpnrpLnAoEy@w@","length":3},"rentedBike":false,"transitLeg":false,"duration":103.0,"steps":[{"distance":88.883,"relativeDirection":"DEPART","streetName":"Rue Scott","absoluteDirection":"SOUTHEAST","stayOn":false,"area":false,"bogusName":false,"lon":-71.04248599067542,"lat":48.41588415513841,"elevation":[]},{"distance":38.198,"relativeDirection":"LEFT","streetName":"Rue Chabanel","absoluteDirection":"NORTHEAST","stayOn":false,"area":false,"bogusName":false,"lon":-71.0414409,"lat":48.415486900000005,"elevation":[]}]},{"startTime":1522672114000,"endTime":1522672620000,"departureDelay":0,"arrivalDelay":0,"realTime":false,"distance":2162.9885852443813,"pathway":false,"mode":"BUS","route":"10","agencyName":"Société de Transport du Saguenay","agencyUrl":"http://ville.saguenay.ca/fr/services-aux-citoyens/transport-sts","agencyTimeZoneOffset":-14400000,"routeColor":"0000FF","routeType":3,"routeId":"1:10","routeTextColor":"FFFFFF","interlineWithPreviousLeg":false,"tripBlockId":"29","headsign":"Terminus UQAC","agencyId":"0","tripId":"1:218055","serviceDate":"20180402","from":{"name":"Chabanel / Scott","stopId":"1:353","stopCode":"353","lon":-71.041293,"lat":48.415832,"arrival":1522672113000,"departure":1522672114000,"zoneId":"NA","stopIndex":17,"stopSequence":18,"vertexType":"TRANSIT"},"to":{"name":"Terminus UQAC","stopId":"1:1670","stopCode":"1670","lon":-71.053369,"lat":48.420903,"arrival":1522672620000,"departure":1522672800000,"zoneId":"NA","stopIndex":24,"stopSequence":25,"vertexType":"TRANSIT"},"legGeometry":{"points":"qeofHffrpLnAlAjBrBl@pBPlBCj@KrAAHSpAe@jB_A|Bz@xAvA~BvB|BdN|Nc@bAuA~C}VeWaEpLeIrU|D~EfDdEwLpKeBgGAsE]gAoD}CUt@a@_@USMM","length":31},"routeShortName":"10","routeLongName":"Notre-Dame du Saguenay","rentedBike":false,"transitLeg":true,"duration":506.0,"steps":[]},{"startTime":1522672800000,"endTime":1522673100000,"departureDelay":0,"arrivalDelay":0,"realTime":false,"distance":1506.494478313499,"pathway":false,"mode":"BUS","route":"12","agencyName":"Société de Transport du Saguenay","agencyUrl":"http://ville.saguenay.ca/fr/services-aux-citoyens/transport-sts","agencyTimeZoneOffset":-14400000,"routeColor":"556B2F","routeType":3,"routeId":"1:12","routeTextColor":"FFFFFF","interlineWithPreviousLeg":true,"tripBlockId":"29","headsign":"Terminus Chicoutimi","agencyId":"0","tripId":"1:218056","serviceDate":"20180402","from":{"name":"Terminus UQAC","stopId":"1:1670","stopCode":"1670","lon":-71.053369,"lat":48.420903,"arrival":1522672620000,"departure":1522672800000,"zoneId":"NA","stopIndex":0,"stopSequence":1,"vertexType":"TRANSIT"},"to":{"name":"Champs-Élysées / Bégin","stopId":"1:566","stopCode":"566","lon":-71.064237,"lat":48.415762,"arrival":1522673100000,"departure":1522673101000,"zoneId":"NA","stopIndex":7,"stopSequence":8,"vertexType":"TRANSIT"},"legGeometry":{"points":"sepfHprtpL}@y@Pw@wAsAaB{A}DrL?jCv@fCa@nDaC`D~E`F~MfNjJnJ~GbHnCpCv@iB","length":16},"routeShortName":"12","routeLongName":"Rivière du Moulin","rentedBike":false,"transitLeg":true,"duration":300.0,"steps":[]},{"startTime":1522673101000,"endTime":1522673571000,"departureDelay":0,"arrivalDelay":0,"realTime":false,"distance":604.0400000000001,"pathway":false,"mode":"WALK","route":"","agencyTimeZoneOffset":-14400000,"interlineWithPreviousLeg":false,"from":{"name":"Champs-Élysées / Bégin","stopId":"1:566","stopCode":"566","lon":-71.064237,"lat":48.415762,"arrival":1522673100000,"departure":1522673101000,"zoneId":"NA","stopIndex":7,"stopSequence":8,"vertexType":"TRANSIT"},"to":{"name":"Destination","lon":-71.06630099,"lat":48.412691,"arrival":1522673571000,"orig":"","vertexType":"NORMAL"},"legGeometry":{"points":"weofHfvvpLk@jBn@l@LNrCpCFFBBv@v@rCpC~AvBTHz@t@r@l@LTxAeG","length":15},"rentedBike":false,"transitLeg":false,"duration":470.0,"steps":[{"distance":46.285,"relativeDirection":"DEPART","streetName":"Rue des Champs-Élysées","absoluteDirection":"NORTHWEST","stayOn":false,"area":false,"bogusName":false,"lon":-71.06419656014225,"lat":48.415806692432525,"elevation":[]},{"distance":448.49699999999996,"relativeDirection":"LEFT","streetName":"Rue Bégin","absoluteDirection":"SOUTHWEST","stayOn":false,"area":false,"bogusName":false,"lon":-71.0647342,"lat":48.416021,"elevation":[]},{"distance":109.258,"relativeDirection":"LEFT","streetName":"Rue Georges-Vanier","absoluteDirection":"SOUTHEAST","stayOn":false,"area":false,"bogusName":false,"lon":-71.0681022,"lat":48.4126786,"elevation":[]}]}],"tooSloped":false},{"duration":1577,"startTime":1522672365000,"endTime":1522673942000,"walkTime":1275,"transitTime":300,"waitingTime":2,"walkDistance":1631.338894730134,"walkLimitExceeded":false,"elevationLost":0.0,"elevationGained":0.0,"transfers":0,"legs":[{"startTime":1522672365000,"endTime":1522673519000,"departureDelay":0,"arrivalDelay":0,"realTime":false,"distance":1477.8020000000004,"pathway":false,"mode":"WALK","route":"","agencyTimeZoneOffset":-14400000,"interlineWithPreviousLeg":false,"from":{"name":"Origin","lon":-71.042317,"lat":48.41608,"departure":1522672365000,"orig":"","vertexType":"NORMAL"},"to":{"name":"Terminus UQAC","stopId":"1:1670","stopCode":"1670","lon":-71.053369,"lat":48.420903,"arrival":1522673519000,"departure":1522673520000,"zoneId":"NA","stopIndex":7,"stopSequence":8,"vertexType":"TRANSIT"},"legGeometry":{"points":"gfofHpnrpLnAoEpAnAHJl@r@f@pBNfBAh@MrAAHSrA[nAcAxC}AzE_@`AIVOb@O`@wAtDmArDqChI{@hCWt@qAlDKXi@k@yAyAaAcAUHq@XYz@Ur@e@vAg@vAUp@cAaA","length":36},"rentedBike":false,"transitLeg":false,"duration":1154.0,"steps":[{"distance":88.883,"relativeDirection":"DEPART","streetName":"Rue Scott","absoluteDirection":"SOUTHEAST","stayOn":false,"area":false,"bogusName":false,"lon":-71.04248599067542,"lat":48.41588415513841,"elevation":[]},{"distance":1019.277,"relativeDirection":"RIGHT","streetName":"Rue Chabanel","absoluteDirection":"SOUTHWEST","stayOn":false,"area":false,"bogusName":false,"lon":-71.0414409,"lat":48.415486900000005,"elevation":[]},{"distance":133.06900000000002,"relativeDirection":"RIGHT","streetName":"Rue de la Fondation","absoluteDirection":"NORTHEAST","stayOn":false,"area":false,"bogusName":false,"lon":-71.05284470000001,"lat":48.4184787,"elevation":[]},{"distance":236.573,"relativeDirection":"LEFT","streetName":"path","absoluteDirection":"NORTH","stayOn":false,"area":false,"bogusName":true,"lon":-71.0518321,"lat":48.419468900000005,"elevation":[]}]},{"startTime":1522673520000,"endTime":1522673820000,"departureDelay":0,"arrivalDelay":0,"realTime":false,"distance":1501.339261541782,"pathway":false,"mode":"BUS","route":"15","agencyName":"Société de Transport du Saguenay","agencyUrl":"http://ville.saguenay.ca/fr/services-aux-citoyens/transport-sts","agencyTimeZoneOffset":-14400000,"routeColor":"FF00FF","routeType":3,"routeId":"1:15","routeTextColor":"FFFFFF","interlineWithPreviousLeg":false,"tripBlockId":"31","headsign":"Talbot / Barrette","agencyId":"0","tripId":"1:218126","serviceDate":"20180402","from":{"name":"Terminus UQAC","stopId":"1:1670","stopCode":"1670","lon":-71.053369,"lat":48.420903,"arrival":1522673519000,"departure":1522673520000,"zoneId":"NA","stopIndex":7,"stopSequence":8,"vertexType":"TRANSIT"},"to":{"name":"École secondaire de l'Odyssé Dominique-Racine","stopId":"1:580","stopCode":"580","lon":-71.067703,"lat":48.412977,"arrival":1522673820000,"departure":1522673821000,"zoneId":"NA","stopIndex":12,"stopSequence":13,"vertexType":"TRANSIT"},"legGeometry":{"points":"sepfHrrtpLbA`ATw@dD~Ch@fA@`E~AjGuH`Iy@bBi@dCbEdEjJlJ`HbHlJpJ|J~J","length":15},"routeShortName":"15","routeLongName":"Term. Chic / Costco","rentedBike":false,"transitLeg":true,"duration":300.0,"steps":[]},{"startTime":1522673821000,"endTime":1522673942000,"departureDelay":0,"arrivalDelay":0,"realTime":false,"distance":153.329,"pathway":false,"mode":"WALK","route":"","agencyTimeZoneOffset":-14400000,"interlineWithPreviousLeg":false,"from":{"name":"École secondaire de l'Odyssé Dominique-Racine","stopId":"1:580","stopCode":"580","lon":-71.067703,"lat":48.412977,"arrival":1522673820000,"departure":1522673821000,"zoneId":"NA","stopIndex":12,"stopSequence":13,"vertexType":"TRANSIT"},"to":{"name":"Destination","lon":-71.06630099,"lat":48.412691,"arrival":1522673942000,"orig":"","vertexType":"NORMAL"},"legGeometry":{"points":"gtnfHplwpLr@l@LTxAeG","length":4},"rentedBike":false,"transitLeg":false,"duration":121.0,"steps":[{"distance":44.071,"relativeDirection":"DEPART","streetName":"Rue Bégin","absoluteDirection":"SOUTHWEST","stayOn":false,"area":false,"bogusName":false,"lon":-71.06776357747735,"lat":48.41300064951352,"elevation":[]},{"distance":109.258,"relativeDirection":"LEFT","streetName":"Rue Georges-Vanier","absoluteDirection":"SOUTHEAST","stayOn":false,"area":false,"bogusName":false,"lon":-71.0681022,"lat":48.4126786,"elevation":[]}]}],"tooSloped":false},{"duration":1561,"startTime":1522673810000,"endTime":1522675371000,"walkTime":573,"transitTime":986,"waitingTime":2,"walkDistance":731.2570902211727,"walkLimitExceeded":false,"elevationLost":0.0,"elevationGained":0.0,"transfers":0,"legs":[{"startTime":1522673810000,"endTime":1522673913000,"departureDelay":0,"arrivalDelay":0,"realTime":false,"distance":127.08099999999999,"pathway":false,"mode":"WALK","route":"","agencyTimeZoneOffset":-14400000,"interlineWithPreviousLeg":false,"from":{"name":"Origin","lon":-71.042317,"lat":48.41608,"departure":1522673810000,"orig":"","vertexType":"NORMAL"},"to":{"name":"Chabanel / Scott","stopId":"1:353","stopCode":"353","lon":-71.041293,"lat":48.415832,"arrival":1522673913000,"departure":1522673914000,"zoneId":"NA","stopIndex":17,"stopSequence":18,"vertexType":"TRANSIT"},"legGeometry":{"points":"gfofHpnrpLnAoEy@w@","length":3},"rentedBike":false,"transitLeg":false,"duration":103.0,"steps":[{"distance":88.883,"relativeDirection":"DEPART","streetName":"Rue Scott","absoluteDirection":"SOUTHEAST","stayOn":false,"area":false,"bogusName":false,"lon":-71.04248599067542,"lat":48.41588415513841,"elevation":[]},{"distance":38.198,"relativeDirection":"LEFT","streetName":"Rue Chabanel","absoluteDirection":"NORTHEAST","stayOn":false,"area":false,"bogusName":false,"lon":-71.0414409,"lat":48.415486900000005,"elevation":[]}]},{"startTime":1522673914000,"endTime":1522674420000,"departureDelay":0,"arrivalDelay":0,"realTime":false,"distance":2162.9885852443813,"pathway":false,"mode":"BUS","route":"10","agencyName":"Société de Transport du Saguenay","agencyUrl":"http://ville.saguenay.ca/fr/services-aux-citoyens/transport-sts","agencyTimeZoneOffset":-14400000,"routeColor":"0000FF","routeType":3,"routeId":"1:10","routeTextColor":"FFFFFF","interlineWithPreviousLeg":false,"tripBlockId":"26","headsign":"Terminus UQAC","agencyId":"0","tripId":"1:217968","serviceDate":"20180402","from":{"name":"Chabanel / Scott","stopId":"1:353","stopCode":"353","lon":-71.041293,"lat":48.415832,"arrival":1522673913000,"departure":1522673914000,"zoneId":"NA","stopIndex":17,"stopSequence":18,"vertexType":"TRANSIT"},"to":{"name":"Terminus UQAC","stopId":"1:1670","stopCode":"1670","lon":-71.053369,"lat":48.420903,"arrival":1522674420000,"departure":1522674600000,"zoneId":"NA","stopIndex":24,"stopSequence":25,"vertexType":"TRANSIT"},"legGeometry":{"points":"qeofHffrpLnAlAjBrBl@pBPlBCj@KrAAHSpAe@jB_A|Bz@xAvA~BvB|BdN|Nc@bAuA~C}VeWaEpLeIrU|D~EfDdEwLpKeBgGAsE]gAoD}CUt@a@_@USMM","length":31},"routeShortName":"10","routeLongName":"Notre-Dame du Saguenay","rentedBike":false,"transitLeg":true,"duration":506.0,"steps":[]},{"startTime":1522674600000,"endTime":1522674900000,"departureDelay":0,"arrivalDelay":0,"realTime":false,"distance":1506.494478313499,"pathway":false,"mode":"BUS","route":"12","agencyName":"Société de Transport du Saguenay","agencyUrl":"http://ville.saguenay.ca/fr/services-aux-citoyens/transport-sts","agencyTimeZoneOffset":-14400000,"routeColor":"556B2F","routeType":3,"routeId":"1:12","routeTextColor":"FFFFFF","interlineWithPreviousLeg":true,"tripBlockId":"26","headsign":"Terminus Chicoutimi","agencyId":"0","tripId":"1:217969","serviceDate":"20180402","from":{"name":"Terminus UQAC","stopId":"1:1670","stopCode":"1670","lon":-71.053369,"lat":48.420903,"arrival":1522674420000,"departure":1522674600000,"zoneId":"NA","stopIndex":0,"stopSequence":1,"vertexType":"TRANSIT"},"to":{"name":"Champs-Élysées / Bégin","stopId":"1:566","stopCode":"566","lon":-71.064237,"lat":48.415762,"arrival":1522674900000,"departure":1522674901000,"zoneId":"NA","stopIndex":7,"stopSequence":8,"vertexType":"TRANSIT"},"legGeometry":{"points":"sepfHprtpL}@y@Pw@wAsAaB{A}DrL?jCv@fCa@nDaC`D~E`F~MfNjJnJ~GbHnCpCv@iB","length":16},"routeShortName":"12","routeLongName":"Rivière du Moulin","rentedBike":false,"transitLeg":true,"duration":300.0,"steps":[]},{"startTime":1522674901000,"endTime":1522675371000,"departureDelay":0,"arrivalDelay":0,"realTime":false,"distance":604.0400000000001,"pathway":false,"mode":"WALK","route":"","agencyTimeZoneOffset":-14400000,"interlineWithPreviousLeg":false,"from":{"name":"Champs-Élysées / Bégin","stopId":"1:566","stopCode":"566","lon":-71.064237,"lat":48.415762,"arrival":1522674900000,"departure":1522674901000,"zoneId":"NA","stopIndex":7,"stopSequence":8,"vertexType":"TRANSIT"},"to":{"name":"Destination","lon":-71.06630099,"lat":48.412691,"arrival":1522675371000,"orig":"","vertexType":"NORMAL"},"legGeometry":{"points":"weofHfvvpLk@jBn@l@LNrCpCFFBBv@v@rCpC~AvBTHz@t@r@l@LTxAeG","length":15},"rentedBike":false,"transitLeg":false,"duration":470.0,"steps":[{"distance":46.285,"relativeDirection":"DEPART","streetName":"Rue des Champs-Élysées","absoluteDirection":"NORTHWEST","stayOn":false,"area":false,"bogusName":false,"lon":-71.06419656014225,"lat":48.415806692432525,"elevation":[]},{"distance":448.49699999999996,"relativeDirection":"LEFT","streetName":"Rue Bégin","absoluteDirection":"SOUTHWEST","stayOn":false,"area":false,"bogusName":false,"lon":-71.0647342,"lat":48.416021,"elevation":[]},{"distance":109.258,"relativeDirection":"LEFT","streetName":"Rue Georges-Vanier","absoluteDirection":"SOUTHEAST","stayOn":false,"area":false,"bogusName":false,"lon":-71.0681022,"lat":48.4126786,"elevation":[]}]}],"tooSloped":false}]},"debugOutput":{"precalculationTime":67,"pathCalculationTime":55,"pathTimes":[27,15,13],"renderingTime":1,"totalTime":123,"timedOut":false},"elevationMetadata":{"ellipsoidToGeoidDifference":-28.885904201182168,"geoidElevation":false}}