{"requestParameters":{"date":"2018/04/02","walkSpeed":"1.33","walkReluctance":"2.0","fromPlace":"48.415321,-71.042276","maxWalkDistance":"3000","waitReluctance":"1.0","carSpeed":"33","numItineraries":"3","waitAtBeginningFactor":"0.4","mode":"TRANSIT,WALK","ignoreRealtimeUpdates":"false","stairsReluctance":"2.0","toPlace":"48.413483,-71.034278","time":"16:30:00"},"plan":{"date":1522701000000,"from":{"name":"Origin","lon":-71.042276,"lat":48.415321,"orig":"","vertexType":"NORMAL"},"to":{"name":"Destination","lon":-71.034278,"lat":48.413483,"orig":"","vertexType":"NORMAL"},"itineraries":[{"duration":592,"startTime":1522701000000,"endTime":1522701592000,"walkTime":592,"transitTime":0,"waitingTime":0,"walkDistance":742.8747518732215,"walkLimitExceeded":false,"elevationLost":0.0,"elevationGained":0.0,"transfers":0,"legs":[{"startTime":1522701000000,"endTime":1522701592000,"departureDelay":0,"arrivalDelay":0,"realTime":false,"distance":742.6739999999999,"pathway":false,"mode":"WALK","route":"","agencyTimeZoneOffset":-14400000,"interlineWithPreviousLeg":false,"from":{"name":"Origin","lon":-71.042276,"lat":48.415321,"departure":1522701000000,"orig":"","vertexType":"NORMAL"},"to":{"name":"Destination","lon":-71.034278,"lat":48.413483,"arrival":1522701592000,"orig":"","vertexType":"NORMAL"},"legGeometry":{"points":"maofHfjrpLiAeAb@uB@a@Ge@Wo@}@aArAcDl@}@dAyAK[mAuC|AwBFSRYxBiDLm@Cq@A]Ae@PW^q@Pw@?E","length":24},"rentedBike":false,"transitLeg":false,"duration":592.0,"steps":[{"distance":48.762,"relativeDirection":"DEPART","streetName":"Rue Chabanel","absoluteDirection":"NORTHEAST","stayOn":false,"area":false,"bogusName":false,"lon":-71.0417970790061,"lat":48.415117545664515,"elevation":[]},{"distance":139.21699999999998,"relativeDirection":"RIGHT","streetName":"Rue D'Argenson","absoluteDirection":"SOUTHEAST","stayOn":false,"area":false,"bogusName":false,"lon":-71.0414409,"lat":48.415486900000005,"elevation":[]},{"distance":161.276,"relativeDirection":"RIGHT","streetName":"Rue Beauchamp","absoluteDirection":"SOUTHEAST","stayOn":false,"area":false,"bogusName":false,"lon":-71.039927,"lat":48.415761700000004,"elevation":[]},{"distance":82.604,"relativeDirection":"LEFT","streetName":"Rue du Père-Champagnat","absoluteDirection":"NORTHEAST","stayOn":false,"area":false,"bogusName":false,"lon":-71.03834690000001,"lat":48.4147696,"elevation":[]},{"distance":232.43200000000002,"relativeDirection":"RIGHT","streetName":"Rue Pierre-Bédard","absoluteDirection":"SOUTHEAST","stayOn":false,"area":false,"bogusName":false,"lon":-71.03745280000001,"lat":48.4152153,"elevation":[]},{"distance":14.324,"relativeDirection":"CONTINUE","streetName":"Rue de l'Acadie","absoluteDirection":"EAST","stayOn":false,"area":false,"bogusName":false,"lon":-71.03514390000001,"lat":48.4139501,"elevation":[]},{"distance":64.059,"relativeDirection":"RIGHT","streetName":"Rue de l'Acadie","absoluteDirection":"SOUTHEAST","stayOn":true,"area":false,"bogusName":false,"lon":-71.0349518,"lat":48.4139685,"elevation":[]}]}],"tooSloped":false},{"duration":588,"startTime":1522702520000,"endTime":1522703108000,"walkTime":560,"transitTime":26,"waitingTime":2,"walkDistance":707.5283533788974,"walkLimitExceeded":false,"elevationLost":0.0,"elevationGained":0.0,"transfers":0,"legs":[{"startTime":1522702520000,"endTime":1522702591000,"departureDelay":0,"arrivalDelay":0,"realTime":false,"distance":89.37400000000001,"pathway":false,"mode":"WALK","route":"","agencyTimeZoneOffset":-14400000,"interlineWithPreviousLeg":false,"from":{"name":"Origin","lon":-71.042276,"lat":48.415321,"departure":1522702520000,"orig":"","vertexType":"NORMAL"},"to":{"name":"nouveau","stopId":"1:2291","stopCode":"2291","lon":-71.041009,"lat":48.415737,"arrival":1522702591000,"departure":1522702592000,"zoneId":"NA","stopIndex":4,"stopSequence":5,"vertexType":"TRANSIT"},"legGeometry":{"points":"maofHfjrpLiAeAy@w@CC","length":4},"rentedBike":false,"transitLeg":false,"duration":71.0,"steps":[{"distance":89.37400000000001,"relativeDirection":"DEPART","streetName":"Rue Chabanel","absoluteDirection":"NORTHEAST","stayOn":false,"area":false,"bogusName":false,"lon":-71.0417970790061,"lat":48.415117545664515,"elevation":[]}]},{"startTime":1522702592000,"endTime":1522702618000,"departureDelay":0,"arrivalDelay":0,"realTime":false,"distance":159.46687919259804,"pathway":false,"mode":"BUS","route":"10","agencyName":"Société de Transport du Saguenay","agencyUrl":"http://ville.saguenay.ca/fr/services-aux-citoyens/transport-sts","agencyTimeZoneOffset":-14400000,"routeColor":"0000FF","routeType":3,"routeId":"1:10","routeTextColor":"FFFFFF","interlineWithPreviousLeg":false,"tripBlockId":"28","headsign":"Terminus Chicoutimi","agencyId":"0","tripId":"1:218046","serviceDate":"20180402","from":{"name":"nouveau","stopId":"1:2291","stopCode":"2291","lon":-71.041009,"lat":48.415737,"arrival":1522702591000,"departure":1522702592000,"zoneId":"NA","stopIndex":4,"stopSequence":5,"vertexType":"TRANSIT"},"to":{"name":"nouveau","stopId":"1:2292","stopCode":"2292","lon":-71.039883,"lat":48.416961,"arrival":1522702618000,"departure":1522702619000,"zoneId":"NA","stopIndex":5,"stopSequence":6,"vertexType":"TRANSIT"},"legGeometry":{"points":"ueofHbfrpLqFeF","length":2},"routeShortName":"10","routeLongName":"Notre-Dame du Saguenay","rentedBike":false,"transitLeg":true,"duration":26.0,"steps":[]},{"startTime":1522702619000,"endTime":1522703108000,"departureDelay":0,"arrivalDelay":0,"realTime":false,"distance":618.0129999999998,"pathway":false,"mode":"WALK","route":"","agencyTimeZoneOffset":-14400000,"interlineWithPreviousLeg":false,"from":{"name":"nouveau","stopId":"1:2292","stopCode":"2292","lon":-71.039883,"lat":48.416961,"arrival":1522702618000,"departure":1522702619000,"zoneId":"NA","stopIndex":5,"stopSequence":6,"vertexType":"TRANSIT"},"to":{"name":"Destination","lon":-71.034278,"lat":48.413483,"arrival":1522703108000,"orig":"","vertexType":"NORMAL"},"legGeometry":{"points":"gmofHz~qpLDD??l@v@vAoD^gAf@cBP_@pBgDLQ|AwBFSRYxBiDLm@Cq@A]Ae@PW^q@Pw@?E","length":22},"rentedBike":false,"transitLeg":false,"duration":489.0,"steps":[{"distance":36.558,"relativeDirection":"DEPART","streetName":"Rue Chabanel","absoluteDirection":"SOUTHWEST","stayOn":false,"area":false,"bogusName":false,"lon":-71.03997825155321,"lat":48.41700160612007,"elevation":[]},{"distance":503.07199999999995,"relativeDirection":"LEFT","streetName":"Rue Pierre-Bédard","absoluteDirection":"SOUTHEAST","stayOn":false,"area":false,"bogusName":false,"lon":-71.04028360000001,"lat":48.4167429,"elevation":[]},{"distance":14.324,"relativeDirection":"CONTINUE","streetName":"Rue de l'Acadie","absoluteDirection":"EAST","stayOn":false,"area":false,"bogusName":false,"lon":-71.03514390000001,"lat":48.4139501,"elevation":[]},{"distance":64.059,"relativeDirection":"RIGHT","streetName":"Rue de l'Acadie","absoluteDirection":"SOUTHEAST","stayOn":true,"area":false,"bogusName":false,"lon":-71.0349518,"lat":48.4139685,"elevation":[]}]}],"tooSloped":false}]},"debugOutput":{"precalculationTime":40,"pathCalculationTime":26,"pathTimes":[5,15,5],"renderingTime":0,"totalTime":66,"timedOut":false},"elevationMetadata":{"ellipsoidToGeoidDifference":-28.885904201182168,"geoidElevation":false}}