{"requestParameters":{"date":"2018/04/02","walkSpeed":"1.33","walkReluctance":"2.0","fromPlace":"48.418729,-71.053021","maxWalkDistance":"3000","waitReluctance":"1.0","carSpeed":"33","numItineraries":"3","waitAtBeginningFactor":"0.4","mode":"TRANSIT,WALK","ignoreRealtimeUpdates":"false","stairsReluctance":"2.0","toPlace":"48.412396,-71.047276","time":"15:30:00"},"plan":{"date":1522697400000,"from":{"name":"Origin","lon":-71.053021,"lat":48.418729,"orig":"","vertexType":"NORMAL"},"to":{"name":"Destination","lon":-71.047276,"lat":48.412396,"orig":"","vertexType":"NORMAL"},"itineraries":[{"duration":704,"startTime":1522697421000,"endTime":1522698125000,"walkTime":555,"transitTime":147,"waitingTime":2,"walkDistance":696.1120601447594,"walkLimitExceeded":false,"elevationLost":0.0,"elevationGained":0.0,"transfers":0,"legs":[{"startTime":1522697421000,"endTime":1522697699000,"departureDelay":0,"arrivalDelay":0,"realTime":false,"distance":348.519,"pathway":false,"mode":"WALK","route":"","agencyTimeZoneOffset":-14400000,"interlineWithPreviousLeg":false,"from":{"name":"Origin","lon":-71.053021,"lat":48.418729,"departure":1522697421000,"orig":"","vertexType":"NORMAL"},"to":{"name":"Terminus UQAC","stopId":"1:1670","stopCode":"1670","lon":-71.053369,"lat":48.420903,"arrival":1522697699000,"departure":1522697700000,"zoneId":"NA","stopIndex":0,"stopSequence":1,"vertexType":"TRANSIT"},"legGeometry":{"points":"mwofHbotpLwBuBCA_AaAq@XYz@Ur@e@vAg@vAUp@cAaA","length":11},"rentedBike":false,"transitLeg":false,"duration":278.0,"steps":[{"distance":281.082,"relativeDirection":"DEPART","streetName":"path","absoluteDirection":"NORTHEAST","stayOn":false,"area":false,"bogusName":false,"lon":-71.05281450938897,"lat":48.41863935175929,"elevation":[]},{"distance":67.437,"relativeDirection":"CONTINUE","streetName":"service road","absoluteDirection":"NORTHWEST","stayOn":false,"area":false,"bogusName":true,"lon":-71.05345460000001,"lat":48.4204518,"elevation":[]}]},{"startTime":1522697700000,"endTime":1522697847000,"departureDelay":0,"arrivalDelay":0,"realTime":false,"distance":1155.3685626166505,"pathway":false,"mode":"BUS","route":"5","agencyName":"Société de Transport du Saguenay","agencyUrl":"http://ville.saguenay.ca/fr/services-aux-citoyens/transport-sts","agencyTimeZoneOffset":-14400000,"routeColor":"FF0000","routeType":3,"routeId":"1:5","routeTextColor":"FFFFFF","interlineWithPreviousLeg":false,"tripBlockId":"25","headsign":"Terminus La Baie","agencyId":"0","tripId":"1:217945","serviceDate":"20180402","from":{"name":"Terminus UQAC","stopId":"1:1670","stopCode":"1670","lon":-71.053369,"lat":48.420903,"arrival":1522697699000,"departure":1522697700000,"zoneId":"NA","stopIndex":0,"stopSequence":1,"vertexType":"TRANSIT"},"to":{"name":"boul. Université / Murdock","stopId":"1:80","stopCode":"80","lon":-71.050111,"lat":48.411498,"arrival":1522697847000,"departure":1522697848000,"zoneId":"NA","stopIndex":3,"stopSequence":4,"vertexType":"TRANSIT"},"legGeometry":{"points":"sepfHtrtpLbA`ATs@bB~A~A|ALb@E`EnBvHtNsL~FeFROHI\\Q^Mb@I~CIJCJAXKXMXQRQPQT[\\s@^aAn@mBnCgI","length":28},"routeShortName":"5","routeLongName":"Term. Chic/Term. Baie via St-J.Batiste","rentedBike":false,"transitLeg":true,"duration":147.0,"steps":[]},{"startTime":1522697848000,"endTime":1522698125000,"departureDelay":0,"arrivalDelay":0,"realTime":false,"distance":347.41900000000004,"pathway":false,"mode":"WALK","route":"","agencyTimeZoneOffset":-14400000,"interlineWithPreviousLeg":false,"from":{"name":"boul. Université / Murdock","stopId":"1:80","stopCode":"80","lon":-71.050111,"lat":48.411498,"arrival":1522697847000,"departure":1522697848000,"zoneId":"NA","stopIndex":3,"stopSequence":4,"vertexType":"TRANSIT"},"to":{"name":"Destination","lon":-71.047276,"lat":48.412396,"arrival":1522698125000,"orig":"","vertexType":"NORMAL"},"legGeometry":{"points":"aknfH|}spLTo@WQoBsBeEcEPc@`AkCd@d@","length":8},"rentedBike":false,"transitLeg":false,"duration":277.0,"steps":[{"distance":21.602,"relativeDirection":"DEPART","streetName":"Boulevard de l'Université","absoluteDirection":"SOUTHEAST","stayOn":false,"area":false,"bogusName":false,"lon":-71.05006857152243,"lat":48.41153928216614,"elevation":[]},{"distance":221.34699999999998,"relativeDirection":"LEFT","streetName":"Rue Murdock","absoluteDirection":"NORTHEAST","stayOn":false,"area":false,"bogusName":false,"lon":-71.0498268,"lat":48.4114298,"elevation":[]},{"distance":79.264,"relativeDirection":"RIGHT","streetName":"Rue Lacombe","absoluteDirection":"SOUTHEAST","stayOn":false,"area":false,"bogusName":false,"lon":-71.0481738,"lat":48.413090200000006,"elevation":[]},{"distance":25.206,"relativeDirection":"RIGHT","streetName":"service road","absoluteDirection":"SOUTHWEST","stayOn":false,"area":false,"bogusName":false,"lon":-71.0472991,"lat":48.412676600000005,"elevation":[]}]}],"tooSloped":false},{"duration":843,"startTime":1522697400000,"endTime":1522698243000,"walkTime":843,"transitTime":0,"waitingTime":0,"walkDistance":1064.2236165333957,"walkLimitExceeded":false,"elevationLost":0.0,"elevationGained":0.0,"transfers":0,"legs":[{"startTime":1522697400000,"endTime":1522698243000,"departureDelay":0,"arrivalDelay":0,"realTime":false,"distance":1063.9769999999999,"pathway":false,"mode":"WALK","route":"","agencyTimeZoneOffset":-14400000,"interlineWithPreviousLeg":false,"from":{"name":"Origin","lon":-71.053021,"lat":48.418729,"departure":1522697400000,"orig":"","vertexType":"NORMAL"},"to":{"name":"Destination","lon":-71.047276,"lat":48.412396,"arrival":1522698243000,"orig":"","vertexType":"NORMAL"},"legGeometry":{"points":"mwofHbotpLd@f@DGKYJYpAmDVu@z@iCpCiIlAsDvAuDNa@Nc@TV`BdBx@z@PCPELEDQDO`@b@r@v@^`@L[Ro@Rm@Tq@PRdBlBPc@`AkCd@d@","length":33},"rentedBike":false,"transitLeg":false,"duration":843.0,"steps":[{"distance":30.223,"relativeDirection":"DEPART","streetName":"path","absoluteDirection":"SOUTHWEST","stayOn":false,"area":false,"bogusName":false,"lon":-71.05281450938897,"lat":48.41863935175929,"elevation":[]},{"distance":11.392,"relativeDirection":"HARD_LEFT","streetName":"Rue de la Fondation","absoluteDirection":"NORTHEAST","stayOn":false,"area":false,"bogusName":false,"lon":-71.05297080000001,"lat":48.4184196,"elevation":[]},{"distance":515.112,"relativeDirection":"RIGHT","streetName":"Rue Chabanel","absoluteDirection":"SOUTHEAST","stayOn":false,"area":false,"bogusName":false,"lon":-71.05284470000001,"lat":48.4184787,"elevation":[]},{"distance":121.064,"relativeDirection":"RIGHT","streetName":"Boulevard Talbot","absoluteDirection":"SOUTHWEST","stayOn":false,"area":false,"bogusName":false,"lon":-71.0470797,"lat":48.415868800000005,"elevation":[]},{"distance":199.294,"relativeDirection":"LEFT","streetName":"service road","absoluteDirection":"SOUTH","stayOn":false,"area":false,"bogusName":true,"lon":-71.0480081,"lat":48.414971200000004,"elevation":[]},{"distance":82.422,"relativeDirection":"RIGHT","streetName":"Rue Murdock","absoluteDirection":"SOUTHWEST","stayOn":false,"area":false,"bogusName":false,"lon":-71.0475249,"lat":48.413693200000004,"elevation":[]},{"distance":79.264,"relativeDirection":"LEFT","streetName":"Rue Lacombe","absoluteDirection":"SOUTHEAST","stayOn":false,"area":false,"bogusName":false,"lon":-71.0481738,"lat":48.413090200000006,"elevation":[]},{"distance":25.206,"relativeDirection":"RIGHT","streetName":"service road","absoluteDirection":"SOUTHWEST","stayOn":false,"area":false,"bogusName":false,"lon":-71.0472991,"lat":48.412676600000005,"elevation":[]}]}],"tooSloped":false},{"duration":800,"startTime":1522697661000,"endTime":1522698461000,"walkTime":555,"transitTime":243,"waitingTime":2,"walkDistance":696.1120601447594,"walkLimitExceeded":false,"elevationLost":0.0,"elevationGained":0.0,"transfers":0,"legs":[{"startTime":1522697661000,"endTime":1522697939000,"departureDelay":0,"arrivalDelay":0,"realTime":false,"distance":348.519,"pathway":false,"mode":"WALK","route":"","agencyTimeZoneOffset":-14400000,"interlineWithPreviousLeg":false,"from":{"name":"Origin","lon":-71.053021,"lat":48.418729,"departure":1522697661000,"orig":"","vertexType":"NORMAL"},"to":{"name":"Terminus UQAC","stopId":"1:1670","stopCode":"1670","lon":-71.053369,"lat":48.420903,"arrival":1522697939000,"departure":1522697940000,"zoneId":"NA","stopIndex":11,"stopSequence":12,"vertexType":"TRANSIT"},"legGeometry":{"points":"mwofHbotpLwBuBCA_AaAq@XYz@Ur@e@vAg@vAUp@cAaA","length":11},"rentedBike":false,"transitLeg":false,"duration":278.0,"steps":[{"distance":281.082,"relativeDirection":"DEPART","streetName":"path","absoluteDirection":"NORTHEAST","stayOn":false,"area":false,"bogusName":false,"lon":-71.05281450938897,"lat":48.41863935175929,"elevation":[]},{"distance":67.437,"relativeDirection":"CONTINUE","streetName":"service road","absoluteDirection":"NORTHWEST","stayOn":false,"area":false,"bogusName":true,"lon":-71.05345460000001,"lat":48.4204518,"elevation":[]}]},{"startTime":1522697940000,"endTime":1522698183000,"departureDelay":0,"arrivalDelay":0,"realTime":false,"distance":1155.3685626166505,"pathway":false,"mode":"BUS","route":"175","agencyName":"Société de Transport du Saguenay","agencyUrl":"http://ville.saguenay.ca/fr/services-aux-citoyens/transport-sts","agencyTimeZoneOffset":-14400000,"routeColor":"FF00FF","routeType":3,"routeId":"1:175","routeTextColor":"FFFFFF","interlineWithPreviousLeg":false,"tripBlockId":"77","headsign":"Costco","agencyId":"0","tripId":"1:218635","serviceDate":"20180402","from":{"name":"Terminus UQAC","stopId":"1:1670","stopCode":"1670","lon":-71.053369,"lat":48.420903,"arrival":1522697939000,"departure":1522697940000,"zoneId":"NA","stopIndex":11,"stopSequence":12,"vertexType":"TRANSIT"},"to":{"name":"boul. Université / Murdock","stopId":"1:80","stopCode":"80","lon":-71.050111,"lat":48.411498,"arrival":1522698183000,"departure":1522698184000,"zoneId":"NA","stopIndex":14,"stopSequence":15,"vertexType":"TRANSIT"},"legGeometry":{"points":"sepfHtrtpL`A~@Xw@~D~DPxFZtA~ApE`N{LpFmEb@[ROl@[vDQXKfA[|@q@fAsBlEmM","length":18},"routeShortName":"175","routeLongName":"Term. Chic / Costco","rentedBike":false,"transitLeg":true,"duration":243.0,"steps":[]},{"startTime":1522698184000,"endTime":1522698461000,"departureDelay":0,"arrivalDelay":0,"realTime":false,"distance":347.41900000000004,"pathway":false,"mode":"WALK","route":"","agencyTimeZoneOffset":-14400000,"interlineWithPreviousLeg":false,"from":{"name":"boul. Université / Murdock","stopId":"1:80","stopCode":"80","lon":-71.050111,"lat":48.411498,"arrival":1522698183000,"departure":1522698184000,"zoneId":"NA","stopIndex":14,"stopSequence":15,"vertexType":"TRANSIT"},"to":{"name":"Destination","lon":-71.047276,"lat":48.412396,"arrival":1522698461000,"orig":"","vertexType":"NORMAL"},"legGeometry":{"points":"aknfH|}spLTo@WQoBsBeEcEPc@`AkCd@d@","length":8},"rentedBike":false,"transitLeg":false,"duration":277.0,"steps":[{"distance":21.602,"relativeDirection":"DEPART","streetName":"Boulevard de l'Université","absoluteDirection":"SOUTHEAST","stayOn":false,"area":false,"bogusName":false,"lon":-71.05006857152243,"lat":48.41153928216614,"elevation":[]},{"distance":221.34699999999998,"relativeDirection":"LEFT","streetName":"Rue Murdock","absoluteDirection":"NORTHEAST","stayOn":false,"area":false,"bogusName":false,"lon":-71.0498268,"lat":48.4114298,"elevation":[]},{"distance":79.264,"relativeDirection":"RIGHT","streetName":"Rue Lacombe","absoluteDirection":"SOUTHEAST","stayOn":false,"area":false,"bogusName":false,"lon":-71.0481738,"lat":48.413090200000006,"elevation":[]},{"distance":25.206,"relativeDirection":"RIGHT","streetName":"service road","absoluteDirection":"SOUTHWEST","stayOn":false,"area":false,"bogusName":false,"lon":-71.0472991,"lat":48.412676600000005,"elevation":[]}]}],"tooSloped":false}]},"debugOutput":{"precalculationTime":48,"pathCalculationTime":23,"pathTimes":[15,4,4],"renderingTime":1,"totalTime":72,"timedOut":false},"elevationMetadata":{"ellipsoidToGeoidDifference":-28.885904201182168,"geoidElevation":false}}