{"requestParameters":{"date":"2018/04/02","walkSpeed":"1.33","walkReluctance":"2.0","fromPlace":"48.412396,-71.047276","maxWalkDistance":"3000","waitReluctance":"1.0","carSpeed":"33","numItineraries":"3","waitAtBeginningFactor":"0.4","mode":"TRANSIT,WALK","ignoreRealtimeUpdates":"false","stairsReluctance":"2.0","toPlace":"48.418729,-71.053021","time":"9:30:00"},"plan":{"date":1522675800000,"from":{"name":"Origin","lon":-71.047276,"lat":48.412396,"orig":"","vertexType":"NORMAL"},"to":{"name":"Destination","lon":-71.053021,"lat":48.418729,"orig":"","vertexType":"NORMAL"},"itineraries":[{"duration":843,"startTime":1522675800000,"endTime":1522676643000,"walkTime":843,"transitTime":0,"waitingTime":0,"walkDistance":1064.2262481122582,"walkLimitExceeded":false,"elevationLost":0.0,"elevationGained":0.0,"transfers":0,"legs":[{"startTime":1522675800000,"endTime":1522676643000,"departureDelay":0,"arrivalDelay":0,"realTime":false,"distance":1063.977,"pathway":false,"mode":"WALK","route":"","agencyTimeZoneOffset":-14400000,"interlineWithPreviousLeg":false,"from":{"name":"Origin","lon":-71.047276,"lat":48.412396,"departure":1522675800000,"orig":"","vertexType":"NORMAL"},"to":{"name":"Destination","lon":-71.053021,"lat":48.418729,"arrival":1522676643000,"orig":"","vertexType":"NORMAL"},"legGeometry":{"points":"_qnfHxmspLe@e@aAjCQb@eBmBQSUp@Sl@Sn@MZ_@a@s@w@a@c@ENEPMDQDQBy@{@aBeBUWOb@O`@wAtDmArDqChI{@hCWt@qAlDKXJXEFe@g@","length":33},"rentedBike":false,"transitLeg":false,"duration":843.0,"steps":[{"distance":25.206,"relativeDirection":"DEPART","streetName":"service road","absoluteDirection":"NORTHEAST","stayOn":false,"area":false,"bogusName":false,"lon":-71.04748560648756,"lat":48.41248669773607,"elevation":[]},{"distance":79.264,"relativeDirection":"LEFT","streetName":"Rue Lacombe","absoluteDirection":"NORTHWEST","stayOn":false,"area":false,"bogusName":false,"lon":-71.0472991,"lat":48.412676600000005,"elevation":[]},{"distance":82.422,"relativeDirection":"RIGHT","streetName":"Rue Murdock","absoluteDirection":"NORTHEAST","stayOn":false,"area":false,"bogusName":false,"lon":-71.0481738,"lat":48.413090200000006,"elevation":[]},{"distance":199.29399999999998,"relativeDirection":"LEFT","streetName":"service road","absoluteDirection":"NORTHWEST","stayOn":false,"area":false,"bogusName":true,"lon":-71.0475249,"lat":48.413693200000004,"elevation":[]},{"distance":121.064,"relativeDirection":"RIGHT","streetName":"Boulevard Talbot","absoluteDirection":"NORTHEAST","stayOn":false,"area":false,"bogusName":false,"lon":-71.0480081,"lat":48.414971200000004,"elevation":[]},{"distance":515.112,"relativeDirection":"LEFT","streetName":"Rue Chabanel","absoluteDirection":"NORTHWEST","stayOn":false,"area":false,"bogusName":false,"lon":-71.0470797,"lat":48.415868800000005,"elevation":[]},{"distance":11.392,"relativeDirection":"LEFT","streetName":"Rue de la Fondation","absoluteDirection":"SOUTHWEST","stayOn":false,"area":false,"bogusName":false,"lon":-71.05284470000001,"lat":48.4184787,"elevation":[]},{"distance":30.223,"relativeDirection":"HARD_RIGHT","streetName":"path","absoluteDirection":"NORTHEAST","stayOn":false,"area":false,"bogusName":false,"lon":-71.05297080000001,"lat":48.4184196,"elevation":[]}]}],"tooSloped":false},{"duration":637,"startTime":1522676614000,"endTime":1522677251000,"walkTime":594,"transitTime":41,"waitingTime":2,"walkDistance":746.3275639024961,"walkLimitExceeded":false,"elevationLost":0.0,"elevationGained":0.0,"transfers":0,"legs":[{"startTime":1522676614000,"endTime":1522676884000,"departureDelay":0,"arrivalDelay":0,"realTime":false,"distance":339.342,"pathway":false,"mode":"WALK","route":"","agencyTimeZoneOffset":-14400000,"interlineWithPreviousLeg":false,"from":{"name":"Origin","lon":-71.047276,"lat":48.412396,"departure":1522676614000,"orig":"","vertexType":"NORMAL"},"to":{"name":"boul. Université / Murdock","stopId":"1:59","stopCode":"59","lon":-71.049971,"lat":48.411755,"arrival":1522676884000,"departure":1522676885000,"zoneId":"NA","stopIndex":38,"stopSequence":39,"vertexType":"TRANSIT"},"legGeometry":{"points":"_qnfHxmspLe@e@aAjCQb@dEbEnBrB[|@","length":7},"rentedBike":false,"transitLeg":false,"duration":270.0,"steps":[{"distance":25.206,"relativeDirection":"DEPART","streetName":"service road","absoluteDirection":"NORTHEAST","stayOn":false,"area":false,"bogusName":false,"lon":-71.04748560648756,"lat":48.41248669773607,"elevation":[]},{"distance":79.264,"relativeDirection":"LEFT","streetName":"Rue Lacombe","absoluteDirection":"NORTHWEST","stayOn":false,"area":false,"bogusName":false,"lon":-71.0472991,"lat":48.412676600000005,"elevation":[]},{"distance":206.934,"relativeDirection":"LEFT","streetName":"Rue Murdock","absoluteDirection":"SOUTHWEST","stayOn":false,"area":false,"bogusName":false,"lon":-71.0481738,"lat":48.413090200000006,"elevation":[]},{"distance":27.938,"relativeDirection":"RIGHT","streetName":"Boulevard de l'Université","absoluteDirection":"NORTHWEST","stayOn":false,"area":false,"bogusName":false,"lon":-71.04973220000001,"lat":48.411543200000004,"elevation":[]}]},{"startTime":1522676885000,"endTime":1522676926000,"departureDelay":0,"arrivalDelay":0,"realTime":false,"distance":522.9486117967311,"pathway":false,"mode":"BUS","route":"5","agencyName":"Société de Transport du Saguenay","agencyUrl":"http://ville.saguenay.ca/fr/services-aux-citoyens/transport-sts","agencyTimeZoneOffset":-14400000,"routeColor":"FF0000","routeType":3,"routeId":"1:5","routeTextColor":"FFFFFF","interlineWithPreviousLeg":false,"tripBlockId":"24","headsign":"Terminus UQAC","agencyId":"0","tripId":"1:217905","serviceDate":"20180402","from":{"name":"boul. Université / Murdock","stopId":"1:59","stopCode":"59","lon":-71.049971,"lat":48.411755,"arrival":1522676884000,"departure":1522676885000,"zoneId":"NA","stopIndex":38,"stopSequence":39,"vertexType":"TRANSIT"},"to":{"name":"Polyclinique du Saguenay (boul. Université)","stopId":"1:61","stopCode":"61","lon":-71.053728,"lat":48.415424,"arrival":1522676926000,"departure":1522676927000,"zoneId":"NA","stopIndex":40,"stopSequence":41,"vertexType":"TRANSIT"},"legGeometry":{"points":"alnfHv}spLoDdKM\\k@zAc@l@OPCBQN_@Pa@JYDmCHc@Be@L_@P_@Vy@t@","length":17},"routeShortName":"5","routeLongName":"Term. Chic/Term. Baie via St-J.Batiste","rentedBike":false,"transitLeg":true,"duration":41.0,"steps":[]},{"startTime":1522676927000,"endTime":1522677251000,"departureDelay":0,"arrivalDelay":0,"realTime":false,"distance":406.76,"pathway":false,"mode":"WALK","route":"","agencyTimeZoneOffset":-14400000,"interlineWithPreviousLeg":false,"from":{"name":"Polyclinique du Saguenay (boul. Université)","stopId":"1:61","stopCode":"61","lon":-71.053728,"lat":48.415424,"arrival":1522676926000,"departure":1522676927000,"zoneId":"NA","stopIndex":40,"stopSequence":41,"vertexType":"TRANSIT"},"to":{"name":"Destination","lon":-71.053021,"lat":48.418729,"arrival":1522677251000,"orig":"","vertexType":"NORMAL"},"legGeometry":{"points":"gcofHbutpLaBvAKHAAGM{@M_@BQ@mD_AIREEs@q@aCeCEFe@g@","length":15},"rentedBike":false,"transitLeg":false,"duration":324.0,"steps":[{"distance":71.131,"relativeDirection":"DEPART","streetName":"Boulevard de l'Université","absoluteDirection":"NORTHWEST","stayOn":false,"area":false,"bogusName":false,"lon":-71.05377815383544,"lat":48.415404134793874,"elevation":[]},{"distance":169.707,"relativeDirection":"RIGHT","streetName":"path","absoluteDirection":"NORTHEAST","stayOn":false,"area":false,"bogusName":true,"lon":-71.0542688,"lat":48.4159547,"elevation":[]},{"distance":9.06,"relativeDirection":"LEFT","streetName":"Rue des Étudiants","absoluteDirection":"NORTHWEST","stayOn":false,"area":false,"bogusName":false,"lon":-71.05382350000001,"lat":48.417425900000005,"elevation":[]},{"distance":126.639,"relativeDirection":"RIGHT","streetName":"Rue de la Fondation","absoluteDirection":"NORTHEAST","stayOn":false,"area":false,"bogusName":false,"lon":-71.05392400000001,"lat":48.417472700000005,"elevation":[]},{"distance":30.223,"relativeDirection":"CONTINUE","streetName":"path","absoluteDirection":"NORTHEAST","stayOn":false,"area":false,"bogusName":false,"lon":-71.05297080000001,"lat":48.4184196,"elevation":[]}]}],"tooSloped":false},{"duration":562,"startTime":1522677440000,"endTime":1522678002000,"walkTime":291,"transitTime":269,"waitingTime":2,"walkDistance":369.0464285691238,"walkLimitExceeded":false,"elevationLost":0.0,"elevationGained":0.0,"transfers":0,"legs":[{"startTime":1522677440000,"endTime":1522677614000,"departureDelay":0,"arrivalDelay":0,"realTime":false,"distance":215.771,"pathway":false,"mode":"WALK","route":"","agencyTimeZoneOffset":-14400000,"interlineWithPreviousLeg":false,"from":{"name":"Origin","lon":-71.047276,"lat":48.412396,"departure":1522677440000,"orig":"","vertexType":"NORMAL"},"to":{"name":"Murdock / Baillargeon","stopId":"1:3562","stopCode":"3562","lon":-71.047409,"lat":48.413956,"arrival":1522677614000,"departure":1522677615000,"zoneId":"NA","stopIndex":20,"stopSequence":21,"vertexType":"TRANSIT"},"legGeometry":{"points":"_qnfHxmspLe@e@aAjCQb@eBmBQSi@k@","length":7},"rentedBike":false,"transitLeg":false,"duration":174.0,"steps":[{"distance":25.206,"relativeDirection":"DEPART","streetName":"service road","absoluteDirection":"NORTHEAST","stayOn":false,"area":false,"bogusName":false,"lon":-71.04748560648756,"lat":48.41248669773607,"elevation":[]},{"distance":79.264,"relativeDirection":"LEFT","streetName":"Rue Lacombe","absoluteDirection":"NORTHWEST","stayOn":false,"area":false,"bogusName":false,"lon":-71.0472991,"lat":48.412676600000005,"elevation":[]},{"distance":111.301,"relativeDirection":"RIGHT","streetName":"Rue Murdock","absoluteDirection":"NORTHEAST","stayOn":false,"area":false,"bogusName":false,"lon":-71.0481738,"lat":48.413090200000006,"elevation":[]}]},{"startTime":1522677615000,"endTime":1522677884000,"departureDelay":0,"arrivalDelay":0,"realTime":false,"distance":1243.1000451399993,"pathway":false,"mode":"BUS","route":"10","agencyName":"Société de Transport du Saguenay","agencyUrl":"http://ville.saguenay.ca/fr/services-aux-citoyens/transport-sts","agencyTimeZoneOffset":-14400000,"routeColor":"0000FF","routeType":3,"routeId":"1:10","routeTextColor":"FFFFFF","interlineWithPreviousLeg":false,"tripBlockId":"26","headsign":"Terminus UQAC","agencyId":"0","tripId":"1:217970","serviceDate":"20180402","from":{"name":"Murdock / Baillargeon","stopId":"1:3562","stopCode":"3562","lon":-71.047409,"lat":48.413956,"arrival":1522677614000,"departure":1522677615000,"zoneId":"NA","stopIndex":20,"stopSequence":21,"vertexType":"TRANSIT"},"to":{"name":"Fondation / Étudiants","stopId":"1:261","stopCode":"261","lon":-71.053953,"lat":48.417524,"arrival":1522677884000,"departure":1522677885000,"zoneId":"NA","stopIndex":23,"stopSequence":24,"vertexType":"TRANSIT"},"legGeometry":{"points":"uynfHflspLdN|Nc@bAuA~C}VeWaEpLeIrU|D~E","length":8},"routeShortName":"10","routeLongName":"Notre-Dame du Saguenay","rentedBike":false,"transitLeg":true,"duration":269.0,"steps":[]},{"startTime":1522677885000,"endTime":1522678002000,"departureDelay":0,"arrivalDelay":0,"realTime":false,"distance":153.204,"pathway":false,"mode":"WALK","route":"","agencyTimeZoneOffset":-14400000,"interlineWithPreviousLeg":false,"from":{"name":"Fondation / Étudiants","stopId":"1:261","stopCode":"261","lon":-71.053953,"lat":48.417524,"arrival":1522677884000,"departure":1522677885000,"zoneId":"NA","stopIndex":23,"stopSequence":24,"vertexType":"TRANSIT"},"to":{"name":"Destination","lon":-71.053021,"lat":48.418729,"arrival":1522678002000,"orig":"","vertexType":"NORMAL"},"legGeometry":{"points":"kpofHzutpLs@q@aCeCEFe@g@","length":5},"rentedBike":false,"transitLeg":false,"duration":117.0,"steps":[{"distance":122.981,"relativeDirection":"DEPART","streetName":"Rue de la Fondation","absoluteDirection":"NORTHEAST","stayOn":false,"area":false,"bogusName":false,"lon":-71.05389734227215,"lat":48.41750043741361,"elevation":[]},{"distance":30.223,"relativeDirection":"CONTINUE","streetName":"path","absoluteDirection":"NORTHEAST","stayOn":false,"area":false,"bogusName":false,"lon":-71.05297080000001,"lat":48.4184196,"elevation":[]}]}],"tooSloped":false}]},"debugOutput":{"precalculationTime":55,"pathCalculationTime":17,"pathTimes":[10,4,3],"renderingTime":0,"totalTime":72,"timedOut":false},"elevationMetadata":{"ellipsoidToGeoidDifference":-28.885904201182168,"geoidElevation":false}}