{"requestParameters":{"date":"2018/04/02","walkSpeed":"1.33","walkReluctance":"2.0","fromPlace":"48.429606,-71.090139","maxWalkDistance":"3000","waitReluctance":"1.0","carSpeed":"33","numItineraries":"3","waitAtBeginningFactor":"0.4","mode":"TRANSIT,WALK","ignoreRealtimeUpdates":"false","stairsReluctance":"2.0","toPlace":"48.42064,-71.024786","time":"12:35:00"},"plan":{"date":1522686900000,"from":{"name":"Origin","lon":-71.090139,"lat":48.429606,"orig":"","vertexType":"NORMAL"},"to":{"name":"Destination","lon":-71.024786,"lat":48.42064,"orig":"","vertexType":"NORMAL"},"itineraries":[{"duration":1983,"startTime":1522688258000,"endTime":1522690241000,"walkTime":739,"transitTime":1002,"waitingTime":242,"walkDistance":946.2162631512713,"walkLimitExceeded":false,"elevationLost":0.0,"elevationGained":0.0,"transfers":1,"legs":[{"startTime":1522688258000,"endTime":1522688859000,"departureDelay":0,"arrivalDelay":0,"realTime":false,"distance":775.058,"pathway":false,"mode":"WALK","route":"","agencyTimeZoneOffset":-14400000,"interlineWithPreviousLeg":false,"from":{"name":"Origin","lon":-71.090139,"lat":48.429606,"departure":1522688258000,"orig":"","vertexType":"NORMAL"},"to":{"name":"boul. Saguenay / Albert","stopId":"1:158","stopCode":"158","lon":-71.089619,"lat":48.434041,"arrival":1522688859000,"departure":1522688860000,"zoneId":"NA","stopIndex":29,"stopSequence":30,"vertexType":"TRANSIT"},"legGeometry":{"points":"_|qfH~v{pLU?eF@]Yp@qBDY@uBoBD{@EoAMaAYqAg@eAm@iBkAMMCJa@|ASdAGp@WnE","length":20},"rentedBike":false,"transitLeg":false,"duration":601.0,"steps":[{"distance":159.299,"relativeDirection":"DEPART","streetName":"Rue des Tuileries","absoluteDirection":"NORTH","stayOn":false,"area":false,"bogusName":false,"lon":-71.08991704218766,"lat":48.42960649690519,"elevation":[]},{"distance":103.584,"relativeDirection":"RIGHT","streetName":"Rue des Hauts-Jardins","absoluteDirection":"SOUTHEAST","stayOn":false,"area":false,"bogusName":false,"lon":-71.0897927,"lat":48.431015900000006,"elevation":[]},{"distance":342.496,"relativeDirection":"LEFT","streetName":"Rue J.-R.-Théberge","absoluteDirection":"NORTH","stayOn":false,"area":false,"bogusName":false,"lon":-71.088509,"lat":48.4307299,"elevation":[]},{"distance":169.679,"relativeDirection":"LEFT","streetName":"Boulevard du Saguenay Ouest","absoluteDirection":"NORTHWEST","stayOn":false,"area":false,"bogusName":false,"lon":-71.0874263,"lat":48.433672300000005,"elevation":[]}]},{"startTime":1522688860000,"endTime":1522689060000,"departureDelay":0,"arrivalDelay":0,"realTime":false,"distance":1834.8912322043236,"pathway":false,"mode":"BUS","route":"3","agencyName":"Société de Transport du Saguenay","agencyUrl":"http://ville.saguenay.ca/fr/services-aux-citoyens/transport-sts","agencyTimeZoneOffset":-14400000,"routeColor":"FF0000","routeType":3,"routeId":"1:3","routeTextColor":"FFFFFF","interlineWithPreviousLeg":false,"tripBlockId":"7","headsign":"Terminus Chicoutimi","agencyId":"0","tripId":"1:217333","serviceDate":"20180402","from":{"name":"boul. Saguenay / Albert","stopId":"1:158","stopCode":"158","lon":-71.089619,"lat":48.434041,"arrival":1522688859000,"departure":1522688860000,"zoneId":"NA","stopIndex":29,"stopSequence":30,"vertexType":"TRANSIT"},"to":{"name":"Terminus Chicoutimi","stopId":"1:1289","stopCode":"1289","lon":-71.066163,"lat":48.428677,"arrival":1522689060000,"departure":1522689300000,"zoneId":"NA","stopIndex":32,"stopSequence":33,"vertexType":"TRANSIT"},"legGeometry":{"points":"exrfH`u{pLPiDN_BZcB`@mAxGgV|Ju^\\eBVgBLcB|@}^FkAF}DJyDPwGvAHVyL","length":17},"routeShortName":"3","routeLongName":"Chic/Jonq via Boul. Saguenay","rentedBike":false,"transitLeg":true,"duration":200.0,"steps":[]},{"startTime":1522689300000,"endTime":1522690102000,"departureDelay":0,"arrivalDelay":0,"realTime":false,"distance":5253.980804215265,"pathway":false,"mode":"BUS","route":"12","agencyName":"Société de Transport du Saguenay","agencyUrl":"http://ville.saguenay.ca/fr/services-aux-citoyens/transport-sts","agencyTimeZoneOffset":-14400000,"routeColor":"556B2F","routeType":3,"routeId":"1:12","routeTextColor":"FFFFFF","interlineWithPreviousLeg":false,"tripBlockId":"28","headsign":"Terminus UQAC","agencyId":"0","tripId":"1:218039","serviceDate":"20180402","from":{"name":"Terminus Chicoutimi","stopId":"1:1289","stopCode":"1289","lon":-71.066163,"lat":48.428677,"arrival":1522689060000,"departure":1522689300000,"zoneId":"NA","stopIndex":0,"stopSequence":1,"vertexType":"TRANSIT"},"to":{"name":"Languedoc / Gascogne","stopId":"1:1535","stopCode":"1535","lon":-71.024467,"lat":48.419483,"arrival":1522690102000,"departure":1522690103000,"zoneId":"NA","stopIndex":23,"stopSequence":24,"vertexType":"TRANSIT"},"legGeometry":{"points":"evqfHpbwpLpFcj@IaKmFy^_DaZz@u]SeV}@aNs@gKToKd@gTnCyHkGuLqFqJ_DeFf@iIvGsKlIrH`JlH`EfDnOdIdGlGjL|BzBiL","length":24},"routeShortName":"12","routeLongName":"Rivière du Moulin","rentedBike":false,"transitLeg":true,"duration":802.0,"steps":[]},{"startTime":1522690103000,"endTime":1522690241000,"departureDelay":0,"arrivalDelay":0,"realTime":false,"distance":170.953,"pathway":false,"mode":"WALK","route":"","agencyTimeZoneOffset":-14400000,"interlineWithPreviousLeg":false,"from":{"name":"Languedoc / Gascogne","stopId":"1:1535","stopCode":"1535","lon":-71.024467,"lat":48.419483,"arrival":1522690102000,"departure":1522690103000,"zoneId":"NA","stopIndex":23,"stopSequence":24,"vertexType":"TRANSIT"},"to":{"name":"Destination","lon":-71.024786,"lat":48.42064,"arrival":1522690241000,"orig":"","vertexType":"NORMAL"},"legGeometry":{"points":"q|ofHp}npLMMe@rAg@xA[[QSKKOOMMCCKKIIIK","length":13},"rentedBike":false,"transitLeg":false,"duration":138.0,"steps":[{"distance":8.905,"relativeDirection":"DEPART","streetName":"Rue de Gascogne","absoluteDirection":"NORTHEAST","stayOn":false,"area":false,"bogusName":false,"lon":-71.02440387326722,"lat":48.4194542564485,"elevation":[]},{"distance":78.046,"relativeDirection":"LEFT","streetName":"Rue du Languedoc","absoluteDirection":"NORTHWEST","stayOn":false,"area":false,"bogusName":false,"lon":-71.0243356,"lat":48.4195203,"elevation":[]},{"distance":84.002,"relativeDirection":"RIGHT","streetName":"Rue Monseigneur-Laflamme","absoluteDirection":"NORTHEAST","stayOn":false,"area":false,"bogusName":false,"lon":-71.0252092,"lat":48.41991590000001,"elevation":[]}]}],"tooSloped":false},{"duration":2791,"startTime":1522689250000,"endTime":1522692041000,"walkTime":1987,"transitTime":802,"waitingTime":2,"walkDistance":2576.1148947285196,"walkLimitExceeded":false,"elevationLost":0.0,"elevationGained":0.0,"transfers":0,"legs":[{"startTime":1522689250000,"endTime":1522691099000,"departureDelay":0,"arrivalDelay":0,"realTime":false,"distance":2404.904,"pathway":false,"mode":"WALK","route":"","agencyTimeZoneOffset":-14400000,"interlineWithPreviousLeg":false,"from":{"name":"Origin","lon":-71.090139,"lat":48.429606,"departure":1522689250000,"orig":"","vertexType":"NORMAL"},"to":{"name":"Terminus Chicoutimi","stopId":"1:1289","stopCode":"1289","lon":-71.066163,"lat":48.428677,"arrival":1522691099000,"departure":1522691100000,"zoneId":"NA","stopIndex":0,"stopSequence":1,"vertexType":"TRANSIT"},"legGeometry":{"points":"_|qfH~v{pLU?eF@]Yp@qBDY@uBoBD{@EoAMaAYqAg@eAm@iBkAMM`CmIh@yBrBiHLc@pEePt@sCJa@bBiGVyAP{ANwBTeIFgC@]H_DDuALmEDaB@Y@Q@SDgBFyE@[JuFB_@PoDDgA@y@XoFBg@N@~AL","length":48},"rentedBike":false,"transitLeg":false,"duration":1849.0,"steps":[{"distance":159.299,"relativeDirection":"DEPART","streetName":"Rue des Tuileries","absoluteDirection":"NORTH","stayOn":false,"area":false,"bogusName":false,"lon":-71.08991704218766,"lat":48.42960649690519,"elevation":[]},{"distance":103.584,"relativeDirection":"RIGHT","streetName":"Rue des Hauts-Jardins","absoluteDirection":"SOUTHEAST","stayOn":false,"area":false,"bogusName":false,"lon":-71.0897927,"lat":48.431015900000006,"elevation":[]},{"distance":342.496,"relativeDirection":"LEFT","streetName":"Rue J.-R.-Théberge","absoluteDirection":"NORTH","stayOn":false,"area":false,"bogusName":false,"lon":-71.088509,"lat":48.4307299,"elevation":[]},{"distance":1518.1779999999999,"relativeDirection":"RIGHT","streetName":"Boulevard du Saguenay Ouest","absoluteDirection":"SOUTHEAST","stayOn":false,"area":false,"bogusName":false,"lon":-71.0874263,"lat":48.433672300000005,"elevation":[]},{"distance":219.005,"relativeDirection":"CONTINUE","streetName":"Boulevard du Saguenay Est","absoluteDirection":"EAST","stayOn":false,"area":false,"bogusName":false,"lon":-71.06830790000001,"lat":48.429469600000004,"elevation":[]},{"distance":62.342,"relativeDirection":"RIGHT","streetName":"Rue Morin","absoluteDirection":"SOUTH","stayOn":false,"area":false,"bogusName":false,"lon":-71.0653717,"lat":48.429186300000005,"elevation":[]}]},{"startTime":1522691100000,"endTime":1522691902000,"departureDelay":0,"arrivalDelay":0,"realTime":false,"distance":5253.980804215265,"pathway":false,"mode":"BUS","route":"12","agencyName":"Société de Transport du Saguenay","agencyUrl":"http://ville.saguenay.ca/fr/services-aux-citoyens/transport-sts","agencyTimeZoneOffset":-14400000,"routeColor":"556B2F","routeType":3,"routeId":"1:12","routeTextColor":"FFFFFF","interlineWithPreviousLeg":false,"tripBlockId":"27","headsign":"Terminus UQAC","agencyId":"0","tripId":"1:218014","serviceDate":"20180402","from":{"name":"Terminus Chicoutimi","stopId":"1:1289","stopCode":"1289","lon":-71.066163,"lat":48.428677,"arrival":1522691099000,"departure":1522691100000,"zoneId":"NA","stopIndex":0,"stopSequence":1,"vertexType":"TRANSIT"},"to":{"name":"Languedoc / Gascogne","stopId":"1:1535","stopCode":"1535","lon":-71.024467,"lat":48.419483,"arrival":1522691902000,"departure":1522691903000,"zoneId":"NA","stopIndex":23,"stopSequence":24,"vertexType":"TRANSIT"},"legGeometry":{"points":"evqfHpbwpLpFcj@IaKmFy^_DaZz@u]SeV}@aNs@gKToKd@gTnCyHkGuLqFqJ_DeFf@iIvGsKlIrH`JlH`EfDnOdIdGlGjL|BzBiL","length":24},"routeShortName":"12","routeLongName":"Rivière du Moulin","rentedBike":false,"transitLeg":true,"duration":802.0,"steps":[]},{"startTime":1522691903000,"endTime":1522692041000,"departureDelay":0,"arrivalDelay":0,"realTime":false,"distance":170.953,"pathway":false,"mode":"WALK","route":"","agencyTimeZoneOffset":-14400000,"interlineWithPreviousLeg":false,"from":{"name":"Languedoc / Gascogne","stopId":"1:1535","stopCode":"1535","lon":-71.024467,"lat":48.419483,"arrival":1522691902000,"departure":1522691903000,"zoneId":"NA","stopIndex":23,"stopSequence":24,"vertexType":"TRANSIT"},"to":{"name":"Destination","lon":-71.024786,"lat":48.42064,"arrival":1522692041000,"orig":"","vertexType":"NORMAL"},"legGeometry":{"points":"q|ofHp}npLMMe@rAg@xA[[QSKKOOMMCCKKIIIK","length":13},"rentedBike":false,"transitLeg":false,"duration":138.0,"steps":[{"distance":8.905,"relativeDirection":"DEPART","streetName":"Rue de Gascogne","absoluteDirection":"NORTHEAST","stayOn":false,"area":false,"bogusName":false,"lon":-71.02440387326722,"lat":48.4194542564485,"elevation":[]},{"distance":78.046,"relativeDirection":"LEFT","streetName":"Rue du Languedoc","absoluteDirection":"NORTHWEST","stayOn":false,"area":false,"bogusName":false,"lon":-71.0243356,"lat":48.4195203,"elevation":[]},{"distance":84.002,"relativeDirection":"RIGHT","streetName":"Rue Monseigneur-Laflamme","absoluteDirection":"NORTHEAST","stayOn":false,"area":false,"bogusName":false,"lon":-71.0252092,"lat":48.41991590000001,"elevation":[]}]}],"tooSloped":false},{"duration":2845,"startTime":1522690058000,"endTime":1522692903000,"walkTime":1443,"transitTime":1340,"waitingTime":62,"walkDistance":1853.0421428456186,"walkLimitExceeded":false,"elevationLost":0.0,"elevationGained":0.0,"transfers":1,"legs":[{"startTime":1522690058000,"endTime":1522690659000,"departureDelay":0,"arrivalDelay":0,"realTime":false,"distance":775.058,"pathway":false,"mode":"WALK","route":"","agencyTimeZoneOffset":-14400000,"interlineWithPreviousLeg":false,"from":{"name":"Origin","lon":-71.090139,"lat":48.429606,"departure":1522690058000,"orig":"","vertexType":"NORMAL"},"to":{"name":"boul. Saguenay / Albert","stopId":"1:158","stopCode":"158","lon":-71.089619,"lat":48.434041,"arrival":1522690659000,"departure":1522690660000,"zoneId":"NA","stopIndex":29,"stopSequence":30,"vertexType":"TRANSIT"},"legGeometry":{"points":"_|qfH~v{pLU?eF@]Yp@qBDY@uBoBD{@EoAMaAYqAg@eAm@iBkAMMCJa@|ASdAGp@WnE","length":20},"rentedBike":false,"transitLeg":false,"duration":601.0,"steps":[{"distance":159.299,"relativeDirection":"DEPART","streetName":"Rue des Tuileries","absoluteDirection":"NORTH","stayOn":false,"area":false,"bogusName":false,"lon":-71.08991704218766,"lat":48.42960649690519,"elevation":[]},{"distance":103.584,"relativeDirection":"RIGHT","streetName":"Rue des Hauts-Jardins","absoluteDirection":"SOUTHEAST","stayOn":false,"area":false,"bogusName":false,"lon":-71.0897927,"lat":48.431015900000006,"elevation":[]},{"distance":342.496,"relativeDirection":"LEFT","streetName":"Rue J.-R.-Théberge","absoluteDirection":"NORTH","stayOn":false,"area":false,"bogusName":false,"lon":-71.088509,"lat":48.4307299,"elevation":[]},{"distance":169.679,"relativeDirection":"LEFT","streetName":"Boulevard du Saguenay Ouest","absoluteDirection":"NORTHWEST","stayOn":false,"area":false,"bogusName":false,"lon":-71.0874263,"lat":48.433672300000005,"elevation":[]}]},{"startTime":1522690660000,"endTime":1522690860000,"departureDelay":0,"arrivalDelay":0,"realTime":false,"distance":1834.8912322043236,"pathway":false,"mode":"BUS","route":"3","agencyName":"Société de Transport du Saguenay","agencyUrl":"http://ville.saguenay.ca/fr/services-aux-citoyens/transport-sts","agencyTimeZoneOffset":-14400000,"routeColor":"FF0000","routeType":3,"routeId":"1:3","routeTextColor":"FFFFFF","interlineWithPreviousLeg":false,"tripBlockId":"8","headsign":"Terminus Chicoutimi","agencyId":"0","tripId":"1:217370","serviceDate":"20180402","from":{"name":"boul. Saguenay / Albert","stopId":"1:158","stopCode":"158","lon":-71.089619,"lat":48.434041,"arrival":1522690659000,"departure":1522690660000,"zoneId":"NA","stopIndex":29,"stopSequence":30,"vertexType":"TRANSIT"},"to":{"name":"Terminus Chicoutimi","stopId":"1:1289","stopCode":"1289","lon":-71.066163,"lat":48.428677,"arrival":1522690860000,"departure":1522691100000,"zoneId":"NA","stopIndex":32,"stopSequence":33,"vertexType":"TRANSIT"},"legGeometry":{"points":"exrfH`u{pLPiDN_BZcB`@mAxGgV|Ju^\\eBVgBLcB|@}^FkAF}DJyDPwGvAHVyL","length":17},"routeShortName":"3","routeLongName":"Chic/Jonq via Boul. Saguenay","rentedBike":false,"transitLeg":true,"duration":200.0,"steps":[]},{"startTime":1522691100000,"endTime":1522691640000,"departureDelay":0,"arrivalDelay":0,"realTime":false,"distance":2386.9007738290497,"pathway":false,"mode":"BUS","route":"175","agencyName":"Société de Transport du Saguenay","agencyUrl":"http://ville.saguenay.ca/fr/services-aux-citoyens/transport-sts","agencyTimeZoneOffset":-14400000,"routeColor":"FF00FF","routeType":3,"routeId":"1:175","routeTextColor":"FFFFFF","interlineWithPreviousLeg":true,"tripBlockId":"8","headsign":"Costco","agencyId":"0","tripId":"1:217371","serviceDate":"20180402","from":{"name":"Terminus Chicoutimi","stopId":"1:1289","stopCode":"1289","lon":-71.066163,"lat":48.428677,"arrival":1522690860000,"departure":1522691100000,"zoneId":"NA","stopIndex":0,"stopSequence":1,"vertexType":"TRANSIT"},"to":{"name":"Terminus UQAC","stopId":"1:1670","stopCode":"1670","lon":-71.053369,"lat":48.420903,"arrival":1522691640000,"departure":1522691700000,"zoneId":"NA","stopIndex":11,"stopSequence":12,"vertexType":"TRANSIT"},"legGeometry":{"points":"kvqfH~awpL~CgBbAqa@FwCBkAOsHAg@bAYUwMKoE@mB@kJ@iFbEf@xEj@iCtYp@r@z@`ABBvHtHXRx@l@VwAvAgB\\qBIuAC]g@yEzDuLbBbBvAxAMx@|@v@","length":33},"routeShortName":"175","routeLongName":"Term. Chic / Costco","rentedBike":false,"transitLeg":true,"duration":540.0,"steps":[]},{"startTime":1522691700000,"endTime":1522692060000,"departureDelay":0,"arrivalDelay":0,"realTime":false,"distance":3070.591992791042,"pathway":false,"mode":"BUS","route":"6","agencyName":"Société de Transport du Saguenay","agencyUrl":"http://ville.saguenay.ca/fr/services-aux-citoyens/transport-sts","agencyTimeZoneOffset":-14400000,"routeColor":"FF0000","routeType":3,"routeId":"1:6","routeTextColor":"FFFFFF","interlineWithPreviousLeg":false,"tripBlockId":"24","headsign":"Terminus La Baie","agencyId":"0","tripId":"1:217914","serviceDate":"20180402","from":{"name":"Terminus UQAC","stopId":"1:1670","stopCode":"1670","lon":-71.053369,"lat":48.420903,"arrival":1522691640000,"departure":1522691700000,"zoneId":"NA","stopIndex":0,"stopSequence":1,"vertexType":"TRANSIT"},"to":{"name":"boul. St-Jean-Baptiste / boul. Université","stopId":"1:196","stopCode":"196","lon":-71.024224,"lat":48.412686,"arrival":1522692060000,"departure":1522692061000,"zoneId":"NA","stopIndex":4,"stopSequence":5,"vertexType":"TRANSIT"},"legGeometry":{"points":"sepfHprtpL\\Xd@j@Tw@dEdEJ`@E~Db@pBxAtDdNaLfB}Ad@c@h@i@`@[`@_@XOr@_@hAUjCOJA~@O~@y@~@uAd@{AxA_EpAuDJYhCeI`B_MDaAFsA@q@CeBKkDc@cIsFa{@QoBe@cHc@aEeC_Oa@iDk@iIMWxAo@\\U","length":45},"routeShortName":"6","routeLongName":"Term. Chic/Term. Baie via ch.Plateau","rentedBike":false,"transitLeg":true,"duration":360.0,"steps":[]},{"startTime":1522692061000,"endTime":1522692903000,"departureDelay":0,"arrivalDelay":0,"realTime":false,"distance":1077.627,"pathway":false,"mode":"WALK","route":"","agencyTimeZoneOffset":-14400000,"interlineWithPreviousLeg":false,"from":{"name":"boul. St-Jean-Baptiste / boul. Université","stopId":"1:196","stopCode":"196","lon":-71.024224,"lat":48.412686,"arrival":1522692060000,"departure":1522692061000,"zoneId":"NA","stopIndex":4,"stopSequence":5,"vertexType":"TRANSIT"},"to":{"name":"Destination","lon":-71.024786,"lat":48.42064,"arrival":1522692903000,"orig":"","vertexType":"NORMAL"},"legGeometry":{"points":"qrnfHj{npLgBdAq@JUDaBTOB_DUGz@UlBwBwAgAe@c@OQIOQa@a@GIYYa@Oi@Sc@QSUKA_@Ci@C?PEZERYr@U`@IPWf@GNWh@CFMPK@GECCUUEEWWCEWWKKQQII[]MMe@rAg@xA[[QSKKOOMMCCKKIIIK","length":59},"rentedBike":false,"transitLeg":false,"duration":842.0,"steps":[{"distance":63.238,"relativeDirection":"DEPART","streetName":"Boulevard Saint-Jean-Baptiste","absoluteDirection":"NORTHWEST","stayOn":false,"area":false,"bogusName":false,"lon":-71.02405587242363,"lat":48.41273627415948,"elevation":[]},{"distance":194.45999999999998,"relativeDirection":"CONTINUE","streetName":"Boulevard du Saguenay Est","absoluteDirection":"NORTH","stayOn":false,"area":false,"bogusName":false,"lon":-71.0244078,"lat":48.413254800000004,"elevation":[]},{"distance":65.147,"relativeDirection":"LEFT","streetName":"Rue de l'Auvergne","absoluteDirection":"WEST","stayOn":false,"area":false,"bogusName":false,"lon":-71.02451330000001,"lat":48.4149892,"elevation":[]},{"distance":332.176,"relativeDirection":"RIGHT","streetName":"Rue De l'Alsace","absoluteDirection":"NORTHEAST","stayOn":false,"area":false,"bogusName":false,"lon":-71.0253667,"lat":48.4151352,"elevation":[]},{"distance":260.558,"relativeDirection":"LEFT","streetName":"Rue de Gascogne","absoluteDirection":"WEST","stayOn":false,"area":false,"bogusName":false,"lon":-71.02373370000001,"lat":48.4178748,"elevation":[]},{"distance":78.046,"relativeDirection":"LEFT","streetName":"Rue du Languedoc","absoluteDirection":"NORTHWEST","stayOn":false,"area":false,"bogusName":false,"lon":-71.0243356,"lat":48.4195203,"elevation":[]},{"distance":84.002,"relativeDirection":"RIGHT","streetName":"Rue Monseigneur-Laflamme","absoluteDirection":"NORTHEAST","stayOn":false,"area":false,"bogusName":false,"lon":-71.0252092,"lat":48.41991590000001,"elevation":[]}]}],"tooSloped":false}]},"debugOutput":{"precalculationTime":10,"pathCalculationTime":33,"pathTimes":[15,7,11],"renderingTime":1,"totalTime":44,"timedOut":false},"elevationMetadata":{"ellipsoidToGeoidDifference":-28.885904201182168,"geoidElevation":false}}