{"requestParameters":{"date":"2018/04/02","walkSpeed":"1.33","walkReluctance":"2.0","fromPlace":"48.427933,-71.02105","maxWalkDistance":"3000","waitReluctance":"1.0","carSpeed":"33","numItineraries":"3","waitAtBeginningFactor":"0.4","mode":"TRANSIT,WALK","ignoreRealtimeUpdates":"false","stairsReluctance":"2.0","toPlace":"48.429325,-71.02572899","time":"7:45:00"},"plan":{"date":1522669500000,"from":{"name":"Origin","lon":-71.02105,"lat":48.427933,"orig":"","vertexType":"NORMAL"},"to":{"name":"Destination","lon":-71.02572899,"lat":48.429325,"orig":"","vertexType":"NORMAL"},"itineraries":[{"duration":338,"startTime":1522669500000,"endTime":1522669838000,"walkTime":338,"transitTime":0,"waitingTime":0,"walkDistance":439.20733834472446,"walkLimitExceeded":false,"elevationLost":0.0,"elevationGained":0.0,"transfers":0,"legs":[{"startTime":1522669500000,"endTime":1522669838000,"departureDelay":0,"arrivalDelay":0,"realTime":false,"distance":439.172,"pathway":false,"mode":"WALK","route":"","agencyTimeZoneOffset":-14400000,"interlineWithPreviousLeg":false,"from":{"name":"Origin","lon":-71.02105,"lat":48.427933,"departure":1522669500000,"orig":"","vertexType":"NORMAL"},"to":{"name":"Destination","lon":-71.02572899,"lat":48.429325,"arrival":1522669838000,"orig":"","vertexType":"NORMAL"},"legGeometry":{"points":"_rqfHtinpLxBjB}@|CyCrJmAbEk@lB","length":6},"rentedBike":false,"transitLeg":false,"duration":338.0,"steps":[{"distance":78.191,"relativeDirection":"DEPART","streetName":"Rue de Normandie","absoluteDirection":"SOUTHWEST","stayOn":false,"area":false,"bogusName":false,"lon":-71.02122853976267,"lat":48.42800290990542,"elevation":[]},{"distance":360.981,"relativeDirection":"RIGHT","streetName":"Rue des Érables","absoluteDirection":"NORTHWEST","stayOn":false,"area":false,"bogusName":false,"lon":-71.0217671,"lat":48.4273973,"elevation":[]}]}],"tooSloped":false},{"duration":387,"startTime":1522670385000,"endTime":1522670772000,"walkTime":220,"transitTime":165,"waitingTime":2,"walkDistance":281.7465864650494,"walkLimitExceeded":false,"elevationLost":0.0,"elevationGained":0.0,"transfers":0,"legs":[{"startTime":1522670385000,"endTime":1522670474000,"departureDelay":0,"arrivalDelay":0,"realTime":false,"distance":116.35600000000001,"pathway":false,"mode":"WALK","route":"","agencyTimeZoneOffset":-14400000,"interlineWithPreviousLeg":false,"from":{"name":"Origin","lon":-71.02105,"lat":48.427933,"departure":1522670385000,"orig":"","vertexType":"NORMAL"},"to":{"name":"nouveau","stopId":"1:2301","stopCode":"2301","lon":-71.021923,"lat":48.427058,"arrival":1522670474000,"departure":1522670475000,"zoneId":"NA","stopIndex":22,"stopSequence":23,"vertexType":"TRANSIT"},"legGeometry":{"points":"_rqfHtinpLxBjBv@r@@@","length":4},"rentedBike":false,"transitLeg":false,"duration":89.0,"steps":[{"distance":116.35600000000001,"relativeDirection":"DEPART","streetName":"Rue de Normandie","absoluteDirection":"SOUTHWEST","stayOn":false,"area":false,"bogusName":false,"lon":-71.02122853976267,"lat":48.42800290990542,"elevation":[]}]},{"startTime":1522670475000,"endTime":1522670640000,"departureDelay":0,"arrivalDelay":0,"realTime":false,"distance":1118.594378064121,"pathway":false,"mode":"BUS","route":"12","agencyName":"Société de Transport du Saguenay","agencyUrl":"http://ville.saguenay.ca/fr/services-aux-citoyens/transport-sts","agencyTimeZoneOffset":-14400000,"routeColor":"556B2F","routeType":3,"routeId":"1:12","routeTextColor":"FFFFFF","interlineWithPreviousLeg":false,"tripBlockId":"29","headsign":"Terminus Chicoutimi","agencyId":"0","tripId":"1:218054","serviceDate":"20180402","from":{"name":"nouveau","stopId":"1:2301","stopCode":"2301","lon":-71.021923,"lat":48.427058,"arrival":1522670474000,"departure":1522670475000,"zoneId":"NA","stopIndex":22,"stopSequence":23,"vertexType":"TRANSIT"},"to":{"name":"nouveau","stopId":"1:2304","stopCode":"2304","lon":-71.026011,"lat":48.430204,"arrival":1522670640000,"departure":1522670641000,"zoneId":"NA","stopIndex":25,"stopSequence":26,"vertexType":"TRANSIT"},"legGeometry":{"points":"ilqfHpnnpL_TqQsBeB{HjWfAvAfM|O","length":6},"routeShortName":"12","routeLongName":"Rivière du Moulin","rentedBike":false,"transitLeg":true,"duration":165.0,"steps":[]},{"startTime":1522670641000,"endTime":1522670772000,"departureDelay":0,"arrivalDelay":0,"realTime":false,"distance":165.356,"pathway":false,"mode":"WALK","route":"","agencyTimeZoneOffset":-14400000,"interlineWithPreviousLeg":false,"from":{"name":"nouveau","stopId":"1:2304","stopCode":"2304","lon":-71.026011,"lat":48.430204,"arrival":1522670640000,"departure":1522670641000,"zoneId":"NA","stopIndex":25,"stopSequence":26,"vertexType":"TRANSIT"},"to":{"name":"Destination","lon":-71.02572899,"lat":48.429325,"arrival":1522670772000,"orig":"","vertexType":"NORMAL"},"legGeometry":{"points":"m_rfH|fopLVVPNrBnBr@cCBK","length":6},"rentedBike":false,"transitLeg":false,"duration":131.0,"steps":[{"distance":104.077,"relativeDirection":"DEPART","streetName":"Rue Arthur-Hamel","absoluteDirection":"SOUTHWEST","stayOn":false,"area":false,"bogusName":false,"lon":-71.02590303997721,"lat":48.43015553479973,"elevation":[]},{"distance":61.279,"relativeDirection":"LEFT","streetName":"Rue des Érables","absoluteDirection":"SOUTHEAST","stayOn":false,"area":false,"bogusName":false,"lon":-71.02666070000001,"lat":48.4293661,"elevation":[]}]}],"tooSloped":false}]},"debugOutput":{"precalculationTime":10,"pathCalculationTime":15,"pathTimes":[3,6,6],"renderingTime":0,"totalTime":25,"timedOut":false},"elevationMetadata":{"ellipsoidToGeoidDifference":-28.885904201182168,"geoidElevation":false}}