{"requestParameters":{"date":"2018/04/02","walkSpeed":"1.33","walkReluctance":"2.0","fromPlace":"48.426958,-71.021892","maxWalkDistance":"3000","waitReluctance":"1.0","carSpeed":"33","numItineraries":"3","waitAtBeginningFactor":"0.4","mode":"TRANSIT,WALK","ignoreRealtimeUpdates":"false","stairsReluctance":"2.0","toPlace":"48.429325,-71.02572899","time":"7:10:00"},"plan":{"date":1522667400000,"from":{"name":"Origin","lon":-71.021892,"lat":48.426958,"orig":"","vertexType":"NORMAL"},"to":{"name":"Destination","lon":-71.02572899,"lat":48.429325,"orig":"","vertexType":"NORMAL"},"itineraries":[{"duration":316,"startTime":1522667400000,"endTime":1522667716000,"walkTime":316,"transitTime":0,"waitingTime":0,"walkDistance":407.45571428456185,"walkLimitExceeded":false,"elevationLost":0.0,"elevationGained":0.0,"transfers":0,"legs":[{"startTime":1522667400000,"endTime":1522667716000,"departureDelay":0,"arrivalDelay":0,"realTime":false,"distance":407.41999999999996,"pathway":false,"mode":"WALK","route":"","agencyTimeZoneOffset":-14400000,"interlineWithPreviousLeg":false,"from":{"name":"Origin","lon":-71.021892,"lat":48.426958,"departure":1522667400000,"orig":"","vertexType":"NORMAL"},"to":{"name":"Destination","lon":-71.02572899,"lat":48.429325,"arrival":1522667716000,"orig":"","vertexType":"NORMAL"},"legGeometry":{"points":"_lqfHbonpLKKAAw@s@}@|CyCrJmAbEk@lB","length":8},"rentedBike":false,"transitLeg":false,"duration":316.0,"steps":[{"distance":46.439,"relativeDirection":"DEPART","streetName":"Rue de Normandie","absoluteDirection":"NORTHEAST","stayOn":false,"area":false,"bogusName":false,"lon":-71.02209672744101,"lat":48.42704152163607,"elevation":[]},{"distance":360.981,"relativeDirection":"LEFT","streetName":"Rue des Érables","absoluteDirection":"NORTHWEST","stayOn":false,"area":false,"bogusName":false,"lon":-71.0217671,"lat":48.4273973,"elevation":[]}]}],"tooSloped":false},{"duration":305,"startTime":1522668667000,"endTime":1522668972000,"walkTime":138,"transitTime":165,"waitingTime":2,"walkDistance":173.66458646504944,"walkLimitExceeded":false,"elevationLost":0.0,"elevationGained":0.0,"transfers":0,"legs":[{"startTime":1522668667000,"endTime":1522668674000,"departureDelay":0,"arrivalDelay":0,"realTime":false,"distance":8.274,"pathway":false,"mode":"WALK","route":"","agencyTimeZoneOffset":-14400000,"interlineWithPreviousLeg":false,"from":{"name":"Origin","lon":-71.021892,"lat":48.426958,"departure":1522668667000,"orig":"","vertexType":"NORMAL"},"to":{"name":"nouveau","stopId":"1:2301","stopCode":"2301","lon":-71.021923,"lat":48.427058,"arrival":1522668674000,"departure":1522668675000,"zoneId":"NA","stopIndex":22,"stopSequence":23,"vertexType":"TRANSIT"},"legGeometry":{"points":"_lqfHbonpLKK","length":2},"rentedBike":false,"transitLeg":false,"duration":7.0,"steps":[{"distance":8.274,"relativeDirection":"DEPART","streetName":"Rue de Normandie","absoluteDirection":"NORTHEAST","stayOn":false,"area":false,"bogusName":false,"lon":-71.02209672744101,"lat":48.42704152163607,"elevation":[]}]},{"startTime":1522668675000,"endTime":1522668840000,"departureDelay":0,"arrivalDelay":0,"realTime":false,"distance":1118.594378064121,"pathway":false,"mode":"BUS","route":"12","agencyName":"Société de Transport du Saguenay","agencyUrl":"http://ville.saguenay.ca/fr/services-aux-citoyens/transport-sts","agencyTimeZoneOffset":-14400000,"routeColor":"556B2F","routeType":3,"routeId":"1:12","routeTextColor":"FFFFFF","interlineWithPreviousLeg":false,"tripBlockId":"26","headsign":"Terminus Chicoutimi","agencyId":"0","tripId":"1:217965","serviceDate":"20180402","from":{"name":"nouveau","stopId":"1:2301","stopCode":"2301","lon":-71.021923,"lat":48.427058,"arrival":1522668674000,"departure":1522668675000,"zoneId":"NA","stopIndex":22,"stopSequence":23,"vertexType":"TRANSIT"},"to":{"name":"nouveau","stopId":"1:2304","stopCode":"2304","lon":-71.026011,"lat":48.430204,"arrival":1522668840000,"departure":1522668841000,"zoneId":"NA","stopIndex":25,"stopSequence":26,"vertexType":"TRANSIT"},"legGeometry":{"points":"ilqfHpnnpL_TqQsBeB{HjWfAvAfM|O","length":6},"routeShortName":"12","routeLongName":"Rivière du Moulin","rentedBike":false,"transitLeg":true,"duration":165.0,"steps":[]},{"startTime":1522668841000,"endTime":1522668972000,"departureDelay":0,"arrivalDelay":0,"realTime":false,"distance":165.356,"pathway":false,"mode":"WALK","route":"","agencyTimeZoneOffset":-14400000,"interlineWithPreviousLeg":false,"from":{"name":"nouveau","stopId":"1:2304","stopCode":"2304","lon":-71.026011,"lat":48.430204,"arrival":1522668840000,"departure":1522668841000,"zoneId":"NA","stopIndex":25,"stopSequence":26,"vertexType":"TRANSIT"},"to":{"name":"Destination","lon":-71.02572899,"lat":48.429325,"arrival":1522668972000,"orig":"","vertexType":"NORMAL"},"legGeometry":{"points":"m_rfH|fopLVVPNrBnBr@cCBK","length":6},"rentedBike":false,"transitLeg":false,"duration":131.0,"steps":[{"distance":104.077,"relativeDirection":"DEPART","streetName":"Rue Arthur-Hamel","absoluteDirection":"SOUTHWEST","stayOn":false,"area":false,"bogusName":false,"lon":-71.02590303997721,"lat":48.43015553479973,"elevation":[]},{"distance":61.279,"relativeDirection":"LEFT","streetName":"Rue des Érables","absoluteDirection":"SOUTHEAST","stayOn":false,"area":false,"bogusName":false,"lon":-71.02666070000001,"lat":48.4293661,"elevation":[]}]}],"tooSloped":false}]},"debugOutput":{"precalculationTime":10,"pathCalculationTime":15,"pathTimes":[2,7,6],"renderingTime":0,"totalTime":25,"timedOut":false},"elevationMetadata":{"ellipsoidToGeoidDifference":-28.885904201182168,"geoidElevation":false}}