{"requestParameters":{"date":"2018/04/02","walkSpeed":"1.33","walkReluctance":"2.0","fromPlace":"48.426905,-71.048929","maxWalkDistance":"3000","waitReluctance":"1.0","carSpeed":"33","numItineraries":"3","waitAtBeginningFactor":"0.4","mode":"TRANSIT,WALK","ignoreRealtimeUpdates":"false","stairsReluctance":"2.0","toPlace":"48.423942,-71.024523","time":"19:20:00"},"plan":{"date":1522711200000,"from":{"name":"Origin","lon":-71.048929,"lat":48.426905,"orig":"","vertexType":"NORMAL"},"to":{"name":"Destination","lon":-71.024523,"lat":48.423942,"orig":"","vertexType":"NORMAL"},"itineraries":[{"duration":2295,"startTime":1522711200000,"endTime":1522713495000,"walkTime":2295,"transitTime":0,"waitingTime":0,"walkDistance":2973.267240593558,"walkLimitExceeded":false,"elevationLost":0.0,"elevationGained":0.0,"transfers":0,"legs":[{"startTime":1522711200000,"endTime":1522713495000,"departureDelay":0,"arrivalDelay":0,"realTime":false,"distance":2973.0209999999997,"pathway":false,"mode":"WALK","route":"","agencyTimeZoneOffset":-14400000,"interlineWithPreviousLeg":false,"from":{"name":"Origin","lon":-71.048929,"lat":48.426905,"departure":1522711200000,"orig":"","vertexType":"NORMAL"},"to":{"name":"Destination","lon":-71.024523,"lat":48.423942,"arrival":1522713495000,"orig":"","vertexType":"NORMAL"},"legGeometry":{"points":"wkqfHn~spLmAMIBCJAvEArA_@Lc@Fq@LeBVWDUDg@}@OQm@w@m@cBIm@Cq@@uH?g@@kC?kD@{A?[?}@?a@DmAB[PuBHkAB[Dy@DqA@q@@}@@M?ADqCA{JMuDCYGy@MiBKyAIqAM_BEq@?AKkAe@{HGgAAwADg@@S@YLgC?A@W@SF_AHqD@e@DkBFeB@kB@y@@c@^s@f@_Aj@cBBM@CRw@H]h@sBDOdCaJXeAvAoDRg@`AaCbAn@^H^?fA?BsArCrBhATtCnAd@V","length":90},"rentedBike":false,"transitLeg":false,"duration":2295.0,"steps":[{"distance":49.551,"relativeDirection":"DEPART","streetName":"Rue Saint-Vallier","absoluteDirection":"NORTH","stayOn":false,"area":false,"bogusName":false,"lon":-71.05015383380092,"lat":48.4270029418696,"elevation":[]},{"distance":116.096,"relativeDirection":"LEFT","streetName":"Rue de l'Hôtel-Dieu","absoluteDirection":"WEST","stayOn":false,"area":false,"bogusName":false,"lon":-71.0501002,"lat":48.4274445,"elevation":[]},{"distance":151.044,"relativeDirection":"RIGHT","streetName":"Rue du Séminaire","absoluteDirection":"NORTH","stayOn":false,"area":false,"bogusName":false,"lon":-71.05166870000001,"lat":48.42748,"elevation":[]},{"distance":656.1899999999999,"relativeDirection":"RIGHT","streetName":"Rue Racine Est","absoluteDirection":"NORTHEAST","stayOn":false,"area":false,"bogusName":false,"lon":-71.0520228,"lat":48.4288171,"elevation":[]},{"distance":1605.204,"relativeDirection":"CONTINUE","streetName":"Boulevard du Saguenay Est","absoluteDirection":"EAST","stayOn":false,"area":false,"bogusName":false,"lon":-71.04363190000001,"lat":48.4293294,"elevation":[]},{"distance":117.854,"relativeDirection":"RIGHT","streetName":"Rue de Paris","absoluteDirection":"SOUTHWEST","stayOn":false,"area":false,"bogusName":false,"lon":-71.02324,"lat":48.426977,"elevation":[]},{"distance":31.131,"relativeDirection":"LEFT","streetName":"Rue de la Terrasse","absoluteDirection":"EAST","stayOn":false,"area":false,"bogusName":false,"lon":-71.02352110000001,"lat":48.4259542,"elevation":[]},{"distance":245.951,"relativeDirection":"RIGHT","streetName":"Rue de Normandie","absoluteDirection":"SOUTHWEST","stayOn":false,"area":false,"bogusName":false,"lon":-71.0231006,"lat":48.4259314,"elevation":[]}]}],"tooSloped":false},{"duration":1828,"startTime":1522711813000,"endTime":1522713641000,"walkTime":664,"transitTime":1162,"waitingTime":2,"walkDistance":831.1137217984218,"walkLimitExceeded":false,"elevationLost":0.0,"elevationGained":0.0,"transfers":0,"legs":[{"startTime":1522711813000,"endTime":1522712420000,"departureDelay":0,"arrivalDelay":0,"realTime":false,"distance":757.4359999999999,"pathway":false,"mode":"WALK","route":"","agencyTimeZoneOffset":-14400000,"interlineWithPreviousLeg":false,"from":{"name":"Origin","lon":-71.048929,"lat":48.426905,"departure":1522711813000,"orig":"","vertexType":"NORMAL"},"to":{"name":"Résidence de l' UQAC","stopId":"1:1928","stopCode":"1928","lon":-71.052293,"lat":48.421532,"arrival":1522712420000,"departure":1522712421000,"zoneId":"NA","stopIndex":1,"stopSequence":2,"vertexType":"TRANSIT"},"legGeometry":{"points":"wkqfHn~spLB?pBTF?J_@F?^DhBZP?FOBg@BoADy@b@DnBX\\FjAZ?^DbABDp@XLFJHd@ZJFXNV^h@l@ZVb@`@nAlAVPRPb@^TRLJTT@@","length":38},"rentedBike":false,"transitLeg":false,"duration":607.0,"steps":[{"distance":70.68700000000001,"relativeDirection":"DEPART","streetName":"Rue Saint-Vallier","absoluteDirection":"SOUTH","stayOn":false,"area":false,"bogusName":false,"lon":-71.05015383380092,"lat":48.4270029418696,"elevation":[]},{"distance":13.926,"relativeDirection":"LEFT","streetName":"path","absoluteDirection":"SOUTHEAST","stayOn":false,"area":false,"bogusName":true,"lon":-71.05026840000001,"lat":48.426371800000005,"elevation":[]},{"distance":99.413,"relativeDirection":"RIGHT","streetName":"service road","absoluteDirection":"SOUTH","stayOn":true,"area":false,"bogusName":true,"lon":-71.0501005,"lat":48.426314600000005,"elevation":[]},{"distance":66.589,"relativeDirection":"LEFT","streetName":"service road","absoluteDirection":"EAST","stayOn":true,"area":false,"bogusName":true,"lon":-71.05019700000001,"lat":48.425456700000005,"elevation":[]},{"distance":19.537,"relativeDirection":"RIGHT","streetName":"path","absoluteDirection":"SOUTH","stayOn":true,"area":false,"bogusName":true,"lon":-71.0493017,"lat":48.4253823,"elevation":[]},{"distance":123.78800000000001,"relativeDirection":"CONTINUE","streetName":"Chemin Sydenham","absoluteDirection":"SOUTH","stayOn":false,"area":false,"bogusName":false,"lon":-71.04933630000001,"lat":48.425208100000006,"elevation":[]},{"distance":37.224000000000004,"relativeDirection":"RIGHT","streetName":"road","absoluteDirection":"WEST","stayOn":false,"area":false,"bogusName":true,"lon":-71.0496408,"lat":48.424114100000004,"elevation":[]},{"distance":263.87899999999996,"relativeDirection":"LEFT","streetName":"road","absoluteDirection":"SOUTH","stayOn":true,"area":false,"bogusName":true,"lon":-71.0501431,"lat":48.4240852,"elevation":[]},{"distance":62.393,"relativeDirection":"CONTINUE","streetName":"Chemin Saint Thomas","absoluteDirection":"SOUTHWEST","stayOn":false,"area":false,"bogusName":false,"lon":-71.051902,"lat":48.4220343,"elevation":[]}]},{"startTime":1522712421000,"endTime":1522713583000,"departureDelay":0,"arrivalDelay":0,"realTime":false,"distance":6415.836282235773,"pathway":false,"mode":"BUS","route":"12","agencyName":"Société de Transport du Saguenay","agencyUrl":"http://ville.saguenay.ca/fr/services-aux-citoyens/transport-sts","agencyTimeZoneOffset":-14400000,"routeColor":"556B2F","routeType":3,"routeId":"1:12","routeTextColor":"FFFFFF","interlineWithPreviousLeg":false,"tripBlockId":"29","headsign":"Terminus Chicoutimi","agencyId":"0","tripId":"1:218078","serviceDate":"20180402","from":{"name":"Résidence de l' UQAC","stopId":"1:1928","stopCode":"1928","lon":-71.052293,"lat":48.421532,"arrival":1522712420000,"departure":1522712421000,"zoneId":"NA","stopIndex":1,"stopSequence":2,"vertexType":"TRANSIT"},"to":{"name":"nouveau","stopId":"1:2300","stopCode":"2300","lon":-71.024659,"lat":48.423249,"arrival":1522713583000,"departure":1522713584000,"zoneId":"NA","stopIndex":20,"stopSequence":21,"vertexType":"TRANSIT"},"legGeometry":{"points":"wipfHjltpLaB{A}DrL?jCv@fCa@nDaC`D~E`F~MfNjJnJ~GbHnCpCv@iBlAgIdCmFbAqDtBeCjFm@`Gs@hFo@xAmBrGcPxFoNlCyGa@yFYkD}CyA}KmFgD_BgAgBn@kFD_NoIgrAmD_WcAaLaDHoDJi`@wVoAbDbA|AnBU|B|AfBlAyLtKoGxFcFqD","length":46},"routeShortName":"12","routeLongName":"Rivière du Moulin","rentedBike":false,"transitLeg":true,"duration":1162.0,"steps":[]},{"startTime":1522713584000,"endTime":1522713641000,"departureDelay":0,"arrivalDelay":0,"realTime":false,"distance":73.489,"pathway":false,"mode":"WALK","route":"","agencyTimeZoneOffset":-14400000,"interlineWithPreviousLeg":false,"from":{"name":"nouveau","stopId":"1:2300","stopCode":"2300","lon":-71.024659,"lat":48.423249,"arrival":1522713583000,"departure":1522713584000,"zoneId":"NA","stopIndex":20,"stopSequence":21,"vertexType":"TRANSIT"},"to":{"name":"Destination","lon":-71.024523,"lat":48.423942,"arrival":1522713641000,"orig":"","vertexType":"NORMAL"},"legGeometry":{"points":"qtpfHt_opLY]UKOKYMMGMI","length":7},"rentedBike":false,"transitLeg":false,"duration":57.0,"steps":[{"distance":18.326,"relativeDirection":"DEPART","streetName":"Rue Fradette","absoluteDirection":"NORTHEAST","stayOn":false,"area":false,"bogusName":false,"lon":-71.0247455209892,"lat":48.423292245344086,"elevation":[]},{"distance":55.163,"relativeDirection":"CONTINUE","streetName":"Rue de Normandie","absoluteDirection":"NORTH","stayOn":false,"area":false,"bogusName":false,"lon":-71.02459610000001,"lat":48.4234239,"elevation":[]}]}],"tooSloped":false},{"duration":2492,"startTime":1522712949000,"endTime":1522715441000,"walkTime":107,"transitTime":2383,"waitingTime":2,"walkDistance":139.16863909756242,"walkLimitExceeded":false,"elevationLost":0.0,"elevationGained":0.0,"transfers":0,"legs":[{"startTime":1522712949000,"endTime":1522712999000,"departureDelay":0,"arrivalDelay":0,"realTime":false,"distance":65.674,"pathway":false,"mode":"WALK","route":"","agencyTimeZoneOffset":-14400000,"interlineWithPreviousLeg":false,"from":{"name":"Origin","lon":-71.048929,"lat":48.426905,"departure":1522712949000,"orig":"","vertexType":"NORMAL"},"to":{"name":"Hôpital de Chicoutimi (Saint-Vallier)","stopId":"1:342","stopCode":"342","lon":-71.050416,"lat":48.426429,"arrival":1522712999000,"departure":1522713000000,"zoneId":"NA","stopIndex":6,"stopSequence":7,"vertexType":"TRANSIT"},"legGeometry":{"points":"wkqfHn~spLB?pBT","length":3},"rentedBike":false,"transitLeg":false,"duration":50.0,"steps":[{"distance":65.674,"relativeDirection":"DEPART","streetName":"Rue Saint-Vallier","absoluteDirection":"SOUTH","stayOn":false,"area":false,"bogusName":false,"lon":-71.05015383380092,"lat":48.4270029418696,"elevation":[]}]},{"startTime":1522713000000,"endTime":1522714020000,"departureDelay":0,"arrivalDelay":0,"realTime":false,"distance":4887.670980347393,"pathway":false,"mode":"BUS","route":"10","agencyName":"Société de Transport du Saguenay","agencyUrl":"http://ville.saguenay.ca/fr/services-aux-citoyens/transport-sts","agencyTimeZoneOffset":-14400000,"routeColor":"0000FF","routeType":3,"routeId":"1:10","routeTextColor":"FFFFFF","interlineWithPreviousLeg":false,"tripBlockId":"26","headsign":"Terminus UQAC","agencyId":"0","tripId":"1:217990","serviceDate":"20180402","from":{"name":"Hôpital de Chicoutimi (Saint-Vallier)","stopId":"1:342","stopCode":"342","lon":-71.050416,"lat":48.426429,"arrival":1522712999000,"departure":1522713000000,"zoneId":"NA","stopIndex":6,"stopSequence":7,"vertexType":"TRANSIT"},"to":{"name":"Terminus UQAC","stopId":"1:1670","stopCode":"1670","lon":-71.053369,"lat":48.420903,"arrival":1522714020000,"departure":1522714200000,"zoneId":"NA","stopIndex":24,"stopSequence":25,"vertexType":"TRANSIT"},"legGeometry":{"points":"ahqfHd_tpLB@rEf@T_FjBXpDd@hCObDaCfCaHbFqN`CwG_J_CwMiDGe@T}C\\yELaCJeAJcAXw@Fk@M_@xBwVr@^LJ|@z@HdAlBbD`Av@b@\\v@d@`@BpBAzAXl@t@XZt@lCl@tAnBpB~@~@lDjDr@r@zDrDnAlAjBrBl@pBPlBCj@KrAAHSpAe@jB_A|Bz@xAvA~BvB|BdN|Nc@bAuA~C}VeWaEpLeIrU|D~EfDdEwLpKeBgGAsE]gAoD}CUt@a@_@USMM","length":73},"routeShortName":"10","routeLongName":"Notre-Dame du Saguenay","rentedBike":false,"transitLeg":true,"duration":1020.0,"steps":[]},{"startTime":1522714200000,"endTime":1522715383000,"departureDelay":0,"arrivalDelay":0,"realTime":false,"distance":6521.650597793084,"pathway":false,"mode":"BUS","route":"12","agencyName":"Société de Transport du Saguenay","agencyUrl":"http://ville.saguenay.ca/fr/services-aux-citoyens/transport-sts","agencyTimeZoneOffset":-14400000,"routeColor":"556B2F","routeType":3,"routeId":"1:12","routeTextColor":"FFFFFF","interlineWithPreviousLeg":true,"tripBlockId":"26","headsign":"Terminus Chicoutimi","agencyId":"0","tripId":"1:217991","serviceDate":"20180402","from":{"name":"Terminus UQAC","stopId":"1:1670","stopCode":"1670","lon":-71.053369,"lat":48.420903,"arrival":1522714020000,"departure":1522714200000,"zoneId":"NA","stopIndex":0,"stopSequence":1,"vertexType":"TRANSIT"},"to":{"name":"nouveau","stopId":"1:2300","stopCode":"2300","lon":-71.024659,"lat":48.423249,"arrival":1522715383000,"departure":1522715384000,"zoneId":"NA","stopIndex":20,"stopSequence":21,"vertexType":"TRANSIT"},"legGeometry":{"points":"sepfHprtpL}@y@Pw@wAsAaB{A}DrL?jCv@fCa@nDaC`D~E`F~MfNjJnJ~GbHnCpCv@iBlAgIdCmFbAqDtBeCjFm@`Gs@hFo@xAmBrGcPxFoNlCyGa@yFYkD}CyA}KmFgD_BgAgBn@kFD_NoIgrAmD_WcAaLaDHoDJi`@wVoAbDbA|AnBU|B|AfBlAyLtKoGxFcFqD","length":49},"routeShortName":"12","routeLongName":"Rivière du Moulin","rentedBike":false,"transitLeg":true,"duration":1183.0,"steps":[]},{"startTime":1522715384000,"endTime":1522715441000,"departureDelay":0,"arrivalDelay":0,"realTime":false,"distance":73.489,"pathway":false,"mode":"WALK","route":"","agencyTimeZoneOffset":-14400000,"interlineWithPreviousLeg":false,"from":{"name":"nouveau","stopId":"1:2300","stopCode":"2300","lon":-71.024659,"lat":48.423249,"arrival":1522715383000,"departure":1522715384000,"zoneId":"NA","stopIndex":20,"stopSequence":21,"vertexType":"TRANSIT"},"to":{"name":"Destination","lon":-71.024523,"lat":48.423942,"arrival":1522715441000,"orig":"","vertexType":"NORMAL"},"legGeometry":{"points":"qtpfHt_opLY]UKOKYMMGMI","length":7},"rentedBike":false,"transitLeg":false,"duration":57.0,"steps":[{"distance":18.326,"relativeDirection":"DEPART","streetName":"Rue Fradette","absoluteDirection":"NORTHEAST","stayOn":false,"area":false,"bogusName":false,"lon":-71.0247455209892,"lat":48.423292245344086,"elevation":[]},{"distance":55.163,"relativeDirection":"CONTINUE","streetName":"Rue de Normandie","absoluteDirection":"NORTH","stayOn":false,"area":false,"bogusName":false,"lon":-71.02459610000001,"lat":48.4234239,"elevation":[]}]}],"tooSloped":false}]},"debugOutput":{"precalculationTime":29,"pathCalculationTime":69,"pathTimes":[33,17,19],"renderingTime":0,"totalTime":98,"timedOut":false},"elevationMetadata":{"ellipsoidToGeoidDifference":-28.885904201182168,"geoidElevation":false}}