{"requestParameters":{"date":"2018/04/02","walkSpeed":"1.33","walkReluctance":"2.0","fromPlace":"48.403374,-71.058501","maxWalkDistance":"3000","waitReluctance":"1.0","carSpeed":"33","numItineraries":"3","waitAtBeginningFactor":"0.4","mode":"TRANSIT,WALK","ignoreRealtimeUpdates":"false","stairsReluctance":"2.0","toPlace":"48.427396,-71.022586","time":"10:30:00"},"plan":{"date":1522679400000,"from":{"name":"Origin","lon":-71.058501,"lat":48.403374,"orig":"","vertexType":"NORMAL"},"to":{"name":"Destination","lon":-71.022586,"lat":48.427396,"orig":"","vertexType":"NORMAL"},"itineraries":[{"duration":1436,"startTime":1522679953000,"endTime":1522681389000,"walkTime":658,"transitTime":776,"waitingTime":2,"walkDistance":833.0801729268723,"walkLimitExceeded":false,"elevationLost":0.0,"elevationGained":0.0,"transfers":0,"legs":[{"startTime":1522679953000,"endTime":1522680498000,"departureDelay":0,"arrivalDelay":0,"realTime":false,"distance":696.519,"pathway":false,"mode":"WALK","route":"","agencyTimeZoneOffset":-14400000,"interlineWithPreviousLeg":false,"from":{"name":"Origin","lon":-71.058501,"lat":48.403374,"departure":1522679953000,"orig":"","vertexType":"NORMAL"},"to":{"name":"Place du Saguenay (Champs-Élysées)","stopId":"1:571","stopCode":"571","lon":-71.055824,"lat":48.408307,"arrival":1522680498000,"departure":1522680499000,"zoneId":"NA","stopIndex":12,"stopSequence":13,"vertexType":"TRANSIT"},"legGeometry":{"points":"axlfHtrupLAAYWYWYYYWYW][UUUUu@`CiE_EMK}DqD{FkFKKO`@GPm@|A","length":19},"rentedBike":false,"transitLeg":false,"duration":545.0,"steps":[{"distance":191.45299999999997,"relativeDirection":"DEPART","streetName":"parking aisle","absoluteDirection":"NORTHEAST","stayOn":false,"area":false,"bogusName":false,"lon":-71.05850815479232,"lat":48.403376994029955,"elevation":[]},{"distance":439.014,"relativeDirection":"RIGHT","streetName":"Boulevard Talbot","absoluteDirection":"NORTHEAST","stayOn":false,"area":false,"bogusName":false,"lon":-71.0581722,"lat":48.4046724,"elevation":[]},{"distance":66.05199999999999,"relativeDirection":"LEFT","streetName":"Rue des Champs-Élysées","absoluteDirection":"NORTHWEST","stayOn":false,"area":false,"bogusName":false,"lon":-71.05502820000001,"lat":48.4080238,"elevation":[]}]},{"startTime":1522680499000,"endTime":1522681275000,"departureDelay":0,"arrivalDelay":0,"realTime":false,"distance":4390.263148027852,"pathway":false,"mode":"BUS","route":"12","agencyName":"Société de Transport du Saguenay","agencyUrl":"http://ville.saguenay.ca/fr/services-aux-citoyens/transport-sts","agencyTimeZoneOffset":-14400000,"routeColor":"556B2F","routeType":3,"routeId":"1:12","routeTextColor":"FFFFFF","interlineWithPreviousLeg":false,"tripBlockId":"29","headsign":"Terminus Chicoutimi","agencyId":"0","tripId":"1:218060","serviceDate":"20180402","from":{"name":"Place du Saguenay (Champs-Élysées)","stopId":"1:571","stopCode":"571","lon":-71.055824,"lat":48.408307,"arrival":1522680498000,"departure":1522680499000,"zoneId":"NA","stopIndex":12,"stopSequence":13,"vertexType":"TRANSIT"},"to":{"name":"nouveau","stopId":"1:2301","stopCode":"2301","lon":-71.021923,"lat":48.427058,"arrival":1522681275000,"departure":1522681276000,"zoneId":"NA","stopIndex":22,"stopSequence":23,"vertexType":"TRANSIT"},"legGeometry":{"points":"{vmfH|aupLxFoNlCyGa@yFYkD}CyA}KmFgD_BgAgBn@kFD_NoIgrAmD_WcAaLaDHoDJi`@wVoAbDbA|AnBU|B|AfBlAyLtKoGxFcFqDkJaHgEoDmDwC","length":28},"routeShortName":"12","routeLongName":"Rivière du Moulin","rentedBike":false,"transitLeg":true,"duration":776.0,"steps":[]},{"startTime":1522681276000,"endTime":1522681389000,"departureDelay":0,"arrivalDelay":0,"realTime":false,"distance":136.392,"pathway":false,"mode":"WALK","route":"","agencyTimeZoneOffset":-14400000,"interlineWithPreviousLeg":false,"from":{"name":"nouveau","stopId":"1:2301","stopCode":"2301","lon":-71.021923,"lat":48.427058,"arrival":1522681275000,"departure":1522681276000,"zoneId":"NA","stopIndex":22,"stopSequence":23,"vertexType":"TRANSIT"},"to":{"name":"Destination","lon":-71.022586,"lat":48.427396,"arrival":1522681389000,"orig":"","vertexType":"NORMAL"},"legGeometry":{"points":"klqfHvnnpLAAw@s@}@|Cl@j@","length":5},"rentedBike":false,"transitLeg":false,"duration":113.0,"steps":[{"distance":38.165,"relativeDirection":"DEPART","streetName":"Rue de Normandie","absoluteDirection":"NORTHEAST","stayOn":false,"area":false,"bogusName":false,"lon":-71.02203799489854,"lat":48.427104913712306,"elevation":[]},{"distance":67.408,"relativeDirection":"LEFT","streetName":"Rue des Érables","absoluteDirection":"NORTHWEST","stayOn":false,"area":false,"bogusName":false,"lon":-71.0217671,"lat":48.4273973,"elevation":[]},{"distance":30.819,"relativeDirection":"LEFT","streetName":"Rue de Paris","absoluteDirection":"SOUTHWEST","stayOn":false,"area":false,"bogusName":false,"lon":-71.02255120000001,"lat":48.4277084,"elevation":[]}]}],"tooSloped":false},{"duration":2465,"startTime":1522680364000,"endTime":1522682829000,"walkTime":286,"transitTime":1757,"waitingTime":422,"walkDistance":346.3480751821594,"walkLimitExceeded":false,"elevationLost":0.0,"elevationGained":0.0,"transfers":1,"legs":[{"startTime":1522680364000,"endTime":1522680539000,"departureDelay":0,"arrivalDelay":0,"realTime":false,"distance":211.423,"pathway":false,"mode":"WALK","route":"","agencyTimeZoneOffset":-14400000,"interlineWithPreviousLeg":false,"from":{"name":"Origin","lon":-71.058501,"lat":48.403374,"departure":1522680364000,"orig":"","vertexType":"NORMAL"},"to":{"name":"Place du Royaume (Saguenéens)","stopId":"1:1294","stopCode":"1294","lon":-71.057691,"lat":48.402355,"arrival":1522680539000,"departure":1522680540000,"zoneId":"NA","stopIndex":11,"stopSequence":12,"vertexType":"TRANSIT"},"legGeometry":{"points":"axlfHtrupLZXHUd@qAL[h@`AZl@FLLi@`@eC","length":10},"rentedBike":false,"transitLeg":false,"duration":175.0,"steps":[{"distance":77.801,"relativeDirection":"DEPART","streetName":"parking aisle","absoluteDirection":"SOUTHWEST","stayOn":false,"area":false,"bogusName":false,"lon":-71.05850815479232,"lat":48.403376994029955,"elevation":[]},{"distance":63.614000000000004,"relativeDirection":"RIGHT","streetName":"service road","absoluteDirection":"SOUTHWEST","stayOn":false,"area":false,"bogusName":true,"lon":-71.0579793,"lat":48.402928200000005,"elevation":[]},{"distance":70.008,"relativeDirection":"LEFT","streetName":"Rue des Saguenéens","absoluteDirection":"SOUTHEAST","stayOn":false,"area":false,"bogusName":false,"lon":-71.0586019,"lat":48.4025327,"elevation":[]}]},{"startTime":1522680540000,"endTime":1522681680000,"departureDelay":0,"arrivalDelay":0,"realTime":false,"distance":6028.851523869202,"pathway":false,"mode":"BUS","route":"15","agencyName":"Société de Transport du Saguenay","agencyUrl":"http://ville.saguenay.ca/fr/services-aux-citoyens/transport-sts","agencyTimeZoneOffset":-14400000,"routeColor":"FF00FF","routeType":3,"routeId":"1:15","routeTextColor":"FFFFFF","interlineWithPreviousLeg":false,"tripBlockId":"32","headsign":"Terminus Chicoutimi","agencyId":"0","tripId":"1:218155","serviceDate":"20180402","from":{"name":"Place du Royaume (Saguenéens)","stopId":"1:1294","stopCode":"1294","lon":-71.057691,"lat":48.402355,"arrival":1522680539000,"departure":1522680540000,"zoneId":"NA","stopIndex":11,"stopSequence":12,"vertexType":"TRANSIT"},"to":{"name":"Terminus Chicoutimi","stopId":"1:1289","stopCode":"1289","lon":-71.066163,"lat":48.428677,"arrival":1522681680000,"departure":1522682100000,"zoneId":"NA","stopIndex":39,"stopSequence":40,"vertexType":"TRANSIT"},"legGeometry":{"points":"eqlfHzmupLUxAm@nCcAlDeCvGmA|CUr@}@~A_@\\_DvCEZcA|@UP_@d@Yl@oBdFeCxG_CfGYVQXS\\dK|HlFZbC\\p@zA\\rB@hBiArG{BNw@FiG}@iDwAECcCcBo@y@sEeGe@o@qAa@m@MoB?C@}BZwAc@oA_Bs@gDCKZ{Di@QECc@_@sAkAoBwB_EcE{A_BoAmAk@o@cCaCkIkIaJaJUUwBaCj@wCjAsCzGoG_CoHL{D_@kAqD{CQr@iAcAy@w@L{@wAuA_B_B_EpLDh@NbBVvCIxBg@`Am@l@Sb@a@rAqDqDmEkE]a@kAqAU|@WnKG|DGxDOdPKvJU|F?XQlJC~@ChAIzEcCOaIi@VwL","length":102},"routeShortName":"15","routeLongName":"Term. Chic / Costco","rentedBike":false,"transitLeg":true,"duration":1140.0,"steps":[]},{"startTime":1522682100000,"endTime":1522682717000,"departureDelay":0,"arrivalDelay":0,"realTime":false,"distance":4221.680988731482,"pathway":false,"mode":"BUS","route":"12","agencyName":"Société de Transport du Saguenay","agencyUrl":"http://ville.saguenay.ca/fr/services-aux-citoyens/transport-sts","agencyTimeZoneOffset":-14400000,"routeColor":"556B2F","routeType":3,"routeId":"1:12","routeTextColor":"FFFFFF","interlineWithPreviousLeg":false,"tripBlockId":"28","headsign":"Terminus UQAC","agencyId":"0","tripId":"1:218035","serviceDate":"20180402","from":{"name":"Terminus Chicoutimi","stopId":"1:1289","stopCode":"1289","lon":-71.066163,"lat":48.428677,"arrival":1522681680000,"departure":1522682100000,"zoneId":"NA","stopIndex":0,"stopSequence":1,"vertexType":"TRANSIT"},"to":{"name":"Normandie / Érables","stopId":"1:1530","stopCode":"1530","lon":-71.02215,"lat":48.427168,"arrival":1522682717000,"departure":1522682718000,"zoneId":"NA","stopIndex":18,"stopSequence":19,"vertexType":"TRANSIT"},"legGeometry":{"points":"evqfHpbwpLpFcj@IaKmFy^_DaZz@u]SeV}@aNs@gKToKd@gTnCyHkGuLqFqJ_DeFf@iIvGsKlIrH`JlH","length":19},"routeShortName":"12","routeLongName":"Rivière du Moulin","rentedBike":false,"transitLeg":true,"duration":617.0,"steps":[]},{"startTime":1522682718000,"endTime":1522682829000,"departureDelay":0,"arrivalDelay":0,"realTime":false,"distance":134.745,"pathway":false,"mode":"WALK","route":"","agencyTimeZoneOffset":-14400000,"interlineWithPreviousLeg":false,"from":{"name":"Normandie / Érables","stopId":"1:1530","stopCode":"1530","lon":-71.02215,"lat":48.427168,"arrival":1522682717000,"departure":1522682718000,"zoneId":"NA","stopIndex":18,"stopSequence":19,"vertexType":"TRANSIT"},"to":{"name":"Destination","lon":-71.022586,"lat":48.427396,"arrival":1522682829000,"orig":"","vertexType":"NORMAL"},"legGeometry":{"points":"mlqfHtnnpLw@s@}@|Cl@j@","length":4},"rentedBike":false,"transitLeg":false,"duration":111.0,"steps":[{"distance":36.518,"relativeDirection":"DEPART","streetName":"Rue de Normandie","absoluteDirection":"NORTHEAST","stayOn":false,"area":false,"bogusName":false,"lon":-71.02202630086059,"lat":48.42711753549426,"elevation":[]},{"distance":67.408,"relativeDirection":"LEFT","streetName":"Rue des Érables","absoluteDirection":"NORTHWEST","stayOn":false,"area":false,"bogusName":false,"lon":-71.0217671,"lat":48.4273973,"elevation":[]},{"distance":30.819,"relativeDirection":"LEFT","streetName":"Rue de Paris","absoluteDirection":"SOUTHWEST","stayOn":false,"area":false,"bogusName":false,"lon":-71.02255120000001,"lat":48.4277084,"elevation":[]}]}],"tooSloped":false},{"duration":1436,"startTime":1522681753000,"endTime":1522683189000,"walkTime":658,"transitTime":776,"waitingTime":2,"walkDistance":833.0801729268723,"walkLimitExceeded":false,"elevationLost":0.0,"elevationGained":0.0,"transfers":0,"legs":[{"startTime":1522681753000,"endTime":1522682298000,"departureDelay":0,"arrivalDelay":0,"realTime":false,"distance":696.519,"pathway":false,"mode":"WALK","route":"","agencyTimeZoneOffset":-14400000,"interlineWithPreviousLeg":false,"from":{"name":"Origin","lon":-71.058501,"lat":48.403374,"departure":1522681753000,"orig":"","vertexType":"NORMAL"},"to":{"name":"Place du Saguenay (Champs-Élysées)","stopId":"1:571","stopCode":"571","lon":-71.055824,"lat":48.408307,"arrival":1522682298000,"departure":1522682299000,"zoneId":"NA","stopIndex":12,"stopSequence":13,"vertexType":"TRANSIT"},"legGeometry":{"points":"axlfHtrupLAAYWYWYYYWYW][UUUUu@`CiE_EMK}DqD{FkFKKO`@GPm@|A","length":19},"rentedBike":false,"transitLeg":false,"duration":545.0,"steps":[{"distance":191.45299999999997,"relativeDirection":"DEPART","streetName":"parking aisle","absoluteDirection":"NORTHEAST","stayOn":false,"area":false,"bogusName":false,"lon":-71.05850815479232,"lat":48.403376994029955,"elevation":[]},{"distance":439.014,"relativeDirection":"RIGHT","streetName":"Boulevard Talbot","absoluteDirection":"NORTHEAST","stayOn":false,"area":false,"bogusName":false,"lon":-71.0581722,"lat":48.4046724,"elevation":[]},{"distance":66.05199999999999,"relativeDirection":"LEFT","streetName":"Rue des Champs-Élysées","absoluteDirection":"NORTHWEST","stayOn":false,"area":false,"bogusName":false,"lon":-71.05502820000001,"lat":48.4080238,"elevation":[]}]},{"startTime":1522682299000,"endTime":1522683075000,"departureDelay":0,"arrivalDelay":0,"realTime":false,"distance":4390.263148027852,"pathway":false,"mode":"BUS","route":"12","agencyName":"Société de Transport du Saguenay","agencyUrl":"http://ville.saguenay.ca/fr/services-aux-citoyens/transport-sts","agencyTimeZoneOffset":-14400000,"routeColor":"556B2F","routeType":3,"routeId":"1:12","routeTextColor":"FFFFFF","interlineWithPreviousLeg":false,"tripBlockId":"26","headsign":"Terminus Chicoutimi","agencyId":"0","tripId":"1:217973","serviceDate":"20180402","from":{"name":"Place du Saguenay (Champs-Élysées)","stopId":"1:571","stopCode":"571","lon":-71.055824,"lat":48.408307,"arrival":1522682298000,"departure":1522682299000,"zoneId":"NA","stopIndex":12,"stopSequence":13,"vertexType":"TRANSIT"},"to":{"name":"nouveau","stopId":"1:2301","stopCode":"2301","lon":-71.021923,"lat":48.427058,"arrival":1522683075000,"departure":1522683076000,"zoneId":"NA","stopIndex":22,"stopSequence":23,"vertexType":"TRANSIT"},"legGeometry":{"points":"{vmfH|aupLxFoNlCyGa@yFYkD}CyA}KmFgD_BgAgBn@kFD_NoIgrAmD_WcAaLaDHoDJi`@wVoAbDbA|AnBU|B|AfBlAyLtKoGxFcFqDkJaHgEoDmDwC","length":28},"routeShortName":"12","routeLongName":"Rivière du Moulin","rentedBike":false,"transitLeg":true,"duration":776.0,"steps":[]},{"startTime":1522683076000,"endTime":1522683189000,"departureDelay":0,"arrivalDelay":0,"realTime":false,"distance":136.392,"pathway":false,"mode":"WALK","route":"","agencyTimeZoneOffset":-14400000,"interlineWithPreviousLeg":false,"from":{"name":"nouveau","stopId":"1:2301","stopCode":"2301","lon":-71.021923,"lat":48.427058,"arrival":1522683075000,"departure":1522683076000,"zoneId":"NA","stopIndex":22,"stopSequence":23,"vertexType":"TRANSIT"},"to":{"name":"Destination","lon":-71.022586,"lat":48.427396,"arrival":1522683189000,"orig":"","vertexType":"NORMAL"},"legGeometry":{"points":"klqfHvnnpLAAw@s@}@|Cl@j@","length":5},"rentedBike":false,"transitLeg":false,"duration":113.0,"steps":[{"distance":38.165,"relativeDirection":"DEPART","streetName":"Rue de Normandie","absoluteDirection":"NORTHEAST","stayOn":false,"area":false,"bogusName":false,"lon":-71.02203799489854,"lat":48.427104913712306,"elevation":[]},{"distance":67.408,"relativeDirection":"LEFT","streetName":"Rue des Érables","absoluteDirection":"NORTHWEST","stayOn":false,"area":false,"bogusName":false,"lon":-71.0217671,"lat":48.4273973,"elevation":[]},{"distance":30.819,"relativeDirection":"LEFT","streetName":"Rue de Paris","absoluteDirection":"SOUTHWEST","stayOn":false,"area":false,"bogusName":false,"lon":-71.02255120000001,"lat":48.4277084,"elevation":[]}]}],"tooSloped":false}]},"debugOutput":{"precalculationTime":25,"pathCalculationTime":54,"pathTimes":[22,10,22],"renderingTime":1,"totalTime":80,"timedOut":false},"elevationMetadata":{"ellipsoidToGeoidDifference":-28.885904201182168,"geoidElevation":false}}