{"requestParameters":{"date":"2018/04/02","walkSpeed":"1.33","walkReluctance":"2.0","fromPlace":"48.430131,-71.022424","maxWalkDistance":"3000","waitReluctance":"1.0","carSpeed":"33","numItineraries":"3","waitAtBeginningFactor":"0.4","mode":"TRANSIT,WALK","ignoreRealtimeUpdates":"false","stairsReluctance":"2.0","toPlace":"48.423117,-71.03954","time":"13:45:00"},"plan":{"date":1522691100000,"from":{"name":"Origin","lon":-71.022424,"lat":48.430131,"orig":"","vertexType":"NORMAL"},"to":{"name":"Destination","lon":-71.03954,"lat":48.423117,"orig":"","vertexType":"NORMAL"},"itineraries":[{"duration":1585,"startTime":1522691985000,"endTime":1522693570000,"walkTime":334,"transitTime":1249,"waitingTime":2,"walkDistance":414.4169473642603,"walkLimitExceeded":false,"elevationLost":0.0,"elevationGained":0.0,"transfers":0,"legs":[{"startTime":1522691985000,"endTime":1522692239000,"departureDelay":0,"arrivalDelay":0,"realTime":false,"distance":323.55899999999997,"pathway":false,"mode":"WALK","route":"","agencyTimeZoneOffset":-14400000,"interlineWithPreviousLeg":false,"from":{"name":"Origin","lon":-71.022424,"lat":48.430131,"departure":1522691985000,"orig":"","vertexType":"NORMAL"},"to":{"name":"nouveau","stopId":"1:2304","stopCode":"2304","lon":-71.026011,"lat":48.430204,"arrival":1522692239000,"departure":1522692240000,"zoneId":"NA","stopIndex":25,"stopSequence":26,"vertexType":"TRANSIT"},"legGeometry":{"points":"_`rfHbrnpLp@vA~@v@kAxDa@rA[hA_@fBz@z@LL","length":9},"rentedBike":false,"transitLeg":false,"duration":254.0,"steps":[{"distance":84.09,"relativeDirection":"DEPART","streetName":"Rue des Ormes","absoluteDirection":"SOUTHWEST","stayOn":false,"area":false,"bogusName":false,"lon":-71.02257958774275,"lat":48.43024766297913,"elevation":[]},{"distance":190.40499999999997,"relativeDirection":"RIGHT","streetName":"Rue des Cèdres","absoluteDirection":"NORTHWEST","stayOn":false,"area":false,"bogusName":false,"lon":-71.02329420000001,"lat":48.4296712,"elevation":[]},{"distance":49.06399999999999,"relativeDirection":"LEFT","streetName":"Rue Arthur-Hamel","absoluteDirection":"SOUTHWEST","stayOn":false,"area":false,"bogusName":false,"lon":-71.02553040000001,"lat":48.430521000000006,"elevation":[]}]},{"startTime":1522692240000,"endTime":1522692660000,"departureDelay":0,"arrivalDelay":0,"realTime":false,"distance":2984.04482847883,"pathway":false,"mode":"BUS","route":"12","agencyName":"Société de Transport du Saguenay","agencyUrl":"http://ville.saguenay.ca/fr/services-aux-citoyens/transport-sts","agencyTimeZoneOffset":-14400000,"routeColor":"556B2F","routeType":3,"routeId":"1:12","routeTextColor":"FFFFFF","interlineWithPreviousLeg":false,"tripBlockId":"29","headsign":"Terminus Chicoutimi","agencyId":"0","tripId":"1:218066","serviceDate":"20180402","from":{"name":"nouveau","stopId":"1:2304","stopCode":"2304","lon":-71.026011,"lat":48.430204,"arrival":1522692239000,"departure":1522692240000,"zoneId":"NA","stopIndex":25,"stopSequence":26,"vertexType":"TRANSIT"},"to":{"name":"Terminus Chicoutimi","stopId":"1:1289","stopCode":"1289","lon":-71.066163,"lat":48.428677,"arrival":1522692660000,"departure":1522692900000,"zoneId":"NA","stopIndex":33,"stopSequence":34,"vertexType":"TRANSIT"},"legGeometry":{"points":"i~qfHzdopL|FlHmB`IgA|Cy@`UYzHZvMR~Hr@~ZPvHsCrMFxf@|ApJj@nDDl]BvZdCXJhC","length":18},"routeShortName":"12","routeLongName":"Rivière du Moulin","rentedBike":false,"transitLeg":true,"duration":420.0,"steps":[]},{"startTime":1522692900000,"endTime":1522693489000,"departureDelay":0,"arrivalDelay":0,"realTime":false,"distance":2704.712362975673,"pathway":false,"mode":"BUS","route":"10","agencyName":"Société de Transport du Saguenay","agencyUrl":"http://ville.saguenay.ca/fr/services-aux-citoyens/transport-sts","agencyTimeZoneOffset":-14400000,"routeColor":"0000FF","routeType":3,"routeId":"1:10","routeTextColor":"FFFFFF","interlineWithPreviousLeg":true,"tripBlockId":"29","headsign":"Terminus UQAC","agencyId":"0","tripId":"1:218067","serviceDate":"20180402","from":{"name":"Terminus Chicoutimi","stopId":"1:1289","stopCode":"1289","lon":-71.066163,"lat":48.428677,"arrival":1522692660000,"departure":1522692900000,"zoneId":"NA","stopIndex":0,"stopSequence":1,"vertexType":"TRANSIT"},"to":{"name":"Complexe Sagamie","stopId":"1:1565","stopCode":"1565","lon":-71.039089,"lat":48.423475,"arrival":1522693489000,"departure":1522693490000,"zoneId":"NA","stopIndex":11,"stopSequence":12,"vertexType":"TRANSIT"},"legGeometry":{"points":"svqfHnbwpLDmCdDZ\\kO`@mQBuCD}DQ_ECk@^Cd@QWkL?m@IuF@gA?eH?cAEuEDO^AjD`@B@rEf@T_FjBXpDd@hCObDaCfCaHbFqN`CwG_J_CwMiDGe@T}C\\yELaCJeA","length":38},"routeShortName":"10","routeLongName":"Notre-Dame du Saguenay","rentedBike":false,"transitLeg":true,"duration":589.0,"steps":[]},{"startTime":1522693490000,"endTime":1522693570000,"departureDelay":0,"arrivalDelay":0,"realTime":false,"distance":90.72900000000001,"pathway":false,"mode":"WALK","route":"","agencyTimeZoneOffset":-14400000,"interlineWithPreviousLeg":false,"from":{"name":"Complexe Sagamie","stopId":"1:1565","stopCode":"1565","lon":-71.039089,"lat":48.423475,"arrival":1522693489000,"departure":1522693490000,"zoneId":"NA","stopIndex":11,"stopSequence":12,"vertexType":"TRANSIT"},"to":{"name":"Destination","lon":-71.03954,"lat":48.423117,"arrival":1522693570000,"orig":"","vertexType":"NORMAL"},"legGeometry":{"points":"gupfHnyqpL@M@QB@^HPDXFCd@Er@","length":9},"rentedBike":false,"transitLeg":false,"duration":80.0,"steps":[{"distance":90.72900000000001,"relativeDirection":"DEPART","streetName":"service road","absoluteDirection":"EAST","stayOn":false,"area":false,"bogusName":true,"lon":-71.03911523041273,"lat":48.423409719784964,"elevation":[]}]}],"tooSloped":false},{"duration":2545,"startTime":1522691408000,"endTime":1522693953000,"walkTime":396,"transitTime":2147,"waitingTime":2,"walkDistance":501.9697744325481,"walkLimitExceeded":false,"elevationLost":0.0,"elevationGained":0.0,"transfers":0,"legs":[{"startTime":1522691408000,"endTime":1522691675000,"departureDelay":0,"arrivalDelay":0,"realTime":false,"distance":338.496,"pathway":false,"mode":"WALK","route":"","agencyTimeZoneOffset":-14400000,"interlineWithPreviousLeg":false,"from":{"name":"Origin","lon":-71.022424,"lat":48.430131,"departure":1522691408000,"orig":"","vertexType":"NORMAL"},"to":{"name":"Normandie / Cèdres","stopId":"1:1529","stopCode":"1529","lon":-71.020638,"lat":48.428932,"arrival":1522691675000,"departure":1522691676000,"zoneId":"NA","stopIndex":17,"stopSequence":18,"vertexType":"TRANSIT"},"legGeometry":{"points":"_`rfHbrnpLp@vA~@v@fA}DlAcEx@kCm@g@","length":7},"rentedBike":false,"transitLeg":false,"duration":267.0,"steps":[{"distance":84.09,"relativeDirection":"DEPART","streetName":"Rue des Ormes","absoluteDirection":"SOUTHWEST","stayOn":false,"area":false,"bogusName":false,"lon":-71.02257958774275,"lat":48.43024766297913,"elevation":[]},{"distance":225.18800000000002,"relativeDirection":"LEFT","streetName":"Rue des Cèdres","absoluteDirection":"SOUTHEAST","stayOn":false,"area":false,"bogusName":false,"lon":-71.02329420000001,"lat":48.4296712,"elevation":[]},{"distance":29.218,"relativeDirection":"LEFT","streetName":"Rue de Normandie","absoluteDirection":"NORTHEAST","stayOn":false,"area":false,"bogusName":false,"lon":-71.0206687,"lat":48.428639100000005,"elevation":[]}]},{"startTime":1522691676000,"endTime":1522692780000,"departureDelay":0,"arrivalDelay":0,"realTime":false,"distance":7163.333124188636,"pathway":false,"mode":"BUS","route":"12","agencyName":"Société de Transport du Saguenay","agencyUrl":"http://ville.saguenay.ca/fr/services-aux-citoyens/transport-sts","agencyTimeZoneOffset":-14400000,"routeColor":"556B2F","routeType":3,"routeId":"1:12","routeTextColor":"FFFFFF","interlineWithPreviousLeg":false,"tripBlockId":"27","headsign":"Terminus UQAC","agencyId":"0","tripId":"1:218014","serviceDate":"20180402","from":{"name":"Normandie / Cèdres","stopId":"1:1529","stopCode":"1529","lon":-71.020638,"lat":48.428932,"arrival":1522691675000,"departure":1522691676000,"zoneId":"NA","stopIndex":17,"stopSequence":18,"vertexType":"TRANSIT"},"to":{"name":"Terminus UQAC","stopId":"1:1670","stopCode":"1670","lon":-71.053369,"lat":48.420903,"arrival":1522692780000,"departure":1522693080000,"zoneId":"NA","stopIndex":39,"stopSequence":40,"vertexType":"TRANSIT"},"legGeometry":{"points":"ywqfH~enpL`JlH`EfDnOdIdGlGjL|BzBiLv@}L`b@fNvVvrCdRvMcAjKcP~b@iHhDaGz@uSl[uCYmIeIeJ_J{J{JwCiThFaQhC`E","length":23},"routeShortName":"12","routeLongName":"Rivière du Moulin","rentedBike":false,"transitLeg":true,"duration":1104.0,"steps":[]},{"startTime":1522693080000,"endTime":1522693823000,"departureDelay":0,"arrivalDelay":0,"realTime":false,"distance":2801.3484047487027,"pathway":false,"mode":"BUS","route":"10","agencyName":"Société de Transport du Saguenay","agencyUrl":"http://ville.saguenay.ca/fr/services-aux-citoyens/transport-sts","agencyTimeZoneOffset":-14400000,"routeColor":"0000FF","routeType":3,"routeId":"1:10","routeTextColor":"FFFFFF","interlineWithPreviousLeg":true,"tripBlockId":"27","headsign":"Terminus Chicoutimi","agencyId":"0","tripId":"1:218015","serviceDate":"20180402","from":{"name":"Terminus UQAC","stopId":"1:1670","stopCode":"1670","lon":-71.053369,"lat":48.420903,"arrival":1522692780000,"departure":1522693080000,"zoneId":"NA","stopIndex":0,"stopSequence":1,"vertexType":"TRANSIT"},"to":{"name":"École Apostolique","stopId":"1:251","stopCode":"251","lon":-71.039839,"lat":48.42374,"arrival":1522693823000,"departure":1522693824000,"zoneId":"NA","stopIndex":10,"stopSequence":11,"vertexType":"TRANSIT"},"legGeometry":{"points":"sepfHtrtpLbA`ATs@hEnDRlGbBbHtMcLsBsDkBcBkD}CvDkK`IuU`WjXhCsHqJ_K{BaCsB{B}AeCu@oAXu@hAoDP_BP{AQmCg@mB_BiBeBaBqFeFmCgC{A_BmBoBk@iAw@}CU[o@y@k@Io@MqC@}@k@_@[aAw@_BoCMOKcAQUu@s@AAu@[k@xGg@pFc@~EO`@KHCVDP?hAa@nE","length":57},"routeShortName":"10","routeLongName":"Notre-Dame du Saguenay","rentedBike":false,"transitLeg":true,"duration":743.0,"steps":[]},{"startTime":1522693824000,"endTime":1522693953000,"departureDelay":0,"arrivalDelay":0,"realTime":false,"distance":163.364,"pathway":false,"mode":"WALK","route":"","agencyTimeZoneOffset":-14400000,"interlineWithPreviousLeg":false,"from":{"name":"École Apostolique","stopId":"1:251","stopCode":"251","lon":-71.039839,"lat":48.42374,"arrival":1522693823000,"departure":1522693824000,"zoneId":"NA","stopIndex":10,"stopSequence":11,"vertexType":"TRANSIT"},"to":{"name":"Destination","lon":-71.03954,"lat":48.423117,"arrival":1522693953000,"orig":"","vertexType":"NORMAL"},"legGeometry":{"points":"ewpfH`~qpLAFj@LdB`@ZFH}@AGYQOKAY","length":10},"rentedBike":false,"transitLeg":false,"duration":129.0,"steps":[{"distance":2.654,"relativeDirection":"DEPART","streetName":"Rue Jacques Cartier","absoluteDirection":"WEST","stayOn":false,"area":false,"bogusName":false,"lon":-71.03984760186748,"lat":48.4237160616799,"elevation":[]},{"distance":160.70999999999998,"relativeDirection":"LEFT","streetName":"service road","absoluteDirection":"SOUTH","stayOn":false,"area":false,"bogusName":true,"lon":-71.0398826,"lat":48.4237216,"elevation":[]}]}],"tooSloped":false},{"duration":1585,"startTime":1522693785000,"endTime":1522695370000,"walkTime":334,"transitTime":1249,"waitingTime":2,"walkDistance":414.4169473642603,"walkLimitExceeded":false,"elevationLost":0.0,"elevationGained":0.0,"transfers":0,"legs":[{"startTime":1522693785000,"endTime":1522694039000,"departureDelay":0,"arrivalDelay":0,"realTime":false,"distance":323.55899999999997,"pathway":false,"mode":"WALK","route":"","agencyTimeZoneOffset":-14400000,"interlineWithPreviousLeg":false,"from":{"name":"Origin","lon":-71.022424,"lat":48.430131,"departure":1522693785000,"orig":"","vertexType":"NORMAL"},"to":{"name":"nouveau","stopId":"1:2304","stopCode":"2304","lon":-71.026011,"lat":48.430204,"arrival":1522694039000,"departure":1522694040000,"zoneId":"NA","stopIndex":25,"stopSequence":26,"vertexType":"TRANSIT"},"legGeometry":{"points":"_`rfHbrnpLp@vA~@v@kAxDa@rA[hA_@fBz@z@LL","length":9},"rentedBike":false,"transitLeg":false,"duration":254.0,"steps":[{"distance":84.09,"relativeDirection":"DEPART","streetName":"Rue des Ormes","absoluteDirection":"SOUTHWEST","stayOn":false,"area":false,"bogusName":false,"lon":-71.02257958774275,"lat":48.43024766297913,"elevation":[]},{"distance":190.40499999999997,"relativeDirection":"RIGHT","streetName":"Rue des Cèdres","absoluteDirection":"NORTHWEST","stayOn":false,"area":false,"bogusName":false,"lon":-71.02329420000001,"lat":48.4296712,"elevation":[]},{"distance":49.06399999999999,"relativeDirection":"LEFT","streetName":"Rue Arthur-Hamel","absoluteDirection":"SOUTHWEST","stayOn":false,"area":false,"bogusName":false,"lon":-71.02553040000001,"lat":48.430521000000006,"elevation":[]}]},{"startTime":1522694040000,"endTime":1522694460000,"departureDelay":0,"arrivalDelay":0,"realTime":false,"distance":2984.04482847883,"pathway":false,"mode":"BUS","route":"12","agencyName":"Société de Transport du Saguenay","agencyUrl":"http://ville.saguenay.ca/fr/services-aux-citoyens/transport-sts","agencyTimeZoneOffset":-14400000,"routeColor":"556B2F","routeType":3,"routeId":"1:12","routeTextColor":"FFFFFF","interlineWithPreviousLeg":false,"tripBlockId":"26","headsign":"Terminus Chicoutimi","agencyId":"0","tripId":"1:217979","serviceDate":"20180402","from":{"name":"nouveau","stopId":"1:2304","stopCode":"2304","lon":-71.026011,"lat":48.430204,"arrival":1522694039000,"departure":1522694040000,"zoneId":"NA","stopIndex":25,"stopSequence":26,"vertexType":"TRANSIT"},"to":{"name":"Terminus Chicoutimi","stopId":"1:1289","stopCode":"1289","lon":-71.066163,"lat":48.428677,"arrival":1522694460000,"departure":1522694700000,"zoneId":"NA","stopIndex":33,"stopSequence":34,"vertexType":"TRANSIT"},"legGeometry":{"points":"i~qfHzdopL|FlHmB`IgA|Cy@`UYzHZvMR~Hr@~ZPvHsCrMFxf@|ApJj@nDDl]BvZdCXJhC","length":18},"routeShortName":"12","routeLongName":"Rivière du Moulin","rentedBike":false,"transitLeg":true,"duration":420.0,"steps":[]},{"startTime":1522694700000,"endTime":1522695289000,"departureDelay":0,"arrivalDelay":0,"realTime":false,"distance":2704.712362975673,"pathway":false,"mode":"BUS","route":"10","agencyName":"Société de Transport du Saguenay","agencyUrl":"http://ville.saguenay.ca/fr/services-aux-citoyens/transport-sts","agencyTimeZoneOffset":-14400000,"routeColor":"0000FF","routeType":3,"routeId":"1:10","routeTextColor":"FFFFFF","interlineWithPreviousLeg":true,"tripBlockId":"26","headsign":"Terminus UQAC","agencyId":"0","tripId":"1:217980","serviceDate":"20180402","from":{"name":"Terminus Chicoutimi","stopId":"1:1289","stopCode":"1289","lon":-71.066163,"lat":48.428677,"arrival":1522694460000,"departure":1522694700000,"zoneId":"NA","stopIndex":0,"stopSequence":1,"vertexType":"TRANSIT"},"to":{"name":"Complexe Sagamie","stopId":"1:1565","stopCode":"1565","lon":-71.039089,"lat":48.423475,"arrival":1522695289000,"departure":1522695290000,"zoneId":"NA","stopIndex":11,"stopSequence":12,"vertexType":"TRANSIT"},"legGeometry":{"points":"svqfHnbwpLDmCdDZ\\kO`@mQBuCD}DQ_ECk@^Cd@QWkL?m@IuF@gA?eH?cAEuEDO^AjD`@B@rEf@T_FjBXpDd@hCObDaCfCaHbFqN`CwG_J_CwMiDGe@T}C\\yELaCJeA","length":38},"routeShortName":"10","routeLongName":"Notre-Dame du Saguenay","rentedBike":false,"transitLeg":true,"duration":589.0,"steps":[]},{"startTime":1522695290000,"endTime":1522695370000,"departureDelay":0,"arrivalDelay":0,"realTime":false,"distance":90.72900000000001,"pathway":false,"mode":"WALK","route":"","agencyTimeZoneOffset":-14400000,"interlineWithPreviousLeg":false,"from":{"name":"Complexe Sagamie","stopId":"1:1565","stopCode":"1565","lon":-71.039089,"lat":48.423475,"arrival":1522695289000,"departure":1522695290000,"zoneId":"NA","stopIndex":11,"stopSequence":12,"vertexType":"TRANSIT"},"to":{"name":"Destination","lon":-71.03954,"lat":48.423117,"arrival":1522695370000,"orig":"","vertexType":"NORMAL"},"legGeometry":{"points":"gupfHnyqpL@M@QB@^HPDXFCd@Er@","length":9},"rentedBike":false,"transitLeg":false,"duration":80.0,"steps":[{"distance":90.72900000000001,"relativeDirection":"DEPART","streetName":"service road","absoluteDirection":"EAST","stayOn":false,"area":false,"bogusName":true,"lon":-71.03911523041273,"lat":48.423409719784964,"elevation":[]}]}],"tooSloped":false}]},"debugOutput":{"precalculationTime":24,"pathCalculationTime":19,"pathTimes":[13,4,2],"renderingTime":1,"totalTime":44,"timedOut":false},"elevationMetadata":{"ellipsoidToGeoidDifference":-28.885904201182168,"geoidElevation":false}}