{"requestParameters":{"date":"2018/04/02","walkSpeed":"1.33","walkReluctance":"2.0","fromPlace":"48.41803,-71.083128","maxWalkDistance":"3000","waitReluctance":"1.0","carSpeed":"33","numItineraries":"3","waitAtBeginningFactor":"0.4","mode":"TRANSIT,WALK","ignoreRealtimeUpdates":"false","stairsReluctance":"2.0","toPlace":"48.431709,-71.021427","time":"20:10:00"},"plan":{"date":1522714200000,"from":{"name":"Origin","lon":-71.083128,"lat":48.41803,"orig":"","vertexType":"NORMAL"},"to":{"name":"Destination","lon":-71.021427,"lat":48.431709,"orig":"","vertexType":"NORMAL"},"itineraries":[{"duration":2762,"startTime":1522714797000,"endTime":1522717559000,"walkTime":1638,"transitTime":1122,"waitingTime":2,"walkDistance":2090.2591278066056,"walkLimitExceeded":false,"elevationLost":0.0,"elevationGained":0.0,"transfers":0,"legs":[{"startTime":1522714797000,"endTime":1522716273000,"departureDelay":0,"arrivalDelay":0,"realTime":false,"distance":1887.6380000000001,"pathway":false,"mode":"WALK","route":"","agencyTimeZoneOffset":-14400000,"interlineWithPreviousLeg":false,"from":{"name":"Origin","lon":-71.083128,"lat":48.41803,"departure":1522714797000,"orig":"","vertexType":"NORMAL"},"to":{"name":"Bégin (no. 825)","stopId":"1:2005","stopCode":"2005","lon":-71.064205,"lat":48.41684,"arrival":1522716273000,"departure":1522716274000,"zoneId":"NA","stopIndex":6,"stopSequence":7,"vertexType":"TRANSIT"},"legGeometry":{"points":"ovofH|jzpLhA{Gj@aD{AaBiCiCeAuC\\gAv@yBj@}Ax@aCHU`AoCg@i@WYuAsAfCsHuA}AqAuAeAkAKM}A}An@}AfBwEZi@PSVa@V[FE\\Y^Y^Kn@MXy@d@oBQEK]Mq@C_BQWQKUEP]Jg@?[@gABk@Hy@p@gAlAiBzA_B","length":50},"rentedBike":false,"transitLeg":false,"duration":1476.0,"steps":[{"distance":176.784,"relativeDirection":"DEPART","streetName":"Rue Cimon","absoluteDirection":"EAST","stayOn":false,"area":false,"bogusName":false,"lon":-71.08286045099662,"lat":48.41848109537543,"elevation":[]},{"distance":222.874,"relativeDirection":"LEFT","streetName":"Rue Saint-Jean","absoluteDirection":"NORTHEAST","stayOn":false,"area":false,"bogusName":false,"lon":-71.0806349,"lat":48.41789300000001,"elevation":[]},{"distance":260.983,"relativeDirection":"RIGHT","streetName":"Rue Saint-Henri","absoluteDirection":"SOUTHEAST","stayOn":false,"area":false,"bogusName":false,"lon":-71.07870050000001,"lat":48.419397000000004,"elevation":[]},{"distance":100.66,"relativeDirection":"LEFT","streetName":"Rue Caron","absoluteDirection":"NORTHEAST","stayOn":false,"area":false,"bogusName":false,"lon":-71.0757816,"lat":48.4180719,"elevation":[]},{"distance":136.111,"relativeDirection":"RIGHT","streetName":"Rue Laviolette","absoluteDirection":"SOUTHEAST","stayOn":false,"area":false,"bogusName":false,"lon":-71.0750204,"lat":48.418823,"elevation":[]},{"distance":234.003,"relativeDirection":"LEFT","streetName":"Rue Des Eudistes","absoluteDirection":"NORTHEAST","stayOn":false,"area":false,"bogusName":false,"lon":-71.0734857,"lat":48.418144100000006,"elevation":[]},{"distance":301.75700000000006,"relativeDirection":"RIGHT","streetName":"Rue Jolliet","absoluteDirection":"SOUTHEAST","stayOn":false,"area":false,"bogusName":false,"lon":-71.07166600000001,"lat":48.4198673,"elevation":[]},{"distance":454.466,"relativeDirection":"LEFT","streetName":"path","absoluteDirection":"SOUTHEAST","stayOn":false,"area":false,"bogusName":true,"lon":-71.069079,"lat":48.417887500000006,"elevation":[]}]},{"startTime":1522716274000,"endTime":1522717396000,"departureDelay":0,"arrivalDelay":0,"realTime":false,"distance":6398.8176442816175,"pathway":false,"mode":"BUS","route":"12","agencyName":"Société de Transport du Saguenay","agencyUrl":"http://ville.saguenay.ca/fr/services-aux-citoyens/transport-sts","agencyTimeZoneOffset":-14400000,"routeColor":"556B2F","routeType":3,"routeId":"1:12","routeTextColor":"FFFFFF","interlineWithPreviousLeg":false,"tripBlockId":"29","headsign":"Terminus Chicoutimi","agencyId":"0","tripId":"1:218080","serviceDate":"20180402","from":{"name":"Bégin (no. 825)","stopId":"1:2005","stopCode":"2005","lon":-71.064205,"lat":48.41684,"arrival":1522716273000,"departure":1522716274000,"zoneId":"NA","stopIndex":6,"stopSequence":7,"vertexType":"TRANSIT"},"to":{"name":"nouveau","stopId":"1:2303","stopCode":"2303","lon":-71.02291,"lat":48.432276,"arrival":1522717396000,"departure":1522717397000,"zoneId":"NA","stopIndex":24,"stopSequence":25,"vertexType":"TRANSIT"},"legGeometry":{"points":"wkofHfuvpLnCpCv@iBlAgIdCmFbAqDtBeCjFm@`Gs@hFo@xAmBrGcPxFoNlCyGa@yFYkD}CyA}KmFgD_BgAgBn@kFD_NoIgrAmD_WcAaLaDHoDJi`@wVoAbDbA|AnBU|B|AfBlAyLtKoGxFcFqDkJaHgEoDmDwC_TqQsBeB{HjWfAvA","length":43},"routeShortName":"12","routeLongName":"Rivière du Moulin","rentedBike":false,"transitLeg":true,"duration":1122.0,"steps":[]},{"startTime":1522717397000,"endTime":1522717559000,"departureDelay":0,"arrivalDelay":0,"realTime":false,"distance":202.22000000000003,"pathway":false,"mode":"WALK","route":"","agencyTimeZoneOffset":-14400000,"interlineWithPreviousLeg":false,"from":{"name":"nouveau","stopId":"1:2303","stopCode":"2303","lon":-71.02291,"lat":48.432276,"arrival":1522717396000,"departure":1522717397000,"zoneId":"NA","stopIndex":24,"stopSequence":25,"vertexType":"TRANSIT"},"to":{"name":"Destination","lon":-71.021427,"lat":48.431709,"arrival":1522717559000,"orig":"","vertexType":"NORMAL"},"legGeometry":{"points":"mlrfHxsnpLA?eA{A~AsFx@tA","length":5},"rentedBike":false,"transitLeg":false,"duration":162.0,"steps":[{"distance":51.95,"relativeDirection":"DEPART","streetName":"Rue Arthur-Hamel","absoluteDirection":"NORTHEAST","stayOn":false,"area":false,"bogusName":false,"lon":-71.02284512319854,"lat":48.43223878297246,"elevation":[]},{"distance":104.965,"relativeDirection":"RIGHT","streetName":"Rue du Perche","absoluteDirection":"SOUTHEAST","stayOn":false,"area":false,"bogusName":false,"lon":-71.02238460000001,"lat":48.4325922,"elevation":[]},{"distance":45.305,"relativeDirection":"RIGHT","streetName":"Rue d'Aunis","absoluteDirection":"SOUTHWEST","stayOn":false,"area":false,"bogusName":false,"lon":-71.0211608,"lat":48.432110800000004,"elevation":[]}]}],"tooSloped":false},{"duration":2762,"startTime":1522716597000,"endTime":1522719359000,"walkTime":1638,"transitTime":1122,"waitingTime":2,"walkDistance":2090.2591278066056,"walkLimitExceeded":false,"elevationLost":0.0,"elevationGained":0.0,"transfers":0,"legs":[{"startTime":1522716597000,"endTime":1522718073000,"departureDelay":0,"arrivalDelay":0,"realTime":false,"distance":1887.6380000000001,"pathway":false,"mode":"WALK","route":"","agencyTimeZoneOffset":-14400000,"interlineWithPreviousLeg":false,"from":{"name":"Origin","lon":-71.083128,"lat":48.41803,"departure":1522716597000,"orig":"","vertexType":"NORMAL"},"to":{"name":"Bégin (no. 825)","stopId":"1:2005","stopCode":"2005","lon":-71.064205,"lat":48.41684,"arrival":1522718073000,"departure":1522718074000,"zoneId":"NA","stopIndex":6,"stopSequence":7,"vertexType":"TRANSIT"},"legGeometry":{"points":"ovofH|jzpLhA{Gj@aD{AaBiCiCeAuC\\gAv@yBj@}Ax@aCHU`AoCg@i@WYuAsAfCsHuA}AqAuAeAkAKM}A}An@}AfBwEZi@PSVa@V[FE\\Y^Y^Kn@MXy@d@oBQEK]Mq@C_BQWQKUEP]Jg@?[@gABk@Hy@p@gAlAiBzA_B","length":50},"rentedBike":false,"transitLeg":false,"duration":1476.0,"steps":[{"distance":176.784,"relativeDirection":"DEPART","streetName":"Rue Cimon","absoluteDirection":"EAST","stayOn":false,"area":false,"bogusName":false,"lon":-71.08286045099662,"lat":48.41848109537543,"elevation":[]},{"distance":222.874,"relativeDirection":"LEFT","streetName":"Rue Saint-Jean","absoluteDirection":"NORTHEAST","stayOn":false,"area":false,"bogusName":false,"lon":-71.0806349,"lat":48.41789300000001,"elevation":[]},{"distance":260.983,"relativeDirection":"RIGHT","streetName":"Rue Saint-Henri","absoluteDirection":"SOUTHEAST","stayOn":false,"area":false,"bogusName":false,"lon":-71.07870050000001,"lat":48.419397000000004,"elevation":[]},{"distance":100.66,"relativeDirection":"LEFT","streetName":"Rue Caron","absoluteDirection":"NORTHEAST","stayOn":false,"area":false,"bogusName":false,"lon":-71.0757816,"lat":48.4180719,"elevation":[]},{"distance":136.111,"relativeDirection":"RIGHT","streetName":"Rue Laviolette","absoluteDirection":"SOUTHEAST","stayOn":false,"area":false,"bogusName":false,"lon":-71.0750204,"lat":48.418823,"elevation":[]},{"distance":234.003,"relativeDirection":"LEFT","streetName":"Rue Des Eudistes","absoluteDirection":"NORTHEAST","stayOn":false,"area":false,"bogusName":false,"lon":-71.0734857,"lat":48.418144100000006,"elevation":[]},{"distance":301.75700000000006,"relativeDirection":"RIGHT","streetName":"Rue Jolliet","absoluteDirection":"SOUTHEAST","stayOn":false,"area":false,"bogusName":false,"lon":-71.07166600000001,"lat":48.4198673,"elevation":[]},{"distance":454.466,"relativeDirection":"LEFT","streetName":"path","absoluteDirection":"SOUTHEAST","stayOn":false,"area":false,"bogusName":true,"lon":-71.069079,"lat":48.417887500000006,"elevation":[]}]},{"startTime":1522718074000,"endTime":1522719196000,"departureDelay":0,"arrivalDelay":0,"realTime":false,"distance":6398.8176442816175,"pathway":false,"mode":"BUS","route":"12","agencyName":"Société de Transport du Saguenay","agencyUrl":"http://ville.saguenay.ca/fr/services-aux-citoyens/transport-sts","agencyTimeZoneOffset":-14400000,"routeColor":"556B2F","routeType":3,"routeId":"1:12","routeTextColor":"FFFFFF","interlineWithPreviousLeg":false,"tripBlockId":"26","headsign":"Terminus Chicoutimi","agencyId":"0","tripId":"1:217993","serviceDate":"20180402","from":{"name":"Bégin (no. 825)","stopId":"1:2005","stopCode":"2005","lon":-71.064205,"lat":48.41684,"arrival":1522718073000,"departure":1522718074000,"zoneId":"NA","stopIndex":6,"stopSequence":7,"vertexType":"TRANSIT"},"to":{"name":"nouveau","stopId":"1:2303","stopCode":"2303","lon":-71.02291,"lat":48.432276,"arrival":1522719196000,"departure":1522719197000,"zoneId":"NA","stopIndex":24,"stopSequence":25,"vertexType":"TRANSIT"},"legGeometry":{"points":"wkofHfuvpLnCpCv@iBlAgIdCmFbAqDtBeCjFm@`Gs@hFo@xAmBrGcPxFoNlCyGa@yFYkD}CyA}KmFgD_BgAgBn@kFD_NoIgrAmD_WcAaLaDHoDJi`@wVoAbDbA|AnBU|B|AfBlAyLtKoGxFcFqDkJaHgEoDmDwC_TqQsBeB{HjWfAvA","length":43},"routeShortName":"12","routeLongName":"Rivière du Moulin","rentedBike":false,"transitLeg":true,"duration":1122.0,"steps":[]},{"startTime":1522719197000,"endTime":1522719359000,"departureDelay":0,"arrivalDelay":0,"realTime":false,"distance":202.22000000000003,"pathway":false,"mode":"WALK","route":"","agencyTimeZoneOffset":-14400000,"interlineWithPreviousLeg":false,"from":{"name":"nouveau","stopId":"1:2303","stopCode":"2303","lon":-71.02291,"lat":48.432276,"arrival":1522719196000,"departure":1522719197000,"zoneId":"NA","stopIndex":24,"stopSequence":25,"vertexType":"TRANSIT"},"to":{"name":"Destination","lon":-71.021427,"lat":48.431709,"arrival":1522719359000,"orig":"","vertexType":"NORMAL"},"legGeometry":{"points":"mlrfHxsnpLA?eA{A~AsFx@tA","length":5},"rentedBike":false,"transitLeg":false,"duration":162.0,"steps":[{"distance":51.95,"relativeDirection":"DEPART","streetName":"Rue Arthur-Hamel","absoluteDirection":"NORTHEAST","stayOn":false,"area":false,"bogusName":false,"lon":-71.02284512319854,"lat":48.43223878297246,"elevation":[]},{"distance":104.965,"relativeDirection":"RIGHT","streetName":"Rue du Perche","absoluteDirection":"SOUTHEAST","stayOn":false,"area":false,"bogusName":false,"lon":-71.02238460000001,"lat":48.4325922,"elevation":[]},{"distance":45.305,"relativeDirection":"RIGHT","streetName":"Rue d'Aunis","absoluteDirection":"SOUTHWEST","stayOn":false,"area":false,"bogusName":false,"lon":-71.0211608,"lat":48.432110800000004,"elevation":[]}]}],"tooSloped":false},{"duration":2762,"startTime":1522718397000,"endTime":1522721159000,"walkTime":1638,"transitTime":1122,"waitingTime":2,"walkDistance":2090.2591278066056,"walkLimitExceeded":false,"elevationLost":0.0,"elevationGained":0.0,"transfers":0,"legs":[{"startTime":1522718397000,"endTime":1522719873000,"departureDelay":0,"arrivalDelay":0,"realTime":false,"distance":1887.6380000000001,"pathway":false,"mode":"WALK","route":"","agencyTimeZoneOffset":-14400000,"interlineWithPreviousLeg":false,"from":{"name":"Origin","lon":-71.083128,"lat":48.41803,"departure":1522718397000,"orig":"","vertexType":"NORMAL"},"to":{"name":"Bégin (no. 825)","stopId":"1:2005","stopCode":"2005","lon":-71.064205,"lat":48.41684,"arrival":1522719873000,"departure":1522719874000,"zoneId":"NA","stopIndex":6,"stopSequence":7,"vertexType":"TRANSIT"},"legGeometry":{"points":"ovofH|jzpLhA{Gj@aD{AaBiCiCeAuC\\gAv@yBj@}Ax@aCHU`AoCg@i@WYuAsAfCsHuA}AqAuAeAkAKM}A}An@}AfBwEZi@PSVa@V[FE\\Y^Y^Kn@MXy@d@oBQEK]Mq@C_BQWQKUEP]Jg@?[@gABk@Hy@p@gAlAiBzA_B","length":50},"rentedBike":false,"transitLeg":false,"duration":1476.0,"steps":[{"distance":176.784,"relativeDirection":"DEPART","streetName":"Rue Cimon","absoluteDirection":"EAST","stayOn":false,"area":false,"bogusName":false,"lon":-71.08286045099662,"lat":48.41848109537543,"elevation":[]},{"distance":222.874,"relativeDirection":"LEFT","streetName":"Rue Saint-Jean","absoluteDirection":"NORTHEAST","stayOn":false,"area":false,"bogusName":false,"lon":-71.0806349,"lat":48.41789300000001,"elevation":[]},{"distance":260.983,"relativeDirection":"RIGHT","streetName":"Rue Saint-Henri","absoluteDirection":"SOUTHEAST","stayOn":false,"area":false,"bogusName":false,"lon":-71.07870050000001,"lat":48.419397000000004,"elevation":[]},{"distance":100.66,"relativeDirection":"LEFT","streetName":"Rue Caron","absoluteDirection":"NORTHEAST","stayOn":false,"area":false,"bogusName":false,"lon":-71.0757816,"lat":48.4180719,"elevation":[]},{"distance":136.111,"relativeDirection":"RIGHT","streetName":"Rue Laviolette","absoluteDirection":"SOUTHEAST","stayOn":false,"area":false,"bogusName":false,"lon":-71.0750204,"lat":48.418823,"elevation":[]},{"distance":234.003,"relativeDirection":"LEFT","streetName":"Rue Des Eudistes","absoluteDirection":"NORTHEAST","stayOn":false,"area":false,"bogusName":false,"lon":-71.0734857,"lat":48.418144100000006,"elevation":[]},{"distance":301.75700000000006,"relativeDirection":"RIGHT","streetName":"Rue Jolliet","absoluteDirection":"SOUTHEAST","stayOn":false,"area":false,"bogusName":false,"lon":-71.07166600000001,"lat":48.4198673,"elevation":[]},{"distance":454.466,"relativeDirection":"LEFT","streetName":"path","absoluteDirection":"SOUTHEAST","stayOn":false,"area":false,"bogusName":true,"lon":-71.069079,"lat":48.417887500000006,"elevation":[]}]},{"startTime":1522719874000,"endTime":1522720996000,"departureDelay":0,"arrivalDelay":0,"realTime":false,"distance":6398.8176442816175,"pathway":false,"mode":"BUS","route":"12","agencyName":"Société de Transport du Saguenay","agencyUrl":"http://ville.saguenay.ca/fr/services-aux-citoyens/transport-sts","agencyTimeZoneOffset":-14400000,"routeColor":"556B2F","routeType":3,"routeId":"1:12","routeTextColor":"FFFFFF","interlineWithPreviousLeg":false,"tripBlockId":"29","headsign":"Terminus Chicoutimi","agencyId":"0","tripId":"1:218082","serviceDate":"20180402","from":{"name":"Bégin (no. 825)","stopId":"1:2005","stopCode":"2005","lon":-71.064205,"lat":48.41684,"arrival":1522719873000,"departure":1522719874000,"zoneId":"NA","stopIndex":6,"stopSequence":7,"vertexType":"TRANSIT"},"to":{"name":"nouveau","stopId":"1:2303","stopCode":"2303","lon":-71.02291,"lat":48.432276,"arrival":1522720996000,"departure":1522720997000,"zoneId":"NA","stopIndex":24,"stopSequence":25,"vertexType":"TRANSIT"},"legGeometry":{"points":"wkofHfuvpLnCpCv@iBlAgIdCmFbAqDtBeCjFm@`Gs@hFo@xAmBrGcPxFoNlCyGa@yFYkD}CyA}KmFgD_BgAgBn@kFD_NoIgrAmD_WcAaLaDHoDJi`@wVoAbDbA|AnBU|B|AfBlAyLtKoGxFcFqDkJaHgEoDmDwC_TqQsBeB{HjWfAvA","length":43},"routeShortName":"12","routeLongName":"Rivière du Moulin","rentedBike":false,"transitLeg":true,"duration":1122.0,"steps":[]},{"startTime":1522720997000,"endTime":1522721159000,"departureDelay":0,"arrivalDelay":0,"realTime":false,"distance":202.22000000000003,"pathway":false,"mode":"WALK","route":"","agencyTimeZoneOffset":-14400000,"interlineWithPreviousLeg":false,"from":{"name":"nouveau","stopId":"1:2303","stopCode":"2303","lon":-71.02291,"lat":48.432276,"arrival":1522720996000,"departure":1522720997000,"zoneId":"NA","stopIndex":24,"stopSequence":25,"vertexType":"TRANSIT"},"to":{"name":"Destination","lon":-71.021427,"lat":48.431709,"arrival":1522721159000,"orig":"","vertexType":"NORMAL"},"legGeometry":{"points":"mlrfHxsnpLA?eA{A~AsFx@tA","length":5},"rentedBike":false,"transitLeg":false,"duration":162.0,"steps":[{"distance":51.95,"relativeDirection":"DEPART","streetName":"Rue Arthur-Hamel","absoluteDirection":"NORTHEAST","stayOn":false,"area":false,"bogusName":false,"lon":-71.02284512319854,"lat":48.43223878297246,"elevation":[]},{"distance":104.965,"relativeDirection":"RIGHT","streetName":"Rue du Perche","absoluteDirection":"SOUTHEAST","stayOn":false,"area":false,"bogusName":false,"lon":-71.02238460000001,"lat":48.4325922,"elevation":[]},{"distance":45.305,"relativeDirection":"RIGHT","streetName":"Rue d'Aunis","absoluteDirection":"SOUTHWEST","stayOn":false,"area":false,"bogusName":false,"lon":-71.0211608,"lat":48.432110800000004,"elevation":[]}]}],"tooSloped":false}]},"debugOutput":{"precalculationTime":19,"pathCalculationTime":61,"pathTimes":[26,17,18],"renderingTime":0,"totalTime":80,"timedOut":false},"elevationMetadata":{"ellipsoidToGeoidDifference":-28.885904201182168,"geoidElevation":false}}