{"requestParameters":{"date":"2018/04/02","walkSpeed":"1.33","walkReluctance":"2.0","fromPlace":"48.431709,-71.021427","maxWalkDistance":"3000","waitReluctance":"1.0","carSpeed":"33","numItineraries":"3","waitAtBeginningFactor":"0.4","mode":"TRANSIT,WALK","ignoreRealtimeUpdates":"false","stairsReluctance":"2.0","toPlace":"48.405598,-71.06785899","time":"7:40:00"},"plan":{"date":1522669200000,"from":{"name":"Origin","lon":-71.021427,"lat":48.431709,"orig":"","vertexType":"NORMAL"},"to":{"name":"Destination","lon":-71.06785899,"lat":48.405598,"orig":"","vertexType":"NORMAL"},"itineraries":[{"duration":1812,"startTime":1522669952000,"endTime":1522671764000,"walkTime":928,"transitTime":882,"waitingTime":2,"walkDistance":1181.083849616321,"walkLimitExceeded":false,"elevationLost":0.0,"elevationGained":0.0,"transfers":0,"legs":[{"startTime":1522669952000,"endTime":1522669997000,"departureDelay":0,"arrivalDelay":0,"realTime":false,"distance":54.554,"pathway":false,"mode":"WALK","route":"","agencyTimeZoneOffset":-14400000,"interlineWithPreviousLeg":false,"from":{"name":"Origin","lon":-71.021427,"lat":48.431709,"departure":1522669952000,"orig":"","vertexType":"NORMAL"},"to":{"name":"Perche / Aunis","stopId":"1:1528","stopCode":"1528","lon":-71.021111,"lat":48.432004,"arrival":1522669997000,"departure":1522669998000,"zoneId":"NA","stopIndex":15,"stopSequence":16,"vertexType":"TRANSIT"},"legGeometry":{"points":"{irfH~knpLy@uAHU","length":3},"rentedBike":false,"transitLeg":false,"duration":45.0,"steps":[{"distance":45.305,"relativeDirection":"DEPART","streetName":"Rue d'Aunis","absoluteDirection":"NORTHEAST","stayOn":false,"area":false,"bogusName":false,"lon":-71.02159921875754,"lat":48.431825518040895,"elevation":[]},{"distance":9.249,"relativeDirection":"RIGHT","streetName":"Rue du Perche","absoluteDirection":"SOUTHEAST","stayOn":false,"area":false,"bogusName":false,"lon":-71.0211608,"lat":48.432110800000004,"elevation":[]}]},{"startTime":1522669998000,"endTime":1522670880000,"departureDelay":0,"arrivalDelay":0,"realTime":false,"distance":5358.674097232622,"pathway":false,"mode":"BUS","route":"12","agencyName":"Société de Transport du Saguenay","agencyUrl":"http://ville.saguenay.ca/fr/services-aux-citoyens/transport-sts","agencyTimeZoneOffset":-14400000,"routeColor":"556B2F","routeType":3,"routeId":"1:12","routeTextColor":"FFFFFF","interlineWithPreviousLeg":false,"tripBlockId":"27","headsign":"Terminus UQAC","agencyId":"0","tripId":"1:218002","serviceDate":"20180402","from":{"name":"Perche / Aunis","stopId":"1:1528","stopCode":"1528","lon":-71.021111,"lat":48.432004,"arrival":1522669997000,"departure":1522669998000,"zoneId":"NA","stopIndex":15,"stopSequence":16,"vertexType":"TRANSIT"},"to":{"name":"Champs-Élysées / Chopin","stopId":"1:584","stopCode":"584","lon":-71.058412,"lat":48.409805,"arrival":1522670880000,"departure":1522670881000,"zoneId":"NA","stopIndex":29,"stopSequence":30,"vertexType":"TRANSIT"},"legGeometry":{"points":"_krfH~hnpLvGsKlIrH`JlH`EfDnOdIdGlGjL|BzBiLv@}L`b@fNvVvrCdRvMcAjKcP~b@","length":15},"routeShortName":"12","routeLongName":"Rivière du Moulin","rentedBike":false,"transitLeg":true,"duration":882.0,"steps":[]},{"startTime":1522670881000,"endTime":1522671764000,"departureDelay":0,"arrivalDelay":0,"realTime":false,"distance":1126.29,"pathway":false,"mode":"WALK","route":"","agencyTimeZoneOffset":-14400000,"interlineWithPreviousLeg":false,"from":{"name":"Champs-Élysées / Chopin","stopId":"1:584","stopCode":"584","lon":-71.058412,"lat":48.409805,"arrival":1522670880000,"departure":1522670881000,"zoneId":"NA","stopIndex":29,"stopSequence":30,"vertexType":"TRANSIT"},"to":{"name":"Destination","lon":-71.06785899,"lat":48.405598,"arrival":1522671764000,"orig":"","vertexType":"NORMAL"},"legGeometry":{"points":"{_nfHprupL?@o@|A|@h@hAd@DBj@d@d@`@pAfAqC|Hk@fBG`ACZAvAHr@~@jGlAx@lDzB^f@Qx@Uh@pBzBDMrBbChEbC","length":25},"rentedBike":false,"transitLeg":false,"duration":883.0,"steps":[{"distance":44.609,"relativeDirection":"DEPART","streetName":"Rue des Champs-Élysées","absoluteDirection":"NORTHWEST","stayOn":false,"area":false,"bogusName":false,"lon":-71.05848639303342,"lat":48.40974208921815,"elevation":[]},{"distance":191.274,"relativeDirection":"LEFT","streetName":"Rue Bizet","absoluteDirection":"SOUTHWEST","stayOn":false,"area":false,"bogusName":false,"lon":-71.0589618,"lat":48.409989800000005,"elevation":[]},{"distance":430.196,"relativeDirection":"RIGHT","streetName":"Rue Belleau","absoluteDirection":"NORTHWEST","stayOn":false,"area":false,"bogusName":false,"lon":-71.0601022,"lat":48.4084523,"elevation":[]},{"distance":173.83,"relativeDirection":"CONTINUE","streetName":"Rue Duhaime","absoluteDirection":"SOUTHWEST","stayOn":false,"area":false,"bogusName":false,"lon":-71.06501420000001,"lat":48.408712400000006,"elevation":[]},{"distance":164.304,"relativeDirection":"LEFT","streetName":"path","absoluteDirection":"SOUTHWEST","stayOn":false,"area":false,"bogusName":true,"lon":-71.0663385,"lat":48.4078874,"elevation":[]},{"distance":122.077,"relativeDirection":"CONTINUE","streetName":"Rue Jean Bourdon","absoluteDirection":"SOUTHWEST","stayOn":false,"area":false,"bogusName":false,"lon":-71.0675429,"lat":48.4067049,"elevation":[]}]}],"tooSloped":false},{"duration":2178,"startTime":1522670433000,"endTime":1522672611000,"walkTime":338,"transitTime":1598,"waitingTime":242,"walkDistance":427.2628947333606,"walkLimitExceeded":false,"elevationLost":0.0,"elevationGained":0.0,"transfers":1,"legs":[{"startTime":1522670433000,"endTime":1522670595000,"departureDelay":0,"arrivalDelay":0,"realTime":false,"distance":202.22,"pathway":false,"mode":"WALK","route":"","agencyTimeZoneOffset":-14400000,"interlineWithPreviousLeg":false,"from":{"name":"Origin","lon":-71.021427,"lat":48.431709,"departure":1522670433000,"orig":"","vertexType":"NORMAL"},"to":{"name":"nouveau","stopId":"1:2303","stopCode":"2303","lon":-71.02291,"lat":48.432276,"arrival":1522670595000,"departure":1522670596000,"zoneId":"NA","stopIndex":24,"stopSequence":25,"vertexType":"TRANSIT"},"legGeometry":{"points":"{irfH~knpLy@uA_BrFdAzA@?","length":5},"rentedBike":false,"transitLeg":false,"duration":162.0,"steps":[{"distance":45.305,"relativeDirection":"DEPART","streetName":"Rue d'Aunis","absoluteDirection":"NORTHEAST","stayOn":false,"area":false,"bogusName":false,"lon":-71.02159921875754,"lat":48.431825518040895,"elevation":[]},{"distance":104.965,"relativeDirection":"LEFT","streetName":"Rue du Perche","absoluteDirection":"NORTHWEST","stayOn":false,"area":false,"bogusName":false,"lon":-71.0211608,"lat":48.432110800000004,"elevation":[]},{"distance":51.95,"relativeDirection":"LEFT","streetName":"Rue Arthur-Hamel","absoluteDirection":"SOUTHWEST","stayOn":false,"area":false,"bogusName":false,"lon":-71.02238460000001,"lat":48.4325922,"elevation":[]}]},{"startTime":1522670596000,"endTime":1522671060000,"departureDelay":0,"arrivalDelay":0,"realTime":false,"distance":3308.741766648229,"pathway":false,"mode":"BUS","route":"12","agencyName":"Société de Transport du Saguenay","agencyUrl":"http://ville.saguenay.ca/fr/services-aux-citoyens/transport-sts","agencyTimeZoneOffset":-14400000,"routeColor":"556B2F","routeType":3,"routeId":"1:12","routeTextColor":"FFFFFF","interlineWithPreviousLeg":false,"tripBlockId":"29","headsign":"Terminus Chicoutimi","agencyId":"0","tripId":"1:218054","serviceDate":"20180402","from":{"name":"nouveau","stopId":"1:2303","stopCode":"2303","lon":-71.02291,"lat":48.432276,"arrival":1522670595000,"departure":1522670596000,"zoneId":"NA","stopIndex":24,"stopSequence":25,"vertexType":"TRANSIT"},"to":{"name":"Terminus Chicoutimi","stopId":"1:1289","stopCode":"1289","lon":-71.066163,"lat":48.428677,"arrival":1522671060000,"departure":1522671300000,"zoneId":"NA","stopIndex":33,"stopSequence":34,"vertexType":"TRANSIT"},"legGeometry":{"points":"qlrfH|snpLfM|O|FlHmB`IgA|Cy@`UYzHZvMR~Hr@~ZPvHsCrMFxf@|ApJj@nDDl]BvZdCXJhC","length":19},"routeShortName":"12","routeLongName":"Rivière du Moulin","rentedBike":false,"transitLeg":true,"duration":464.0,"steps":[]},{"startTime":1522671300000,"endTime":1522672434000,"departureDelay":0,"arrivalDelay":0,"realTime":false,"distance":4730.926121913137,"pathway":false,"mode":"BUS","route":"15","agencyName":"Société de Transport du Saguenay","agencyUrl":"http://ville.saguenay.ca/fr/services-aux-citoyens/transport-sts","agencyTimeZoneOffset":-14400000,"routeColor":"FF00FF","routeType":3,"routeId":"1:15","routeTextColor":"FFFFFF","interlineWithPreviousLeg":false,"tripBlockId":"33","headsign":"Talbot / Barrette","agencyId":"0","tripId":"1:218175","serviceDate":"20180402","from":{"name":"Terminus Chicoutimi","stopId":"1:1289","stopCode":"1289","lon":-71.066163,"lat":48.428677,"arrival":1522671060000,"departure":1522671300000,"zoneId":"NA","stopIndex":0,"stopSequence":1,"vertexType":"TRANSIT"},"to":{"name":"Saguenéens (no. 129)","stopId":"1:2000","stopCode":"2000","lon":-71.067064,"lat":48.407463,"arrival":1522672434000,"departure":1522672435000,"zoneId":"NA","stopIndex":19,"stopSequence":20,"vertexType":"TRANSIT"},"legGeometry":{"points":"evqfHpbwpLPiCjKx@HiEZkS\\aSN_K^eIrBpBvIpIr@r@\\mBfAaA`@gBOkB_@uF|DyL|DpDQ|@|@z@bA`ATw@dD~Ch@fA@`E~AjGuH`Iy@bBi@dCbEdEjJlJ`HbHlJpJ|J~JdAfALzDNzDrAdBrEKvBEbCv@d@TvFlC|DlBpMlGrB`AM}@hAwEC{B]oBiBmBsH_@_K{H`EgI","length":54},"routeShortName":"15","routeLongName":"Term. Chic / Costco","rentedBike":false,"transitLeg":true,"duration":1134.0,"steps":[]},{"startTime":1522672435000,"endTime":1522672611000,"departureDelay":0,"arrivalDelay":0,"realTime":false,"distance":224.935,"pathway":false,"mode":"WALK","route":"","agencyTimeZoneOffset":-14400000,"interlineWithPreviousLeg":false,"from":{"name":"Saguenéens (no. 129)","stopId":"1:2000","stopCode":"2000","lon":-71.067064,"lat":48.407463,"arrival":1522672434000,"departure":1522672435000,"zoneId":"NA","stopIndex":19,"stopSequence":20,"vertexType":"TRANSIT"},"to":{"name":"Destination","lon":-71.06785899,"lat":48.405598,"arrival":1522672611000,"orig":"","vertexType":"NORMAL"},"legGeometry":{"points":"gqmfHphwpLPa@DMrBbChEbC","length":5},"rentedBike":false,"transitLeg":false,"duration":176.0,"steps":[{"distance":21.978,"relativeDirection":"DEPART","streetName":"Rue des Saguenéens","absoluteDirection":"SOUTHEAST","stayOn":false,"area":false,"bogusName":false,"lon":-71.06712694989164,"lat":48.40740751123809,"elevation":[]},{"distance":80.88,"relativeDirection":"RIGHT","streetName":"path","absoluteDirection":"SOUTHWEST","stayOn":false,"area":false,"bogusName":true,"lon":-71.0668891,"lat":48.4072886,"elevation":[]},{"distance":122.077,"relativeDirection":"CONTINUE","streetName":"Rue Jean Bourdon","absoluteDirection":"SOUTHWEST","stayOn":false,"area":false,"bogusName":false,"lon":-71.0675429,"lat":48.4067049,"elevation":[]}]}],"tooSloped":false},{"duration":1812,"startTime":1522671752000,"endTime":1522673564000,"walkTime":928,"transitTime":882,"waitingTime":2,"walkDistance":1181.083849616321,"walkLimitExceeded":false,"elevationLost":0.0,"elevationGained":0.0,"transfers":0,"legs":[{"startTime":1522671752000,"endTime":1522671797000,"departureDelay":0,"arrivalDelay":0,"realTime":false,"distance":54.554,"pathway":false,"mode":"WALK","route":"","agencyTimeZoneOffset":-14400000,"interlineWithPreviousLeg":false,"from":{"name":"Origin","lon":-71.021427,"lat":48.431709,"departure":1522671752000,"orig":"","vertexType":"NORMAL"},"to":{"name":"Perche / Aunis","stopId":"1:1528","stopCode":"1528","lon":-71.021111,"lat":48.432004,"arrival":1522671797000,"departure":1522671798000,"zoneId":"NA","stopIndex":15,"stopSequence":16,"vertexType":"TRANSIT"},"legGeometry":{"points":"{irfH~knpLy@uAHU","length":3},"rentedBike":false,"transitLeg":false,"duration":45.0,"steps":[{"distance":45.305,"relativeDirection":"DEPART","streetName":"Rue d'Aunis","absoluteDirection":"NORTHEAST","stayOn":false,"area":false,"bogusName":false,"lon":-71.02159921875754,"lat":48.431825518040895,"elevation":[]},{"distance":9.249,"relativeDirection":"RIGHT","streetName":"Rue du Perche","absoluteDirection":"SOUTHEAST","stayOn":false,"area":false,"bogusName":false,"lon":-71.0211608,"lat":48.432110800000004,"elevation":[]}]},{"startTime":1522671798000,"endTime":1522672680000,"departureDelay":0,"arrivalDelay":0,"realTime":false,"distance":5358.674097232622,"pathway":false,"mode":"BUS","route":"12","agencyName":"Société de Transport du Saguenay","agencyUrl":"http://ville.saguenay.ca/fr/services-aux-citoyens/transport-sts","agencyTimeZoneOffset":-14400000,"routeColor":"556B2F","routeType":3,"routeId":"1:12","routeTextColor":"FFFFFF","interlineWithPreviousLeg":false,"tripBlockId":"28","headsign":"Terminus UQAC","agencyId":"0","tripId":"1:218029","serviceDate":"20180402","from":{"name":"Perche / Aunis","stopId":"1:1528","stopCode":"1528","lon":-71.021111,"lat":48.432004,"arrival":1522671797000,"departure":1522671798000,"zoneId":"NA","stopIndex":15,"stopSequence":16,"vertexType":"TRANSIT"},"to":{"name":"Champs-Élysées / Chopin","stopId":"1:584","stopCode":"584","lon":-71.058412,"lat":48.409805,"arrival":1522672680000,"departure":1522672681000,"zoneId":"NA","stopIndex":29,"stopSequence":30,"vertexType":"TRANSIT"},"legGeometry":{"points":"_krfH~hnpLvGsKlIrH`JlH`EfDnOdIdGlGjL|BzBiLv@}L`b@fNvVvrCdRvMcAjKcP~b@","length":15},"routeShortName":"12","routeLongName":"Rivière du Moulin","rentedBike":false,"transitLeg":true,"duration":882.0,"steps":[]},{"startTime":1522672681000,"endTime":1522673564000,"departureDelay":0,"arrivalDelay":0,"realTime":false,"distance":1126.29,"pathway":false,"mode":"WALK","route":"","agencyTimeZoneOffset":-14400000,"interlineWithPreviousLeg":false,"from":{"name":"Champs-Élysées / Chopin","stopId":"1:584","stopCode":"584","lon":-71.058412,"lat":48.409805,"arrival":1522672680000,"departure":1522672681000,"zoneId":"NA","stopIndex":29,"stopSequence":30,"vertexType":"TRANSIT"},"to":{"name":"Destination","lon":-71.06785899,"lat":48.405598,"arrival":1522673564000,"orig":"","vertexType":"NORMAL"},"legGeometry":{"points":"{_nfHprupL?@o@|A|@h@hAd@DBj@d@d@`@pAfAqC|Hk@fBG`ACZAvAHr@~@jGlAx@lDzB^f@Qx@Uh@pBzBDMrBbChEbC","length":25},"rentedBike":false,"transitLeg":false,"duration":883.0,"steps":[{"distance":44.609,"relativeDirection":"DEPART","streetName":"Rue des Champs-Élysées","absoluteDirection":"NORTHWEST","stayOn":false,"area":false,"bogusName":false,"lon":-71.05848639303342,"lat":48.40974208921815,"elevation":[]},{"distance":191.274,"relativeDirection":"LEFT","streetName":"Rue Bizet","absoluteDirection":"SOUTHWEST","stayOn":false,"area":false,"bogusName":false,"lon":-71.0589618,"lat":48.409989800000005,"elevation":[]},{"distance":430.196,"relativeDirection":"RIGHT","streetName":"Rue Belleau","absoluteDirection":"NORTHWEST","stayOn":false,"area":false,"bogusName":false,"lon":-71.0601022,"lat":48.4084523,"elevation":[]},{"distance":173.83,"relativeDirection":"CONTINUE","streetName":"Rue Duhaime","absoluteDirection":"SOUTHWEST","stayOn":false,"area":false,"bogusName":false,"lon":-71.06501420000001,"lat":48.408712400000006,"elevation":[]},{"distance":164.304,"relativeDirection":"LEFT","streetName":"path","absoluteDirection":"SOUTHWEST","stayOn":false,"area":false,"bogusName":true,"lon":-71.0663385,"lat":48.4078874,"elevation":[]},{"distance":122.077,"relativeDirection":"CONTINUE","streetName":"Rue Jean Bourdon","absoluteDirection":"SOUTHWEST","stayOn":false,"area":false,"bogusName":false,"lon":-71.0675429,"lat":48.4067049,"elevation":[]}]}],"tooSloped":false}]},"debugOutput":{"precalculationTime":24,"pathCalculationTime":17,"pathTimes":[8,5,4],"renderingTime":1,"totalTime":42,"timedOut":false},"elevationMetadata":{"ellipsoidToGeoidDifference":-28.885904201182168,"geoidElevation":false}}