{"requestParameters":{"date":"2018/04/02","walkSpeed":"1.33","walkReluctance":"2.0","fromPlace":"48.432207,-71.022635","maxWalkDistance":"3000","waitReluctance":"1.0","carSpeed":"33","numItineraries":"3","waitAtBeginningFactor":"0.4","mode":"TRANSIT,WALK","ignoreRealtimeUpdates":"false","stairsReluctance":"2.0","toPlace":"48.422638,-71.059381","time":"8:15:00"},"plan":{"date":1522671300000,"from":{"name":"Origin","lon":-71.022635,"lat":48.432207,"orig":"","vertexType":"NORMAL"},"to":{"name":"Destination","lon":-71.059381,"lat":48.422638,"orig":"","vertexType":"NORMAL"},"itineraries":[{"duration":1136,"startTime":1522671769000,"endTime":1522672905000,"walkTime":29,"transitTime":1105,"waitingTime":2,"walkDistance":36.423,"walkLimitExceeded":false,"elevationLost":0.0,"elevationGained":0.0,"transfers":0,"legs":[{"startTime":1522671769000,"endTime":1522671775000,"departureDelay":0,"arrivalDelay":0,"realTime":false,"distance":7.103,"pathway":false,"mode":"WALK","route":"","agencyTimeZoneOffset":-14400000,"interlineWithPreviousLeg":false,"from":{"name":"Origin","lon":-71.022635,"lat":48.432207,"departure":1522671769000,"orig":"","vertexType":"NORMAL"},"to":{"name":"Arthur-Hamel / Perche","stopId":"1:1527","stopCode":"1527","lon":-71.02277,"lat":48.4322,"arrival":1522671775000,"departure":1522671776000,"zoneId":"NA","stopIndex":14,"stopSequence":15,"vertexType":"TRANSIT"},"legGeometry":{"points":"wlrfHjsnpLFL","length":2},"rentedBike":false,"transitLeg":false,"duration":6.0,"steps":[{"distance":7.103,"relativeDirection":"DEPART","streetName":"Rue Arthur-Hamel","absoluteDirection":"SOUTHWEST","stayOn":false,"area":false,"bogusName":false,"lon":-71.02277894090284,"lat":48.43228957292245,"elevation":[]}]},{"startTime":1522671776000,"endTime":1522672881000,"departureDelay":0,"arrivalDelay":0,"realTime":false,"distance":7099.8603314527545,"pathway":false,"mode":"BUS","route":"12","agencyName":"Société de Transport du Saguenay","agencyUrl":"http://ville.saguenay.ca/fr/services-aux-citoyens/transport-sts","agencyTimeZoneOffset":-14400000,"routeColor":"556B2F","routeType":3,"routeId":"1:12","routeTextColor":"FFFFFF","interlineWithPreviousLeg":false,"tripBlockId":"28","headsign":"Terminus UQAC","agencyId":"0","tripId":"1:218029","serviceDate":"20180402","from":{"name":"Arthur-Hamel / Perche","stopId":"1:1527","stopCode":"1527","lon":-71.02277,"lat":48.4322,"arrival":1522671775000,"departure":1522671776000,"zoneId":"NA","stopIndex":14,"stopSequence":15,"vertexType":"TRANSIT"},"to":{"name":"Bégin / Saint-Thomas","stopId":"1:563","stopCode":"563","lon":-71.0587,"lat":48.422,"arrival":1522672881000,"departure":1522672882000,"zoneId":"NA","stopIndex":36,"stopSequence":37,"vertexType":"TRANSIT"},"legGeometry":{"points":"glrfHhsnpLf@iIvGsKlIrH`JlH`EfDnOdIdGlGjL|BzBiLv@}L`b@fNvVvrCdRvMcAjKcP~b@iHhDaGz@uSl[uCYmIeIeJ_J{J{J","length":23},"routeShortName":"12","routeLongName":"Rivière du Moulin","rentedBike":false,"transitLeg":true,"duration":1105.0,"steps":[]},{"startTime":1522672882000,"endTime":1522672905000,"departureDelay":0,"arrivalDelay":0,"realTime":false,"distance":29.32,"pathway":false,"mode":"WALK","route":"","agencyTimeZoneOffset":-14400000,"interlineWithPreviousLeg":false,"from":{"name":"Bégin / Saint-Thomas","stopId":"1:563","stopCode":"563","lon":-71.0587,"lat":48.422,"arrival":1522672881000,"departure":1522672882000,"zoneId":"NA","stopIndex":36,"stopSequence":37,"vertexType":"TRANSIT"},"to":{"name":"Destination","lon":-71.059381,"lat":48.422638,"arrival":1522672905000,"orig":"","vertexType":"NORMAL"},"legGeometry":{"points":"slpfHftupLKI_@a@","length":3},"rentedBike":false,"transitLeg":false,"duration":23.0,"steps":[{"distance":29.32,"relativeDirection":"DEPART","streetName":"Rue Bégin","absoluteDirection":"NORTHEAST","stayOn":false,"area":false,"bogusName":false,"lon":-71.05875953651149,"lat":48.42202602664888,"elevation":[]}]}],"tooSloped":false},{"duration":1152,"startTime":1522672388000,"endTime":1522673540000,"walkTime":165,"transitTime":745,"waitingTime":242,"walkDistance":208.0081353382124,"walkLimitExceeded":false,"elevationLost":0.0,"elevationGained":0.0,"transfers":1,"legs":[{"startTime":1522672388000,"endTime":1522672395000,"departureDelay":0,"arrivalDelay":0,"realTime":false,"distance":7.465,"pathway":false,"mode":"WALK","route":"","agencyTimeZoneOffset":-14400000,"interlineWithPreviousLeg":false,"from":{"name":"Origin","lon":-71.022635,"lat":48.432207,"departure":1522672388000,"orig":"","vertexType":"NORMAL"},"to":{"name":"nouveau","stopId":"1:2303","stopCode":"2303","lon":-71.02291,"lat":48.432276,"arrival":1522672395000,"departure":1522672396000,"zoneId":"NA","stopIndex":24,"stopSequence":25,"vertexType":"TRANSIT"},"legGeometry":{"points":"wlrfHjsnpLFL@?","length":3},"rentedBike":false,"transitLeg":false,"duration":7.0,"steps":[{"distance":7.465,"relativeDirection":"DEPART","streetName":"Rue Arthur-Hamel","absoluteDirection":"SOUTHWEST","stayOn":false,"area":false,"bogusName":false,"lon":-71.02277894090284,"lat":48.43228957292245,"elevation":[]}]},{"startTime":1522672396000,"endTime":1522672860000,"departureDelay":0,"arrivalDelay":0,"realTime":false,"distance":3308.741766648229,"pathway":false,"mode":"BUS","route":"12","agencyName":"Société de Transport du Saguenay","agencyUrl":"http://ville.saguenay.ca/fr/services-aux-citoyens/transport-sts","agencyTimeZoneOffset":-14400000,"routeColor":"556B2F","routeType":3,"routeId":"1:12","routeTextColor":"FFFFFF","interlineWithPreviousLeg":false,"tripBlockId":"26","headsign":"Terminus Chicoutimi","agencyId":"0","tripId":"1:217967","serviceDate":"20180402","from":{"name":"nouveau","stopId":"1:2303","stopCode":"2303","lon":-71.02291,"lat":48.432276,"arrival":1522672395000,"departure":1522672396000,"zoneId":"NA","stopIndex":24,"stopSequence":25,"vertexType":"TRANSIT"},"to":{"name":"Terminus Chicoutimi","stopId":"1:1289","stopCode":"1289","lon":-71.066163,"lat":48.428677,"arrival":1522672860000,"departure":1522673100000,"zoneId":"NA","stopIndex":33,"stopSequence":34,"vertexType":"TRANSIT"},"legGeometry":{"points":"qlrfH|snpLfM|O|FlHmB`IgA|Cy@`UYzHZvMR~Hr@~ZPvHsCrMFxf@|ApJj@nDDl]BvZdCXJhC","length":19},"routeShortName":"12","routeLongName":"Rivière du Moulin","rentedBike":false,"transitLeg":true,"duration":464.0,"steps":[]},{"startTime":1522673100000,"endTime":1522673381000,"departureDelay":0,"arrivalDelay":0,"realTime":false,"distance":1197.7266149818488,"pathway":false,"mode":"BUS","route":"15","agencyName":"Société de Transport du Saguenay","agencyUrl":"http://ville.saguenay.ca/fr/services-aux-citoyens/transport-sts","agencyTimeZoneOffset":-14400000,"routeColor":"FF00FF","routeType":3,"routeId":"1:15","routeTextColor":"FFFFFF","interlineWithPreviousLeg":false,"tripBlockId":"31","headsign":"Talbot / Barrette","agencyId":"0","tripId":"1:218126","serviceDate":"20180402","from":{"name":"Terminus Chicoutimi","stopId":"1:1289","stopCode":"1289","lon":-71.066163,"lat":48.428677,"arrival":1522672860000,"departure":1522673100000,"zoneId":"NA","stopIndex":0,"stopSequence":1,"vertexType":"TRANSIT"},"to":{"name":"Bégin / Voie Réservé","stopId":"1:74","stopCode":"74","lon":-71.057125,"lat":48.423785,"arrival":1522673381000,"departure":1522673382000,"zoneId":"NA","stopIndex":5,"stopSequence":6,"vertexType":"TRANSIT"},"legGeometry":{"points":"evqfHpbwpLPiCjKx@HiEZkS\\aSN_K^eIrBpBvIpI","length":10},"routeShortName":"15","routeLongName":"Term. Chic / Costco","rentedBike":false,"transitLeg":true,"duration":281.0,"steps":[]},{"startTime":1522673382000,"endTime":1522673540000,"departureDelay":0,"arrivalDelay":0,"realTime":false,"distance":200.539,"pathway":false,"mode":"WALK","route":"","agencyTimeZoneOffset":-14400000,"interlineWithPreviousLeg":false,"from":{"name":"Bégin / Voie Réservé","stopId":"1:74","stopCode":"74","lon":-71.057125,"lat":48.423785,"arrival":1522673381000,"departure":1522673382000,"zoneId":"NA","stopIndex":5,"stopSequence":6,"vertexType":"TRANSIT"},"to":{"name":"Destination","lon":-71.059381,"lat":48.422638,"arrival":1522673540000,"orig":"","vertexType":"NORMAL"},"legGeometry":{"points":"kwpfHpiupLXVDDJHHHVVRN`AbAhAfAVXd@h@","length":11},"rentedBike":false,"transitLeg":false,"duration":158.0,"steps":[{"distance":200.539,"relativeDirection":"DEPART","streetName":"Rue Bégin","absoluteDirection":"SOUTHWEST","stayOn":false,"area":false,"bogusName":false,"lon":-71.05704050802188,"lat":48.42374908473847,"elevation":[]}]}],"tooSloped":false},{"duration":1136,"startTime":1522673569000,"endTime":1522674705000,"walkTime":29,"transitTime":1105,"waitingTime":2,"walkDistance":36.423,"walkLimitExceeded":false,"elevationLost":0.0,"elevationGained":0.0,"transfers":0,"legs":[{"startTime":1522673569000,"endTime":1522673575000,"departureDelay":0,"arrivalDelay":0,"realTime":false,"distance":7.103,"pathway":false,"mode":"WALK","route":"","agencyTimeZoneOffset":-14400000,"interlineWithPreviousLeg":false,"from":{"name":"Origin","lon":-71.022635,"lat":48.432207,"departure":1522673569000,"orig":"","vertexType":"NORMAL"},"to":{"name":"Arthur-Hamel / Perche","stopId":"1:1527","stopCode":"1527","lon":-71.02277,"lat":48.4322,"arrival":1522673575000,"departure":1522673576000,"zoneId":"NA","stopIndex":14,"stopSequence":15,"vertexType":"TRANSIT"},"legGeometry":{"points":"wlrfHjsnpLFL","length":2},"rentedBike":false,"transitLeg":false,"duration":6.0,"steps":[{"distance":7.103,"relativeDirection":"DEPART","streetName":"Rue Arthur-Hamel","absoluteDirection":"SOUTHWEST","stayOn":false,"area":false,"bogusName":false,"lon":-71.02277894090284,"lat":48.43228957292245,"elevation":[]}]},{"startTime":1522673576000,"endTime":1522674681000,"departureDelay":0,"arrivalDelay":0,"realTime":false,"distance":7099.8603314527545,"pathway":false,"mode":"BUS","route":"12","agencyName":"Société de Transport du Saguenay","agencyUrl":"http://ville.saguenay.ca/fr/services-aux-citoyens/transport-sts","agencyTimeZoneOffset":-14400000,"routeColor":"556B2F","routeType":3,"routeId":"1:12","routeTextColor":"FFFFFF","interlineWithPreviousLeg":false,"tripBlockId":"27","headsign":"Terminus UQAC","agencyId":"0","tripId":"1:218004","serviceDate":"20180402","from":{"name":"Arthur-Hamel / Perche","stopId":"1:1527","stopCode":"1527","lon":-71.02277,"lat":48.4322,"arrival":1522673575000,"departure":1522673576000,"zoneId":"NA","stopIndex":14,"stopSequence":15,"vertexType":"TRANSIT"},"to":{"name":"Bégin / Saint-Thomas","stopId":"1:563","stopCode":"563","lon":-71.0587,"lat":48.422,"arrival":1522674681000,"departure":1522674682000,"zoneId":"NA","stopIndex":36,"stopSequence":37,"vertexType":"TRANSIT"},"legGeometry":{"points":"glrfHhsnpLf@iIvGsKlIrH`JlH`EfDnOdIdGlGjL|BzBiLv@}L`b@fNvVvrCdRvMcAjKcP~b@iHhDaGz@uSl[uCYmIeIeJ_J{J{J","length":23},"routeShortName":"12","routeLongName":"Rivière du Moulin","rentedBike":false,"transitLeg":true,"duration":1105.0,"steps":[]},{"startTime":1522674682000,"endTime":1522674705000,"departureDelay":0,"arrivalDelay":0,"realTime":false,"distance":29.32,"pathway":false,"mode":"WALK","route":"","agencyTimeZoneOffset":-14400000,"interlineWithPreviousLeg":false,"from":{"name":"Bégin / Saint-Thomas","stopId":"1:563","stopCode":"563","lon":-71.0587,"lat":48.422,"arrival":1522674681000,"departure":1522674682000,"zoneId":"NA","stopIndex":36,"stopSequence":37,"vertexType":"TRANSIT"},"to":{"name":"Destination","lon":-71.059381,"lat":48.422638,"arrival":1522674705000,"orig":"","vertexType":"NORMAL"},"legGeometry":{"points":"slpfHftupLKI_@a@","length":3},"rentedBike":false,"transitLeg":false,"duration":23.0,"steps":[{"distance":29.32,"relativeDirection":"DEPART","streetName":"Rue Bégin","absoluteDirection":"NORTHEAST","stayOn":false,"area":false,"bogusName":false,"lon":-71.05875953651149,"lat":48.42202602664888,"elevation":[]}]}],"tooSloped":false}]},"debugOutput":{"precalculationTime":29,"pathCalculationTime":15,"pathTimes":[6,7,2],"renderingTime":0,"totalTime":44,"timedOut":false},"elevationMetadata":{"ellipsoidToGeoidDifference":-28.885904201182168,"geoidElevation":false}}