{"requestParameters":{"date":"2018/04/02","walkSpeed":"1.33","walkReluctance":"2.0","fromPlace":"48.418729,-71.053021","maxWalkDistance":"3000","waitReluctance":"1.0","carSpeed":"33","numItineraries":"3","waitAtBeginningFactor":"0.4","mode":"TRANSIT,WALK","ignoreRealtimeUpdates":"false","stairsReluctance":"2.0","toPlace":"48.431078,-71.025678","time":"9:45:00"},"plan":{"date":1522676700000,"from":{"name":"Origin","lon":-71.053021,"lat":48.418729,"orig":"","vertexType":"NORMAL"},"to":{"name":"Destination","lon":-71.025678,"lat":48.431078,"orig":"","vertexType":"NORMAL"},"itineraries":[{"duration":1854,"startTime":1522677170000,"endTime":1522679024000,"walkTime":717,"transitTime":1135,"waitingTime":2,"walkDistance":863.4264586326302,"walkLimitExceeded":false,"elevationLost":0.0,"elevationGained":0.0,"transfers":0,"legs":[{"startTime":1522677170000,"endTime":1522677784000,"departureDelay":0,"arrivalDelay":0,"realTime":false,"distance":741.3149999999999,"pathway":false,"mode":"WALK","route":"","agencyTimeZoneOffset":-14400000,"interlineWithPreviousLeg":false,"from":{"name":"Origin","lon":-71.053021,"lat":48.418729,"departure":1522677170000,"orig":"","vertexType":"NORMAL"},"to":{"name":"nouveau","stopId":"1:2285","stopCode":"2285","lon":-71.04706,"lat":48.42154,"arrival":1522677784000,"departure":1522677785000,"zoneId":"NA","stopIndex":13,"stopSequence":14,"vertexType":"TRANSIT"},"legGeometry":{"points":"mwofHbotpLwBuBCA_AaATIQQSSCCw@w@u@u@UU_A{@Po@Lg@Tu@[]Ne@Jg@_@i@QMMGKOGOESCUAK@KCIBMEIBGIGBGIMBIQUIQGSCBC?E?EACCCEAGCQEUUS]_@Rk@","length":50},"alerts":[{"alertHeaderText":"Unpaved surface"}],"rentedBike":false,"transitLeg":false,"duration":614.0,"steps":[{"distance":137.92600000000002,"relativeDirection":"DEPART","streetName":"path","absoluteDirection":"NORTHEAST","stayOn":false,"area":false,"bogusName":false,"lon":-71.05281450938897,"lat":48.41863935175929,"elevation":[]},{"distance":115.507,"relativeDirection":"HARD_LEFT","streetName":"Rue de la Fondation","absoluteDirection":"NORTHEAST","stayOn":false,"area":false,"bogusName":false,"lon":-71.0518321,"lat":48.419468900000005,"elevation":[]},{"distance":120.789,"relativeDirection":"CONTINUE","streetName":"service road","absoluteDirection":"NORTHEAST","stayOn":false,"area":false,"bogusName":true,"lon":-71.0509657,"lat":48.420334000000004,"elevation":[]},{"distance":32.842,"relativeDirection":"RIGHT","streetName":"service road","absoluteDirection":"SOUTHEAST","stayOn":true,"area":false,"bogusName":true,"lon":-71.049807,"lat":48.420520200000006,"elevation":[]},{"distance":243.322,"relativeDirection":"LEFT","streetName":"path","absoluteDirection":"NORTHEAST","stayOn":true,"area":false,"bogusName":true,"lon":-71.0494152,"lat":48.4203801,"elevation":[],"alerts":[{"alertHeaderText":"Unpaved surface"}]},{"distance":71.29999999999998,"relativeDirection":"LEFT","streetName":"Rue Bécard","absoluteDirection":"NORTH","stayOn":false,"area":false,"bogusName":false,"lon":-71.04789620000001,"lat":48.421103300000006,"elevation":[]},{"distance":19.629,"relativeDirection":"RIGHT","streetName":"Chemin Sydenham","absoluteDirection":"SOUTHEAST","stayOn":false,"area":false,"bogusName":false,"lon":-71.0473547,"lat":48.4215682,"elevation":[]}]},{"startTime":1522677785000,"endTime":1522678200000,"departureDelay":0,"arrivalDelay":0,"realTime":false,"distance":1811.7355077182299,"pathway":false,"mode":"BUS","route":"10","agencyName":"Société de Transport du Saguenay","agencyUrl":"http://ville.saguenay.ca/fr/services-aux-citoyens/transport-sts","agencyTimeZoneOffset":-14400000,"routeColor":"0000FF","routeType":3,"routeId":"1:10","routeTextColor":"FFFFFF","interlineWithPreviousLeg":false,"tripBlockId":"28","headsign":"Terminus Chicoutimi","agencyId":"0","tripId":"1:218032","serviceDate":"20180402","from":{"name":"nouveau","stopId":"1:2285","stopCode":"2285","lon":-71.04706,"lat":48.42154,"arrival":1522677784000,"departure":1522677785000,"zoneId":"NA","stopIndex":13,"stopSequence":14,"vertexType":"TRANSIT"},"to":{"name":"Terminus Chicoutimi","stopId":"1:1289","stopCode":"1289","lon":-71.066163,"lat":48.428677,"arrival":1522678200000,"departure":1522678500000,"zoneId":"NA","stopIndex":21,"stopSequence":22,"vertexType":"TRANSIT"},"legGeometry":{"points":"aipfHvkspL_BhE}AfD{BdByBh@iC]oDq@YbF_Ea@AAuEg@MDENF|GAjJDzBDdDLdHFbCo@RUFRbFG|FApAMvFa@tPOnHqBOIjDc@Q","length":30},"routeShortName":"10","routeLongName":"Notre-Dame du Saguenay","rentedBike":false,"transitLeg":true,"duration":415.0,"steps":[]},{"startTime":1522678500000,"endTime":1522678920000,"departureDelay":0,"arrivalDelay":0,"realTime":false,"distance":3124.3531449342636,"pathway":false,"mode":"BUS","route":"12","agencyName":"Société de Transport du Saguenay","agencyUrl":"http://ville.saguenay.ca/fr/services-aux-citoyens/transport-sts","agencyTimeZoneOffset":-14400000,"routeColor":"556B2F","routeType":3,"routeId":"1:12","routeTextColor":"FFFFFF","interlineWithPreviousLeg":true,"tripBlockId":"28","headsign":"Terminus UQAC","agencyId":"0","tripId":"1:218033","serviceDate":"20180402","from":{"name":"Terminus Chicoutimi","stopId":"1:1289","stopCode":"1289","lon":-71.066163,"lat":48.428677,"arrival":1522678200000,"departure":1522678500000,"zoneId":"NA","stopIndex":0,"stopSequence":1,"vertexType":"TRANSIT"},"to":{"name":"Arthur-Hamel / Cèdres","stopId":"1:1525","stopCode":"1525","lon":-71.025769,"lat":48.43019,"arrival":1522678920000,"departure":1522678921000,"zoneId":"NA","stopIndex":12,"stopSequence":13,"vertexType":"TRANSIT"},"legGeometry":{"points":"evqfHpbwpLpFcj@IaKmFy^_DaZz@u]SeV}@aNs@gKToKd@gTnCyHkGuL","length":13},"routeShortName":"12","routeLongName":"Rivière du Moulin","rentedBike":false,"transitLeg":true,"duration":420.0,"steps":[]},{"startTime":1522678921000,"endTime":1522679024000,"departureDelay":0,"arrivalDelay":0,"realTime":false,"distance":121.678,"pathway":false,"mode":"WALK","route":"","agencyTimeZoneOffset":-14400000,"interlineWithPreviousLeg":false,"from":{"name":"Arthur-Hamel / Cèdres","stopId":"1:1525","stopCode":"1525","lon":-71.025769,"lat":48.43019,"arrival":1522678920000,"departure":1522678921000,"zoneId":"NA","stopIndex":12,"stopSequence":13,"vertexType":"TRANSIT"},"to":{"name":"Destination","lon":-71.025678,"lat":48.431078,"arrival":1522679024000,"orig":"","vertexType":"NORMAL"},"legGeometry":{"points":"{_rfHnfopL{@{@a@pAa@aBEI","length":5},"rentedBike":false,"transitLeg":false,"duration":103.0,"steps":[{"distance":40.349,"relativeDirection":"DEPART","streetName":"Rue Arthur-Hamel","absoluteDirection":"NORTHEAST","stayOn":false,"area":false,"bogusName":false,"lon":-71.02583684388401,"lat":48.430220456359244,"elevation":[]},{"distance":35.941,"relativeDirection":"LEFT","streetName":"Rue des Cèdres","absoluteDirection":"NORTHWEST","stayOn":false,"area":false,"bogusName":false,"lon":-71.02553040000001,"lat":48.430521000000006,"elevation":[]},{"distance":45.388,"relativeDirection":"HARD_RIGHT","streetName":"Rue du Parc","absoluteDirection":"NORTHEAST","stayOn":false,"area":false,"bogusName":false,"lon":-71.0259436,"lat":48.4306922,"elevation":[]}]}],"tooSloped":false},{"duration":1985,"startTime":1522677766000,"endTime":1522679751000,"walkTime":227,"transitTime":1756,"waitingTime":2,"walkDistance":283.6770751853861,"walkLimitExceeded":false,"elevationLost":0.0,"elevationGained":0.0,"transfers":0,"legs":[{"startTime":1522677766000,"endTime":1522677883000,"departureDelay":0,"arrivalDelay":0,"realTime":false,"distance":153.204,"pathway":false,"mode":"WALK","route":"","agencyTimeZoneOffset":-14400000,"interlineWithPreviousLeg":false,"from":{"name":"Origin","lon":-71.053021,"lat":48.418729,"departure":1522677766000,"orig":"","vertexType":"NORMAL"},"to":{"name":"Fondation / Étudiants","stopId":"1:261","stopCode":"261","lon":-71.053953,"lat":48.417524,"arrival":1522677883000,"departure":1522677884000,"zoneId":"NA","stopIndex":23,"stopSequence":24,"vertexType":"TRANSIT"},"legGeometry":{"points":"mwofHbotpLd@f@DG`CdCr@p@","length":5},"rentedBike":false,"transitLeg":false,"duration":117.0,"steps":[{"distance":30.223,"relativeDirection":"DEPART","streetName":"path","absoluteDirection":"SOUTHWEST","stayOn":false,"area":false,"bogusName":false,"lon":-71.05281450938897,"lat":48.41863935175929,"elevation":[]},{"distance":122.981,"relativeDirection":"CONTINUE","streetName":"Rue de la Fondation","absoluteDirection":"SOUTHWEST","stayOn":false,"area":false,"bogusName":false,"lon":-71.05297080000001,"lat":48.4184196,"elevation":[]}]},{"startTime":1522677884000,"endTime":1522678020000,"departureDelay":0,"arrivalDelay":0,"realTime":false,"distance":378.1919200530851,"pathway":false,"mode":"BUS","route":"10","agencyName":"Société de Transport du Saguenay","agencyUrl":"http://ville.saguenay.ca/fr/services-aux-citoyens/transport-sts","agencyTimeZoneOffset":-14400000,"routeColor":"0000FF","routeType":3,"routeId":"1:10","routeTextColor":"FFFFFF","interlineWithPreviousLeg":false,"tripBlockId":"26","headsign":"Terminus UQAC","agencyId":"0","tripId":"1:217970","serviceDate":"20180402","from":{"name":"Fondation / Étudiants","stopId":"1:261","stopCode":"261","lon":-71.053953,"lat":48.417524,"arrival":1522677883000,"departure":1522677884000,"zoneId":"NA","stopIndex":23,"stopSequence":24,"vertexType":"TRANSIT"},"to":{"name":"Terminus UQAC","stopId":"1:1670","stopCode":"1670","lon":-71.053369,"lat":48.420903,"arrival":1522678020000,"departure":1522678200000,"zoneId":"NA","stopIndex":24,"stopSequence":25,"vertexType":"TRANSIT"},"legGeometry":{"points":"qpofHhvtpLfDdEwLpKeBgGAsE]gAoD}CUt@a@_@USMM","length":11},"routeShortName":"10","routeLongName":"Notre-Dame du Saguenay","rentedBike":false,"transitLeg":true,"duration":136.0,"steps":[]},{"startTime":1522678200000,"endTime":1522679640000,"departureDelay":0,"arrivalDelay":0,"realTime":false,"distance":8110.117479219985,"pathway":false,"mode":"BUS","route":"12","agencyName":"Société de Transport du Saguenay","agencyUrl":"http://ville.saguenay.ca/fr/services-aux-citoyens/transport-sts","agencyTimeZoneOffset":-14400000,"routeColor":"556B2F","routeType":3,"routeId":"1:12","routeTextColor":"FFFFFF","interlineWithPreviousLeg":true,"tripBlockId":"26","headsign":"Terminus Chicoutimi","agencyId":"0","tripId":"1:217971","serviceDate":"20180402","from":{"name":"Terminus UQAC","stopId":"1:1670","stopCode":"1670","lon":-71.053369,"lat":48.420903,"arrival":1522678020000,"departure":1522678200000,"zoneId":"NA","stopIndex":0,"stopSequence":1,"vertexType":"TRANSIT"},"to":{"name":"nouveau","stopId":"1:2304","stopCode":"2304","lon":-71.026011,"lat":48.430204,"arrival":1522679640000,"departure":1522679641000,"zoneId":"NA","stopIndex":25,"stopSequence":26,"vertexType":"TRANSIT"},"legGeometry":{"points":"sepfHprtpL}@y@Pw@wAsAaB{A}DrL?jCv@fCa@nDaC`D~E`F~MfNjJnJ~GbHnCpCv@iBlAgIdCmFbAqDtBeCjFm@`Gs@hFo@xAmBrGcPxFoNlCyGa@yFYkD}CyA}KmFgD_BgAgBn@kFD_NoIgrAmD_WcAaLaDHoDJi`@wVoAbDbA|AnBU|B|AfBlAyLtKoGxFcFqDkJaHgEoDmDwC_TqQsBeB{HjWfAvAfM|O","length":57},"routeShortName":"12","routeLongName":"Rivière du Moulin","rentedBike":false,"transitLeg":true,"duration":1440.0,"steps":[]},{"startTime":1522679641000,"endTime":1522679751000,"departureDelay":0,"arrivalDelay":0,"realTime":false,"distance":130.393,"pathway":false,"mode":"WALK","route":"","agencyTimeZoneOffset":-14400000,"interlineWithPreviousLeg":false,"from":{"name":"nouveau","stopId":"1:2304","stopCode":"2304","lon":-71.026011,"lat":48.430204,"arrival":1522679640000,"departure":1522679641000,"zoneId":"NA","stopIndex":25,"stopSequence":26,"vertexType":"TRANSIT"},"to":{"name":"Destination","lon":-71.025678,"lat":48.431078,"arrival":1522679751000,"orig":"","vertexType":"NORMAL"},"legGeometry":{"points":"m_rfH|fopLMM{@{@a@pAa@aBEI","length":6},"rentedBike":false,"transitLeg":false,"duration":110.0,"steps":[{"distance":49.06399999999999,"relativeDirection":"DEPART","streetName":"Rue Arthur-Hamel","absoluteDirection":"NORTHEAST","stayOn":false,"area":false,"bogusName":false,"lon":-71.02590303997721,"lat":48.43015553479973,"elevation":[]},{"distance":35.941,"relativeDirection":"LEFT","streetName":"Rue des Cèdres","absoluteDirection":"NORTHWEST","stayOn":false,"area":false,"bogusName":false,"lon":-71.02553040000001,"lat":48.430521000000006,"elevation":[]},{"distance":45.388,"relativeDirection":"HARD_RIGHT","streetName":"Rue du Parc","absoluteDirection":"NORTHEAST","stayOn":false,"area":false,"bogusName":false,"lon":-71.0259436,"lat":48.4306922,"elevation":[]}]}],"tooSloped":false},{"duration":1985,"startTime":1522679566000,"endTime":1522681551000,"walkTime":227,"transitTime":1756,"waitingTime":2,"walkDistance":283.6770751853861,"walkLimitExceeded":false,"elevationLost":0.0,"elevationGained":0.0,"transfers":0,"legs":[{"startTime":1522679566000,"endTime":1522679683000,"departureDelay":0,"arrivalDelay":0,"realTime":false,"distance":153.204,"pathway":false,"mode":"WALK","route":"","agencyTimeZoneOffset":-14400000,"interlineWithPreviousLeg":false,"from":{"name":"Origin","lon":-71.053021,"lat":48.418729,"departure":1522679566000,"orig":"","vertexType":"NORMAL"},"to":{"name":"Fondation / Étudiants","stopId":"1:261","stopCode":"261","lon":-71.053953,"lat":48.417524,"arrival":1522679683000,"departure":1522679684000,"zoneId":"NA","stopIndex":23,"stopSequence":24,"vertexType":"TRANSIT"},"legGeometry":{"points":"mwofHbotpLd@f@DG`CdCr@p@","length":5},"rentedBike":false,"transitLeg":false,"duration":117.0,"steps":[{"distance":30.223,"relativeDirection":"DEPART","streetName":"path","absoluteDirection":"SOUTHWEST","stayOn":false,"area":false,"bogusName":false,"lon":-71.05281450938897,"lat":48.41863935175929,"elevation":[]},{"distance":122.981,"relativeDirection":"CONTINUE","streetName":"Rue de la Fondation","absoluteDirection":"SOUTHWEST","stayOn":false,"area":false,"bogusName":false,"lon":-71.05297080000001,"lat":48.4184196,"elevation":[]}]},{"startTime":1522679684000,"endTime":1522679820000,"departureDelay":0,"arrivalDelay":0,"realTime":false,"distance":378.1919200530851,"pathway":false,"mode":"BUS","route":"10","agencyName":"Société de Transport du Saguenay","agencyUrl":"http://ville.saguenay.ca/fr/services-aux-citoyens/transport-sts","agencyTimeZoneOffset":-14400000,"routeColor":"0000FF","routeType":3,"routeId":"1:10","routeTextColor":"FFFFFF","interlineWithPreviousLeg":false,"tripBlockId":"29","headsign":"Terminus UQAC","agencyId":"0","tripId":"1:218059","serviceDate":"20180402","from":{"name":"Fondation / Étudiants","stopId":"1:261","stopCode":"261","lon":-71.053953,"lat":48.417524,"arrival":1522679683000,"departure":1522679684000,"zoneId":"NA","stopIndex":23,"stopSequence":24,"vertexType":"TRANSIT"},"to":{"name":"Terminus UQAC","stopId":"1:1670","stopCode":"1670","lon":-71.053369,"lat":48.420903,"arrival":1522679820000,"departure":1522680000000,"zoneId":"NA","stopIndex":24,"stopSequence":25,"vertexType":"TRANSIT"},"legGeometry":{"points":"qpofHhvtpLfDdEwLpKeBgGAsE]gAoD}CUt@a@_@USMM","length":11},"routeShortName":"10","routeLongName":"Notre-Dame du Saguenay","rentedBike":false,"transitLeg":true,"duration":136.0,"steps":[]},{"startTime":1522680000000,"endTime":1522681440000,"departureDelay":0,"arrivalDelay":0,"realTime":false,"distance":8110.117479219985,"pathway":false,"mode":"BUS","route":"12","agencyName":"Société de Transport du Saguenay","agencyUrl":"http://ville.saguenay.ca/fr/services-aux-citoyens/transport-sts","agencyTimeZoneOffset":-14400000,"routeColor":"556B2F","routeType":3,"routeId":"1:12","routeTextColor":"FFFFFF","interlineWithPreviousLeg":true,"tripBlockId":"29","headsign":"Terminus Chicoutimi","agencyId":"0","tripId":"1:218060","serviceDate":"20180402","from":{"name":"Terminus UQAC","stopId":"1:1670","stopCode":"1670","lon":-71.053369,"lat":48.420903,"arrival":1522679820000,"departure":1522680000000,"zoneId":"NA","stopIndex":0,"stopSequence":1,"vertexType":"TRANSIT"},"to":{"name":"nouveau","stopId":"1:2304","stopCode":"2304","lon":-71.026011,"lat":48.430204,"arrival":1522681440000,"departure":1522681441000,"zoneId":"NA","stopIndex":25,"stopSequence":26,"vertexType":"TRANSIT"},"legGeometry":{"points":"sepfHprtpL}@y@Pw@wAsAaB{A}DrL?jCv@fCa@nDaC`D~E`F~MfNjJnJ~GbHnCpCv@iBlAgIdCmFbAqDtBeCjFm@`Gs@hFo@xAmBrGcPxFoNlCyGa@yFYkD}CyA}KmFgD_BgAgBn@kFD_NoIgrAmD_WcAaLaDHoDJi`@wVoAbDbA|AnBU|B|AfBlAyLtKoGxFcFqDkJaHgEoDmDwC_TqQsBeB{HjWfAvAfM|O","length":57},"routeShortName":"12","routeLongName":"Rivière du Moulin","rentedBike":false,"transitLeg":true,"duration":1440.0,"steps":[]},{"startTime":1522681441000,"endTime":1522681551000,"departureDelay":0,"arrivalDelay":0,"realTime":false,"distance":130.393,"pathway":false,"mode":"WALK","route":"","agencyTimeZoneOffset":-14400000,"interlineWithPreviousLeg":false,"from":{"name":"nouveau","stopId":"1:2304","stopCode":"2304","lon":-71.026011,"lat":48.430204,"arrival":1522681440000,"departure":1522681441000,"zoneId":"NA","stopIndex":25,"stopSequence":26,"vertexType":"TRANSIT"},"to":{"name":"Destination","lon":-71.025678,"lat":48.431078,"arrival":1522681551000,"orig":"","vertexType":"NORMAL"},"legGeometry":{"points":"m_rfH|fopLMM{@{@a@pAa@aBEI","length":6},"rentedBike":false,"transitLeg":false,"duration":110.0,"steps":[{"distance":49.06399999999999,"relativeDirection":"DEPART","streetName":"Rue Arthur-Hamel","absoluteDirection":"NORTHEAST","stayOn":false,"area":false,"bogusName":false,"lon":-71.02590303997721,"lat":48.43015553479973,"elevation":[]},{"distance":35.941,"relativeDirection":"LEFT","streetName":"Rue des Cèdres","absoluteDirection":"NORTHWEST","stayOn":false,"area":false,"bogusName":false,"lon":-71.02553040000001,"lat":48.430521000000006,"elevation":[]},{"distance":45.388,"relativeDirection":"HARD_RIGHT","streetName":"Rue du Parc","absoluteDirection":"NORTHEAST","stayOn":false,"area":false,"bogusName":false,"lon":-71.0259436,"lat":48.4306922,"elevation":[]}]}],"tooSloped":false}]},"debugOutput":{"precalculationTime":57,"pathCalculationTime":81,"pathTimes":[36,24,21],"renderingTime":0,"totalTime":138,"timedOut":false},"elevationMetadata":{"ellipsoidToGeoidDifference":-28.885904201182168,"geoidElevation":false}}