{"requestParameters":{"date":"2018/04/02","walkSpeed":"1.33","walkReluctance":"2.0","fromPlace":"48.395229,-71.07099599","maxWalkDistance":"3000","waitReluctance":"1.0","carSpeed":"33","numItineraries":"3","waitAtBeginningFactor":"0.4","mode":"TRANSIT,WALK","ignoreRealtimeUpdates":"false","stairsReluctance":"2.0","toPlace":"48.431447,-71.023668","time":"14:25:00"},"plan":{"date":1522693500000,"from":{"name":"Origin","lon":-71.07099599,"lat":48.395229,"orig":"","vertexType":"NORMAL"},"to":{"name":"Destination","lon":-71.023668,"lat":48.431447,"orig":"","vertexType":"NORMAL"},"itineraries":[{"duration":2075,"startTime":1522694893000,"endTime":1522696968000,"walkTime":179,"transitTime":1594,"waitingTime":302,"walkDistance":229.37783458537442,"walkLimitExceeded":false,"elevationLost":0.0,"elevationGained":0.0,"transfers":1,"legs":[{"startTime":1522694893000,"endTime":1522695059000,"departureDelay":0,"arrivalDelay":0,"realTime":false,"distance":213.09,"pathway":false,"mode":"WALK","route":"","agencyTimeZoneOffset":-14400000,"interlineWithPreviousLeg":false,"from":{"name":"Origin","lon":-71.07099599,"lat":48.395229,"departure":1522694893000,"orig":"","vertexType":"NORMAL"},"to":{"name":"boul. Talbot / boul. Barrette","stopId":"1:49","stopCode":"49","lon":-71.069502,"lat":48.394497,"arrival":1522695059000,"departure":1522695060000,"zoneId":"NA","stopIndex":7,"stopSequence":8,"vertexType":"TRANSIT"},"legGeometry":{"points":"cakfHdexpLpBmFPc@}BmC","length":4},"rentedBike":false,"transitLeg":false,"duration":166.0,"steps":[{"distance":125.363,"relativeDirection":"DEPART","streetName":"Boulevard Barrette","absoluteDirection":"SOUTHEAST","stayOn":false,"area":false,"bogusName":false,"lon":-71.07170314799691,"lat":48.39458854351012,"elevation":[]},{"distance":87.727,"relativeDirection":"LEFT","streetName":"Boulevard Talbot","absoluteDirection":"NORTHEAST","stayOn":false,"area":false,"bogusName":false,"lon":-71.0703318,"lat":48.3939238,"elevation":[]}]},{"startTime":1522695060000,"endTime":1522696200000,"departureDelay":0,"arrivalDelay":0,"realTime":false,"distance":5729.910101969139,"pathway":false,"mode":"BUS","route":"175","agencyName":"Société de Transport du Saguenay","agencyUrl":"http://ville.saguenay.ca/fr/services-aux-citoyens/transport-sts","agencyTimeZoneOffset":-14400000,"routeColor":"FF00FF","routeType":3,"routeId":"1:175","routeTextColor":"FFFFFF","interlineWithPreviousLeg":false,"tripBlockId":"9","headsign":"Terminus Chicoutimi","agencyId":"0","tripId":"1:217408","serviceDate":"20180402","from":{"name":"boul. Talbot / boul. Barrette","stopId":"1:49","stopCode":"49","lon":-71.069502,"lat":48.394497,"arrival":1522695059000,"departure":1522695060000,"zoneId":"NA","stopIndex":7,"stopSequence":8,"vertexType":"TRANSIT"},"to":{"name":"Terminus Chicoutimi","stopId":"1:1289","stopCode":"1289","lon":-71.066163,"lat":48.428677,"arrival":1522696200000,"departure":1522696500000,"zoneId":"NA","stopIndex":27,"stopSequence":28,"vertexType":"TRANSIT"},"legGeometry":{"points":"aakfHlxwpLiAoAgEsFkFsHqJ_N}FkImPkOuO{N_U_TcNgNcBcB{E`Jc@x@qG~@{BlAk@XgSrQqB_GAeFiEeEOt@gAeA_A_ATm@yAwAgBeBqDnL@nBF`@f@|C[dCuAfB]xAs@OmCmCmEkE]a@g@i@ZiGTmEl@oLaEe@cFk@?pH?tJDvBPjMB~Bo@PQDRbFKdGMhIOvIK|EQpHoCQEdC","length":58},"routeShortName":"175","routeLongName":"Term. Chic / Costco","rentedBike":false,"transitLeg":true,"duration":1140.0,"steps":[]},{"startTime":1522696500000,"endTime":1522696954000,"departureDelay":0,"arrivalDelay":0,"realTime":false,"distance":3316.456854754971,"pathway":false,"mode":"BUS","route":"12","agencyName":"Société de Transport du Saguenay","agencyUrl":"http://ville.saguenay.ca/fr/services-aux-citoyens/transport-sts","agencyTimeZoneOffset":-14400000,"routeColor":"556B2F","routeType":3,"routeId":"1:12","routeTextColor":"FFFFFF","interlineWithPreviousLeg":false,"tripBlockId":"28","headsign":"Terminus UQAC","agencyId":"0","tripId":"1:218043","serviceDate":"20180402","from":{"name":"Terminus Chicoutimi","stopId":"1:1289","stopCode":"1289","lon":-71.066163,"lat":48.428677,"arrival":1522696200000,"departure":1522696500000,"zoneId":"NA","stopIndex":0,"stopSequence":1,"vertexType":"TRANSIT"},"to":{"name":"Arthur-Hamel / Bretagne","stopId":"1:1526","stopCode":"1526","lon":-71.023915,"lat":48.431403,"arrival":1522696954000,"departure":1522696955000,"zoneId":"NA","stopIndex":13,"stopSequence":14,"vertexType":"TRANSIT"},"legGeometry":{"points":"evqfHpbwpLpFcj@IaKmFy^_DaZz@u]SeV}@aNs@gKToKd@gTnCyHkGuLqFqJ","length":14},"routeShortName":"12","routeLongName":"Rivière du Moulin","rentedBike":false,"transitLeg":true,"duration":454.0,"steps":[]},{"startTime":1522696955000,"endTime":1522696968000,"departureDelay":0,"arrivalDelay":0,"realTime":false,"distance":16.254,"pathway":false,"mode":"WALK","route":"","agencyTimeZoneOffset":-14400000,"interlineWithPreviousLeg":false,"from":{"name":"Arthur-Hamel / Bretagne","stopId":"1:1526","stopCode":"1526","lon":-71.023915,"lat":48.431403,"arrival":1522696954000,"departure":1522696955000,"zoneId":"NA","stopIndex":13,"stopSequence":14,"vertexType":"TRANSIT"},"to":{"name":"Destination","lon":-71.023668,"lat":48.431447,"arrival":1522696968000,"orig":"","vertexType":"NORMAL"},"legGeometry":{"points":"mgrfHxznpLS]","length":2},"rentedBike":false,"transitLeg":false,"duration":13.0,"steps":[{"distance":16.254,"relativeDirection":"DEPART","streetName":"Rue Arthur-Hamel","absoluteDirection":"NORTHEAST","stayOn":false,"area":false,"bogusName":false,"lon":-71.02396472807098,"lat":48.43143536577987,"elevation":[]}]}],"tooSloped":false},{"duration":3214,"startTime":1522694464000,"endTime":1522697678000,"walkTime":157,"transitTime":2523,"waitingTime":534,"walkDistance":205.43287969918748,"walkLimitExceeded":false,"elevationLost":0.0,"elevationGained":0.0,"transfers":1,"legs":[{"startTime":1522694464000,"endTime":1522694540000,"departureDelay":0,"arrivalDelay":0,"realTime":false,"distance":99.953,"pathway":false,"mode":"WALK","route":"","agencyTimeZoneOffset":-14400000,"interlineWithPreviousLeg":false,"from":{"name":"Origin","lon":-71.07099599,"lat":48.395229,"departure":1522694464000,"orig":"","vertexType":"NORMAL"},"to":{"name":"Familiprix du boul. Barrette","stopId":"1:1931","stopCode":"1931","lon":-71.072721,"lat":48.395187,"arrival":1522694540000,"departure":1522694541000,"zoneId":"NA","stopIndex":1,"stopSequence":2,"vertexType":"TRANSIT"},"legGeometry":{"points":"cakfHdexpLkBxE","length":2},"rentedBike":false,"transitLeg":false,"duration":76.0,"steps":[{"distance":99.953,"relativeDirection":"DEPART","streetName":"Boulevard Barrette","absoluteDirection":"NORTHWEST","stayOn":false,"area":false,"bogusName":false,"lon":-71.07170314799691,"lat":48.39458854351012,"elevation":[]}]},{"startTime":1522694541000,"endTime":1522695744000,"departureDelay":0,"arrivalDelay":0,"realTime":false,"distance":7973.576298384285,"pathway":false,"mode":"BUS","route":"14","agencyName":"Société de Transport du Saguenay","agencyUrl":"http://ville.saguenay.ca/fr/services-aux-citoyens/transport-sts","agencyTimeZoneOffset":-14400000,"routeColor":"C0C000","routeType":3,"routeId":"1:14","routeTextColor":"000000","interlineWithPreviousLeg":false,"tripBlockId":"33","headsign":"Terminus Chicoutimi","agencyId":"0","tripId":"1:218188","serviceDate":"20180402","from":{"name":"Familiprix du boul. Barrette","stopId":"1:1931","stopCode":"1931","lon":-71.072721,"lat":48.395187,"arrival":1522694540000,"departure":1522694541000,"zoneId":"NA","stopIndex":1,"stopSequence":2,"vertexType":"TRANSIT"},"to":{"name":"Cégep de Chicoutimi (voie réservée)","stopId":"1:65","stopCode":"65","lon":-71.054799,"lat":48.423007,"arrival":1522695744000,"departure":1522696276000,"zoneId":"NA","stopIndex":31,"stopSequence":32,"vertexType":"TRANSIT"},"legGeometry":{"points":"adkfHjlxpLsAnDgGzSWfAcD`Mi@dCgChLmCzMwGd\\aDxOdFtFhCtCdDY|F_On@aB`B_GNoBvAyT|@sNuAyAuF}F}AaB_BkAC@qC\\gAWiBwBiKgMiCwEgEyHCGy@uB}@rAa@nAc@lFEf@mGvUYfAqCs@ICMCqFmDc@s@mAkBuEoESUgAhDiAfD}@zDyAcA_@Um@U{AWgB_Au@s@EEsBkCqFgF{IiI][aBhE}@}@oBmBwE{EwE{Ej@mBZeAa@SyEQg@CPcALuCx@{b@t@{[XoDd@sBl@iB~@gA`G{F{A{D_@sBFqDOq@iG{FGIoCkCgBgBsDpLHzBBT","length":90},"routeShortName":"14","routeLongName":"Coopérative","rentedBike":false,"transitLeg":true,"duration":1203.0,"steps":[]},{"startTime":1522696276000,"endTime":1522697596000,"departureDelay":0,"arrivalDelay":0,"realTime":false,"distance":7432.427023973985,"pathway":false,"mode":"BUS","route":"12","agencyName":"Société de Transport du Saguenay","agencyUrl":"http://ville.saguenay.ca/fr/services-aux-citoyens/transport-sts","agencyTimeZoneOffset":-14400000,"routeColor":"556B2F","routeType":3,"routeId":"1:12","routeTextColor":"FFFFFF","interlineWithPreviousLeg":false,"tripBlockId":"26","headsign":"Terminus Chicoutimi","agencyId":"0","tripId":"1:217981","serviceDate":"20180402","from":{"name":"Cégep de Chicoutimi (voie réservée)","stopId":"1:65","stopCode":"65","lon":-71.054799,"lat":48.423007,"arrival":1522695744000,"departure":1522696276000,"zoneId":"NA","stopIndex":2,"stopSequence":3,"vertexType":"TRANSIT"},"to":{"name":"nouveau","stopId":"1:2303","stopCode":"2303","lon":-71.02291,"lat":48.432276,"arrival":1522697596000,"departure":1522697597000,"zoneId":"NA","stopIndex":24,"stopSequence":25,"vertexType":"TRANSIT"},"legGeometry":{"points":"wrpfHn{tpLv@fCa@nDaC`D~E`F~MfNjJnJ~GbHnCpCv@iBlAgIdCmFbAqDtBeCjFm@`Gs@hFo@xAmBrGcPxFoNlCyGa@yFYkD}CyA}KmFgD_BgAgBn@kFD_NoIgrAmD_WcAaLaDHoDJi`@wVoAbDbA|AnBU|B|AfBlAyLtKoGxFcFqDkJaHgEoDmDwC_TqQsBeB{HjWfAvA","length":50},"routeShortName":"12","routeLongName":"Rivière du Moulin","rentedBike":false,"transitLeg":true,"duration":1320.0,"steps":[]},{"startTime":1522697597000,"endTime":1522697678000,"departureDelay":0,"arrivalDelay":0,"realTime":false,"distance":105.47800000000001,"pathway":false,"mode":"WALK","route":"","agencyTimeZoneOffset":-14400000,"interlineWithPreviousLeg":false,"from":{"name":"nouveau","stopId":"1:2303","stopCode":"2303","lon":-71.02291,"lat":48.432276,"arrival":1522697596000,"departure":1522697597000,"zoneId":"NA","stopIndex":24,"stopSequence":25,"vertexType":"TRANSIT"},"to":{"name":"Destination","lon":-71.023668,"lat":48.431447,"arrival":1522697678000,"orig":"","vertexType":"NORMAL"},"legGeometry":{"points":"mlrfHxsnpLjAdB~@zA","length":3},"rentedBike":false,"transitLeg":false,"duration":81.0,"steps":[{"distance":105.47800000000001,"relativeDirection":"DEPART","streetName":"Rue Arthur-Hamel","absoluteDirection":"SOUTHWEST","stayOn":false,"area":false,"bogusName":false,"lon":-71.02284512319854,"lat":48.43223878297246,"elevation":[]}]}],"tooSloped":false},{"duration":2075,"startTime":1522696693000,"endTime":1522698768000,"walkTime":179,"transitTime":1894,"waitingTime":2,"walkDistance":229.37783458537442,"walkLimitExceeded":false,"elevationLost":0.0,"elevationGained":0.0,"transfers":1,"legs":[{"startTime":1522696693000,"endTime":1522696859000,"departureDelay":0,"arrivalDelay":0,"realTime":false,"distance":213.09,"pathway":false,"mode":"WALK","route":"","agencyTimeZoneOffset":-14400000,"interlineWithPreviousLeg":false,"from":{"name":"Origin","lon":-71.07099599,"lat":48.395229,"departure":1522696693000,"orig":"","vertexType":"NORMAL"},"to":{"name":"boul. Talbot / boul. Barrette","stopId":"1:49","stopCode":"49","lon":-71.069502,"lat":48.394497,"arrival":1522696859000,"departure":1522696860000,"zoneId":"NA","stopIndex":7,"stopSequence":8,"vertexType":"TRANSIT"},"legGeometry":{"points":"cakfHdexpLpBmFPc@}BmC","length":4},"rentedBike":false,"transitLeg":false,"duration":166.0,"steps":[{"distance":125.363,"relativeDirection":"DEPART","streetName":"Boulevard Barrette","absoluteDirection":"SOUTHEAST","stayOn":false,"area":false,"bogusName":false,"lon":-71.07170314799691,"lat":48.39458854351012,"elevation":[]},{"distance":87.727,"relativeDirection":"LEFT","streetName":"Boulevard Talbot","absoluteDirection":"NORTHEAST","stayOn":false,"area":false,"bogusName":false,"lon":-71.0703318,"lat":48.3939238,"elevation":[]}]},{"startTime":1522696860000,"endTime":1522697700000,"departureDelay":0,"arrivalDelay":0,"realTime":false,"distance":4493.916509465053,"pathway":false,"mode":"BUS","route":"175","agencyName":"Société de Transport du Saguenay","agencyUrl":"http://ville.saguenay.ca/fr/services-aux-citoyens/transport-sts","agencyTimeZoneOffset":-14400000,"routeColor":"FF00FF","routeType":3,"routeId":"1:175","routeTextColor":"FFFFFF","interlineWithPreviousLeg":false,"tripBlockId":"11","headsign":"Terminus Chicoutimi","agencyId":"0","tripId":"1:217479","serviceDate":"20180402","from":{"name":"boul. Talbot / boul. Barrette","stopId":"1:49","stopCode":"49","lon":-71.069502,"lat":48.394497,"arrival":1522696859000,"departure":1522696860000,"zoneId":"NA","stopIndex":7,"stopSequence":8,"vertexType":"TRANSIT"},"to":{"name":"Hôpital de Chicoutimi (Saint-Vallier)","stopId":"1:410","stopCode":"410","lon":-71.050193,"lat":48.426282,"arrival":1522697700000,"departure":1522697700000,"zoneId":"NA","stopIndex":20,"stopSequence":21,"vertexType":"TRANSIT"},"legGeometry":{"points":"aakfHlxwpLiAoAgEsFkFsHqJ_N}FkImPkOuO{N_U_TcNgNcBcB{E`Jc@x@qG~@{BlAk@XgSrQqB_GAeFiEeEOt@gAeA_A_ATm@yAwAgBeBqDnL@nBF`@f@|C[dCuAfB]xAs@OmCmCmEkE]a@g@i@ZiGTmEl@oLaEe@","length":42},"routeShortName":"175","routeLongName":"Term. Chic / Costco","rentedBike":false,"transitLeg":true,"duration":840.0,"steps":[]},{"startTime":1522697700000,"endTime":1522698000000,"departureDelay":0,"arrivalDelay":0,"realTime":false,"distance":1235.9935925040847,"pathway":false,"mode":"BUS","route":"10","agencyName":"Société de Transport du Saguenay","agencyUrl":"http://ville.saguenay.ca/fr/services-aux-citoyens/transport-sts","agencyTimeZoneOffset":-14400000,"routeColor":"0000FF","routeType":3,"routeId":"1:10","routeTextColor":"FFFFFF","interlineWithPreviousLeg":false,"tripBlockId":"27","headsign":"Terminus Chicoutimi","agencyId":"0","tripId":"1:218017","serviceDate":"20180402","from":{"name":"Hôpital de Chicoutimi (Saint-Vallier)","stopId":"1:410","stopCode":"410","lon":-71.050193,"lat":48.426282,"arrival":1522697700000,"departure":1522697700000,"zoneId":"NA","stopIndex":14,"stopSequence":15,"vertexType":"TRANSIT"},"to":{"name":"Terminus Chicoutimi","stopId":"1:1289","stopCode":"1289","lon":-71.066163,"lat":48.428677,"arrival":1522698000000,"departure":1522698300000,"zoneId":"NA","stopIndex":21,"stopSequence":22,"vertexType":"TRANSIT"},"legGeometry":{"points":"igqfHj_tpLAAuEg@MDENF|GAjJDzBDdDLdHFbCo@RUFRbFG|FApAMvFa@tPOnHqBOIjDc@Q","length":22},"routeShortName":"10","routeLongName":"Notre-Dame du Saguenay","rentedBike":false,"transitLeg":true,"duration":300.0,"steps":[]},{"startTime":1522698300000,"endTime":1522698754000,"departureDelay":0,"arrivalDelay":0,"realTime":false,"distance":3316.456854754971,"pathway":false,"mode":"BUS","route":"12","agencyName":"Société de Transport du Saguenay","agencyUrl":"http://ville.saguenay.ca/fr/services-aux-citoyens/transport-sts","agencyTimeZoneOffset":-14400000,"routeColor":"556B2F","routeType":3,"routeId":"1:12","routeTextColor":"FFFFFF","interlineWithPreviousLeg":true,"tripBlockId":"27","headsign":"Terminus UQAC","agencyId":"0","tripId":"1:218018","serviceDate":"20180402","from":{"name":"Terminus Chicoutimi","stopId":"1:1289","stopCode":"1289","lon":-71.066163,"lat":48.428677,"arrival":1522698000000,"departure":1522698300000,"zoneId":"NA","stopIndex":0,"stopSequence":1,"vertexType":"TRANSIT"},"to":{"name":"Arthur-Hamel / Bretagne","stopId":"1:1526","stopCode":"1526","lon":-71.023915,"lat":48.431403,"arrival":1522698754000,"departure":1522698755000,"zoneId":"NA","stopIndex":13,"stopSequence":14,"vertexType":"TRANSIT"},"legGeometry":{"points":"evqfHpbwpLpFcj@IaKmFy^_DaZz@u]SeV}@aNs@gKToKd@gTnCyHkGuLqFqJ","length":14},"routeShortName":"12","routeLongName":"Rivière du Moulin","rentedBike":false,"transitLeg":true,"duration":454.0,"steps":[]},{"startTime":1522698755000,"endTime":1522698768000,"departureDelay":0,"arrivalDelay":0,"realTime":false,"distance":16.254,"pathway":false,"mode":"WALK","route":"","agencyTimeZoneOffset":-14400000,"interlineWithPreviousLeg":false,"from":{"name":"Arthur-Hamel / Bretagne","stopId":"1:1526","stopCode":"1526","lon":-71.023915,"lat":48.431403,"arrival":1522698754000,"departure":1522698755000,"zoneId":"NA","stopIndex":13,"stopSequence":14,"vertexType":"TRANSIT"},"to":{"name":"Destination","lon":-71.023668,"lat":48.431447,"arrival":1522698768000,"orig":"","vertexType":"NORMAL"},"legGeometry":{"points":"mgrfHxznpLS]","length":2},"rentedBike":false,"transitLeg":false,"duration":13.0,"steps":[{"distance":16.254,"relativeDirection":"DEPART","streetName":"Rue Arthur-Hamel","absoluteDirection":"NORTHEAST","stayOn":false,"area":false,"bogusName":false,"lon":-71.02396472807098,"lat":48.43143536577987,"elevation":[]}]}],"tooSloped":false}]},"debugOutput":{"precalculationTime":29,"pathCalculationTime":58,"pathTimes":[24,17,17],"renderingTime":0,"totalTime":87,"timedOut":false},"elevationMetadata":{"ellipsoidToGeoidDifference":-28.885904201182168,"geoidElevation":false}}