{"requestParameters":{"date":"2018/04/02","walkSpeed":"1.33","walkReluctance":"2.0","fromPlace":"48.412051,-71.05021899","maxWalkDistance":"3000","waitReluctance":"1.0","carSpeed":"33","numItineraries":"3","waitAtBeginningFactor":"0.4","mode":"TRANSIT,WALK","ignoreRealtimeUpdates":"false","stairsReluctance":"2.0","toPlace":"48.430511,-71.026873","time":"16:0:00"},"plan":{"date":1522699200000,"from":{"name":"Origin","lon":-71.05021899,"lat":48.412051,"orig":"","vertexType":"NORMAL"},"to":{"name":"Destination","lon":-71.026873,"lat":48.430511,"orig":"","vertexType":"NORMAL"},"itineraries":[{"duration":1241,"startTime":1522700126000,"endTime":1522701367000,"walkTime":422,"transitTime":817,"waitingTime":2,"walkDistance":527.6494060097971,"walkLimitExceeded":false,"elevationLost":0.0,"elevationGained":0.0,"transfers":0,"legs":[{"startTime":1522700126000,"endTime":1522700422000,"departureDelay":0,"arrivalDelay":0,"realTime":false,"distance":371.0419999999999,"pathway":false,"mode":"WALK","route":"","agencyTimeZoneOffset":-14400000,"interlineWithPreviousLeg":false,"from":{"name":"Origin","lon":-71.05021899,"lat":48.412051,"departure":1522700126000,"orig":"","vertexType":"NORMAL"},"to":{"name":"Sûreté du Québec (Roitelets / Lorenzo-Genest)","stopId":"1:195","stopCode":"195","lon":-71.048189,"lat":48.4095,"arrival":1522700422000,"departure":1522700423000,"zoneId":"NA","stopIndex":16,"stopSequence":17,"vertexType":"TRANSIT"},"legGeometry":{"points":"cmnfHb`tpLb@iAZ}@VPxBeHF_@`@o@XMd@KJD~Av@j@X","length":12},"rentedBike":false,"transitLeg":false,"duration":296.0,"steps":[{"distance":217.11699999999996,"relativeDirection":"DEPART","streetName":"Boulevard de l'Université","absoluteDirection":"SOUTHEAST","stayOn":false,"area":false,"bogusName":false,"lon":-71.05041844838937,"lat":48.41186158446426,"elevation":[]},{"distance":62.949,"relativeDirection":"SLIGHTLY_RIGHT","streetName":"link","absoluteDirection":"SOUTHEAST","stayOn":false,"area":false,"bogusName":true,"lon":-71.04819570000001,"lat":48.410774100000005,"elevation":[]},{"distance":90.976,"relativeDirection":"SLIGHTLY_RIGHT","streetName":"Rue Des Roitelets","absoluteDirection":"SOUTH","stayOn":false,"area":false,"bogusName":false,"lon":-71.0478246,"lat":48.4102837,"elevation":[]}]},{"startTime":1522700423000,"endTime":1522701240000,"departureDelay":0,"arrivalDelay":0,"realTime":false,"distance":4693.611699403435,"pathway":false,"mode":"BUS","route":"12","agencyName":"Société de Transport du Saguenay","agencyUrl":"http://ville.saguenay.ca/fr/services-aux-citoyens/transport-sts","agencyTimeZoneOffset":-14400000,"routeColor":"556B2F","routeType":3,"routeId":"1:12","routeTextColor":"FFFFFF","interlineWithPreviousLeg":false,"tripBlockId":"26","headsign":"Terminus Chicoutimi","agencyId":"0","tripId":"1:217983","serviceDate":"20180402","from":{"name":"Sûreté du Québec (Roitelets / Lorenzo-Genest)","stopId":"1:195","stopCode":"195","lon":-71.048189,"lat":48.4095,"arrival":1522700422000,"departure":1522700423000,"zoneId":"NA","stopIndex":16,"stopSequence":17,"vertexType":"TRANSIT"},"to":{"name":"nouveau","stopId":"1:2304","stopCode":"2304","lon":-71.026011,"lat":48.430204,"arrival":1522701240000,"departure":1522701241000,"zoneId":"NA","stopIndex":25,"stopSequence":26,"vertexType":"TRANSIT"},"legGeometry":{"points":"k~mfHdrspLgD_BgAgBn@kFD_NoIgrAmD_WcAaLaDHoDJi`@wVoAbDbA|AnBU|B|AfBlAyLtKoGxFcFqDkJaHgEoDmDwC_TqQsBeB{HjWfAvAfM|O","length":27},"routeShortName":"12","routeLongName":"Rivière du Moulin","rentedBike":false,"transitLeg":true,"duration":817.0,"steps":[]},{"startTime":1522701241000,"endTime":1522701367000,"departureDelay":0,"arrivalDelay":0,"realTime":false,"distance":156.445,"pathway":false,"mode":"WALK","route":"","agencyTimeZoneOffset":-14400000,"interlineWithPreviousLeg":false,"from":{"name":"nouveau","stopId":"1:2304","stopCode":"2304","lon":-71.026011,"lat":48.430204,"arrival":1522701240000,"departure":1522701241000,"zoneId":"NA","stopIndex":25,"stopSequence":26,"vertexType":"TRANSIT"},"to":{"name":"Destination","lon":-71.026873,"lat":48.430511,"arrival":1522701367000,"orig":"","vertexType":"NORMAL"},"legGeometry":{"points":"m_rfH|fopLMM{@{@a@pAf@vD","length":5},"rentedBike":false,"transitLeg":false,"duration":126.0,"steps":[{"distance":49.06399999999999,"relativeDirection":"DEPART","streetName":"Rue Arthur-Hamel","absoluteDirection":"NORTHEAST","stayOn":false,"area":false,"bogusName":false,"lon":-71.02590303997721,"lat":48.43015553479973,"elevation":[]},{"distance":35.941,"relativeDirection":"LEFT","streetName":"Rue des Cèdres","absoluteDirection":"NORTHWEST","stayOn":false,"area":false,"bogusName":false,"lon":-71.02553040000001,"lat":48.430521000000006,"elevation":[]},{"distance":71.44,"relativeDirection":"LEFT","streetName":"Rue du Parc","absoluteDirection":"WEST","stayOn":false,"area":false,"bogusName":false,"lon":-71.0259436,"lat":48.4306922,"elevation":[]}]}],"tooSloped":false},{"duration":2048,"startTime":1522700392000,"endTime":1522702440000,"walkTime":418,"transitTime":1628,"waitingTime":2,"walkDistance":529.397105260186,"walkLimitExceeded":false,"elevationLost":0.0,"elevationGained":0.0,"transfers":0,"legs":[{"startTime":1522700392000,"endTime":1522700691000,"departureDelay":0,"arrivalDelay":0,"realTime":false,"distance":381.57500000000005,"pathway":false,"mode":"WALK","route":"","agencyTimeZoneOffset":-14400000,"interlineWithPreviousLeg":false,"from":{"name":"Origin","lon":-71.05021899,"lat":48.412051,"departure":1522700392000,"orig":"","vertexType":"NORMAL"},"to":{"name":"Murdock / Baillargeon","stopId":"1:356","stopCode":"356","lon":-71.047188,"lat":48.413871,"arrival":1522700691000,"departure":1522700692000,"zoneId":"NA","stopIndex":1,"stopSequence":2,"vertexType":"TRANSIT"},"legGeometry":{"points":"cmnfHb`tpLb@iAZ}@oBsBeEcEeBmBQSi@k@AC","length":9},"rentedBike":false,"transitLeg":false,"duration":299.0,"steps":[{"distance":61.79599999999999,"relativeDirection":"DEPART","streetName":"Boulevard de l'Université","absoluteDirection":"SOUTHEAST","stayOn":false,"area":false,"bogusName":false,"lon":-71.05041844838937,"lat":48.41186158446426,"elevation":[]},{"distance":319.779,"relativeDirection":"LEFT","streetName":"Rue Murdock","absoluteDirection":"NORTHEAST","stayOn":false,"area":false,"bogusName":false,"lon":-71.04973220000001,"lat":48.411543200000004,"elevation":[]}]},{"startTime":1522700692000,"endTime":1522701600000,"departureDelay":0,"arrivalDelay":0,"realTime":false,"distance":4407.222559695605,"pathway":false,"mode":"BUS","route":"10","agencyName":"Société de Transport du Saguenay","agencyUrl":"http://ville.saguenay.ca/fr/services-aux-citoyens/transport-sts","agencyTimeZoneOffset":-14400000,"routeColor":"0000FF","routeType":3,"routeId":"1:10","routeTextColor":"FFFFFF","interlineWithPreviousLeg":false,"tripBlockId":"27","headsign":"Terminus Chicoutimi","agencyId":"0","tripId":"1:218019","serviceDate":"20180402","from":{"name":"Murdock / Baillargeon","stopId":"1:356","stopCode":"356","lon":-71.047188,"lat":48.413871,"arrival":1522700691000,"departure":1522700692000,"zoneId":"NA","stopIndex":1,"stopSequence":2,"vertexType":"TRANSIT"},"to":{"name":"Terminus Chicoutimi","stopId":"1:1289","stopCode":"1289","lon":-71.066163,"lat":48.428677,"arrival":1522701600000,"departure":1522701900000,"zoneId":"NA","stopIndex":21,"stopSequence":22,"vertexType":"TRANSIT"},"legGeometry":{"points":"uynfH~kspLsB{B}AeCu@oAXu@hAoDP_BP{AQmCg@mB_BiBeBaBqFeFmCgC{A_BmBoBk@iAw@}CU[o@y@k@Io@MqC@}@k@_@[aAw@_BoCMOKcAQUu@s@AAu@[k@xGg@pFc@~EO`@KHCVDP?hAa@nEKdAi@pGAr@GXMRG^Bb@`CV~IxB~ElAhChAsBtFaEvK_BhE}AfD{BdByBh@iC]oDq@YbF_Ea@AAuEg@MDENF|GAjJDzBDdDLdHFbCo@RUFRbFG|FApAMvFa@tPOnHqBOIjDc@Q","length":84},"routeShortName":"10","routeLongName":"Notre-Dame du Saguenay","rentedBike":false,"transitLeg":true,"duration":908.0,"steps":[]},{"startTime":1522701900000,"endTime":1522702320000,"departureDelay":0,"arrivalDelay":0,"realTime":false,"distance":3124.3531449342636,"pathway":false,"mode":"BUS","route":"12","agencyName":"Société de Transport du Saguenay","agencyUrl":"http://ville.saguenay.ca/fr/services-aux-citoyens/transport-sts","agencyTimeZoneOffset":-14400000,"routeColor":"556B2F","routeType":3,"routeId":"1:12","routeTextColor":"FFFFFF","interlineWithPreviousLeg":true,"tripBlockId":"27","headsign":"Terminus UQAC","agencyId":"0","tripId":"1:218020","serviceDate":"20180402","from":{"name":"Terminus Chicoutimi","stopId":"1:1289","stopCode":"1289","lon":-71.066163,"lat":48.428677,"arrival":1522701600000,"departure":1522701900000,"zoneId":"NA","stopIndex":0,"stopSequence":1,"vertexType":"TRANSIT"},"to":{"name":"Arthur-Hamel / Cèdres","stopId":"1:1525","stopCode":"1525","lon":-71.025769,"lat":48.43019,"arrival":1522702320000,"departure":1522702321000,"zoneId":"NA","stopIndex":12,"stopSequence":13,"vertexType":"TRANSIT"},"legGeometry":{"points":"evqfHpbwpLpFcj@IaKmFy^_DaZz@u]SeV}@aNs@gKToKd@gTnCyHkGuL","length":13},"routeShortName":"12","routeLongName":"Rivière du Moulin","rentedBike":false,"transitLeg":true,"duration":420.0,"steps":[]},{"startTime":1522702321000,"endTime":1522702440000,"departureDelay":0,"arrivalDelay":0,"realTime":false,"distance":147.73,"pathway":false,"mode":"WALK","route":"","agencyTimeZoneOffset":-14400000,"interlineWithPreviousLeg":false,"from":{"name":"Arthur-Hamel / Cèdres","stopId":"1:1525","stopCode":"1525","lon":-71.025769,"lat":48.43019,"arrival":1522702320000,"departure":1522702321000,"zoneId":"NA","stopIndex":12,"stopSequence":13,"vertexType":"TRANSIT"},"to":{"name":"Destination","lon":-71.026873,"lat":48.430511,"arrival":1522702440000,"orig":"","vertexType":"NORMAL"},"legGeometry":{"points":"{_rfHnfopL{@{@a@pAf@vD","length":4},"rentedBike":false,"transitLeg":false,"duration":119.0,"steps":[{"distance":40.349,"relativeDirection":"DEPART","streetName":"Rue Arthur-Hamel","absoluteDirection":"NORTHEAST","stayOn":false,"area":false,"bogusName":false,"lon":-71.02583684388401,"lat":48.430220456359244,"elevation":[]},{"distance":35.941,"relativeDirection":"LEFT","streetName":"Rue des Cèdres","absoluteDirection":"NORTHWEST","stayOn":false,"area":false,"bogusName":false,"lon":-71.02553040000001,"lat":48.430521000000006,"elevation":[]},{"distance":71.44,"relativeDirection":"LEFT","streetName":"Rue du Parc","absoluteDirection":"WEST","stayOn":false,"area":false,"bogusName":false,"lon":-71.0259436,"lat":48.4306922,"elevation":[]}]}],"tooSloped":false},{"duration":1241,"startTime":1522701926000,"endTime":1522703167000,"walkTime":422,"transitTime":817,"waitingTime":2,"walkDistance":527.6494060097971,"walkLimitExceeded":false,"elevationLost":0.0,"elevationGained":0.0,"transfers":0,"legs":[{"startTime":1522701926000,"endTime":1522702222000,"departureDelay":0,"arrivalDelay":0,"realTime":false,"distance":371.0419999999999,"pathway":false,"mode":"WALK","route":"","agencyTimeZoneOffset":-14400000,"interlineWithPreviousLeg":false,"from":{"name":"Origin","lon":-71.05021899,"lat":48.412051,"departure":1522701926000,"orig":"","vertexType":"NORMAL"},"to":{"name":"Sûreté du Québec (Roitelets / Lorenzo-Genest)","stopId":"1:195","stopCode":"195","lon":-71.048189,"lat":48.4095,"arrival":1522702222000,"departure":1522702223000,"zoneId":"NA","stopIndex":16,"stopSequence":17,"vertexType":"TRANSIT"},"legGeometry":{"points":"cmnfHb`tpLb@iAZ}@VPxBeHF_@`@o@XMd@KJD~Av@j@X","length":12},"rentedBike":false,"transitLeg":false,"duration":296.0,"steps":[{"distance":217.11699999999996,"relativeDirection":"DEPART","streetName":"Boulevard de l'Université","absoluteDirection":"SOUTHEAST","stayOn":false,"area":false,"bogusName":false,"lon":-71.05041844838937,"lat":48.41186158446426,"elevation":[]},{"distance":62.949,"relativeDirection":"SLIGHTLY_RIGHT","streetName":"link","absoluteDirection":"SOUTHEAST","stayOn":false,"area":false,"bogusName":true,"lon":-71.04819570000001,"lat":48.410774100000005,"elevation":[]},{"distance":90.976,"relativeDirection":"SLIGHTLY_RIGHT","streetName":"Rue Des Roitelets","absoluteDirection":"SOUTH","stayOn":false,"area":false,"bogusName":false,"lon":-71.0478246,"lat":48.4102837,"elevation":[]}]},{"startTime":1522702223000,"endTime":1522703040000,"departureDelay":0,"arrivalDelay":0,"realTime":false,"distance":4693.611699403435,"pathway":false,"mode":"BUS","route":"12","agencyName":"Société de Transport du Saguenay","agencyUrl":"http://ville.saguenay.ca/fr/services-aux-citoyens/transport-sts","agencyTimeZoneOffset":-14400000,"routeColor":"556B2F","routeType":3,"routeId":"1:12","routeTextColor":"FFFFFF","interlineWithPreviousLeg":false,"tripBlockId":"29","headsign":"Terminus Chicoutimi","agencyId":"0","tripId":"1:218072","serviceDate":"20180402","from":{"name":"Sûreté du Québec (Roitelets / Lorenzo-Genest)","stopId":"1:195","stopCode":"195","lon":-71.048189,"lat":48.4095,"arrival":1522702222000,"departure":1522702223000,"zoneId":"NA","stopIndex":16,"stopSequence":17,"vertexType":"TRANSIT"},"to":{"name":"nouveau","stopId":"1:2304","stopCode":"2304","lon":-71.026011,"lat":48.430204,"arrival":1522703040000,"departure":1522703041000,"zoneId":"NA","stopIndex":25,"stopSequence":26,"vertexType":"TRANSIT"},"legGeometry":{"points":"k~mfHdrspLgD_BgAgBn@kFD_NoIgrAmD_WcAaLaDHoDJi`@wVoAbDbA|AnBU|B|AfBlAyLtKoGxFcFqDkJaHgEoDmDwC_TqQsBeB{HjWfAvAfM|O","length":27},"routeShortName":"12","routeLongName":"Rivière du Moulin","rentedBike":false,"transitLeg":true,"duration":817.0,"steps":[]},{"startTime":1522703041000,"endTime":1522703167000,"departureDelay":0,"arrivalDelay":0,"realTime":false,"distance":156.445,"pathway":false,"mode":"WALK","route":"","agencyTimeZoneOffset":-14400000,"interlineWithPreviousLeg":false,"from":{"name":"nouveau","stopId":"1:2304","stopCode":"2304","lon":-71.026011,"lat":48.430204,"arrival":1522703040000,"departure":1522703041000,"zoneId":"NA","stopIndex":25,"stopSequence":26,"vertexType":"TRANSIT"},"to":{"name":"Destination","lon":-71.026873,"lat":48.430511,"arrival":1522703167000,"orig":"","vertexType":"NORMAL"},"legGeometry":{"points":"m_rfH|fopLMM{@{@a@pAf@vD","length":5},"rentedBike":false,"transitLeg":false,"duration":126.0,"steps":[{"distance":49.06399999999999,"relativeDirection":"DEPART","streetName":"Rue Arthur-Hamel","absoluteDirection":"NORTHEAST","stayOn":false,"area":false,"bogusName":false,"lon":-71.02590303997721,"lat":48.43015553479973,"elevation":[]},{"distance":35.941,"relativeDirection":"LEFT","streetName":"Rue des Cèdres","absoluteDirection":"NORTHWEST","stayOn":false,"area":false,"bogusName":false,"lon":-71.02553040000001,"lat":48.430521000000006,"elevation":[]},{"distance":71.44,"relativeDirection":"LEFT","streetName":"Rue du Parc","absoluteDirection":"WEST","stayOn":false,"area":false,"bogusName":false,"lon":-71.0259436,"lat":48.4306922,"elevation":[]}]}],"tooSloped":false}]},"debugOutput":{"precalculationTime":66,"pathCalculationTime":68,"pathTimes":[37,14,17],"renderingTime":1,"totalTime":135,"timedOut":false},"elevationMetadata":{"ellipsoidToGeoidDifference":-28.885904201182168,"geoidElevation":false}}