{"requestParameters":{"date":"2018/04/02","walkSpeed":"1.33","walkReluctance":"2.0","fromPlace":"48.431612,-71.025088","maxWalkDistance":"3000","waitReluctance":"1.0","carSpeed":"33","numItineraries":"3","waitAtBeginningFactor":"0.4","mode":"TRANSIT,WALK","ignoreRealtimeUpdates":"false","stairsReluctance":"2.0","toPlace":"48.444385,-71.081322","time":"22:30:00"},"plan":{"date":1522722600000,"from":{"name":"Origin","lon":-71.025088,"lat":48.431612,"orig":"","vertexType":"NORMAL"},"to":{"name":"Destination","lon":-71.081322,"lat":48.444385,"orig":"","vertexType":"NORMAL"},"itineraries":[{"duration":1437,"startTime":1522722631000,"endTime":1522724068000,"walkTime":251,"transitTime":944,"waitingTime":242,"walkDistance":318.0419097723739,"walkLimitExceeded":false,"elevationLost":0.0,"elevationGained":0.0,"transfers":1,"legs":[{"startTime":1522722631000,"endTime":1522722795000,"departureDelay":0,"arrivalDelay":0,"realTime":false,"distance":209.172,"pathway":false,"mode":"WALK","route":"","agencyTimeZoneOffset":-14400000,"interlineWithPreviousLeg":false,"from":{"name":"Origin","lon":-71.025088,"lat":48.431612,"departure":1522722631000,"orig":"","vertexType":"NORMAL"},"to":{"name":"nouveau","stopId":"1:2303","stopCode":"2303","lon":-71.02291,"lat":48.432276,"arrival":1522722795000,"departure":1522722796000,"zoneId":"NA","stopIndex":24,"stopSequence":25,"vertexType":"TRANSIT"},"legGeometry":{"points":"girfHdaopLZeAf@wBIMsAyBkAeB","length":6},"rentedBike":false,"transitLeg":false,"duration":164.0,"steps":[{"distance":79.689,"relativeDirection":"DEPART","streetName":"Rue Théodore-Côté","absoluteDirection":"SOUTHEAST","stayOn":false,"area":false,"bogusName":false,"lon":-71.0249888020779,"lat":48.43172554695303,"elevation":[]},{"distance":129.483,"relativeDirection":"LEFT","streetName":"Rue Arthur-Hamel","absoluteDirection":"NORTHEAST","stayOn":false,"area":false,"bogusName":false,"lon":-71.0240383,"lat":48.431385600000006,"elevation":[]}]},{"startTime":1522722796000,"endTime":1522723260000,"departureDelay":0,"arrivalDelay":0,"realTime":false,"distance":3308.741766648229,"pathway":false,"mode":"BUS","route":"12","agencyName":"Société de Transport du Saguenay","agencyUrl":"http://ville.saguenay.ca/fr/services-aux-citoyens/transport-sts","agencyTimeZoneOffset":-14400000,"routeColor":"556B2F","routeType":3,"routeId":"1:12","routeTextColor":"FFFFFF","interlineWithPreviousLeg":false,"tripBlockId":"26","headsign":"Terminus Chicoutimi","agencyId":"0","tripId":"1:217995","serviceDate":"20180402","from":{"name":"nouveau","stopId":"1:2303","stopCode":"2303","lon":-71.02291,"lat":48.432276,"arrival":1522722795000,"departure":1522722796000,"zoneId":"NA","stopIndex":24,"stopSequence":25,"vertexType":"TRANSIT"},"to":{"name":"Terminus Chicoutimi","stopId":"1:1289","stopCode":"1289","lon":-71.066163,"lat":48.428677,"arrival":1522723260000,"departure":1522723500000,"zoneId":"NA","stopIndex":33,"stopSequence":34,"vertexType":"TRANSIT"},"legGeometry":{"points":"qlrfH|snpLfM|O|FlHmB`IgA|Cy@`UYzHZvMR~Hr@~ZPvHsCrMFxf@|ApJj@nDDl]BvZdCXJhC","length":19},"routeShortName":"12","routeLongName":"Rivière du Moulin","rentedBike":false,"transitLeg":true,"duration":464.0,"steps":[]},{"startTime":1522723500000,"endTime":1522723980000,"departureDelay":0,"arrivalDelay":0,"realTime":false,"distance":2919.412271031845,"pathway":false,"mode":"BUS","route":"20","agencyName":"Société de Transport du Saguenay","agencyUrl":"http://ville.saguenay.ca/fr/services-aux-citoyens/transport-sts","agencyTimeZoneOffset":-14400000,"routeColor":"0000FF","routeType":3,"routeId":"1:20","routeTextColor":"FFFFFF","interlineWithPreviousLeg":false,"tripBlockId":"3","headsign":"Terminus Chicoutimi","agencyId":"0","tripId":"1:217219","serviceDate":"20180402","from":{"name":"Terminus Chicoutimi","stopId":"1:1289","stopCode":"1289","lon":-71.066163,"lat":48.428677,"arrival":1522723260000,"departure":1522723500000,"zoneId":"NA","stopIndex":0,"stopSequence":1,"vertexType":"TRANSIT"},"to":{"name":"Sauvé / David","stopId":"1:682","stopCode":"682","lon":-71.0813,"lat":48.4438,"arrival":1522723980000,"departure":1522723981000,"zoneId":"NA","stopIndex":7,"stopSequence":8,"vertexType":"TRANSIT"},"legGeometry":{"points":"evqfHzcwpLg@?UhKwAIWACp@O\\WjGOfGCRK^KJMHQB_AMg@Gw`@eR}@g@u@Su@Ia@Ck@Dm@HwAf@c@VeAx@iAlAU^[d@eLtTsAvBg@bAPVd@t@PNNF@@P?TI`@YLITGV?NBTFRNNP`@OLCHGHIFMDSR{ARaBbDdAb@H`Fd@EbAE`AIdBK`AOdAMd@EJKR}B~Bw@`Bs@dB]bAWb@q@jAaB|BkA~A}@nAu@IIAe@Cs@Fy@DWA[EUGyCgAU~@Sx@{A`F","length":87},"routeShortName":"20","routeLongName":"Sainte-Claire","rentedBike":false,"transitLeg":true,"duration":480.0,"steps":[]},{"startTime":1522723981000,"endTime":1522724068000,"departureDelay":0,"arrivalDelay":0,"realTime":false,"distance":108.806,"pathway":false,"mode":"WALK","route":"","agencyTimeZoneOffset":-14400000,"interlineWithPreviousLeg":false,"from":{"name":"Sauvé / David","stopId":"1:682","stopCode":"682","lon":-71.0813,"lat":48.4438,"arrival":1522723980000,"departure":1522723981000,"zoneId":"NA","stopIndex":7,"stopSequence":8,"vertexType":"TRANSIT"},"to":{"name":"Destination","lon":-71.081322,"lat":48.444385,"arrival":1522724068000,"orig":"","vertexType":"NORMAL"},"legGeometry":{"points":"qttfHhazpLq@tBuAsA","length":3},"rentedBike":false,"transitLeg":false,"duration":87.0,"steps":[{"distance":51.448,"relativeDirection":"DEPART","streetName":"Rue Sauvé","absoluteDirection":"NORTHWEST","stayOn":false,"area":false,"bogusName":false,"lon":-71.08132392744633,"lat":48.44377496388204,"elevation":[]},{"distance":57.358,"relativeDirection":"RIGHT","streetName":"Rue David","absoluteDirection":"NORTHEAST","stayOn":false,"area":false,"bogusName":false,"lon":-71.081913,"lat":48.444022700000005,"elevation":[]}]}],"tooSloped":false},{"duration":4172,"startTime":1522722874000,"endTime":1522727046000,"walkTime":3958,"transitTime":212,"waitingTime":2,"walkDistance":5106.483360884688,"walkLimitExceeded":false,"elevationLost":0.0,"elevationGained":0.0,"transfers":0,"legs":[{"startTime":1522722874000,"endTime":1522724787000,"departureDelay":0,"arrivalDelay":0,"realTime":false,"distance":2481.194,"pathway":false,"mode":"WALK","route":"","agencyTimeZoneOffset":-14400000,"interlineWithPreviousLeg":false,"from":{"name":"Origin","lon":-71.025088,"lat":48.431612,"departure":1522722874000,"orig":"","vertexType":"NORMAL"},"to":{"name":"Hôtel-Dieu / Riverin","stopId":"1:338","stopCode":"338","lon":-71.054073,"lat":48.427466,"arrival":1522724787000,"departure":1522724788000,"zoneId":"NA","stopIndex":21,"stopSequence":22,"vertexType":"TRANSIT"},"legGeometry":{"points":"girfHdaopLq@bCtArAf@rAR~@l@fCn@|Dp@nBN\\fAJx@H\\PAb@Ax@AjBGdBEjBAd@IpDG~@ARAV?@MfCAXAREf@@vAFfAd@zHJjA?@Dp@L~AHpAJxALhBFx@BXLtD@zJEpC?@ALA|@Ap@EpAEx@CZIjAQtBCZElA?`@?|@?ZAzA?jDAjC?f@AtHBp@Hl@l@bBl@v@NPf@|@Bn@JfC@VBj@Dn@jAGvBKd@CJBB~B","length":77},"rentedBike":false,"transitLeg":false,"duration":1913.0,"steps":[{"distance":56.24,"relativeDirection":"DEPART","streetName":"Rue Théodore-Côté","absoluteDirection":"NORTHWEST","stayOn":false,"area":false,"bogusName":false,"lon":-71.0249888020779,"lat":48.43172554695303,"elevation":[]},{"distance":407.44500000000005,"relativeDirection":"LEFT","streetName":"Boulevard Renaud","absoluteDirection":"SOUTHWEST","stayOn":false,"area":false,"bogusName":false,"lon":-71.0256483,"lat":48.4319792,"elevation":[]},{"distance":1063.742,"relativeDirection":"RIGHT","streetName":"Boulevard du Saguenay Est","absoluteDirection":"WEST","stayOn":false,"area":false,"bogusName":false,"lon":-71.02934660000001,"lat":48.4296457,"elevation":[]},{"distance":768.5310000000001,"relativeDirection":"CONTINUE","streetName":"Rue Racine Est","absoluteDirection":"WEST","stayOn":false,"area":false,"bogusName":false,"lon":-71.04363190000001,"lat":48.4293294,"elevation":[]},{"distance":137.486,"relativeDirection":"LEFT","streetName":"Rue Bégin","absoluteDirection":"SOUTH","stayOn":false,"area":false,"bogusName":false,"lon":-71.0535297,"lat":48.4286752,"elevation":[]},{"distance":47.75,"relativeDirection":"RIGHT","streetName":"Rue de l'Hôtel-Dieu","absoluteDirection":"WEST","stayOn":false,"area":false,"bogusName":false,"lon":-71.0534231,"lat":48.4274435,"elevation":[]}]},{"startTime":1522724788000,"endTime":1522725000000,"departureDelay":0,"arrivalDelay":0,"realTime":false,"distance":920.881613318503,"pathway":false,"mode":"BUS","route":"175","agencyName":"Société de Transport du Saguenay","agencyUrl":"http://ville.saguenay.ca/fr/services-aux-citoyens/transport-sts","agencyTimeZoneOffset":-14400000,"routeColor":"FF00FF","routeType":3,"routeId":"1:175","routeTextColor":"FFFFFF","interlineWithPreviousLeg":false,"tripBlockId":"11","headsign":"Terminus Chicoutimi","agencyId":"0","tripId":"1:217494","serviceDate":"20180402","from":{"name":"Hôtel-Dieu / Riverin","stopId":"1:338","stopCode":"338","lon":-71.054073,"lat":48.427466,"arrival":1522724787000,"departure":1522724788000,"zoneId":"NA","stopIndex":21,"stopSequence":22,"vertexType":"TRANSIT"},"to":{"name":"Terminus Chicoutimi","stopId":"1:1289","stopCode":"1289","lon":-71.066163,"lat":48.428677,"arrival":1522725000000,"departure":1522725001000,"zoneId":"NA","stopIndex":27,"stopSequence":28,"vertexType":"TRANSIT"},"legGeometry":{"points":"enqfH|vtpLPjMB~Bo@PQDRbFKdGMhIOvIK|EQpHoCQEdC","length":13},"routeShortName":"175","routeLongName":"Term. Chic / Costco","rentedBike":false,"transitLeg":true,"duration":212.0,"steps":[]},{"startTime":1522725001000,"endTime":1522727046000,"departureDelay":0,"arrivalDelay":0,"realTime":false,"distance":2624.7450000000003,"pathway":false,"mode":"WALK","route":"","agencyTimeZoneOffset":-14400000,"interlineWithPreviousLeg":false,"from":{"name":"Terminus Chicoutimi","stopId":"1:1289","stopCode":"1289","lon":-71.066163,"lat":48.428677,"arrival":1522725000000,"departure":1522725001000,"zoneId":"NA","stopIndex":27,"stopSequence":28,"vertexType":"TRANSIT"},"to":{"name":"Destination","lon":-71.081322,"lat":48.444385,"arrival":1522727046000,"orig":"","vertexType":"NORMAL"},"legGeometry":{"points":"{uqfHb~vpL_BMOAa@CILKJ[TaAn@@FDX?\\CTEb@GHCb@C|@ALEDCBCr@DBBBElBEp@e]uBQuBMBQFoAPIGWVe@f@ECc@?_AQ[EwBK?DCDADC@E@CACACCAC?AAG?EK?e@^u@x@wAbCw@tA[l@Yj@Sd@i@z@c@z@wAnC{AvCaIhOoAdC{AvCqAvCw@dB_CdIk@fBPRsAvEa@fAi@~AnBhB","length":73},"rentedBike":false,"transitLeg":false,"duration":2045.0,"steps":[{"distance":81.079,"relativeDirection":"DEPART","streetName":"Rue Morin","absoluteDirection":"NORTH","stayOn":false,"area":false,"bogusName":false,"lon":-71.0654590096484,"lat":48.428628638946556,"elevation":[]},{"distance":259.336,"relativeDirection":"LEFT","streetName":"path","absoluteDirection":"NORTHWEST","stayOn":false,"area":false,"bogusName":true,"lon":-71.0653539,"lat":48.4293544,"elevation":[]},{"distance":538.684,"relativeDirection":"RIGHT","streetName":"Pont de Sainte-Anne","absoluteDirection":"NORTH","stayOn":false,"area":false,"bogusName":false,"lon":-71.0682024,"lat":48.4301132,"elevation":[]},{"distance":114.291,"relativeDirection":"RIGHT","streetName":"bike path","absoluteDirection":"EAST","stayOn":false,"area":false,"bogusName":true,"lon":-71.0676151,"lat":48.434942,"elevation":[]},{"distance":41.536,"relativeDirection":"SLIGHTLY_LEFT","streetName":"link","absoluteDirection":"NORTHWEST","stayOn":false,"area":false,"bogusName":true,"lon":-71.06713590000001,"lat":48.435644700000005,"elevation":[]},{"distance":142.163,"relativeDirection":"RIGHT","streetName":"Rue du Pont","absoluteDirection":"NORTH","stayOn":false,"area":false,"bogusName":false,"lon":-71.06745260000001,"lat":48.4359534,"elevation":[]},{"distance":28.474,"relativeDirection":"CIRCLE_CLOCKWISE","streetName":"Rue Roussel","absoluteDirection":"NORTHWEST","exit":"2","stayOn":false,"area":false,"bogusName":false,"lon":-71.06725250000001,"lat":48.4372217,"elevation":[]},{"distance":6.516,"relativeDirection":"LEFT","streetName":"R 172","absoluteDirection":"NORTH","stayOn":false,"area":false,"bogusName":true,"lon":-71.0672278,"lat":48.4373869,"elevation":[]},{"distance":236.639,"relativeDirection":"SLIGHTLY_LEFT","streetName":"R 172","absoluteDirection":"NORTHWEST","stayOn":true,"area":false,"bogusName":true,"lon":-71.0672291,"lat":48.4374455,"elevation":[]},{"distance":1102.2540000000001,"relativeDirection":"CONTINUE","streetName":"Boulevard Sainte-Geneviève","absoluteDirection":"NORTHWEST","stayOn":false,"area":false,"bogusName":false,"lon":-71.0694016,"lat":48.4389935,"elevation":[]},{"distance":73.773,"relativeDirection":"LEFT","streetName":"Rue David","absoluteDirection":"SOUTHWEST","stayOn":false,"area":false,"bogusName":false,"lon":-71.08096180000001,"lat":48.445019,"elevation":[]}]}],"tooSloped":false},{"duration":2675,"startTime":1522724431000,"endTime":1522727106000,"walkTime":2209,"transitTime":464,"waitingTime":2,"walkDistance":2834.3384285578304,"walkLimitExceeded":false,"elevationLost":0.0,"elevationGained":0.0,"transfers":0,"legs":[{"startTime":1522724431000,"endTime":1522724595000,"departureDelay":0,"arrivalDelay":0,"realTime":false,"distance":209.172,"pathway":false,"mode":"WALK","route":"","agencyTimeZoneOffset":-14400000,"interlineWithPreviousLeg":false,"from":{"name":"Origin","lon":-71.025088,"lat":48.431612,"departure":1522724431000,"orig":"","vertexType":"NORMAL"},"to":{"name":"nouveau","stopId":"1:2303","stopCode":"2303","lon":-71.02291,"lat":48.432276,"arrival":1522724595000,"departure":1522724596000,"zoneId":"NA","stopIndex":24,"stopSequence":25,"vertexType":"TRANSIT"},"legGeometry":{"points":"girfHdaopLZeAf@wBIMsAyBkAeB","length":6},"rentedBike":false,"transitLeg":false,"duration":164.0,"steps":[{"distance":79.689,"relativeDirection":"DEPART","streetName":"Rue Théodore-Côté","absoluteDirection":"SOUTHEAST","stayOn":false,"area":false,"bogusName":false,"lon":-71.0249888020779,"lat":48.43172554695303,"elevation":[]},{"distance":129.483,"relativeDirection":"LEFT","streetName":"Rue Arthur-Hamel","absoluteDirection":"NORTHEAST","stayOn":false,"area":false,"bogusName":false,"lon":-71.0240383,"lat":48.431385600000006,"elevation":[]}]},{"startTime":1522724596000,"endTime":1522725060000,"departureDelay":0,"arrivalDelay":0,"realTime":false,"distance":3308.741766648229,"pathway":false,"mode":"BUS","route":"12","agencyName":"Société de Transport du Saguenay","agencyUrl":"http://ville.saguenay.ca/fr/services-aux-citoyens/transport-sts","agencyTimeZoneOffset":-14400000,"routeColor":"556B2F","routeType":3,"routeId":"1:12","routeTextColor":"FFFFFF","interlineWithPreviousLeg":false,"tripBlockId":"29","headsign":"Terminus Chicoutimi","agencyId":"0","tripId":"1:218084","serviceDate":"20180402","from":{"name":"nouveau","stopId":"1:2303","stopCode":"2303","lon":-71.02291,"lat":48.432276,"arrival":1522724595000,"departure":1522724596000,"zoneId":"NA","stopIndex":24,"stopSequence":25,"vertexType":"TRANSIT"},"to":{"name":"Terminus Chicoutimi","stopId":"1:1289","stopCode":"1289","lon":-71.066163,"lat":48.428677,"arrival":1522725060000,"departure":1522725061000,"zoneId":"NA","stopIndex":33,"stopSequence":34,"vertexType":"TRANSIT"},"legGeometry":{"points":"qlrfH|snpLfM|O|FlHmB`IgA|Cy@`UYzHZvMR~Hr@~ZPvHsCrMFxf@|ApJj@nDDl]BvZdCXJhC","length":19},"routeShortName":"12","routeLongName":"Rivière du Moulin","rentedBike":false,"transitLeg":true,"duration":464.0,"steps":[]},{"startTime":1522725061000,"endTime":1522727106000,"departureDelay":0,"arrivalDelay":0,"realTime":false,"distance":2624.7450000000003,"pathway":false,"mode":"WALK","route":"","agencyTimeZoneOffset":-14400000,"interlineWithPreviousLeg":false,"from":{"name":"Terminus Chicoutimi","stopId":"1:1289","stopCode":"1289","lon":-71.066163,"lat":48.428677,"arrival":1522725060000,"departure":1522725061000,"zoneId":"NA","stopIndex":33,"stopSequence":34,"vertexType":"TRANSIT"},"to":{"name":"Destination","lon":-71.081322,"lat":48.444385,"arrival":1522727106000,"orig":"","vertexType":"NORMAL"},"legGeometry":{"points":"{uqfHb~vpL_BMOAa@CILKJ[TaAn@@FDX?\\CTEb@GHCb@C|@ALEDCBCr@DBBBElBEp@e]uBQuBMBQFoAPIGWVe@f@ECc@?_AQ[EwBK?DCDADC@E@CACACCAC?AAG?EK?e@^u@x@wAbCw@tA[l@Yj@Sd@i@z@c@z@wAnC{AvCaIhOoAdC{AvCqAvCw@dB_CdIk@fBPRsAvEa@fAi@~AnBhB","length":73},"rentedBike":false,"transitLeg":false,"duration":2045.0,"steps":[{"distance":81.079,"relativeDirection":"DEPART","streetName":"Rue Morin","absoluteDirection":"NORTH","stayOn":false,"area":false,"bogusName":false,"lon":-71.0654590096484,"lat":48.428628638946556,"elevation":[]},{"distance":259.336,"relativeDirection":"LEFT","streetName":"path","absoluteDirection":"NORTHWEST","stayOn":false,"area":false,"bogusName":true,"lon":-71.0653539,"lat":48.4293544,"elevation":[]},{"distance":538.684,"relativeDirection":"RIGHT","streetName":"Pont de Sainte-Anne","absoluteDirection":"NORTH","stayOn":false,"area":false,"bogusName":false,"lon":-71.0682024,"lat":48.4301132,"elevation":[]},{"distance":114.291,"relativeDirection":"RIGHT","streetName":"bike path","absoluteDirection":"EAST","stayOn":false,"area":false,"bogusName":true,"lon":-71.0676151,"lat":48.434942,"elevation":[]},{"distance":41.536,"relativeDirection":"SLIGHTLY_LEFT","streetName":"link","absoluteDirection":"NORTHWEST","stayOn":false,"area":false,"bogusName":true,"lon":-71.06713590000001,"lat":48.435644700000005,"elevation":[]},{"distance":142.163,"relativeDirection":"RIGHT","streetName":"Rue du Pont","absoluteDirection":"NORTH","stayOn":false,"area":false,"bogusName":false,"lon":-71.06745260000001,"lat":48.4359534,"elevation":[]},{"distance":28.474,"relativeDirection":"CIRCLE_CLOCKWISE","streetName":"Rue Roussel","absoluteDirection":"NORTHWEST","exit":"2","stayOn":false,"area":false,"bogusName":false,"lon":-71.06725250000001,"lat":48.4372217,"elevation":[]},{"distance":6.516,"relativeDirection":"LEFT","streetName":"R 172","absoluteDirection":"NORTH","stayOn":false,"area":false,"bogusName":true,"lon":-71.0672278,"lat":48.4373869,"elevation":[]},{"distance":236.639,"relativeDirection":"SLIGHTLY_LEFT","streetName":"R 172","absoluteDirection":"NORTHWEST","stayOn":true,"area":false,"bogusName":true,"lon":-71.0672291,"lat":48.4374455,"elevation":[]},{"distance":1102.2540000000001,"relativeDirection":"CONTINUE","streetName":"Boulevard Sainte-Geneviève","absoluteDirection":"NORTHWEST","stayOn":false,"area":false,"bogusName":false,"lon":-71.0694016,"lat":48.4389935,"elevation":[]},{"distance":73.773,"relativeDirection":"LEFT","streetName":"Rue David","absoluteDirection":"SOUTHWEST","stayOn":false,"area":false,"bogusName":false,"lon":-71.08096180000001,"lat":48.445019,"elevation":[]}]}],"tooSloped":false}]},"debugOutput":{"precalculationTime":17,"pathCalculationTime":32,"pathTimes":[14,9,9],"renderingTime":1,"totalTime":50,"timedOut":false},"elevationMetadata":{"ellipsoidToGeoidDifference":-28.885904201182168,"geoidElevation":false}}