{"requestParameters":{"date":"2018/04/02","walkSpeed":"1.33","walkReluctance":"2.0","fromPlace":"48.432977,-71.027468","maxWalkDistance":"3000","waitReluctance":"1.0","carSpeed":"33","numItineraries":"3","waitAtBeginningFactor":"0.4","mode":"TRANSIT,WALK","ignoreRealtimeUpdates":"false","stairsReluctance":"2.0","toPlace":"48.427726,-71.056876","time":"11:45:00"},"plan":{"date":1522683900000,"from":{"name":"Origin","lon":-71.027468,"lat":48.432977,"orig":"","vertexType":"NORMAL"},"to":{"name":"Destination","lon":-71.056876,"lat":48.427726,"orig":"","vertexType":"NORMAL"},"itineraries":[{"duration":1234,"startTime":1522684655000,"endTime":1522685889000,"walkTime":371,"transitTime":861,"waitingTime":2,"walkDistance":479.4645939837493,"walkLimitExceeded":false,"elevationLost":0.0,"elevationGained":0.0,"transfers":0,"legs":[{"startTime":1522684655000,"endTime":1522684995000,"departureDelay":0,"arrivalDelay":0,"realTime":false,"distance":440.6839999999999,"pathway":false,"mode":"WALK","route":"","agencyTimeZoneOffset":-14400000,"interlineWithPreviousLeg":false,"from":{"name":"Origin","lon":-71.027468,"lat":48.432977,"departure":1522684655000,"orig":"","vertexType":"NORMAL"},"to":{"name":"nouveau","stopId":"1:2303","stopCode":"2303","lon":-71.02291,"lat":48.432276,"arrival":1522684995000,"departure":1522684996000,"zoneId":"NA","stopIndex":24,"stopSequence":25,"vertexType":"TRANSIT"},"legGeometry":{"points":"iprfHrqopL^w@nCqIlAiEf@wBIMsAyBkAeB","length":8},"rentedBike":false,"transitLeg":false,"duration":340.0,"steps":[{"distance":175.271,"relativeDirection":"DEPART","streetName":"Rue Renaud","absoluteDirection":"SOUTHEAST","stayOn":false,"area":false,"bogusName":false,"lon":-71.02761987620234,"lat":48.43285577805928,"elevation":[]},{"distance":135.93,"relativeDirection":"CONTINUE","streetName":"Rue Théodore-Côté","absoluteDirection":"SOUTHEAST","stayOn":false,"area":false,"bogusName":false,"lon":-71.0256483,"lat":48.4319792,"elevation":[]},{"distance":129.483,"relativeDirection":"LEFT","streetName":"Rue Arthur-Hamel","absoluteDirection":"NORTHEAST","stayOn":false,"area":false,"bogusName":false,"lon":-71.0240383,"lat":48.431385600000006,"elevation":[]}]},{"startTime":1522684996000,"endTime":1522685460000,"departureDelay":0,"arrivalDelay":0,"realTime":false,"distance":3308.741766648229,"pathway":false,"mode":"BUS","route":"12","agencyName":"Société de Transport du Saguenay","agencyUrl":"http://ville.saguenay.ca/fr/services-aux-citoyens/transport-sts","agencyTimeZoneOffset":-14400000,"routeColor":"556B2F","routeType":3,"routeId":"1:12","routeTextColor":"FFFFFF","interlineWithPreviousLeg":false,"tripBlockId":"29","headsign":"Terminus Chicoutimi","agencyId":"0","tripId":"1:218062","serviceDate":"20180402","from":{"name":"nouveau","stopId":"1:2303","stopCode":"2303","lon":-71.02291,"lat":48.432276,"arrival":1522684995000,"departure":1522684996000,"zoneId":"NA","stopIndex":24,"stopSequence":25,"vertexType":"TRANSIT"},"to":{"name":"Terminus Chicoutimi","stopId":"1:1289","stopCode":"1289","lon":-71.066163,"lat":48.428677,"arrival":1522685460000,"departure":1522685700000,"zoneId":"NA","stopIndex":33,"stopSequence":34,"vertexType":"TRANSIT"},"legGeometry":{"points":"qlrfH|snpLfM|O|FlHmB`IgA|Cy@`UYzHZvMR~Hr@~ZPvHsCrMFxf@|ApJj@nDDl]BvZdCXJhC","length":19},"routeShortName":"12","routeLongName":"Rivière du Moulin","rentedBike":false,"transitLeg":true,"duration":464.0,"steps":[]},{"startTime":1522685700000,"endTime":1522685857000,"departureDelay":0,"arrivalDelay":0,"realTime":false,"distance":669.0312154213282,"pathway":false,"mode":"BUS","route":"10","agencyName":"Société de Transport du Saguenay","agencyUrl":"http://ville.saguenay.ca/fr/services-aux-citoyens/transport-sts","agencyTimeZoneOffset":-14400000,"routeColor":"0000FF","routeType":3,"routeId":"1:10","routeTextColor":"FFFFFF","interlineWithPreviousLeg":true,"tripBlockId":"29","headsign":"Terminus UQAC","agencyId":"0","tripId":"1:218063","serviceDate":"20180402","from":{"name":"Terminus Chicoutimi","stopId":"1:1289","stopCode":"1289","lon":-71.066163,"lat":48.428677,"arrival":1522685460000,"departure":1522685700000,"zoneId":"NA","stopIndex":0,"stopSequence":1,"vertexType":"TRANSIT"},"to":{"name":"Racine / Labrecque","stopId":"1:515","stopCode":"515","lon":-71.057333,"lat":48.427512,"arrival":1522685857000,"departure":1522685858000,"zoneId":"NA","stopIndex":2,"stopSequence":3,"vertexType":"TRANSIT"},"legGeometry":{"points":"svqfHnbwpLDmCdDZ\\kO`@mQBuCD}DQ_E","length":8},"routeShortName":"10","routeLongName":"Notre-Dame du Saguenay","rentedBike":false,"transitLeg":true,"duration":157.0,"steps":[]},{"startTime":1522685858000,"endTime":1522685889000,"departureDelay":0,"arrivalDelay":0,"realTime":false,"distance":38.743,"pathway":false,"mode":"WALK","route":"","agencyTimeZoneOffset":-14400000,"interlineWithPreviousLeg":false,"from":{"name":"Racine / Labrecque","stopId":"1:515","stopCode":"515","lon":-71.057333,"lat":48.427512,"arrival":1522685857000,"departure":1522685858000,"zoneId":"NA","stopIndex":2,"stopSequence":3,"vertexType":"TRANSIT"},"to":{"name":"Destination","lon":-71.056876,"lat":48.427726,"arrival":1522685889000,"orig":"","vertexType":"NORMAL"},"legGeometry":{"points":"soqfHrkupLGk@Os@","length":3},"rentedBike":false,"transitLeg":false,"duration":31.0,"steps":[{"distance":38.743,"relativeDirection":"DEPART","streetName":"Rue Racine Est","absoluteDirection":"EAST","stayOn":false,"area":false,"bogusName":false,"lon":-71.05737919931526,"lat":48.42762116546726,"elevation":[]}]}],"tooSloped":false},{"duration":1992,"startTime":1522684106000,"endTime":1522686098000,"walkTime":820,"transitTime":1170,"waitingTime":2,"walkDistance":1030.5530225496461,"walkLimitExceeded":false,"elevationLost":0.0,"elevationGained":0.0,"transfers":0,"legs":[{"startTime":1522684106000,"endTime":1522684353000,"departureDelay":0,"arrivalDelay":0,"realTime":false,"distance":318.95199999999994,"pathway":false,"mode":"WALK","route":"","agencyTimeZoneOffset":-14400000,"interlineWithPreviousLeg":false,"from":{"name":"Origin","lon":-71.027468,"lat":48.432977,"departure":1522684106000,"orig":"","vertexType":"NORMAL"},"to":{"name":"Arthur-Hamel / Bretagne","stopId":"1:1526","stopCode":"1526","lon":-71.023915,"lat":48.431403,"arrival":1522684353000,"departure":1522684354000,"zoneId":"NA","stopIndex":13,"stopSequence":14,"vertexType":"TRANSIT"},"legGeometry":{"points":"iprfHrqopL^w@nCqIlAiEf@wBIM","length":6},"rentedBike":false,"transitLeg":false,"duration":247.0,"steps":[{"distance":175.271,"relativeDirection":"DEPART","streetName":"Rue Renaud","absoluteDirection":"SOUTHEAST","stayOn":false,"area":false,"bogusName":false,"lon":-71.02761987620234,"lat":48.43285577805928,"elevation":[]},{"distance":135.93,"relativeDirection":"CONTINUE","streetName":"Rue Théodore-Côté","absoluteDirection":"SOUTHEAST","stayOn":false,"area":false,"bogusName":false,"lon":-71.0256483,"lat":48.4319792,"elevation":[]},{"distance":7.751,"relativeDirection":"LEFT","streetName":"Rue Arthur-Hamel","absoluteDirection":"NORTHEAST","stayOn":false,"area":false,"bogusName":false,"lon":-71.0240383,"lat":48.431385600000006,"elevation":[]}]},{"startTime":1522684354000,"endTime":1522685524000,"departureDelay":0,"arrivalDelay":0,"realTime":false,"distance":7488.26561418809,"pathway":false,"mode":"BUS","route":"12","agencyName":"Société de Transport du Saguenay","agencyUrl":"http://ville.saguenay.ca/fr/services-aux-citoyens/transport-sts","agencyTimeZoneOffset":-14400000,"routeColor":"556B2F","routeType":3,"routeId":"1:12","routeTextColor":"FFFFFF","interlineWithPreviousLeg":false,"tripBlockId":"27","headsign":"Terminus UQAC","agencyId":"0","tripId":"1:218010","serviceDate":"20180402","from":{"name":"Arthur-Hamel / Bretagne","stopId":"1:1526","stopCode":"1526","lon":-71.023915,"lat":48.431403,"arrival":1522684353000,"departure":1522684354000,"zoneId":"NA","stopIndex":13,"stopSequence":14,"vertexType":"TRANSIT"},"to":{"name":"Cégep de Chicoutimi (voie réservée)","stopId":"1:75","stopCode":"75","lon":-71.055283,"lat":48.422761,"arrival":1522685524000,"departure":1522685525000,"zoneId":"NA","stopIndex":37,"stopSequence":38,"vertexType":"TRANSIT"},"legGeometry":{"points":"ggrfHnznpL_DeFf@iIvGsKlIrH`JlH`EfDnOdIdGlGjL|BzBiLv@}L`b@fNvVvrCdRvMcAjKcP~b@iHhDaGz@uSl[uCYmIeIeJ_J{J{JwCiT","length":25},"routeShortName":"12","routeLongName":"Rivière du Moulin","rentedBike":false,"transitLeg":true,"duration":1170.0,"steps":[]},{"startTime":1522685525000,"endTime":1522686098000,"departureDelay":0,"arrivalDelay":0,"realTime":false,"distance":711.3919999999998,"pathway":false,"mode":"WALK","route":"","agencyTimeZoneOffset":-14400000,"interlineWithPreviousLeg":false,"from":{"name":"Cégep de Chicoutimi (voie réservée)","stopId":"1:75","stopCode":"75","lon":-71.055283,"lat":48.422761,"arrival":1522685524000,"departure":1522685525000,"zoneId":"NA","stopIndex":37,"stopSequence":38,"vertexType":"TRANSIT"},"to":{"name":"Destination","lon":-71.056876,"lat":48.427726,"arrival":1522686098000,"orig":"","vertexType":"NORMAL"},"legGeometry":{"points":"mqpfHr~tpLGi@M@[DK@S?UCGAUGGCSIECOGwBKMAY`@_@hAa@jBC~ACvCiAAgBOuAIoCK_@?SBQDo@N]FOs@","length":30},"rentedBike":false,"transitLeg":false,"duration":573.0,"steps":[{"distance":16.607,"relativeDirection":"DEPART","streetName":"Chemin Saint Thomas","absoluteDirection":"EAST","stayOn":false,"area":false,"bogusName":false,"lon":-71.05529730066766,"lat":48.42279572871795,"elevation":[]},{"distance":167.118,"relativeDirection":"LEFT","streetName":"service road","absoluteDirection":"NORTH","stayOn":false,"area":false,"bogusName":true,"lon":-71.0550802,"lat":48.4228351,"elevation":[]},{"distance":195.33299999999997,"relativeDirection":"CONTINUE","streetName":"Rue Price Est","absoluteDirection":"NORTH","stayOn":false,"area":false,"bogusName":false,"lon":-71.0548701,"lat":48.424313700000006,"elevation":[]},{"distance":310.798,"relativeDirection":"RIGHT","streetName":"Rue Labrecque","absoluteDirection":"NORTH","stayOn":false,"area":false,"bogusName":false,"lon":-71.0571863,"lat":48.424884500000005,"elevation":[]},{"distance":21.536,"relativeDirection":"RIGHT","streetName":"Rue Racine Est","absoluteDirection":"NORTHEAST","stayOn":false,"area":false,"bogusName":false,"lon":-71.0571547,"lat":48.427663,"elevation":[]}]}],"tooSloped":false},{"duration":1234,"startTime":1522686455000,"endTime":1522687689000,"walkTime":371,"transitTime":861,"waitingTime":2,"walkDistance":479.4645939837493,"walkLimitExceeded":false,"elevationLost":0.0,"elevationGained":0.0,"transfers":0,"legs":[{"startTime":1522686455000,"endTime":1522686795000,"departureDelay":0,"arrivalDelay":0,"realTime":false,"distance":440.6839999999999,"pathway":false,"mode":"WALK","route":"","agencyTimeZoneOffset":-14400000,"interlineWithPreviousLeg":false,"from":{"name":"Origin","lon":-71.027468,"lat":48.432977,"departure":1522686455000,"orig":"","vertexType":"NORMAL"},"to":{"name":"nouveau","stopId":"1:2303","stopCode":"2303","lon":-71.02291,"lat":48.432276,"arrival":1522686795000,"departure":1522686796000,"zoneId":"NA","stopIndex":24,"stopSequence":25,"vertexType":"TRANSIT"},"legGeometry":{"points":"iprfHrqopL^w@nCqIlAiEf@wBIMsAyBkAeB","length":8},"rentedBike":false,"transitLeg":false,"duration":340.0,"steps":[{"distance":175.271,"relativeDirection":"DEPART","streetName":"Rue Renaud","absoluteDirection":"SOUTHEAST","stayOn":false,"area":false,"bogusName":false,"lon":-71.02761987620234,"lat":48.43285577805928,"elevation":[]},{"distance":135.93,"relativeDirection":"CONTINUE","streetName":"Rue Théodore-Côté","absoluteDirection":"SOUTHEAST","stayOn":false,"area":false,"bogusName":false,"lon":-71.0256483,"lat":48.4319792,"elevation":[]},{"distance":129.483,"relativeDirection":"LEFT","streetName":"Rue Arthur-Hamel","absoluteDirection":"NORTHEAST","stayOn":false,"area":false,"bogusName":false,"lon":-71.0240383,"lat":48.431385600000006,"elevation":[]}]},{"startTime":1522686796000,"endTime":1522687260000,"departureDelay":0,"arrivalDelay":0,"realTime":false,"distance":3308.741766648229,"pathway":false,"mode":"BUS","route":"12","agencyName":"Société de Transport du Saguenay","agencyUrl":"http://ville.saguenay.ca/fr/services-aux-citoyens/transport-sts","agencyTimeZoneOffset":-14400000,"routeColor":"556B2F","routeType":3,"routeId":"1:12","routeTextColor":"FFFFFF","interlineWithPreviousLeg":false,"tripBlockId":"26","headsign":"Terminus Chicoutimi","agencyId":"0","tripId":"1:217975","serviceDate":"20180402","from":{"name":"nouveau","stopId":"1:2303","stopCode":"2303","lon":-71.02291,"lat":48.432276,"arrival":1522686795000,"departure":1522686796000,"zoneId":"NA","stopIndex":24,"stopSequence":25,"vertexType":"TRANSIT"},"to":{"name":"Terminus Chicoutimi","stopId":"1:1289","stopCode":"1289","lon":-71.066163,"lat":48.428677,"arrival":1522687260000,"departure":1522687500000,"zoneId":"NA","stopIndex":33,"stopSequence":34,"vertexType":"TRANSIT"},"legGeometry":{"points":"qlrfH|snpLfM|O|FlHmB`IgA|Cy@`UYzHZvMR~Hr@~ZPvHsCrMFxf@|ApJj@nDDl]BvZdCXJhC","length":19},"routeShortName":"12","routeLongName":"Rivière du Moulin","rentedBike":false,"transitLeg":true,"duration":464.0,"steps":[]},{"startTime":1522687500000,"endTime":1522687657000,"departureDelay":0,"arrivalDelay":0,"realTime":false,"distance":669.0312154213282,"pathway":false,"mode":"BUS","route":"10","agencyName":"Société de Transport du Saguenay","agencyUrl":"http://ville.saguenay.ca/fr/services-aux-citoyens/transport-sts","agencyTimeZoneOffset":-14400000,"routeColor":"0000FF","routeType":3,"routeId":"1:10","routeTextColor":"FFFFFF","interlineWithPreviousLeg":true,"tripBlockId":"26","headsign":"Terminus UQAC","agencyId":"0","tripId":"1:217976","serviceDate":"20180402","from":{"name":"Terminus Chicoutimi","stopId":"1:1289","stopCode":"1289","lon":-71.066163,"lat":48.428677,"arrival":1522687260000,"departure":1522687500000,"zoneId":"NA","stopIndex":0,"stopSequence":1,"vertexType":"TRANSIT"},"to":{"name":"Racine / Labrecque","stopId":"1:515","stopCode":"515","lon":-71.057333,"lat":48.427512,"arrival":1522687657000,"departure":1522687658000,"zoneId":"NA","stopIndex":2,"stopSequence":3,"vertexType":"TRANSIT"},"legGeometry":{"points":"svqfHnbwpLDmCdDZ\\kO`@mQBuCD}DQ_E","length":8},"routeShortName":"10","routeLongName":"Notre-Dame du Saguenay","rentedBike":false,"transitLeg":true,"duration":157.0,"steps":[]},{"startTime":1522687658000,"endTime":1522687689000,"departureDelay":0,"arrivalDelay":0,"realTime":false,"distance":38.743,"pathway":false,"mode":"WALK","route":"","agencyTimeZoneOffset":-14400000,"interlineWithPreviousLeg":false,"from":{"name":"Racine / Labrecque","stopId":"1:515","stopCode":"515","lon":-71.057333,"lat":48.427512,"arrival":1522687657000,"departure":1522687658000,"zoneId":"NA","stopIndex":2,"stopSequence":3,"vertexType":"TRANSIT"},"to":{"name":"Destination","lon":-71.056876,"lat":48.427726,"arrival":1522687689000,"orig":"","vertexType":"NORMAL"},"legGeometry":{"points":"soqfHrkupLGk@Os@","length":3},"rentedBike":false,"transitLeg":false,"duration":31.0,"steps":[{"distance":38.743,"relativeDirection":"DEPART","streetName":"Rue Racine Est","absoluteDirection":"EAST","stayOn":false,"area":false,"bogusName":false,"lon":-71.05737919931526,"lat":48.42762116546726,"elevation":[]}]}],"tooSloped":false}]},"debugOutput":{"precalculationTime":25,"pathCalculationTime":17,"pathTimes":[9,6,2],"renderingTime":0,"totalTime":42,"timedOut":false},"elevationMetadata":{"ellipsoidToGeoidDifference":-28.885904201182168,"geoidElevation":false}}