{"requestParameters":{"date":"2018/04/02","walkSpeed":"1.33","walkReluctance":"2.0","fromPlace":"48.430443,-71.028793","maxWalkDistance":"3000","waitReluctance":"1.0","carSpeed":"33","numItineraries":"3","waitAtBeginningFactor":"0.4","mode":"TRANSIT,WALK","ignoreRealtimeUpdates":"false","stairsReluctance":"2.0","toPlace":"48.347447,-71.06438099","time":"8:0:00"},"plan":{"date":1522670400000,"from":{"name":"Origin","lon":-71.028793,"lat":48.430443,"orig":"","vertexType":"NORMAL"},"to":{"name":"Destination","lon":-71.06438099,"lat":48.347447,"orig":"","vertexType":"NORMAL"},"itineraries":[{"duration":4663,"startTime":1522681228000,"endTime":1522685891000,"walkTime":1300,"transitTime":2341,"waitingTime":1022,"walkDistance":1708.7542406000116,"walkLimitExceeded":false,"elevationLost":0.0,"elevationGained":0.0,"transfers":2,"legs":[{"startTime":1522681228000,"endTime":1522681524000,"departureDelay":0,"arrivalDelay":0,"realTime":false,"distance":384.43,"pathway":false,"mode":"WALK","route":"","agencyTimeZoneOffset":-14400000,"interlineWithPreviousLeg":false,"from":{"name":"Origin","lon":-71.028793,"lat":48.430443,"departure":1522681228000,"orig":"","vertexType":"NORMAL"},"to":{"name":"boul. Saguenay / Jacques Bacon","stopId":"1:1994","stopCode":"1994","lon":-71.033006,"lat":48.429934,"arrival":1522681524000,"departure":1522681525000,"zoneId":"NA","stopIndex":26,"stopSequence":27,"vertexType":"TRANSIT"},"legGeometry":{"points":"_brfHvyopLFNN\\fAJx@H\\PAb@Ax@AjBGdBEjBAd@IpDG~@ARAV","length":16},"rentedBike":false,"transitLeg":false,"duration":296.0,"steps":[{"distance":112.102,"relativeDirection":"DEPART","streetName":"Boulevard Renaud","absoluteDirection":"SOUTHWEST","stayOn":false,"area":false,"bogusName":false,"lon":-71.02891279966748,"lat":48.4305628538136,"elevation":[]},{"distance":272.32800000000003,"relativeDirection":"RIGHT","streetName":"Boulevard du Saguenay Est","absoluteDirection":"WEST","stayOn":false,"area":false,"bogusName":false,"lon":-71.02934660000001,"lat":48.4296457,"elevation":[]}]},{"startTime":1522681525000,"endTime":1522681860000,"departureDelay":0,"arrivalDelay":0,"realTime":false,"distance":2467.0693783784,"pathway":false,"mode":"BUS","route":"12","agencyName":"Société de Transport du Saguenay","agencyUrl":"http://ville.saguenay.ca/fr/services-aux-citoyens/transport-sts","agencyTimeZoneOffset":-14400000,"routeColor":"556B2F","routeType":3,"routeId":"1:12","routeTextColor":"FFFFFF","interlineWithPreviousLeg":false,"tripBlockId":"29","headsign":"Terminus Chicoutimi","agencyId":"0","tripId":"1:218060","serviceDate":"20180402","from":{"name":"boul. Saguenay / Jacques Bacon","stopId":"1:1994","stopCode":"1994","lon":-71.033006,"lat":48.429934,"arrival":1522681524000,"departure":1522681525000,"zoneId":"NA","stopIndex":26,"stopSequence":27,"vertexType":"TRANSIT"},"to":{"name":"Terminus Chicoutimi","stopId":"1:1289","stopCode":"1289","lon":-71.066163,"lat":48.428677,"arrival":1522681860000,"departure":1522682100000,"zoneId":"NA","stopIndex":33,"stopSequence":34,"vertexType":"TRANSIT"},"legGeometry":{"points":"{}qfHjsppLYzHZvMR~Hr@~ZPvHsCrMFxf@|ApJj@nDDl]BvZdCXJhC","length":14},"routeShortName":"12","routeLongName":"Rivière du Moulin","rentedBike":false,"transitLeg":true,"duration":335.0,"steps":[]},{"startTime":1522682100000,"endTime":1522683720000,"departureDelay":0,"arrivalDelay":0,"realTime":false,"distance":8366.485513672267,"pathway":false,"mode":"BUS","route":"175","agencyName":"Société de Transport du Saguenay","agencyUrl":"http://ville.saguenay.ca/fr/services-aux-citoyens/transport-sts","agencyTimeZoneOffset":-14400000,"routeColor":"FF00FF","routeType":3,"routeId":"1:175","routeTextColor":"FFFFFF","interlineWithPreviousLeg":false,"tripBlockId":"6","headsign":"Costco","agencyId":"0","tripId":"1:217294","serviceDate":"20180402","from":{"name":"Terminus Chicoutimi","stopId":"1:1289","stopCode":"1289","lon":-71.066163,"lat":48.428677,"arrival":1522681860000,"departure":1522682100000,"zoneId":"NA","stopIndex":0,"stopSequence":1,"vertexType":"TRANSIT"},"to":{"name":"COSTCO","stopId":"1:1710","stopCode":"1710","lon":-71.085767,"lat":48.382333,"arrival":1522683720000,"departure":1522684500000,"zoneId":"NA","stopIndex":30,"stopSequence":31,"vertexType":"TRANSIT"},"legGeometry":{"points":"kvqfH~awpL~CgBbAqa@FwCBkAOsHAg@bAYUwMKoE@mB@kJ@iFbEf@xEj@iCtYp@r@z@`ABBvHtHXRx@l@VwAvAgB\\qBIuAC]g@yEzDuLbBbBvAxAMx@|@v@`A~@Xw@~D~DPxFZtA~ApE`N{LpFmEb@[ROl@[vDQXKfA[|@q@fAsBlEmMr@sBhCsKz@dAjB|@dM`GzCvAXrCr@~Gx@]PEr@ObACn@FrBb@|@Ch@Kx@U~HsB^KZ|DJpII~Fa@rFUzBi@bDUxAm@nCcAlDM^RTfD`DjF`FjCrCrAvAbCfDjIfMdAzAfFpHd@n@nC`DlXv[b@f@mCtHv@v@p@r@_@p@uAcBjDoJhAzApBrBrFvGjDdEbD|DZb@~DrEbDfDrA~ApLbNpG|GyCtHwBcC","length":111},"routeShortName":"175","routeLongName":"Term. Chic / Costco","rentedBike":false,"transitLeg":true,"duration":1620.0,"steps":[]},{"startTime":1522684500000,"endTime":1522684886000,"departureDelay":0,"arrivalDelay":0,"realTime":false,"distance":3614.6795621834012,"pathway":false,"mode":"BUS","route":"62","agencyName":"Société de Transport du Saguenay","agencyUrl":"http://ville.saguenay.ca/fr/services-aux-citoyens/transport-sts","agencyTimeZoneOffset":-14400000,"routeColor":"00FFFF","routeType":3,"routeId":"1:62","routeTextColor":"000000","interlineWithPreviousLeg":false,"tripBlockId":"73","headsign":"Costco","agencyId":"0","tripId":"1:218619","serviceDate":"20180402","from":{"name":"COSTCO","stopId":"1:1710","stopCode":"1710","lon":-71.085767,"lat":48.382333,"arrival":1522683720000,"departure":1522684500000,"zoneId":"NA","stopIndex":0,"stopSequence":1,"vertexType":"TRANSIT"},"to":{"name":"boul. Royaume / ch. de l'Église","stopId":"1:1712","stopCode":"1712","lon":-71.055658,"lat":48.35698,"arrival":1522684886000,"departure":1522684887000,"zoneId":"NA","stopIndex":3,"stopSequence":4,"vertexType":"TRANSIT"},"legGeometry":{"points":"uthfHh}zpLUYyAcBs@`BjChDJn@Nr@`@x@PNlFwMHWbFmMBc@~d@skANe@Jk@H_AD_ABuADs@Hk@Lc@N_@X_@ZYbAq@pA]hDuA~UqLAEjJ_EjRiIrJeEdCmAbAs@rAkAbCyC|@cB|@sBpEkN","length":40},"routeShortName":"62","routeLongName":"Portage des Roches Sud","rentedBike":false,"transitLeg":true,"duration":386.0,"steps":[]},{"startTime":1522684887000,"endTime":1522685891000,"departureDelay":0,"arrivalDelay":0,"realTime":false,"distance":1324.2780000000002,"pathway":false,"mode":"WALK","route":"","agencyTimeZoneOffset":-14400000,"interlineWithPreviousLeg":false,"from":{"name":"boul. Royaume / ch. de l'Église","stopId":"1:1712","stopCode":"1712","lon":-71.055658,"lat":48.35698,"arrival":1522684886000,"departure":1522684887000,"zoneId":"NA","stopIndex":3,"stopSequence":4,"vertexType":"TRANSIT"},"to":{"name":"Destination","lon":-71.06438099,"lat":48.347447,"arrival":1522685891000,"orig":"","vertexType":"NORMAL"},"legGeometry":{"points":"kvcfHr`upLRo@n@yBb@Nb@VxBtBpGjGpF|FrJfKlKdLnJjL","length":11},"rentedBike":false,"transitLeg":false,"duration":1004.0,"steps":[{"distance":73.274,"relativeDirection":"DEPART","streetName":"R 170","absoluteDirection":"SOUTHEAST","stayOn":false,"area":false,"bogusName":false,"lon":-71.05561400042461,"lat":48.357027903870105,"elevation":[]},{"distance":1251.004,"relativeDirection":"RIGHT","streetName":"Chemin de l'Église","absoluteDirection":"SOUTH","stayOn":false,"area":false,"bogusName":false,"lon":-71.05476750000001,"lat":48.3566846,"elevation":[]}]}],"tooSloped":false},{"duration":4362,"startTime":1522682376000,"endTime":1522686738000,"walkTime":1164,"transitTime":2519,"waitingTime":679,"walkDistance":1531.9472330813119,"walkLimitExceeded":false,"elevationLost":0.0,"elevationGained":0.0,"transfers":2,"legs":[{"startTime":1522682376000,"endTime":1522682472000,"departureDelay":0,"arrivalDelay":0,"realTime":false,"distance":125.24600000000001,"pathway":false,"mode":"WALK","route":"","agencyTimeZoneOffset":-14400000,"interlineWithPreviousLeg":false,"from":{"name":"Origin","lon":-71.028793,"lat":48.430443,"departure":1522682376000,"orig":"","vertexType":"NORMAL"},"to":{"name":"Saguenay / Renaud","stopId":"1:1919","stopCode":"1919","lon":-71.02953,"lat":48.429578,"arrival":1522682472000,"departure":1522682473000,"zoneId":"NA","stopIndex":10,"stopSequence":11,"vertexType":"TRANSIT"},"legGeometry":{"points":"_brfHvyopLFNN\\fAJx@H\\PAb@","length":7},"rentedBike":false,"transitLeg":false,"duration":96.0,"steps":[{"distance":112.102,"relativeDirection":"DEPART","streetName":"Boulevard Renaud","absoluteDirection":"SOUTHWEST","stayOn":false,"area":false,"bogusName":false,"lon":-71.02891279966748,"lat":48.4305628538136,"elevation":[]},{"distance":13.144,"relativeDirection":"RIGHT","streetName":"Boulevard du Saguenay Est","absoluteDirection":"WEST","stayOn":false,"area":false,"bogusName":false,"lon":-71.02934660000001,"lat":48.4296457,"elevation":[]}]},{"startTime":1522682473000,"endTime":1522683083000,"departureDelay":0,"arrivalDelay":0,"realTime":false,"distance":3306.203330167864,"pathway":false,"mode":"BUS","route":"12","agencyName":"Société de Transport du Saguenay","agencyUrl":"http://ville.saguenay.ca/fr/services-aux-citoyens/transport-sts","agencyTimeZoneOffset":-14400000,"routeColor":"556B2F","routeType":3,"routeId":"1:12","routeTextColor":"FFFFFF","interlineWithPreviousLeg":false,"tripBlockId":"28","headsign":"Terminus UQAC","agencyId":"0","tripId":"1:218035","serviceDate":"20180402","from":{"name":"Saguenay / Renaud","stopId":"1:1919","stopCode":"1919","lon":-71.02953,"lat":48.429578,"arrival":1522682472000,"departure":1522682473000,"zoneId":"NA","stopIndex":10,"stopSequence":11,"vertexType":"TRANSIT"},"to":{"name":"nouveau","stopId":"1:2297","stopCode":"2297","lon":-71.02468,"lat":48.413593,"arrival":1522683083000,"departure":1522683083000,"zoneId":"NA","stopIndex":25,"stopSequence":26,"vertexType":"TRANSIT"},"legGeometry":{"points":"y{qfHp}opLnCyHkGuLqFqJ_DeFf@iIvGsKlIrH`JlH`EfDnOdIdGlGjL|BzBiLv@}L`b@fN","length":16},"routeShortName":"12","routeLongName":"Rivière du Moulin","rentedBike":false,"transitLeg":true,"duration":610.0,"steps":[]},{"startTime":1522683083000,"endTime":1522683163000,"departureDelay":0,"arrivalDelay":0,"realTime":false,"distance":103.461,"pathway":false,"mode":"WALK","route":"","agencyTimeZoneOffset":-14400000,"interlineWithPreviousLeg":false,"from":{"name":"nouveau","stopId":"1:2297","stopCode":"2297","lon":-71.02468,"lat":48.413593,"arrival":1522683083000,"departure":1522683083000,"zoneId":"NA","stopIndex":25,"stopSequence":26,"vertexType":"TRANSIT"},"to":{"name":"boul. St-Jean-Baptiste / boul. Université","stopId":"1:196","stopCode":"196","lon":-71.024224,"lat":48.412686,"arrival":1522683163000,"departure":1522683660000,"zoneId":"NA","stopIndex":4,"stopSequence":5,"vertexType":"TRANSIT"},"legGeometry":{"points":"axnfHb~npLTEp@KfBeA","length":4},"rentedBike":false,"transitLeg":false,"duration":80.0,"steps":[{"distance":40.223,"relativeDirection":"DEPART","streetName":"Boulevard du Saguenay Est","absoluteDirection":"SOUTH","stayOn":false,"area":false,"bogusName":false,"lon":-71.02449091813529,"lat":48.41361228978169,"elevation":[]},{"distance":63.238,"relativeDirection":"CONTINUE","streetName":"Boulevard Saint-Jean-Baptiste","absoluteDirection":"SOUTHEAST","stayOn":false,"area":false,"bogusName":false,"lon":-71.0244078,"lat":48.413254800000004,"elevation":[]}]},{"startTime":1522683660000,"endTime":1522684620000,"departureDelay":0,"arrivalDelay":0,"realTime":false,"distance":13650.399686805844,"pathway":false,"mode":"BUS","route":"5","agencyName":"Société de Transport du Saguenay","agencyUrl":"http://ville.saguenay.ca/fr/services-aux-citoyens/transport-sts","agencyTimeZoneOffset":-14400000,"routeColor":"FF0000","routeType":3,"routeId":"1:5","routeTextColor":"FFFFFF","interlineWithPreviousLeg":false,"tripBlockId":"25","headsign":"Terminus La Baie","agencyId":"0","tripId":"1:217937","serviceDate":"20180402","from":{"name":"boul. St-Jean-Baptiste / boul. Université","stopId":"1:196","stopCode":"196","lon":-71.024224,"lat":48.412686,"arrival":1522683163000,"departure":1522683660000,"zoneId":"NA","stopIndex":4,"stopSequence":5,"vertexType":"TRANSIT"},"to":{"name":"Terminus la Baie","stopId":"1:1288","stopCode":"1288","lon":-70.879567,"lat":48.337207,"arrival":1522684620000,"departure":1522684800000,"zoneId":"NA","stopIndex":42,"stopSequence":43,"vertexType":"TRANSIT"},"legGeometry":{"points":"qrnfHr{npLZUdDeD|IoJp@u@l@_Ah@{@f@{@DMp@uAt@iBnAgDrQme@lKwXnGoPlAaDjAsD~@aENy@jCeO\\{ANi@l@cBt@aBr@kAdAuAlEsFrAuBJO`B}CdAmCtEeMtEaMhCeHhJ}VjH}RpBqFxJaXhA{CfAkCdCqG|HcSjJeVhOe`@xI_UvNc_@~HkSbJqU~HkS~Mq]|JgWbKyWrNw^zJeWfPcb@d@yAxBiHnCmJtEiPJYjA}DpAyDj@sA@CnAcClQsYzKqQfAoBx@_B~KqWtEsKzLcY|DcJ\\m@^g@b@a@d@YxDyA`FgB~JmDuAcLI]","length":82},"routeShortName":"5","routeLongName":"Term. Chic/Term. Baie via St-J.Batiste","rentedBike":false,"transitLeg":true,"duration":960.0,"steps":[]},{"startTime":1522684800000,"endTime":1522685749000,"departureDelay":0,"arrivalDelay":0,"realTime":false,"distance":14112.465796879962,"pathway":false,"mode":"BUS","route":"20S","agencyName":"Société de Transport du Saguenay","agencyUrl":"http://ville.saguenay.ca/fr/services-aux-citoyens/transport-sts","agencyTimeZoneOffset":-14400000,"routeColor":"8B0000","routeType":3,"routeId":"1:20S","routeTextColor":"FFFFFF","interlineWithPreviousLeg":false,"tripBlockId":"105","headsign":"Cégep Jonq (Fabrique)","agencyId":"0","tripId":"1:218813","serviceDate":"20180402","from":{"name":"Terminus la Baie","stopId":"1:1288","stopCode":"1288","lon":-70.879567,"lat":48.337207,"arrival":1522684620000,"departure":1522684800000,"zoneId":"NA","stopIndex":0,"stopSequence":1,"vertexType":"TRANSIT"},"to":{"name":"boul. Royaume / ch. de l'Église","stopId":"1:1750","stopCode":"1750","lon":-71.055287,"lat":48.35702,"arrival":1522685749000,"departure":1522685750000,"zoneId":"NA","stopIndex":23,"stopSequence":24,"vertexType":"TRANSIT"},"legGeometry":{"points":"u{_fHburoL]gBEKEIEGGEgCaAICM?}Ad@fBpOtAtLpC~UH^^fBv@fEn@pDBNXtBd@fEBTnAvL\\`Ft@dLb@zIz@`Rd@~J@VF|@ZrDvBdPZbCvFl`@XxANbAFdBtEl]L`ANdBJrCBhB?lBElBGhAIjAMrAS~AaBfKOvAOvAEpA?\\Ah@?p@@n@Dp@Dv@Ft@RnAP~@Tz@tK`^h@dBz@~CZrAl@xCXbBP|@j@~EzAvOdBfQh@fGTbEJfEChE?`@KtGIpBShDIrAg@|Fq@dGi@rCe@`B]lAu@~Ba@fA_@~@eW`l@cP|^uBzE}AzEg@tCe@hDk@`JcAtSU|CQbCIx@UvB]bCm@rDoAxFi@rByBrGSj@uRxh@eD|IUv@Qr@YjBI`AI~@C~@CpA?xADtArAbQ`BnThCz\\V|HCBCBCDABCDAFAD?DAF?D?F?F?D@D?F@D@D@DBD@BBBBBBBBBB@B@B@D?B@z@lHjAzOH`BB`CEnBQzBa@jCc@~AcXbs@}@nCkcAt_D","length":161},"routeShortName":"20S","routeLongName":"Term. Baie <--> Cegep Jonq","rentedBike":false,"transitLeg":true,"duration":949.0,"steps":[]},{"startTime":1522685750000,"endTime":1522686738000,"departureDelay":0,"arrivalDelay":0,"realTime":false,"distance":1303.1970000000001,"pathway":false,"mode":"WALK","route":"","agencyTimeZoneOffset":-14400000,"interlineWithPreviousLeg":false,"from":{"name":"boul. Royaume / ch. de l'Église","stopId":"1:1750","stopCode":"1750","lon":-71.055287,"lat":48.35702,"arrival":1522685749000,"departure":1522685750000,"zoneId":"NA","stopIndex":23,"stopSequence":24,"vertexType":"TRANSIT"},"to":{"name":"Destination","lon":-71.06438099,"lat":48.347447,"arrival":1522686738000,"orig":"","vertexType":"NORMAL"},"legGeometry":{"points":"wucfHb_upLn@yBb@Nb@VxBtBpGjGpF|FrJfKlKdLnJjL","length":10},"rentedBike":false,"transitLeg":false,"duration":988.0,"steps":[{"distance":52.193,"relativeDirection":"DEPART","streetName":"R 170","absoluteDirection":"SOUTHEAST","stayOn":false,"area":false,"bogusName":false,"lon":-71.05537045993363,"lat":48.356929134406265,"elevation":[]},{"distance":1251.004,"relativeDirection":"RIGHT","streetName":"Chemin de l'Église","absoluteDirection":"SOUTH","stayOn":false,"area":false,"bogusName":false,"lon":-71.05476750000001,"lat":48.3566846,"elevation":[]}]}],"tooSloped":false},{"duration":4600,"startTime":1522694791000,"endTime":1522699391000,"walkTime":3012,"transitTime":1586,"waitingTime":2,"walkDistance":3952.5868270618357,"walkLimitExceeded":false,"elevationLost":0.0,"elevationGained":0.0,"transfers":0,"legs":[{"startTime":1522694791000,"endTime":1522696799000,"departureDelay":0,"arrivalDelay":0,"realTime":false,"distance":2628.128,"pathway":false,"mode":"WALK","route":"","agencyTimeZoneOffset":-14400000,"interlineWithPreviousLeg":false,"from":{"name":"Origin","lon":-71.028793,"lat":48.430443,"departure":1522694791000,"orig":"","vertexType":"NORMAL"},"to":{"name":"Séminaire de Chicoutimi (Chabanel)","stopId":"1:1902","stopCode":"1902","lon":-71.037893,"lat":48.41769,"arrival":1522696799000,"departure":1522696800000,"zoneId":"NA","stopIndex":0,"stopSequence":1,"vertexType":"TRANSIT"},"legGeometry":{"points":"_brfHvyopLFNN\\fAJx@H\\PAb@Ax@AjBGdBEjBAd@IpDG~@ARAV?@MfCAXARPJHRJDNJHJJb@XHx@Of@UDERUhFiGzByBlAiAbCsApBiADb@\\@t@Wz@GfAn@|@X`@HX?Zg@f@e@`@Yz@e@t@Bz@Fl@Tf@`@b@Rx@?x@o@v@Yb@s@j@O^?`@DPOh@Mb@Uf@@\\Hx@Gz@NhBdAf@Rt@VRTZZX\\^ZXXNl@Zx@IES@K^E\\ALEtAEdACl@Ar@En@Ab@TB^HPLFJJVIb@I\\E\\iCfLLBNTUv@Ur@IV","length":102},"alerts":[{"alertHeaderText":"Unpaved surface"}],"rentedBike":false,"transitLeg":false,"duration":2008.0,"steps":[{"distance":112.102,"relativeDirection":"DEPART","streetName":"Boulevard Renaud","absoluteDirection":"SOUTHWEST","stayOn":false,"area":false,"bogusName":false,"lon":-71.02891279966748,"lat":48.4305628538136,"elevation":[]},{"distance":341.413,"relativeDirection":"RIGHT","streetName":"Boulevard du Saguenay Est","absoluteDirection":"WEST","stayOn":false,"area":false,"bogusName":false,"lon":-71.02934660000001,"lat":48.4296457,"elevation":[]},{"distance":74.254,"relativeDirection":"LEFT","streetName":"bike path","absoluteDirection":"SOUTH","stayOn":false,"area":false,"bogusName":true,"lon":-71.0339462,"lat":48.4299589,"elevation":[]},{"distance":520.008,"relativeDirection":"SLIGHTLY_LEFT","streetName":"Rue Jean-Langevin","absoluteDirection":"SOUTH","stayOn":false,"area":false,"bogusName":false,"lon":-71.03448470000001,"lat":48.429436800000005,"elevation":[]},{"distance":1502.734,"relativeDirection":"RIGHT","streetName":"path","absoluteDirection":"WEST","stayOn":false,"area":false,"bogusName":true,"lon":-71.0310539,"lat":48.425402600000005,"elevation":[],"alerts":[{"alertHeaderText":"Unpaved surface"}]},{"distance":77.617,"relativeDirection":"LEFT","streetName":"service road","absoluteDirection":"SOUTHWEST","stayOn":true,"area":false,"bogusName":true,"lon":-71.0371221,"lat":48.417542700000006,"elevation":[]}]},{"startTime":1522696800000,"endTime":1522697700000,"departureDelay":0,"arrivalDelay":0,"realTime":false,"distance":5394.512289133134,"pathway":false,"mode":"BUS","route":"208S","agencyName":"Société de Transport du Saguenay","agencyUrl":"http://ville.saguenay.ca/fr/services-aux-citoyens/transport-sts","agencyTimeZoneOffset":-14400000,"routeColor":"8B0000","routeType":3,"routeId":"1:208S","routeTextColor":"FFFFFF","interlineWithPreviousLeg":false,"tripBlockId":"107","headsign":"Costco","agencyId":"0","tripId":"1:218820","serviceDate":"20180402","from":{"name":"Séminaire de Chicoutimi (Chabanel)","stopId":"1:1902","stopCode":"1902","lon":-71.037893,"lat":48.41769,"arrival":1522696799000,"departure":1522696800000,"zoneId":"NA","stopIndex":0,"stopSequence":1,"vertexType":"TRANSIT"},"to":{"name":"COSTCO","stopId":"1:1710","stopCode":"1710","lon":-71.085767,"lat":48.382333,"arrival":1522697700000,"departure":1522698000000,"zoneId":"NA","stopIndex":10,"stopSequence":11,"vertexType":"TRANSIT"},"legGeometry":{"points":"crofHhqqpLSn@SBKG[e@IBmAjBxAzAx@x@}JpZGLMb@|CfBhAn@nCtBrAjAbj@xk@nCjCLJ`j@lg@RTfD`DjF`FjCrCrAvAbCfDjIfMdAzAfFpHd@n@nC`DlXv[j@n@dEfErFvGjDdEbD|DZb@~DrEbDfDrA~AhD~DfGbHpG|GyCtHwBcC","length":46},"routeShortName":"208S","routeLongName":"Séminaire - Laterrière","rentedBike":false,"transitLeg":true,"duration":900.0,"steps":[]},{"startTime":1522698000000,"endTime":1522698386000,"departureDelay":0,"arrivalDelay":0,"realTime":false,"distance":3614.6795621834012,"pathway":false,"mode":"BUS","route":"62","agencyName":"Société de Transport du Saguenay","agencyUrl":"http://ville.saguenay.ca/fr/services-aux-citoyens/transport-sts","agencyTimeZoneOffset":-14400000,"routeColor":"00FFFF","routeType":3,"routeId":"1:62","routeTextColor":"000000","interlineWithPreviousLeg":true,"tripBlockId":"107","headsign":"Barrage Port. Roches","agencyId":"0","tripId":"1:218821","serviceDate":"20180402","from":{"name":"COSTCO","stopId":"1:1710","stopCode":"1710","lon":-71.085767,"lat":48.382333,"arrival":1522697700000,"departure":1522698000000,"zoneId":"NA","stopIndex":0,"stopSequence":1,"vertexType":"TRANSIT"},"to":{"name":"boul. Royaume / ch. de l'Église","stopId":"1:1712","stopCode":"1712","lon":-71.055658,"lat":48.35698,"arrival":1522698386000,"departure":1522698387000,"zoneId":"NA","stopIndex":3,"stopSequence":4,"vertexType":"TRANSIT"},"legGeometry":{"points":"uthfHh}zpLoB}Bs@`BjChDZbB`@x@PNlFwMHWbFmMBc@~d@skANe@Jk@H_AD_ABuADs@Hk@Lc@N_@X_@ZYbAq@pA]hDuA~UqLAEjJ_EjRiIrJeEdCmAbAs@rAkAbCyC|@cB|@sBpEkN","length":38},"routeShortName":"62","routeLongName":"Portage des Roches Sud","rentedBike":false,"transitLeg":true,"duration":386.0,"steps":[]},{"startTime":1522698387000,"endTime":1522699391000,"departureDelay":0,"arrivalDelay":0,"realTime":false,"distance":1324.2780000000002,"pathway":false,"mode":"WALK","route":"","agencyTimeZoneOffset":-14400000,"interlineWithPreviousLeg":false,"from":{"name":"boul. Royaume / ch. de l'Église","stopId":"1:1712","stopCode":"1712","lon":-71.055658,"lat":48.35698,"arrival":1522698386000,"departure":1522698387000,"zoneId":"NA","stopIndex":3,"stopSequence":4,"vertexType":"TRANSIT"},"to":{"name":"Destination","lon":-71.06438099,"lat":48.347447,"arrival":1522699391000,"orig":"","vertexType":"NORMAL"},"legGeometry":{"points":"kvcfHr`upLRo@n@yBb@Nb@VxBtBpGjGpF|FrJfKlKdLnJjL","length":11},"rentedBike":false,"transitLeg":false,"duration":1004.0,"steps":[{"distance":73.274,"relativeDirection":"DEPART","streetName":"R 170","absoluteDirection":"SOUTHEAST","stayOn":false,"area":false,"bogusName":false,"lon":-71.05561400042461,"lat":48.357027903870105,"elevation":[]},{"distance":1251.004,"relativeDirection":"RIGHT","streetName":"Chemin de l'Église","absoluteDirection":"SOUTH","stayOn":false,"area":false,"bogusName":false,"lon":-71.05476750000001,"lat":48.3566846,"elevation":[]}]}],"tooSloped":false}]},"debugOutput":{"precalculationTime":7,"pathCalculationTime":82,"pathTimes":[34,25,23],"renderingTime":0,"totalTime":89,"timedOut":false},"elevationMetadata":{"ellipsoidToGeoidDifference":-28.885904201182168,"geoidElevation":false}}