{"requestParameters":{"date":"2018/04/02","walkSpeed":"1.33","walkReluctance":"2.0","fromPlace":"48.405991,-71.058711","maxWalkDistance":"3000","waitReluctance":"1.0","carSpeed":"33","numItineraries":"3","waitAtBeginningFactor":"0.4","mode":"TRANSIT,WALK","ignoreRealtimeUpdates":"false","stairsReluctance":"2.0","toPlace":"48.428117,-71.03121","time":"10:0:00"},"plan":{"date":1522677600000,"from":{"name":"Origin","lon":-71.058711,"lat":48.405991,"orig":"","vertexType":"NORMAL"},"to":{"name":"Destination","lon":-71.03121,"lat":48.428117,"orig":"","vertexType":"NORMAL"},"itineraries":[{"duration":1551,"startTime":1522678396000,"endTime":1522679947000,"walkTime":523,"transitTime":1026,"waitingTime":2,"walkDistance":667.8953233040978,"walkLimitExceeded":false,"elevationLost":0.0,"elevationGained":0.0,"transfers":0,"legs":[{"startTime":1522678396000,"endTime":1522678698000,"departureDelay":0,"arrivalDelay":0,"realTime":false,"distance":383.134,"pathway":false,"mode":"WALK","route":"","agencyTimeZoneOffset":-14400000,"interlineWithPreviousLeg":false,"from":{"name":"Origin","lon":-71.058711,"lat":48.405991,"departure":1522678396000,"orig":"","vertexType":"NORMAL"},"to":{"name":"Place du Saguenay (Champs-Élysées)","stopId":"1:571","stopCode":"571","lon":-71.055824,"lat":48.408307,"arrival":1522678698000,"departure":1522678699000,"zoneId":"NA","stopIndex":12,"stopSequence":13,"vertexType":"TRANSIT"},"legGeometry":{"points":"igmfHbqupLy@s@EH]B_@Ws@o@Ms@i@i@kAoA]UCAi@[gAe@u@a@]]\\}@","length":16},"rentedBike":false,"transitLeg":false,"duration":302.0,"steps":[{"distance":354.603,"relativeDirection":"DEPART","streetName":"parking aisle","absoluteDirection":"NORTHEAST","stayOn":false,"area":false,"bogusName":false,"lon":-71.05825112020366,"lat":48.40581355272311,"elevation":[]},{"distance":28.531,"relativeDirection":"RIGHT","streetName":"Rue des Champs-Élysées","absoluteDirection":"SOUTHEAST","stayOn":false,"area":false,"bogusName":false,"lon":-71.0560683,"lat":48.4085206,"elevation":[]}]},{"startTime":1522678699000,"endTime":1522679725000,"departureDelay":0,"arrivalDelay":0,"realTime":false,"distance":6025.832976192403,"pathway":false,"mode":"BUS","route":"12","agencyName":"Société de Transport du Saguenay","agencyUrl":"http://ville.saguenay.ca/fr/services-aux-citoyens/transport-sts","agencyTimeZoneOffset":-14400000,"routeColor":"556B2F","routeType":3,"routeId":"1:12","routeTextColor":"FFFFFF","interlineWithPreviousLeg":false,"tripBlockId":"26","headsign":"Terminus Chicoutimi","agencyId":"0","tripId":"1:217971","serviceDate":"20180402","from":{"name":"Place du Saguenay (Champs-Élysées)","stopId":"1:571","stopCode":"571","lon":-71.055824,"lat":48.408307,"arrival":1522678698000,"departure":1522678699000,"zoneId":"NA","stopIndex":12,"stopSequence":13,"vertexType":"TRANSIT"},"to":{"name":"boul. Saguenay / Jacques Bacon","stopId":"1:1994","stopCode":"1994","lon":-71.033006,"lat":48.429934,"arrival":1522679725000,"departure":1522679726000,"zoneId":"NA","stopIndex":26,"stopSequence":27,"vertexType":"TRANSIT"},"legGeometry":{"points":"{vmfH|aupLxFoNlCyGa@yFYkD}CyA}KmFgD_BgAgBn@kFD_NoIgrAmD_WcAaLaDHoDJi`@wVoAbDbA|AnBU|B|AfBlAyLtKoGxFcFqDkJaHgEoDmDwC_TqQsBeB{HjWfAvAfM|O|FlHmB`IgA|Cy@`U","length":37},"routeShortName":"12","routeLongName":"Rivière du Moulin","rentedBike":false,"transitLeg":true,"duration":1026.0,"steps":[]},{"startTime":1522679726000,"endTime":1522679947000,"departureDelay":0,"arrivalDelay":0,"realTime":false,"distance":284.632,"pathway":false,"mode":"WALK","route":"","agencyTimeZoneOffset":-14400000,"interlineWithPreviousLeg":false,"from":{"name":"boul. Saguenay / Jacques Bacon","stopId":"1:1994","stopCode":"1994","lon":-71.033006,"lat":48.429934,"arrival":1522679725000,"departure":1522679726000,"zoneId":"NA","stopIndex":26,"stopSequence":27,"vertexType":"TRANSIT"},"to":{"name":"Destination","lon":-71.03121,"lat":48.428117,"arrival":1522679947000,"orig":"","vertexType":"NORMAL"},"legGeometry":{"points":"s}qfHlsppL@W@SF_AbA^^Fh@J\\GN[TeAFYPu@b@gAP_@Zk@","length":15},"rentedBike":false,"transitLeg":false,"duration":221.0,"steps":[{"distance":39.789,"relativeDirection":"DEPART","streetName":"Boulevard du Saguenay Est","absoluteDirection":"EAST","stayOn":false,"area":false,"bogusName":false,"lon":-71.03302061539898,"lat":48.42986493857392,"elevation":[]},{"distance":244.843,"relativeDirection":"RIGHT","streetName":"Rue Saint-Thimothée","absoluteDirection":"SOUTH","stayOn":false,"area":false,"bogusName":false,"lon":-71.032488,"lat":48.4298091,"elevation":[]}]}],"tooSloped":false},{"duration":1947,"startTime":1522678908000,"endTime":1522680855000,"walkTime":405,"transitTime":1240,"waitingTime":302,"walkDistance":503.6363082650845,"walkLimitExceeded":false,"elevationLost":0.0,"elevationGained":0.0,"transfers":1,"legs":[{"startTime":1522678908000,"endTime":1522679099000,"departureDelay":0,"arrivalDelay":0,"realTime":false,"distance":227.20499999999998,"pathway":false,"mode":"WALK","route":"","agencyTimeZoneOffset":-14400000,"interlineWithPreviousLeg":false,"from":{"name":"Origin","lon":-71.058711,"lat":48.405991,"departure":1522678908000,"orig":"","vertexType":"NORMAL"},"to":{"name":"Place Royaume","stopId":"1:1801","stopCode":"1801","lon":-71.057017,"lat":48.405588,"arrival":1522679099000,"departure":1522679100000,"zoneId":"NA","stopIndex":10,"stopSequence":11,"vertexType":"TRANSIT"},"legGeometry":{"points":"igmfHbqupLy@s@FO\\eAJ]HWH[DKn@}BZXa@zA","length":11},"rentedBike":false,"transitLeg":false,"duration":191.0,"steps":[{"distance":99.49199999999999,"relativeDirection":"DEPART","streetName":"parking aisle","absoluteDirection":"NORTHEAST","stayOn":false,"area":false,"bogusName":false,"lon":-71.05825112020366,"lat":48.40581355272311,"elevation":[]},{"distance":71.053,"relativeDirection":"CONTINUE","streetName":"service road","absoluteDirection":"SOUTHEAST","stayOn":false,"area":false,"bogusName":true,"lon":-71.05729810000001,"lat":48.4058038,"elevation":[]},{"distance":56.66,"relativeDirection":"RIGHT","streetName":"parking aisle","absoluteDirection":"SOUTHWEST","stayOn":true,"area":false,"bogusName":true,"lon":-71.0564657,"lat":48.405483000000004,"elevation":[]}]},{"startTime":1522679100000,"endTime":1522680000000,"departureDelay":0,"arrivalDelay":0,"realTime":false,"distance":4188.036446582453,"pathway":false,"mode":"BUS","route":"175","agencyName":"Société de Transport du Saguenay","agencyUrl":"http://ville.saguenay.ca/fr/services-aux-citoyens/transport-sts","agencyTimeZoneOffset":-14400000,"routeColor":"FF00FF","routeType":3,"routeId":"1:175","routeTextColor":"FFFFFF","interlineWithPreviousLeg":false,"tripBlockId":"9","headsign":"Terminus Chicoutimi","agencyId":"0","tripId":"1:217399","serviceDate":"20180402","from":{"name":"Place Royaume","stopId":"1:1801","stopCode":"1801","lon":-71.057017,"lat":48.405588,"arrival":1522679099000,"departure":1522679100000,"zoneId":"NA","stopIndex":10,"stopSequence":11,"vertexType":"TRANSIT"},"to":{"name":"Terminus Chicoutimi","stopId":"1:1289","stopCode":"1289","lon":-71.066163,"lat":48.428677,"arrival":1522680000000,"departure":1522680300000,"zoneId":"NA","stopIndex":27,"stopSequence":28,"vertexType":"TRANSIT"},"legGeometry":{"points":"sfmfH`kupL_U_TcNgNcBcB{E`Jc@x@qG~@{BlAk@XgSrQqB_GAeFiEeEOt@gAeA_A_ATm@yAwAgBeBqDnL@nBF`@f@|C[dCuAfB]xAs@OmCmCmEkE]a@g@i@ZiGTmEl@oLaEe@cFk@?pH?tJDvBPjMB~Bo@PQDRbFKdGMhIOvIK|EQpHoCQEdC","length":51},"routeShortName":"175","routeLongName":"Term. Chic / Costco","rentedBike":false,"transitLeg":true,"duration":900.0,"steps":[]},{"startTime":1522680300000,"endTime":1522680640000,"departureDelay":0,"arrivalDelay":0,"realTime":false,"distance":2512.8795460827155,"pathway":false,"mode":"BUS","route":"12","agencyName":"Société de Transport du Saguenay","agencyUrl":"http://ville.saguenay.ca/fr/services-aux-citoyens/transport-sts","agencyTimeZoneOffset":-14400000,"routeColor":"556B2F","routeType":3,"routeId":"1:12","routeTextColor":"FFFFFF","interlineWithPreviousLeg":false,"tripBlockId":"27","headsign":"Terminus UQAC","agencyId":"0","tripId":"1:218008","serviceDate":"20180402","from":{"name":"Terminus Chicoutimi","stopId":"1:1289","stopCode":"1289","lon":-71.066163,"lat":48.428677,"arrival":1522680000000,"departure":1522680300000,"zoneId":"NA","stopIndex":0,"stopSequence":1,"vertexType":"TRANSIT"},"to":{"name":"boul. Saguenay / Saint-Timothée","stopId":"1:495","stopCode":"495","lon":-71.032928,"lat":48.429761,"arrival":1522680640000,"departure":1522680641000,"zoneId":"NA","stopIndex":9,"stopSequence":10,"vertexType":"TRANSIT"},"legGeometry":{"points":"evqfHpbwpLpFcj@IaKmFy^_DaZz@u]SeV}@aNs@gKToK","length":10},"routeShortName":"12","routeLongName":"Rivière du Moulin","rentedBike":false,"transitLeg":true,"duration":340.0,"steps":[]},{"startTime":1522680641000,"endTime":1522680855000,"departureDelay":0,"arrivalDelay":0,"realTime":false,"distance":276.258,"pathway":false,"mode":"WALK","route":"","agencyTimeZoneOffset":-14400000,"interlineWithPreviousLeg":false,"from":{"name":"boul. Saguenay / Saint-Timothée","stopId":"1:495","stopCode":"495","lon":-71.032928,"lat":48.429761,"arrival":1522680640000,"departure":1522680641000,"zoneId":"NA","stopIndex":9,"stopSequence":10,"vertexType":"TRANSIT"},"to":{"name":"Destination","lon":-71.03121,"lat":48.428117,"arrival":1522680855000,"orig":"","vertexType":"NORMAL"},"legGeometry":{"points":"q}qfHtrppL@SF_AbA^^Fh@J\\GN[TeAFYPu@b@gAP_@Zk@","length":14},"rentedBike":false,"transitLeg":false,"duration":214.0,"steps":[{"distance":31.415,"relativeDirection":"DEPART","streetName":"Boulevard du Saguenay Est","absoluteDirection":"EAST","stayOn":false,"area":false,"bogusName":false,"lon":-71.03290822001266,"lat":48.42985446603792,"elevation":[]},{"distance":244.843,"relativeDirection":"RIGHT","streetName":"Rue Saint-Thimothée","absoluteDirection":"SOUTH","stayOn":false,"area":false,"bogusName":false,"lon":-71.032488,"lat":48.4298091,"elevation":[]}]}],"tooSloped":false},{"duration":1551,"startTime":1522680196000,"endTime":1522681747000,"walkTime":523,"transitTime":1026,"waitingTime":2,"walkDistance":667.8953233040978,"walkLimitExceeded":false,"elevationLost":0.0,"elevationGained":0.0,"transfers":0,"legs":[{"startTime":1522680196000,"endTime":1522680498000,"departureDelay":0,"arrivalDelay":0,"realTime":false,"distance":383.134,"pathway":false,"mode":"WALK","route":"","agencyTimeZoneOffset":-14400000,"interlineWithPreviousLeg":false,"from":{"name":"Origin","lon":-71.058711,"lat":48.405991,"departure":1522680196000,"orig":"","vertexType":"NORMAL"},"to":{"name":"Place du Saguenay (Champs-Élysées)","stopId":"1:571","stopCode":"571","lon":-71.055824,"lat":48.408307,"arrival":1522680498000,"departure":1522680499000,"zoneId":"NA","stopIndex":12,"stopSequence":13,"vertexType":"TRANSIT"},"legGeometry":{"points":"igmfHbqupLy@s@EH]B_@Ws@o@Ms@i@i@kAoA]UCAi@[gAe@u@a@]]\\}@","length":16},"rentedBike":false,"transitLeg":false,"duration":302.0,"steps":[{"distance":354.603,"relativeDirection":"DEPART","streetName":"parking aisle","absoluteDirection":"NORTHEAST","stayOn":false,"area":false,"bogusName":false,"lon":-71.05825112020366,"lat":48.40581355272311,"elevation":[]},{"distance":28.531,"relativeDirection":"RIGHT","streetName":"Rue des Champs-Élysées","absoluteDirection":"SOUTHEAST","stayOn":false,"area":false,"bogusName":false,"lon":-71.0560683,"lat":48.4085206,"elevation":[]}]},{"startTime":1522680499000,"endTime":1522681525000,"departureDelay":0,"arrivalDelay":0,"realTime":false,"distance":6025.832976192403,"pathway":false,"mode":"BUS","route":"12","agencyName":"Société de Transport du Saguenay","agencyUrl":"http://ville.saguenay.ca/fr/services-aux-citoyens/transport-sts","agencyTimeZoneOffset":-14400000,"routeColor":"556B2F","routeType":3,"routeId":"1:12","routeTextColor":"FFFFFF","interlineWithPreviousLeg":false,"tripBlockId":"29","headsign":"Terminus Chicoutimi","agencyId":"0","tripId":"1:218060","serviceDate":"20180402","from":{"name":"Place du Saguenay (Champs-Élysées)","stopId":"1:571","stopCode":"571","lon":-71.055824,"lat":48.408307,"arrival":1522680498000,"departure":1522680499000,"zoneId":"NA","stopIndex":12,"stopSequence":13,"vertexType":"TRANSIT"},"to":{"name":"boul. Saguenay / Jacques Bacon","stopId":"1:1994","stopCode":"1994","lon":-71.033006,"lat":48.429934,"arrival":1522681525000,"departure":1522681526000,"zoneId":"NA","stopIndex":26,"stopSequence":27,"vertexType":"TRANSIT"},"legGeometry":{"points":"{vmfH|aupLxFoNlCyGa@yFYkD}CyA}KmFgD_BgAgBn@kFD_NoIgrAmD_WcAaLaDHoDJi`@wVoAbDbA|AnBU|B|AfBlAyLtKoGxFcFqDkJaHgEoDmDwC_TqQsBeB{HjWfAvAfM|O|FlHmB`IgA|Cy@`U","length":37},"routeShortName":"12","routeLongName":"Rivière du Moulin","rentedBike":false,"transitLeg":true,"duration":1026.0,"steps":[]},{"startTime":1522681526000,"endTime":1522681747000,"departureDelay":0,"arrivalDelay":0,"realTime":false,"distance":284.632,"pathway":false,"mode":"WALK","route":"","agencyTimeZoneOffset":-14400000,"interlineWithPreviousLeg":false,"from":{"name":"boul. Saguenay / Jacques Bacon","stopId":"1:1994","stopCode":"1994","lon":-71.033006,"lat":48.429934,"arrival":1522681525000,"departure":1522681526000,"zoneId":"NA","stopIndex":26,"stopSequence":27,"vertexType":"TRANSIT"},"to":{"name":"Destination","lon":-71.03121,"lat":48.428117,"arrival":1522681747000,"orig":"","vertexType":"NORMAL"},"legGeometry":{"points":"s}qfHlsppL@W@SF_AbA^^Fh@J\\GN[TeAFYPu@b@gAP_@Zk@","length":15},"rentedBike":false,"transitLeg":false,"duration":221.0,"steps":[{"distance":39.789,"relativeDirection":"DEPART","streetName":"Boulevard du Saguenay Est","absoluteDirection":"EAST","stayOn":false,"area":false,"bogusName":false,"lon":-71.03302061539898,"lat":48.42986493857392,"elevation":[]},{"distance":244.843,"relativeDirection":"RIGHT","streetName":"Rue Saint-Thimothée","absoluteDirection":"SOUTH","stayOn":false,"area":false,"bogusName":false,"lon":-71.032488,"lat":48.4298091,"elevation":[]}]}],"tooSloped":false}]},"debugOutput":{"precalculationTime":37,"pathCalculationTime":62,"pathTimes":[30,14,18],"renderingTime":2,"totalTime":101,"timedOut":false},"elevationMetadata":{"ellipsoidToGeoidDifference":-28.885904201182168,"geoidElevation":false}}