{"requestParameters":{"date":"2018/04/02","walkSpeed":"1.33","walkReluctance":"2.0","fromPlace":"48.427755,-71.030673","maxWalkDistance":"3000","waitReluctance":"1.0","carSpeed":"33","numItineraries":"3","waitAtBeginningFactor":"0.4","mode":"TRANSIT,WALK","ignoreRealtimeUpdates":"false","stairsReluctance":"2.0","toPlace":"48.403374,-71.058501","time":"7:0:00"},"plan":{"date":1522666800000,"from":{"name":"Origin","lon":-71.030673,"lat":48.427755,"orig":"","vertexType":"NORMAL"},"to":{"name":"Destination","lon":-71.058501,"lat":48.403374,"orig":"","vertexType":"NORMAL"},"itineraries":[{"duration":2033,"startTime":1522666863000,"endTime":1522668896000,"walkTime":436,"transitTime":1355,"waitingTime":242,"walkDistance":554.2174360862103,"walkLimitExceeded":false,"elevationLost":0.0,"elevationGained":0.0,"transfers":1,"legs":[{"startTime":1522666863000,"endTime":1522667124000,"departureDelay":0,"arrivalDelay":0,"realTime":false,"distance":342.67,"pathway":false,"mode":"WALK","route":"","agencyTimeZoneOffset":-14400000,"interlineWithPreviousLeg":false,"from":{"name":"Origin","lon":-71.030673,"lat":48.427755,"departure":1522666863000,"orig":"","vertexType":"NORMAL"},"to":{"name":"boul. Saguenay / Jacques Bacon","stopId":"1:1994","stopCode":"1994","lon":-71.033006,"lat":48.429934,"arrival":1522667124000,"departure":1522667125000,"zoneId":"NA","stopIndex":26,"stopSequence":27,"vertexType":"TRANSIT"},"legGeometry":{"points":"}pqfHxcppLq@~@u@xAQ^c@fAQt@GXUdAOZ]Fi@K_@GcA_@G~@ARAV","length":16},"rentedBike":false,"transitLeg":false,"duration":261.0,"steps":[{"distance":302.881,"relativeDirection":"DEPART","streetName":"Rue Saint-Thimothée","absoluteDirection":"NORTHWEST","stayOn":false,"area":false,"bogusName":false,"lon":-71.03052819389673,"lat":48.4278398065714,"elevation":[]},{"distance":39.789,"relativeDirection":"LEFT","streetName":"Boulevard du Saguenay Est","absoluteDirection":"WEST","stayOn":false,"area":false,"bogusName":false,"lon":-71.032488,"lat":48.4298091,"elevation":[]}]},{"startTime":1522667125000,"endTime":1522667460000,"departureDelay":0,"arrivalDelay":0,"realTime":false,"distance":2467.0693783784,"pathway":false,"mode":"BUS","route":"12","agencyName":"Société de Transport du Saguenay","agencyUrl":"http://ville.saguenay.ca/fr/services-aux-citoyens/transport-sts","agencyTimeZoneOffset":-14400000,"routeColor":"556B2F","routeType":3,"routeId":"1:12","routeTextColor":"FFFFFF","interlineWithPreviousLeg":false,"tripBlockId":"29","headsign":"Terminus Chicoutimi","agencyId":"0","tripId":"1:218052","serviceDate":"20180402","from":{"name":"boul. Saguenay / Jacques Bacon","stopId":"1:1994","stopCode":"1994","lon":-71.033006,"lat":48.429934,"arrival":1522667124000,"departure":1522667125000,"zoneId":"NA","stopIndex":26,"stopSequence":27,"vertexType":"TRANSIT"},"to":{"name":"Terminus Chicoutimi","stopId":"1:1289","stopCode":"1289","lon":-71.066163,"lat":48.428677,"arrival":1522667460000,"departure":1522667700000,"zoneId":"NA","stopIndex":33,"stopSequence":34,"vertexType":"TRANSIT"},"legGeometry":{"points":"{}qfHjsppLYzHZvMR~Hr@~ZPvHsCrMFxf@|ApJj@nDDl]BvZdCXJhC","length":14},"routeShortName":"12","routeLongName":"Rivière du Moulin","rentedBike":false,"transitLeg":true,"duration":335.0,"steps":[]},{"startTime":1522667700000,"endTime":1522668720000,"departureDelay":0,"arrivalDelay":0,"realTime":false,"distance":5167.426578717567,"pathway":false,"mode":"BUS","route":"175","agencyName":"Société de Transport du Saguenay","agencyUrl":"http://ville.saguenay.ca/fr/services-aux-citoyens/transport-sts","agencyTimeZoneOffset":-14400000,"routeColor":"FF00FF","routeType":3,"routeId":"1:175","routeTextColor":"FFFFFF","interlineWithPreviousLeg":false,"tripBlockId":"7","headsign":"Costco","agencyId":"0","tripId":"1:217322","serviceDate":"20180402","from":{"name":"Terminus Chicoutimi","stopId":"1:1289","stopCode":"1289","lon":-71.066163,"lat":48.428677,"arrival":1522667460000,"departure":1522667700000,"zoneId":"NA","stopIndex":0,"stopSequence":1,"vertexType":"TRANSIT"},"to":{"name":"Place du Royaume (Saguenéens)","stopId":"1:1294","stopCode":"1294","lon":-71.057691,"lat":48.402355,"arrival":1522668720000,"departure":1522668721000,"zoneId":"NA","stopIndex":20,"stopSequence":21,"vertexType":"TRANSIT"},"legGeometry":{"points":"kvqfH~awpL~CgBbAqa@FwCBkAOsHAg@bAYUwMKoE@mB@kJ@iFbEf@xEj@iCtYp@r@z@`ABBvHtHXRx@l@VwAvAgB\\qBIuAC]g@yEzDuLbBbBvAxAMx@|@v@`A~@Xw@~D~DPxFZtA~ApE`N{LpFmEb@[ROl@[vDQXKfA[|@q@fAsBlEmMr@sBhCsKz@dAjB|@dM`GzCvAXrCr@~Gx@]PEr@ObACn@FrBb@|@Ch@Kx@U~HsB^KZ|DJpII~Fa@rFUzBi@bD","length":75},"routeShortName":"175","routeLongName":"Term. Chic / Costco","rentedBike":false,"transitLeg":true,"duration":1020.0,"steps":[]},{"startTime":1522668721000,"endTime":1522668896000,"departureDelay":0,"arrivalDelay":0,"realTime":false,"distance":211.423,"pathway":false,"mode":"WALK","route":"","agencyTimeZoneOffset":-14400000,"interlineWithPreviousLeg":false,"from":{"name":"Place du Royaume (Saguenéens)","stopId":"1:1294","stopCode":"1294","lon":-71.057691,"lat":48.402355,"arrival":1522668720000,"departure":1522668721000,"zoneId":"NA","stopIndex":20,"stopSequence":21,"vertexType":"TRANSIT"},"to":{"name":"Destination","lon":-71.058501,"lat":48.403374,"arrival":1522668896000,"orig":"","vertexType":"NORMAL"},"legGeometry":{"points":"iqlfHxmupLa@dCMh@GM[m@i@aAMZe@pAIT[Y","length":10},"rentedBike":false,"transitLeg":false,"duration":175.0,"steps":[{"distance":70.008,"relativeDirection":"DEPART","streetName":"Rue des Saguenéens","absoluteDirection":"WEST","stayOn":false,"area":false,"bogusName":false,"lon":-71.05772328170832,"lat":48.402297506554895,"elevation":[]},{"distance":63.614000000000004,"relativeDirection":"RIGHT","streetName":"service road","absoluteDirection":"NORTHEAST","stayOn":false,"area":false,"bogusName":true,"lon":-71.0586019,"lat":48.4025327,"elevation":[]},{"distance":77.801,"relativeDirection":"LEFT","streetName":"parking aisle","absoluteDirection":"NORTHWEST","stayOn":true,"area":false,"bogusName":true,"lon":-71.0579793,"lat":48.402928200000005,"elevation":[]}]}],"tooSloped":false},{"duration":1834,"startTime":1522667785000,"endTime":1522669619000,"walkTime":852,"transitTime":980,"waitingTime":2,"walkDistance":1072.3527443529085,"walkLimitExceeded":false,"elevationLost":0.0,"elevationGained":0.0,"transfers":0,"legs":[{"startTime":1522667785000,"endTime":1522668039000,"departureDelay":0,"arrivalDelay":0,"realTime":false,"distance":334.296,"pathway":false,"mode":"WALK","route":"","agencyTimeZoneOffset":-14400000,"interlineWithPreviousLeg":false,"from":{"name":"Origin","lon":-71.030673,"lat":48.427755,"departure":1522667785000,"orig":"","vertexType":"NORMAL"},"to":{"name":"boul. Saguenay / Saint-Timothée","stopId":"1:495","stopCode":"495","lon":-71.032928,"lat":48.429761,"arrival":1522668039000,"departure":1522668040000,"zoneId":"NA","stopIndex":9,"stopSequence":10,"vertexType":"TRANSIT"},"legGeometry":{"points":"}pqfHxcppLq@~@u@xAQ^c@fAQt@GXUdAOZ]Fi@K_@GcA_@G~@AR","length":15},"rentedBike":false,"transitLeg":false,"duration":254.0,"steps":[{"distance":302.881,"relativeDirection":"DEPART","streetName":"Rue Saint-Thimothée","absoluteDirection":"NORTHWEST","stayOn":false,"area":false,"bogusName":false,"lon":-71.03052819389673,"lat":48.4278398065714,"elevation":[]},{"distance":31.415,"relativeDirection":"LEFT","streetName":"Boulevard du Saguenay Est","absoluteDirection":"WEST","stayOn":false,"area":false,"bogusName":false,"lon":-71.032488,"lat":48.4298091,"elevation":[]}]},{"startTime":1522668040000,"endTime":1522669020000,"departureDelay":0,"arrivalDelay":0,"realTime":false,"distance":5886.371611501175,"pathway":false,"mode":"BUS","route":"12","agencyName":"Société de Transport du Saguenay","agencyUrl":"http://ville.saguenay.ca/fr/services-aux-citoyens/transport-sts","agencyTimeZoneOffset":-14400000,"routeColor":"556B2F","routeType":3,"routeId":"1:12","routeTextColor":"FFFFFF","interlineWithPreviousLeg":false,"tripBlockId":"28","headsign":"Terminus UQAC","agencyId":"0","tripId":"1:218027","serviceDate":"20180402","from":{"name":"boul. Saguenay / Saint-Timothée","stopId":"1:495","stopCode":"495","lon":-71.032928,"lat":48.429761,"arrival":1522668039000,"departure":1522668040000,"zoneId":"NA","stopIndex":9,"stopSequence":10,"vertexType":"TRANSIT"},"to":{"name":"Place du Royaume (Champs-Élysées)","stopId":"1:193","stopCode":"193","lon":-71.052659,"lat":48.407065,"arrival":1522669020000,"departure":1522669021000,"zoneId":"NA","stopIndex":28,"stopSequence":29,"vertexType":"TRANSIT"},"legGeometry":{"points":"_}qfHxrppLd@gTnCyHkGuLqFqJ_DeFf@iIvGsKlIrH`JlH`EfDnOdIdGlGjL|BzBiLv@}L`b@fNvVvrCdRvMcAjK","length":20},"routeShortName":"12","routeLongName":"Rivière du Moulin","rentedBike":false,"transitLeg":true,"duration":980.0,"steps":[]},{"startTime":1522669021000,"endTime":1522669619000,"departureDelay":0,"arrivalDelay":0,"realTime":false,"distance":737.809,"pathway":false,"mode":"WALK","route":"","agencyTimeZoneOffset":-14400000,"interlineWithPreviousLeg":false,"from":{"name":"Place du Royaume (Champs-Élysées)","stopId":"1:193","stopCode":"193","lon":-71.052659,"lat":48.407065,"arrival":1522669020000,"departure":1522669021000,"zoneId":"NA","stopIndex":28,"stopSequence":29,"vertexType":"TRANSIT"},"to":{"name":"Destination","lon":-71.058501,"lat":48.403374,"arrival":1522669619000,"orig":"","vertexType":"NORMAL"},"legGeometry":{"points":"unmfH|ntpLQTLZT\\b@p@XVZ@d@@b@@R~Ev@WZA`@^\\^VVN\\?p@c@~AXTXVZX\\XXTs@`C\\ZTTZXTTTT\\ZXVXVXXXVXV@@","length":36},"rentedBike":false,"transitLeg":false,"duration":598.0,"steps":[{"distance":12.653,"relativeDirection":"DEPART","streetName":"Rue des Champs-Élysées","absoluteDirection":"NORTHWEST","stayOn":false,"area":false,"bogusName":false,"lon":-71.0527883359973,"lat":48.40699779220329,"elevation":[]},{"distance":130.89600000000002,"relativeDirection":"LEFT","streetName":"service road","absoluteDirection":"SOUTHWEST","stayOn":false,"area":false,"bogusName":true,"lon":-71.05289400000001,"lat":48.4070874,"elevation":[]},{"distance":83.48,"relativeDirection":"RIGHT","streetName":"path","absoluteDirection":"WEST","stayOn":true,"area":false,"bogusName":true,"lon":-71.05358820000001,"lat":48.406082600000005,"elevation":[]},{"distance":267.685,"relativeDirection":"LEFT","streetName":"service road","absoluteDirection":"SOUTH","stayOn":true,"area":false,"bogusName":true,"lon":-71.05470940000001,"lat":48.4059844,"elevation":[]},{"distance":243.09499999999997,"relativeDirection":"RIGHT","streetName":"parking aisle","absoluteDirection":"NORTHWEST","stayOn":true,"area":false,"bogusName":true,"lon":-71.05649890000001,"lat":48.4045416,"elevation":[]}]}],"tooSloped":false},{"duration":2079,"startTime":1522667717000,"endTime":1522669796000,"walkTime":436,"transitTime":930,"waitingTime":713,"walkDistance":554.2174360862103,"walkLimitExceeded":false,"elevationLost":0.0,"elevationGained":0.0,"transfers":1,"legs":[{"startTime":1522667717000,"endTime":1522667978000,"departureDelay":0,"arrivalDelay":0,"realTime":false,"distance":342.67,"pathway":false,"mode":"WALK","route":"","agencyTimeZoneOffset":-14400000,"interlineWithPreviousLeg":false,"from":{"name":"Origin","lon":-71.030673,"lat":48.427755,"departure":1522667717000,"orig":"","vertexType":"NORMAL"},"to":{"name":"boul. Saguenay / Jacques Bacon","stopId":"1:1994","stopCode":"1994","lon":-71.033006,"lat":48.429934,"arrival":1522667978000,"departure":1522667979000,"zoneId":"NA","stopIndex":77,"stopSequence":78,"vertexType":"TRANSIT"},"legGeometry":{"points":"}pqfHxcppLq@~@u@xAQ^c@fAQt@GXUdAOZ]Fi@K_@GcA_@G~@ARAV","length":16},"rentedBike":false,"transitLeg":false,"duration":261.0,"steps":[{"distance":302.881,"relativeDirection":"DEPART","streetName":"Rue Saint-Thimothée","absoluteDirection":"NORTHWEST","stayOn":false,"area":false,"bogusName":false,"lon":-71.03052819389673,"lat":48.4278398065714,"elevation":[]},{"distance":39.789,"relativeDirection":"LEFT","streetName":"Boulevard du Saguenay Est","absoluteDirection":"WEST","stayOn":false,"area":false,"bogusName":false,"lon":-71.032488,"lat":48.4298091,"elevation":[]}]},{"startTime":1522667979000,"endTime":1522668189000,"departureDelay":0,"arrivalDelay":0,"realTime":false,"distance":1512.1336906304252,"pathway":false,"mode":"BUS","route":"2S","agencyName":"Société de Transport du Saguenay","agencyUrl":"http://ville.saguenay.ca/fr/services-aux-citoyens/transport-sts","agencyTimeZoneOffset":-14400000,"routeColor":"8B0000","routeType":3,"routeId":"1:2S","routeTextColor":"FFFFFF","interlineWithPreviousLeg":false,"tripBlockId":"38","headsign":"CRDI","agencyId":"0","tripId":"1:218330","serviceDate":"20180402","from":{"name":"boul. Saguenay / Jacques Bacon","stopId":"1:1994","stopCode":"1994","lon":-71.033006,"lat":48.429934,"arrival":1522667978000,"departure":1522667979000,"zoneId":"NA","stopIndex":77,"stopSequence":78,"vertexType":"TRANSIT"},"to":{"name":"Hôpital de Chicoutimi (Saint-Vallier)","stopId":"1:342","stopCode":"342","lon":-71.050416,"lat":48.426429,"arrival":1522668189000,"departure":1522668900000,"zoneId":"NA","stopIndex":83,"stopSequence":84,"vertexType":"TRANSIT"},"legGeometry":{"points":"k}qfHnsppLUnEEx@?l@?Hx@dMf@|HLjBRlDL~EChK?pA_@tE}AnHa@pBWjBGdCFrU@lAA|@EnB?vA@|Ad@MZEpAChC[RX[qFGe@LEfGaACuAGoE@KBIBEFAhEn@","length":39},"routeShortName":"2S","routeLongName":"Navette Hopital - La Baie","rentedBike":false,"transitLeg":true,"duration":210.0,"steps":[]},{"startTime":1522668900000,"endTime":1522669620000,"departureDelay":0,"arrivalDelay":0,"realTime":false,"distance":3924.7484370952347,"pathway":false,"mode":"BUS","route":"175","agencyName":"Société de Transport du Saguenay","agencyUrl":"http://ville.saguenay.ca/fr/services-aux-citoyens/transport-sts","agencyTimeZoneOffset":-14400000,"routeColor":"FF00FF","routeType":3,"routeId":"1:175","routeTextColor":"FFFFFF","interlineWithPreviousLeg":false,"tripBlockId":"76","headsign":"Costco","agencyId":"0","tripId":"1:218630","serviceDate":"20180402","from":{"name":"Hôpital de Chicoutimi (Saint-Vallier)","stopId":"1:342","stopCode":"342","lon":-71.050416,"lat":48.426429,"arrival":1522668189000,"departure":1522668900000,"zoneId":"NA","stopIndex":6,"stopSequence":7,"vertexType":"TRANSIT"},"to":{"name":"Place du Royaume (Saguenéens)","stopId":"1:1294","stopCode":"1294","lon":-71.057691,"lat":48.402355,"arrival":1522669620000,"departure":1522669621000,"zoneId":"NA","stopIndex":20,"stopSequence":21,"vertexType":"TRANSIT"},"legGeometry":{"points":"ahqfHf_tpLxEj@iCtYp@r@z@`ABBvHtHXRx@l@VwAvAgB\\qBIuAC]g@yEzDuLbBbBvAxAMx@|@v@`A~@Xw@~D~DPxFZtA~ApE`N{LpFmEb@[ROl@[vDQXKfA[|@q@fAsBlEmMr@sBhCsKz@dAjB|@dM`GzCvAXrCr@~Gx@]PEr@ObACn@FrBb@|@Ch@Kx@U~HsB^KZ|DJpII~Fa@rFUzBi@bD","length":62},"routeShortName":"175","routeLongName":"Term. Chic / Costco","rentedBike":false,"transitLeg":true,"duration":720.0,"steps":[]},{"startTime":1522669621000,"endTime":1522669796000,"departureDelay":0,"arrivalDelay":0,"realTime":false,"distance":211.423,"pathway":false,"mode":"WALK","route":"","agencyTimeZoneOffset":-14400000,"interlineWithPreviousLeg":false,"from":{"name":"Place du Royaume (Saguenéens)","stopId":"1:1294","stopCode":"1294","lon":-71.057691,"lat":48.402355,"arrival":1522669620000,"departure":1522669621000,"zoneId":"NA","stopIndex":20,"stopSequence":21,"vertexType":"TRANSIT"},"to":{"name":"Destination","lon":-71.058501,"lat":48.403374,"arrival":1522669796000,"orig":"","vertexType":"NORMAL"},"legGeometry":{"points":"iqlfHxmupLa@dCMh@GM[m@i@aAMZe@pAIT[Y","length":10},"rentedBike":false,"transitLeg":false,"duration":175.0,"steps":[{"distance":70.008,"relativeDirection":"DEPART","streetName":"Rue des Saguenéens","absoluteDirection":"WEST","stayOn":false,"area":false,"bogusName":false,"lon":-71.05772328170832,"lat":48.402297506554895,"elevation":[]},{"distance":63.614000000000004,"relativeDirection":"RIGHT","streetName":"service road","absoluteDirection":"NORTHEAST","stayOn":false,"area":false,"bogusName":true,"lon":-71.0586019,"lat":48.4025327,"elevation":[]},{"distance":77.801,"relativeDirection":"LEFT","streetName":"parking aisle","absoluteDirection":"NORTHWEST","stayOn":true,"area":false,"bogusName":true,"lon":-71.0579793,"lat":48.402928200000005,"elevation":[]}]}],"tooSloped":false}]},"debugOutput":{"precalculationTime":31,"pathCalculationTime":24,"pathTimes":[16,3,5],"renderingTime":1,"totalTime":56,"timedOut":false},"elevationMetadata":{"ellipsoidToGeoidDifference":-28.885904201182168,"geoidElevation":false}}