{"requestParameters":{"date":"2018/04/02","walkSpeed":"1.33","walkReluctance":"2.0","fromPlace":"48.405991,-71.058711","maxWalkDistance":"3000","waitReluctance":"1.0","carSpeed":"33","numItineraries":"3","waitAtBeginningFactor":"0.4","mode":"TRANSIT,WALK","ignoreRealtimeUpdates":"false","stairsReluctance":"2.0","toPlace":"48.428889,-71.046113","time":"17:0:00"},"plan":{"date":1522702800000,"from":{"name":"Origin","lon":-71.058711,"lat":48.405991,"orig":"","vertexType":"NORMAL"},"to":{"name":"Destination","lon":-71.046113,"lat":48.428889,"orig":"","vertexType":"NORMAL"},"itineraries":[{"duration":1479,"startTime":1522703208000,"endTime":1522704687000,"walkTime":789,"transitTime":688,"waitingTime":2,"walkDistance":996.7440977366459,"walkLimitExceeded":false,"elevationLost":0.0,"elevationGained":0.0,"transfers":0,"legs":[{"startTime":1522703208000,"endTime":1522703399000,"departureDelay":0,"arrivalDelay":0,"realTime":false,"distance":227.20499999999998,"pathway":false,"mode":"WALK","route":"","agencyTimeZoneOffset":-14400000,"interlineWithPreviousLeg":false,"from":{"name":"Origin","lon":-71.058711,"lat":48.405991,"departure":1522703208000,"orig":"","vertexType":"NORMAL"},"to":{"name":"Place Royaume","stopId":"1:1801","stopCode":"1801","lon":-71.057017,"lat":48.405588,"arrival":1522703399000,"departure":1522703400000,"zoneId":"NA","stopIndex":10,"stopSequence":11,"vertexType":"TRANSIT"},"legGeometry":{"points":"igmfHbqupLy@s@FO\\eAJ]HWH[DKn@}BZXa@zA","length":11},"rentedBike":false,"transitLeg":false,"duration":191.0,"steps":[{"distance":99.49199999999999,"relativeDirection":"DEPART","streetName":"parking aisle","absoluteDirection":"NORTHEAST","stayOn":false,"area":false,"bogusName":false,"lon":-71.05825112020366,"lat":48.40581355272311,"elevation":[]},{"distance":71.053,"relativeDirection":"CONTINUE","streetName":"service road","absoluteDirection":"SOUTHEAST","stayOn":false,"area":false,"bogusName":true,"lon":-71.05729810000001,"lat":48.4058038,"elevation":[]},{"distance":56.66,"relativeDirection":"RIGHT","streetName":"parking aisle","absoluteDirection":"SOUTHWEST","stayOn":true,"area":false,"bogusName":true,"lon":-71.0564657,"lat":48.405483000000004,"elevation":[]}]},{"startTime":1522703400000,"endTime":1522704088000,"departureDelay":0,"arrivalDelay":0,"realTime":false,"distance":3267.1548332639504,"pathway":false,"mode":"BUS","route":"175","agencyName":"Société de Transport du Saguenay","agencyUrl":"http://ville.saguenay.ca/fr/services-aux-citoyens/transport-sts","agencyTimeZoneOffset":-14400000,"routeColor":"FF00FF","routeType":3,"routeId":"1:175","routeTextColor":"FFFFFF","interlineWithPreviousLeg":false,"tripBlockId":"77","headsign":"Terminus Chicoutimi","agencyId":"0","tripId":"1:218638","serviceDate":"20180402","from":{"name":"Place Royaume","stopId":"1:1801","stopCode":"1801","lon":-71.057017,"lat":48.405588,"arrival":1522703399000,"departure":1522703400000,"zoneId":"NA","stopIndex":10,"stopSequence":11,"vertexType":"TRANSIT"},"to":{"name":"Hôtel-Dieu / Riverin","stopId":"1:338","stopCode":"338","lon":-71.054073,"lat":48.427466,"arrival":1522704088000,"departure":1522704089000,"zoneId":"NA","stopIndex":21,"stopSequence":22,"vertexType":"TRANSIT"},"legGeometry":{"points":"sfmfH`kupL_U_TcNgNcBcB{E`Jc@x@qG~@{BlAk@XgSrQqB_GAeFiEeEOt@gAeA_A_ATm@yAwAgBeBqDnL@nBF`@f@|C[dCuAfB]xAs@OmCmCmEkE]a@g@i@ZiGTmEl@oLaEe@cFk@?pH?tJDvB","length":39},"routeShortName":"175","routeLongName":"Term. Chic / Costco","rentedBike":false,"transitLeg":true,"duration":688.0,"steps":[]},{"startTime":1522704089000,"endTime":1522704687000,"departureDelay":0,"arrivalDelay":0,"realTime":false,"distance":769.3,"pathway":false,"mode":"WALK","route":"","agencyTimeZoneOffset":-14400000,"interlineWithPreviousLeg":false,"from":{"name":"Hôtel-Dieu / Riverin","stopId":"1:338","stopCode":"338","lon":-71.054073,"lat":48.427466,"arrival":1522704088000,"departure":1522704089000,"zoneId":"NA","stopIndex":21,"stopSequence":22,"vertexType":"TRANSIT"},"to":{"name":"Destination","lon":-71.046113,"lat":48.428889,"arrival":1522704687000,"orig":"","vertexType":"NORMAL"},"legGeometry":{"points":"knqfH|vtpLC_CKCe@BwBJkAFEo@Ck@AWKgCCo@g@}@OQm@w@m@cBIm@Cq@@uH?g@@kC?kD@{A?[?}@?I","length":25},"rentedBike":false,"transitLeg":false,"duration":598.0,"steps":[{"distance":47.75,"relativeDirection":"DEPART","streetName":"Rue de l'Hôtel-Dieu","absoluteDirection":"EAST","stayOn":false,"area":false,"bogusName":false,"lon":-71.05406930388979,"lat":48.42742042441727,"elevation":[]},{"distance":137.486,"relativeDirection":"LEFT","streetName":"Rue Bégin","absoluteDirection":"NORTH","stayOn":false,"area":false,"bogusName":false,"lon":-71.0534231,"lat":48.4274435,"elevation":[]},{"distance":584.064,"relativeDirection":"RIGHT","streetName":"Rue Racine Est","absoluteDirection":"EAST","stayOn":false,"area":false,"bogusName":false,"lon":-71.0535297,"lat":48.4286752,"elevation":[]}]}],"tooSloped":false},{"duration":1606,"startTime":1522703596000,"endTime":1522705202000,"walkTime":481,"transitTime":1123,"waitingTime":2,"walkDistance":614.2234887187233,"walkLimitExceeded":false,"elevationLost":0.0,"elevationGained":0.0,"transfers":0,"legs":[{"startTime":1522703596000,"endTime":1522703898000,"departureDelay":0,"arrivalDelay":0,"realTime":false,"distance":383.134,"pathway":false,"mode":"WALK","route":"","agencyTimeZoneOffset":-14400000,"interlineWithPreviousLeg":false,"from":{"name":"Origin","lon":-71.058711,"lat":48.405991,"departure":1522703596000,"orig":"","vertexType":"NORMAL"},"to":{"name":"Place du Saguenay (Champs-Élysées)","stopId":"1:571","stopCode":"571","lon":-71.055824,"lat":48.408307,"arrival":1522703898000,"departure":1522703899000,"zoneId":"NA","stopIndex":12,"stopSequence":13,"vertexType":"TRANSIT"},"legGeometry":{"points":"igmfHbqupLy@s@EH]B_@Ws@o@Ms@i@i@kAoA]UCAi@[gAe@u@a@]]\\}@","length":16},"rentedBike":false,"transitLeg":false,"duration":302.0,"steps":[{"distance":354.603,"relativeDirection":"DEPART","streetName":"parking aisle","absoluteDirection":"NORTHEAST","stayOn":false,"area":false,"bogusName":false,"lon":-71.05825112020366,"lat":48.40581355272311,"elevation":[]},{"distance":28.531,"relativeDirection":"RIGHT","streetName":"Rue des Champs-Élysées","absoluteDirection":"SOUTHEAST","stayOn":false,"area":false,"bogusName":false,"lon":-71.0560683,"lat":48.4085206,"elevation":[]}]},{"startTime":1522703899000,"endTime":1522705022000,"departureDelay":0,"arrivalDelay":0,"realTime":false,"distance":6770.277922957905,"pathway":false,"mode":"BUS","route":"12","agencyName":"Société de Transport du Saguenay","agencyUrl":"http://ville.saguenay.ca/fr/services-aux-citoyens/transport-sts","agencyTimeZoneOffset":-14400000,"routeColor":"556B2F","routeType":3,"routeId":"1:12","routeTextColor":"FFFFFF","interlineWithPreviousLeg":false,"tripBlockId":"26","headsign":"Terminus Chicoutimi","agencyId":"0","tripId":"1:217985","serviceDate":"20180402","from":{"name":"Place du Saguenay (Champs-Élysées)","stopId":"1:571","stopCode":"571","lon":-71.055824,"lat":48.408307,"arrival":1522703898000,"departure":1522703899000,"zoneId":"NA","stopIndex":12,"stopSequence":13,"vertexType":"TRANSIT"},"to":{"name":"boul. Saguenay / Bon-Conseil","stopId":"1:1990","stopCode":"1990","lon":-71.043002,"lat":48.429311,"arrival":1522705022000,"departure":1522705023000,"zoneId":"NA","stopIndex":30,"stopSequence":31,"vertexType":"TRANSIT"},"legGeometry":{"points":"{vmfH|aupLxFoNlCyGa@yFYkD}CyA}KmFgD_BgAgBn@kFD_NoIgrAmD_WcAaLaDHoDJi`@wVoAbDbA|AnBU|B|AfBlAyLtKoGxFcFqDkJaHgEoDmDwC_TqQsBeB{HjWfAvAfM|O|FlHmB`IgA|Cy@`UYzHZvMR~Hr@~Z","length":41},"routeShortName":"12","routeLongName":"Rivière du Moulin","rentedBike":false,"transitLeg":true,"duration":1123.0,"steps":[]},{"startTime":1522705023000,"endTime":1522705202000,"departureDelay":0,"arrivalDelay":0,"realTime":false,"distance":230.994,"pathway":false,"mode":"WALK","route":"","agencyTimeZoneOffset":-14400000,"interlineWithPreviousLeg":false,"from":{"name":"boul. Saguenay / Bon-Conseil","stopId":"1:1990","stopCode":"1990","lon":-71.043002,"lat":48.429311,"arrival":1522705022000,"departure":1522705023000,"zoneId":"NA","stopIndex":30,"stopSequence":31,"vertexType":"TRANSIT"},"to":{"name":"Destination","lon":-71.046113,"lat":48.428889,"arrival":1522705202000,"orig":"","vertexType":"NORMAL"},"legGeometry":{"points":"azqfHxqrpLALA|@Ap@EpAEx@CZIjAQtBCZElA?V","length":12},"rentedBike":false,"transitLeg":false,"duration":179.0,"steps":[{"distance":46.524,"relativeDirection":"DEPART","streetName":"Boulevard du Saguenay Est","absoluteDirection":"WEST","stayOn":false,"area":false,"bogusName":false,"lon":-71.04300324658296,"lat":48.4292970898775,"elevation":[]},{"distance":184.47,"relativeDirection":"CONTINUE","streetName":"Rue Racine Est","absoluteDirection":"WEST","stayOn":false,"area":false,"bogusName":false,"lon":-71.04363190000001,"lat":48.4293294,"elevation":[]}]}],"tooSloped":false},{"duration":1479,"startTime":1522704108000,"endTime":1522705587000,"walkTime":789,"transitTime":688,"waitingTime":2,"walkDistance":996.7440977366459,"walkLimitExceeded":false,"elevationLost":0.0,"elevationGained":0.0,"transfers":0,"legs":[{"startTime":1522704108000,"endTime":1522704299000,"departureDelay":0,"arrivalDelay":0,"realTime":false,"distance":227.20499999999998,"pathway":false,"mode":"WALK","route":"","agencyTimeZoneOffset":-14400000,"interlineWithPreviousLeg":false,"from":{"name":"Origin","lon":-71.058711,"lat":48.405991,"departure":1522704108000,"orig":"","vertexType":"NORMAL"},"to":{"name":"Place Royaume","stopId":"1:1801","stopCode":"1801","lon":-71.057017,"lat":48.405588,"arrival":1522704299000,"departure":1522704300000,"zoneId":"NA","stopIndex":10,"stopSequence":11,"vertexType":"TRANSIT"},"legGeometry":{"points":"igmfHbqupLy@s@FO\\eAJ]HWH[DKn@}BZXa@zA","length":11},"rentedBike":false,"transitLeg":false,"duration":191.0,"steps":[{"distance":99.49199999999999,"relativeDirection":"DEPART","streetName":"parking aisle","absoluteDirection":"NORTHEAST","stayOn":false,"area":false,"bogusName":false,"lon":-71.05825112020366,"lat":48.40581355272311,"elevation":[]},{"distance":71.053,"relativeDirection":"CONTINUE","streetName":"service road","absoluteDirection":"SOUTHEAST","stayOn":false,"area":false,"bogusName":true,"lon":-71.05729810000001,"lat":48.4058038,"elevation":[]},{"distance":56.66,"relativeDirection":"RIGHT","streetName":"parking aisle","absoluteDirection":"SOUTHWEST","stayOn":true,"area":false,"bogusName":true,"lon":-71.0564657,"lat":48.405483000000004,"elevation":[]}]},{"startTime":1522704300000,"endTime":1522704988000,"departureDelay":0,"arrivalDelay":0,"realTime":false,"distance":3267.1548332639504,"pathway":false,"mode":"BUS","route":"175","agencyName":"Société de Transport du Saguenay","agencyUrl":"http://ville.saguenay.ca/fr/services-aux-citoyens/transport-sts","agencyTimeZoneOffset":-14400000,"routeColor":"FF00FF","routeType":3,"routeId":"1:175","routeTextColor":"FFFFFF","interlineWithPreviousLeg":false,"tripBlockId":"10","headsign":"Terminus Chicoutimi","agencyId":"0","tripId":"1:217448","serviceDate":"20180402","from":{"name":"Place Royaume","stopId":"1:1801","stopCode":"1801","lon":-71.057017,"lat":48.405588,"arrival":1522704299000,"departure":1522704300000,"zoneId":"NA","stopIndex":10,"stopSequence":11,"vertexType":"TRANSIT"},"to":{"name":"Hôtel-Dieu / Riverin","stopId":"1:338","stopCode":"338","lon":-71.054073,"lat":48.427466,"arrival":1522704988000,"departure":1522704989000,"zoneId":"NA","stopIndex":21,"stopSequence":22,"vertexType":"TRANSIT"},"legGeometry":{"points":"sfmfH`kupL_U_TcNgNcBcB{E`Jc@x@qG~@{BlAk@XgSrQqB_GAeFiEeEOt@gAeA_A_ATm@yAwAgBeBqDnL@nBF`@f@|C[dCuAfB]xAs@OmCmCmEkE]a@g@i@ZiGTmEl@oLaEe@cFk@?pH?tJDvB","length":39},"routeShortName":"175","routeLongName":"Term. Chic / Costco","rentedBike":false,"transitLeg":true,"duration":688.0,"steps":[]},{"startTime":1522704989000,"endTime":1522705587000,"departureDelay":0,"arrivalDelay":0,"realTime":false,"distance":769.3,"pathway":false,"mode":"WALK","route":"","agencyTimeZoneOffset":-14400000,"interlineWithPreviousLeg":false,"from":{"name":"Hôtel-Dieu / Riverin","stopId":"1:338","stopCode":"338","lon":-71.054073,"lat":48.427466,"arrival":1522704988000,"departure":1522704989000,"zoneId":"NA","stopIndex":21,"stopSequence":22,"vertexType":"TRANSIT"},"to":{"name":"Destination","lon":-71.046113,"lat":48.428889,"arrival":1522705587000,"orig":"","vertexType":"NORMAL"},"legGeometry":{"points":"knqfH|vtpLC_CKCe@BwBJkAFEo@Ck@AWKgCCo@g@}@OQm@w@m@cBIm@Cq@@uH?g@@kC?kD@{A?[?}@?I","length":25},"rentedBike":false,"transitLeg":false,"duration":598.0,"steps":[{"distance":47.75,"relativeDirection":"DEPART","streetName":"Rue de l'Hôtel-Dieu","absoluteDirection":"EAST","stayOn":false,"area":false,"bogusName":false,"lon":-71.05406930388979,"lat":48.42742042441727,"elevation":[]},{"distance":137.486,"relativeDirection":"LEFT","streetName":"Rue Bégin","absoluteDirection":"NORTH","stayOn":false,"area":false,"bogusName":false,"lon":-71.0534231,"lat":48.4274435,"elevation":[]},{"distance":584.064,"relativeDirection":"RIGHT","streetName":"Rue Racine Est","absoluteDirection":"EAST","stayOn":false,"area":false,"bogusName":false,"lon":-71.0535297,"lat":48.4286752,"elevation":[]}]}],"tooSloped":false}]},"debugOutput":{"precalculationTime":36,"pathCalculationTime":42,"pathTimes":[22,9,11],"renderingTime":1,"totalTime":79,"timedOut":false},"elevationMetadata":{"ellipsoidToGeoidDifference":-28.885904201182168,"geoidElevation":false}}