{"requestParameters":{"date":"2018/04/02","walkSpeed":"1.33","walkReluctance":"2.0","fromPlace":"48.424579,-71.066613","maxWalkDistance":"3000","waitReluctance":"1.0","carSpeed":"33","numItineraries":"3","waitAtBeginningFactor":"0.4","mode":"TRANSIT,WALK","ignoreRealtimeUpdates":"false","stairsReluctance":"2.0","toPlace":"48.40513,-71.06202998","time":"15:15:00"},"plan":{"date":1522696500000,"from":{"name":"Origin","lon":-71.066613,"lat":48.424579,"orig":"","vertexType":"NORMAL"},"to":{"name":"Destination","lon":-71.06202998,"lat":48.40513,"orig":"","vertexType":"NORMAL"},"itineraries":[{"duration":1859,"startTime":1522697029000,"endTime":1522698888000,"walkTime":781,"transitTime":1076,"waitingTime":2,"walkDistance":1002.4576842065353,"walkLimitExceeded":false,"elevationLost":0.0,"elevationGained":0.0,"transfers":0,"legs":[{"startTime":1522697029000,"endTime":1522697399000,"departureDelay":0,"arrivalDelay":0,"realTime":false,"distance":476.245,"pathway":false,"mode":"WALK","route":"","agencyTimeZoneOffset":-14400000,"interlineWithPreviousLeg":false,"from":{"name":"Origin","lon":-71.066613,"lat":48.424579,"departure":1522697029000,"orig":"","vertexType":"NORMAL"},"to":{"name":"Terminus Chicoutimi","stopId":"1:1289","stopCode":"1289","lon":-71.066163,"lat":48.428677,"arrival":1522697399000,"departure":1522697400000,"zoneId":"NA","stopIndex":0,"stopSequence":1,"vertexType":"TRANSIT"},"legGeometry":{"points":"m|pfHbewpL[k@W}@}AKQG_@C{BUsAGkCQQAsBIc@MKESAcAK","length":15},"rentedBike":false,"transitLeg":false,"duration":370.0,"steps":[{"distance":49.356,"relativeDirection":"DEPART","streetName":"Rue Saint-Philippe","absoluteDirection":"NORTHEAST","stayOn":false,"area":false,"bogusName":false,"lon":-71.06657550914278,"lat":48.4245530959603,"elevation":[]},{"distance":426.889,"relativeDirection":"LEFT","streetName":"Rue Morin","absoluteDirection":"NORTH","stayOn":false,"area":false,"bogusName":false,"lon":-71.0660407,"lat":48.4248144,"elevation":[]}]},{"startTime":1522697400000,"endTime":1522698476000,"departureDelay":0,"arrivalDelay":0,"realTime":false,"distance":5408.791385525205,"pathway":false,"mode":"BUS","route":"175","agencyName":"Société de Transport du Saguenay","agencyUrl":"http://ville.saguenay.ca/fr/services-aux-citoyens/transport-sts","agencyTimeZoneOffset":-14400000,"routeColor":"FF00FF","routeType":3,"routeId":"1:175","routeTextColor":"FFFFFF","interlineWithPreviousLeg":false,"tripBlockId":"77","headsign":"Costco","agencyId":"0","tripId":"1:218635","serviceDate":"20180402","from":{"name":"Terminus Chicoutimi","stopId":"1:1289","stopCode":"1289","lon":-71.066163,"lat":48.428677,"arrival":1522697399000,"departure":1522697400000,"zoneId":"NA","stopIndex":0,"stopSequence":1,"vertexType":"TRANSIT"},"to":{"name":"boul. Talbot (no. 1494) (Tim-Horton)","stopId":"1:1854","stopCode":"1854","lon":-71.060941,"lat":48.402118,"arrival":1522698476000,"departure":1522698477000,"zoneId":"NA","stopIndex":21,"stopSequence":22,"vertexType":"TRANSIT"},"legGeometry":{"points":"kvqfH~awpL~CgBbAqa@FwCBkAOsHAg@bAYUwMKoE@mB@kJ@iFbEf@xEj@iCtYp@r@z@`ABBvHtHXRx@l@VwAvAgB\\qBIuAC]g@yEzDuLbBbBvAxAMx@|@v@`A~@Xw@~D~DPxFZtA~ApE`N{LpFmEb@[ROl@[vDQXKfA[|@q@fAsBlEmMr@sBhCsKz@dAjB|@dM`GzCvAXrCr@~Gx@]PEr@ObACn@FrBb@|@Ch@Kx@U~HsB^KZ|DJpII~Fa@rFUzBi@bDUxAm@nCcAlDM^RTfD`D","length":81},"routeShortName":"175","routeLongName":"Term. Chic / Costco","rentedBike":false,"transitLeg":true,"duration":1076.0,"steps":[]},{"startTime":1522698477000,"endTime":1522698888000,"departureDelay":0,"arrivalDelay":0,"realTime":false,"distance":526.089,"pathway":false,"mode":"WALK","route":"","agencyTimeZoneOffset":-14400000,"interlineWithPreviousLeg":false,"from":{"name":"boul. Talbot (no. 1494) (Tim-Horton)","stopId":"1:1854","stopCode":"1854","lon":-71.060941,"lat":48.402118,"arrival":1522698476000,"departure":1522698477000,"zoneId":"NA","stopIndex":21,"stopSequence":22,"vertexType":"TRANSIT"},"to":{"name":"Destination","lon":-71.06202998,"lat":48.40513,"arrival":1522698888000,"orig":"","vertexType":"NORMAL"},"legGeometry":{"points":"}olfHhavpLgDcDMV_ArBwBxFSS}EuEO`@}@`C","length":9},"rentedBike":false,"transitLeg":false,"duration":411.0,"steps":[{"distance":111.149,"relativeDirection":"DEPART","streetName":"Boulevard Talbot","absoluteDirection":"NORTHEAST","stayOn":false,"area":false,"bogusName":false,"lon":-71.06084575275527,"lat":48.40207691199218,"elevation":[]},{"distance":181.411,"relativeDirection":"LEFT","streetName":"Rue des Saguenéens","absoluteDirection":"NORTHWEST","stayOn":false,"area":false,"bogusName":false,"lon":-71.0600254,"lat":48.4029151,"elevation":[]},{"distance":159.651,"relativeDirection":"RIGHT","streetName":"Rue Bach","absoluteDirection":"NORTHEAST","stayOn":false,"area":false,"bogusName":false,"lon":-71.0619727,"lat":48.403908900000005,"elevation":[]},{"distance":73.878,"relativeDirection":"LEFT","streetName":"Rue Des Maristes","absoluteDirection":"NORTHWEST","stayOn":false,"area":false,"bogusName":false,"lon":-71.06080990000001,"lat":48.405119500000005,"elevation":[]}]}],"tooSloped":false},{"duration":1557,"startTime":1522698115000,"endTime":1522699672000,"walkTime":431,"transitTime":1124,"waitingTime":2,"walkDistance":550.662849621161,"walkLimitExceeded":false,"elevationLost":0.0,"elevationGained":0.0,"transfers":0,"legs":[{"startTime":1522698115000,"endTime":1522698369000,"departureDelay":0,"arrivalDelay":0,"realTime":false,"distance":321.757,"pathway":false,"mode":"WALK","route":"","agencyTimeZoneOffset":-14400000,"interlineWithPreviousLeg":false,"from":{"name":"Origin","lon":-71.066613,"lat":48.424579,"departure":1522698115000,"orig":"","vertexType":"NORMAL"},"to":{"name":"Jacques-Cartier / Morin","stopId":"1:70","stopCode":"70","lon":-71.064766,"lat":48.426469,"arrival":1522698369000,"departure":1522698370000,"zoneId":"NA","stopIndex":1,"stopSequence":2,"vertexType":"TRANSIT"},"legGeometry":{"points":"m|pfHbewpL[k@W}@}AKQG_@C{BUsAGDwC@s@","length":10},"rentedBike":false,"transitLeg":false,"duration":254.0,"steps":[{"distance":49.356,"relativeDirection":"DEPART","streetName":"Rue Saint-Philippe","absoluteDirection":"NORTHEAST","stayOn":false,"area":false,"bogusName":false,"lon":-71.06657550914278,"lat":48.4245530959603,"elevation":[]},{"distance":197.17600000000002,"relativeDirection":"LEFT","streetName":"Rue Morin","absoluteDirection":"NORTH","stayOn":false,"area":false,"bogusName":false,"lon":-71.0660407,"lat":48.4248144,"elevation":[]},{"distance":75.225,"relativeDirection":"RIGHT","streetName":"Rue Jacques-Cartier Est","absoluteDirection":"EAST","stayOn":false,"area":false,"bogusName":false,"lon":-71.0657774,"lat":48.426577300000005,"elevation":[]}]},{"startTime":1522698370000,"endTime":1522699494000,"departureDelay":0,"arrivalDelay":0,"realTime":false,"distance":4759.788952934784,"pathway":false,"mode":"BUS","route":"15","agencyName":"Société de Transport du Saguenay","agencyUrl":"http://ville.saguenay.ca/fr/services-aux-citoyens/transport-sts","agencyTimeZoneOffset":-14400000,"routeColor":"FF00FF","routeType":3,"routeId":"1:15","routeTextColor":"FFFFFF","interlineWithPreviousLeg":false,"tripBlockId":"31","headsign":"Talbot / Barrette","agencyId":"0","tripId":"1:218140","serviceDate":"20180402","from":{"name":"Jacques-Cartier / Morin","stopId":"1:70","stopCode":"70","lon":-71.064766,"lat":48.426469,"arrival":1522698369000,"departure":1522698370000,"zoneId":"NA","stopIndex":1,"stopSequence":2,"vertexType":"TRANSIT"},"to":{"name":"Saguenéens / Maristes","stopId":"1:1999","stopCode":"1999","lon":-71.06394,"lat":48.405813,"arrival":1522699494000,"departure":1522699495000,"zoneId":"NA","stopIndex":21,"stopSequence":22,"vertexType":"TRANSIT"},"legGeometry":{"points":"}hqfHvyvpLZkS\\aSN_K^eIrBpBvIpIr@r@\\mBfAaA`@gBOkB_@uF|DyL|DpDQ|@|@z@bA`ATw@dD~Ch@fA@`E~AjGuH`Iy@bBi@dCbEdEjJlJ`HbHlJpJ|J~JdAfALzDNzDrAdBrEKvBEbCv@d@TvFlC|DlBpMlGrB`AM}@hAwEC{B]oBiBmBsH_@_K{H`EgIvCaGfEoI","length":53},"routeShortName":"15","routeLongName":"Term. Chic / Costco","rentedBike":false,"transitLeg":true,"duration":1124.0,"steps":[]},{"startTime":1522699495000,"endTime":1522699672000,"departureDelay":0,"arrivalDelay":0,"realTime":false,"distance":228.816,"pathway":false,"mode":"WALK","route":"","agencyTimeZoneOffset":-14400000,"interlineWithPreviousLeg":false,"from":{"name":"Saguenéens / Maristes","stopId":"1:1999","stopCode":"1999","lon":-71.06394,"lat":48.405813,"arrival":1522699494000,"departure":1522699495000,"zoneId":"NA","stopIndex":21,"stopSequence":22,"vertexType":"TRANSIT"},"to":{"name":"Destination","lon":-71.06202998,"lat":48.40513,"arrival":1522699672000,"orig":"","vertexType":"NORMAL"},"legGeometry":{"points":"agmfHduvpLbA_AcBmFPe@bAkC","length":5},"rentedBike":false,"transitLeg":false,"duration":177.0,"steps":[{"distance":44.272,"relativeDirection":"DEPART","streetName":"Rue des Saguenéens","absoluteDirection":"SOUTHEAST","stayOn":false,"area":false,"bogusName":false,"lon":-71.06402958721657,"lat":48.40577499056331,"elevation":[]},{"distance":184.544,"relativeDirection":"LEFT","streetName":"Rue Des Maristes","absoluteDirection":"NORTHEAST","stayOn":false,"area":false,"bogusName":false,"lon":-71.0637066,"lat":48.4054395,"elevation":[]}]}],"tooSloped":false},{"duration":1039,"startTime":1522699685000,"endTime":1522700724000,"walkTime":434,"transitTime":603,"waitingTime":2,"walkDistance":553.6158496211609,"walkLimitExceeded":false,"elevationLost":0.0,"elevationGained":0.0,"transfers":0,"legs":[{"startTime":1522699685000,"endTime":1522699939000,"departureDelay":0,"arrivalDelay":0,"realTime":false,"distance":321.757,"pathway":false,"mode":"WALK","route":"","agencyTimeZoneOffset":-14400000,"interlineWithPreviousLeg":false,"from":{"name":"Origin","lon":-71.066613,"lat":48.424579,"departure":1522699685000,"orig":"","vertexType":"NORMAL"},"to":{"name":"Jacques-Cartier / Morin","stopId":"1:70","stopCode":"70","lon":-71.064766,"lat":48.426469,"arrival":1522699939000,"departure":1522699940000,"zoneId":"NA","stopIndex":1,"stopSequence":2,"vertexType":"TRANSIT"},"legGeometry":{"points":"m|pfHbewpL[k@W}@}AKQG_@C{BUsAGDwC@s@","length":10},"rentedBike":false,"transitLeg":false,"duration":254.0,"steps":[{"distance":49.356,"relativeDirection":"DEPART","streetName":"Rue Saint-Philippe","absoluteDirection":"NORTHEAST","stayOn":false,"area":false,"bogusName":false,"lon":-71.06657550914278,"lat":48.4245530959603,"elevation":[]},{"distance":197.17600000000002,"relativeDirection":"LEFT","streetName":"Rue Morin","absoluteDirection":"NORTH","stayOn":false,"area":false,"bogusName":false,"lon":-71.0660407,"lat":48.4248144,"elevation":[]},{"distance":75.225,"relativeDirection":"RIGHT","streetName":"Rue Jacques-Cartier Est","absoluteDirection":"EAST","stayOn":false,"area":false,"bogusName":false,"lon":-71.0657774,"lat":48.426577300000005,"elevation":[]}]},{"startTime":1522699940000,"endTime":1522700543000,"departureDelay":0,"arrivalDelay":0,"realTime":false,"distance":3342.088874137225,"pathway":false,"mode":"BUS","route":"415S","agencyName":"Société de Transport du Saguenay","agencyUrl":"http://ville.saguenay.ca/fr/services-aux-citoyens/transport-sts","agencyTimeZoneOffset":-14400000,"routeColor":"8B0000","routeType":3,"routeId":"1:415S","routeTextColor":"FFFFFF","interlineWithPreviousLeg":false,"tripBlockId":"68","headsign":"Costco","agencyId":"0","tripId":"1:218587","serviceDate":"20180402","from":{"name":"Jacques-Cartier / Morin","stopId":"1:70","stopCode":"70","lon":-71.064766,"lat":48.426469,"arrival":1522699939000,"departure":1522699940000,"zoneId":"NA","stopIndex":1,"stopSequence":2,"vertexType":"TRANSIT"},"to":{"name":"Saguenéens / Maristes","stopId":"1:576","stopCode":"576","lon":-71.064183,"lat":48.405725,"arrival":1522700543000,"departure":1522700544000,"zoneId":"NA","stopIndex":14,"stopSequence":15,"vertexType":"TRANSIT"},"legGeometry":{"points":"whqfHvyvpLRcFJgLNuNDkCHkFVoKT}@dBnBBBpInIdG`GtFrFv@p@hCvCf@f@lJjJpLpLj@n@nAlA`BbBxD~DnBvBvBjBd@Tv@FzBD^Bt@Pd@TRLNJZXj@\\p@Rd@D~CEtBIh@@D@XFXHh@_B`CmGhC{GlBcFXm@^e@RQ","length":49},"routeShortName":"415S","routeLongName":"Term. Chic / Costco","rentedBike":false,"transitLeg":true,"duration":603.0,"steps":[]},{"startTime":1522700544000,"endTime":1522700724000,"departureDelay":0,"arrivalDelay":0,"realTime":false,"distance":231.769,"pathway":false,"mode":"WALK","route":"","agencyTimeZoneOffset":-14400000,"interlineWithPreviousLeg":false,"from":{"name":"Saguenéens / Maristes","stopId":"1:576","stopCode":"576","lon":-71.064183,"lat":48.405725,"arrival":1522700543000,"departure":1522700544000,"zoneId":"NA","stopIndex":14,"stopSequence":15,"vertexType":"TRANSIT"},"to":{"name":"Destination","lon":-71.06202998,"lat":48.40513,"arrival":1522700724000,"orig":"","vertexType":"NORMAL"},"legGeometry":{"points":"egmfHjuvpL?ABCbA_AcBmFPe@bAkC","length":7},"rentedBike":false,"transitLeg":false,"duration":180.0,"steps":[{"distance":47.225,"relativeDirection":"DEPART","streetName":"Rue des Saguenéens","absoluteDirection":"SOUTHEAST","stayOn":false,"area":false,"bogusName":false,"lon":-71.06405225994595,"lat":48.40579682391269,"elevation":[]},{"distance":184.544,"relativeDirection":"LEFT","streetName":"Rue Des Maristes","absoluteDirection":"NORTHEAST","stayOn":false,"area":false,"bogusName":false,"lon":-71.0637066,"lat":48.4054395,"elevation":[]}]}],"tooSloped":false}]},"debugOutput":{"precalculationTime":43,"pathCalculationTime":44,"pathTimes":[21,12,11],"renderingTime":0,"totalTime":87,"timedOut":false},"elevationMetadata":{"ellipsoidToGeoidDifference":-28.885904201182168,"geoidElevation":false}}