{"requestParameters":{"date":"2018/04/02","walkSpeed":"1.33","walkReluctance":"2.0","fromPlace":"48.437017,-71.06684199","maxWalkDistance":"3000","waitReluctance":"1.0","carSpeed":"33","numItineraries":"3","waitAtBeginningFactor":"0.4","mode":"TRANSIT,WALK","ignoreRealtimeUpdates":"false","stairsReluctance":"2.0","toPlace":"48.418729,-71.053021","time":"7:45:00"},"plan":{"date":1522669500000,"from":{"name":"Origin","lon":-71.06684199,"lat":48.437017,"orig":"","vertexType":"NORMAL"},"to":{"name":"Destination","lon":-71.053021,"lat":48.418729,"orig":"","vertexType":"NORMAL"},"itineraries":[{"duration":1226,"startTime":1522670772000,"endTime":1522671998000,"walkTime":324,"transitTime":660,"waitingTime":242,"walkDistance":408.4987969902613,"walkLimitExceeded":false,"elevationLost":0.0,"elevationGained":0.0,"transfers":1,"legs":[{"startTime":1522670772000,"endTime":1522670819000,"departureDelay":0,"arrivalDelay":0,"realTime":false,"distance":59.911,"pathway":false,"mode":"WALK","route":"","agencyTimeZoneOffset":-14400000,"interlineWithPreviousLeg":false,"from":{"name":"Origin","lon":-71.06684199,"lat":48.437017,"departure":1522670772000,"orig":"","vertexType":"NORMAL"},"to":{"name":"Roussel / St-Ambroise","stopId":"1:1507","stopCode":"1507","lon":-71.066011,"lat":48.437319,"arrival":1522670819000,"departure":1522670820000,"zoneId":"NA","stopIndex":32,"stopSequence":33,"vertexType":"TRANSIT"},"legGeometry":{"points":"_lsfHtfwpL@}A?eA","length":3},"rentedBike":false,"transitLeg":false,"duration":47.0,"steps":[{"distance":59.911,"relativeDirection":"DEPART","streetName":"Rue Roussel","absoluteDirection":"EAST","stayOn":false,"area":false,"bogusName":false,"lon":-71.06682062616139,"lat":48.4372891208934,"elevation":[]}]},{"startTime":1522670820000,"endTime":1522671060000,"departureDelay":0,"arrivalDelay":0,"realTime":false,"distance":1507.390514446539,"pathway":false,"mode":"BUS","route":"24","agencyName":"Société de Transport du Saguenay","agencyUrl":"http://ville.saguenay.ca/fr/services-aux-citoyens/transport-sts","agencyTimeZoneOffset":-14400000,"routeColor":"00FF00","routeType":3,"routeId":"1:24","routeTextColor":"000000","interlineWithPreviousLeg":false,"tripBlockId":"4","headsign":"Terminus Chicoutimi","agencyId":"0","tripId":"1:217225","serviceDate":"20180402","from":{"name":"Roussel / St-Ambroise","stopId":"1:1507","stopCode":"1507","lon":-71.066011,"lat":48.437319,"arrival":1522670819000,"departure":1522670820000,"zoneId":"NA","stopIndex":32,"stopSequence":33,"vertexType":"TRANSIT"},"to":{"name":"Terminus Chicoutimi","stopId":"1:1289","stopCode":"1289","lon":-71.066163,"lat":48.428677,"arrival":1522671060000,"departure":1522671300000,"zoneId":"NA","stopIndex":35,"stopSequence":36,"vertexType":"TRANSIT"},"legGeometry":{"points":"_lsfHpawpL@jABzA?p@A???A???A?A???A@??A?A@??A@?@A??@A@???@A@?@?@A@?@?@?@?@???@?@?@?@?@?@@@?@?@@@?@@@?@@@?@@?@@??@@@?E`@Kr@]rACVEl@I|AAr@JbAWJe@FUAM?a@Ke@YYWWa@v@}@RQPMz@k@tAe@REZG^Af@@X@VF`@Jn@XbClAr@Xt\\`PrAb@pA^hBTjAFj@Pb@JPHLLJNJRFXDT?X?ZEVEVKTMNMHMFOB}DWSGOSYcAN}FFkAF}DJyDPwGvAHN_HDiB@m@","length":118},"routeShortName":"24","routeLongName":"Saint-Luc","rentedBike":false,"transitLeg":true,"duration":240.0,"steps":[]},{"startTime":1522671300000,"endTime":1522671720000,"departureDelay":0,"arrivalDelay":0,"realTime":false,"distance":1625.306231263697,"pathway":false,"mode":"BUS","route":"15","agencyName":"Société de Transport du Saguenay","agencyUrl":"http://ville.saguenay.ca/fr/services-aux-citoyens/transport-sts","agencyTimeZoneOffset":-14400000,"routeColor":"FF00FF","routeType":3,"routeId":"1:15","routeTextColor":"FFFFFF","interlineWithPreviousLeg":false,"tripBlockId":"33","headsign":"Talbot / Barrette","agencyId":"0","tripId":"1:218175","serviceDate":"20180402","from":{"name":"Terminus Chicoutimi","stopId":"1:1289","stopCode":"1289","lon":-71.066163,"lat":48.428677,"arrival":1522671060000,"departure":1522671300000,"zoneId":"NA","stopIndex":0,"stopSequence":1,"vertexType":"TRANSIT"},"to":{"name":"Terminus UQAC","stopId":"1:1670","stopCode":"1670","lon":-71.053369,"lat":48.420903,"arrival":1522671720000,"departure":1522671721000,"zoneId":"NA","stopIndex":7,"stopSequence":8,"vertexType":"TRANSIT"},"legGeometry":{"points":"evqfHpbwpLPiCjKx@HiEZkS\\aSN_K^eIrBpBvIpIr@r@\\mBfAaA`@gBOkB_@uF|DyL|DpDQ|@|@z@","length":20},"routeShortName":"15","routeLongName":"Term. Chic / Costco","rentedBike":false,"transitLeg":true,"duration":420.0,"steps":[]},{"startTime":1522671721000,"endTime":1522671998000,"departureDelay":0,"arrivalDelay":0,"realTime":false,"distance":348.51900000000006,"pathway":false,"mode":"WALK","route":"","agencyTimeZoneOffset":-14400000,"interlineWithPreviousLeg":false,"from":{"name":"Terminus UQAC","stopId":"1:1670","stopCode":"1670","lon":-71.053369,"lat":48.420903,"arrival":1522671720000,"departure":1522671721000,"zoneId":"NA","stopIndex":7,"stopSequence":8,"vertexType":"TRANSIT"},"to":{"name":"Destination","lon":-71.053021,"lat":48.418729,"arrival":1522671998000,"orig":"","vertexType":"NORMAL"},"legGeometry":{"points":"sepfHrrtpLbA`ATq@f@wAd@wATs@X{@p@Y~@`AB@vBtB","length":11},"rentedBike":false,"transitLeg":false,"duration":277.0,"steps":[{"distance":269.46700000000004,"relativeDirection":"DEPART","streetName":"service road","absoluteDirection":"SOUTHWEST","stayOn":false,"area":false,"bogusName":true,"lon":-71.0533724395415,"lat":48.420904465432976,"elevation":[]},{"distance":79.052,"relativeDirection":"CONTINUE","streetName":"path","absoluteDirection":"SOUTHWEST","stayOn":false,"area":false,"bogusName":false,"lon":-71.05222810000001,"lat":48.41923430000001,"elevation":[]}]}],"tooSloped":false},{"duration":1586,"startTime":1522670412000,"endTime":1522671998000,"walkTime":324,"transitTime":840,"waitingTime":422,"walkDistance":408.4987969902613,"walkLimitExceeded":false,"elevationLost":0.0,"elevationGained":0.0,"transfers":1,"legs":[{"startTime":1522670412000,"endTime":1522670459000,"departureDelay":0,"arrivalDelay":0,"realTime":false,"distance":59.911,"pathway":false,"mode":"WALK","route":"","agencyTimeZoneOffset":-14400000,"interlineWithPreviousLeg":false,"from":{"name":"Origin","lon":-71.06684199,"lat":48.437017,"departure":1522670412000,"orig":"","vertexType":"NORMAL"},"to":{"name":"Roussel / St-Ambroise","stopId":"1:1507","stopCode":"1507","lon":-71.066011,"lat":48.437319,"arrival":1522670459000,"departure":1522670460000,"zoneId":"NA","stopIndex":23,"stopSequence":24,"vertexType":"TRANSIT"},"legGeometry":{"points":"_lsfHtfwpL@}A?eA","length":3},"rentedBike":false,"transitLeg":false,"duration":47.0,"steps":[{"distance":59.911,"relativeDirection":"DEPART","streetName":"Rue Roussel","absoluteDirection":"EAST","stayOn":false,"area":false,"bogusName":false,"lon":-71.06682062616139,"lat":48.4372891208934,"elevation":[]}]},{"startTime":1522670460000,"endTime":1522670880000,"departureDelay":0,"arrivalDelay":0,"realTime":false,"distance":1507.390514446539,"pathway":false,"mode":"BUS","route":"23","agencyName":"Société de Transport du Saguenay","agencyUrl":"http://ville.saguenay.ca/fr/services-aux-citoyens/transport-sts","agencyTimeZoneOffset":-14400000,"routeColor":"FF00FF","routeType":3,"routeId":"1:23","routeTextColor":"FFFFFF","interlineWithPreviousLeg":false,"tripBlockId":"5","headsign":"Terminus Chicoutimi","agencyId":"0","tripId":"1:217252","serviceDate":"20180402","from":{"name":"Roussel / St-Ambroise","stopId":"1:1507","stopCode":"1507","lon":-71.066011,"lat":48.437319,"arrival":1522670459000,"departure":1522670460000,"zoneId":"NA","stopIndex":23,"stopSequence":24,"vertexType":"TRANSIT"},"to":{"name":"Terminus Chicoutimi","stopId":"1:1289","stopCode":"1289","lon":-71.066163,"lat":48.428677,"arrival":1522670880000,"departure":1522671300000,"zoneId":"NA","stopIndex":26,"stopSequence":27,"vertexType":"TRANSIT"},"legGeometry":{"points":"_lsfHpawpL@jABzA?p@A???A???A?A???A@??A?A@??A@?@A??@A@???@A@?@?@A@?@?@?@?@???@?@?@?@?@?@@@?@?@@@?@@@?@@@?@@?@@??@@@?E`@Kr@]rACVEl@I|AAr@JbAWJe@FUAM?a@Ke@YYWWa@v@}@RQPMz@k@tAe@REZG^Af@@X@VF`@Jn@XbClAr@Xt\\`PrAb@pA^hBTjAFj@Pb@JPHLLJNJRFXDT?X?ZEVEVKTMNMHMFOB}DWSGOSYcAN}FFkAF}DJyDd@wPV_HjAN~ALI`C","length":118},"routeShortName":"23","routeLongName":"Côte Verdun via Aréna du Plateau","rentedBike":false,"transitLeg":true,"duration":420.0,"steps":[]},{"startTime":1522671300000,"endTime":1522671720000,"departureDelay":0,"arrivalDelay":0,"realTime":false,"distance":1729.6772383837415,"pathway":false,"mode":"BUS","route":"14","agencyName":"Société de Transport du Saguenay","agencyUrl":"http://ville.saguenay.ca/fr/services-aux-citoyens/transport-sts","agencyTimeZoneOffset":-14400000,"routeColor":"C0C000","routeType":3,"routeId":"1:14","routeTextColor":"000000","interlineWithPreviousLeg":false,"tripBlockId":"32","headsign":"Talbot / Barrette","agencyId":"0","tripId":"1:218150","serviceDate":"20180402","from":{"name":"Terminus Chicoutimi","stopId":"1:1289","stopCode":"1289","lon":-71.066163,"lat":48.428677,"arrival":1522670880000,"departure":1522671300000,"zoneId":"NA","stopIndex":0,"stopSequence":1,"vertexType":"TRANSIT"},"to":{"name":"Terminus UQAC","stopId":"1:1670","stopCode":"1670","lon":-71.053369,"lat":48.420903,"arrival":1522671720000,"departure":1522671721000,"zoneId":"NA","stopIndex":8,"stopSequence":9,"vertexType":"TRANSIT"},"legGeometry":{"points":"qvqfHnbwpLJkClLh@DsDTmSHwFB{I@m@@eBH_AF}A@w@Dq@@i@B}B@Y@e@D]F_@@SHQCKnBnBvIrIn@n@\\iATg@v@_ATg@LmABg@Is@c@iEAm@bAcDTcAtA{DJI|AxAvAvAQv@~@z@","length":42},"routeShortName":"14","routeLongName":"Coopérative","rentedBike":false,"transitLeg":true,"duration":420.0,"steps":[]},{"startTime":1522671721000,"endTime":1522671998000,"departureDelay":0,"arrivalDelay":0,"realTime":false,"distance":348.51900000000006,"pathway":false,"mode":"WALK","route":"","agencyTimeZoneOffset":-14400000,"interlineWithPreviousLeg":false,"from":{"name":"Terminus UQAC","stopId":"1:1670","stopCode":"1670","lon":-71.053369,"lat":48.420903,"arrival":1522671720000,"departure":1522671721000,"zoneId":"NA","stopIndex":8,"stopSequence":9,"vertexType":"TRANSIT"},"to":{"name":"Destination","lon":-71.053021,"lat":48.418729,"arrival":1522671998000,"orig":"","vertexType":"NORMAL"},"legGeometry":{"points":"sepfHrrtpLbA`ATq@f@wAd@wATs@X{@p@Y~@`AB@vBtB","length":11},"rentedBike":false,"transitLeg":false,"duration":277.0,"steps":[{"distance":269.46700000000004,"relativeDirection":"DEPART","streetName":"service road","absoluteDirection":"SOUTHWEST","stayOn":false,"area":false,"bogusName":true,"lon":-71.0533724395415,"lat":48.420904465432976,"elevation":[]},{"distance":79.052,"relativeDirection":"CONTINUE","streetName":"path","absoluteDirection":"SOUTHWEST","stayOn":false,"area":false,"bogusName":false,"lon":-71.05222810000001,"lat":48.41923430000001,"elevation":[]}]}],"tooSloped":false},{"duration":1923,"startTime":1522670195000,"endTime":1522672118000,"walkTime":1107,"transitTime":814,"waitingTime":2,"walkDistance":1398.24894735942,"walkLimitExceeded":false,"elevationLost":0.0,"elevationGained":0.0,"transfers":0,"legs":[{"startTime":1522670195000,"endTime":1522671025000,"departureDelay":0,"arrivalDelay":0,"realTime":false,"distance":1049.451,"pathway":false,"mode":"WALK","route":"","agencyTimeZoneOffset":-14400000,"interlineWithPreviousLeg":false,"from":{"name":"Origin","lon":-71.06684199,"lat":48.437017,"departure":1522670195000,"orig":"","vertexType":"NORMAL"},"to":{"name":"boul. Saguenay / Ste-Anne","stopId":"1:160","stopCode":"160","lon":-71.069701,"lat":48.429464,"arrival":1522671025000,"departure":1522671026000,"zoneId":"NA","stopIndex":31,"stopSequence":32,"vertexType":"TRANSIT"},"legGeometry":{"points":"_lsfHtfwpLAx@B?BB@BBD?D?FvBJZD~@Pb@?DBd@g@VWHFnAQPGLCPtBd]tBD?jABP?HJRBC^KtF","length":28},"rentedBike":false,"transitLeg":false,"duration":830.0,"steps":[{"distance":21.546,"relativeDirection":"DEPART","streetName":"Rue Roussel","absoluteDirection":"WEST","stayOn":false,"area":false,"bogusName":false,"lon":-71.06682062616139,"lat":48.4372891208934,"elevation":[]},{"distance":15.036,"relativeDirection":"CIRCLE_CLOCKWISE","streetName":"Rue Roussel","absoluteDirection":"SOUTHWEST","exit":"2","stayOn":false,"area":false,"bogusName":false,"lon":-71.0671123,"lat":48.437299200000005,"elevation":[]},{"distance":142.16299999999998,"relativeDirection":"LEFT","streetName":"Rue du Pont","absoluteDirection":"SOUTH","stayOn":false,"area":false,"bogusName":false,"lon":-71.06725250000001,"lat":48.4372217,"elevation":[]},{"distance":41.536,"relativeDirection":"LEFT","streetName":"link","absoluteDirection":"SOUTHEAST","stayOn":false,"area":false,"bogusName":true,"lon":-71.06745260000001,"lat":48.4359534,"elevation":[]},{"distance":114.291,"relativeDirection":"SLIGHTLY_RIGHT","streetName":"bike path","absoluteDirection":"SOUTH","stayOn":true,"area":false,"bogusName":true,"lon":-71.06713590000001,"lat":48.435644700000005,"elevation":[]},{"distance":542.29,"relativeDirection":"LEFT","streetName":"Pont de Sainte-Anne","absoluteDirection":"SOUTH","stayOn":false,"area":false,"bogusName":false,"lon":-71.0676151,"lat":48.434942,"elevation":[]},{"distance":59.134,"relativeDirection":"CONTINUE","streetName":"path","absoluteDirection":"SOUTH","stayOn":false,"area":false,"bogusName":true,"lon":-71.06820450000001,"lat":48.430080800000006,"elevation":[]},{"distance":11.024,"relativeDirection":"CONTINUE","streetName":"Rue Sainte-Anne","absoluteDirection":"SOUTH","stayOn":false,"area":false,"bogusName":false,"lon":-71.06828730000001,"lat":48.4295678,"elevation":[]},{"distance":102.431,"relativeDirection":"RIGHT","streetName":"Boulevard du Saguenay Ouest","absoluteDirection":"WEST","stayOn":false,"area":false,"bogusName":false,"lon":-71.06830790000001,"lat":48.429469600000004,"elevation":[]}]},{"startTime":1522671026000,"endTime":1522671060000,"departureDelay":0,"arrivalDelay":0,"realTime":false,"distance":275.32247205812763,"pathway":false,"mode":"BUS","route":"3","agencyName":"Société de Transport du Saguenay","agencyUrl":"http://ville.saguenay.ca/fr/services-aux-citoyens/transport-sts","agencyTimeZoneOffset":-14400000,"routeColor":"FF0000","routeType":3,"routeId":"1:3","routeTextColor":"FFFFFF","interlineWithPreviousLeg":false,"tripBlockId":"6","headsign":"Terminus Chicoutimi","agencyId":"0","tripId":"1:217287","serviceDate":"20180402","from":{"name":"boul. Saguenay / Ste-Anne","stopId":"1:160","stopCode":"160","lon":-71.069701,"lat":48.429464,"arrival":1522671025000,"departure":1522671026000,"zoneId":"NA","stopIndex":31,"stopSequence":32,"vertexType":"TRANSIT"},"to":{"name":"Terminus Chicoutimi","stopId":"1:1289","stopCode":"1289","lon":-71.066163,"lat":48.428677,"arrival":1522671060000,"departure":1522671300000,"zoneId":"NA","stopIndex":32,"stopSequence":33,"vertexType":"TRANSIT"},"legGeometry":{"points":"o{qfHrxwpLPwGvAHVyL","length":4},"routeShortName":"3","routeLongName":"Chic/Jonq via Boul. Saguenay","rentedBike":false,"transitLeg":true,"duration":34.0,"steps":[]},{"startTime":1522671300000,"endTime":1522671840000,"departureDelay":0,"arrivalDelay":0,"realTime":false,"distance":2386.9007738290497,"pathway":false,"mode":"BUS","route":"175","agencyName":"Société de Transport du Saguenay","agencyUrl":"http://ville.saguenay.ca/fr/services-aux-citoyens/transport-sts","agencyTimeZoneOffset":-14400000,"routeColor":"FF00FF","routeType":3,"routeId":"1:175","routeTextColor":"FFFFFF","interlineWithPreviousLeg":true,"tripBlockId":"6","headsign":"Costco","agencyId":"0","tripId":"1:217288","serviceDate":"20180402","from":{"name":"Terminus Chicoutimi","stopId":"1:1289","stopCode":"1289","lon":-71.066163,"lat":48.428677,"arrival":1522671060000,"departure":1522671300000,"zoneId":"NA","stopIndex":0,"stopSequence":1,"vertexType":"TRANSIT"},"to":{"name":"Terminus UQAC","stopId":"1:1670","stopCode":"1670","lon":-71.053369,"lat":48.420903,"arrival":1522671840000,"departure":1522671841000,"zoneId":"NA","stopIndex":11,"stopSequence":12,"vertexType":"TRANSIT"},"legGeometry":{"points":"kvqfH~awpL~CgBbAqa@FwCBkAOsHAg@bAYUwMKoE@mB@kJ@iFbEf@xEj@iCtYp@r@z@`ABBvHtHXRx@l@VwAvAgB\\qBIuAC]g@yEzDuLbBbBvAxAMx@|@v@","length":33},"routeShortName":"175","routeLongName":"Term. Chic / Costco","rentedBike":false,"transitLeg":true,"duration":540.0,"steps":[]},{"startTime":1522671841000,"endTime":1522672118000,"departureDelay":0,"arrivalDelay":0,"realTime":false,"distance":348.51900000000006,"pathway":false,"mode":"WALK","route":"","agencyTimeZoneOffset":-14400000,"interlineWithPreviousLeg":false,"from":{"name":"Terminus UQAC","stopId":"1:1670","stopCode":"1670","lon":-71.053369,"lat":48.420903,"arrival":1522671840000,"departure":1522671841000,"zoneId":"NA","stopIndex":11,"stopSequence":12,"vertexType":"TRANSIT"},"to":{"name":"Destination","lon":-71.053021,"lat":48.418729,"arrival":1522672118000,"orig":"","vertexType":"NORMAL"},"legGeometry":{"points":"sepfHrrtpLbA`ATq@f@wAd@wATs@X{@p@Y~@`AB@vBtB","length":11},"rentedBike":false,"transitLeg":false,"duration":277.0,"steps":[{"distance":269.46700000000004,"relativeDirection":"DEPART","streetName":"service road","absoluteDirection":"SOUTHWEST","stayOn":false,"area":false,"bogusName":true,"lon":-71.0533724395415,"lat":48.420904465432976,"elevation":[]},{"distance":79.052,"relativeDirection":"CONTINUE","streetName":"path","absoluteDirection":"SOUTHWEST","stayOn":false,"area":false,"bogusName":false,"lon":-71.05222810000001,"lat":48.41923430000001,"elevation":[]}]}],"tooSloped":false}]},"debugOutput":{"precalculationTime":43,"pathCalculationTime":35,"pathTimes":[16,9,10],"renderingTime":0,"totalTime":78,"timedOut":false},"elevationMetadata":{"ellipsoidToGeoidDifference":-28.885904201182168,"geoidElevation":false}}