{"requestParameters":{"date":"2018/04/02","walkSpeed":"1.33","walkReluctance":"2.0","fromPlace":"48.417935,-71.056133","maxWalkDistance":"3000","waitReluctance":"1.0","carSpeed":"33","numItineraries":"3","waitAtBeginningFactor":"0.4","mode":"TRANSIT,WALK","ignoreRealtimeUpdates":"false","stairsReluctance":"2.0","toPlace":"48.398646,-71.064081","time":"14:30:00"},"plan":{"date":1522693800000,"from":{"name":"Origin","lon":-71.056133,"lat":48.417935,"orig":"","vertexType":"NORMAL"},"to":{"name":"Destination","lon":-71.064081,"lat":48.398646,"orig":"","vertexType":"NORMAL"},"itineraries":[{"duration":903,"startTime":1522695090000,"endTime":1522695993000,"walkTime":476,"transitTime":425,"waitingTime":2,"walkDistance":601.2830751837729,"walkLimitExceeded":false,"elevationLost":0.0,"elevationGained":0.0,"transfers":0,"legs":[{"startTime":1522695090000,"endTime":1522695396000,"departureDelay":0,"arrivalDelay":0,"realTime":false,"distance":388.938,"pathway":false,"mode":"WALK","route":"","agencyTimeZoneOffset":-14400000,"interlineWithPreviousLeg":false,"from":{"name":"Origin","lon":-71.056133,"lat":48.417935,"departure":1522695090000,"orig":"","vertexType":"NORMAL"},"to":{"name":"Polyclinique du Saguenay (boul. Université)","stopId":"1:79","stopCode":"79","lon":-71.053795,"lat":48.414956,"arrival":1522695396000,"departure":1522695397000,"zoneId":"NA","stopIndex":12,"stopSequence":13,"vertexType":"TRANSIT"},"legGeometry":{"points":"gsofHjcupLz@u@zDcDROPb@lBcBVQnCcC^U","length":9},"rentedBike":false,"transitLeg":false,"duration":306.0,"steps":[{"distance":388.938,"relativeDirection":"DEPART","streetName":"Boulevard de l'Université","absoluteDirection":"SOUTHEAST","stayOn":false,"area":false,"bogusName":false,"lon":-71.0560501072741,"lat":48.41796678066559,"elevation":[]}]},{"startTime":1522695397000,"endTime":1522695822000,"departureDelay":0,"arrivalDelay":0,"realTime":false,"distance":2610.049477634796,"pathway":false,"mode":"BUS","route":"175","agencyName":"Société de Transport du Saguenay","agencyUrl":"http://ville.saguenay.ca/fr/services-aux-citoyens/transport-sts","agencyTimeZoneOffset":-14400000,"routeColor":"FF00FF","routeType":3,"routeId":"1:175","routeTextColor":"FFFFFF","interlineWithPreviousLeg":false,"tripBlockId":"7","headsign":"Costco","agencyId":"0","tripId":"1:217337","serviceDate":"20180402","from":{"name":"Polyclinique du Saguenay (boul. Université)","stopId":"1:79","stopCode":"79","lon":-71.053795,"lat":48.414956,"arrival":1522695396000,"departure":1522695397000,"zoneId":"NA","stopIndex":12,"stopSequence":13,"vertexType":"TRANSIT"},"to":{"name":"boul. Talbot (no.1600) (mode Choc)","stopId":"1:86","stopCode":"86","lon":-71.06283,"lat":48.40025,"arrival":1522695822000,"departure":1522695823000,"zoneId":"NA","stopIndex":22,"stopSequence":23,"vertexType":"TRANSIT"},"legGeometry":{"points":"q`ofHxttpLROl@[vDQXKfA[|@q@fAsBlEmMr@sBhCsKz@dAjB|@dM`GzCvAXrCr@~Gx@]PEr@ObACn@FrBb@|@Ch@Kx@U~HsB^KZ|DJpII~Fa@rFUzBi@bDUxAm@nCcAlDM^RTfD`DjF`FjCrC","length":42},"routeShortName":"175","routeLongName":"Term. Chic / Costco","rentedBike":false,"transitLeg":true,"duration":425.0,"steps":[]},{"startTime":1522695823000,"endTime":1522695993000,"departureDelay":0,"arrivalDelay":0,"realTime":false,"distance":212.215,"pathway":false,"mode":"WALK","route":"","agencyTimeZoneOffset":-14400000,"interlineWithPreviousLeg":false,"from":{"name":"boul. Talbot (no.1600) (mode Choc)","stopId":"1:86","stopCode":"86","lon":-71.06283,"lat":48.40025,"arrival":1522695822000,"departure":1522695823000,"zoneId":"NA","stopIndex":22,"stopSequence":23,"vertexType":"TRANSIT"},"to":{"name":"Destination","lon":-71.064081,"lat":48.398646,"arrival":1522695993000,"orig":"","vertexType":"NORMAL"},"legGeometry":{"points":"edlfHbmvpLt@`AhCfDLNPc@V\\FHNPRZ","length":9},"rentedBike":false,"transitLeg":false,"duration":170.0,"steps":[{"distance":212.215,"relativeDirection":"DEPART","streetName":"Boulevard Talbot","absoluteDirection":"SOUTHWEST","stayOn":false,"area":false,"bogusName":false,"lon":-71.06273598252479,"lat":48.400199941215426,"elevation":[]}]}],"tooSloped":false},{"duration":903,"startTime":1522696890000,"endTime":1522697793000,"walkTime":476,"transitTime":425,"waitingTime":2,"walkDistance":601.2830751837729,"walkLimitExceeded":false,"elevationLost":0.0,"elevationGained":0.0,"transfers":0,"legs":[{"startTime":1522696890000,"endTime":1522697196000,"departureDelay":0,"arrivalDelay":0,"realTime":false,"distance":388.938,"pathway":false,"mode":"WALK","route":"","agencyTimeZoneOffset":-14400000,"interlineWithPreviousLeg":false,"from":{"name":"Origin","lon":-71.056133,"lat":48.417935,"departure":1522696890000,"orig":"","vertexType":"NORMAL"},"to":{"name":"Polyclinique du Saguenay (boul. Université)","stopId":"1:79","stopCode":"79","lon":-71.053795,"lat":48.414956,"arrival":1522697196000,"departure":1522697197000,"zoneId":"NA","stopIndex":12,"stopSequence":13,"vertexType":"TRANSIT"},"legGeometry":{"points":"gsofHjcupLz@u@zDcDROPb@lBcBVQnCcC^U","length":9},"rentedBike":false,"transitLeg":false,"duration":306.0,"steps":[{"distance":388.938,"relativeDirection":"DEPART","streetName":"Boulevard de l'Université","absoluteDirection":"SOUTHEAST","stayOn":false,"area":false,"bogusName":false,"lon":-71.0560501072741,"lat":48.41796678066559,"elevation":[]}]},{"startTime":1522697197000,"endTime":1522697622000,"departureDelay":0,"arrivalDelay":0,"realTime":false,"distance":2610.049477634796,"pathway":false,"mode":"BUS","route":"175","agencyName":"Société de Transport du Saguenay","agencyUrl":"http://ville.saguenay.ca/fr/services-aux-citoyens/transport-sts","agencyTimeZoneOffset":-14400000,"routeColor":"FF00FF","routeType":3,"routeId":"1:175","routeTextColor":"FFFFFF","interlineWithPreviousLeg":false,"tripBlockId":"8","headsign":"Costco","agencyId":"0","tripId":"1:217374","serviceDate":"20180402","from":{"name":"Polyclinique du Saguenay (boul. Université)","stopId":"1:79","stopCode":"79","lon":-71.053795,"lat":48.414956,"arrival":1522697196000,"departure":1522697197000,"zoneId":"NA","stopIndex":12,"stopSequence":13,"vertexType":"TRANSIT"},"to":{"name":"boul. Talbot (no.1600) (mode Choc)","stopId":"1:86","stopCode":"86","lon":-71.06283,"lat":48.40025,"arrival":1522697622000,"departure":1522697623000,"zoneId":"NA","stopIndex":22,"stopSequence":23,"vertexType":"TRANSIT"},"legGeometry":{"points":"q`ofHxttpLROl@[vDQXKfA[|@q@fAsBlEmMr@sBhCsKz@dAjB|@dM`GzCvAXrCr@~Gx@]PEr@ObACn@FrBb@|@Ch@Kx@U~HsB^KZ|DJpII~Fa@rFUzBi@bDUxAm@nCcAlDM^RTfD`DjF`FjCrC","length":42},"routeShortName":"175","routeLongName":"Term. Chic / Costco","rentedBike":false,"transitLeg":true,"duration":425.0,"steps":[]},{"startTime":1522697623000,"endTime":1522697793000,"departureDelay":0,"arrivalDelay":0,"realTime":false,"distance":212.215,"pathway":false,"mode":"WALK","route":"","agencyTimeZoneOffset":-14400000,"interlineWithPreviousLeg":false,"from":{"name":"boul. Talbot (no.1600) (mode Choc)","stopId":"1:86","stopCode":"86","lon":-71.06283,"lat":48.40025,"arrival":1522697622000,"departure":1522697623000,"zoneId":"NA","stopIndex":22,"stopSequence":23,"vertexType":"TRANSIT"},"to":{"name":"Destination","lon":-71.064081,"lat":48.398646,"arrival":1522697793000,"orig":"","vertexType":"NORMAL"},"legGeometry":{"points":"edlfHbmvpLt@`AhCfDLNPc@V\\FHNPRZ","length":9},"rentedBike":false,"transitLeg":false,"duration":170.0,"steps":[{"distance":212.215,"relativeDirection":"DEPART","streetName":"Boulevard Talbot","absoluteDirection":"SOUTHWEST","stayOn":false,"area":false,"bogusName":false,"lon":-71.06273598252479,"lat":48.400199941215426,"elevation":[]}]}],"tooSloped":false},{"duration":1063,"startTime":1522696899000,"endTime":1522697962000,"walkTime":583,"transitTime":478,"waitingTime":2,"walkDistance":739.5666165366224,"walkLimitExceeded":false,"elevationLost":0.0,"elevationGained":0.0,"transfers":0,"legs":[{"startTime":1522696899000,"endTime":1522697147000,"departureDelay":0,"arrivalDelay":0,"realTime":false,"distance":307.321,"pathway":false,"mode":"WALK","route":"","agencyTimeZoneOffset":-14400000,"interlineWithPreviousLeg":false,"from":{"name":"Origin","lon":-71.056133,"lat":48.417935,"departure":1522696899000,"orig":"","vertexType":"NORMAL"},"to":{"name":"Nobel / Thomas-Édison","stopId":"1:406","stopCode":"406","lon":-71.054941,"lat":48.415804,"arrival":1522697147000,"departure":1522697148000,"zoneId":"NA","stopIndex":4,"stopSequence":5,"vertexType":"TRANSIT"},"legGeometry":{"points":"gsofHjcupLz@u@zDcDROPb@lBcBVQFVVp@","length":9},"rentedBike":false,"transitLeg":false,"duration":248.0,"steps":[{"distance":274.759,"relativeDirection":"DEPART","streetName":"Boulevard de l'Université","absoluteDirection":"SOUTHEAST","stayOn":false,"area":false,"bogusName":false,"lon":-71.0560501072741,"lat":48.41796678066559,"elevation":[]},{"distance":32.562,"relativeDirection":"RIGHT","streetName":"Rue Nobel","absoluteDirection":"SOUTHWEST","stayOn":false,"area":false,"bogusName":false,"lon":-71.0544787,"lat":48.4158697,"elevation":[]}]},{"startTime":1522697148000,"endTime":1522697626000,"departureDelay":0,"arrivalDelay":0,"realTime":false,"distance":2503.1931858496346,"pathway":false,"mode":"BUS","route":"200S","agencyName":"Société de Transport du Saguenay","agencyUrl":"http://ville.saguenay.ca/fr/services-aux-citoyens/transport-sts","agencyTimeZoneOffset":-14400000,"routeColor":"8B0000","routeType":3,"routeId":"1:200S","routeTextColor":"FFFFFF","interlineWithPreviousLeg":false,"tripBlockId":"53","headsign":"Roitelets / Talbot","agencyId":"0","tripId":"1:218472","serviceDate":"20180402","from":{"name":"Nobel / Thomas-Édison","stopId":"1:406","stopCode":"406","lon":-71.054941,"lat":48.415804,"arrival":1522697147000,"departure":1522697148000,"zoneId":"NA","stopIndex":4,"stopSequence":5,"vertexType":"TRANSIT"},"to":{"name":"Crécerelles / Grands Ducs","stopId":"1:1572","stopCode":"1572","lon":-71.059401,"lat":48.399282,"arrival":1522697626000,"departure":1522697627000,"zoneId":"NA","stopIndex":10,"stopSequence":11,"vertexType":"TRANSIT"},"legGeometry":{"points":"geofH~{tpLRp@y@t@[\\Uh@uBhGd@r@jE|CfAh@z@RLuAZuAzHaTTWVMjBEbAB?wDA]GYOYKMeAkAtAaERc@xAkEdB_Fh@qBb@aATOVGj@CvAv@j@ZxKhFt@^j@T`@Jb@B\\CXEzRiF|B}@zAfKDXXtCZ|DJpII~Fa@rFUzBRDd@Jd@Vb@\\LNVVRZb@bA^n@Zb@n@r@lAjAfBtBZu@","length":65},"routeShortName":"200S","routeLongName":"Séminaire - Quartier des Oiseaux","rentedBike":false,"transitLeg":true,"duration":478.0,"steps":[]},{"startTime":1522697627000,"endTime":1522697962000,"departureDelay":0,"arrivalDelay":0,"realTime":false,"distance":432.09900000000005,"pathway":false,"mode":"WALK","route":"","agencyTimeZoneOffset":-14400000,"interlineWithPreviousLeg":false,"from":{"name":"Crécerelles / Grands Ducs","stopId":"1:1572","stopCode":"1572","lon":-71.059401,"lat":48.399282,"arrival":1522697626000,"departure":1522697627000,"zoneId":"NA","stopIndex":10,"stopSequence":11,"vertexType":"TRANSIT"},"to":{"name":"Destination","lon":-71.064081,"lat":48.398646,"arrival":1522697962000,"orig":"","vertexType":"NORMAL"},"legGeometry":{"points":"{~kfHzwupLO^d@zCJ|@VbCErCm@rBUn@_@fAdB~BV\\FHNPRZ","length":14},"rentedBike":false,"transitLeg":false,"duration":335.0,"steps":[{"distance":14.512,"relativeDirection":"DEPART","streetName":"Rue des Crécerelles","absoluteDirection":"NORTHWEST","stayOn":false,"area":false,"bogusName":false,"lon":-71.05933013645267,"lat":48.3993477507773,"elevation":[]},{"distance":85.619,"relativeDirection":"LEFT","streetName":"Rue des Grands-Ducs","absoluteDirection":"WEST","stayOn":false,"area":false,"bogusName":false,"lon":-71.05949000000001,"lat":48.3994237,"elevation":[]},{"distance":208.717,"relativeDirection":"CONTINUE","streetName":"path","absoluteDirection":"WEST","stayOn":false,"area":false,"bogusName":true,"lon":-71.0605886,"lat":48.3991787,"elevation":[]},{"distance":123.25099999999999,"relativeDirection":"LEFT","streetName":"Boulevard Talbot","absoluteDirection":"SOUTHWEST","stayOn":false,"area":false,"bogusName":false,"lon":-71.0631635,"lat":48.399589600000006,"elevation":[]}]}],"tooSloped":false}]},"debugOutput":{"precalculationTime":35,"pathCalculationTime":43,"pathTimes":[18,12,13],"renderingTime":1,"totalTime":79,"timedOut":false},"elevationMetadata":{"ellipsoidToGeoidDifference":-28.885904201182168,"geoidElevation":false}}