{"requestParameters":{"date":"2018/04/02","walkSpeed":"1.33","walkReluctance":"2.0","fromPlace":"48.412425,-71.04901","maxWalkDistance":"3000","waitReluctance":"1.0","carSpeed":"33","numItineraries":"3","waitAtBeginningFactor":"0.4","mode":"TRANSIT,WALK","ignoreRealtimeUpdates":"false","stairsReluctance":"2.0","toPlace":"48.407063,-71.054811","time":"10:0:00"},"plan":{"date":1522677600000,"from":{"name":"Origin","lon":-71.04901,"lat":48.412425,"orig":"","vertexType":"NORMAL"},"to":{"name":"Destination","lon":-71.054811,"lat":48.407063,"orig":"","vertexType":"NORMAL"},"itineraries":[{"duration":574,"startTime":1522677626000,"endTime":1522678200000,"walkTime":488,"transitTime":84,"waitingTime":2,"walkDistance":622.6320526276729,"walkLimitExceeded":false,"elevationLost":0.0,"elevationGained":0.0,"transfers":0,"legs":[{"startTime":1522677626000,"endTime":1522677935000,"departureDelay":0,"arrivalDelay":0,"realTime":false,"distance":393.61199999999997,"pathway":false,"mode":"WALK","route":"","agencyTimeZoneOffset":-14400000,"interlineWithPreviousLeg":false,"from":{"name":"Origin","lon":-71.04901,"lat":48.412425,"departure":1522677626000,"orig":"","vertexType":"NORMAL"},"to":{"name":"Sûreté du Québec (Roitelets / Lorenzo-Genest)","stopId":"1:58","stopCode":"58","lon":-71.048311,"lat":48.40979,"arrival":1522677935000,"departure":1522677936000,"zoneId":"NA","stopIndex":26,"stopSequence":27,"vertexType":"TRANSIT"},"legGeometry":{"points":"ipnfHpvspLt@t@nBrBVPxBeHF_@`@o@XMd@KJD~Av@","length":11},"rentedBike":false,"transitLeg":false,"duration":309.0,"steps":[{"distance":125.60199999999999,"relativeDirection":"DEPART","streetName":"Rue Murdock","absoluteDirection":"SOUTHWEST","stayOn":false,"area":false,"bogusName":false,"lon":-71.04888988894086,"lat":48.412372220491264,"elevation":[]},{"distance":140.908,"relativeDirection":"LEFT","streetName":"Boulevard de l'Université","absoluteDirection":"SOUTHEAST","stayOn":false,"area":false,"bogusName":false,"lon":-71.0498268,"lat":48.4114298,"elevation":[]},{"distance":62.949,"relativeDirection":"SLIGHTLY_RIGHT","streetName":"link","absoluteDirection":"SOUTHEAST","stayOn":false,"area":false,"bogusName":true,"lon":-71.04819570000001,"lat":48.410774100000005,"elevation":[]},{"distance":64.153,"relativeDirection":"SLIGHTLY_RIGHT","streetName":"Rue Des Roitelets","absoluteDirection":"SOUTH","stayOn":false,"area":false,"bogusName":false,"lon":-71.0478246,"lat":48.4102837,"elevation":[]}]},{"startTime":1522677936000,"endTime":1522678020000,"departureDelay":0,"arrivalDelay":0,"realTime":false,"distance":533.9347446022477,"pathway":false,"mode":"BUS","route":"12","agencyName":"Société de Transport du Saguenay","agencyUrl":"http://ville.saguenay.ca/fr/services-aux-citoyens/transport-sts","agencyTimeZoneOffset":-14400000,"routeColor":"556B2F","routeType":3,"routeId":"1:12","routeTextColor":"FFFFFF","interlineWithPreviousLeg":false,"tripBlockId":"27","headsign":"Terminus UQAC","agencyId":"0","tripId":"1:218006","serviceDate":"20180402","from":{"name":"Sûreté du Québec (Roitelets / Lorenzo-Genest)","stopId":"1:58","stopCode":"58","lon":-71.048311,"lat":48.40979,"arrival":1522677935000,"departure":1522677936000,"zoneId":"NA","stopIndex":26,"stopSequence":27,"vertexType":"TRANSIT"},"to":{"name":"Place du Royaume (Champs-Élysées)","stopId":"1:193","stopCode":"193","lon":-71.052659,"lat":48.407065,"arrival":1522678020000,"departure":1522678021000,"zoneId":"NA","stopIndex":28,"stopSequence":29,"vertexType":"TRANSIT"},"legGeometry":{"points":"e`nfH~rspLdRvMcAjK","length":3},"routeShortName":"12","routeLongName":"Rivière du Moulin","rentedBike":false,"transitLeg":true,"duration":84.0,"steps":[]},{"startTime":1522678021000,"endTime":1522678200000,"departureDelay":0,"arrivalDelay":0,"realTime":false,"distance":228.899,"pathway":false,"mode":"WALK","route":"","agencyTimeZoneOffset":-14400000,"interlineWithPreviousLeg":false,"from":{"name":"Place du Royaume (Champs-Élysées)","stopId":"1:193","stopCode":"193","lon":-71.052659,"lat":48.407065,"arrival":1522678020000,"departure":1522678021000,"zoneId":"NA","stopIndex":28,"stopSequence":29,"vertexType":"TRANSIT"},"to":{"name":"Destination","lon":-71.054811,"lat":48.407063,"arrival":1522678200000,"orig":"","vertexType":"NORMAL"},"legGeometry":{"points":"unmfH|ntpLQTOb@aA~Cs@pB^\\xArA","length":7},"rentedBike":false,"transitLeg":false,"duration":179.0,"steps":[{"distance":149.249,"relativeDirection":"DEPART","streetName":"Rue des Champs-Élysées","absoluteDirection":"NORTHWEST","stayOn":false,"area":false,"bogusName":false,"lon":-71.0527883359973,"lat":48.40699779220329,"elevation":[]},{"distance":79.65,"relativeDirection":"LEFT","streetName":"parking aisle","absoluteDirection":"SOUTHWEST","stayOn":false,"area":false,"bogusName":true,"lon":-71.0544462,"lat":48.407755200000004,"elevation":[]}]}],"tooSloped":false},{"duration":695,"startTime":1522677600000,"endTime":1522678295000,"walkTime":695,"transitTime":0,"waitingTime":0,"walkDistance":890.2499849577598,"walkLimitExceeded":false,"elevationLost":0.0,"elevationGained":0.0,"transfers":0,"legs":[{"startTime":1522677600000,"endTime":1522678295000,"departureDelay":0,"arrivalDelay":0,"realTime":false,"distance":890.1059999999999,"pathway":false,"mode":"WALK","route":"","agencyTimeZoneOffset":-14400000,"interlineWithPreviousLeg":false,"from":{"name":"Origin","lon":-71.04901,"lat":48.412425,"departure":1522677600000,"orig":"","vertexType":"NORMAL"},"to":{"name":"Destination","lon":-71.054811,"lat":48.407063,"arrival":1522678295000,"orig":"","vertexType":"NORMAL"},"legGeometry":{"points":"ipnfHpvspLt@t@nBrBVPUn@}AlELJx@|@bDfDjDlDPRp@p@lAhApF`FLAn@MLe@H_@xArA","length":19},"rentedBike":false,"transitLeg":false,"duration":695.0,"steps":[{"distance":125.60199999999999,"relativeDirection":"DEPART","streetName":"Rue Murdock","absoluteDirection":"SOUTHWEST","stayOn":false,"area":false,"bogusName":false,"lon":-71.04888988894086,"lat":48.412372220491264,"elevation":[]},{"distance":112.9,"relativeDirection":"RIGHT","streetName":"Boulevard de l'Université","absoluteDirection":"NORTHWEST","stayOn":false,"area":false,"bogusName":false,"lon":-71.0498268,"lat":48.4114298,"elevation":[]},{"distance":529.414,"relativeDirection":"LEFT","streetName":"Boulevard Talbot","absoluteDirection":"SOUTHWEST","stayOn":false,"area":false,"bogusName":false,"lon":-71.0510904,"lat":48.412002,"elevation":[]},{"distance":34.36,"relativeDirection":"LEFT","streetName":"path","absoluteDirection":"SOUTH","stayOn":false,"area":false,"bogusName":true,"lon":-71.05502820000001,"lat":48.4080238,"elevation":[]},{"distance":87.83,"relativeDirection":"LEFT","streetName":"parking aisle","absoluteDirection":"SOUTHEAST","stayOn":true,"area":false,"bogusName":true,"lon":-71.0549472,"lat":48.407719500000006,"elevation":[]}]}],"tooSloped":false},{"duration":567,"startTime":1522679164000,"endTime":1522679731000,"walkTime":459,"transitTime":106,"waitingTime":2,"walkDistance":582.4580150341733,"walkLimitExceeded":false,"elevationLost":0.0,"elevationGained":0.0,"transfers":0,"legs":[{"startTime":1522679164000,"endTime":1522679282000,"departureDelay":0,"arrivalDelay":0,"realTime":false,"distance":147.20399999999998,"pathway":false,"mode":"WALK","route":"","agencyTimeZoneOffset":-14400000,"interlineWithPreviousLeg":false,"from":{"name":"Origin","lon":-71.04901,"lat":48.412425,"departure":1522679164000,"orig":"","vertexType":"NORMAL"},"to":{"name":"boul. Université / Murdock","stopId":"1:80","stopCode":"80","lon":-71.050111,"lat":48.411498,"arrival":1522679282000,"departure":1522679283000,"zoneId":"NA","stopIndex":14,"stopSequence":15,"vertexType":"TRANSIT"},"legGeometry":{"points":"ipnfHpvspLt@t@nBrBVPUn@","length":5},"rentedBike":false,"transitLeg":false,"duration":118.0,"steps":[{"distance":125.60199999999999,"relativeDirection":"DEPART","streetName":"Rue Murdock","absoluteDirection":"SOUTHWEST","stayOn":false,"area":false,"bogusName":false,"lon":-71.04888988894086,"lat":48.412372220491264,"elevation":[]},{"distance":21.602,"relativeDirection":"RIGHT","streetName":"Boulevard de l'Université","absoluteDirection":"NORTHWEST","stayOn":false,"area":false,"bogusName":false,"lon":-71.0498268,"lat":48.4114298,"elevation":[]}]},{"startTime":1522679283000,"endTime":1522679389000,"departureDelay":0,"arrivalDelay":0,"realTime":false,"distance":619.5296263120817,"pathway":false,"mode":"BUS","route":"175","agencyName":"Société de Transport du Saguenay","agencyUrl":"http://ville.saguenay.ca/fr/services-aux-citoyens/transport-sts","agencyTimeZoneOffset":-14400000,"routeColor":"FF00FF","routeType":3,"routeId":"1:175","routeTextColor":"FFFFFF","interlineWithPreviousLeg":false,"tripBlockId":"7","headsign":"Costco","agencyId":"0","tripId":"1:217328","serviceDate":"20180402","from":{"name":"boul. Université / Murdock","stopId":"1:80","stopCode":"80","lon":-71.050111,"lat":48.411498,"arrival":1522679282000,"departure":1522679283000,"zoneId":"NA","stopIndex":14,"stopSequence":15,"vertexType":"TRANSIT"},"to":{"name":"Émile Girardin / Roitelets","stopId":"1:253","stopCode":"253","lon":-71.050677,"lat":48.406726,"arrival":1522679389000,"departure":1522679390000,"zoneId":"NA","stopIndex":17,"stopSequence":18,"vertexType":"TRANSIT"},"legGeometry":{"points":"aknfH~}spLr@sBhCsKz@dAjB|@dM`GzCvAXrC","length":8},"routeShortName":"175","routeLongName":"Term. Chic / Costco","rentedBike":false,"transitLeg":true,"duration":106.0,"steps":[]},{"startTime":1522679390000,"endTime":1522679731000,"departureDelay":0,"arrivalDelay":0,"realTime":false,"distance":435.14799999999997,"pathway":false,"mode":"WALK","route":"","agencyTimeZoneOffset":-14400000,"interlineWithPreviousLeg":false,"from":{"name":"Émile Girardin / Roitelets","stopId":"1:253","stopCode":"253","lon":-71.050677,"lat":48.406726,"arrival":1522679389000,"departure":1522679390000,"zoneId":"NA","stopIndex":17,"stopSequence":18,"vertexType":"TRANSIT"},"to":{"name":"Destination","lon":-71.054811,"lat":48.407063,"arrival":1522679731000,"orig":"","vertexType":"NORMAL"},"legGeometry":{"points":"qlmfHnatpL@J@FFn@z@pEcA`AgAtAQTOb@aA~Cs@pB^\\xArA","length":13},"rentedBike":false,"transitLeg":false,"duration":341.0,"steps":[{"distance":110.098,"relativeDirection":"DEPART","streetName":"Rue Émile-Girardin","absoluteDirection":"WEST","stayOn":false,"area":false,"bogusName":false,"lon":-71.05063801296859,"lat":48.406654574894674,"elevation":[]},{"distance":245.4,"relativeDirection":"RIGHT","streetName":"Rue des Champs-Élysées","absoluteDirection":"NORTHWEST","stayOn":false,"area":false,"bogusName":false,"lon":-71.05202630000001,"lat":48.4062974,"elevation":[]},{"distance":79.65,"relativeDirection":"LEFT","streetName":"parking aisle","absoluteDirection":"SOUTHWEST","stayOn":false,"area":false,"bogusName":true,"lon":-71.0544462,"lat":48.407755200000004,"elevation":[]}]}],"tooSloped":false}]},"debugOutput":{"precalculationTime":50,"pathCalculationTime":26,"pathTimes":[12,7,7],"renderingTime":0,"totalTime":76,"timedOut":false},"elevationMetadata":{"ellipsoidToGeoidDifference":-28.885904201182168,"geoidElevation":false}}