{"requestParameters":{"date":"2018/04/02","walkSpeed":"1.33","walkReluctance":"2.0","fromPlace":"48.415048,-71.045145","maxWalkDistance":"3000","waitReluctance":"1.0","carSpeed":"33","numItineraries":"3","waitAtBeginningFactor":"0.4","mode":"TRANSIT,WALK","ignoreRealtimeUpdates":"false","stairsReluctance":"2.0","toPlace":"48.412425,-71.04901","time":"8:5:00"},"plan":{"date":1522670700000,"from":{"name":"Origin","lon":-71.045145,"lat":48.415048,"orig":"","vertexType":"NORMAL"},"to":{"name":"Destination","lon":-71.04901,"lat":48.412425,"orig":"","vertexType":"NORMAL"},"itineraries":[{"duration":338,"startTime":1522670700000,"endTime":1522671038000,"walkTime":338,"transitTime":0,"waitingTime":0,"walkDistance":433.7026015024493,"walkLimitExceeded":false,"elevationLost":0.0,"elevationGained":0.0,"transfers":0,"legs":[{"startTime":1522670700000,"endTime":1522671038000,"departureDelay":0,"arrivalDelay":0,"realTime":false,"distance":433.66200000000003,"pathway":false,"mode":"WALK","route":"","agencyTimeZoneOffset":-14400000,"interlineWithPreviousLeg":false,"from":{"name":"Origin","lon":-71.045145,"lat":48.415048,"departure":1522670700000,"orig":"","vertexType":"NORMAL"},"to":{"name":"Destination","lon":-71.04901,"lat":48.412425,"arrival":1522671038000,"orig":"","vertexType":"NORMAL"},"legGeometry":{"points":"{`ofHh_spL_@fAt@hABDn@~@b@lA`ArAl@l@@Bh@j@PRdBlBnClC","length":13},"rentedBike":false,"transitLeg":false,"duration":338.0,"steps":[{"distance":31.743,"relativeDirection":"DEPART","streetName":"Rue Chabanel","absoluteDirection":"NORTHWEST","stayOn":false,"area":false,"bogusName":false,"lon":-71.04516635936612,"lat":48.41502693110659,"elevation":[]},{"distance":401.919,"relativeDirection":"LEFT","streetName":"Rue Murdock","absoluteDirection":"SOUTHWEST","stayOn":false,"area":false,"bogusName":false,"lon":-71.0455232,"lat":48.4151863,"elevation":[]}]}],"tooSloped":false},{"duration":260,"startTime":1522672128000,"endTime":1522672388000,"walkTime":172,"transitTime":86,"waitingTime":2,"walkDistance":214.8084060130239,"walkLimitExceeded":false,"elevationLost":0.0,"elevationGained":0.0,"transfers":0,"legs":[{"startTime":1522672128000,"endTime":1522672189000,"departureDelay":0,"arrivalDelay":0,"realTime":false,"distance":75.619,"pathway":false,"mode":"WALK","route":"","agencyTimeZoneOffset":-14400000,"interlineWithPreviousLeg":false,"from":{"name":"Origin","lon":-71.045145,"lat":48.415048,"departure":1522672128000,"orig":"","vertexType":"NORMAL"},"to":{"name":"Murdock / Chabanel","stopId":"1:3552","stopCode":"3552","lon":-71.046063,"lat":48.414978,"arrival":1522672189000,"departure":1522672190000,"zoneId":"NA","stopIndex":19,"stopSequence":20,"vertexType":"TRANSIT"},"legGeometry":{"points":"{`ofHh_spL_@fAt@hABD","length":4},"rentedBike":false,"transitLeg":false,"duration":61.0,"steps":[{"distance":31.743,"relativeDirection":"DEPART","streetName":"Rue Chabanel","absoluteDirection":"NORTHWEST","stayOn":false,"area":false,"bogusName":false,"lon":-71.04516635936612,"lat":48.41502693110659,"elevation":[]},{"distance":43.876,"relativeDirection":"LEFT","streetName":"Rue Murdock","absoluteDirection":"SOUTHWEST","stayOn":false,"area":false,"bogusName":false,"lon":-71.0455232,"lat":48.4151863,"elevation":[]}]},{"startTime":1522672190000,"endTime":1522672276000,"departureDelay":0,"arrivalDelay":0,"realTime":false,"distance":460.2198514525412,"pathway":false,"mode":"BUS","route":"10","agencyName":"Société de Transport du Saguenay","agencyUrl":"http://ville.saguenay.ca/fr/services-aux-citoyens/transport-sts","agencyTimeZoneOffset":-14400000,"routeColor":"0000FF","routeType":3,"routeId":"1:10","routeTextColor":"FFFFFF","interlineWithPreviousLeg":false,"tripBlockId":"29","headsign":"Terminus UQAC","agencyId":"0","tripId":"1:218055","serviceDate":"20180402","from":{"name":"Murdock / Chabanel","stopId":"1:3552","stopCode":"3552","lon":-71.046063,"lat":48.414978,"arrival":1522672189000,"departure":1522672190000,"zoneId":"NA","stopIndex":19,"stopSequence":20,"vertexType":"TRANSIT"},"to":{"name":"boul. Université / Murdock","stopId":"1:59","stopCode":"59","lon":-71.049971,"lat":48.411755,"arrival":1522672276000,"departure":1522672277000,"zoneId":"NA","stopIndex":21,"stopSequence":22,"vertexType":"TRANSIT"},"legGeometry":{"points":"e`ofHhdspLvA~BvB|BdN|Nc@bA","length":5},"routeShortName":"10","routeLongName":"Notre-Dame du Saguenay","rentedBike":false,"transitLeg":true,"duration":86.0,"steps":[]},{"startTime":1522672277000,"endTime":1522672388000,"departureDelay":0,"arrivalDelay":0,"realTime":false,"distance":139.127,"pathway":false,"mode":"WALK","route":"","agencyTimeZoneOffset":-14400000,"interlineWithPreviousLeg":false,"from":{"name":"boul. Université / Murdock","stopId":"1:59","stopCode":"59","lon":-71.049971,"lat":48.411755,"arrival":1522672276000,"departure":1522672277000,"zoneId":"NA","stopIndex":21,"stopSequence":22,"vertexType":"TRANSIT"},"to":{"name":"Destination","lon":-71.04901,"lat":48.412425,"arrival":1522672388000,"orig":"","vertexType":"NORMAL"},"legGeometry":{"points":"_lnfHx}spLZ}@oBsBu@u@","length":4},"rentedBike":false,"transitLeg":false,"duration":111.0,"steps":[{"distance":27.938,"relativeDirection":"DEPART","streetName":"Boulevard de l'Université","absoluteDirection":"SOUTHEAST","stayOn":false,"area":false,"bogusName":false,"lon":-71.05004245459075,"lat":48.41168714240219,"elevation":[]},{"distance":111.189,"relativeDirection":"LEFT","streetName":"Rue Murdock","absoluteDirection":"NORTHEAST","stayOn":false,"area":false,"bogusName":false,"lon":-71.04973220000001,"lat":48.411543200000004,"elevation":[]}]}],"tooSloped":false}]},"debugOutput":{"precalculationTime":43,"pathCalculationTime":13,"pathTimes":[2,9,2],"renderingTime":0,"totalTime":56,"timedOut":false},"elevationMetadata":{"ellipsoidToGeoidDifference":-28.885904201182168,"geoidElevation":false}}