{"requestParameters":{"date":"2018/04/02","walkSpeed":"1.33","walkReluctance":"2.0","fromPlace":"48.423093,-71.045125","maxWalkDistance":"3000","waitReluctance":"1.0","carSpeed":"33","numItineraries":"3","waitAtBeginningFactor":"0.4","mode":"TRANSIT,WALK","ignoreRealtimeUpdates":"false","stairsReluctance":"2.0","toPlace":"48.425983,-71.061323","time":"9:0:00"},"plan":{"date":1522674000000,"from":{"name":"Origin","lon":-71.045125,"lat":48.423093,"orig":"","vertexType":"NORMAL"},"to":{"name":"Destination","lon":-71.061323,"lat":48.425983,"orig":"","vertexType":"NORMAL"},"itineraries":[{"duration":1098,"startTime":1522674000000,"endTime":1522675098000,"walkTime":1098,"transitTime":0,"waitingTime":0,"walkDistance":1422.8851654113992,"walkLimitExceeded":false,"elevationLost":0.0,"elevationGained":0.0,"transfers":0,"legs":[{"startTime":1522674000000,"endTime":1522675098000,"departureDelay":0,"arrivalDelay":0,"realTime":false,"distance":1422.8190000000002,"pathway":false,"mode":"WALK","route":"","agencyTimeZoneOffset":-14400000,"interlineWithPreviousLeg":false,"from":{"name":"Origin","lon":-71.045125,"lat":48.423093,"departure":1522674000000,"orig":"","vertexType":"NORMAL"},"to":{"name":"Destination","lon":-71.061323,"lat":48.425983,"arrival":1522675098000,"orig":"","vertexType":"NORMAL"},"legGeometry":{"points":"espfHj~rpLqGeBIv@YvC_AfLAFOtBCVC^YvCUxDEt@YnHItBGxAAf@OfBAFKb@]hACHSv@ERQxAAb@OzHI|D?J?VAT?`@CfBIpEAR?\\A|@?TAxB","length":38},"rentedBike":false,"transitLeg":false,"duration":1098.0,"steps":[{"distance":156.636,"relativeDirection":"DEPART","streetName":"Rue de Tilly","absoluteDirection":"NORTH","stayOn":false,"area":false,"bogusName":false,"lon":-71.04501450691512,"lat":48.42307502806559,"elevation":[]},{"distance":1266.1830000000002,"relativeDirection":"LEFT","streetName":"Rue Jacques-Cartier Est","absoluteDirection":"WEST","stayOn":false,"area":false,"bogusName":false,"lon":-71.04450920000001,"lat":48.424443200000006,"elevation":[]}]}],"tooSloped":false},{"duration":885,"startTime":1522675260000,"endTime":1522676145000,"walkTime":784,"transitTime":99,"waitingTime":2,"walkDistance":1007.474353380511,"walkLimitExceeded":false,"elevationLost":0.0,"elevationGained":0.0,"transfers":0,"legs":[{"startTime":1522675260000,"endTime":1522676019000,"departureDelay":0,"arrivalDelay":0,"realTime":false,"distance":975.643,"pathway":false,"mode":"WALK","route":"","agencyTimeZoneOffset":-14400000,"interlineWithPreviousLeg":false,"from":{"name":"Origin","lon":-71.045125,"lat":48.423093,"departure":1522675260000,"orig":"","vertexType":"NORMAL"},"to":{"name":"Bégin / Jacques-Cartier","stopId":"1:561","stopCode":"561","lon":-71.05511,"lat":48.425555,"arrival":1522676019000,"departure":1522676020000,"zoneId":"NA","stopIndex":33,"stopSequence":34,"vertexType":"TRANSIT"},"legGeometry":{"points":"espfHj~rpLqGeBIv@YvC_AfLAFOtBCVC^YvCUxDEt@YnHItBGxAAf@OfBAFKb@]hA@h@DZJ\\DN`@`@","length":25},"rentedBike":false,"transitLeg":false,"duration":759.0,"steps":[{"distance":156.636,"relativeDirection":"DEPART","streetName":"Rue de Tilly","absoluteDirection":"NORTH","stayOn":false,"area":false,"bogusName":false,"lon":-71.04501450691512,"lat":48.42307502806559,"elevation":[]},{"distance":750.4110000000001,"relativeDirection":"LEFT","streetName":"Rue Jacques-Cartier Est","absoluteDirection":"WEST","stayOn":false,"area":false,"bogusName":false,"lon":-71.04450920000001,"lat":48.424443200000006,"elevation":[]},{"distance":45.819,"relativeDirection":"SLIGHTLY_LEFT","streetName":"link","absoluteDirection":"WEST","stayOn":false,"area":false,"bogusName":true,"lon":-71.054406,"lat":48.425870200000006,"elevation":[]},{"distance":22.777,"relativeDirection":"SLIGHTLY_LEFT","streetName":"Rue Bégin","absoluteDirection":"SOUTHWEST","stayOn":false,"area":false,"bogusName":false,"lon":-71.05498390000001,"lat":48.425745500000005,"elevation":[]}]},{"startTime":1522676020000,"endTime":1522676119000,"departureDelay":0,"arrivalDelay":0,"realTime":false,"distance":504.37418400116576,"pathway":false,"mode":"BUS","route":"15","agencyName":"Société de Transport du Saguenay","agencyUrl":"http://ville.saguenay.ca/fr/services-aux-citoyens/transport-sts","agencyTimeZoneOffset":-14400000,"routeColor":"FF00FF","routeType":3,"routeId":"1:15","routeTextColor":"FFFFFF","interlineWithPreviousLeg":false,"tripBlockId":"30","headsign":"Terminus Chicoutimi","agencyId":"0","tripId":"1:218092","serviceDate":"20180402","from":{"name":"Bégin / Jacques-Cartier","stopId":"1:561","stopCode":"561","lon":-71.05511,"lat":48.425555,"arrival":1522676019000,"departure":1522676020000,"zoneId":"NA","stopIndex":33,"stopSequence":34,"vertexType":"TRANSIT"},"to":{"name":"Conservatoire (Jacques-Cartier)","stopId":"1:69","stopCode":"69","lon":-71.06173,"lat":48.42643,"arrival":1522676119000,"departure":1522676120000,"zoneId":"NA","stopIndex":35,"stopSequence":36,"vertexType":"TRANSIT"},"legGeometry":{"points":"}bqfH`~tpLkAqAU|@WnKG|DGxDOdP","length":7},"routeShortName":"15","routeLongName":"Term. Chic / Costco","rentedBike":false,"transitLeg":true,"duration":99.0,"steps":[]},{"startTime":1522676120000,"endTime":1522676145000,"departureDelay":0,"arrivalDelay":0,"realTime":false,"distance":31.740000000000002,"pathway":false,"mode":"WALK","route":"","agencyTimeZoneOffset":-14400000,"interlineWithPreviousLeg":false,"from":{"name":"Conservatoire (Jacques-Cartier)","stopId":"1:69","stopCode":"69","lon":-71.06173,"lat":48.42643,"arrival":1522676119000,"departure":1522676120000,"zoneId":"NA","stopIndex":35,"stopSequence":36,"vertexType":"TRANSIT"},"to":{"name":"Destination","lon":-71.061323,"lat":48.425983,"arrival":1522676145000,"orig":"","vertexType":"NORMAL"},"legGeometry":{"points":"ygqfHzfvpL?o@@e@","length":3},"rentedBike":false,"transitLeg":false,"duration":25.0,"steps":[{"distance":31.740000000000002,"relativeDirection":"DEPART","streetName":"Rue Jacques-Cartier Est","absoluteDirection":"EAST","stayOn":false,"area":false,"bogusName":false,"lon":-71.06173262650398,"lat":48.42637987728782,"elevation":[]}]}],"tooSloped":false},{"duration":729,"startTime":1522675740000,"endTime":1522676469000,"walkTime":435,"transitTime":292,"waitingTime":2,"walkDistance":545.8953909723974,"walkLimitExceeded":false,"elevationLost":0.0,"elevationGained":0.0,"transfers":0,"legs":[{"startTime":1522675740000,"endTime":1522675984000,"departureDelay":0,"arrivalDelay":0,"realTime":false,"distance":308.74300000000005,"pathway":false,"mode":"WALK","route":"","agencyTimeZoneOffset":-14400000,"interlineWithPreviousLeg":false,"from":{"name":"Origin","lon":-71.045125,"lat":48.423093,"departure":1522675740000,"orig":"","vertexType":"NORMAL"},"to":{"name":"nouveau","stopId":"1:2285","stopCode":"2285","lon":-71.04706,"lat":48.42154,"arrival":1522675984000,"departure":1522675985000,"zoneId":"NA","stopIndex":13,"stopSequence":14,"vertexType":"TRANSIT"},"legGeometry":{"points":"espfHj~rpLzA`@MpACJQ`BJDJF~@~@|CbDRk@","length":10},"rentedBike":false,"transitLeg":false,"duration":244.0,"steps":[{"distance":52.85,"relativeDirection":"DEPART","streetName":"Rue de Tilly","absoluteDirection":"SOUTH","stayOn":false,"area":false,"bogusName":false,"lon":-71.04501450691512,"lat":48.42307502806559,"elevation":[]},{"distance":73.176,"relativeDirection":"RIGHT","streetName":"Rue du Cénacle","absoluteDirection":"WEST","stayOn":false,"area":false,"bogusName":false,"lon":-71.045185,"lat":48.4226134,"elevation":[]},{"distance":163.088,"relativeDirection":"LEFT","streetName":"Rue Bécard","absoluteDirection":"SOUTH","stayOn":false,"area":false,"bogusName":false,"lon":-71.04614020000001,"lat":48.4227902,"elevation":[]},{"distance":19.629,"relativeDirection":"LEFT","streetName":"Chemin Sydenham","absoluteDirection":"SOUTHEAST","stayOn":false,"area":false,"bogusName":false,"lon":-71.0473547,"lat":48.4215682,"elevation":[]}]},{"startTime":1522675985000,"endTime":1522676277000,"departureDelay":0,"arrivalDelay":0,"realTime":false,"distance":1300.4485005115448,"pathway":false,"mode":"BUS","route":"10","agencyName":"Société de Transport du Saguenay","agencyUrl":"http://ville.saguenay.ca/fr/services-aux-citoyens/transport-sts","agencyTimeZoneOffset":-14400000,"routeColor":"0000FF","routeType":3,"routeId":"1:10","routeTextColor":"FFFFFF","interlineWithPreviousLeg":false,"tripBlockId":"27","headsign":"Terminus Chicoutimi","agencyId":"0","tripId":"1:218005","serviceDate":"20180402","from":{"name":"nouveau","stopId":"1:2285","stopCode":"2285","lon":-71.04706,"lat":48.42154,"arrival":1522675984000,"departure":1522675985000,"zoneId":"NA","stopIndex":13,"stopSequence":14,"vertexType":"TRANSIT"},"to":{"name":"Racine / Lafontaine","stopId":"1:335","stopCode":"335","lon":-71.059566,"lat":48.427682,"arrival":1522676277000,"departure":1522676278000,"zoneId":"NA","stopIndex":18,"stopSequence":19,"vertexType":"TRANSIT"},"legGeometry":{"points":"aipfHvkspL_BhE}AfD{BdByBh@iC]oDq@YbF_Ea@AAuEg@MDENF|GAjJDzBDdDLdHFbCo@RUFRbFG|F","length":23},"routeShortName":"10","routeLongName":"Notre-Dame du Saguenay","rentedBike":false,"transitLeg":true,"duration":292.0,"steps":[]},{"startTime":1522676278000,"endTime":1522676469000,"departureDelay":0,"arrivalDelay":0,"realTime":false,"distance":236.99599999999998,"pathway":false,"mode":"WALK","route":"","agencyTimeZoneOffset":-14400000,"interlineWithPreviousLeg":false,"from":{"name":"Racine / Lafontaine","stopId":"1:335","stopCode":"335","lon":-71.059566,"lat":48.427682,"arrival":1522676277000,"departure":1522676278000,"zoneId":"NA","stopIndex":18,"stopSequence":19,"vertexType":"TRANSIT"},"to":{"name":"Destination","lon":-71.061323,"lat":48.425983,"arrival":1522676469000,"orig":"","vertexType":"NORMAL"},"legGeometry":{"points":"ooqfHjyupLEtAlAD^@fAP`@z@TVPZAxB","length":9},"rentedBike":false,"transitLeg":false,"duration":191.0,"steps":[{"distance":31.98,"relativeDirection":"DEPART","streetName":"Rue Racine Est","absoluteDirection":"WEST","stayOn":false,"area":false,"bogusName":false,"lon":-71.05957567651686,"lat":48.42760765274167,"elevation":[]},{"distance":101.49900000000001,"relativeDirection":"LEFT","streetName":"Rue La Fontaine","absoluteDirection":"SOUTH","stayOn":false,"area":false,"bogusName":false,"lon":-71.0600075,"lat":48.4276324,"elevation":[]},{"distance":58.538,"relativeDirection":"SLIGHTLY_RIGHT","streetName":"Rue La Fontaine","absoluteDirection":"SOUTHWEST","stayOn":true,"area":false,"bogusName":false,"lon":-71.0601336,"lat":48.4267252,"elevation":[]},{"distance":44.979,"relativeDirection":"RIGHT","streetName":"Rue Jacques-Cartier Est","absoluteDirection":"WEST","stayOn":false,"area":false,"bogusName":false,"lon":-71.0606935,"lat":48.426355900000004,"elevation":[]}]}],"tooSloped":false}]},"debugOutput":{"precalculationTime":49,"pathCalculationTime":35,"pathTimes":[21,5,9],"renderingTime":0,"totalTime":84,"timedOut":false},"elevationMetadata":{"ellipsoidToGeoidDifference":-28.885904201182168,"geoidElevation":false}}