{"requestParameters":{"date":"2018/04/02","walkSpeed":"1.33","walkReluctance":"2.0","fromPlace":"48.431625,-71.018196","maxWalkDistance":"3000","waitReluctance":"1.0","carSpeed":"33","numItineraries":"3","waitAtBeginningFactor":"0.4","mode":"TRANSIT,WALK","ignoreRealtimeUpdates":"false","stairsReluctance":"2.0","toPlace":"48.403323,-71.06394299","time":"14:45:00"},"plan":{"date":1522694700000,"from":{"name":"Origin","lon":-71.018196,"lat":48.431625,"orig":"","vertexType":"NORMAL"},"to":{"name":"Destination","lon":-71.06394299,"lat":48.403323,"orig":"","vertexType":"NORMAL"},"itineraries":[{"duration":1859,"startTime":1522695008000,"endTime":1522696867000,"walkTime":1014,"transitTime":843,"waitingTime":2,"walkDistance":1291.808067661846,"walkLimitExceeded":false,"elevationLost":0.0,"elevationGained":0.0,"transfers":0,"legs":[{"startTime":1522695008000,"endTime":1522695236000,"departureDelay":0,"arrivalDelay":0,"realTime":false,"distance":284.76800000000003,"pathway":false,"mode":"WALK","route":"","agencyTimeZoneOffset":-14400000,"interlineWithPreviousLeg":false,"from":{"name":"Origin","lon":-71.018196,"lat":48.431625,"departure":1522695008000,"orig":"","vertexType":"NORMAL"},"to":{"name":"Normandie / Perche","stopId":"1:498","stopCode":"498","lon":-71.0191,"lat":48.4306,"arrival":1522695236000,"departure":1522695237000,"zoneId":"NA","stopIndex":16,"stopSequence":17,"vertexType":"TRANSIT"},"legGeometry":{"points":"kirfHbvmpLw@pCxBnBdAqDfB|A","length":5},"rentedBike":false,"transitLeg":false,"duration":228.0,"steps":[{"distance":62.676,"relativeDirection":"DEPART","streetName":"Rue du Poitou","absoluteDirection":"NORTHWEST","stayOn":false,"area":false,"bogusName":false,"lon":-71.01809102494626,"lat":48.43174681876701,"elevation":[]},{"distance":78.941,"relativeDirection":"LEFT","streetName":"Rue de Paris","absoluteDirection":"SOUTHWEST","stayOn":false,"area":false,"bogusName":false,"lon":-71.0188285,"lat":48.4320266,"elevation":[]},{"distance":75.797,"relativeDirection":"LEFT","streetName":"Rue du Perche","absoluteDirection":"SOUTHEAST","stayOn":false,"area":false,"bogusName":false,"lon":-71.0193814,"lat":48.4314188,"elevation":[]},{"distance":67.354,"relativeDirection":"RIGHT","streetName":"Rue de Normandie","absoluteDirection":"SOUTHWEST","stayOn":false,"area":false,"bogusName":false,"lon":-71.0185,"lat":48.4310686,"elevation":[]}]},{"startTime":1522695237000,"endTime":1522696080000,"departureDelay":0,"arrivalDelay":0,"realTime":false,"distance":5143.297975226932,"pathway":false,"mode":"BUS","route":"12","agencyName":"Société de Transport du Saguenay","agencyUrl":"http://ville.saguenay.ca/fr/services-aux-citoyens/transport-sts","agencyTimeZoneOffset":-14400000,"routeColor":"556B2F","routeType":3,"routeId":"1:12","routeTextColor":"FFFFFF","interlineWithPreviousLeg":false,"tripBlockId":"27","headsign":"Terminus UQAC","agencyId":"0","tripId":"1:218016","serviceDate":"20180402","from":{"name":"Normandie / Perche","stopId":"1:498","stopCode":"498","lon":-71.0191,"lat":48.4306,"arrival":1522695236000,"departure":1522695237000,"zoneId":"NA","stopIndex":16,"stopSequence":17,"vertexType":"TRANSIT"},"to":{"name":"Champs-Élysées / Chopin","stopId":"1:584","stopCode":"584","lon":-71.058412,"lat":48.409805,"arrival":1522696080000,"departure":1522696081000,"zoneId":"NA","stopIndex":29,"stopSequence":30,"vertexType":"TRANSIT"},"legGeometry":{"points":"gbrfHj|mpLlIrH`JlH`EfDnOdIdGlGjL|BzBiLv@}L`b@fNvVvrCdRvMcAjKcP~b@","length":14},"routeShortName":"12","routeLongName":"Rivière du Moulin","rentedBike":false,"transitLeg":true,"duration":843.0,"steps":[]},{"startTime":1522696081000,"endTime":1522696867000,"departureDelay":0,"arrivalDelay":0,"realTime":false,"distance":1006.813,"pathway":false,"mode":"WALK","route":"","agencyTimeZoneOffset":-14400000,"interlineWithPreviousLeg":false,"from":{"name":"Champs-Élysées / Chopin","stopId":"1:584","stopCode":"584","lon":-71.058412,"lat":48.409805,"arrival":1522696080000,"departure":1522696081000,"zoneId":"NA","stopIndex":29,"stopSequence":30,"vertexType":"TRANSIT"},"to":{"name":"Destination","lon":-71.06394299,"lat":48.403323,"arrival":1522696867000,"orig":"","vertexType":"NORMAL"},"legGeometry":{"points":"{_nfHprupL?@o@|A|@h@hAd@DBj@d@d@`@pAfAlBpB`BxAn@V~@b@J[DQrAiDn@aBdE|D|EtERRFJFRDTJ^V\\zBhB","length":26},"rentedBike":false,"transitLeg":false,"duration":786.0,"steps":[{"distance":44.609,"relativeDirection":"DEPART","streetName":"Rue des Champs-Élysées","absoluteDirection":"NORTHWEST","stayOn":false,"area":false,"bogusName":false,"lon":-71.05848639303342,"lat":48.40974208921815,"elevation":[]},{"distance":395.65,"relativeDirection":"LEFT","streetName":"Rue Bizet","absoluteDirection":"SOUTHWEST","stayOn":false,"area":false,"bogusName":false,"lon":-71.0589618,"lat":48.409989800000005,"elevation":[]},{"distance":142.506,"relativeDirection":"LEFT","streetName":"bike path","absoluteDirection":"SOUTHEAST","stayOn":false,"area":false,"bogusName":true,"lon":-71.0614278,"lat":48.4068513,"elevation":[]},{"distance":424.048,"relativeDirection":"RIGHT","streetName":"Rue Bach","absoluteDirection":"SOUTHWEST","stayOn":false,"area":false,"bogusName":false,"lon":-71.0598554,"lat":48.4061091,"elevation":[]}]}],"tooSloped":false},{"duration":2432,"startTime":1522695495000,"endTime":1522697927000,"walkTime":404,"transitTime":1786,"waitingTime":242,"walkDistance":509.8512330780851,"walkLimitExceeded":false,"elevationLost":0.0,"elevationGained":0.0,"transfers":1,"legs":[{"startTime":1522695495000,"endTime":1522695732000,"departureDelay":0,"arrivalDelay":0,"realTime":false,"distance":296.11800000000005,"pathway":false,"mode":"WALK","route":"","agencyTimeZoneOffset":-14400000,"interlineWithPreviousLeg":false,"from":{"name":"Origin","lon":-71.018196,"lat":48.431625,"departure":1522695495000,"orig":"","vertexType":"NORMAL"},"to":{"name":"nouveau","stopId":"1:2302","stopCode":"2302","lon":-71.018919,"lat":48.430411,"arrival":1522695732000,"departure":1522695733000,"zoneId":"NA","stopIndex":23,"stopSequence":24,"vertexType":"TRANSIT"},"legGeometry":{"points":"kirfHbvmpLw@pCxBnBdAqDfB|APN","length":6},"rentedBike":false,"transitLeg":false,"duration":237.0,"steps":[{"distance":62.676,"relativeDirection":"DEPART","streetName":"Rue du Poitou","absoluteDirection":"NORTHWEST","stayOn":false,"area":false,"bogusName":false,"lon":-71.01809102494626,"lat":48.43174681876701,"elevation":[]},{"distance":78.941,"relativeDirection":"LEFT","streetName":"Rue de Paris","absoluteDirection":"SOUTHWEST","stayOn":false,"area":false,"bogusName":false,"lon":-71.0188285,"lat":48.4320266,"elevation":[]},{"distance":75.797,"relativeDirection":"LEFT","streetName":"Rue du Perche","absoluteDirection":"SOUTHEAST","stayOn":false,"area":false,"bogusName":false,"lon":-71.0193814,"lat":48.4314188,"elevation":[]},{"distance":78.704,"relativeDirection":"RIGHT","streetName":"Rue de Normandie","absoluteDirection":"SOUTHWEST","stayOn":false,"area":false,"bogusName":false,"lon":-71.0185,"lat":48.4310686,"elevation":[]}]},{"startTime":1522695733000,"endTime":1522696260000,"departureDelay":0,"arrivalDelay":0,"realTime":false,"distance":3668.894441919941,"pathway":false,"mode":"BUS","route":"12","agencyName":"Société de Transport du Saguenay","agencyUrl":"http://ville.saguenay.ca/fr/services-aux-citoyens/transport-sts","agencyTimeZoneOffset":-14400000,"routeColor":"556B2F","routeType":3,"routeId":"1:12","routeTextColor":"FFFFFF","interlineWithPreviousLeg":false,"tripBlockId":"29","headsign":"Terminus Chicoutimi","agencyId":"0","tripId":"1:218068","serviceDate":"20180402","from":{"name":"nouveau","stopId":"1:2302","stopCode":"2302","lon":-71.018919,"lat":48.430411,"arrival":1522695732000,"departure":1522695733000,"zoneId":"NA","stopIndex":23,"stopSequence":24,"vertexType":"TRANSIT"},"to":{"name":"Terminus Chicoutimi","stopId":"1:1289","stopCode":"1289","lon":-71.066163,"lat":48.428677,"arrival":1522696260000,"departure":1522696500000,"zoneId":"NA","stopIndex":33,"stopSequence":34,"vertexType":"TRANSIT"},"legGeometry":{"points":"iarfH~{mpLsBeB{HjWfAvAfM|O|FlHmB`IgA|Cy@`UYzHZvMR~Hr@~ZPvHsCrMFxf@|ApJj@nDDl]BvZdCXJhC","length":22},"routeShortName":"12","routeLongName":"Rivière du Moulin","rentedBike":false,"transitLeg":true,"duration":527.0,"steps":[]},{"startTime":1522696500000,"endTime":1522697759000,"departureDelay":0,"arrivalDelay":0,"realTime":false,"distance":5344.788688857265,"pathway":false,"mode":"BUS","route":"15","agencyName":"Société de Transport du Saguenay","agencyUrl":"http://ville.saguenay.ca/fr/services-aux-citoyens/transport-sts","agencyTimeZoneOffset":-14400000,"routeColor":"FF00FF","routeType":3,"routeId":"1:15","routeTextColor":"FFFFFF","interlineWithPreviousLeg":false,"tripBlockId":"33","headsign":"Talbot / Barrette","agencyId":"0","tripId":"1:218189","serviceDate":"20180402","from":{"name":"Terminus Chicoutimi","stopId":"1:1289","stopCode":"1289","lon":-71.066163,"lat":48.428677,"arrival":1522696260000,"departure":1522696500000,"zoneId":"NA","stopIndex":0,"stopSequence":1,"vertexType":"TRANSIT"},"to":{"name":"Saguenéens  / Bach","stopId":"1:575","stopCode":"575","lon":-71.061104,"lat":48.403689,"arrival":1522697759000,"departure":1522697760000,"zoneId":"NA","stopIndex":23,"stopSequence":24,"vertexType":"TRANSIT"},"legGeometry":{"points":"evqfHpbwpLPiCjKx@HiEZkS\\aSN_K^eIrBpBvIpIr@r@\\mBfAaA`@gBOkB_@uF|DyL|DpDQ|@|@z@bA`ATw@dD~Ch@fA@`E~AjGuH`Iy@bBi@dCbEdEjJlJ`HbHlJpJ|J~JdAfALzDNzDrAdBrEKvBEbCv@d@TvFlC|DlBpMlGrB`AM}@hAwEC{B]oBiBmBsH_@_K{H`EgIvCaGfEoItDsH~DeI","length":58},"routeShortName":"15","routeLongName":"Term. Chic / Costco","rentedBike":false,"transitLeg":true,"duration":1259.0,"steps":[]},{"startTime":1522697760000,"endTime":1522697927000,"departureDelay":0,"arrivalDelay":0,"realTime":false,"distance":213.59000000000003,"pathway":false,"mode":"WALK","route":"","agencyTimeZoneOffset":-14400000,"interlineWithPreviousLeg":false,"from":{"name":"Saguenéens  / Bach","stopId":"1:575","stopCode":"575","lon":-71.061104,"lat":48.403689,"arrival":1522697759000,"departure":1522697760000,"zoneId":"NA","stopIndex":23,"stopSequence":24,"vertexType":"TRANSIT"},"to":{"name":"Destination","lon":-71.06394299,"lat":48.403323,"arrival":1522697927000,"orig":"","vertexType":"NORMAL"},"legGeometry":{"points":"wylfHfcvpLgAnCRRFJFRDTJ^V\\zBhB","length":9},"rentedBike":false,"transitLeg":false,"duration":167.0,"steps":[{"distance":66.956,"relativeDirection":"DEPART","streetName":"Rue des Saguenéens","absoluteDirection":"NORTHWEST","stayOn":false,"area":false,"bogusName":false,"lon":-71.0611521754673,"lat":48.403646208471976,"elevation":[]},{"distance":146.63400000000001,"relativeDirection":"LEFT","streetName":"Rue Bach","absoluteDirection":"SOUTHWEST","stayOn":false,"area":false,"bogusName":false,"lon":-71.06187870000001,"lat":48.404006700000004,"elevation":[]}]}],"tooSloped":false},{"duration":1859,"startTime":1522696808000,"endTime":1522698667000,"walkTime":1014,"transitTime":843,"waitingTime":2,"walkDistance":1291.808067661846,"walkLimitExceeded":false,"elevationLost":0.0,"elevationGained":0.0,"transfers":0,"legs":[{"startTime":1522696808000,"endTime":1522697036000,"departureDelay":0,"arrivalDelay":0,"realTime":false,"distance":284.76800000000003,"pathway":false,"mode":"WALK","route":"","agencyTimeZoneOffset":-14400000,"interlineWithPreviousLeg":false,"from":{"name":"Origin","lon":-71.018196,"lat":48.431625,"departure":1522696808000,"orig":"","vertexType":"NORMAL"},"to":{"name":"Normandie / Perche","stopId":"1:498","stopCode":"498","lon":-71.0191,"lat":48.4306,"arrival":1522697036000,"departure":1522697037000,"zoneId":"NA","stopIndex":16,"stopSequence":17,"vertexType":"TRANSIT"},"legGeometry":{"points":"kirfHbvmpLw@pCxBnBdAqDfB|A","length":5},"rentedBike":false,"transitLeg":false,"duration":228.0,"steps":[{"distance":62.676,"relativeDirection":"DEPART","streetName":"Rue du Poitou","absoluteDirection":"NORTHWEST","stayOn":false,"area":false,"bogusName":false,"lon":-71.01809102494626,"lat":48.43174681876701,"elevation":[]},{"distance":78.941,"relativeDirection":"LEFT","streetName":"Rue de Paris","absoluteDirection":"SOUTHWEST","stayOn":false,"area":false,"bogusName":false,"lon":-71.0188285,"lat":48.4320266,"elevation":[]},{"distance":75.797,"relativeDirection":"LEFT","streetName":"Rue du Perche","absoluteDirection":"SOUTHEAST","stayOn":false,"area":false,"bogusName":false,"lon":-71.0193814,"lat":48.4314188,"elevation":[]},{"distance":67.354,"relativeDirection":"RIGHT","streetName":"Rue de Normandie","absoluteDirection":"SOUTHWEST","stayOn":false,"area":false,"bogusName":false,"lon":-71.0185,"lat":48.4310686,"elevation":[]}]},{"startTime":1522697037000,"endTime":1522697880000,"departureDelay":0,"arrivalDelay":0,"realTime":false,"distance":5143.297975226932,"pathway":false,"mode":"BUS","route":"12","agencyName":"Société de Transport du Saguenay","agencyUrl":"http://ville.saguenay.ca/fr/services-aux-citoyens/transport-sts","agencyTimeZoneOffset":-14400000,"routeColor":"556B2F","routeType":3,"routeId":"1:12","routeTextColor":"FFFFFF","interlineWithPreviousLeg":false,"tripBlockId":"28","headsign":"Terminus UQAC","agencyId":"0","tripId":"1:218043","serviceDate":"20180402","from":{"name":"Normandie / Perche","stopId":"1:498","stopCode":"498","lon":-71.0191,"lat":48.4306,"arrival":1522697036000,"departure":1522697037000,"zoneId":"NA","stopIndex":16,"stopSequence":17,"vertexType":"TRANSIT"},"to":{"name":"Champs-Élysées / Chopin","stopId":"1:584","stopCode":"584","lon":-71.058412,"lat":48.409805,"arrival":1522697880000,"departure":1522697881000,"zoneId":"NA","stopIndex":29,"stopSequence":30,"vertexType":"TRANSIT"},"legGeometry":{"points":"gbrfHj|mpLlIrH`JlH`EfDnOdIdGlGjL|BzBiLv@}L`b@fNvVvrCdRvMcAjKcP~b@","length":14},"routeShortName":"12","routeLongName":"Rivière du Moulin","rentedBike":false,"transitLeg":true,"duration":843.0,"steps":[]},{"startTime":1522697881000,"endTime":1522698667000,"departureDelay":0,"arrivalDelay":0,"realTime":false,"distance":1006.813,"pathway":false,"mode":"WALK","route":"","agencyTimeZoneOffset":-14400000,"interlineWithPreviousLeg":false,"from":{"name":"Champs-Élysées / Chopin","stopId":"1:584","stopCode":"584","lon":-71.058412,"lat":48.409805,"arrival":1522697880000,"departure":1522697881000,"zoneId":"NA","stopIndex":29,"stopSequence":30,"vertexType":"TRANSIT"},"to":{"name":"Destination","lon":-71.06394299,"lat":48.403323,"arrival":1522698667000,"orig":"","vertexType":"NORMAL"},"legGeometry":{"points":"{_nfHprupL?@o@|A|@h@hAd@DBj@d@d@`@pAfAlBpB`BxAn@V~@b@J[DQrAiDn@aBdE|D|EtERRFJFRDTJ^V\\zBhB","length":26},"rentedBike":false,"transitLeg":false,"duration":786.0,"steps":[{"distance":44.609,"relativeDirection":"DEPART","streetName":"Rue des Champs-Élysées","absoluteDirection":"NORTHWEST","stayOn":false,"area":false,"bogusName":false,"lon":-71.05848639303342,"lat":48.40974208921815,"elevation":[]},{"distance":395.65,"relativeDirection":"LEFT","streetName":"Rue Bizet","absoluteDirection":"SOUTHWEST","stayOn":false,"area":false,"bogusName":false,"lon":-71.0589618,"lat":48.409989800000005,"elevation":[]},{"distance":142.506,"relativeDirection":"LEFT","streetName":"bike path","absoluteDirection":"SOUTHEAST","stayOn":false,"area":false,"bogusName":true,"lon":-71.0614278,"lat":48.4068513,"elevation":[]},{"distance":424.048,"relativeDirection":"RIGHT","streetName":"Rue Bach","absoluteDirection":"SOUTHWEST","stayOn":false,"area":false,"bogusName":false,"lon":-71.0598554,"lat":48.4061091,"elevation":[]}]}],"tooSloped":false}]},"debugOutput":{"precalculationTime":20,"pathCalculationTime":17,"pathTimes":[11,5,1],"renderingTime":1,"totalTime":38,"timedOut":false},"elevationMetadata":{"ellipsoidToGeoidDifference":-28.885904201182168,"geoidElevation":false}}