{"requestParameters":{"date":"2018/04/02","walkSpeed":"1.33","walkReluctance":"2.0","fromPlace":"48.448027,-71.07448399","maxWalkDistance":"3000","waitReluctance":"1.0","carSpeed":"33","numItineraries":"3","waitAtBeginningFactor":"0.4","mode":"TRANSIT,WALK","ignoreRealtimeUpdates":"false","stairsReluctance":"2.0","toPlace":"48.43023,-71.018358","time":"18:30:00"},"plan":{"date":1522708200000,"from":{"name":"Origin","lon":-71.07448399,"lat":48.448027,"orig":"","vertexType":"NORMAL"},"to":{"name":"Destination","lon":-71.018358,"lat":48.43023,"orig":"","vertexType":"NORMAL"},"itineraries":[{"duration":4341,"startTime":1522709579000,"endTime":1522713920000,"walkTime":186,"transitTime":3553,"waitingTime":602,"walkDistance":234.47229323091136,"walkLimitExceeded":false,"elevationLost":0.0,"elevationGained":0.0,"transfers":1,"legs":[{"startTime":1522709580000,"endTime":1522710300000,"departureDelay":0,"arrivalDelay":0,"realTime":false,"distance":4966.255246808459,"pathway":false,"mode":"BUS","route":"23","agencyName":"Société de Transport du Saguenay","agencyUrl":"http://ville.saguenay.ca/fr/services-aux-citoyens/transport-sts","agencyTimeZoneOffset":-14400000,"routeColor":"FF00FF","routeType":3,"routeId":"1:23","routeTextColor":"FFFFFF","interlineWithPreviousLeg":false,"tripBlockId":"5","headsign":"Terminus Chicoutimi","agencyId":"0","tripId":"1:217274","serviceDate":"20180402","from":{"name":"Aréna du Plateau","stopId":"1:784","stopCode":"784","lon":-71.074321,"lat":48.447524,"departure":1522709580000,"orig":"","zoneId":"NA","stopIndex":6,"stopSequence":7,"vertexType":"TRANSIT"},"to":{"name":"Terminus Chicoutimi","stopId":"1:1289","stopCode":"1289","lon":-71.066163,"lat":48.428677,"arrival":1522710300000,"departure":1522710900000,"zoneId":"NA","stopIndex":26,"stopSequence":27,"vertexType":"TRANSIT"},"legGeometry":{"points":"qlufHvuxpLGi@Is@Ou@Qw@Mo@Kw@ImAGoBAk@aALa@?YEUKc@Yc@_@KOIUGUEWAW?YBqAH_AXeC@IdB_Mh@_EJk@d@kDhAqI`AgHz@oGBU?UAWCWUwAWD]B]AUEoAc@kE}AOIq@g@g@u@]w@b@s@T[~CkFf@s@\\e@x@}@jAeAXQZStBaAh@]`@]`@i@l@kDF_@R{AFWFMPIPC`@BT@V?TAVKLENCLCJ@J@xAb@x@Zz@\\CP?R@N@NFLFF`GtBx@Xw@pG@l@B\\DXL\\RZDFXPf@N@v@Bp@Dr@l@~HNlAH\\@HLd@\\z@Xd@X\\RTXRr@Zn@PfExAvDpALnBJt@Pp@|@`DHZPn@`@rBNnAFr@DbA?bB@jABzA?p@A???A???A?A???A@??A?A@??A@?@A??@A@???@A@?@?@A@?@?@?@?@???@?@?@?@?@?@@@?@?@@@?@@@?@@@?@@?@@??@@@?E`@Kr@]rACVEl@I|AAr@JbAWJe@FUAM?a@Ke@YYWWa@v@}@RQPMz@k@tAe@REZG^Af@@X@VF`@Jn@XbClAr@Xt\\`PrAb@pA^hBTjAFj@Pb@JPHLLJNJRFXDT?X?ZEVEVKTMNMHMFOB}DWSGOSYcAN}FFkAF}DJyDd@wPV_HjAN~ALI`C","length":243},"routeShortName":"23","routeLongName":"Côte Verdun via Aréna du Plateau","rentedBike":false,"transitLeg":true,"duration":720.0,"steps":[]},{"startTime":1522710900000,"endTime":1522712220000,"departureDelay":0,"arrivalDelay":0,"realTime":false,"distance":6130.349121969727,"pathway":false,"mode":"BUS","route":"10","agencyName":"Société de Transport du Saguenay","agencyUrl":"http://ville.saguenay.ca/fr/services-aux-citoyens/transport-sts","agencyTimeZoneOffset":-14400000,"routeColor":"0000FF","routeType":3,"routeId":"1:10","routeTextColor":"FFFFFF","interlineWithPreviousLeg":false,"tripBlockId":"29","headsign":"Terminus UQAC","agencyId":"0","tripId":"1:218077","serviceDate":"20180402","from":{"name":"Terminus Chicoutimi","stopId":"1:1289","stopCode":"1289","lon":-71.066163,"lat":48.428677,"arrival":1522710300000,"departure":1522710900000,"zoneId":"NA","stopIndex":0,"stopSequence":1,"vertexType":"TRANSIT"},"to":{"name":"Terminus UQAC","stopId":"1:1670","stopCode":"1670","lon":-71.053369,"lat":48.420903,"arrival":1522712220000,"departure":1522712400000,"zoneId":"NA","stopIndex":24,"stopSequence":25,"vertexType":"TRANSIT"},"legGeometry":{"points":"svqfHnbwpLDmCdDZ\\kO`@mQBuCD}DQ_ECk@^Cd@QWkL?m@IuF@gA?eH?cAEuEDO^AjD`@B@rEf@T_FjBXpDd@hCObDaCfCaHbFqN`CwG_J_CwMiDGe@T}C\\yELaCJeAJcAXw@Fk@M_@xBwVr@^LJ|@z@HdAlBbD`Av@b@\\v@d@`@BpBAzAXl@t@XZt@lCl@tAnBpB~@~@lDjDr@r@zDrDnAlAjBrBl@pBPlBCj@KrAAHSpAe@jB_A|Bz@xAvA~BvB|BdN|Nc@bAuA~C}VeWaEpLeIrU|D~EfDdEwLpKeBgGAsE]gAoD}CUt@a@_@USMM","length":93},"routeShortName":"10","routeLongName":"Notre-Dame du Saguenay","rentedBike":false,"transitLeg":true,"duration":1320.0,"steps":[]},{"startTime":1522712400000,"endTime":1522713733000,"departureDelay":0,"arrivalDelay":0,"realTime":false,"distance":7425.267865778875,"pathway":false,"mode":"BUS","route":"12","agencyName":"Société de Transport du Saguenay","agencyUrl":"http://ville.saguenay.ca/fr/services-aux-citoyens/transport-sts","agencyTimeZoneOffset":-14400000,"routeColor":"556B2F","routeType":3,"routeId":"1:12","routeTextColor":"FFFFFF","interlineWithPreviousLeg":true,"tripBlockId":"29","headsign":"Terminus Chicoutimi","agencyId":"0","tripId":"1:218078","serviceDate":"20180402","from":{"name":"Terminus UQAC","stopId":"1:1670","stopCode":"1670","lon":-71.053369,"lat":48.420903,"arrival":1522712220000,"departure":1522712400000,"zoneId":"NA","stopIndex":0,"stopSequence":1,"vertexType":"TRANSIT"},"to":{"name":"nouveau","stopId":"1:2302","stopCode":"2302","lon":-71.018919,"lat":48.430411,"arrival":1522713733000,"departure":1522713734000,"zoneId":"NA","stopIndex":23,"stopSequence":24,"vertexType":"TRANSIT"},"legGeometry":{"points":"sepfHprtpL}@y@Pw@wAsAaB{A}DrL?jCv@fCa@nDaC`D~E`F~MfNjJnJ~GbHnCpCv@iBlAgIdCmFbAqDtBeCjFm@`Gs@hFo@xAmBrGcPxFoNlCyGa@yFYkD}CyA}KmFgD_BgAgBn@kFD_NoIgrAmD_WcAaLaDHoDJi`@wVoAbDbA|AnBU|B|AfBlAyLtKoGxFcFqDkJaHgEoDmDwC_TqQ","length":53},"routeShortName":"12","routeLongName":"Rivière du Moulin","rentedBike":false,"transitLeg":true,"duration":1333.0,"steps":[]},{"startTime":1522713734000,"endTime":1522713920000,"departureDelay":0,"arrivalDelay":0,"realTime":false,"distance":234.405,"pathway":false,"mode":"WALK","route":"","agencyTimeZoneOffset":-14400000,"interlineWithPreviousLeg":false,"from":{"name":"nouveau","stopId":"1:2302","stopCode":"2302","lon":-71.018919,"lat":48.430411,"arrival":1522713733000,"departure":1522713734000,"zoneId":"NA","stopIndex":23,"stopSequence":24,"vertexType":"TRANSIT"},"to":{"name":"Destination","lon":-71.018358,"lat":48.43023,"arrival":1522713920000,"orig":"","vertexType":"NORMAL"},"legGeometry":{"points":"iarfH`|mpLQOgB}AdAyDtBhB","length":5},"rentedBike":false,"transitLeg":false,"duration":186.0,"steps":[{"distance":78.704,"relativeDirection":"DEPART","streetName":"Rue de Normandie","absoluteDirection":"NORTHEAST","stayOn":false,"area":false,"bogusName":false,"lon":-71.019040541923,"lat":48.4304584029622,"elevation":[]},{"distance":79.308,"relativeDirection":"RIGHT","streetName":"Rue du Perche","absoluteDirection":"SOUTHEAST","stayOn":false,"area":false,"bogusName":false,"lon":-71.0185,"lat":48.4310686,"elevation":[]},{"distance":76.393,"relativeDirection":"RIGHT","streetName":"Rue de la Rochelle","absoluteDirection":"SOUTHWEST","stayOn":false,"area":false,"bogusName":false,"lon":-71.0175651,"lat":48.430716600000004,"elevation":[]}]}],"tooSloped":false},{"duration":6190,"startTime":1522709530000,"endTime":1522715720000,"walkTime":1075,"transitTime":3013,"waitingTime":2102,"walkDistance":1392.1643608975976,"walkLimitExceeded":false,"elevationLost":0.0,"elevationGained":0.0,"transfers":1,"legs":[{"startTime":1522709530000,"endTime":1522710419000,"departureDelay":0,"arrivalDelay":0,"realTime":false,"distance":1157.615,"pathway":false,"mode":"WALK","route":"","agencyTimeZoneOffset":-14400000,"interlineWithPreviousLeg":false,"from":{"name":"Origin","lon":-71.07448399,"lat":48.448027,"departure":1522709530000,"orig":"","vertexType":"NORMAL"},"to":{"name":"Des Champs / Ste-Geneviève","stopId":"1:704","stopCode":"704","lon":-71.0743,"lat":48.4416,"arrival":1522710419000,"departure":1522710420000,"zoneId":"NA","stopIndex":29,"stopSequence":30,"vertexType":"TRANSIT"},"legGeometry":{"points":"ulufHvuxpL?HLdBF|@VxCNzAJAJBNFFBFDHFFFLJLNDFFNL\\BF@FBRBPF^Fb@HnAzAaAdFuEl@KR^K`BDdAf@dBb@j@RR~BeIv@eBpAwCzAwCnAeCRR^b@","length":41},"alerts":[{"alertHeaderText":"Unpaved surface"}],"rentedBike":false,"transitLeg":false,"duration":889.0,"steps":[{"distance":158.332,"relativeDirection":"DEPART","streetName":"Rue de l'Aréna","absoluteDirection":"WEST","stayOn":false,"area":false,"bogusName":false,"lon":-71.07435789167567,"lat":48.4476363712024,"elevation":[]},{"distance":166.359,"relativeDirection":"LEFT","streetName":"Rue Saint-Gérard","absoluteDirection":"SOUTH","stayOn":false,"area":false,"bogusName":false,"lon":-71.0764515,"lat":48.4473234,"elevation":[]},{"distance":394.418,"relativeDirection":"LEFT","streetName":"Rue de la Promenade","absoluteDirection":"SOUTHEAST","stayOn":false,"area":false,"bogusName":false,"lon":-71.0780568,"lat":48.4464715,"elevation":[],"alerts":[{"alertHeaderText":"Unpaved surface"}]},{"distance":403.048,"relativeDirection":"LEFT","streetName":"Boulevard Sainte-Geneviève","absoluteDirection":"SOUTHEAST","stayOn":false,"area":false,"bogusName":false,"lon":-71.0784213,"lat":48.444088400000005,"elevation":[]},{"distance":35.458,"relativeDirection":"RIGHT","streetName":"Rue des Champs","absoluteDirection":"SOUTHWEST","stayOn":false,"area":false,"bogusName":false,"lon":-71.0740944,"lat":48.4418955,"elevation":[]}]},{"startTime":1522710420000,"endTime":1522710600000,"departureDelay":0,"arrivalDelay":0,"realTime":false,"distance":1666.7846799150109,"pathway":false,"mode":"BUS","route":"20","agencyName":"Société de Transport du Saguenay","agencyUrl":"http://ville.saguenay.ca/fr/services-aux-citoyens/transport-sts","agencyTimeZoneOffset":-14400000,"routeColor":"0000FF","routeType":3,"routeId":"1:20","routeTextColor":"FFFFFF","interlineWithPreviousLeg":false,"tripBlockId":"3","headsign":"Terminus Chicoutimi","agencyId":"0","tripId":"1:217211","serviceDate":"20180402","from":{"name":"Des Champs / Ste-Geneviève","stopId":"1:704","stopCode":"704","lon":-71.0743,"lat":48.4416,"arrival":1522710419000,"departure":1522710420000,"zoneId":"NA","stopIndex":29,"stopSequence":30,"vertexType":"TRANSIT"},"to":{"name":"Terminus Chicoutimi","stopId":"1:1289","stopCode":"1289","lon":-71.066163,"lat":48.428677,"arrival":1522710600000,"departure":1522712700000,"zoneId":"NA","stopIndex":31,"stopSequence":32,"vertexType":"TRANSIT"},"legGeometry":{"points":"cgtfHtuxpL[g@rCmFhHqN~@eBr@cAt@_Av@}@RQPMz@k@tAe@REZG^Af@@X@VF`@Jn@XbClAr@Xt\\`PrAb@pA^hBTjAFj@Pb@JPHLLJNJRFXDT?X?ZEVEVKTMNMHMFOB}DWSGOSYcAN}FFkAF}DJyDPwGj@_QjAN~ALIpBGVITe@@","length":60},"routeShortName":"20","routeLongName":"Sainte-Claire","rentedBike":false,"transitLeg":true,"duration":180.0,"steps":[]},{"startTime":1522712700000,"endTime":1522714020000,"departureDelay":0,"arrivalDelay":0,"realTime":false,"distance":6130.349121969727,"pathway":false,"mode":"BUS","route":"10","agencyName":"Société de Transport du Saguenay","agencyUrl":"http://ville.saguenay.ca/fr/services-aux-citoyens/transport-sts","agencyTimeZoneOffset":-14400000,"routeColor":"0000FF","routeType":3,"routeId":"1:10","routeTextColor":"FFFFFF","interlineWithPreviousLeg":false,"tripBlockId":"26","headsign":"Terminus UQAC","agencyId":"0","tripId":"1:217990","serviceDate":"20180402","from":{"name":"Terminus Chicoutimi","stopId":"1:1289","stopCode":"1289","lon":-71.066163,"lat":48.428677,"arrival":1522710600000,"departure":1522712700000,"zoneId":"NA","stopIndex":0,"stopSequence":1,"vertexType":"TRANSIT"},"to":{"name":"Terminus UQAC","stopId":"1:1670","stopCode":"1670","lon":-71.053369,"lat":48.420903,"arrival":1522714020000,"departure":1522714200000,"zoneId":"NA","stopIndex":24,"stopSequence":25,"vertexType":"TRANSIT"},"legGeometry":{"points":"svqfHnbwpLDmCdDZ\\kO`@mQBuCD}DQ_ECk@^Cd@QWkL?m@IuF@gA?eH?cAEuEDO^AjD`@B@rEf@T_FjBXpDd@hCObDaCfCaHbFqN`CwG_J_CwMiDGe@T}C\\yELaCJeAJcAXw@Fk@M_@xBwVr@^LJ|@z@HdAlBbD`Av@b@\\v@d@`@BpBAzAXl@t@XZt@lCl@tAnBpB~@~@lDjDr@r@zDrDnAlAjBrBl@pBPlBCj@KrAAHSpAe@jB_A|Bz@xAvA~BvB|BdN|Nc@bAuA~C}VeWaEpLeIrU|D~EfDdEwLpKeBgGAsE]gAoD}CUt@a@_@USMM","length":93},"routeShortName":"10","routeLongName":"Notre-Dame du Saguenay","rentedBike":false,"transitLeg":true,"duration":1320.0,"steps":[]},{"startTime":1522714200000,"endTime":1522715533000,"departureDelay":0,"arrivalDelay":0,"realTime":false,"distance":7425.267865778875,"pathway":false,"mode":"BUS","route":"12","agencyName":"Société de Transport du Saguenay","agencyUrl":"http://ville.saguenay.ca/fr/services-aux-citoyens/transport-sts","agencyTimeZoneOffset":-14400000,"routeColor":"556B2F","routeType":3,"routeId":"1:12","routeTextColor":"FFFFFF","interlineWithPreviousLeg":true,"tripBlockId":"26","headsign":"Terminus Chicoutimi","agencyId":"0","tripId":"1:217991","serviceDate":"20180402","from":{"name":"Terminus UQAC","stopId":"1:1670","stopCode":"1670","lon":-71.053369,"lat":48.420903,"arrival":1522714020000,"departure":1522714200000,"zoneId":"NA","stopIndex":0,"stopSequence":1,"vertexType":"TRANSIT"},"to":{"name":"nouveau","stopId":"1:2302","stopCode":"2302","lon":-71.018919,"lat":48.430411,"arrival":1522715533000,"departure":1522715534000,"zoneId":"NA","stopIndex":23,"stopSequence":24,"vertexType":"TRANSIT"},"legGeometry":{"points":"sepfHprtpL}@y@Pw@wAsAaB{A}DrL?jCv@fCa@nDaC`D~E`F~MfNjJnJ~GbHnCpCv@iBlAgIdCmFbAqDtBeCjFm@`Gs@hFo@xAmBrGcPxFoNlCyGa@yFYkD}CyA}KmFgD_BgAgBn@kFD_NoIgrAmD_WcAaLaDHoDJi`@wVoAbDbA|AnBU|B|AfBlAyLtKoGxFcFqDkJaHgEoDmDwC_TqQ","length":53},"routeShortName":"12","routeLongName":"Rivière du Moulin","rentedBike":false,"transitLeg":true,"duration":1333.0,"steps":[]},{"startTime":1522715534000,"endTime":1522715720000,"departureDelay":0,"arrivalDelay":0,"realTime":false,"distance":234.405,"pathway":false,"mode":"WALK","route":"","agencyTimeZoneOffset":-14400000,"interlineWithPreviousLeg":false,"from":{"name":"nouveau","stopId":"1:2302","stopCode":"2302","lon":-71.018919,"lat":48.430411,"arrival":1522715533000,"departure":1522715534000,"zoneId":"NA","stopIndex":23,"stopSequence":24,"vertexType":"TRANSIT"},"to":{"name":"Destination","lon":-71.018358,"lat":48.43023,"arrival":1522715720000,"orig":"","vertexType":"NORMAL"},"legGeometry":{"points":"iarfH`|mpLQOgB}AdAyDtBhB","length":5},"rentedBike":false,"transitLeg":false,"duration":186.0,"steps":[{"distance":78.704,"relativeDirection":"DEPART","streetName":"Rue de Normandie","absoluteDirection":"NORTHEAST","stayOn":false,"area":false,"bogusName":false,"lon":-71.019040541923,"lat":48.4304584029622,"elevation":[]},{"distance":79.308,"relativeDirection":"RIGHT","streetName":"Rue du Perche","absoluteDirection":"SOUTHEAST","stayOn":false,"area":false,"bogusName":false,"lon":-71.0185,"lat":48.4310686,"elevation":[]},{"distance":76.393,"relativeDirection":"RIGHT","streetName":"Rue de la Rochelle","absoluteDirection":"SOUTHWEST","stayOn":false,"area":false,"bogusName":false,"lon":-71.0175651,"lat":48.430716600000004,"elevation":[]}]}],"tooSloped":false},{"duration":5932,"startTime":1522711588000,"endTime":1522717520000,"walkTime":548,"transitTime":3282,"waitingTime":2102,"walkDistance":709.3706992455486,"walkLimitExceeded":false,"elevationLost":0.0,"elevationGained":0.0,"transfers":1,"legs":[{"startTime":1522711588000,"endTime":1522711950000,"departureDelay":0,"arrivalDelay":0,"realTime":false,"distance":474.88599999999997,"pathway":false,"mode":"WALK","route":"","agencyTimeZoneOffset":-14400000,"interlineWithPreviousLeg":false,"from":{"name":"Origin","lon":-71.07448399,"lat":48.448027,"departure":1522711588000,"orig":"","vertexType":"NORMAL"},"to":{"name":"Boischatel / Cabot","stopId":"1:763","stopCode":"763","lon":-71.070142,"lat":48.449792,"arrival":1522711950000,"departure":1522711951000,"zoneId":"NA","stopIndex":27,"stopSequence":28,"vertexType":"TRANSIT"},"legGeometry":{"points":"ulufHvuxpLEk@Ks@I][gBMs@Ig@Cu@Co@AkA?k@y@Ja@B_@Ce@Q]Ua@g@GIQ]GWCQAq@@e@@e@@Iq@GYICA","length":28},"rentedBike":false,"transitLeg":false,"duration":362.0,"steps":[{"distance":208.91400000000002,"relativeDirection":"DEPART","streetName":"Rue de l'Aréna","absoluteDirection":"EAST","stayOn":false,"area":false,"bogusName":false,"lon":-71.07435584056401,"lat":48.447636667474086,"elevation":[]},{"distance":221.346,"relativeDirection":"LEFT","streetName":"Rue Cabot","absoluteDirection":"NORTH","stayOn":false,"area":false,"bogusName":false,"lon":-71.0716385,"lat":48.448087900000004,"elevation":[]},{"distance":44.626,"relativeDirection":"LEFT","streetName":"Rue de Boischatel","absoluteDirection":"NORTH","stayOn":false,"area":false,"bogusName":false,"lon":-71.0702047,"lat":48.449388000000006,"elevation":[]}]},{"startTime":1522711951000,"endTime":1522712400000,"departureDelay":0,"arrivalDelay":0,"realTime":false,"distance":2905.737028886756,"pathway":false,"mode":"BUS","route":"22","agencyName":"Société de Transport du Saguenay","agencyUrl":"http://ville.saguenay.ca/fr/services-aux-citoyens/transport-sts","agencyTimeZoneOffset":-14400000,"routeColor":"C0C000","routeType":3,"routeId":"1:22","routeTextColor":"000000","interlineWithPreviousLeg":false,"tripBlockId":"3","headsign":"Terminus Chicoutimi","agencyId":"0","tripId":"1:217212","serviceDate":"20180402","from":{"name":"Boischatel / Cabot","stopId":"1:763","stopCode":"763","lon":-71.070142,"lat":48.449792,"arrival":1522711950000,"departure":1522711951000,"zoneId":"NA","stopIndex":27,"stopSequence":28,"vertexType":"TRANSIT"},"to":{"name":"Terminus Chicoutimi","stopId":"1:1289","stopCode":"1289","lon":-71.066163,"lat":48.428677,"arrival":1522712400000,"departure":1522714500000,"zoneId":"NA","stopIndex":35,"stopSequence":36,"vertexType":"TRANSIT"},"legGeometry":{"points":"czufHb{wpLLFbAVH_AXeC@IdB_Mh@_EJk@x@x@bA`A|BrBnDrCl@f@|BlBrAbAj@d@ZTXNd@@lA[ZxDN|Ad@fAz@tB~AzDZ|@Zv@x@vBP\\h@~@PVrCmFhHqN~@eBr@cAt@_Av@}@RQPMz@k@tAe@REZG^Af@@X@VF`@Jn@XbClAr@Xt\\`PrAb@pA^hBTjAFj@Pb@JPHLLJNJRFXDT?X?ZEVEVKTMNMHMFOB}DWSGOSYcAN}FFkAF}DJyDd@wPV_HjAN~ALIzBQb@e@@","length":89},"routeShortName":"22","routeLongName":"Vanier","rentedBike":false,"transitLeg":true,"duration":449.0,"steps":[]},{"startTime":1522714500000,"endTime":1522715820000,"departureDelay":0,"arrivalDelay":0,"realTime":false,"distance":6130.349121969727,"pathway":false,"mode":"BUS","route":"10","agencyName":"Société de Transport du Saguenay","agencyUrl":"http://ville.saguenay.ca/fr/services-aux-citoyens/transport-sts","agencyTimeZoneOffset":-14400000,"routeColor":"0000FF","routeType":3,"routeId":"1:10","routeTextColor":"FFFFFF","interlineWithPreviousLeg":false,"tripBlockId":"29","headsign":"Terminus UQAC","agencyId":"0","tripId":"1:218079","serviceDate":"20180402","from":{"name":"Terminus Chicoutimi","stopId":"1:1289","stopCode":"1289","lon":-71.066163,"lat":48.428677,"arrival":1522712400000,"departure":1522714500000,"zoneId":"NA","stopIndex":0,"stopSequence":1,"vertexType":"TRANSIT"},"to":{"name":"Terminus UQAC","stopId":"1:1670","stopCode":"1670","lon":-71.053369,"lat":48.420903,"arrival":1522715820000,"departure":1522716000000,"zoneId":"NA","stopIndex":24,"stopSequence":25,"vertexType":"TRANSIT"},"legGeometry":{"points":"svqfHnbwpLDmCdDZ\\kO`@mQBuCD}DQ_ECk@^Cd@QWkL?m@IuF@gA?eH?cAEuEDO^AjD`@B@rEf@T_FjBXpDd@hCObDaCfCaHbFqN`CwG_J_CwMiDGe@T}C\\yELaCJeAJcAXw@Fk@M_@xBwVr@^LJ|@z@HdAlBbD`Av@b@\\v@d@`@BpBAzAXl@t@XZt@lCl@tAnBpB~@~@lDjDr@r@zDrDnAlAjBrBl@pBPlBCj@KrAAHSpAe@jB_A|Bz@xAvA~BvB|BdN|Nc@bAuA~C}VeWaEpLeIrU|D~EfDdEwLpKeBgGAsE]gAoD}CUt@a@_@USMM","length":93},"routeShortName":"10","routeLongName":"Notre-Dame du Saguenay","rentedBike":false,"transitLeg":true,"duration":1320.0,"steps":[]},{"startTime":1522716000000,"endTime":1522717333000,"departureDelay":0,"arrivalDelay":0,"realTime":false,"distance":7425.267865778875,"pathway":false,"mode":"BUS","route":"12","agencyName":"Société de Transport du Saguenay","agencyUrl":"http://ville.saguenay.ca/fr/services-aux-citoyens/transport-sts","agencyTimeZoneOffset":-14400000,"routeColor":"556B2F","routeType":3,"routeId":"1:12","routeTextColor":"FFFFFF","interlineWithPreviousLeg":true,"tripBlockId":"29","headsign":"Terminus Chicoutimi","agencyId":"0","tripId":"1:218080","serviceDate":"20180402","from":{"name":"Terminus UQAC","stopId":"1:1670","stopCode":"1670","lon":-71.053369,"lat":48.420903,"arrival":1522715820000,"departure":1522716000000,"zoneId":"NA","stopIndex":0,"stopSequence":1,"vertexType":"TRANSIT"},"to":{"name":"nouveau","stopId":"1:2302","stopCode":"2302","lon":-71.018919,"lat":48.430411,"arrival":1522717333000,"departure":1522717334000,"zoneId":"NA","stopIndex":23,"stopSequence":24,"vertexType":"TRANSIT"},"legGeometry":{"points":"sepfHprtpL}@y@Pw@wAsAaB{A}DrL?jCv@fCa@nDaC`D~E`F~MfNjJnJ~GbHnCpCv@iBlAgIdCmFbAqDtBeCjFm@`Gs@hFo@xAmBrGcPxFoNlCyGa@yFYkD}CyA}KmFgD_BgAgBn@kFD_NoIgrAmD_WcAaLaDHoDJi`@wVoAbDbA|AnBU|B|AfBlAyLtKoGxFcFqDkJaHgEoDmDwC_TqQ","length":53},"routeShortName":"12","routeLongName":"Rivière du Moulin","rentedBike":false,"transitLeg":true,"duration":1333.0,"steps":[]},{"startTime":1522717334000,"endTime":1522717520000,"departureDelay":0,"arrivalDelay":0,"realTime":false,"distance":234.405,"pathway":false,"mode":"WALK","route":"","agencyTimeZoneOffset":-14400000,"interlineWithPreviousLeg":false,"from":{"name":"nouveau","stopId":"1:2302","stopCode":"2302","lon":-71.018919,"lat":48.430411,"arrival":1522717333000,"departure":1522717334000,"zoneId":"NA","stopIndex":23,"stopSequence":24,"vertexType":"TRANSIT"},"to":{"name":"Destination","lon":-71.018358,"lat":48.43023,"arrival":1522717520000,"orig":"","vertexType":"NORMAL"},"legGeometry":{"points":"iarfH`|mpLQOgB}AdAyDtBhB","length":5},"rentedBike":false,"transitLeg":false,"duration":186.0,"steps":[{"distance":78.704,"relativeDirection":"DEPART","streetName":"Rue de Normandie","absoluteDirection":"NORTHEAST","stayOn":false,"area":false,"bogusName":false,"lon":-71.019040541923,"lat":48.4304584029622,"elevation":[]},{"distance":79.308,"relativeDirection":"RIGHT","streetName":"Rue du Perche","absoluteDirection":"SOUTHEAST","stayOn":false,"area":false,"bogusName":false,"lon":-71.0185,"lat":48.4310686,"elevation":[]},{"distance":76.393,"relativeDirection":"RIGHT","streetName":"Rue de la Rochelle","absoluteDirection":"SOUTHWEST","stayOn":false,"area":false,"bogusName":false,"lon":-71.0175651,"lat":48.430716600000004,"elevation":[]}]}],"tooSloped":false}]},"debugOutput":{"precalculationTime":9,"pathCalculationTime":40,"pathTimes":[21,10,9],"renderingTime":1,"totalTime":50,"timedOut":false},"elevationMetadata":{"ellipsoidToGeoidDifference":-28.885904201182168,"geoidElevation":false}}