{"requestParameters":{"date":"2018/04/02","walkSpeed":"1.33","walkReluctance":"2.0","fromPlace":"48.428376,-71.06883299","maxWalkDistance":"3000","waitReluctance":"1.0","carSpeed":"33","numItineraries":"3","waitAtBeginningFactor":"0.4","mode":"TRANSIT,WALK","ignoreRealtimeUpdates":"false","stairsReluctance":"2.0","toPlace":"48.430006,-71.020261","time":"15:30:00"},"plan":{"date":1522697400000,"from":{"name":"Origin","lon":-71.06883299,"lat":48.428376,"orig":"","vertexType":"NORMAL"},"to":{"name":"Destination","lon":-71.020261,"lat":48.430006,"orig":"","vertexType":"NORMAL"},"itineraries":[{"duration":942,"startTime":1522698052000,"endTime":1522698994000,"walkTime":364,"transitTime":576,"waitingTime":2,"walkDistance":464.4754285691237,"walkLimitExceeded":false,"elevationLost":0.0,"elevationGained":0.0,"transfers":0,"legs":[{"startTime":1522698052000,"endTime":1522698299000,"departureDelay":0,"arrivalDelay":0,"realTime":false,"distance":317.002,"pathway":false,"mode":"WALK","route":"","agencyTimeZoneOffset":-14400000,"interlineWithPreviousLeg":false,"from":{"name":"Origin","lon":-71.06883299,"lat":48.428376,"departure":1522698052000,"orig":"","vertexType":"NORMAL"},"to":{"name":"Terminus Chicoutimi","stopId":"1:1289","stopCode":"1289","lon":-71.066163,"lat":48.428677,"arrival":1522698299000,"departure":1522698300000,"zoneId":"NA","stopIndex":0,"stopSequence":1,"vertexType":"TRANSIT"},"legGeometry":{"points":"urqfHlswpL?ADsADwD@k@@w@PuGc@MKESAcAK","length":11},"rentedBike":false,"transitLeg":false,"duration":247.0,"steps":[{"distance":32.12,"relativeDirection":"DEPART","streetName":"Rue Racine Ouest","absoluteDirection":"EAST","stayOn":false,"area":false,"bogusName":false,"lon":-71.06886349837222,"lat":48.428111177453665,"elevation":[]},{"distance":207.675,"relativeDirection":"CONTINUE","streetName":"Rue Racine Est","absoluteDirection":"EAST","stayOn":false,"area":false,"bogusName":false,"lon":-71.06843,"lat":48.42808470000001,"elevation":[]},{"distance":77.207,"relativeDirection":"LEFT","streetName":"Rue Morin","absoluteDirection":"NORTH","stayOn":false,"area":false,"bogusName":false,"lon":-71.0656238,"lat":48.4279449,"elevation":[]}]},{"startTime":1522698300000,"endTime":1522698876000,"departureDelay":0,"arrivalDelay":0,"realTime":false,"distance":3996.0258118697134,"pathway":false,"mode":"BUS","route":"12","agencyName":"Société de Transport du Saguenay","agencyUrl":"http://ville.saguenay.ca/fr/services-aux-citoyens/transport-sts","agencyTimeZoneOffset":-14400000,"routeColor":"556B2F","routeType":3,"routeId":"1:12","routeTextColor":"FFFFFF","interlineWithPreviousLeg":false,"tripBlockId":"27","headsign":"Terminus UQAC","agencyId":"0","tripId":"1:218018","serviceDate":"20180402","from":{"name":"Terminus Chicoutimi","stopId":"1:1289","stopCode":"1289","lon":-71.066163,"lat":48.428677,"arrival":1522698299000,"departure":1522698300000,"zoneId":"NA","stopIndex":0,"stopSequence":1,"vertexType":"TRANSIT"},"to":{"name":"Normandie / Cèdres","stopId":"1:1529","stopCode":"1529","lon":-71.020638,"lat":48.428932,"arrival":1522698876000,"departure":1522698877000,"zoneId":"NA","stopIndex":17,"stopSequence":18,"vertexType":"TRANSIT"},"legGeometry":{"points":"evqfHpbwpLpFcj@IaKmFy^_DaZz@u]SeV}@aNs@gKToKd@gTnCyHkGuLqFqJ_DeFf@iIvGsKlIrH","length":18},"routeShortName":"12","routeLongName":"Rivière du Moulin","rentedBike":false,"transitLeg":true,"duration":576.0,"steps":[]},{"startTime":1522698877000,"endTime":1522698994000,"departureDelay":0,"arrivalDelay":0,"realTime":false,"distance":147.402,"pathway":false,"mode":"WALK","route":"","agencyTimeZoneOffset":-14400000,"interlineWithPreviousLeg":false,"from":{"name":"Normandie / Cèdres","stopId":"1:1529","stopCode":"1529","lon":-71.020638,"lat":48.428932,"arrival":1522698876000,"departure":1522698877000,"zoneId":"NA","stopIndex":17,"stopSequence":18,"vertexType":"TRANSIT"},"to":{"name":"Destination","lon":-71.020261,"lat":48.430006,"arrival":1522698994000,"orig":"","vertexType":"NORMAL"},"legGeometry":{"points":"kwqfH|dnpLqAgA_A{@q@xB","length":4},"rentedBike":false,"transitLeg":false,"duration":117.0,"steps":[{"distance":94.834,"relativeDirection":"DEPART","streetName":"Rue de Normandie","absoluteDirection":"NORTHEAST","stayOn":false,"area":false,"bogusName":false,"lon":-71.02046785886992,"lat":48.42886556298469,"elevation":[]},{"distance":52.568,"relativeDirection":"LEFT","streetName":"Rue de Bretagne","absoluteDirection":"NORTHWEST","stayOn":false,"area":false,"bogusName":false,"lon":-71.0198045,"lat":48.429596000000004,"elevation":[]}]}],"tooSloped":false},{"duration":942,"startTime":1522699852000,"endTime":1522700794000,"walkTime":364,"transitTime":576,"waitingTime":2,"walkDistance":464.4754285691237,"walkLimitExceeded":false,"elevationLost":0.0,"elevationGained":0.0,"transfers":0,"legs":[{"startTime":1522699852000,"endTime":1522700099000,"departureDelay":0,"arrivalDelay":0,"realTime":false,"distance":317.002,"pathway":false,"mode":"WALK","route":"","agencyTimeZoneOffset":-14400000,"interlineWithPreviousLeg":false,"from":{"name":"Origin","lon":-71.06883299,"lat":48.428376,"departure":1522699852000,"orig":"","vertexType":"NORMAL"},"to":{"name":"Terminus Chicoutimi","stopId":"1:1289","stopCode":"1289","lon":-71.066163,"lat":48.428677,"arrival":1522700099000,"departure":1522700100000,"zoneId":"NA","stopIndex":0,"stopSequence":1,"vertexType":"TRANSIT"},"legGeometry":{"points":"urqfHlswpL?ADsADwD@k@@w@PuGc@MKESAcAK","length":11},"rentedBike":false,"transitLeg":false,"duration":247.0,"steps":[{"distance":32.12,"relativeDirection":"DEPART","streetName":"Rue Racine Ouest","absoluteDirection":"EAST","stayOn":false,"area":false,"bogusName":false,"lon":-71.06886349837222,"lat":48.428111177453665,"elevation":[]},{"distance":207.675,"relativeDirection":"CONTINUE","streetName":"Rue Racine Est","absoluteDirection":"EAST","stayOn":false,"area":false,"bogusName":false,"lon":-71.06843,"lat":48.42808470000001,"elevation":[]},{"distance":77.207,"relativeDirection":"LEFT","streetName":"Rue Morin","absoluteDirection":"NORTH","stayOn":false,"area":false,"bogusName":false,"lon":-71.0656238,"lat":48.4279449,"elevation":[]}]},{"startTime":1522700100000,"endTime":1522700676000,"departureDelay":0,"arrivalDelay":0,"realTime":false,"distance":3996.0258118697134,"pathway":false,"mode":"BUS","route":"12","agencyName":"Société de Transport du Saguenay","agencyUrl":"http://ville.saguenay.ca/fr/services-aux-citoyens/transport-sts","agencyTimeZoneOffset":-14400000,"routeColor":"556B2F","routeType":3,"routeId":"1:12","routeTextColor":"FFFFFF","interlineWithPreviousLeg":false,"tripBlockId":"28","headsign":"Terminus UQAC","agencyId":"0","tripId":"1:218045","serviceDate":"20180402","from":{"name":"Terminus Chicoutimi","stopId":"1:1289","stopCode":"1289","lon":-71.066163,"lat":48.428677,"arrival":1522700099000,"departure":1522700100000,"zoneId":"NA","stopIndex":0,"stopSequence":1,"vertexType":"TRANSIT"},"to":{"name":"Normandie / Cèdres","stopId":"1:1529","stopCode":"1529","lon":-71.020638,"lat":48.428932,"arrival":1522700676000,"departure":1522700677000,"zoneId":"NA","stopIndex":17,"stopSequence":18,"vertexType":"TRANSIT"},"legGeometry":{"points":"evqfHpbwpLpFcj@IaKmFy^_DaZz@u]SeV}@aNs@gKToKd@gTnCyHkGuLqFqJ_DeFf@iIvGsKlIrH","length":18},"routeShortName":"12","routeLongName":"Rivière du Moulin","rentedBike":false,"transitLeg":true,"duration":576.0,"steps":[]},{"startTime":1522700677000,"endTime":1522700794000,"departureDelay":0,"arrivalDelay":0,"realTime":false,"distance":147.402,"pathway":false,"mode":"WALK","route":"","agencyTimeZoneOffset":-14400000,"interlineWithPreviousLeg":false,"from":{"name":"Normandie / Cèdres","stopId":"1:1529","stopCode":"1529","lon":-71.020638,"lat":48.428932,"arrival":1522700676000,"departure":1522700677000,"zoneId":"NA","stopIndex":17,"stopSequence":18,"vertexType":"TRANSIT"},"to":{"name":"Destination","lon":-71.020261,"lat":48.430006,"arrival":1522700794000,"orig":"","vertexType":"NORMAL"},"legGeometry":{"points":"kwqfH|dnpLqAgA_A{@q@xB","length":4},"rentedBike":false,"transitLeg":false,"duration":117.0,"steps":[{"distance":94.834,"relativeDirection":"DEPART","streetName":"Rue de Normandie","absoluteDirection":"NORTHEAST","stayOn":false,"area":false,"bogusName":false,"lon":-71.02046785886992,"lat":48.42886556298469,"elevation":[]},{"distance":52.568,"relativeDirection":"LEFT","streetName":"Rue de Bretagne","absoluteDirection":"NORTHWEST","stayOn":false,"area":false,"bogusName":false,"lon":-71.0198045,"lat":48.429596000000004,"elevation":[]}]}],"tooSloped":false},{"duration":942,"startTime":1522701652000,"endTime":1522702594000,"walkTime":364,"transitTime":576,"waitingTime":2,"walkDistance":464.4754285691237,"walkLimitExceeded":false,"elevationLost":0.0,"elevationGained":0.0,"transfers":0,"legs":[{"startTime":1522701652000,"endTime":1522701899000,"departureDelay":0,"arrivalDelay":0,"realTime":false,"distance":317.002,"pathway":false,"mode":"WALK","route":"","agencyTimeZoneOffset":-14400000,"interlineWithPreviousLeg":false,"from":{"name":"Origin","lon":-71.06883299,"lat":48.428376,"departure":1522701652000,"orig":"","vertexType":"NORMAL"},"to":{"name":"Terminus Chicoutimi","stopId":"1:1289","stopCode":"1289","lon":-71.066163,"lat":48.428677,"arrival":1522701899000,"departure":1522701900000,"zoneId":"NA","stopIndex":0,"stopSequence":1,"vertexType":"TRANSIT"},"legGeometry":{"points":"urqfHlswpL?ADsADwD@k@@w@PuGc@MKESAcAK","length":11},"rentedBike":false,"transitLeg":false,"duration":247.0,"steps":[{"distance":32.12,"relativeDirection":"DEPART","streetName":"Rue Racine Ouest","absoluteDirection":"EAST","stayOn":false,"area":false,"bogusName":false,"lon":-71.06886349837222,"lat":48.428111177453665,"elevation":[]},{"distance":207.675,"relativeDirection":"CONTINUE","streetName":"Rue Racine Est","absoluteDirection":"EAST","stayOn":false,"area":false,"bogusName":false,"lon":-71.06843,"lat":48.42808470000001,"elevation":[]},{"distance":77.207,"relativeDirection":"LEFT","streetName":"Rue Morin","absoluteDirection":"NORTH","stayOn":false,"area":false,"bogusName":false,"lon":-71.0656238,"lat":48.4279449,"elevation":[]}]},{"startTime":1522701900000,"endTime":1522702476000,"departureDelay":0,"arrivalDelay":0,"realTime":false,"distance":3996.0258118697134,"pathway":false,"mode":"BUS","route":"12","agencyName":"Société de Transport du Saguenay","agencyUrl":"http://ville.saguenay.ca/fr/services-aux-citoyens/transport-sts","agencyTimeZoneOffset":-14400000,"routeColor":"556B2F","routeType":3,"routeId":"1:12","routeTextColor":"FFFFFF","interlineWithPreviousLeg":false,"tripBlockId":"27","headsign":"Terminus UQAC","agencyId":"0","tripId":"1:218020","serviceDate":"20180402","from":{"name":"Terminus Chicoutimi","stopId":"1:1289","stopCode":"1289","lon":-71.066163,"lat":48.428677,"arrival":1522701899000,"departure":1522701900000,"zoneId":"NA","stopIndex":0,"stopSequence":1,"vertexType":"TRANSIT"},"to":{"name":"Normandie / Cèdres","stopId":"1:1529","stopCode":"1529","lon":-71.020638,"lat":48.428932,"arrival":1522702476000,"departure":1522702477000,"zoneId":"NA","stopIndex":17,"stopSequence":18,"vertexType":"TRANSIT"},"legGeometry":{"points":"evqfHpbwpLpFcj@IaKmFy^_DaZz@u]SeV}@aNs@gKToKd@gTnCyHkGuLqFqJ_DeFf@iIvGsKlIrH","length":18},"routeShortName":"12","routeLongName":"Rivière du Moulin","rentedBike":false,"transitLeg":true,"duration":576.0,"steps":[]},{"startTime":1522702477000,"endTime":1522702594000,"departureDelay":0,"arrivalDelay":0,"realTime":false,"distance":147.402,"pathway":false,"mode":"WALK","route":"","agencyTimeZoneOffset":-14400000,"interlineWithPreviousLeg":false,"from":{"name":"Normandie / Cèdres","stopId":"1:1529","stopCode":"1529","lon":-71.020638,"lat":48.428932,"arrival":1522702476000,"departure":1522702477000,"zoneId":"NA","stopIndex":17,"stopSequence":18,"vertexType":"TRANSIT"},"to":{"name":"Destination","lon":-71.020261,"lat":48.430006,"arrival":1522702594000,"orig":"","vertexType":"NORMAL"},"legGeometry":{"points":"kwqfH|dnpLqAgA_A{@q@xB","length":4},"rentedBike":false,"transitLeg":false,"duration":117.0,"steps":[{"distance":94.834,"relativeDirection":"DEPART","streetName":"Rue de Normandie","absoluteDirection":"NORTHEAST","stayOn":false,"area":false,"bogusName":false,"lon":-71.02046785886992,"lat":48.42886556298469,"elevation":[]},{"distance":52.568,"relativeDirection":"LEFT","streetName":"Rue de Bretagne","absoluteDirection":"NORTHWEST","stayOn":false,"area":false,"bogusName":false,"lon":-71.0198045,"lat":48.429596000000004,"elevation":[]}]}],"tooSloped":false}]},"debugOutput":{"precalculationTime":22,"pathCalculationTime":34,"pathTimes":[14,10,10],"renderingTime":0,"totalTime":56,"timedOut":false},"elevationMetadata":{"ellipsoidToGeoidDifference":-28.885904201182168,"geoidElevation":false}}