{"requestParameters":{"date":"2018/04/02","walkSpeed":"1.33","walkReluctance":"2.0","fromPlace":"48.422013,-71.025681","maxWalkDistance":"3000","waitReluctance":"1.0","carSpeed":"33","numItineraries":"3","waitAtBeginningFactor":"0.4","mode":"TRANSIT,WALK","ignoreRealtimeUpdates":"false","stairsReluctance":"2.0","toPlace":"48.431004,-71.014257","time":"10:15:00"},"plan":{"date":1522678500000,"from":{"name":"Origin","lon":-71.025681,"lat":48.422013,"orig":"","vertexType":"NORMAL"},"to":{"name":"Destination","lon":-71.014257,"lat":48.431004,"orig":"","vertexType":"NORMAL"},"itineraries":[{"duration":1253,"startTime":1522678500000,"endTime":1522679753000,"walkTime":1253,"transitTime":0,"waitingTime":0,"walkDistance":1613.6254811967967,"walkLimitExceeded":false,"elevationLost":0.0,"elevationGained":0.0,"transfers":0,"legs":[{"startTime":1522678500000,"endTime":1522679753000,"departureDelay":0,"arrivalDelay":0,"realTime":false,"distance":1613.4330000000002,"pathway":false,"mode":"WALK","route":"","agencyTimeZoneOffset":-14400000,"interlineWithPreviousLeg":false,"from":{"name":"Origin","lon":-71.025681,"lat":48.422013,"departure":1522678500000,"orig":"","vertexType":"NORMAL"},"to":{"name":"Destination","lon":-71.014257,"lat":48.431004,"arrival":1522679753000,"orig":"","vertexType":"NORMAL"},"legGeometry":{"points":"kmpfHjgopLMMEEWYYYWYCCY[CAY[QUII]c@QQY]UKOKYMMGs@a@uCoAiAUsCsBY]QMQOgA{@cB}AAAw@s@{BmB{BmBhA{Dr@oDFu@HeJoCAQE]M{@e@iAaAkCyBDMHSFWHUF]B_@B[@UBQ}D}@OC","length":53},"rentedBike":false,"transitLeg":false,"duration":1253.0,"steps":[{"distance":174.612,"relativeDirection":"DEPART","streetName":"Rue Fradette","absoluteDirection":"NORTHEAST","stayOn":false,"area":false,"bogusName":false,"lon":-71.02597629274666,"lat":48.42214874750844,"elevation":[]},{"distance":651.7130000000001,"relativeDirection":"CONTINUE","streetName":"Rue de Normandie","absoluteDirection":"NORTH","stayOn":false,"area":false,"bogusName":false,"lon":-71.02459610000001,"lat":48.4234239,"elevation":[]},{"distance":304.943,"relativeDirection":"RIGHT","streetName":"Rue des Cèdres","absoluteDirection":"SOUTHEAST","stayOn":false,"area":false,"bogusName":false,"lon":-71.0206687,"lat":48.428639100000005,"elevation":[]},{"distance":280.913,"relativeDirection":"LEFT","streetName":"Rue d'Anjou","absoluteDirection":"NORTH","stayOn":false,"area":false,"bogusName":false,"lon":-71.01678340000001,"lat":48.427919100000004,"elevation":[]},{"distance":84.669,"relativeDirection":"RIGHT","streetName":"road","absoluteDirection":"SOUTHEAST","stayOn":false,"area":false,"bogusName":true,"lon":-71.0155488,"lat":48.430243600000004,"elevation":[]},{"distance":116.583,"relativeDirection":"LEFT","streetName":"Rang Saint-Martin","absoluteDirection":"NORTH","stayOn":false,"area":false,"bogusName":false,"lon":-71.0144971,"lat":48.429965700000004,"elevation":[]}]}],"tooSloped":false},{"duration":924,"startTime":1522679262000,"endTime":1522680186000,"walkTime":772,"transitTime":150,"waitingTime":2,"walkDistance":982.216556383796,"walkLimitExceeded":false,"elevationLost":0.0,"elevationGained":0.0,"transfers":0,"legs":[{"startTime":1522679262000,"endTime":1522679382000,"departureDelay":0,"arrivalDelay":0,"realTime":false,"distance":156.286,"pathway":false,"mode":"WALK","route":"","agencyTimeZoneOffset":-14400000,"interlineWithPreviousLeg":false,"from":{"name":"Origin","lon":-71.025681,"lat":48.422013,"departure":1522679262000,"orig":"","vertexType":"NORMAL"},"to":{"name":"nouveau","stopId":"1:2300","stopCode":"2300","lon":-71.024659,"lat":48.423249,"arrival":1522679382000,"departure":1522679383000,"zoneId":"NA","stopIndex":20,"stopSequence":21,"vertexType":"TRANSIT"},"legGeometry":{"points":"kmpfHjgopLMMEEWYYYWYCCY[CAY[QUII]c@QQ","length":14},"rentedBike":false,"transitLeg":false,"duration":120.0,"steps":[{"distance":156.286,"relativeDirection":"DEPART","streetName":"Rue Fradette","absoluteDirection":"NORTHEAST","stayOn":false,"area":false,"bogusName":false,"lon":-71.02597629274666,"lat":48.42214874750844,"elevation":[]}]},{"startTime":1522679383000,"endTime":1522679533000,"departureDelay":0,"arrivalDelay":0,"realTime":false,"distance":903.6172679857908,"pathway":false,"mode":"BUS","route":"12","agencyName":"Société de Transport du Saguenay","agencyUrl":"http://ville.saguenay.ca/fr/services-aux-citoyens/transport-sts","agencyTimeZoneOffset":-14400000,"routeColor":"556B2F","routeType":3,"routeId":"1:12","routeTextColor":"FFFFFF","interlineWithPreviousLeg":false,"tripBlockId":"26","headsign":"Terminus Chicoutimi","agencyId":"0","tripId":"1:217971","serviceDate":"20180402","from":{"name":"nouveau","stopId":"1:2300","stopCode":"2300","lon":-71.024659,"lat":48.423249,"arrival":1522679382000,"departure":1522679383000,"zoneId":"NA","stopIndex":20,"stopSequence":21,"vertexType":"TRANSIT"},"to":{"name":"nouveau","stopId":"1:2302","stopCode":"2302","lon":-71.018919,"lat":48.430411,"arrival":1522679533000,"departure":1522679534000,"zoneId":"NA","stopIndex":23,"stopSequence":24,"vertexType":"TRANSIT"},"legGeometry":{"points":"gupfHzaopLkJaHgEoDmDwC_TqQ","length":5},"routeShortName":"12","routeLongName":"Rivière du Moulin","rentedBike":false,"transitLeg":true,"duration":150.0,"steps":[]},{"startTime":1522679534000,"endTime":1522680186000,"departureDelay":0,"arrivalDelay":0,"realTime":false,"distance":825.708,"pathway":false,"mode":"WALK","route":"","agencyTimeZoneOffset":-14400000,"interlineWithPreviousLeg":false,"from":{"name":"nouveau","stopId":"1:2302","stopCode":"2302","lon":-71.018919,"lat":48.430411,"arrival":1522679533000,"departure":1522679534000,"zoneId":"NA","stopIndex":23,"stopSequence":24,"vertexType":"TRANSIT"},"to":{"name":"Destination","lon":-71.014257,"lat":48.431004,"arrival":1522680186000,"orig":"","vertexType":"NORMAL"},"legGeometry":{"points":"iarfH`|mpLjDvCdAwDfAr@FDFCP{@Jy@@wB@mFQE]M{@e@iAaAkCyBDMHSFWHUF]B_@B[@UBQ}D}@OC","length":26},"rentedBike":false,"transitLeg":false,"duration":652.0,"steps":[{"distance":111.233,"relativeDirection":"DEPART","streetName":"Rue de Normandie","absoluteDirection":"SOUTHWEST","stayOn":false,"area":false,"bogusName":false,"lon":-71.019040541923,"lat":48.4304584029622,"elevation":[]},{"distance":78.442,"relativeDirection":"LEFT","streetName":"Rue de Bretagne","absoluteDirection":"SOUTHEAST","stayOn":false,"area":false,"bogusName":false,"lon":-71.0198045,"lat":48.429596000000004,"elevation":[]},{"distance":43.618,"relativeDirection":"RIGHT","streetName":"Rue de la Rochelle","absoluteDirection":"SOUTHWEST","stayOn":false,"area":false,"bogusName":false,"lon":-71.0188863,"lat":48.429240400000005,"elevation":[]},{"distance":189.337,"relativeDirection":"LEFT","streetName":"Rue des Cormiers","absoluteDirection":"SOUTHEAST","stayOn":false,"area":false,"bogusName":false,"lon":-71.01914380000001,"lat":48.4288873,"elevation":[]},{"distance":201.82600000000002,"relativeDirection":"LEFT","streetName":"Rue d'Anjou","absoluteDirection":"NORTH","stayOn":false,"area":false,"bogusName":false,"lon":-71.0167705,"lat":48.4286303,"elevation":[]},{"distance":84.669,"relativeDirection":"RIGHT","streetName":"road","absoluteDirection":"SOUTHEAST","stayOn":false,"area":false,"bogusName":true,"lon":-71.0155488,"lat":48.430243600000004,"elevation":[]},{"distance":116.583,"relativeDirection":"LEFT","streetName":"Rang Saint-Martin","absoluteDirection":"NORTH","stayOn":false,"area":false,"bogusName":false,"lon":-71.0144971,"lat":48.429965700000004,"elevation":[]}]}],"tooSloped":false},{"duration":924,"startTime":1522681062000,"endTime":1522681986000,"walkTime":772,"transitTime":150,"waitingTime":2,"walkDistance":982.216556383796,"walkLimitExceeded":false,"elevationLost":0.0,"elevationGained":0.0,"transfers":0,"legs":[{"startTime":1522681062000,"endTime":1522681182000,"departureDelay":0,"arrivalDelay":0,"realTime":false,"distance":156.286,"pathway":false,"mode":"WALK","route":"","agencyTimeZoneOffset":-14400000,"interlineWithPreviousLeg":false,"from":{"name":"Origin","lon":-71.025681,"lat":48.422013,"departure":1522681062000,"orig":"","vertexType":"NORMAL"},"to":{"name":"nouveau","stopId":"1:2300","stopCode":"2300","lon":-71.024659,"lat":48.423249,"arrival":1522681182000,"departure":1522681183000,"zoneId":"NA","stopIndex":20,"stopSequence":21,"vertexType":"TRANSIT"},"legGeometry":{"points":"kmpfHjgopLMMEEWYYYWYCCY[CAY[QUII]c@QQ","length":14},"rentedBike":false,"transitLeg":false,"duration":120.0,"steps":[{"distance":156.286,"relativeDirection":"DEPART","streetName":"Rue Fradette","absoluteDirection":"NORTHEAST","stayOn":false,"area":false,"bogusName":false,"lon":-71.02597629274666,"lat":48.42214874750844,"elevation":[]}]},{"startTime":1522681183000,"endTime":1522681333000,"departureDelay":0,"arrivalDelay":0,"realTime":false,"distance":903.6172679857908,"pathway":false,"mode":"BUS","route":"12","agencyName":"Société de Transport du Saguenay","agencyUrl":"http://ville.saguenay.ca/fr/services-aux-citoyens/transport-sts","agencyTimeZoneOffset":-14400000,"routeColor":"556B2F","routeType":3,"routeId":"1:12","routeTextColor":"FFFFFF","interlineWithPreviousLeg":false,"tripBlockId":"29","headsign":"Terminus Chicoutimi","agencyId":"0","tripId":"1:218060","serviceDate":"20180402","from":{"name":"nouveau","stopId":"1:2300","stopCode":"2300","lon":-71.024659,"lat":48.423249,"arrival":1522681182000,"departure":1522681183000,"zoneId":"NA","stopIndex":20,"stopSequence":21,"vertexType":"TRANSIT"},"to":{"name":"nouveau","stopId":"1:2302","stopCode":"2302","lon":-71.018919,"lat":48.430411,"arrival":1522681333000,"departure":1522681334000,"zoneId":"NA","stopIndex":23,"stopSequence":24,"vertexType":"TRANSIT"},"legGeometry":{"points":"gupfHzaopLkJaHgEoDmDwC_TqQ","length":5},"routeShortName":"12","routeLongName":"Rivière du Moulin","rentedBike":false,"transitLeg":true,"duration":150.0,"steps":[]},{"startTime":1522681334000,"endTime":1522681986000,"departureDelay":0,"arrivalDelay":0,"realTime":false,"distance":825.708,"pathway":false,"mode":"WALK","route":"","agencyTimeZoneOffset":-14400000,"interlineWithPreviousLeg":false,"from":{"name":"nouveau","stopId":"1:2302","stopCode":"2302","lon":-71.018919,"lat":48.430411,"arrival":1522681333000,"departure":1522681334000,"zoneId":"NA","stopIndex":23,"stopSequence":24,"vertexType":"TRANSIT"},"to":{"name":"Destination","lon":-71.014257,"lat":48.431004,"arrival":1522681986000,"orig":"","vertexType":"NORMAL"},"legGeometry":{"points":"iarfH`|mpLjDvCdAwDfAr@FDFCP{@Jy@@wB@mFQE]M{@e@iAaAkCyBDMHSFWHUF]B_@B[@UBQ}D}@OC","length":26},"rentedBike":false,"transitLeg":false,"duration":652.0,"steps":[{"distance":111.233,"relativeDirection":"DEPART","streetName":"Rue de Normandie","absoluteDirection":"SOUTHWEST","stayOn":false,"area":false,"bogusName":false,"lon":-71.019040541923,"lat":48.4304584029622,"elevation":[]},{"distance":78.442,"relativeDirection":"LEFT","streetName":"Rue de Bretagne","absoluteDirection":"SOUTHEAST","stayOn":false,"area":false,"bogusName":false,"lon":-71.0198045,"lat":48.429596000000004,"elevation":[]},{"distance":43.618,"relativeDirection":"RIGHT","streetName":"Rue de la Rochelle","absoluteDirection":"SOUTHWEST","stayOn":false,"area":false,"bogusName":false,"lon":-71.0188863,"lat":48.429240400000005,"elevation":[]},{"distance":189.337,"relativeDirection":"LEFT","streetName":"Rue des Cormiers","absoluteDirection":"SOUTHEAST","stayOn":false,"area":false,"bogusName":false,"lon":-71.01914380000001,"lat":48.4288873,"elevation":[]},{"distance":201.82600000000002,"relativeDirection":"LEFT","streetName":"Rue d'Anjou","absoluteDirection":"NORTH","stayOn":false,"area":false,"bogusName":false,"lon":-71.0167705,"lat":48.4286303,"elevation":[]},{"distance":84.669,"relativeDirection":"RIGHT","streetName":"road","absoluteDirection":"SOUTHEAST","stayOn":false,"area":false,"bogusName":true,"lon":-71.0155488,"lat":48.430243600000004,"elevation":[]},{"distance":116.583,"relativeDirection":"LEFT","streetName":"Rang Saint-Martin","absoluteDirection":"NORTH","stayOn":false,"area":false,"bogusName":false,"lon":-71.0144971,"lat":48.429965700000004,"elevation":[]}]}],"tooSloped":false}]},"debugOutput":{"precalculationTime":6,"pathCalculationTime":17,"pathTimes":[8,7,1],"renderingTime":0,"totalTime":23,"timedOut":false},"elevationMetadata":{"ellipsoidToGeoidDifference":-28.885904201182168,"geoidElevation":false}}