{"requestParameters":{"date":"2018/04/02","walkSpeed":"1.33","walkReluctance":"2.0","fromPlace":"48.40513,-71.06202999","maxWalkDistance":"3000","waitReluctance":"1.0","carSpeed":"33","numItineraries":"3","waitAtBeginningFactor":"0.4","mode":"TRANSIT,WALK","ignoreRealtimeUpdates":"false","stairsReluctance":"2.0","toPlace":"48.430365,-71.016359","time":"17:0:00"},"plan":{"date":1522702800000,"from":{"name":"Origin","lon":-71.06202999,"lat":48.40513,"orig":"","vertexType":"NORMAL"},"to":{"name":"Destination","lon":-71.016359,"lat":48.430365,"orig":"","vertexType":"NORMAL"},"itineraries":[{"duration":1697,"startTime":1522703342000,"endTime":1522705039000,"walkTime":861,"transitTime":834,"waitingTime":2,"walkDistance":1093.987518788683,"walkLimitExceeded":false,"elevationLost":0.0,"elevationGained":0.0,"transfers":0,"legs":[{"startTime":1522703342000,"endTime":1522703898000,"departureDelay":0,"arrivalDelay":0,"realTime":false,"distance":709.514,"pathway":false,"mode":"WALK","route":"","agencyTimeZoneOffset":-14400000,"interlineWithPreviousLeg":false,"from":{"name":"Origin","lon":-71.06202999,"lat":48.40513,"departure":1522703342000,"orig":"","vertexType":"NORMAL"},"to":{"name":"Place du Saguenay (Champs-Élysées)","stopId":"1:571","stopCode":"571","lon":-71.055824,"lat":48.408307,"arrival":1522703898000,"departure":1522703899000,"zoneId":"NA","stopIndex":12,"stopSequence":13,"vertexType":"TRANSIT"},"legGeometry":{"points":"kemfHdfvpL|@aCNa@eE}Dw@q@wAoAgGsF][YWMKbAwCgBgBL]Na@\\}@","length":15},"rentedBike":false,"transitLeg":false,"duration":556.0,"steps":[{"distance":73.87899999999999,"relativeDirection":"DEPART","streetName":"Rue Des Maristes","absoluteDirection":"SOUTHEAST","stayOn":false,"area":false,"bogusName":false,"lon":-71.06162332321281,"lat":48.40550660167406,"elevation":[]},{"distance":440.94200000000006,"relativeDirection":"LEFT","streetName":"Rue Bach","absoluteDirection":"NORTHEAST","stayOn":false,"area":false,"bogusName":false,"lon":-71.06080990000001,"lat":48.405119500000005,"elevation":[]},{"distance":67.359,"relativeDirection":"RIGHT","streetName":"Rue Plamondon","absoluteDirection":"SOUTHEAST","stayOn":false,"area":false,"bogusName":false,"lon":-71.05766410000001,"lat":48.408490300000004,"elevation":[]},{"distance":69.905,"relativeDirection":"LEFT","streetName":"Rue Plamondon","absoluteDirection":"NORTHEAST","stayOn":true,"area":false,"bogusName":false,"lon":-71.05690750000001,"lat":48.408151600000004,"elevation":[]},{"distance":57.429,"relativeDirection":"RIGHT","streetName":"Rue des Champs-Élysées","absoluteDirection":"SOUTHEAST","stayOn":false,"area":false,"bogusName":false,"lon":-71.0563831,"lat":48.4086751,"elevation":[]}]},{"startTime":1522703899000,"endTime":1522704733000,"departureDelay":0,"arrivalDelay":0,"realTime":false,"distance":4824.007912650863,"pathway":false,"mode":"BUS","route":"12","agencyName":"Société de Transport du Saguenay","agencyUrl":"http://ville.saguenay.ca/fr/services-aux-citoyens/transport-sts","agencyTimeZoneOffset":-14400000,"routeColor":"556B2F","routeType":3,"routeId":"1:12","routeTextColor":"FFFFFF","interlineWithPreviousLeg":false,"tripBlockId":"26","headsign":"Terminus Chicoutimi","agencyId":"0","tripId":"1:217985","serviceDate":"20180402","from":{"name":"Place du Saguenay (Champs-Élysées)","stopId":"1:571","stopCode":"571","lon":-71.055824,"lat":48.408307,"arrival":1522703898000,"departure":1522703899000,"zoneId":"NA","stopIndex":12,"stopSequence":13,"vertexType":"TRANSIT"},"to":{"name":"nouveau","stopId":"1:2302","stopCode":"2302","lon":-71.018919,"lat":48.430411,"arrival":1522704733000,"departure":1522704734000,"zoneId":"NA","stopIndex":23,"stopSequence":24,"vertexType":"TRANSIT"},"legGeometry":{"points":"{vmfH|aupLxFoNlCyGa@yFYkD}CyA}KmFgD_BgAgBn@kFD_NoIgrAmD_WcAaLaDHoDJi`@wVoAbDbA|AnBU|B|AfBlAyLtKoGxFcFqDkJaHgEoDmDwC_TqQ","length":29},"routeShortName":"12","routeLongName":"Rivière du Moulin","rentedBike":false,"transitLeg":true,"duration":834.0,"steps":[]},{"startTime":1522704734000,"endTime":1522705039000,"departureDelay":0,"arrivalDelay":0,"realTime":false,"distance":384.216,"pathway":false,"mode":"WALK","route":"","agencyTimeZoneOffset":-14400000,"interlineWithPreviousLeg":false,"from":{"name":"nouveau","stopId":"1:2302","stopCode":"2302","lon":-71.018919,"lat":48.430411,"arrival":1522704733000,"departure":1522704734000,"zoneId":"NA","stopIndex":23,"stopSequence":24,"vertexType":"TRANSIT"},"to":{"name":"Destination","lon":-71.016359,"lat":48.430365,"arrival":1522705039000,"orig":"","vertexType":"NORMAL"},"legGeometry":{"points":"iarfH`|mpLQOgB}AdAyD}BkB~@iDRG`BrA","length":8},"rentedBike":false,"transitLeg":false,"duration":305.0,"steps":[{"distance":78.704,"relativeDirection":"DEPART","streetName":"Rue de Normandie","absoluteDirection":"NORTHEAST","stayOn":false,"area":false,"bogusName":false,"lon":-71.019040541923,"lat":48.4304584029622,"elevation":[]},{"distance":79.308,"relativeDirection":"RIGHT","streetName":"Rue du Perche","absoluteDirection":"SOUTHEAST","stayOn":false,"area":false,"bogusName":false,"lon":-71.0185,"lat":48.4310686,"elevation":[]},{"distance":80.187,"relativeDirection":"LEFT","streetName":"Rue de la Rochelle","absoluteDirection":"NORTHEAST","stayOn":false,"area":false,"bogusName":false,"lon":-71.0175651,"lat":48.430716600000004,"elevation":[]},{"distance":71.664,"relativeDirection":"RIGHT","streetName":"Rue du Poitou","absoluteDirection":"SOUTHEAST","stayOn":false,"area":false,"bogusName":false,"lon":-71.01702370000001,"lat":48.4313419,"elevation":[]},{"distance":74.353,"relativeDirection":"RIGHT","streetName":"Rue de Honfleur","absoluteDirection":"SOUTH","stayOn":false,"area":false,"bogusName":false,"lon":-71.01617470000001,"lat":48.4310288,"elevation":[]}]}],"tooSloped":false},{"duration":2475,"startTime":1522703859000,"endTime":1522706334000,"walkTime":470,"transitTime":1583,"waitingTime":422,"walkDistance":601.8073157853978,"walkLimitExceeded":false,"elevationLost":0.0,"elevationGained":0.0,"transfers":1,"legs":[{"startTime":1522703859000,"endTime":1522704033000,"departureDelay":0,"arrivalDelay":0,"realTime":false,"distance":228.815,"pathway":false,"mode":"WALK","route":"","agencyTimeZoneOffset":-14400000,"interlineWithPreviousLeg":false,"from":{"name":"Origin","lon":-71.06202999,"lat":48.40513,"departure":1522703859000,"orig":"","vertexType":"NORMAL"},"to":{"name":"Saguenéens / Maristes","stopId":"1:1999","stopCode":"1999","lon":-71.06394,"lat":48.405813,"arrival":1522704033000,"departure":1522704034000,"zoneId":"NA","stopIndex":14,"stopSequence":15,"vertexType":"TRANSIT"},"legGeometry":{"points":"kemfHdfvpLcAjCQd@bBlFcA~@","length":5},"rentedBike":false,"transitLeg":false,"duration":174.0,"steps":[{"distance":184.543,"relativeDirection":"DEPART","streetName":"Rue Des Maristes","absoluteDirection":"NORTHWEST","stayOn":false,"area":false,"bogusName":false,"lon":-71.06162332321281,"lat":48.40550660167406,"elevation":[]},{"distance":44.272,"relativeDirection":"RIGHT","streetName":"Rue des Saguenéens","absoluteDirection":"NORTHWEST","stayOn":false,"area":false,"bogusName":false,"lon":-71.0637066,"lat":48.4054395,"elevation":[]}]},{"startTime":1522704034000,"endTime":1522705080000,"departureDelay":0,"arrivalDelay":0,"realTime":false,"distance":5417.757298869121,"pathway":false,"mode":"BUS","route":"15","agencyName":"Société de Transport du Saguenay","agencyUrl":"http://ville.saguenay.ca/fr/services-aux-citoyens/transport-sts","agencyTimeZoneOffset":-14400000,"routeColor":"FF00FF","routeType":3,"routeId":"1:15","routeTextColor":"FFFFFF","interlineWithPreviousLeg":false,"tripBlockId":"30","headsign":"Terminus Chicoutimi","agencyId":"0","tripId":"1:218108","serviceDate":"20180402","from":{"name":"Saguenéens / Maristes","stopId":"1:1999","stopCode":"1999","lon":-71.06394,"lat":48.405813,"arrival":1522704033000,"departure":1522704034000,"zoneId":"NA","stopIndex":14,"stopSequence":15,"vertexType":"TRANSIT"},"to":{"name":"Terminus Chicoutimi","stopId":"1:1289","stopCode":"1289","lon":-71.066163,"lat":48.428677,"arrival":1522705080000,"departure":1522705500000,"zoneId":"NA","stopIndex":39,"stopSequence":40,"vertexType":"TRANSIT"},"legGeometry":{"points":"_gmfHluvpLUP_@d@Yl@oBdFeCxG_CfGYVQXS\\dK|HlFZbC\\p@zA\\rB@hBiArG{BNw@FiG}@iDwAECcCcBo@y@sEeGe@o@qAa@m@MoB?C@}BZwAc@oA_Bs@gDCKZ{Di@QECc@_@sAkAoBwB_EcE{A_BoAmAk@o@cCaCkIkIaJaJUUwBaCj@wCjAsCzGoG_CoHL{D_@kAqD{CQr@iAcAy@w@L{@wAuA_B_B_EpLDh@NbBVvCIxBg@`Am@l@Sb@a@rAqDqDmEkE]a@kAqAU|@WnKG|DGxDOdPKvJU|F?XQlJC~@ChAIzEcCOaIi@VwL","length":91},"routeShortName":"15","routeLongName":"Term. Chic / Costco","rentedBike":false,"transitLeg":true,"duration":1046.0,"steps":[]},{"startTime":1522705500000,"endTime":1522706037000,"departureDelay":0,"arrivalDelay":0,"realTime":false,"distance":3778.5921331908007,"pathway":false,"mode":"BUS","route":"12","agencyName":"Société de Transport du Saguenay","agencyUrl":"http://ville.saguenay.ca/fr/services-aux-citoyens/transport-sts","agencyTimeZoneOffset":-14400000,"routeColor":"556B2F","routeType":3,"routeId":"1:12","routeTextColor":"FFFFFF","interlineWithPreviousLeg":false,"tripBlockId":"27","headsign":"Terminus UQAC","agencyId":"0","tripId":"1:218022","serviceDate":"20180402","from":{"name":"Terminus Chicoutimi","stopId":"1:1289","stopCode":"1289","lon":-71.066163,"lat":48.428677,"arrival":1522705080000,"departure":1522705500000,"zoneId":"NA","stopIndex":0,"stopSequence":1,"vertexType":"TRANSIT"},"to":{"name":"Normandie / Perche","stopId":"1:498","stopCode":"498","lon":-71.0191,"lat":48.4306,"arrival":1522706037000,"departure":1522706038000,"zoneId":"NA","stopIndex":16,"stopSequence":17,"vertexType":"TRANSIT"},"legGeometry":{"points":"evqfHpbwpLpFcj@IaKmFy^_DaZz@u]SeV}@aNs@gKToKd@gTnCyHkGuLqFqJ_DeFf@iIvGsK","length":17},"routeShortName":"12","routeLongName":"Rivière du Moulin","rentedBike":false,"transitLeg":true,"duration":537.0,"steps":[]},{"startTime":1522706038000,"endTime":1522706334000,"departureDelay":0,"arrivalDelay":0,"realTime":false,"distance":372.866,"pathway":false,"mode":"WALK","route":"","agencyTimeZoneOffset":-14400000,"interlineWithPreviousLeg":false,"from":{"name":"Normandie / Perche","stopId":"1:498","stopCode":"498","lon":-71.0191,"lat":48.4306,"arrival":1522706037000,"departure":1522706038000,"zoneId":"NA","stopIndex":16,"stopSequence":17,"vertexType":"TRANSIT"},"to":{"name":"Destination","lon":-71.016359,"lat":48.430365,"arrival":1522706334000,"orig":"","vertexType":"NORMAL"},"legGeometry":{"points":"{arfHp{mpLgB}AdAyD}BkB~@iDRG`BrA","length":7},"rentedBike":false,"transitLeg":false,"duration":296.0,"steps":[{"distance":67.354,"relativeDirection":"DEPART","streetName":"Rue de Normandie","absoluteDirection":"NORTHEAST","stayOn":false,"area":false,"bogusName":false,"lon":-71.01896258422028,"lat":48.43054640642179,"elevation":[]},{"distance":79.308,"relativeDirection":"RIGHT","streetName":"Rue du Perche","absoluteDirection":"SOUTHEAST","stayOn":false,"area":false,"bogusName":false,"lon":-71.0185,"lat":48.4310686,"elevation":[]},{"distance":80.187,"relativeDirection":"LEFT","streetName":"Rue de la Rochelle","absoluteDirection":"NORTHEAST","stayOn":false,"area":false,"bogusName":false,"lon":-71.0175651,"lat":48.430716600000004,"elevation":[]},{"distance":71.664,"relativeDirection":"RIGHT","streetName":"Rue du Poitou","absoluteDirection":"SOUTHEAST","stayOn":false,"area":false,"bogusName":false,"lon":-71.01702370000001,"lat":48.4313419,"elevation":[]},{"distance":74.353,"relativeDirection":"RIGHT","streetName":"Rue de Honfleur","absoluteDirection":"SOUTH","stayOn":false,"area":false,"bogusName":false,"lon":-71.01617470000001,"lat":48.4310288,"elevation":[]}]}],"tooSloped":false},{"duration":1697,"startTime":1522705142000,"endTime":1522706839000,"walkTime":861,"transitTime":834,"waitingTime":2,"walkDistance":1093.987518788683,"walkLimitExceeded":false,"elevationLost":0.0,"elevationGained":0.0,"transfers":0,"legs":[{"startTime":1522705142000,"endTime":1522705698000,"departureDelay":0,"arrivalDelay":0,"realTime":false,"distance":709.514,"pathway":false,"mode":"WALK","route":"","agencyTimeZoneOffset":-14400000,"interlineWithPreviousLeg":false,"from":{"name":"Origin","lon":-71.06202999,"lat":48.40513,"departure":1522705142000,"orig":"","vertexType":"NORMAL"},"to":{"name":"Place du Saguenay (Champs-Élysées)","stopId":"1:571","stopCode":"571","lon":-71.055824,"lat":48.408307,"arrival":1522705698000,"departure":1522705699000,"zoneId":"NA","stopIndex":12,"stopSequence":13,"vertexType":"TRANSIT"},"legGeometry":{"points":"kemfHdfvpL|@aCNa@eE}Dw@q@wAoAgGsF][YWMKbAwCgBgBL]Na@\\}@","length":15},"rentedBike":false,"transitLeg":false,"duration":556.0,"steps":[{"distance":73.87899999999999,"relativeDirection":"DEPART","streetName":"Rue Des Maristes","absoluteDirection":"SOUTHEAST","stayOn":false,"area":false,"bogusName":false,"lon":-71.06162332321281,"lat":48.40550660167406,"elevation":[]},{"distance":440.94200000000006,"relativeDirection":"LEFT","streetName":"Rue Bach","absoluteDirection":"NORTHEAST","stayOn":false,"area":false,"bogusName":false,"lon":-71.06080990000001,"lat":48.405119500000005,"elevation":[]},{"distance":67.359,"relativeDirection":"RIGHT","streetName":"Rue Plamondon","absoluteDirection":"SOUTHEAST","stayOn":false,"area":false,"bogusName":false,"lon":-71.05766410000001,"lat":48.408490300000004,"elevation":[]},{"distance":69.905,"relativeDirection":"LEFT","streetName":"Rue Plamondon","absoluteDirection":"NORTHEAST","stayOn":true,"area":false,"bogusName":false,"lon":-71.05690750000001,"lat":48.408151600000004,"elevation":[]},{"distance":57.429,"relativeDirection":"RIGHT","streetName":"Rue des Champs-Élysées","absoluteDirection":"SOUTHEAST","stayOn":false,"area":false,"bogusName":false,"lon":-71.0563831,"lat":48.4086751,"elevation":[]}]},{"startTime":1522705699000,"endTime":1522706533000,"departureDelay":0,"arrivalDelay":0,"realTime":false,"distance":4824.007912650863,"pathway":false,"mode":"BUS","route":"12","agencyName":"Société de Transport du Saguenay","agencyUrl":"http://ville.saguenay.ca/fr/services-aux-citoyens/transport-sts","agencyTimeZoneOffset":-14400000,"routeColor":"556B2F","routeType":3,"routeId":"1:12","routeTextColor":"FFFFFF","interlineWithPreviousLeg":false,"tripBlockId":"29","headsign":"Terminus Chicoutimi","agencyId":"0","tripId":"1:218074","serviceDate":"20180402","from":{"name":"Place du Saguenay (Champs-Élysées)","stopId":"1:571","stopCode":"571","lon":-71.055824,"lat":48.408307,"arrival":1522705698000,"departure":1522705699000,"zoneId":"NA","stopIndex":12,"stopSequence":13,"vertexType":"TRANSIT"},"to":{"name":"nouveau","stopId":"1:2302","stopCode":"2302","lon":-71.018919,"lat":48.430411,"arrival":1522706533000,"departure":1522706534000,"zoneId":"NA","stopIndex":23,"stopSequence":24,"vertexType":"TRANSIT"},"legGeometry":{"points":"{vmfH|aupLxFoNlCyGa@yFYkD}CyA}KmFgD_BgAgBn@kFD_NoIgrAmD_WcAaLaDHoDJi`@wVoAbDbA|AnBU|B|AfBlAyLtKoGxFcFqDkJaHgEoDmDwC_TqQ","length":29},"routeShortName":"12","routeLongName":"Rivière du Moulin","rentedBike":false,"transitLeg":true,"duration":834.0,"steps":[]},{"startTime":1522706534000,"endTime":1522706839000,"departureDelay":0,"arrivalDelay":0,"realTime":false,"distance":384.216,"pathway":false,"mode":"WALK","route":"","agencyTimeZoneOffset":-14400000,"interlineWithPreviousLeg":false,"from":{"name":"nouveau","stopId":"1:2302","stopCode":"2302","lon":-71.018919,"lat":48.430411,"arrival":1522706533000,"departure":1522706534000,"zoneId":"NA","stopIndex":23,"stopSequence":24,"vertexType":"TRANSIT"},"to":{"name":"Destination","lon":-71.016359,"lat":48.430365,"arrival":1522706839000,"orig":"","vertexType":"NORMAL"},"legGeometry":{"points":"iarfH`|mpLQOgB}AdAyD}BkB~@iDRG`BrA","length":8},"rentedBike":false,"transitLeg":false,"duration":305.0,"steps":[{"distance":78.704,"relativeDirection":"DEPART","streetName":"Rue de Normandie","absoluteDirection":"NORTHEAST","stayOn":false,"area":false,"bogusName":false,"lon":-71.019040541923,"lat":48.4304584029622,"elevation":[]},{"distance":79.308,"relativeDirection":"RIGHT","streetName":"Rue du Perche","absoluteDirection":"SOUTHEAST","stayOn":false,"area":false,"bogusName":false,"lon":-71.0185,"lat":48.4310686,"elevation":[]},{"distance":80.187,"relativeDirection":"LEFT","streetName":"Rue de la Rochelle","absoluteDirection":"NORTHEAST","stayOn":false,"area":false,"bogusName":false,"lon":-71.0175651,"lat":48.430716600000004,"elevation":[]},{"distance":71.664,"relativeDirection":"RIGHT","streetName":"Rue du Poitou","absoluteDirection":"SOUTHEAST","stayOn":false,"area":false,"bogusName":false,"lon":-71.01702370000001,"lat":48.4313419,"elevation":[]},{"distance":74.353,"relativeDirection":"RIGHT","streetName":"Rue de Honfleur","absoluteDirection":"SOUTH","stayOn":false,"area":false,"bogusName":false,"lon":-71.01617470000001,"lat":48.4310288,"elevation":[]}]}],"tooSloped":false}]},"debugOutput":{"precalculationTime":22,"pathCalculationTime":47,"pathTimes":[20,13,14],"renderingTime":0,"totalTime":69,"timedOut":false},"elevationMetadata":{"ellipsoidToGeoidDifference":-28.885904201182168,"geoidElevation":false}}