{"requestParameters":{"date":"2018/04/02","walkSpeed":"1.33","walkReluctance":"2.0","fromPlace":"48.396888,-71.080481","maxWalkDistance":"3000","waitReluctance":"1.0","carSpeed":"33","numItineraries":"3","waitAtBeginningFactor":"0.4","mode":"TRANSIT,WALK","ignoreRealtimeUpdates":"false","stairsReluctance":"2.0","toPlace":"48.428994,-71.02749599","time":"10:37:00"},"plan":{"date":1522679820000,"from":{"name":"Origin","lon":-71.080481,"lat":48.396888,"orig":"","vertexType":"NORMAL"},"to":{"name":"Destination","lon":-71.02749599,"lat":48.428994,"orig":"","vertexType":"NORMAL"},"itineraries":[{"duration":2290,"startTime":1522680220000,"endTime":1522682510000,"walkTime":155,"transitTime":1713,"waitingTime":422,"walkDistance":198.31331578862455,"walkLimitExceeded":false,"elevationLost":0.0,"elevationGained":0.0,"transfers":1,"legs":[{"startTime":1522680220000,"endTime":1522680357000,"departureDelay":0,"arrivalDelay":0,"realTime":false,"distance":175.414,"pathway":false,"mode":"WALK","route":"","agencyTimeZoneOffset":-14400000,"interlineWithPreviousLeg":false,"from":{"name":"Origin","lon":-71.080481,"lat":48.396888,"departure":1522680220000,"orig":"","vertexType":"NORMAL"},"to":{"name":"Malraux / boul. Barrette","stopId":"1:1879","stopCode":"1879","lon":-71.081369,"lat":48.397654,"arrival":1522680357000,"departure":1522680358000,"zoneId":"NA","stopIndex":11,"stopSequence":12,"vertexType":"TRANSIT"},"legGeometry":{"points":"ookfH`|ypLP\\J`@aAz@{@dC{@y@EE","length":7},"rentedBike":false,"transitLeg":false,"duration":137.0,"steps":[{"distance":29.247,"relativeDirection":"DEPART","streetName":"Rue Rimbaud","absoluteDirection":"SOUTHWEST","stayOn":false,"area":false,"bogusName":false,"lon":-71.08048253870365,"lat":48.39688909738361,"elevation":[]},{"distance":103.088,"relativeDirection":"RIGHT","streetName":"path","absoluteDirection":"NORTHWEST","stayOn":false,"area":false,"bogusName":true,"lon":-71.0808007,"lat":48.3967363,"elevation":[]},{"distance":43.079,"relativeDirection":"RIGHT","streetName":"Rue Malraux","absoluteDirection":"NORTHEAST","stayOn":false,"area":false,"bogusName":false,"lon":-71.08177760000001,"lat":48.3973693,"elevation":[]}]},{"startTime":1522680358000,"endTime":1522681680000,"departureDelay":0,"arrivalDelay":0,"realTime":false,"distance":6409.6912479602315,"pathway":false,"mode":"BUS","route":"14","agencyName":"Société de Transport du Saguenay","agencyUrl":"http://ville.saguenay.ca/fr/services-aux-citoyens/transport-sts","agencyTimeZoneOffset":-14400000,"routeColor":"C0C000","routeType":3,"routeId":"1:14","routeTextColor":"000000","interlineWithPreviousLeg":false,"tripBlockId":"33","headsign":"Terminus Chicoutimi","agencyId":"0","tripId":"1:218180","serviceDate":"20180402","from":{"name":"Malraux / boul. Barrette","stopId":"1:1879","stopCode":"1879","lon":-71.081369,"lat":48.397654,"arrival":1522680357000,"departure":1522680358000,"zoneId":"NA","stopIndex":11,"stopSequence":12,"vertexType":"TRANSIT"},"to":{"name":"Terminus Chicoutimi","stopId":"1:1289","stopCode":"1289","lon":-71.066163,"lat":48.428677,"arrival":1522681680000,"departure":1522682100000,"zoneId":"NA","stopIndex":37,"stopSequence":38,"vertexType":"TRANSIT"},"legGeometry":{"points":"stkfHfbzpL}AaB_BkAC@qC\\gAWiBwBiKgMiCwEgEyHCGy@uB}@rAa@nAc@lFEf@mGvUYfAqCs@ICMCqFmDc@s@mAkBuEoESUgAhDiAfD}@zDyAcA_@Um@U{AWgB_Au@s@EEsBkCqFgF{IiI][aBhE}@}@oBmBwE{EwE{Ej@mBZeAa@SyEQg@CPcALuCx@{b@t@{[XoDd@sBl@iB~@gA`G{F{A{D_@sBFqDOq@iG{FGIoCkCgBgBsDpLHzBBT`@~COnBQf@gAjAg@bBuDmDmFgFa@_@w@s@CfAOrBEtAGbA?jBQtC?|@ExKMdIG~EUnLEhC}CKkBOkCOYbC","length":95},"routeShortName":"14","routeLongName":"Coopérative","rentedBike":false,"transitLeg":true,"duration":1322.0,"steps":[]},{"startTime":1522682100000,"endTime":1522682491000,"departureDelay":0,"arrivalDelay":0,"realTime":false,"distance":2905.2877763841147,"pathway":false,"mode":"BUS","route":"12","agencyName":"Société de Transport du Saguenay","agencyUrl":"http://ville.saguenay.ca/fr/services-aux-citoyens/transport-sts","agencyTimeZoneOffset":-14400000,"routeColor":"556B2F","routeType":3,"routeId":"1:12","routeTextColor":"FFFFFF","interlineWithPreviousLeg":false,"tripBlockId":"28","headsign":"Terminus UQAC","agencyId":"0","tripId":"1:218035","serviceDate":"20180402","from":{"name":"Terminus Chicoutimi","stopId":"1:1289","stopCode":"1289","lon":-71.066163,"lat":48.428677,"arrival":1522681680000,"departure":1522682100000,"zoneId":"NA","stopIndex":0,"stopSequence":1,"vertexType":"TRANSIT"},"to":{"name":"Auberge Le Parasol (boul. Saguenay)","stopId":"1:496","stopCode":"496","lon":-71.027958,"lat":48.428859,"arrival":1522682491000,"departure":1522682492000,"zoneId":"NA","stopIndex":11,"stopSequence":12,"vertexType":"TRANSIT"},"legGeometry":{"points":"evqfHpbwpLpFcj@IaKmFy^_DaZz@u]SeV}@aNs@gKToKd@gTnCyH","length":12},"routeShortName":"12","routeLongName":"Rivière du Moulin","rentedBike":false,"transitLeg":true,"duration":391.0,"steps":[]},{"startTime":1522682492000,"endTime":1522682510000,"departureDelay":0,"arrivalDelay":0,"realTime":false,"distance":22.873,"pathway":false,"mode":"WALK","route":"","agencyTimeZoneOffset":-14400000,"interlineWithPreviousLeg":false,"from":{"name":"Auberge Le Parasol (boul. Saguenay)","stopId":"1:496","stopCode":"496","lon":-71.027958,"lat":48.428859,"arrival":1522682491000,"departure":1522682492000,"zoneId":"NA","stopIndex":11,"stopSequence":12,"vertexType":"TRANSIT"},"to":{"name":"Destination","lon":-71.02749599,"lat":48.428994,"arrival":1522682510000,"orig":"","vertexType":"NORMAL"},"legGeometry":{"points":"ywqfHjsopLH]HW","length":3},"rentedBike":false,"transitLeg":false,"duration":18.0,"steps":[{"distance":22.873,"relativeDirection":"DEPART","streetName":"Boulevard du Saguenay Est","absoluteDirection":"SOUTHEAST","stayOn":false,"area":false,"bogusName":false,"lon":-71.02789478397764,"lat":48.428936717982694,"elevation":[]}]}],"tooSloped":false},{"duration":3549,"startTime":1522679871000,"endTime":1522683420000,"walkTime":967,"transitTime":2038,"waitingTime":544,"walkDistance":1245.2927969870345,"walkLimitExceeded":false,"elevationLost":0.0,"elevationGained":0.0,"transfers":1,"legs":[{"startTime":1522679871000,"endTime":1522680659000,"departureDelay":0,"arrivalDelay":0,"realTime":false,"distance":1017.704,"pathway":false,"mode":"WALK","route":"","agencyTimeZoneOffset":-14400000,"interlineWithPreviousLeg":false,"from":{"name":"Origin","lon":-71.080481,"lat":48.396888,"departure":1522679871000,"orig":"","vertexType":"NORMAL"},"to":{"name":"boul. Talbot / boul. Barrette","stopId":"1:49","stopCode":"49","lon":-71.069502,"lat":48.394497,"arrival":1522680659000,"departure":1522680660000,"zoneId":"NA","stopIndex":7,"stopSequence":8,"vertexType":"TRANSIT"},"legGeometry":{"points":"ookfH`|ypLg@_ACa@v@_Dx@_DPMND`@oAh@uAW[EMCO?M@OeAi@f@kBlAyEnA_Fj@eBz@cCz@cCtCwH?Q?IPc@OO}BmC","length":27},"rentedBike":false,"transitLeg":false,"duration":788.0,"steps":[{"distance":198.904,"relativeDirection":"DEPART","streetName":"Rue Rimbaud","absoluteDirection":"NORTHEAST","stayOn":false,"area":false,"bogusName":false,"lon":-71.08048253870365,"lat":48.39688909738361,"elevation":[]},{"distance":74.603,"relativeDirection":"LEFT","streetName":"path","absoluteDirection":"SOUTHEAST","stayOn":false,"area":false,"bogusName":true,"lon":-71.0783552,"lat":48.396369500000006,"elevation":[]},{"distance":40.991,"relativeDirection":"LEFT","streetName":"Rue Jacques-Ferron","absoluteDirection":"NORTHEAST","stayOn":false,"area":false,"bogusName":false,"lon":-71.077527,"lat":48.3959856,"elevation":[]},{"distance":41.863,"relativeDirection":"LEFT","streetName":"path","absoluteDirection":"NORTH","stayOn":false,"area":false,"bogusName":true,"lon":-71.0770823,"lat":48.3961436,"elevation":[]},{"distance":546.237,"relativeDirection":"RIGHT","streetName":"bike path","absoluteDirection":"SOUTHEAST","stayOn":true,"area":false,"bogusName":true,"lon":-71.0768749,"lat":48.396494000000004,"elevation":[]},{"distance":16.674,"relativeDirection":"SLIGHTLY_RIGHT","streetName":"Boulevard Barrette","absoluteDirection":"SOUTHEAST","stayOn":false,"area":false,"bogusName":false,"lon":-71.0705975,"lat":48.3939363,"elevation":[]},{"distance":98.432,"relativeDirection":"LEFT","streetName":"Boulevard Talbot","absoluteDirection":"NORTHEAST","stayOn":false,"area":false,"bogusName":false,"lon":-71.07041720000001,"lat":48.393846,"elevation":[]}]},{"startTime":1522680660000,"endTime":1522681334000,"departureDelay":0,"arrivalDelay":0,"realTime":false,"distance":3758.5771950879803,"pathway":false,"mode":"BUS","route":"175","agencyName":"Société de Transport du Saguenay","agencyUrl":"http://ville.saguenay.ca/fr/services-aux-citoyens/transport-sts","agencyTimeZoneOffset":-14400000,"routeColor":"FF00FF","routeType":3,"routeId":"1:175","routeTextColor":"FFFFFF","interlineWithPreviousLeg":false,"tripBlockId":"11","headsign":"Terminus Chicoutimi","agencyId":"0","tripId":"1:217470","serviceDate":"20180402","from":{"name":"boul. Talbot / boul. Barrette","stopId":"1:49","stopCode":"49","lon":-71.069502,"lat":48.394497,"arrival":1522680659000,"departure":1522680660000,"zoneId":"NA","stopIndex":7,"stopSequence":8,"vertexType":"TRANSIT"},"to":{"name":"Cégep de Chicoutimi (voie réservée)","stopId":"1:65","stopCode":"65","lon":-71.054799,"lat":48.423007,"arrival":1522681334000,"departure":1522681876000,"zoneId":"NA","stopIndex":16,"stopSequence":17,"vertexType":"TRANSIT"},"legGeometry":{"points":"aakfHlxwpLiAoAgEsFkFsHqJ_N}FkImPkOuO{N_U_TcNgNcBcB{E`Jc@x@qG~@{BlAk@XgSrQqB_GAeFiEeEOt@gAeA_A_ATm@yAwAgBeBqDnL@nBF`@","length":29},"routeShortName":"175","routeLongName":"Term. Chic / Costco","rentedBike":false,"transitLeg":true,"duration":674.0,"steps":[]},{"startTime":1522681876000,"endTime":1522683240000,"departureDelay":0,"arrivalDelay":0,"realTime":false,"distance":7757.123962143384,"pathway":false,"mode":"BUS","route":"12","agencyName":"Société de Transport du Saguenay","agencyUrl":"http://ville.saguenay.ca/fr/services-aux-citoyens/transport-sts","agencyTimeZoneOffset":-14400000,"routeColor":"556B2F","routeType":3,"routeId":"1:12","routeTextColor":"FFFFFF","interlineWithPreviousLeg":false,"tripBlockId":"26","headsign":"Terminus Chicoutimi","agencyId":"0","tripId":"1:217973","serviceDate":"20180402","from":{"name":"Cégep de Chicoutimi (voie réservée)","stopId":"1:65","stopCode":"65","lon":-71.054799,"lat":48.423007,"arrival":1522681334000,"departure":1522681876000,"zoneId":"NA","stopIndex":2,"stopSequence":3,"vertexType":"TRANSIT"},"to":{"name":"nouveau","stopId":"1:2304","stopCode":"2304","lon":-71.026011,"lat":48.430204,"arrival":1522683240000,"departure":1522683241000,"zoneId":"NA","stopIndex":25,"stopSequence":26,"vertexType":"TRANSIT"},"legGeometry":{"points":"wrpfHn{tpLv@fCa@nDaC`D~E`F~MfNjJnJ~GbHnCpCv@iBlAgIdCmFbAqDtBeCjFm@`Gs@hFo@xAmBrGcPxFoNlCyGa@yFYkD}CyA}KmFgD_BgAgBn@kFD_NoIgrAmD_WcAaLaDHoDJi`@wVoAbDbA|AnBU|B|AfBlAyLtKoGxFcFqDkJaHgEoDmDwC_TqQsBeB{HjWfAvAfM|O","length":51},"routeShortName":"12","routeLongName":"Rivière du Moulin","rentedBike":false,"transitLeg":true,"duration":1364.0,"steps":[]},{"startTime":1522683241000,"endTime":1522683420000,"departureDelay":0,"arrivalDelay":0,"realTime":false,"distance":227.42,"pathway":false,"mode":"WALK","route":"","agencyTimeZoneOffset":-14400000,"interlineWithPreviousLeg":false,"from":{"name":"nouveau","stopId":"1:2304","stopCode":"2304","lon":-71.026011,"lat":48.430204,"arrival":1522683240000,"departure":1522683241000,"zoneId":"NA","stopIndex":25,"stopSequence":26,"vertexType":"TRANSIT"},"to":{"name":"Destination","lon":-71.02749599,"lat":48.428994,"arrival":1522683420000,"orig":"","vertexType":"NORMAL"},"legGeometry":{"points":"m_rfH|fopLVVPNrBnBdAr@bAn@_@zA","length":7},"rentedBike":false,"transitLeg":false,"duration":179.0,"steps":[{"distance":189.397,"relativeDirection":"DEPART","streetName":"Rue Arthur-Hamel","absoluteDirection":"SOUTHWEST","stayOn":false,"area":false,"bogusName":false,"lon":-71.02590303997721,"lat":48.43015553479973,"elevation":[]},{"distance":38.023,"relativeDirection":"RIGHT","streetName":"Boulevard du Saguenay Est","absoluteDirection":"NORTHWEST","stayOn":false,"area":false,"bogusName":false,"lon":-71.02716840000001,"lat":48.428676700000004,"elevation":[]}]}],"tooSloped":false},{"duration":2290,"startTime":1522682020000,"endTime":1522684310000,"walkTime":155,"transitTime":1713,"waitingTime":422,"walkDistance":198.31331578862455,"walkLimitExceeded":false,"elevationLost":0.0,"elevationGained":0.0,"transfers":1,"legs":[{"startTime":1522682020000,"endTime":1522682157000,"departureDelay":0,"arrivalDelay":0,"realTime":false,"distance":175.414,"pathway":false,"mode":"WALK","route":"","agencyTimeZoneOffset":-14400000,"interlineWithPreviousLeg":false,"from":{"name":"Origin","lon":-71.080481,"lat":48.396888,"departure":1522682020000,"orig":"","vertexType":"NORMAL"},"to":{"name":"Malraux / boul. Barrette","stopId":"1:1879","stopCode":"1879","lon":-71.081369,"lat":48.397654,"arrival":1522682157000,"departure":1522682158000,"zoneId":"NA","stopIndex":11,"stopSequence":12,"vertexType":"TRANSIT"},"legGeometry":{"points":"ookfH`|ypLP\\J`@aAz@{@dC{@y@EE","length":7},"rentedBike":false,"transitLeg":false,"duration":137.0,"steps":[{"distance":29.247,"relativeDirection":"DEPART","streetName":"Rue Rimbaud","absoluteDirection":"SOUTHWEST","stayOn":false,"area":false,"bogusName":false,"lon":-71.08048253870365,"lat":48.39688909738361,"elevation":[]},{"distance":103.088,"relativeDirection":"RIGHT","streetName":"path","absoluteDirection":"NORTHWEST","stayOn":false,"area":false,"bogusName":true,"lon":-71.0808007,"lat":48.3967363,"elevation":[]},{"distance":43.079,"relativeDirection":"RIGHT","streetName":"Rue Malraux","absoluteDirection":"NORTHEAST","stayOn":false,"area":false,"bogusName":false,"lon":-71.08177760000001,"lat":48.3973693,"elevation":[]}]},{"startTime":1522682158000,"endTime":1522683480000,"departureDelay":0,"arrivalDelay":0,"realTime":false,"distance":6409.6912479602315,"pathway":false,"mode":"BUS","route":"14","agencyName":"Société de Transport du Saguenay","agencyUrl":"http://ville.saguenay.ca/fr/services-aux-citoyens/transport-sts","agencyTimeZoneOffset":-14400000,"routeColor":"C0C000","routeType":3,"routeId":"1:14","routeTextColor":"000000","interlineWithPreviousLeg":false,"tripBlockId":"31","headsign":"Terminus Chicoutimi","agencyId":"0","tripId":"1:218131","serviceDate":"20180402","from":{"name":"Malraux / boul. Barrette","stopId":"1:1879","stopCode":"1879","lon":-71.081369,"lat":48.397654,"arrival":1522682157000,"departure":1522682158000,"zoneId":"NA","stopIndex":11,"stopSequence":12,"vertexType":"TRANSIT"},"to":{"name":"Terminus Chicoutimi","stopId":"1:1289","stopCode":"1289","lon":-71.066163,"lat":48.428677,"arrival":1522683480000,"departure":1522683900000,"zoneId":"NA","stopIndex":37,"stopSequence":38,"vertexType":"TRANSIT"},"legGeometry":{"points":"stkfHfbzpL}AaB_BkAC@qC\\gAWiBwBiKgMiCwEgEyHCGy@uB}@rAa@nAc@lFEf@mGvUYfAqCs@ICMCqFmDc@s@mAkBuEoESUgAhDiAfD}@zDyAcA_@Um@U{AWgB_Au@s@EEsBkCqFgF{IiI][aBhE}@}@oBmBwE{EwE{Ej@mBZeAa@SyEQg@CPcALuCx@{b@t@{[XoDd@sBl@iB~@gA`G{F{A{D_@sBFqDOq@iG{FGIoCkCgBgBsDpLHzBBT`@~COnBQf@gAjAg@bBuDmDmFgFa@_@w@s@CfAOrBEtAGbA?jBQtC?|@ExKMdIG~EUnLEhC}CKkBOkCOYbC","length":95},"routeShortName":"14","routeLongName":"Coopérative","rentedBike":false,"transitLeg":true,"duration":1322.0,"steps":[]},{"startTime":1522683900000,"endTime":1522684291000,"departureDelay":0,"arrivalDelay":0,"realTime":false,"distance":2905.2877763841147,"pathway":false,"mode":"BUS","route":"12","agencyName":"Société de Transport du Saguenay","agencyUrl":"http://ville.saguenay.ca/fr/services-aux-citoyens/transport-sts","agencyTimeZoneOffset":-14400000,"routeColor":"556B2F","routeType":3,"routeId":"1:12","routeTextColor":"FFFFFF","interlineWithPreviousLeg":false,"tripBlockId":"27","headsign":"Terminus UQAC","agencyId":"0","tripId":"1:218010","serviceDate":"20180402","from":{"name":"Terminus Chicoutimi","stopId":"1:1289","stopCode":"1289","lon":-71.066163,"lat":48.428677,"arrival":1522683480000,"departure":1522683900000,"zoneId":"NA","stopIndex":0,"stopSequence":1,"vertexType":"TRANSIT"},"to":{"name":"Auberge Le Parasol (boul. Saguenay)","stopId":"1:496","stopCode":"496","lon":-71.027958,"lat":48.428859,"arrival":1522684291000,"departure":1522684292000,"zoneId":"NA","stopIndex":11,"stopSequence":12,"vertexType":"TRANSIT"},"legGeometry":{"points":"evqfHpbwpLpFcj@IaKmFy^_DaZz@u]SeV}@aNs@gKToKd@gTnCyH","length":12},"routeShortName":"12","routeLongName":"Rivière du Moulin","rentedBike":false,"transitLeg":true,"duration":391.0,"steps":[]},{"startTime":1522684292000,"endTime":1522684310000,"departureDelay":0,"arrivalDelay":0,"realTime":false,"distance":22.873,"pathway":false,"mode":"WALK","route":"","agencyTimeZoneOffset":-14400000,"interlineWithPreviousLeg":false,"from":{"name":"Auberge Le Parasol (boul. Saguenay)","stopId":"1:496","stopCode":"496","lon":-71.027958,"lat":48.428859,"arrival":1522684291000,"departure":1522684292000,"zoneId":"NA","stopIndex":11,"stopSequence":12,"vertexType":"TRANSIT"},"to":{"name":"Destination","lon":-71.02749599,"lat":48.428994,"arrival":1522684310000,"orig":"","vertexType":"NORMAL"},"legGeometry":{"points":"ywqfHjsopLH]HW","length":3},"rentedBike":false,"transitLeg":false,"duration":18.0,"steps":[{"distance":22.873,"relativeDirection":"DEPART","streetName":"Boulevard du Saguenay Est","absoluteDirection":"SOUTHEAST","stayOn":false,"area":false,"bogusName":false,"lon":-71.02789478397764,"lat":48.428936717982694,"elevation":[]}]}],"tooSloped":false}]},"debugOutput":{"precalculationTime":18,"pathCalculationTime":46,"pathTimes":[20,12,14],"renderingTime":1,"totalTime":65,"timedOut":false},"elevationMetadata":{"ellipsoidToGeoidDifference":-28.885904201182168,"geoidElevation":false}}