{"requestParameters":{"date":"2018/04/02","walkSpeed":"1.33","walkReluctance":"2.0","fromPlace":"48.422414,-71.020535","maxWalkDistance":"3000","waitReluctance":"1.0","carSpeed":"33","numItineraries":"3","waitAtBeginningFactor":"0.4","mode":"TRANSIT,WALK","ignoreRealtimeUpdates":"false","stairsReluctance":"2.0","toPlace":"48.397376,-71.065937","time":"7:0:00"},"plan":{"date":1522666800000,"from":{"name":"Origin","lon":-71.020535,"lat":48.422414,"orig":"","vertexType":"NORMAL"},"to":{"name":"Destination","lon":-71.065937,"lat":48.397376,"orig":"","vertexType":"NORMAL"},"itineraries":[{"duration":1908,"startTime":1522668133000,"endTime":1522670041000,"walkTime":724,"transitTime":685,"waitingTime":499,"walkDistance":927.2721503707725,"walkLimitExceeded":false,"elevationLost":0.0,"elevationGained":0.0,"transfers":1,"legs":[{"startTime":1522668133000,"endTime":1522668539000,"departureDelay":0,"arrivalDelay":0,"realTime":false,"distance":518.2030000000001,"pathway":false,"mode":"WALK","route":"","agencyTimeZoneOffset":-14400000,"interlineWithPreviousLeg":false,"from":{"name":"Origin","lon":-71.020535,"lat":48.422414,"departure":1522668133000,"orig":"","vertexType":"NORMAL"},"to":{"name":"Gascogne / Provence","stopId":"1:1536","stopCode":"1536","lon":-71.022239,"lat":48.419203,"arrival":1522668539000,"departure":1522668540000,"zoneId":"NA","stopIndex":24,"stopSequence":25,"vertexType":"TRANSIT"},"legGeometry":{"points":"}npfHxcnpLD@ZBF@L@LBJ@VNHDVLFDFDLHB@\\TVP@BDHBB@X?JITK\\EJABK\\CXDDRx@FVh@u@Za@HM\\g@NZZn@HPBDTFPGDA`@ODADCPHTLJF\\RNHJB`@N@???","length":53},"rentedBike":false,"transitLeg":false,"duration":406.0,"steps":[{"distance":211.508,"relativeDirection":"DEPART","streetName":"Rue de Roussillon","absoluteDirection":"SOUTH","stayOn":false,"area":false,"bogusName":false,"lon":-71.02028951946373,"lat":48.42239873713198,"elevation":[]},{"distance":38.168,"relativeDirection":"LEFT","streetName":"Rue de Provence","absoluteDirection":"SOUTHWEST","stayOn":false,"area":false,"bogusName":false,"lon":-71.0217609,"lat":48.4214154,"elevation":[]},{"distance":79.98,"relativeDirection":"LEFT","streetName":"Rue de Normandie","absoluteDirection":"SOUTHEAST","stayOn":false,"area":false,"bogusName":false,"lon":-71.0222006,"lat":48.4212402,"elevation":[]},{"distance":188.54699999999997,"relativeDirection":"RIGHT","streetName":"Rue de Gascogne","absoluteDirection":"SOUTHWEST","stayOn":false,"area":false,"bogusName":false,"lon":-71.0215,"lat":48.4206914,"elevation":[]}]},{"startTime":1522668540000,"endTime":1522668992000,"departureDelay":0,"arrivalDelay":0,"realTime":false,"distance":2826.8480788615807,"pathway":false,"mode":"BUS","route":"12","agencyName":"Société de Transport du Saguenay","agencyUrl":"http://ville.saguenay.ca/fr/services-aux-citoyens/transport-sts","agencyTimeZoneOffset":-14400000,"routeColor":"556B2F","routeType":3,"routeId":"1:12","routeTextColor":"FFFFFF","interlineWithPreviousLeg":false,"tripBlockId":"28","headsign":"Terminus UQAC","agencyId":"0","tripId":"1:218027","serviceDate":"20180402","from":{"name":"Gascogne / Provence","stopId":"1:1536","stopCode":"1536","lon":-71.022239,"lat":48.419203,"arrival":1522668539000,"departure":1522668540000,"zoneId":"NA","stopIndex":24,"stopSequence":25,"vertexType":"TRANSIT"},"to":{"name":"Émile Girardin / Roitelets","stopId":"1:253","stopCode":"253","lon":-71.050677,"lat":48.406726,"arrival":1522668992000,"departure":1522669489000,"zoneId":"NA","stopIndex":27,"stopSequence":28,"vertexType":"TRANSIT"},"legGeometry":{"points":"_{ofH~onpL`b@fNvVvrCdRvM","length":4},"routeShortName":"12","routeLongName":"Rivière du Moulin","rentedBike":false,"transitLeg":true,"duration":452.0,"steps":[]},{"startTime":1522669489000,"endTime":1522669722000,"departureDelay":0,"arrivalDelay":0,"realTime":false,"distance":1497.175459971849,"pathway":false,"mode":"BUS","route":"175","agencyName":"Société de Transport du Saguenay","agencyUrl":"http://ville.saguenay.ca/fr/services-aux-citoyens/transport-sts","agencyTimeZoneOffset":-14400000,"routeColor":"FF00FF","routeType":3,"routeId":"1:175","routeTextColor":"FFFFFF","interlineWithPreviousLeg":false,"tripBlockId":"76","headsign":"Costco","agencyId":"0","tripId":"1:218630","serviceDate":"20180402","from":{"name":"Émile Girardin / Roitelets","stopId":"1:253","stopCode":"253","lon":-71.050677,"lat":48.406726,"arrival":1522668992000,"departure":1522669489000,"zoneId":"NA","stopIndex":17,"stopSequence":18,"vertexType":"TRANSIT"},"to":{"name":"boul. Talbot (no.1600) (mode Choc)","stopId":"1:86","stopCode":"86","lon":-71.06283,"lat":48.40025,"arrival":1522669722000,"departure":1522669723000,"zoneId":"NA","stopIndex":22,"stopSequence":23,"vertexType":"TRANSIT"},"legGeometry":{"points":"_lmfHhatpLr@~Gx@]PEr@ObACn@FrBb@|@Ch@Kx@U~HsB^KZ|DJpII~Fa@rFUzBi@bDUxAm@nCcAlDM^RTfD`DjF`FjCrC","length":27},"routeShortName":"175","routeLongName":"Term. Chic / Costco","rentedBike":false,"transitLeg":true,"duration":233.0,"steps":[]},{"startTime":1522669723000,"endTime":1522670041000,"departureDelay":0,"arrivalDelay":0,"realTime":false,"distance":408.909,"pathway":false,"mode":"WALK","route":"","agencyTimeZoneOffset":-14400000,"interlineWithPreviousLeg":false,"from":{"name":"boul. Talbot (no.1600) (mode Choc)","stopId":"1:86","stopCode":"86","lon":-71.06283,"lat":48.40025,"arrival":1522669722000,"departure":1522669723000,"zoneId":"NA","stopIndex":22,"stopSequence":23,"vertexType":"TRANSIT"},"to":{"name":"Destination","lon":-71.065937,"lat":48.397376,"arrival":1522670041000,"orig":"","vertexType":"NORMAL"},"legGeometry":{"points":"edlfHbmvpLt@`AhCfDLNPc@V\\FHNPvGbK","length":9},"rentedBike":false,"transitLeg":false,"duration":318.0,"steps":[{"distance":408.909,"relativeDirection":"DEPART","streetName":"Boulevard Talbot","absoluteDirection":"SOUTHWEST","stayOn":false,"area":false,"bogusName":false,"lon":-71.06273598252479,"lat":48.400199941215426,"elevation":[]}]}],"tooSloped":false},{"duration":2806,"startTime":1522668135000,"endTime":1522670941000,"walkTime":765,"transitTime":1799,"waitingTime":242,"walkDistance":978.9329172878473,"walkLimitExceeded":false,"elevationLost":0.0,"elevationGained":0.0,"transfers":1,"legs":[{"startTime":1522668135000,"endTime":1522668582000,"departureDelay":0,"arrivalDelay":0,"realTime":false,"distance":569.857,"pathway":false,"mode":"WALK","route":"","agencyTimeZoneOffset":-14400000,"interlineWithPreviousLeg":false,"from":{"name":"Origin","lon":-71.020535,"lat":48.422414,"departure":1522668135000,"orig":"","vertexType":"NORMAL"},"to":{"name":"nouveau","stopId":"1:2300","stopCode":"2300","lon":-71.024659,"lat":48.423249,"arrival":1522668582000,"departure":1522668583000,"zoneId":"NA","stopIndex":20,"stopSequence":21,"vertexType":"TRANSIT"},"legGeometry":{"points":"}npfHxcnpLD@ZBF@L@LBJ@VNHDVLFDFDLHB@\\TVP@BDHBB@X?JITK\\EJABK\\CXDDRx@FVm@x@]d@a@h@UZW^]^KLIHSVKPGJS\\YVGFWT[Zo@`@a@VX\\","length":49},"rentedBike":false,"transitLeg":false,"duration":447.0,"steps":[{"distance":211.508,"relativeDirection":"DEPART","streetName":"Rue de Roussillon","absoluteDirection":"SOUTH","stayOn":false,"area":false,"bogusName":false,"lon":-71.02028951946373,"lat":48.42239873713198,"elevation":[]},{"distance":38.168,"relativeDirection":"LEFT","streetName":"Rue de Provence","absoluteDirection":"SOUTHWEST","stayOn":false,"area":false,"bogusName":false,"lon":-71.0217609,"lat":48.4214154,"elevation":[]},{"distance":301.85499999999996,"relativeDirection":"RIGHT","streetName":"Rue de Normandie","absoluteDirection":"NORTHWEST","stayOn":false,"area":false,"bogusName":false,"lon":-71.0222006,"lat":48.4212402,"elevation":[]},{"distance":18.326,"relativeDirection":"HARD_LEFT","streetName":"Rue Fradette","absoluteDirection":"SOUTHWEST","stayOn":false,"area":false,"bogusName":false,"lon":-71.02459610000001,"lat":48.4234239,"elevation":[]}]},{"startTime":1522668583000,"endTime":1522669260000,"departureDelay":0,"arrivalDelay":0,"realTime":false,"distance":4572.511709905732,"pathway":false,"mode":"BUS","route":"12","agencyName":"Société de Transport du Saguenay","agencyUrl":"http://ville.saguenay.ca/fr/services-aux-citoyens/transport-sts","agencyTimeZoneOffset":-14400000,"routeColor":"556B2F","routeType":3,"routeId":"1:12","routeTextColor":"FFFFFF","interlineWithPreviousLeg":false,"tripBlockId":"26","headsign":"Terminus Chicoutimi","agencyId":"0","tripId":"1:217965","serviceDate":"20180402","from":{"name":"nouveau","stopId":"1:2300","stopCode":"2300","lon":-71.024659,"lat":48.423249,"arrival":1522668582000,"departure":1522668583000,"zoneId":"NA","stopIndex":20,"stopSequence":21,"vertexType":"TRANSIT"},"to":{"name":"Terminus Chicoutimi","stopId":"1:1289","stopCode":"1289","lon":-71.066163,"lat":48.428677,"arrival":1522669260000,"departure":1522669500000,"zoneId":"NA","stopIndex":33,"stopSequence":34,"vertexType":"TRANSIT"},"legGeometry":{"points":"gupfHzaopLkJaHgEoDmDwC_TqQsBeB{HjWfAvAfM|O|FlHmB`IgA|Cy@`UYzHZvMR~Hr@~ZPvHsCrMFxf@|ApJj@nDDl]BvZdCXJhC","length":26},"routeShortName":"12","routeLongName":"Rivière du Moulin","rentedBike":false,"transitLeg":true,"duration":677.0,"steps":[]},{"startTime":1522669500000,"endTime":1522670622000,"departureDelay":0,"arrivalDelay":0,"realTime":false,"distance":5658.9744227296305,"pathway":false,"mode":"BUS","route":"175","agencyName":"Société de Transport du Saguenay","agencyUrl":"http://ville.saguenay.ca/fr/services-aux-citoyens/transport-sts","agencyTimeZoneOffset":-14400000,"routeColor":"FF00FF","routeType":3,"routeId":"1:175","routeTextColor":"FFFFFF","interlineWithPreviousLeg":false,"tripBlockId":"8","headsign":"Costco","agencyId":"0","tripId":"1:217359","serviceDate":"20180402","from":{"name":"Terminus Chicoutimi","stopId":"1:1289","stopCode":"1289","lon":-71.066163,"lat":48.428677,"arrival":1522669260000,"departure":1522669500000,"zoneId":"NA","stopIndex":0,"stopSequence":1,"vertexType":"TRANSIT"},"to":{"name":"boul. Talbot (no.1600) (mode Choc)","stopId":"1:86","stopCode":"86","lon":-71.06283,"lat":48.40025,"arrival":1522670622000,"departure":1522670623000,"zoneId":"NA","stopIndex":22,"stopSequence":23,"vertexType":"TRANSIT"},"legGeometry":{"points":"kvqfH~awpL~CgBbAqa@FwCBkAOsHAg@bAYUwMKoE@mB@kJ@iFbEf@xEj@iCtYp@r@z@`ABBvHtHXRx@l@VwAvAgB\\qBIuAC]g@yEzDuLbBbBvAxAMx@|@v@`A~@Xw@~D~DPxFZtA~ApE`N{LpFmEb@[ROl@[vDQXKfA[|@q@fAsBlEmMr@sBhCsKz@dAjB|@dM`GzCvAXrCr@~Gx@]PEr@ObACn@FrBb@|@Ch@Kx@U~HsB^KZ|DJpII~Fa@rFUzBi@bDUxAm@nCcAlDM^RTfD`DjF`FjCrC","length":83},"routeShortName":"175","routeLongName":"Term. Chic / Costco","rentedBike":false,"transitLeg":true,"duration":1122.0,"steps":[]},{"startTime":1522670623000,"endTime":1522670941000,"departureDelay":0,"arrivalDelay":0,"realTime":false,"distance":408.909,"pathway":false,"mode":"WALK","route":"","agencyTimeZoneOffset":-14400000,"interlineWithPreviousLeg":false,"from":{"name":"boul. Talbot (no.1600) (mode Choc)","stopId":"1:86","stopCode":"86","lon":-71.06283,"lat":48.40025,"arrival":1522670622000,"departure":1522670623000,"zoneId":"NA","stopIndex":22,"stopSequence":23,"vertexType":"TRANSIT"},"to":{"name":"Destination","lon":-71.065937,"lat":48.397376,"arrival":1522670941000,"orig":"","vertexType":"NORMAL"},"legGeometry":{"points":"edlfHbmvpLt@`AhCfDLNPc@V\\FHNPvGbK","length":9},"rentedBike":false,"transitLeg":false,"duration":318.0,"steps":[{"distance":408.909,"relativeDirection":"DEPART","streetName":"Boulevard Talbot","absoluteDirection":"SOUTHWEST","stayOn":false,"area":false,"bogusName":false,"lon":-71.06273598252479,"lat":48.400199941215426,"elevation":[]}]}],"tooSloped":false},{"duration":1908,"startTime":1522669933000,"endTime":1522671841000,"walkTime":724,"transitTime":685,"waitingTime":499,"walkDistance":927.2721503707725,"walkLimitExceeded":false,"elevationLost":0.0,"elevationGained":0.0,"transfers":1,"legs":[{"startTime":1522669933000,"endTime":1522670339000,"departureDelay":0,"arrivalDelay":0,"realTime":false,"distance":518.2030000000001,"pathway":false,"mode":"WALK","route":"","agencyTimeZoneOffset":-14400000,"interlineWithPreviousLeg":false,"from":{"name":"Origin","lon":-71.020535,"lat":48.422414,"departure":1522669933000,"orig":"","vertexType":"NORMAL"},"to":{"name":"Gascogne / Provence","stopId":"1:1536","stopCode":"1536","lon":-71.022239,"lat":48.419203,"arrival":1522670339000,"departure":1522670340000,"zoneId":"NA","stopIndex":24,"stopSequence":25,"vertexType":"TRANSIT"},"legGeometry":{"points":"}npfHxcnpLD@ZBF@L@LBJ@VNHDVLFDFDLHB@\\TVP@BDHBB@X?JITK\\EJABK\\CXDDRx@FVh@u@Za@HM\\g@NZZn@HPBDTFPGDA`@ODADCPHTLJF\\RNHJB`@N@???","length":53},"rentedBike":false,"transitLeg":false,"duration":406.0,"steps":[{"distance":211.508,"relativeDirection":"DEPART","streetName":"Rue de Roussillon","absoluteDirection":"SOUTH","stayOn":false,"area":false,"bogusName":false,"lon":-71.02028951946373,"lat":48.42239873713198,"elevation":[]},{"distance":38.168,"relativeDirection":"LEFT","streetName":"Rue de Provence","absoluteDirection":"SOUTHWEST","stayOn":false,"area":false,"bogusName":false,"lon":-71.0217609,"lat":48.4214154,"elevation":[]},{"distance":79.98,"relativeDirection":"LEFT","streetName":"Rue de Normandie","absoluteDirection":"SOUTHEAST","stayOn":false,"area":false,"bogusName":false,"lon":-71.0222006,"lat":48.4212402,"elevation":[]},{"distance":188.54699999999997,"relativeDirection":"RIGHT","streetName":"Rue de Gascogne","absoluteDirection":"SOUTHWEST","stayOn":false,"area":false,"bogusName":false,"lon":-71.0215,"lat":48.4206914,"elevation":[]}]},{"startTime":1522670340000,"endTime":1522670792000,"departureDelay":0,"arrivalDelay":0,"realTime":false,"distance":2826.8480788615807,"pathway":false,"mode":"BUS","route":"12","agencyName":"Société de Transport du Saguenay","agencyUrl":"http://ville.saguenay.ca/fr/services-aux-citoyens/transport-sts","agencyTimeZoneOffset":-14400000,"routeColor":"556B2F","routeType":3,"routeId":"1:12","routeTextColor":"FFFFFF","interlineWithPreviousLeg":false,"tripBlockId":"27","headsign":"Terminus UQAC","agencyId":"0","tripId":"1:218002","serviceDate":"20180402","from":{"name":"Gascogne / Provence","stopId":"1:1536","stopCode":"1536","lon":-71.022239,"lat":48.419203,"arrival":1522670339000,"departure":1522670340000,"zoneId":"NA","stopIndex":24,"stopSequence":25,"vertexType":"TRANSIT"},"to":{"name":"Émile Girardin / Roitelets","stopId":"1:253","stopCode":"253","lon":-71.050677,"lat":48.406726,"arrival":1522670792000,"departure":1522671289000,"zoneId":"NA","stopIndex":27,"stopSequence":28,"vertexType":"TRANSIT"},"legGeometry":{"points":"_{ofH~onpL`b@fNvVvrCdRvM","length":4},"routeShortName":"12","routeLongName":"Rivière du Moulin","rentedBike":false,"transitLeg":true,"duration":452.0,"steps":[]},{"startTime":1522671289000,"endTime":1522671522000,"departureDelay":0,"arrivalDelay":0,"realTime":false,"distance":1497.175459971849,"pathway":false,"mode":"BUS","route":"175","agencyName":"Société de Transport du Saguenay","agencyUrl":"http://ville.saguenay.ca/fr/services-aux-citoyens/transport-sts","agencyTimeZoneOffset":-14400000,"routeColor":"FF00FF","routeType":3,"routeId":"1:175","routeTextColor":"FFFFFF","interlineWithPreviousLeg":false,"tripBlockId":"79","headsign":"Costco","agencyId":"0","tripId":"1:218649","serviceDate":"20180402","from":{"name":"Émile Girardin / Roitelets","stopId":"1:253","stopCode":"253","lon":-71.050677,"lat":48.406726,"arrival":1522670792000,"departure":1522671289000,"zoneId":"NA","stopIndex":17,"stopSequence":18,"vertexType":"TRANSIT"},"to":{"name":"boul. Talbot (no.1600) (mode Choc)","stopId":"1:86","stopCode":"86","lon":-71.06283,"lat":48.40025,"arrival":1522671522000,"departure":1522671523000,"zoneId":"NA","stopIndex":22,"stopSequence":23,"vertexType":"TRANSIT"},"legGeometry":{"points":"_lmfHhatpLr@~Gx@]PEr@ObACn@FrBb@|@Ch@Kx@U~HsB^KZ|DJpII~Fa@rFUzBi@bDUxAm@nCcAlDM^RTfD`DjF`FjCrC","length":27},"routeShortName":"175","routeLongName":"Term. Chic / Costco","rentedBike":false,"transitLeg":true,"duration":233.0,"steps":[]},{"startTime":1522671523000,"endTime":1522671841000,"departureDelay":0,"arrivalDelay":0,"realTime":false,"distance":408.909,"pathway":false,"mode":"WALK","route":"","agencyTimeZoneOffset":-14400000,"interlineWithPreviousLeg":false,"from":{"name":"boul. Talbot (no.1600) (mode Choc)","stopId":"1:86","stopCode":"86","lon":-71.06283,"lat":48.40025,"arrival":1522671522000,"departure":1522671523000,"zoneId":"NA","stopIndex":22,"stopSequence":23,"vertexType":"TRANSIT"},"to":{"name":"Destination","lon":-71.065937,"lat":48.397376,"arrival":1522671841000,"orig":"","vertexType":"NORMAL"},"legGeometry":{"points":"edlfHbmvpLt@`AhCfDLNPc@V\\FHNPvGbK","length":9},"rentedBike":false,"transitLeg":false,"duration":318.0,"steps":[{"distance":408.909,"relativeDirection":"DEPART","streetName":"Boulevard Talbot","absoluteDirection":"SOUTHWEST","stayOn":false,"area":false,"bogusName":false,"lon":-71.06273598252479,"lat":48.400199941215426,"elevation":[]}]}],"tooSloped":false}]},"debugOutput":{"precalculationTime":25,"pathCalculationTime":20,"pathTimes":[14,3,3],"renderingTime":0,"totalTime":45,"timedOut":false},"elevationMetadata":{"ellipsoidToGeoidDifference":-28.885904201182168,"geoidElevation":false}}