{"requestParameters":{"date":"2018/04/02","walkSpeed":"1.33","walkReluctance":"2.0","fromPlace":"48.421007,-71.021304","maxWalkDistance":"3000","waitReluctance":"1.0","carSpeed":"33","numItineraries":"3","waitAtBeginningFactor":"0.4","mode":"TRANSIT,WALK","ignoreRealtimeUpdates":"false","stairsReluctance":"2.0","toPlace":"48.429535,-71.02597099","time":"7:40:00"},"plan":{"date":1522669200000,"from":{"name":"Origin","lon":-71.021304,"lat":48.421007,"orig":"","vertexType":"NORMAL"},"to":{"name":"Destination","lon":-71.02597099,"lat":48.429535,"orig":"","vertexType":"NORMAL"},"itineraries":[{"duration":1031,"startTime":1522669200000,"endTime":1522670231000,"walkTime":1031,"transitTime":0,"waitingTime":0,"walkDistance":1317.975804504121,"walkLimitExceeded":false,"elevationLost":0.0,"elevationGained":0.0,"transfers":0,"legs":[{"startTime":1522669200000,"endTime":1522670231000,"departureDelay":0,"arrivalDelay":0,"realTime":false,"distance":1317.754,"pathway":false,"mode":"WALK","route":"","agencyTimeZoneOffset":-14400000,"interlineWithPreviousLeg":false,"from":{"name":"Origin","lon":-71.021304,"lat":48.421007,"departure":1522669200000,"orig":"","vertexType":"NORMAL"},"to":{"name":"Destination","lon":-71.02597099,"lat":48.429535,"arrival":1522670231000,"orig":"","vertexType":"NORMAL"},"legGeometry":{"points":"kgpfHdinpLITK\\EJABK\\CXDDRx@FVm@x@]d@a@h@UZW^]^KLIHSVKPGJS\\YVGFWT[Zo@`@a@VUKOKYMMGs@a@uCoAiAUsCsBCrAgA?_@?_@IcAo@aA`CSf@wAnDYdAeC`JENcAo@eAs@aA}@","length":50},"rentedBike":false,"transitLeg":false,"duration":1031.0,"steps":[{"distance":52.551,"relativeDirection":"DEPART","streetName":"Rue de Roussillon","absoluteDirection":"NORTHWEST","stayOn":false,"area":false,"bogusName":false,"lon":-71.021143,"lat":48.421187,"elevation":[]},{"distance":38.168,"relativeDirection":"LEFT","streetName":"Rue de Provence","absoluteDirection":"SOUTHWEST","stayOn":false,"area":false,"bogusName":false,"lon":-71.0217609,"lat":48.4214154,"elevation":[]},{"distance":301.85499999999996,"relativeDirection":"RIGHT","streetName":"Rue de Normandie","absoluteDirection":"NORTHWEST","stayOn":false,"area":false,"bogusName":false,"lon":-71.0222006,"lat":48.4212402,"elevation":[]},{"distance":301.11400000000003,"relativeDirection":"RIGHT","streetName":"Rue de Normandie","absoluteDirection":"NORTH","stayOn":true,"area":false,"bogusName":false,"lon":-71.02459610000001,"lat":48.4234239,"elevation":[]},{"distance":31.131,"relativeDirection":"LEFT","streetName":"Rue de la Terrasse","absoluteDirection":"WEST","stayOn":false,"area":false,"bogusName":false,"lon":-71.0231006,"lat":48.4259314,"elevation":[]},{"distance":117.854,"relativeDirection":"RIGHT","streetName":"Rue de Paris","absoluteDirection":"NORTH","stayOn":false,"area":false,"bogusName":false,"lon":-71.02352110000001,"lat":48.4259542,"elevation":[]},{"distance":346.75199999999995,"relativeDirection":"LEFT","streetName":"Boulevard du Saguenay Est","absoluteDirection":"NORTHWEST","stayOn":false,"area":false,"bogusName":false,"lon":-71.02324,"lat":48.426977,"elevation":[]},{"distance":128.329,"relativeDirection":"RIGHT","streetName":"Rue Arthur-Hamel","absoluteDirection":"NORTHEAST","stayOn":false,"area":false,"bogusName":false,"lon":-71.02716840000001,"lat":48.428676700000004,"elevation":[]}]}],"tooSloped":false},{"duration":634,"startTime":1522670055000,"endTime":1522670689000,"walkTime":375,"transitTime":257,"waitingTime":2,"walkDistance":472.0681278162858,"walkLimitExceeded":false,"elevationLost":0.0,"elevationGained":0.0,"transfers":0,"legs":[{"startTime":1522670055000,"endTime":1522670382000,"departureDelay":0,"arrivalDelay":0,"realTime":false,"distance":410.9,"pathway":false,"mode":"WALK","route":"","agencyTimeZoneOffset":-14400000,"interlineWithPreviousLeg":false,"from":{"name":"Origin","lon":-71.021304,"lat":48.421007,"departure":1522670055000,"orig":"","vertexType":"NORMAL"},"to":{"name":"nouveau","stopId":"1:2300","stopCode":"2300","lon":-71.024659,"lat":48.423249,"arrival":1522670382000,"departure":1522670383000,"zoneId":"NA","stopIndex":20,"stopSequence":21,"vertexType":"TRANSIT"},"legGeometry":{"points":"kgpfHdinpLITK\\EJABK\\CXDDRx@FVm@x@]d@a@h@UZW^]^KLIHSVKPGJS\\YVGFWT[Zo@`@a@VX\\","length":29},"rentedBike":false,"transitLeg":false,"duration":327.0,"steps":[{"distance":52.551,"relativeDirection":"DEPART","streetName":"Rue de Roussillon","absoluteDirection":"NORTHWEST","stayOn":false,"area":false,"bogusName":false,"lon":-71.021143,"lat":48.421187,"elevation":[]},{"distance":38.168,"relativeDirection":"LEFT","streetName":"Rue de Provence","absoluteDirection":"SOUTHWEST","stayOn":false,"area":false,"bogusName":false,"lon":-71.0217609,"lat":48.4214154,"elevation":[]},{"distance":301.85499999999996,"relativeDirection":"RIGHT","streetName":"Rue de Normandie","absoluteDirection":"NORTHWEST","stayOn":false,"area":false,"bogusName":false,"lon":-71.0222006,"lat":48.4212402,"elevation":[]},{"distance":18.326,"relativeDirection":"HARD_LEFT","streetName":"Rue Fradette","absoluteDirection":"SOUTHWEST","stayOn":false,"area":false,"bogusName":false,"lon":-71.02459610000001,"lat":48.4234239,"elevation":[]}]},{"startTime":1522670383000,"endTime":1522670640000,"departureDelay":0,"arrivalDelay":0,"realTime":false,"distance":1588.4668814269014,"pathway":false,"mode":"BUS","route":"12","agencyName":"Société de Transport du Saguenay","agencyUrl":"http://ville.saguenay.ca/fr/services-aux-citoyens/transport-sts","agencyTimeZoneOffset":-14400000,"routeColor":"556B2F","routeType":3,"routeId":"1:12","routeTextColor":"FFFFFF","interlineWithPreviousLeg":false,"tripBlockId":"29","headsign":"Terminus Chicoutimi","agencyId":"0","tripId":"1:218054","serviceDate":"20180402","from":{"name":"nouveau","stopId":"1:2300","stopCode":"2300","lon":-71.024659,"lat":48.423249,"arrival":1522670382000,"departure":1522670383000,"zoneId":"NA","stopIndex":20,"stopSequence":21,"vertexType":"TRANSIT"},"to":{"name":"nouveau","stopId":"1:2304","stopCode":"2304","lon":-71.026011,"lat":48.430204,"arrival":1522670640000,"departure":1522670641000,"zoneId":"NA","stopIndex":25,"stopSequence":26,"vertexType":"TRANSIT"},"legGeometry":{"points":"gupfHzaopLkJaHgEoDmDwC_TqQsBeB{HjWfAvAfM|O","length":9},"routeShortName":"12","routeLongName":"Rivière du Moulin","rentedBike":false,"transitLeg":true,"duration":257.0,"steps":[]},{"startTime":1522670641000,"endTime":1522670689000,"departureDelay":0,"arrivalDelay":0,"realTime":false,"distance":61.067,"pathway":false,"mode":"WALK","route":"","agencyTimeZoneOffset":-14400000,"interlineWithPreviousLeg":false,"from":{"name":"nouveau","stopId":"1:2304","stopCode":"2304","lon":-71.026011,"lat":48.430204,"arrival":1522670640000,"departure":1522670641000,"zoneId":"NA","stopIndex":25,"stopSequence":26,"vertexType":"TRANSIT"},"to":{"name":"Destination","lon":-71.02597099,"lat":48.429535,"arrival":1522670689000,"orig":"","vertexType":"NORMAL"},"legGeometry":{"points":"m_rfH|fopLVVPNp@p@","length":4},"rentedBike":false,"transitLeg":false,"duration":48.0,"steps":[{"distance":61.067,"relativeDirection":"DEPART","streetName":"Rue Arthur-Hamel","absoluteDirection":"SOUTHWEST","stayOn":false,"area":false,"bogusName":false,"lon":-71.02590303997721,"lat":48.43015553479973,"elevation":[]}]}],"tooSloped":false},{"duration":634,"startTime":1522671855000,"endTime":1522672489000,"walkTime":375,"transitTime":257,"waitingTime":2,"walkDistance":472.0681278162858,"walkLimitExceeded":false,"elevationLost":0.0,"elevationGained":0.0,"transfers":0,"legs":[{"startTime":1522671855000,"endTime":1522672182000,"departureDelay":0,"arrivalDelay":0,"realTime":false,"distance":410.9,"pathway":false,"mode":"WALK","route":"","agencyTimeZoneOffset":-14400000,"interlineWithPreviousLeg":false,"from":{"name":"Origin","lon":-71.021304,"lat":48.421007,"departure":1522671855000,"orig":"","vertexType":"NORMAL"},"to":{"name":"nouveau","stopId":"1:2300","stopCode":"2300","lon":-71.024659,"lat":48.423249,"arrival":1522672182000,"departure":1522672183000,"zoneId":"NA","stopIndex":20,"stopSequence":21,"vertexType":"TRANSIT"},"legGeometry":{"points":"kgpfHdinpLITK\\EJABK\\CXDDRx@FVm@x@]d@a@h@UZW^]^KLIHSVKPGJS\\YVGFWT[Zo@`@a@VX\\","length":29},"rentedBike":false,"transitLeg":false,"duration":327.0,"steps":[{"distance":52.551,"relativeDirection":"DEPART","streetName":"Rue de Roussillon","absoluteDirection":"NORTHWEST","stayOn":false,"area":false,"bogusName":false,"lon":-71.021143,"lat":48.421187,"elevation":[]},{"distance":38.168,"relativeDirection":"LEFT","streetName":"Rue de Provence","absoluteDirection":"SOUTHWEST","stayOn":false,"area":false,"bogusName":false,"lon":-71.0217609,"lat":48.4214154,"elevation":[]},{"distance":301.85499999999996,"relativeDirection":"RIGHT","streetName":"Rue de Normandie","absoluteDirection":"NORTHWEST","stayOn":false,"area":false,"bogusName":false,"lon":-71.0222006,"lat":48.4212402,"elevation":[]},{"distance":18.326,"relativeDirection":"HARD_LEFT","streetName":"Rue Fradette","absoluteDirection":"SOUTHWEST","stayOn":false,"area":false,"bogusName":false,"lon":-71.02459610000001,"lat":48.4234239,"elevation":[]}]},{"startTime":1522672183000,"endTime":1522672440000,"departureDelay":0,"arrivalDelay":0,"realTime":false,"distance":1588.4668814269014,"pathway":false,"mode":"BUS","route":"12","agencyName":"Société de Transport du Saguenay","agencyUrl":"http://ville.saguenay.ca/fr/services-aux-citoyens/transport-sts","agencyTimeZoneOffset":-14400000,"routeColor":"556B2F","routeType":3,"routeId":"1:12","routeTextColor":"FFFFFF","interlineWithPreviousLeg":false,"tripBlockId":"26","headsign":"Terminus Chicoutimi","agencyId":"0","tripId":"1:217967","serviceDate":"20180402","from":{"name":"nouveau","stopId":"1:2300","stopCode":"2300","lon":-71.024659,"lat":48.423249,"arrival":1522672182000,"departure":1522672183000,"zoneId":"NA","stopIndex":20,"stopSequence":21,"vertexType":"TRANSIT"},"to":{"name":"nouveau","stopId":"1:2304","stopCode":"2304","lon":-71.026011,"lat":48.430204,"arrival":1522672440000,"departure":1522672441000,"zoneId":"NA","stopIndex":25,"stopSequence":26,"vertexType":"TRANSIT"},"legGeometry":{"points":"gupfHzaopLkJaHgEoDmDwC_TqQsBeB{HjWfAvAfM|O","length":9},"routeShortName":"12","routeLongName":"Rivière du Moulin","rentedBike":false,"transitLeg":true,"duration":257.0,"steps":[]},{"startTime":1522672441000,"endTime":1522672489000,"departureDelay":0,"arrivalDelay":0,"realTime":false,"distance":61.067,"pathway":false,"mode":"WALK","route":"","agencyTimeZoneOffset":-14400000,"interlineWithPreviousLeg":false,"from":{"name":"nouveau","stopId":"1:2304","stopCode":"2304","lon":-71.026011,"lat":48.430204,"arrival":1522672440000,"departure":1522672441000,"zoneId":"NA","stopIndex":25,"stopSequence":26,"vertexType":"TRANSIT"},"to":{"name":"Destination","lon":-71.02597099,"lat":48.429535,"arrival":1522672489000,"orig":"","vertexType":"NORMAL"},"legGeometry":{"points":"m_rfH|fopLVVPNp@p@","length":4},"rentedBike":false,"transitLeg":false,"duration":48.0,"steps":[{"distance":61.067,"relativeDirection":"DEPART","streetName":"Rue Arthur-Hamel","absoluteDirection":"SOUTHWEST","stayOn":false,"area":false,"bogusName":false,"lon":-71.02590303997721,"lat":48.43015553479973,"elevation":[]}]}],"tooSloped":false}]},"debugOutput":{"precalculationTime":9,"pathCalculationTime":14,"pathTimes":[5,4,5],"renderingTime":1,"totalTime":24,"timedOut":false},"elevationMetadata":{"ellipsoidToGeoidDifference":-28.885904201182168,"geoidElevation":false}}