{"requestParameters":{"date":"2018/04/02","walkSpeed":"1.33","walkReluctance":"2.0","fromPlace":"48.421007,-71.021304","maxWalkDistance":"3000","waitReluctance":"1.0","carSpeed":"33","numItineraries":"3","waitAtBeginningFactor":"0.4","mode":"TRANSIT,WALK","ignoreRealtimeUpdates":"false","stairsReluctance":"2.0","toPlace":"48.428771,-71.024501","time":"12:35:00"},"plan":{"date":1522686900000,"from":{"name":"Origin","lon":-71.021304,"lat":48.421007,"orig":"","vertexType":"NORMAL"},"to":{"name":"Destination","lon":-71.024501,"lat":48.428771,"orig":"","vertexType":"NORMAL"},"itineraries":[{"duration":870,"startTime":1522686900000,"endTime":1522687770000,"walkTime":870,"transitTime":0,"waitingTime":0,"walkDistance":1108.4245413463962,"walkLimitExceeded":false,"elevationLost":0.0,"elevationGained":0.0,"transfers":0,"legs":[{"startTime":1522686900000,"endTime":1522687770000,"departureDelay":0,"arrivalDelay":0,"realTime":false,"distance":1108.2079999999999,"pathway":false,"mode":"WALK","route":"","agencyTimeZoneOffset":-14400000,"interlineWithPreviousLeg":false,"from":{"name":"Origin","lon":-71.021304,"lat":48.421007,"departure":1522686900000,"orig":"","vertexType":"NORMAL"},"to":{"name":"Destination","lon":-71.024501,"lat":48.428771,"arrival":1522687770000,"orig":"","vertexType":"NORMAL"},"legGeometry":{"points":"kgpfHdinpLITK\\EJABK\\CXDDRx@FVm@x@]d@a@h@UZW^]^KLIHSVKPGJS\\YVGFWT[Zo@`@a@VUKOKYMMGs@a@uCoAiAUsCsBCrAgA?_@?_@IcAo@aA`CSf@wAnD_Aw@}@u@c@c@","length":47},"rentedBike":false,"transitLeg":false,"duration":870.0,"steps":[{"distance":52.551,"relativeDirection":"DEPART","streetName":"Rue de Roussillon","absoluteDirection":"NORTHWEST","stayOn":false,"area":false,"bogusName":false,"lon":-71.021143,"lat":48.421187,"elevation":[]},{"distance":38.168,"relativeDirection":"LEFT","streetName":"Rue de Provence","absoluteDirection":"SOUTHWEST","stayOn":false,"area":false,"bogusName":false,"lon":-71.0217609,"lat":48.4214154,"elevation":[]},{"distance":301.85499999999996,"relativeDirection":"RIGHT","streetName":"Rue de Normandie","absoluteDirection":"NORTHWEST","stayOn":false,"area":false,"bogusName":false,"lon":-71.0222006,"lat":48.4212402,"elevation":[]},{"distance":301.11400000000003,"relativeDirection":"RIGHT","streetName":"Rue de Normandie","absoluteDirection":"NORTH","stayOn":true,"area":false,"bogusName":false,"lon":-71.02459610000001,"lat":48.4234239,"elevation":[]},{"distance":31.131,"relativeDirection":"LEFT","streetName":"Rue de la Terrasse","absoluteDirection":"WEST","stayOn":false,"area":false,"bogusName":false,"lon":-71.0231006,"lat":48.4259314,"elevation":[]},{"distance":117.854,"relativeDirection":"RIGHT","streetName":"Rue de Paris","absoluteDirection":"NORTH","stayOn":false,"area":false,"bogusName":false,"lon":-71.02352110000001,"lat":48.4259542,"elevation":[]},{"distance":159.885,"relativeDirection":"LEFT","streetName":"Boulevard du Saguenay Est","absoluteDirection":"NORTHWEST","stayOn":false,"area":false,"bogusName":false,"lon":-71.02324,"lat":48.426977,"elevation":[]},{"distance":105.64999999999999,"relativeDirection":"RIGHT","streetName":"Rue des Ormes","absoluteDirection":"NORTHEAST","stayOn":false,"area":false,"bogusName":false,"lon":-71.02496810000001,"lat":48.427844500000006,"elevation":[]}]}],"tooSloped":false},{"duration":652,"startTime":1522688055000,"endTime":1522688707000,"walkTime":558,"transitTime":92,"waitingTime":2,"walkDistance":702.8429248065472,"walkLimitExceeded":false,"elevationLost":0.0,"elevationGained":0.0,"transfers":0,"legs":[{"startTime":1522688055000,"endTime":1522688382000,"departureDelay":0,"arrivalDelay":0,"realTime":false,"distance":410.9,"pathway":false,"mode":"WALK","route":"","agencyTimeZoneOffset":-14400000,"interlineWithPreviousLeg":false,"from":{"name":"Origin","lon":-71.021304,"lat":48.421007,"departure":1522688055000,"orig":"","vertexType":"NORMAL"},"to":{"name":"nouveau","stopId":"1:2300","stopCode":"2300","lon":-71.024659,"lat":48.423249,"arrival":1522688382000,"departure":1522688383000,"zoneId":"NA","stopIndex":20,"stopSequence":21,"vertexType":"TRANSIT"},"legGeometry":{"points":"kgpfHdinpLITK\\EJABK\\CXDDRx@FVm@x@]d@a@h@UZW^]^KLIHSVKPGJS\\YVGFWT[Zo@`@a@VX\\","length":29},"rentedBike":false,"transitLeg":false,"duration":327.0,"steps":[{"distance":52.551,"relativeDirection":"DEPART","streetName":"Rue de Roussillon","absoluteDirection":"NORTHWEST","stayOn":false,"area":false,"bogusName":false,"lon":-71.021143,"lat":48.421187,"elevation":[]},{"distance":38.168,"relativeDirection":"LEFT","streetName":"Rue de Provence","absoluteDirection":"SOUTHWEST","stayOn":false,"area":false,"bogusName":false,"lon":-71.0217609,"lat":48.4214154,"elevation":[]},{"distance":301.85499999999996,"relativeDirection":"RIGHT","streetName":"Rue de Normandie","absoluteDirection":"NORTHWEST","stayOn":false,"area":false,"bogusName":false,"lon":-71.0222006,"lat":48.4212402,"elevation":[]},{"distance":18.326,"relativeDirection":"HARD_LEFT","streetName":"Rue Fradette","absoluteDirection":"SOUTHWEST","stayOn":false,"area":false,"bogusName":false,"lon":-71.02459610000001,"lat":48.4234239,"elevation":[]}]},{"startTime":1522688383000,"endTime":1522688475000,"departureDelay":0,"arrivalDelay":0,"realTime":false,"distance":469.87250336278055,"pathway":false,"mode":"BUS","route":"12","agencyName":"Société de Transport du Saguenay","agencyUrl":"http://ville.saguenay.ca/fr/services-aux-citoyens/transport-sts","agencyTimeZoneOffset":-14400000,"routeColor":"556B2F","routeType":3,"routeId":"1:12","routeTextColor":"FFFFFF","interlineWithPreviousLeg":false,"tripBlockId":"29","headsign":"Terminus Chicoutimi","agencyId":"0","tripId":"1:218064","serviceDate":"20180402","from":{"name":"nouveau","stopId":"1:2300","stopCode":"2300","lon":-71.024659,"lat":48.423249,"arrival":1522688382000,"departure":1522688383000,"zoneId":"NA","stopIndex":20,"stopSequence":21,"vertexType":"TRANSIT"},"to":{"name":"nouveau","stopId":"1:2301","stopCode":"2301","lon":-71.021923,"lat":48.427058,"arrival":1522688475000,"departure":1522688476000,"zoneId":"NA","stopIndex":22,"stopSequence":23,"vertexType":"TRANSIT"},"legGeometry":{"points":"gupfHzaopLkJaHgEoDmDwC","length":4},"routeShortName":"12","routeLongName":"Rivière du Moulin","rentedBike":false,"transitLeg":true,"duration":92.0,"steps":[]},{"startTime":1522688476000,"endTime":1522688707000,"departureDelay":0,"arrivalDelay":0,"realTime":false,"distance":291.77299999999997,"pathway":false,"mode":"WALK","route":"","agencyTimeZoneOffset":-14400000,"interlineWithPreviousLeg":false,"from":{"name":"nouveau","stopId":"1:2301","stopCode":"2301","lon":-71.021923,"lat":48.427058,"arrival":1522688475000,"departure":1522688476000,"zoneId":"NA","stopIndex":22,"stopSequence":23,"vertexType":"TRANSIT"},"to":{"name":"Destination","lon":-71.024501,"lat":48.428771,"arrival":1522688707000,"orig":"","vertexType":"NORMAL"},"legGeometry":{"points":"klqfHvnnpLAAw@s@}@|CyCrJc@c@","length":6},"rentedBike":false,"transitLeg":false,"duration":231.0,"steps":[{"distance":38.165,"relativeDirection":"DEPART","streetName":"Rue de Normandie","absoluteDirection":"NORTHEAST","stayOn":false,"area":false,"bogusName":false,"lon":-71.02203799489854,"lat":48.427104913712306,"elevation":[]},{"distance":228.74,"relativeDirection":"LEFT","streetName":"Rue des Érables","absoluteDirection":"NORTHWEST","stayOn":false,"area":false,"bogusName":false,"lon":-71.0217671,"lat":48.4273973,"elevation":[]},{"distance":24.868,"relativeDirection":"RIGHT","streetName":"Rue des Ormes","absoluteDirection":"NORTHEAST","stayOn":false,"area":false,"bogusName":false,"lon":-71.024412,"lat":48.4284703,"elevation":[]}]}],"tooSloped":false}]},"debugOutput":{"precalculationTime":9,"pathCalculationTime":14,"pathTimes":[3,6,5],"renderingTime":0,"totalTime":23,"timedOut":false},"elevationMetadata":{"ellipsoidToGeoidDifference":-28.885904201182168,"geoidElevation":false}}