{"requestParameters":{"date":"2018/04/02","walkSpeed":"1.33","walkReluctance":"2.0","fromPlace":"48.4119,-71.0418","maxWalkDistance":"3000","waitReluctance":"1.0","carSpeed":"33","numItineraries":"3","waitAtBeginningFactor":"0.4","mode":"TRANSIT,WALK","ignoreRealtimeUpdates":"false","stairsReluctance":"2.0","toPlace":"48.415665,-71.06147","time":"14:45:00"},"plan":{"date":1522694700000,"from":{"name":"Origin","lon":-71.0418,"lat":48.4119,"orig":"","vertexType":"NORMAL"},"to":{"name":"Destination","lon":-71.06147,"lat":48.415665,"orig":"","vertexType":"NORMAL"},"itineraries":[{"duration":1608,"startTime":1522694735000,"endTime":1522696343000,"walkTime":1360,"transitTime":246,"waitingTime":2,"walkDistance":1743.2226541268958,"walkLimitExceeded":false,"elevationLost":0.0,"elevationGained":0.0,"transfers":0,"legs":[{"startTime":1522694735000,"endTime":1522695935000,"departureDelay":0,"arrivalDelay":0,"realTime":false,"distance":1536.775,"pathway":false,"mode":"WALK","route":"","agencyTimeZoneOffset":-14400000,"interlineWithPreviousLeg":false,"from":{"name":"Origin","lon":-71.0418,"lat":48.4119,"departure":1522694735000,"orig":"","vertexType":"NORMAL"},"to":{"name":"Sûreté du Québec (Roitelets / Lorenzo-Genest)","stopId":"1:58","stopCode":"58","lon":-71.048311,"lat":48.40979,"arrival":1522695935000,"departure":1522695936000,"zoneId":"NA","stopIndex":26,"stopSequence":27,"vertexType":"TRANSIT"},"legGeometry":{"points":"kmnfHthrpLk@BBd@@nANdBCv@CLM~@Gx@ME_A]aAw@M_AU_B]_@m@?{@B?fDUr@IFUTeBAMrAAHSrA[nAcAxCt@hABDn@~@b@lA`ArAl@l@@Bh@j@PRdBlBdEbEnBrBVPxBeHF_@`@o@XMd@KJD~Av@","length":47},"rentedBike":false,"transitLeg":false,"duration":1200.0,"steps":[{"distance":24.116,"relativeDirection":"DEPART","streetName":"Rue du Père-Champagnat","absoluteDirection":"NORTH","stayOn":false,"area":false,"bogusName":false,"lon":-71.04154932800061,"lat":48.4119055395122,"elevation":[]},{"distance":155.934,"relativeDirection":"LEFT","streetName":"Rue des Augustines","absoluteDirection":"WEST","stayOn":false,"area":false,"bogusName":false,"lon":-71.0415602,"lat":48.4121223,"elevation":[]},{"distance":228.245,"relativeDirection":"RIGHT","streetName":"Rue du Père-Champagnat","absoluteDirection":"NORTH","stayOn":false,"area":false,"bogusName":false,"lon":-71.0436281,"lat":48.412168300000005,"elevation":[]},{"distance":162.524,"relativeDirection":"LEFT","streetName":"Rue Pierre-Laure","absoluteDirection":"WEST","stayOn":false,"area":false,"bogusName":false,"lon":-71.0422276,"lat":48.4137417,"elevation":[]},{"distance":170.425,"relativeDirection":"LEFT","streetName":"Rue Chabanel","absoluteDirection":"WEST","stayOn":false,"area":false,"bogusName":false,"lon":-71.04346240000001,"lat":48.414529900000005,"elevation":[]},{"distance":527.521,"relativeDirection":"LEFT","streetName":"Rue Murdock","absoluteDirection":"SOUTHWEST","stayOn":false,"area":false,"bogusName":false,"lon":-71.0455232,"lat":48.4151863,"elevation":[]},{"distance":140.908,"relativeDirection":"LEFT","streetName":"Boulevard de l'Université","absoluteDirection":"SOUTHEAST","stayOn":false,"area":false,"bogusName":false,"lon":-71.0498268,"lat":48.4114298,"elevation":[]},{"distance":62.949,"relativeDirection":"SLIGHTLY_RIGHT","streetName":"link","absoluteDirection":"SOUTHEAST","stayOn":false,"area":false,"bogusName":true,"lon":-71.04819570000001,"lat":48.410774100000005,"elevation":[]},{"distance":64.153,"relativeDirection":"SLIGHTLY_RIGHT","streetName":"Rue Des Roitelets","absoluteDirection":"SOUTH","stayOn":false,"area":false,"bogusName":false,"lon":-71.0478246,"lat":48.4102837,"elevation":[]}]},{"startTime":1522695936000,"endTime":1522696182000,"departureDelay":0,"arrivalDelay":0,"realTime":false,"distance":1877.2597376120598,"pathway":false,"mode":"BUS","route":"12","agencyName":"Société de Transport du Saguenay","agencyUrl":"http://ville.saguenay.ca/fr/services-aux-citoyens/transport-sts","agencyTimeZoneOffset":-14400000,"routeColor":"556B2F","routeType":3,"routeId":"1:12","routeTextColor":"FFFFFF","interlineWithPreviousLeg":false,"tripBlockId":"27","headsign":"Terminus UQAC","agencyId":"0","tripId":"1:218016","serviceDate":"20180402","from":{"name":"Sûreté du Québec (Roitelets / Lorenzo-Genest)","stopId":"1:58","stopCode":"58","lon":-71.048311,"lat":48.40979,"arrival":1522695935000,"departure":1522695936000,"zoneId":"NA","stopIndex":26,"stopSequence":27,"vertexType":"TRANSIT"},"to":{"name":"Champs-Élysées / Bégin","stopId":"1:587","stopCode":"587","lon":-71.064119,"lat":48.41589,"arrival":1522696182000,"departure":1522696183000,"zoneId":"NA","stopIndex":32,"stopSequence":33,"vertexType":"TRANSIT"},"legGeometry":{"points":"e`nfH~rspLdRvMcAjKcP~b@iHhDaGz@uSl[","length":7},"routeShortName":"12","routeLongName":"Rivière du Moulin","rentedBike":false,"transitLeg":true,"duration":246.0,"steps":[]},{"startTime":1522696183000,"endTime":1522696343000,"departureDelay":0,"arrivalDelay":0,"realTime":false,"distance":206.18599999999998,"pathway":false,"mode":"WALK","route":"","agencyTimeZoneOffset":-14400000,"interlineWithPreviousLeg":false,"from":{"name":"Champs-Élysées / Bégin","stopId":"1:587","stopCode":"587","lon":-71.064119,"lat":48.41589,"arrival":1522696182000,"departure":1522696183000,"zoneId":"NA","stopIndex":32,"stopSequence":33,"vertexType":"TRANSIT"},"to":{"name":"Destination","lon":-71.06147,"lat":48.415665,"arrival":1522696343000,"orig":"","vertexType":"NORMAL"},"legGeometry":{"points":"weofHfvvpLFQNi@bA}FqB}B","length":5},"rentedBike":false,"transitLeg":false,"duration":160.0,"steps":[{"distance":127.196,"relativeDirection":"DEPART","streetName":"Rue des Champs-Élysées","absoluteDirection":"SOUTHEAST","stayOn":false,"area":false,"bogusName":false,"lon":-71.06419495868175,"lat":48.41580605407751,"elevation":[]},{"distance":78.99,"relativeDirection":"LEFT","streetName":"bike path","absoluteDirection":"NORTHEAST","stayOn":false,"area":false,"bogusName":false,"lon":-71.0626228,"lat":48.4153431,"elevation":[]}]}],"tooSloped":false},{"duration":1794,"startTime":1522694700000,"endTime":1522696494000,"walkTime":1794,"transitTime":0,"waitingTime":0,"walkDistance":2309.669112774045,"walkLimitExceeded":false,"elevationLost":0.0,"elevationGained":0.0,"transfers":0,"legs":[{"startTime":1522694700000,"endTime":1522696494000,"departureDelay":0,"arrivalDelay":0,"realTime":false,"distance":2309.424,"pathway":false,"mode":"WALK","route":"","agencyTimeZoneOffset":-14400000,"interlineWithPreviousLeg":false,"from":{"name":"Origin","lon":-71.0418,"lat":48.4119,"departure":1522694700000,"orig":"","vertexType":"NORMAL"},"to":{"name":"Destination","lon":-71.06147,"lat":48.415665,"arrival":1522696494000,"orig":"","vertexType":"NORMAL"},"legGeometry":{"points":"kmnfHthrpLk@BBd@@nANdBCv@CLM~@Gx@ME_A]aAw@M_AU_B]_@m@?{@B?fDUr@IFUTeBAMrAAHSrA[nAcAxC}AzE_@`AIVOb@O`@wAtDmArDqChIjClCTj@V~AHd@?TvAhF^rAFL@@Ph@FVVp@Rr@cBvAUt@[dAqA~D[v@e@|@i@|As@nBg@v@@f@DpA^lBLN~@dAZ^~ErF","length":64},"rentedBike":false,"transitLeg":false,"duration":1794.0,"steps":[{"distance":24.116,"relativeDirection":"DEPART","streetName":"Rue du Père-Champagnat","absoluteDirection":"NORTH","stayOn":false,"area":false,"bogusName":false,"lon":-71.04154932800061,"lat":48.4119055395122,"elevation":[]},{"distance":155.934,"relativeDirection":"LEFT","streetName":"Rue des Augustines","absoluteDirection":"WEST","stayOn":false,"area":false,"bogusName":false,"lon":-71.0415602,"lat":48.4121223,"elevation":[]},{"distance":228.245,"relativeDirection":"RIGHT","streetName":"Rue du Père-Champagnat","absoluteDirection":"NORTH","stayOn":false,"area":false,"bogusName":false,"lon":-71.0436281,"lat":48.412168300000005,"elevation":[]},{"distance":162.524,"relativeDirection":"LEFT","streetName":"Rue Pierre-Laure","absoluteDirection":"WEST","stayOn":false,"area":false,"bogusName":false,"lon":-71.0422276,"lat":48.4137417,"elevation":[]},{"distance":647.9080000000001,"relativeDirection":"LEFT","streetName":"Rue Chabanel","absoluteDirection":"WEST","stayOn":false,"area":false,"bogusName":false,"lon":-71.04346240000001,"lat":48.414529900000005,"elevation":[]},{"distance":175.666,"relativeDirection":"LEFT","streetName":"Rue des Étudiants","absoluteDirection":"SOUTHWEST","stayOn":false,"area":false,"bogusName":false,"lon":-71.0508843,"lat":48.4175886,"elevation":[]},{"distance":143.079,"relativeDirection":"CONTINUE","streetName":"path","absoluteDirection":"SOUTHWEST","stayOn":false,"area":false,"bogusName":true,"lon":-71.05259620000001,"lat":48.416600700000004,"elevation":[]},{"distance":72.972,"relativeDirection":"CONTINUE","streetName":"Rue Nobel","absoluteDirection":"SOUTHWEST","stayOn":false,"area":false,"bogusName":false,"lon":-71.0542688,"lat":48.4159547,"elevation":[]},{"distance":228.853,"relativeDirection":"RIGHT","streetName":"Rue Thomas-Edison","absoluteDirection":"NORTHWEST","stayOn":false,"area":false,"bogusName":false,"lon":-71.05510070000001,"lat":48.415600100000006,"elevation":[]},{"distance":470.12699999999995,"relativeDirection":"CONTINUE","streetName":"bike path","absoluteDirection":"NORTHWEST","stayOn":false,"area":false,"bogusName":true,"lon":-71.0574093,"lat":48.4169053,"elevation":[]}]}],"tooSloped":false},{"duration":1589,"startTime":1522695073000,"endTime":1522696662000,"walkTime":646,"transitTime":941,"waitingTime":2,"walkDistance":825.9971503707724,"walkLimitExceeded":false,"elevationLost":0.0,"elevationGained":0.0,"transfers":0,"legs":[{"startTime":1522695073000,"endTime":1522695558000,"departureDelay":0,"arrivalDelay":0,"realTime":false,"distance":619.513,"pathway":false,"mode":"WALK","route":"","agencyTimeZoneOffset":-14400000,"interlineWithPreviousLeg":false,"from":{"name":"Origin","lon":-71.0418,"lat":48.4119,"departure":1522695073000,"orig":"","vertexType":"NORMAL"},"to":{"name":"Chabanel / Bouchette","stopId":"1:354","stopCode":"354","lon":-71.04384,"lat":48.41473,"arrival":1522695558000,"departure":1522695559000,"zoneId":"NA","stopIndex":18,"stopSequence":19,"vertexType":"TRANSIT"},"legGeometry":{"points":"kmnfHthrpLk@BBd@@nANdBCv@CLM~@Gx@ME_A]aAw@M_AU_B]_@m@?{@B?fDUr@IFUTeBAMrAAHUB","length":25},"rentedBike":false,"transitLeg":false,"duration":485.0,"steps":[{"distance":24.116,"relativeDirection":"DEPART","streetName":"Rue du Père-Champagnat","absoluteDirection":"NORTH","stayOn":false,"area":false,"bogusName":false,"lon":-71.04154932800061,"lat":48.4119055395122,"elevation":[]},{"distance":155.934,"relativeDirection":"LEFT","streetName":"Rue des Augustines","absoluteDirection":"WEST","stayOn":false,"area":false,"bogusName":false,"lon":-71.0415602,"lat":48.4121223,"elevation":[]},{"distance":228.245,"relativeDirection":"RIGHT","streetName":"Rue du Père-Champagnat","absoluteDirection":"NORTH","stayOn":false,"area":false,"bogusName":false,"lon":-71.0436281,"lat":48.412168300000005,"elevation":[]},{"distance":162.524,"relativeDirection":"LEFT","streetName":"Rue Pierre-Laure","absoluteDirection":"WEST","stayOn":false,"area":false,"bogusName":false,"lon":-71.0422276,"lat":48.4137417,"elevation":[]},{"distance":35.477000000000004,"relativeDirection":"LEFT","streetName":"Rue Chabanel","absoluteDirection":"WEST","stayOn":false,"area":false,"bogusName":false,"lon":-71.04346240000001,"lat":48.414529900000005,"elevation":[]},{"distance":13.217,"relativeDirection":"RIGHT","streetName":"Rue Bouchette","absoluteDirection":"NORTH","stayOn":false,"area":false,"bogusName":false,"lon":-71.0439309,"lat":48.4146013,"elevation":[]}]},{"startTime":1522695559000,"endTime":1522696020000,"departureDelay":0,"arrivalDelay":0,"realTime":false,"distance":1938.5993253800289,"pathway":false,"mode":"BUS","route":"10","agencyName":"Société de Transport du Saguenay","agencyUrl":"http://ville.saguenay.ca/fr/services-aux-citoyens/transport-sts","agencyTimeZoneOffset":-14400000,"routeColor":"0000FF","routeType":3,"routeId":"1:10","routeTextColor":"FFFFFF","interlineWithPreviousLeg":false,"tripBlockId":"26","headsign":"Terminus UQAC","agencyId":"0","tripId":"1:217980","serviceDate":"20180402","from":{"name":"Chabanel / Bouchette","stopId":"1:354","stopCode":"354","lon":-71.04384,"lat":48.41473,"arrival":1522695558000,"departure":1522695559000,"zoneId":"NA","stopIndex":18,"stopSequence":19,"vertexType":"TRANSIT"},"to":{"name":"Terminus UQAC","stopId":"1:1670","stopCode":"1670","lon":-71.053369,"lat":48.420903,"arrival":1522696020000,"departure":1522696200000,"zoneId":"NA","stopIndex":24,"stopSequence":25,"vertexType":"TRANSIT"},"legGeometry":{"points":"e~nfHhwrpLAHSpAe@jB_A|Bz@xAvA~BvB|BdN|Nc@bAuA~C}VeWaEpLeIrU|D~EfDdEwLpKeBgGAsE]gAoD}CUt@a@_@USMM","length":25},"routeShortName":"10","routeLongName":"Notre-Dame du Saguenay","rentedBike":false,"transitLeg":true,"duration":461.0,"steps":[]},{"startTime":1522696200000,"endTime":1522696500000,"departureDelay":0,"arrivalDelay":0,"realTime":false,"distance":1506.494478313499,"pathway":false,"mode":"BUS","route":"12","agencyName":"Société de Transport du Saguenay","agencyUrl":"http://ville.saguenay.ca/fr/services-aux-citoyens/transport-sts","agencyTimeZoneOffset":-14400000,"routeColor":"556B2F","routeType":3,"routeId":"1:12","routeTextColor":"FFFFFF","interlineWithPreviousLeg":true,"tripBlockId":"26","headsign":"Terminus Chicoutimi","agencyId":"0","tripId":"1:217981","serviceDate":"20180402","from":{"name":"Terminus UQAC","stopId":"1:1670","stopCode":"1670","lon":-71.053369,"lat":48.420903,"arrival":1522696020000,"departure":1522696200000,"zoneId":"NA","stopIndex":0,"stopSequence":1,"vertexType":"TRANSIT"},"to":{"name":"Champs-Élysées / Bégin","stopId":"1:566","stopCode":"566","lon":-71.064237,"lat":48.415762,"arrival":1522696500000,"departure":1522696501000,"zoneId":"NA","stopIndex":7,"stopSequence":8,"vertexType":"TRANSIT"},"legGeometry":{"points":"sepfHprtpL}@y@Pw@wAsAaB{A}DrL?jCv@fCa@nDaC`D~E`F~MfNjJnJ~GbHnCpCv@iB","length":16},"routeShortName":"12","routeLongName":"Rivière du Moulin","rentedBike":false,"transitLeg":true,"duration":300.0,"steps":[]},{"startTime":1522696501000,"endTime":1522696662000,"departureDelay":0,"arrivalDelay":0,"realTime":false,"distance":206.324,"pathway":false,"mode":"WALK","route":"","agencyTimeZoneOffset":-14400000,"interlineWithPreviousLeg":false,"from":{"name":"Champs-Élysées / Bégin","stopId":"1:566","stopCode":"566","lon":-71.064237,"lat":48.415762,"arrival":1522696500000,"departure":1522696501000,"zoneId":"NA","stopIndex":7,"stopSequence":8,"vertexType":"TRANSIT"},"to":{"name":"Destination","lon":-71.06147,"lat":48.415665,"arrival":1522696662000,"orig":"","vertexType":"NORMAL"},"legGeometry":{"points":"weofHfvvpL??FQNi@bA}FqB}B","length":6},"rentedBike":false,"transitLeg":false,"duration":161.0,"steps":[{"distance":127.334,"relativeDirection":"DEPART","streetName":"Rue des Champs-Élysées","absoluteDirection":"SOUTHEAST","stayOn":false,"area":false,"bogusName":false,"lon":-71.06419656014225,"lat":48.415806692432525,"elevation":[]},{"distance":78.99,"relativeDirection":"LEFT","streetName":"bike path","absoluteDirection":"NORTHEAST","stayOn":false,"area":false,"bogusName":false,"lon":-71.0626228,"lat":48.4153431,"elevation":[]}]}],"tooSloped":false}]},"debugOutput":{"precalculationTime":45,"pathCalculationTime":26,"pathTimes":[17,4,5],"renderingTime":0,"totalTime":71,"timedOut":false},"elevationMetadata":{"ellipsoidToGeoidDifference":-28.885904201182168,"geoidElevation":false}}