{"requestParameters":{"date":"2018/04/02","walkSpeed":"1.33","walkReluctance":"2.0","fromPlace":"48.42638,-71.066291","maxWalkDistance":"3000","waitReluctance":"1.0","carSpeed":"33","numItineraries":"3","waitAtBeginningFactor":"0.4","mode":"TRANSIT,WALK","ignoreRealtimeUpdates":"false","stairsReluctance":"2.0","toPlace":"48.4119,-71.0418","time":"17:30:00"},"plan":{"date":1522704600000,"from":{"name":"Origin","lon":-71.066291,"lat":48.42638,"orig":"","vertexType":"NORMAL"},"to":{"name":"Destination","lon":-71.0418,"lat":48.4119,"orig":"","vertexType":"NORMAL"},"itineraries":[{"duration":1551,"startTime":1522705291000,"endTime":1522706842000,"walkTime":690,"transitTime":859,"waitingTime":2,"walkDistance":885.2140902211726,"walkLimitExceeded":false,"elevationLost":0.0,"elevationGained":0.0,"transfers":0,"legs":[{"startTime":1522705291000,"endTime":1522705499000,"departureDelay":0,"arrivalDelay":0,"realTime":false,"distance":265.565,"pathway":false,"mode":"WALK","route":"","agencyTimeZoneOffset":-14400000,"interlineWithPreviousLeg":false,"from":{"name":"Origin","lon":-71.066291,"lat":48.42638,"departure":1522705291000,"orig":"","vertexType":"NORMAL"},"to":{"name":"Terminus Chicoutimi","stopId":"1:1289","stopCode":"1289","lon":-71.066163,"lat":48.428677,"arrival":1522705499000,"departure":1522705500000,"zoneId":"NA","stopIndex":0,"stopSequence":1,"vertexType":"TRANSIT"},"legGeometry":{"points":"giqfHdcwpLDaBkCQQAsBIc@MKESAcAK","length":9},"rentedBike":false,"transitLeg":false,"duration":208.0,"steps":[{"distance":35.852,"relativeDirection":"DEPART","streetName":"Rue Jacques-Cartier Est","absoluteDirection":"EAST","stayOn":false,"area":false,"bogusName":false,"lon":-71.06626146115558,"lat":48.426605252067546,"elevation":[]},{"distance":229.713,"relativeDirection":"LEFT","streetName":"Rue Morin","absoluteDirection":"NORTH","stayOn":false,"area":false,"bogusName":false,"lon":-71.0657774,"lat":48.426577300000005,"elevation":[]}]},{"startTime":1522705500000,"endTime":1522706359000,"departureDelay":0,"arrivalDelay":0,"realTime":false,"distance":4191.749796589698,"pathway":false,"mode":"BUS","route":"10","agencyName":"Société de Transport du Saguenay","agencyUrl":"http://ville.saguenay.ca/fr/services-aux-citoyens/transport-sts","agencyTimeZoneOffset":-14400000,"routeColor":"0000FF","routeType":3,"routeId":"1:10","routeTextColor":"FFFFFF","interlineWithPreviousLeg":false,"tripBlockId":"26","headsign":"Terminus UQAC","agencyId":"0","tripId":"1:217986","serviceDate":"20180402","from":{"name":"Terminus Chicoutimi","stopId":"1:1289","stopCode":"1289","lon":-71.066163,"lat":48.428677,"arrival":1522705499000,"departure":1522705500000,"zoneId":"NA","stopIndex":0,"stopSequence":1,"vertexType":"TRANSIT"},"to":{"name":"Chabanel / Bouchette","stopId":"1:354","stopCode":"354","lon":-71.04384,"lat":48.41473,"arrival":1522706359000,"departure":1522706360000,"zoneId":"NA","stopIndex":18,"stopSequence":19,"vertexType":"TRANSIT"},"legGeometry":{"points":"svqfHnbwpLDmCdDZ\\kO`@mQBuCD}DQ_ECk@^Cd@QWkL?m@IuF@gA?eH?cAEuEDO^AjD`@B@rEf@T_FjBXpDd@hCObDaCfCaHbFqN`CwG_J_CwMiDGe@T}C\\yELaCJeAJcAXw@Fk@M_@xBwVr@^LJ|@z@HdAlBbD`Av@b@\\v@d@`@BpBAzAXl@t@XZt@lCl@tAnBpB~@~@lDjDr@r@zDrDnAlAjBrBl@pBPlBCj@KrA","length":69},"routeShortName":"10","routeLongName":"Notre-Dame du Saguenay","rentedBike":false,"transitLeg":true,"duration":859.0,"steps":[]},{"startTime":1522706360000,"endTime":1522706842000,"departureDelay":0,"arrivalDelay":0,"realTime":false,"distance":619.513,"pathway":false,"mode":"WALK","route":"","agencyTimeZoneOffset":-14400000,"interlineWithPreviousLeg":false,"from":{"name":"Chabanel / Bouchette","stopId":"1:354","stopCode":"354","lon":-71.04384,"lat":48.41473,"arrival":1522706359000,"departure":1522706360000,"zoneId":"NA","stopIndex":18,"stopSequence":19,"vertexType":"TRANSIT"},"to":{"name":"Destination","lon":-71.0418,"lat":48.4119,"arrival":1522706842000,"orig":"","vertexType":"NORMAL"},"legGeometry":{"points":"}~nfHvwrpLTC@ILsAdB@TUHGTs@?gDz@Cl@?\\^T~AL~@`Av@~@\\LDFy@L_ABMBw@OeBAoACe@j@C","length":25},"rentedBike":false,"transitLeg":false,"duration":482.0,"steps":[{"distance":13.217,"relativeDirection":"DEPART","streetName":"Rue Bouchette","absoluteDirection":"SOUTH","stayOn":false,"area":false,"bogusName":false,"lon":-71.04395624366056,"lat":48.414718970408906,"elevation":[]},{"distance":35.477000000000004,"relativeDirection":"LEFT","streetName":"Rue Chabanel","absoluteDirection":"EAST","stayOn":false,"area":false,"bogusName":false,"lon":-71.0439309,"lat":48.4146013,"elevation":[]},{"distance":162.524,"relativeDirection":"RIGHT","streetName":"Rue Pierre-Laure","absoluteDirection":"SOUTH","stayOn":false,"area":false,"bogusName":false,"lon":-71.04346240000001,"lat":48.414529900000005,"elevation":[]},{"distance":228.245,"relativeDirection":"RIGHT","streetName":"Rue du Père-Champagnat","absoluteDirection":"SOUTH","stayOn":false,"area":false,"bogusName":false,"lon":-71.0422276,"lat":48.4137417,"elevation":[]},{"distance":155.934,"relativeDirection":"LEFT","streetName":"Rue des Augustines","absoluteDirection":"EAST","stayOn":false,"area":false,"bogusName":false,"lon":-71.0436281,"lat":48.412168300000005,"elevation":[]},{"distance":24.116,"relativeDirection":"RIGHT","streetName":"Rue du Père-Champagnat","absoluteDirection":"SOUTH","stayOn":false,"area":false,"bogusName":false,"lon":-71.0415602,"lat":48.4121223,"elevation":[]}]}],"tooSloped":false},{"duration":1999,"startTime":1522705291000,"endTime":1522707290000,"walkTime":1214,"transitTime":783,"waitingTime":2,"walkDistance":1556.1274887154968,"walkLimitExceeded":false,"elevationLost":0.0,"elevationGained":0.0,"transfers":0,"legs":[{"startTime":1522705291000,"endTime":1522705499000,"departureDelay":0,"arrivalDelay":0,"realTime":false,"distance":265.565,"pathway":false,"mode":"WALK","route":"","agencyTimeZoneOffset":-14400000,"interlineWithPreviousLeg":false,"from":{"name":"Origin","lon":-71.066291,"lat":48.42638,"departure":1522705291000,"orig":"","vertexType":"NORMAL"},"to":{"name":"Terminus Chicoutimi","stopId":"1:1289","stopCode":"1289","lon":-71.066163,"lat":48.428677,"arrival":1522705499000,"departure":1522705500000,"zoneId":"NA","stopIndex":0,"stopSequence":1,"vertexType":"TRANSIT"},"legGeometry":{"points":"giqfHdcwpLDaBkCQQAsBIc@MKESAcAK","length":9},"rentedBike":false,"transitLeg":false,"duration":208.0,"steps":[{"distance":35.852,"relativeDirection":"DEPART","streetName":"Rue Jacques-Cartier Est","absoluteDirection":"EAST","stayOn":false,"area":false,"bogusName":false,"lon":-71.06626146115558,"lat":48.426605252067546,"elevation":[]},{"distance":229.713,"relativeDirection":"LEFT","streetName":"Rue Morin","absoluteDirection":"NORTH","stayOn":false,"area":false,"bogusName":false,"lon":-71.0657774,"lat":48.426577300000005,"elevation":[]}]},{"startTime":1522705500000,"endTime":1522706283000,"departureDelay":0,"arrivalDelay":0,"realTime":false,"distance":3542.2693364457004,"pathway":false,"mode":"BUS","route":"175","agencyName":"Société de Transport du Saguenay","agencyUrl":"http://ville.saguenay.ca/fr/services-aux-citoyens/transport-sts","agencyTimeZoneOffset":-14400000,"routeColor":"FF00FF","routeType":3,"routeId":"1:175","routeTextColor":"FFFFFF","interlineWithPreviousLeg":false,"tripBlockId":"7","headsign":"Costco","agencyId":"0","tripId":"1:217343","serviceDate":"20180402","from":{"name":"Terminus Chicoutimi","stopId":"1:1289","stopCode":"1289","lon":-71.066163,"lat":48.428677,"arrival":1522705499000,"departure":1522705500000,"zoneId":"NA","stopIndex":0,"stopSequence":1,"vertexType":"TRANSIT"},"to":{"name":"boul. Université / Murdock","stopId":"1:80","stopCode":"80","lon":-71.050111,"lat":48.411498,"arrival":1522706283000,"departure":1522706284000,"zoneId":"NA","stopIndex":14,"stopSequence":15,"vertexType":"TRANSIT"},"legGeometry":{"points":"kvqfH~awpL~CgBbAqa@FwCBkAOsHAg@bAYUwMKoE@mB@kJ@iFbEf@xEj@iCtYp@r@z@`ABBvHtHXRx@l@VwAvAgB\\qBIuAC]g@yEzDuLbBbBvAxAMx@|@v@`A~@Xw@~D~DPxFZtA~ApE`N{LpFmEb@[ROl@[vDQXKfA[|@q@fAsBlEmM","length":50},"routeShortName":"175","routeLongName":"Term. Chic / Costco","rentedBike":false,"transitLeg":true,"duration":783.0,"steps":[]},{"startTime":1522706284000,"endTime":1522707290000,"departureDelay":0,"arrivalDelay":0,"realTime":false,"distance":1290.3670000000002,"pathway":false,"mode":"WALK","route":"","agencyTimeZoneOffset":-14400000,"interlineWithPreviousLeg":false,"from":{"name":"boul. Université / Murdock","stopId":"1:80","stopCode":"80","lon":-71.050111,"lat":48.411498,"arrival":1522706283000,"departure":1522706284000,"zoneId":"NA","stopIndex":14,"stopSequence":15,"vertexType":"TRANSIT"},"to":{"name":"Destination","lon":-71.0418,"lat":48.4119,"arrival":1522707290000,"orig":"","vertexType":"NORMAL"},"legGeometry":{"points":"aknfH|}spLTo@WQoBsBeEcEeBmBQSi@k@ACm@m@aAsAc@mAo@_ACEu@iAbAyCZoARsA@ILsAdB@TUHGTs@?gDz@Cl@?\\^T~AL~@`Av@~@\\LDFy@L_ABMBw@OeBAoACe@j@C","length":41},"rentedBike":false,"transitLeg":false,"duration":1006.0,"steps":[{"distance":21.602,"relativeDirection":"DEPART","streetName":"Boulevard de l'Université","absoluteDirection":"SOUTHEAST","stayOn":false,"area":false,"bogusName":false,"lon":-71.05006857152243,"lat":48.41153928216614,"elevation":[]},{"distance":527.5210000000001,"relativeDirection":"LEFT","streetName":"Rue Murdock","absoluteDirection":"NORTHEAST","stayOn":false,"area":false,"bogusName":false,"lon":-71.0498268,"lat":48.4114298,"elevation":[]},{"distance":170.425,"relativeDirection":"RIGHT","streetName":"Rue Chabanel","absoluteDirection":"SOUTHEAST","stayOn":false,"area":false,"bogusName":false,"lon":-71.0455232,"lat":48.4151863,"elevation":[]},{"distance":162.524,"relativeDirection":"RIGHT","streetName":"Rue Pierre-Laure","absoluteDirection":"SOUTH","stayOn":false,"area":false,"bogusName":false,"lon":-71.04346240000001,"lat":48.414529900000005,"elevation":[]},{"distance":228.245,"relativeDirection":"RIGHT","streetName":"Rue du Père-Champagnat","absoluteDirection":"SOUTH","stayOn":false,"area":false,"bogusName":false,"lon":-71.0422276,"lat":48.4137417,"elevation":[]},{"distance":155.934,"relativeDirection":"LEFT","streetName":"Rue des Augustines","absoluteDirection":"EAST","stayOn":false,"area":false,"bogusName":false,"lon":-71.0436281,"lat":48.412168300000005,"elevation":[]},{"distance":24.116,"relativeDirection":"RIGHT","streetName":"Rue du Père-Champagnat","absoluteDirection":"SOUTH","stayOn":false,"area":false,"bogusName":false,"lon":-71.0415602,"lat":48.4121223,"elevation":[]}]}],"tooSloped":false},{"duration":1551,"startTime":1522707091000,"endTime":1522708642000,"walkTime":690,"transitTime":859,"waitingTime":2,"walkDistance":885.2140902211726,"walkLimitExceeded":false,"elevationLost":0.0,"elevationGained":0.0,"transfers":0,"legs":[{"startTime":1522707091000,"endTime":1522707299000,"departureDelay":0,"arrivalDelay":0,"realTime":false,"distance":265.565,"pathway":false,"mode":"WALK","route":"","agencyTimeZoneOffset":-14400000,"interlineWithPreviousLeg":false,"from":{"name":"Origin","lon":-71.066291,"lat":48.42638,"departure":1522707091000,"orig":"","vertexType":"NORMAL"},"to":{"name":"Terminus Chicoutimi","stopId":"1:1289","stopCode":"1289","lon":-71.066163,"lat":48.428677,"arrival":1522707299000,"departure":1522707300000,"zoneId":"NA","stopIndex":0,"stopSequence":1,"vertexType":"TRANSIT"},"legGeometry":{"points":"giqfHdcwpLDaBkCQQAsBIc@MKESAcAK","length":9},"rentedBike":false,"transitLeg":false,"duration":208.0,"steps":[{"distance":35.852,"relativeDirection":"DEPART","streetName":"Rue Jacques-Cartier Est","absoluteDirection":"EAST","stayOn":false,"area":false,"bogusName":false,"lon":-71.06626146115558,"lat":48.426605252067546,"elevation":[]},{"distance":229.713,"relativeDirection":"LEFT","streetName":"Rue Morin","absoluteDirection":"NORTH","stayOn":false,"area":false,"bogusName":false,"lon":-71.0657774,"lat":48.426577300000005,"elevation":[]}]},{"startTime":1522707300000,"endTime":1522708159000,"departureDelay":0,"arrivalDelay":0,"realTime":false,"distance":4191.749796589698,"pathway":false,"mode":"BUS","route":"10","agencyName":"Société de Transport du Saguenay","agencyUrl":"http://ville.saguenay.ca/fr/services-aux-citoyens/transport-sts","agencyTimeZoneOffset":-14400000,"routeColor":"0000FF","routeType":3,"routeId":"1:10","routeTextColor":"FFFFFF","interlineWithPreviousLeg":false,"tripBlockId":"29","headsign":"Terminus UQAC","agencyId":"0","tripId":"1:218075","serviceDate":"20180402","from":{"name":"Terminus Chicoutimi","stopId":"1:1289","stopCode":"1289","lon":-71.066163,"lat":48.428677,"arrival":1522707299000,"departure":1522707300000,"zoneId":"NA","stopIndex":0,"stopSequence":1,"vertexType":"TRANSIT"},"to":{"name":"Chabanel / Bouchette","stopId":"1:354","stopCode":"354","lon":-71.04384,"lat":48.41473,"arrival":1522708159000,"departure":1522708160000,"zoneId":"NA","stopIndex":18,"stopSequence":19,"vertexType":"TRANSIT"},"legGeometry":{"points":"svqfHnbwpLDmCdDZ\\kO`@mQBuCD}DQ_ECk@^Cd@QWkL?m@IuF@gA?eH?cAEuEDO^AjD`@B@rEf@T_FjBXpDd@hCObDaCfCaHbFqN`CwG_J_CwMiDGe@T}C\\yELaCJeAJcAXw@Fk@M_@xBwVr@^LJ|@z@HdAlBbD`Av@b@\\v@d@`@BpBAzAXl@t@XZt@lCl@tAnBpB~@~@lDjDr@r@zDrDnAlAjBrBl@pBPlBCj@KrA","length":69},"routeShortName":"10","routeLongName":"Notre-Dame du Saguenay","rentedBike":false,"transitLeg":true,"duration":859.0,"steps":[]},{"startTime":1522708160000,"endTime":1522708642000,"departureDelay":0,"arrivalDelay":0,"realTime":false,"distance":619.513,"pathway":false,"mode":"WALK","route":"","agencyTimeZoneOffset":-14400000,"interlineWithPreviousLeg":false,"from":{"name":"Chabanel / Bouchette","stopId":"1:354","stopCode":"354","lon":-71.04384,"lat":48.41473,"arrival":1522708159000,"departure":1522708160000,"zoneId":"NA","stopIndex":18,"stopSequence":19,"vertexType":"TRANSIT"},"to":{"name":"Destination","lon":-71.0418,"lat":48.4119,"arrival":1522708642000,"orig":"","vertexType":"NORMAL"},"legGeometry":{"points":"}~nfHvwrpLTC@ILsAdB@TUHGTs@?gDz@Cl@?\\^T~AL~@`Av@~@\\LDFy@L_ABMBw@OeBAoACe@j@C","length":25},"rentedBike":false,"transitLeg":false,"duration":482.0,"steps":[{"distance":13.217,"relativeDirection":"DEPART","streetName":"Rue Bouchette","absoluteDirection":"SOUTH","stayOn":false,"area":false,"bogusName":false,"lon":-71.04395624366056,"lat":48.414718970408906,"elevation":[]},{"distance":35.477000000000004,"relativeDirection":"LEFT","streetName":"Rue Chabanel","absoluteDirection":"EAST","stayOn":false,"area":false,"bogusName":false,"lon":-71.0439309,"lat":48.4146013,"elevation":[]},{"distance":162.524,"relativeDirection":"RIGHT","streetName":"Rue Pierre-Laure","absoluteDirection":"SOUTH","stayOn":false,"area":false,"bogusName":false,"lon":-71.04346240000001,"lat":48.414529900000005,"elevation":[]},{"distance":228.245,"relativeDirection":"RIGHT","streetName":"Rue du Père-Champagnat","absoluteDirection":"SOUTH","stayOn":false,"area":false,"bogusName":false,"lon":-71.0422276,"lat":48.4137417,"elevation":[]},{"distance":155.934,"relativeDirection":"LEFT","streetName":"Rue des Augustines","absoluteDirection":"EAST","stayOn":false,"area":false,"bogusName":false,"lon":-71.0436281,"lat":48.412168300000005,"elevation":[]},{"distance":24.116,"relativeDirection":"RIGHT","streetName":"Rue du Père-Champagnat","absoluteDirection":"SOUTH","stayOn":false,"area":false,"bogusName":false,"lon":-71.0415602,"lat":48.4121223,"elevation":[]}]}],"tooSloped":false}]},"debugOutput":{"precalculationTime":45,"pathCalculationTime":52,"pathTimes":[22,12,18],"renderingTime":0,"totalTime":97,"timedOut":false},"elevationMetadata":{"ellipsoidToGeoidDifference":-28.885904201182168,"geoidElevation":false}}