{"requestParameters":{"date":"2018/04/02","walkSpeed":"1.33","walkReluctance":"2.0","fromPlace":"48.41192,-71.043421","maxWalkDistance":"3000","waitReluctance":"1.0","carSpeed":"33","numItineraries":"3","waitAtBeginningFactor":"0.4","mode":"TRANSIT,WALK","ignoreRealtimeUpdates":"false","stairsReluctance":"2.0","toPlace":"48.403374,-71.058501","time":"10:0:00"},"plan":{"date":1522677600000,"from":{"name":"Origin","lon":-71.043421,"lat":48.41192,"orig":"","vertexType":"NORMAL"},"to":{"name":"Destination","lon":-71.058501,"lat":48.403374,"orig":"","vertexType":"NORMAL"},"itineraries":[{"duration":1842,"startTime":1522677600000,"endTime":1522679442000,"walkTime":1842,"transitTime":0,"waitingTime":0,"walkDistance":2381.1714586390835,"walkLimitExceeded":false,"elevationLost":0.0,"elevationGained":0.0,"transfers":0,"legs":[{"startTime":1522677600000,"endTime":1522679442000,"departureDelay":0,"arrivalDelay":0,"realTime":false,"distance":2380.938,"pathway":false,"mode":"WALK","route":"","agencyTimeZoneOffset":-14400000,"interlineWithPreviousLeg":false,"from":{"name":"Origin","lon":-71.043421,"lat":48.41192,"departure":1522677600000,"orig":"","vertexType":"NORMAL"},"to":{"name":"Destination","lon":-71.058501,"lat":48.403374,"arrival":1522679442000,"orig":"","vertexType":"NORMAL"},"legGeometry":{"points":"qmnfHzurpLm@EME_A]aAw@M_AU_B]_@m@?{@B?fDUr@IFUTeBAMrAAHSrA[nAcAxCt@hABDn@~@b@lA`ArAl@l@@Bh@j@Up@Sl@Sn@MZENKXId@nArArI~ITXLJx@|@bDfDjDlDPRp@p@lAhApF`FJJzFjF|DpDLJhE~Dt@aCTTTT\\ZXVXVXXXVXV@@","length":61},"rentedBike":false,"transitLeg":false,"duration":1842.0,"steps":[{"distance":254.77700000000002,"relativeDirection":"DEPART","streetName":"Rue du Père-Champagnat","absoluteDirection":"NORTH","stayOn":false,"area":false,"bogusName":false,"lon":-71.04365199018739,"lat":48.41193021202041,"elevation":[]},{"distance":162.524,"relativeDirection":"LEFT","streetName":"Rue Pierre-Laure","absoluteDirection":"WEST","stayOn":false,"area":false,"bogusName":false,"lon":-71.0422276,"lat":48.4137417,"elevation":[]},{"distance":170.425,"relativeDirection":"LEFT","streetName":"Rue Chabanel","absoluteDirection":"WEST","stayOn":false,"area":false,"bogusName":false,"lon":-71.04346240000001,"lat":48.414529900000005,"elevation":[]},{"distance":223.75199999999998,"relativeDirection":"LEFT","streetName":"Rue Murdock","absoluteDirection":"SOUTHWEST","stayOn":false,"area":false,"bogusName":false,"lon":-71.0455232,"lat":48.4151863,"elevation":[]},{"distance":110.246,"relativeDirection":"RIGHT","streetName":"service road","absoluteDirection":"NORTHWEST","stayOn":false,"area":false,"bogusName":true,"lon":-71.0475249,"lat":48.413693200000004,"elevation":[]},{"distance":1267.7609999999997,"relativeDirection":"LEFT","streetName":"Boulevard Talbot","absoluteDirection":"SOUTHWEST","stayOn":false,"area":false,"bogusName":false,"lon":-71.04878880000001,"lat":48.414218500000004,"elevation":[]},{"distance":191.45299999999997,"relativeDirection":"LEFT","streetName":"parking aisle","absoluteDirection":"SOUTHEAST","stayOn":false,"area":false,"bogusName":true,"lon":-71.0581722,"lat":48.4046724,"elevation":[]}]}],"tooSloped":false},{"duration":1300,"startTime":1522678396000,"endTime":1522679696000,"walkTime":1061,"transitTime":237,"waitingTime":2,"walkDistance":1348.5216240520958,"walkLimitExceeded":false,"elevationLost":0.0,"elevationGained":0.0,"transfers":0,"legs":[{"startTime":1522678396000,"endTime":1522679282000,"departureDelay":0,"arrivalDelay":0,"realTime":false,"distance":1136.8490000000002,"pathway":false,"mode":"WALK","route":"","agencyTimeZoneOffset":-14400000,"interlineWithPreviousLeg":false,"from":{"name":"Origin","lon":-71.043421,"lat":48.41192,"departure":1522678396000,"orig":"","vertexType":"NORMAL"},"to":{"name":"boul. Université / Murdock","stopId":"1:80","stopCode":"80","lon":-71.050111,"lat":48.411498,"arrival":1522679282000,"departure":1522679283000,"zoneId":"NA","stopIndex":14,"stopSequence":15,"vertexType":"TRANSIT"},"legGeometry":{"points":"qmnfHzurpLm@EME_A]aAw@M_AU_B]_@m@?{@B?fDUr@IFUTeBAMrAAHSrA[nAcAxCt@hABDn@~@b@lA`ArAl@l@@Bh@j@PRdBlBdEbEnBrBVPUn@","length":34},"rentedBike":false,"transitLeg":false,"duration":886.0,"steps":[{"distance":254.77700000000002,"relativeDirection":"DEPART","streetName":"Rue du Père-Champagnat","absoluteDirection":"NORTH","stayOn":false,"area":false,"bogusName":false,"lon":-71.04365199018739,"lat":48.41193021202041,"elevation":[]},{"distance":162.524,"relativeDirection":"LEFT","streetName":"Rue Pierre-Laure","absoluteDirection":"WEST","stayOn":false,"area":false,"bogusName":false,"lon":-71.0422276,"lat":48.4137417,"elevation":[]},{"distance":170.425,"relativeDirection":"LEFT","streetName":"Rue Chabanel","absoluteDirection":"WEST","stayOn":false,"area":false,"bogusName":false,"lon":-71.04346240000001,"lat":48.414529900000005,"elevation":[]},{"distance":527.521,"relativeDirection":"LEFT","streetName":"Rue Murdock","absoluteDirection":"SOUTHWEST","stayOn":false,"area":false,"bogusName":false,"lon":-71.0455232,"lat":48.4151863,"elevation":[]},{"distance":21.602,"relativeDirection":"RIGHT","streetName":"Boulevard de l'Université","absoluteDirection":"NORTHWEST","stayOn":false,"area":false,"bogusName":false,"lon":-71.0498268,"lat":48.4114298,"elevation":[]}]},{"startTime":1522679283000,"endTime":1522679520000,"departureDelay":0,"arrivalDelay":0,"realTime":false,"distance":1625.1572422718677,"pathway":false,"mode":"BUS","route":"175","agencyName":"Société de Transport du Saguenay","agencyUrl":"http://ville.saguenay.ca/fr/services-aux-citoyens/transport-sts","agencyTimeZoneOffset":-14400000,"routeColor":"FF00FF","routeType":3,"routeId":"1:175","routeTextColor":"FFFFFF","interlineWithPreviousLeg":false,"tripBlockId":"7","headsign":"Costco","agencyId":"0","tripId":"1:217328","serviceDate":"20180402","from":{"name":"boul. Université / Murdock","stopId":"1:80","stopCode":"80","lon":-71.050111,"lat":48.411498,"arrival":1522679282000,"departure":1522679283000,"zoneId":"NA","stopIndex":14,"stopSequence":15,"vertexType":"TRANSIT"},"to":{"name":"Place du Royaume (Saguenéens)","stopId":"1:1294","stopCode":"1294","lon":-71.057691,"lat":48.402355,"arrival":1522679520000,"departure":1522679521000,"zoneId":"NA","stopIndex":20,"stopSequence":21,"vertexType":"TRANSIT"},"legGeometry":{"points":"aknfH~}spLr@sBhCsKz@dAjB|@dM`GzCvAXrCr@~Gx@]PEr@ObACn@FrBb@|@Ch@Kx@U~HsB^KZ|DJpII~Fa@rFUzBi@bD","length":26},"routeShortName":"175","routeLongName":"Term. Chic / Costco","rentedBike":false,"transitLeg":true,"duration":237.0,"steps":[]},{"startTime":1522679521000,"endTime":1522679696000,"departureDelay":0,"arrivalDelay":0,"realTime":false,"distance":211.423,"pathway":false,"mode":"WALK","route":"","agencyTimeZoneOffset":-14400000,"interlineWithPreviousLeg":false,"from":{"name":"Place du Royaume (Saguenéens)","stopId":"1:1294","stopCode":"1294","lon":-71.057691,"lat":48.402355,"arrival":1522679520000,"departure":1522679521000,"zoneId":"NA","stopIndex":20,"stopSequence":21,"vertexType":"TRANSIT"},"to":{"name":"Destination","lon":-71.058501,"lat":48.403374,"arrival":1522679696000,"orig":"","vertexType":"NORMAL"},"legGeometry":{"points":"iqlfHxmupLa@dCMh@GM[m@i@aAMZe@pAIT[Y","length":10},"rentedBike":false,"transitLeg":false,"duration":175.0,"steps":[{"distance":70.008,"relativeDirection":"DEPART","streetName":"Rue des Saguenéens","absoluteDirection":"WEST","stayOn":false,"area":false,"bogusName":false,"lon":-71.05772328170832,"lat":48.402297506554895,"elevation":[]},{"distance":63.614000000000004,"relativeDirection":"RIGHT","streetName":"service road","absoluteDirection":"NORTHEAST","stayOn":false,"area":false,"bogusName":true,"lon":-71.0586019,"lat":48.4025327,"elevation":[]},{"distance":77.801,"relativeDirection":"LEFT","streetName":"parking aisle","absoluteDirection":"NORTHWEST","stayOn":true,"area":false,"bogusName":true,"lon":-71.0579793,"lat":48.402928200000005,"elevation":[]}]}],"tooSloped":false},{"duration":1452,"startTime":1522678996000,"endTime":1522680448000,"walkTime":1333,"transitTime":117,"waitingTime":2,"walkDistance":1725.3595714228093,"walkLimitExceeded":false,"elevationLost":0.0,"elevationGained":0.0,"transfers":0,"legs":[{"startTime":1522678996000,"endTime":1522679358000,"departureDelay":0,"arrivalDelay":0,"realTime":false,"distance":465.995,"pathway":false,"mode":"WALK","route":"","agencyTimeZoneOffset":-14400000,"interlineWithPreviousLeg":false,"from":{"name":"Origin","lon":-71.043421,"lat":48.41192,"departure":1522678996000,"orig":"","vertexType":"NORMAL"},"to":{"name":"Chabanel / Bouchette","stopId":"1:354","stopCode":"354","lon":-71.04384,"lat":48.41473,"arrival":1522679358000,"departure":1522679359000,"zoneId":"NA","stopIndex":18,"stopSequence":19,"vertexType":"TRANSIT"},"legGeometry":{"points":"qmnfHzurpLm@EME_A]aAw@M_AU_B]_@m@?{@B?fDUr@IFUTeBAMrAAHUB","length":18},"rentedBike":false,"transitLeg":false,"duration":362.0,"steps":[{"distance":254.77700000000002,"relativeDirection":"DEPART","streetName":"Rue du Père-Champagnat","absoluteDirection":"NORTH","stayOn":false,"area":false,"bogusName":false,"lon":-71.04365199018739,"lat":48.41193021202041,"elevation":[]},{"distance":162.524,"relativeDirection":"LEFT","streetName":"Rue Pierre-Laure","absoluteDirection":"WEST","stayOn":false,"area":false,"bogusName":false,"lon":-71.0422276,"lat":48.4137417,"elevation":[]},{"distance":35.477000000000004,"relativeDirection":"LEFT","streetName":"Rue Chabanel","absoluteDirection":"WEST","stayOn":false,"area":false,"bogusName":false,"lon":-71.04346240000001,"lat":48.414529900000005,"elevation":[]},{"distance":13.217,"relativeDirection":"RIGHT","streetName":"Rue Bouchette","absoluteDirection":"NORTH","stayOn":false,"area":false,"bogusName":false,"lon":-71.0439309,"lat":48.4146013,"elevation":[]}]},{"startTime":1522679359000,"endTime":1522679476000,"departureDelay":0,"arrivalDelay":0,"realTime":false,"distance":626.5870559726736,"pathway":false,"mode":"BUS","route":"10","agencyName":"Société de Transport du Saguenay","agencyUrl":"http://ville.saguenay.ca/fr/services-aux-citoyens/transport-sts","agencyTimeZoneOffset":-14400000,"routeColor":"0000FF","routeType":3,"routeId":"1:10","routeTextColor":"FFFFFF","interlineWithPreviousLeg":false,"tripBlockId":"29","headsign":"Terminus UQAC","agencyId":"0","tripId":"1:218059","serviceDate":"20180402","from":{"name":"Chabanel / Bouchette","stopId":"1:354","stopCode":"354","lon":-71.04384,"lat":48.41473,"arrival":1522679358000,"departure":1522679359000,"zoneId":"NA","stopIndex":18,"stopSequence":19,"vertexType":"TRANSIT"},"to":{"name":"boul. Université / Murdock","stopId":"1:59","stopCode":"59","lon":-71.049971,"lat":48.411755,"arrival":1522679476000,"departure":1522679477000,"zoneId":"NA","stopIndex":21,"stopSequence":22,"vertexType":"TRANSIT"},"legGeometry":{"points":"e~nfHhwrpLAHSpAe@jB_A|Bz@xAvA~BvB|BdN|Nc@bA","length":10},"routeShortName":"10","routeLongName":"Notre-Dame du Saguenay","rentedBike":false,"transitLeg":true,"duration":117.0,"steps":[]},{"startTime":1522679477000,"endTime":1522680448000,"departureDelay":0,"arrivalDelay":0,"realTime":false,"distance":1259.186,"pathway":false,"mode":"WALK","route":"","agencyTimeZoneOffset":-14400000,"interlineWithPreviousLeg":false,"from":{"name":"boul. Université / Murdock","stopId":"1:59","stopCode":"59","lon":-71.049971,"lat":48.411755,"arrival":1522679476000,"departure":1522679477000,"zoneId":"NA","stopIndex":21,"stopSequence":22,"vertexType":"TRANSIT"},"to":{"name":"Destination","lon":-71.058501,"lat":48.403374,"arrival":1522680448000,"orig":"","vertexType":"NORMAL"},"legGeometry":{"points":"_lnfHx}spLoAhDELTXLJx@|@bDfDjDlDPRp@p@lAhApF`FJJzFjF|DpDLJhE~Dt@aCTTTT\\ZXVXVXXXVXV@@","length":27},"rentedBike":false,"transitLeg":false,"duration":971.0,"steps":[{"distance":83.417,"relativeDirection":"DEPART","streetName":"Boulevard de l'Université","absoluteDirection":"NORTHWEST","stayOn":false,"area":false,"bogusName":false,"lon":-71.05004245459075,"lat":48.41168714240219,"elevation":[]},{"distance":984.3159999999998,"relativeDirection":"LEFT","streetName":"Boulevard Talbot","absoluteDirection":"SOUTHWEST","stayOn":false,"area":false,"bogusName":false,"lon":-71.05096660000001,"lat":48.4121189,"elevation":[]},{"distance":191.45299999999997,"relativeDirection":"LEFT","streetName":"parking aisle","absoluteDirection":"SOUTHEAST","stayOn":false,"area":false,"bogusName":true,"lon":-71.0581722,"lat":48.4046724,"elevation":[]}]}],"tooSloped":false}]},"debugOutput":{"precalculationTime":35,"pathCalculationTime":31,"pathTimes":[15,7,9],"renderingTime":0,"totalTime":66,"timedOut":false},"elevationMetadata":{"ellipsoidToGeoidDifference":-28.885904201182168,"geoidElevation":false}}