{"requestParameters":{"date":"2018/04/02","walkSpeed":"1.33","walkReluctance":"2.0","fromPlace":"48.414154,-71.025138","maxWalkDistance":"3000","waitReluctance":"1.0","carSpeed":"33","numItineraries":"3","waitAtBeginningFactor":"0.4","mode":"TRANSIT,WALK","ignoreRealtimeUpdates":"false","stairsReluctance":"2.0","toPlace":"48.400927,-71.06106699","time":"9:30:00"},"plan":{"date":1522675800000,"from":{"name":"Origin","lon":-71.025138,"lat":48.414154,"orig":"","vertexType":"NORMAL"},"to":{"name":"Destination","lon":-71.06106699,"lat":48.400927,"orig":"","vertexType":"NORMAL"},"itineraries":[{"duration":1935,"startTime":1522676116000,"endTime":1522678051000,"walkTime":1697,"transitTime":236,"waitingTime":2,"walkDistance":2207.6138345805343,"walkLimitExceeded":false,"elevationLost":0.0,"elevationGained":0.0,"transfers":0,"legs":[{"startTime":1522676116000,"endTime":1522677539000,"departureDelay":0,"arrivalDelay":0,"realTime":false,"distance":1855.8860000000002,"pathway":false,"mode":"WALK","route":"","agencyTimeZoneOffset":-14400000,"interlineWithPreviousLeg":false,"from":{"name":"Origin","lon":-71.025138,"lat":48.414154,"departure":1522676116000,"orig":"","vertexType":"NORMAL"},"to":{"name":"Sûreté du Québec (Roitelets / Lorenzo-Genest)","stopId":"1:58","stopCode":"58","lon":-71.048311,"lat":48.40979,"arrival":1522677539000,"departure":1522677540000,"zoneId":"NA","stopIndex":15,"stopSequence":16,"vertexType":"TRANSIT"},"legGeometry":{"points":"i{nfHrdopLLAf@D?RFLAr@ZhAT^d@?RVFPBXL`@PdBPrAl@vDRf@h@|ANt@ApAH|@ChARn@NhAFRb@G@^ZvEHpAtFry@TfDDnAFdBJrCGxDe@dEDv@Lv@Vp@JD~Av@","length":41},"alerts":[{"alertHeaderText":"Unpaved surface"}],"rentedBike":false,"transitLeg":false,"duration":1423.0,"steps":[{"distance":44.922,"relativeDirection":"DEPART","streetName":"Rue De l'Alsace","absoluteDirection":"SOUTH","stayOn":false,"area":false,"bogusName":false,"lon":-71.02553060955893,"lat":48.414139630765106,"elevation":[]},{"distance":520.552,"relativeDirection":"SLIGHTLY_RIGHT","streetName":"path","absoluteDirection":"WEST","stayOn":false,"area":false,"bogusName":true,"lon":-71.0257265,"lat":48.413828200000005,"elevation":[],"alerts":[{"alertHeaderText":"Unpaved surface"}]},{"distance":1160.973,"relativeDirection":"RIGHT","streetName":"Boulevard de l'Université","absoluteDirection":"WEST","stayOn":false,"area":false,"bogusName":false,"lon":-71.03157130000001,"lat":48.411949500000006,"elevation":[]},{"distance":65.286,"relativeDirection":"SLIGHTLY_LEFT","streetName":"link","absoluteDirection":"WEST","stayOn":false,"area":false,"bogusName":true,"lon":-71.04701990000001,"lat":48.4105046,"elevation":[]},{"distance":64.153,"relativeDirection":"SLIGHTLY_LEFT","streetName":"Rue Des Roitelets","absoluteDirection":"SOUTH","stayOn":false,"area":false,"bogusName":false,"lon":-71.0478246,"lat":48.4102837,"elevation":[]}]},{"startTime":1522677540000,"endTime":1522677776000,"departureDelay":0,"arrivalDelay":0,"realTime":false,"distance":1634.7435512649286,"pathway":false,"mode":"BUS","route":"175","agencyName":"Société de Transport du Saguenay","agencyUrl":"http://ville.saguenay.ca/fr/services-aux-citoyens/transport-sts","agencyTimeZoneOffset":-14400000,"routeColor":"FF00FF","routeType":3,"routeId":"1:175","routeTextColor":"FFFFFF","interlineWithPreviousLeg":false,"tripBlockId":"6","headsign":"Costco","agencyId":"0","tripId":"1:217291","serviceDate":"20180402","from":{"name":"Sûreté du Québec (Roitelets / Lorenzo-Genest)","stopId":"1:58","stopCode":"58","lon":-71.048311,"lat":48.40979,"arrival":1522677539000,"departure":1522677540000,"zoneId":"NA","stopIndex":15,"stopSequence":16,"vertexType":"TRANSIT"},"to":{"name":"boul. Talbot (no. 1494) (Tim-Horton)","stopId":"1:1854","stopCode":"1854","lon":-71.060941,"lat":48.402118,"arrival":1522677776000,"departure":1522677777000,"zoneId":"NA","stopIndex":21,"stopSequence":22,"vertexType":"TRANSIT"},"legGeometry":{"points":"{_nfHzqspLdM`GzCvAXrCr@~Gx@]PEr@ObACn@FrBb@|@Ch@Kx@U~HsB^KZ|DJpII~Fa@rFUzBi@bDUxAm@nCcAlDM^RTfD`D","length":28},"routeShortName":"175","routeLongName":"Term. Chic / Costco","rentedBike":false,"transitLeg":true,"duration":236.0,"steps":[]},{"startTime":1522677777000,"endTime":1522678051000,"departureDelay":0,"arrivalDelay":0,"realTime":false,"distance":351.544,"pathway":false,"mode":"WALK","route":"","agencyTimeZoneOffset":-14400000,"interlineWithPreviousLeg":false,"from":{"name":"boul. Talbot (no. 1494) (Tim-Horton)","stopId":"1:1854","stopCode":"1854","lon":-71.060941,"lat":48.402118,"arrival":1522677776000,"departure":1522677777000,"zoneId":"NA","stopIndex":21,"stopSequence":22,"vertexType":"TRANSIT"},"to":{"name":"Destination","lon":-71.06106699,"lat":48.400927,"arrival":1522678051000,"orig":"","vertexType":"NORMAL"},"legGeometry":{"points":"}olfHhavpLgDcDL[LJzDpDnCfC","length":6},"rentedBike":false,"transitLeg":false,"duration":274.0,"steps":[{"distance":111.149,"relativeDirection":"DEPART","streetName":"Boulevard Talbot","absoluteDirection":"NORTHEAST","stayOn":false,"area":false,"bogusName":false,"lon":-71.06084575275527,"lat":48.40207691199218,"elevation":[]},{"distance":240.39500000000004,"relativeDirection":"UTURN_RIGHT","streetName":"Boulevard Talbot","absoluteDirection":"SOUTHWEST","stayOn":true,"area":false,"bogusName":false,"lon":-71.0598825,"lat":48.402847200000004,"elevation":[]}]}],"tooSloped":false},{"duration":1982,"startTime":1522676073000,"endTime":1522678055000,"walkTime":1795,"transitTime":185,"waitingTime":2,"walkDistance":2351.3812781918978,"walkLimitExceeded":false,"elevationLost":0.0,"elevationGained":0.0,"transfers":0,"legs":[{"startTime":1522676073000,"endTime":1522676699000,"departureDelay":0,"arrivalDelay":0,"realTime":false,"distance":817.0920000000001,"pathway":false,"mode":"WALK","route":"","agencyTimeZoneOffset":-14400000,"interlineWithPreviousLeg":false,"from":{"name":"Origin","lon":-71.025138,"lat":48.414154,"departure":1522676073000,"orig":"","vertexType":"NORMAL"},"to":{"name":"boul. St-Jean-Baptiste (no. 1635)","stopId":"1:250","stopCode":"250","lon":-71.021029,"lat":48.40996,"arrival":1522676699000,"departure":1522676700000,"zoneId":"NA","stopIndex":37,"stopSequence":38,"vertexType":"TRANSIT"},"legGeometry":{"points":"i{nfHrdopLm@@yCc@TmBF{@~CTNC`BUTEp@KfBeAJGvOaPR[","length":14},"rentedBike":false,"transitLeg":false,"duration":626.0,"steps":[{"distance":111.784,"relativeDirection":"DEPART","streetName":"Rue De l'Alsace","absoluteDirection":"NORTH","stayOn":false,"area":false,"bogusName":false,"lon":-71.02553060955893,"lat":48.414139630765106,"elevation":[]},{"distance":65.147,"relativeDirection":"RIGHT","streetName":"Rue de l'Auvergne","absoluteDirection":"EAST","stayOn":false,"area":false,"bogusName":false,"lon":-71.0253667,"lat":48.4151352,"elevation":[]},{"distance":194.45999999999998,"relativeDirection":"RIGHT","streetName":"Boulevard du Saguenay Est","absoluteDirection":"SOUTH","stayOn":false,"area":false,"bogusName":false,"lon":-71.02451330000001,"lat":48.4149892,"elevation":[]},{"distance":445.701,"relativeDirection":"CONTINUE","streetName":"Boulevard Saint-Jean-Baptiste","absoluteDirection":"SOUTHEAST","stayOn":false,"area":false,"bogusName":false,"lon":-71.0244078,"lat":48.413254800000004,"elevation":[]}]},{"startTime":1522676700000,"endTime":1522676885000,"departureDelay":0,"arrivalDelay":0,"realTime":false,"distance":2145.501274727439,"pathway":false,"mode":"BUS","route":"5","agencyName":"Société de Transport du Saguenay","agencyUrl":"http://ville.saguenay.ca/fr/services-aux-citoyens/transport-sts","agencyTimeZoneOffset":-14400000,"routeColor":"FF0000","routeType":3,"routeId":"1:5","routeTextColor":"FFFFFF","interlineWithPreviousLeg":false,"tripBlockId":"24","headsign":"Terminus UQAC","agencyId":"0","tripId":"1:217905","serviceDate":"20180402","from":{"name":"boul. St-Jean-Baptiste (no. 1635)","stopId":"1:250","stopCode":"250","lon":-71.021029,"lat":48.40996,"arrival":1522676699000,"departure":1522676700000,"zoneId":"NA","stopIndex":37,"stopSequence":38,"vertexType":"TRANSIT"},"to":{"name":"boul. Université / Murdock","stopId":"1:59","stopCode":"59","lon":-71.049971,"lat":48.411755,"arrival":1522676885000,"departure":1522676886000,"zoneId":"NA","stopIndex":38,"stopSequence":39,"vertexType":"TRANSIT"},"legGeometry":{"points":"w`nfHjinpLYZ}InJeDdDy@j@yAn@@^h@bI`@jDdC~Nb@~DpExr@TlC`A`Ob@dIFlFE~BCv@Cn@I|@uCdOwAbE","length":22},"routeShortName":"5","routeLongName":"Term. Chic/Term. Baie via St-J.Batiste","rentedBike":false,"transitLeg":true,"duration":185.0,"steps":[]},{"startTime":1522676886000,"endTime":1522678055000,"departureDelay":0,"arrivalDelay":0,"realTime":false,"distance":1534.178,"pathway":false,"mode":"WALK","route":"","agencyTimeZoneOffset":-14400000,"interlineWithPreviousLeg":false,"from":{"name":"boul. Université / Murdock","stopId":"1:59","stopCode":"59","lon":-71.049971,"lat":48.411755,"arrival":1522676885000,"departure":1522676886000,"zoneId":"NA","stopIndex":38,"stopSequence":39,"vertexType":"TRANSIT"},"to":{"name":"Destination","lon":-71.06106699,"lat":48.400927,"arrival":1522678055000,"orig":"","vertexType":"NORMAL"},"legGeometry":{"points":"_lnfHx}spLoAhDELTXLJx@|@bDfDjDlDPRp@p@lAhApF`FJJzFjF|DpDLJhE~DhFvEjBdBVVLJzDpDnCfC","length":23},"rentedBike":false,"transitLeg":false,"duration":1169.0,"steps":[{"distance":83.417,"relativeDirection":"DEPART","streetName":"Boulevard de l'Université","absoluteDirection":"NORTHWEST","stayOn":false,"area":false,"bogusName":false,"lon":-71.05004245459075,"lat":48.41168714240219,"elevation":[]},{"distance":1450.7610000000002,"relativeDirection":"LEFT","streetName":"Boulevard Talbot","absoluteDirection":"SOUTHWEST","stayOn":false,"area":false,"bogusName":false,"lon":-71.05096660000001,"lat":48.4121189,"elevation":[]}]}],"tooSloped":false},{"duration":1446,"startTime":1522677424000,"endTime":1522678870000,"walkTime":1107,"transitTime":337,"waitingTime":2,"walkDistance":1433.526939843947,"walkLimitExceeded":false,"elevationLost":0.0,"elevationGained":0.0,"transfers":0,"legs":[{"startTime":1522677424000,"endTime":1522677682000,"departureDelay":0,"arrivalDelay":0,"realTime":false,"distance":331.168,"pathway":false,"mode":"WALK","route":"","agencyTimeZoneOffset":-14400000,"interlineWithPreviousLeg":false,"from":{"name":"Origin","lon":-71.025138,"lat":48.414154,"departure":1522677424000,"orig":"","vertexType":"NORMAL"},"to":{"name":"nouveau","stopId":"1:2297","stopCode":"2297","lon":-71.02468,"lat":48.413593,"arrival":1522677682000,"departure":1522677683000,"zoneId":"NA","stopIndex":25,"stopSequence":26,"vertexType":"TRANSIT"},"legGeometry":{"points":"i{nfHrdopLm@@yCc@TmBF{@~CTNC`BU","length":8},"rentedBike":false,"transitLeg":false,"duration":258.0,"steps":[{"distance":111.784,"relativeDirection":"DEPART","streetName":"Rue De l'Alsace","absoluteDirection":"NORTH","stayOn":false,"area":false,"bogusName":false,"lon":-71.02553060955893,"lat":48.414139630765106,"elevation":[]},{"distance":65.147,"relativeDirection":"RIGHT","streetName":"Rue de l'Auvergne","absoluteDirection":"EAST","stayOn":false,"area":false,"bogusName":false,"lon":-71.0253667,"lat":48.4151352,"elevation":[]},{"distance":154.237,"relativeDirection":"RIGHT","streetName":"Boulevard du Saguenay Est","absoluteDirection":"SOUTH","stayOn":false,"area":false,"bogusName":false,"lon":-71.02451330000001,"lat":48.4149892,"elevation":[]}]},{"startTime":1522677683000,"endTime":1522678020000,"departureDelay":0,"arrivalDelay":0,"realTime":false,"distance":2328.631682324608,"pathway":false,"mode":"BUS","route":"12","agencyName":"Société de Transport du Saguenay","agencyUrl":"http://ville.saguenay.ca/fr/services-aux-citoyens/transport-sts","agencyTimeZoneOffset":-14400000,"routeColor":"556B2F","routeType":3,"routeId":"1:12","routeTextColor":"FFFFFF","interlineWithPreviousLeg":false,"tripBlockId":"27","headsign":"Terminus UQAC","agencyId":"0","tripId":"1:218006","serviceDate":"20180402","from":{"name":"nouveau","stopId":"1:2297","stopCode":"2297","lon":-71.02468,"lat":48.413593,"arrival":1522677682000,"departure":1522677683000,"zoneId":"NA","stopIndex":25,"stopSequence":26,"vertexType":"TRANSIT"},"to":{"name":"Place du Royaume (Champs-Élysées)","stopId":"1:193","stopCode":"193","lon":-71.052659,"lat":48.407065,"arrival":1522678020000,"departure":1522678021000,"zoneId":"NA","stopIndex":28,"stopSequence":29,"vertexType":"TRANSIT"},"legGeometry":{"points":"}wnfHf_opLvVvrCdRvMcAjK","length":4},"routeShortName":"12","routeLongName":"Rivière du Moulin","rentedBike":false,"transitLeg":true,"duration":337.0,"steps":[]},{"startTime":1522678021000,"endTime":1522678870000,"departureDelay":0,"arrivalDelay":0,"realTime":false,"distance":1102.183,"pathway":false,"mode":"WALK","route":"","agencyTimeZoneOffset":-14400000,"interlineWithPreviousLeg":false,"from":{"name":"Place du Royaume (Champs-Élysées)","stopId":"1:193","stopCode":"193","lon":-71.052659,"lat":48.407065,"arrival":1522678020000,"departure":1522678021000,"zoneId":"NA","stopIndex":28,"stopSequence":29,"vertexType":"TRANSIT"},"to":{"name":"Destination","lon":-71.06106699,"lat":48.400927,"arrival":1522678870000,"orig":"","vertexType":"NORMAL"},"legGeometry":{"points":"unmfH|ntpLQTOb@aA~Cs@pB^\\~EnEm@|B|DpDLJhE~DhFvEjBdBVVLJzDpDnCfC","length":17},"rentedBike":false,"transitLeg":false,"duration":849.0,"steps":[{"distance":149.249,"relativeDirection":"DEPART","streetName":"Rue des Champs-Élysées","absoluteDirection":"NORTHWEST","stayOn":false,"area":false,"bogusName":false,"lon":-71.0527883359973,"lat":48.40699779220329,"elevation":[]},{"distance":167.27,"relativeDirection":"LEFT","streetName":"parking aisle","absoluteDirection":"SOUTHWEST","stayOn":false,"area":false,"bogusName":true,"lon":-71.0544462,"lat":48.407755200000004,"elevation":[]},{"distance":53.12,"relativeDirection":"RIGHT","streetName":"service road","absoluteDirection":"NORTHWEST","stayOn":true,"area":false,"bogusName":true,"lon":-71.0556352,"lat":48.4064746,"elevation":[]},{"distance":732.544,"relativeDirection":"LEFT","streetName":"Boulevard Talbot","absoluteDirection":"SOUTHWEST","stayOn":false,"area":false,"bogusName":false,"lon":-71.0562666,"lat":48.4067038,"elevation":[]}]}],"tooSloped":false}]},"debugOutput":{"precalculationTime":26,"pathCalculationTime":29,"pathTimes":[15,6,8],"renderingTime":0,"totalTime":55,"timedOut":false},"elevationMetadata":{"ellipsoidToGeoidDifference":-28.885904201182168,"geoidElevation":false}}