{"requestParameters":{"date":"2018/04/02","walkSpeed":"1.33","walkReluctance":"2.0","fromPlace":"48.414154,-71.025138","maxWalkDistance":"3000","waitReluctance":"1.0","carSpeed":"33","numItineraries":"3","waitAtBeginningFactor":"0.4","mode":"TRANSIT,WALK","ignoreRealtimeUpdates":"false","stairsReluctance":"2.0","toPlace":"48.428771,-71.024501","time":"7:20:00"},"plan":{"date":1522668000000,"from":{"name":"Origin","lon":-71.025138,"lat":48.414154,"orig":"","vertexType":"NORMAL"},"to":{"name":"Destination","lon":-71.024501,"lat":48.428771,"orig":"","vertexType":"NORMAL"},"itineraries":[{"duration":839,"startTime":1522668068000,"endTime":1522668907000,"walkTime":447,"transitTime":390,"waitingTime":2,"walkDistance":567.9448421008477,"walkLimitExceeded":false,"elevationLost":0.0,"elevationGained":0.0,"transfers":0,"legs":[{"startTime":1522668068000,"endTime":1522668284000,"departureDelay":0,"arrivalDelay":0,"realTime":false,"distance":276.035,"pathway":false,"mode":"WALK","route":"","agencyTimeZoneOffset":-14400000,"interlineWithPreviousLeg":false,"from":{"name":"Origin","lon":-71.025138,"lat":48.414154,"departure":1522668068000,"orig":"","vertexType":"NORMAL"},"to":{"name":"nouveau","stopId":"1:2298","stopCode":"2298","lon":-71.024294,"lat":48.414134,"arrival":1522668284000,"departure":1522668285000,"zoneId":"NA","stopIndex":17,"stopSequence":18,"vertexType":"TRANSIT"},"legGeometry":{"points":"i{nfHrdopLm@@yCc@TmBF{@~CTNC","length":7},"rentedBike":false,"transitLeg":false,"duration":216.0,"steps":[{"distance":111.784,"relativeDirection":"DEPART","streetName":"Rue De l'Alsace","absoluteDirection":"NORTH","stayOn":false,"area":false,"bogusName":false,"lon":-71.02553060955893,"lat":48.414139630765106,"elevation":[]},{"distance":65.147,"relativeDirection":"RIGHT","streetName":"Rue de l'Auvergne","absoluteDirection":"EAST","stayOn":false,"area":false,"bogusName":false,"lon":-71.0253667,"lat":48.4151352,"elevation":[]},{"distance":99.104,"relativeDirection":"RIGHT","streetName":"Boulevard du Saguenay Est","absoluteDirection":"SOUTH","stayOn":false,"area":false,"bogusName":false,"lon":-71.02451330000001,"lat":48.4149892,"elevation":[]}]},{"startTime":1522668285000,"endTime":1522668675000,"departureDelay":0,"arrivalDelay":0,"realTime":false,"distance":1737.6384085447369,"pathway":false,"mode":"BUS","route":"12","agencyName":"Société de Transport du Saguenay","agencyUrl":"http://ville.saguenay.ca/fr/services-aux-citoyens/transport-sts","agencyTimeZoneOffset":-14400000,"routeColor":"556B2F","routeType":3,"routeId":"1:12","routeTextColor":"FFFFFF","interlineWithPreviousLeg":false,"tripBlockId":"26","headsign":"Terminus Chicoutimi","agencyId":"0","tripId":"1:217965","serviceDate":"20180402","from":{"name":"nouveau","stopId":"1:2298","stopCode":"2298","lon":-71.024294,"lat":48.414134,"arrival":1522668284000,"departure":1522668285000,"zoneId":"NA","stopIndex":17,"stopSequence":18,"vertexType":"TRANSIT"},"to":{"name":"nouveau","stopId":"1:2301","stopCode":"2301","lon":-71.021923,"lat":48.427058,"arrival":1522668675000,"departure":1522668676000,"zoneId":"NA","stopIndex":22,"stopSequence":23,"vertexType":"TRANSIT"},"legGeometry":{"points":"i{nfHp}npLoDJi`@wVoAbDbA|AnBU|B|AfBlAyLtKoGxFcFqDkJaHgEoDmDwC","length":14},"routeShortName":"12","routeLongName":"Rivière du Moulin","rentedBike":false,"transitLeg":true,"duration":390.0,"steps":[]},{"startTime":1522668676000,"endTime":1522668907000,"departureDelay":0,"arrivalDelay":0,"realTime":false,"distance":291.77299999999997,"pathway":false,"mode":"WALK","route":"","agencyTimeZoneOffset":-14400000,"interlineWithPreviousLeg":false,"from":{"name":"nouveau","stopId":"1:2301","stopCode":"2301","lon":-71.021923,"lat":48.427058,"arrival":1522668675000,"departure":1522668676000,"zoneId":"NA","stopIndex":22,"stopSequence":23,"vertexType":"TRANSIT"},"to":{"name":"Destination","lon":-71.024501,"lat":48.428771,"arrival":1522668907000,"orig":"","vertexType":"NORMAL"},"legGeometry":{"points":"klqfHvnnpLAAw@s@}@|CyCrJc@c@","length":6},"rentedBike":false,"transitLeg":false,"duration":231.0,"steps":[{"distance":38.165,"relativeDirection":"DEPART","streetName":"Rue de Normandie","absoluteDirection":"NORTHEAST","stayOn":false,"area":false,"bogusName":false,"lon":-71.02203799489854,"lat":48.427104913712306,"elevation":[]},{"distance":228.74,"relativeDirection":"LEFT","streetName":"Rue des Érables","absoluteDirection":"NORTHWEST","stayOn":false,"area":false,"bogusName":false,"lon":-71.0217671,"lat":48.4273973,"elevation":[]},{"distance":24.868,"relativeDirection":"RIGHT","streetName":"Rue des Ormes","absoluteDirection":"NORTHEAST","stayOn":false,"area":false,"bogusName":false,"lon":-71.024412,"lat":48.4284703,"elevation":[]}]}],"tooSloped":false},{"duration":1491,"startTime":1522668000000,"endTime":1522669491000,"walkTime":1491,"transitTime":0,"waitingTime":0,"walkDistance":1923.7571804439583,"walkLimitExceeded":false,"elevationLost":0.0,"elevationGained":0.0,"transfers":0,"legs":[{"startTime":1522668000000,"endTime":1522669491000,"departureDelay":0,"arrivalDelay":0,"realTime":false,"distance":1923.535,"pathway":false,"mode":"WALK","route":"","agencyTimeZoneOffset":-14400000,"interlineWithPreviousLeg":false,"from":{"name":"Origin","lon":-71.025138,"lat":48.414154,"departure":1522668000000,"orig":"","vertexType":"NORMAL"},"to":{"name":"Destination","lon":-71.024501,"lat":48.428771,"arrival":1522669491000,"orig":"","vertexType":"NORMAL"},"legGeometry":{"points":"i{nfHrdopLm@@yCc@wBwAgAe@c@OQIOQa@a@GIYYa@Oi@Sc@QSUKA_@Ci@CA_@COCQIa@UYCCSSg@[YQEEc@Wy@i@_@SCA??A?a@OKCOI]SKGUMQIEBE@a@NE@QFUGCEIQ[o@O[]f@IL[`@i@t@m@x@]d@a@h@UZW^]^KLIHSVKPGJS\\YVGFWT[Zo@`@a@VUKOKYMMGs@a@uCoAiAUsCsBCrAgA?_@?_@IcAo@aA`CSf@wAnD_Aw@}@u@c@c@","length":92},"rentedBike":false,"transitLeg":false,"duration":1491.0,"steps":[{"distance":443.96,"relativeDirection":"DEPART","streetName":"Rue De l'Alsace","absoluteDirection":"NORTH","stayOn":false,"area":false,"bogusName":false,"lon":-71.02553060955893,"lat":48.414139630765106,"elevation":[]},{"distance":382.106,"relativeDirection":"RIGHT","streetName":"Rue de Gascogne","absoluteDirection":"EAST","stayOn":false,"area":false,"bogusName":false,"lon":-71.02373370000001,"lat":48.4178748,"elevation":[]},{"distance":381.835,"relativeDirection":"LEFT","streetName":"Rue de Normandie","absoluteDirection":"NORTHWEST","stayOn":false,"area":false,"bogusName":false,"lon":-71.0215,"lat":48.4206914,"elevation":[]},{"distance":301.11400000000003,"relativeDirection":"RIGHT","streetName":"Rue de Normandie","absoluteDirection":"NORTH","stayOn":true,"area":false,"bogusName":false,"lon":-71.02459610000001,"lat":48.4234239,"elevation":[]},{"distance":31.131,"relativeDirection":"LEFT","streetName":"Rue de la Terrasse","absoluteDirection":"WEST","stayOn":false,"area":false,"bogusName":false,"lon":-71.0231006,"lat":48.4259314,"elevation":[]},{"distance":117.854,"relativeDirection":"RIGHT","streetName":"Rue de Paris","absoluteDirection":"NORTH","stayOn":false,"area":false,"bogusName":false,"lon":-71.02352110000001,"lat":48.4259542,"elevation":[]},{"distance":159.885,"relativeDirection":"LEFT","streetName":"Boulevard du Saguenay Est","absoluteDirection":"NORTHWEST","stayOn":false,"area":false,"bogusName":false,"lon":-71.02324,"lat":48.426977,"elevation":[]},{"distance":105.64999999999999,"relativeDirection":"RIGHT","streetName":"Rue des Ormes","absoluteDirection":"NORTHEAST","stayOn":false,"area":false,"bogusName":false,"lon":-71.02496810000001,"lat":48.427844500000006,"elevation":[]}]}],"tooSloped":false},{"duration":839,"startTime":1522669868000,"endTime":1522670707000,"walkTime":447,"transitTime":390,"waitingTime":2,"walkDistance":567.9448421008477,"walkLimitExceeded":false,"elevationLost":0.0,"elevationGained":0.0,"transfers":0,"legs":[{"startTime":1522669868000,"endTime":1522670084000,"departureDelay":0,"arrivalDelay":0,"realTime":false,"distance":276.035,"pathway":false,"mode":"WALK","route":"","agencyTimeZoneOffset":-14400000,"interlineWithPreviousLeg":false,"from":{"name":"Origin","lon":-71.025138,"lat":48.414154,"departure":1522669868000,"orig":"","vertexType":"NORMAL"},"to":{"name":"nouveau","stopId":"1:2298","stopCode":"2298","lon":-71.024294,"lat":48.414134,"arrival":1522670084000,"departure":1522670085000,"zoneId":"NA","stopIndex":17,"stopSequence":18,"vertexType":"TRANSIT"},"legGeometry":{"points":"i{nfHrdopLm@@yCc@TmBF{@~CTNC","length":7},"rentedBike":false,"transitLeg":false,"duration":216.0,"steps":[{"distance":111.784,"relativeDirection":"DEPART","streetName":"Rue De l'Alsace","absoluteDirection":"NORTH","stayOn":false,"area":false,"bogusName":false,"lon":-71.02553060955893,"lat":48.414139630765106,"elevation":[]},{"distance":65.147,"relativeDirection":"RIGHT","streetName":"Rue de l'Auvergne","absoluteDirection":"EAST","stayOn":false,"area":false,"bogusName":false,"lon":-71.0253667,"lat":48.4151352,"elevation":[]},{"distance":99.104,"relativeDirection":"RIGHT","streetName":"Boulevard du Saguenay Est","absoluteDirection":"SOUTH","stayOn":false,"area":false,"bogusName":false,"lon":-71.02451330000001,"lat":48.4149892,"elevation":[]}]},{"startTime":1522670085000,"endTime":1522670475000,"departureDelay":0,"arrivalDelay":0,"realTime":false,"distance":1737.6384085447369,"pathway":false,"mode":"BUS","route":"12","agencyName":"Société de Transport du Saguenay","agencyUrl":"http://ville.saguenay.ca/fr/services-aux-citoyens/transport-sts","agencyTimeZoneOffset":-14400000,"routeColor":"556B2F","routeType":3,"routeId":"1:12","routeTextColor":"FFFFFF","interlineWithPreviousLeg":false,"tripBlockId":"29","headsign":"Terminus Chicoutimi","agencyId":"0","tripId":"1:218054","serviceDate":"20180402","from":{"name":"nouveau","stopId":"1:2298","stopCode":"2298","lon":-71.024294,"lat":48.414134,"arrival":1522670084000,"departure":1522670085000,"zoneId":"NA","stopIndex":17,"stopSequence":18,"vertexType":"TRANSIT"},"to":{"name":"nouveau","stopId":"1:2301","stopCode":"2301","lon":-71.021923,"lat":48.427058,"arrival":1522670475000,"departure":1522670476000,"zoneId":"NA","stopIndex":22,"stopSequence":23,"vertexType":"TRANSIT"},"legGeometry":{"points":"i{nfHp}npLoDJi`@wVoAbDbA|AnBU|B|AfBlAyLtKoGxFcFqDkJaHgEoDmDwC","length":14},"routeShortName":"12","routeLongName":"Rivière du Moulin","rentedBike":false,"transitLeg":true,"duration":390.0,"steps":[]},{"startTime":1522670476000,"endTime":1522670707000,"departureDelay":0,"arrivalDelay":0,"realTime":false,"distance":291.77299999999997,"pathway":false,"mode":"WALK","route":"","agencyTimeZoneOffset":-14400000,"interlineWithPreviousLeg":false,"from":{"name":"nouveau","stopId":"1:2301","stopCode":"2301","lon":-71.021923,"lat":48.427058,"arrival":1522670475000,"departure":1522670476000,"zoneId":"NA","stopIndex":22,"stopSequence":23,"vertexType":"TRANSIT"},"to":{"name":"Destination","lon":-71.024501,"lat":48.428771,"arrival":1522670707000,"orig":"","vertexType":"NORMAL"},"legGeometry":{"points":"klqfHvnnpLAAw@s@}@|CyCrJc@c@","length":6},"rentedBike":false,"transitLeg":false,"duration":231.0,"steps":[{"distance":38.165,"relativeDirection":"DEPART","streetName":"Rue de Normandie","absoluteDirection":"NORTHEAST","stayOn":false,"area":false,"bogusName":false,"lon":-71.02203799489854,"lat":48.427104913712306,"elevation":[]},{"distance":228.74,"relativeDirection":"LEFT","streetName":"Rue des Érables","absoluteDirection":"NORTHWEST","stayOn":false,"area":false,"bogusName":false,"lon":-71.0217671,"lat":48.4273973,"elevation":[]},{"distance":24.868,"relativeDirection":"RIGHT","streetName":"Rue des Ormes","absoluteDirection":"NORTHEAST","stayOn":false,"area":false,"bogusName":false,"lon":-71.024412,"lat":48.4284703,"elevation":[]}]}],"tooSloped":false}]},"debugOutput":{"precalculationTime":15,"pathCalculationTime":14,"pathTimes":[2,5,7],"renderingTime":1,"totalTime":30,"timedOut":false},"elevationMetadata":{"ellipsoidToGeoidDifference":-28.885904201182168,"geoidElevation":false}}