{"requestParameters":{"date":"2018/04/02","walkSpeed":"1.33","walkReluctance":"2.0","fromPlace":"48.427668,-71.06147699","maxWalkDistance":"3000","waitReluctance":"1.0","carSpeed":"33","numItineraries":"3","waitAtBeginningFactor":"0.4","mode":"TRANSIT,WALK","ignoreRealtimeUpdates":"false","stairsReluctance":"2.0","toPlace":"48.401546,-71.062841","time":"13:0:00"},"plan":{"date":1522688400000,"from":{"name":"Origin","lon":-71.06147699,"lat":48.427668,"orig":"","vertexType":"NORMAL"},"to":{"name":"Destination","lon":-71.062841,"lat":48.401546,"orig":"","vertexType":"NORMAL"},"itineraries":[{"duration":1263,"startTime":1522689286000,"endTime":1522690549000,"walkTime":307,"transitTime":954,"waitingTime":2,"walkDistance":388.14422556099845,"walkLimitExceeded":false,"elevationLost":0.0,"elevationGained":0.0,"transfers":0,"legs":[{"startTime":1522689286000,"endTime":1522689421000,"departureDelay":0,"arrivalDelay":0,"realTime":false,"distance":166.525,"pathway":false,"mode":"WALK","route":"","agencyTimeZoneOffset":-14400000,"interlineWithPreviousLeg":false,"from":{"name":"Origin","lon":-71.06147699,"lat":48.427668,"departure":1522689286000,"orig":"","vertexType":"NORMAL"},"to":{"name":"Racine / Havre","stopId":"1:1639","stopCode":"1639","lon":-71.059267,"lat":48.427469,"arrival":1522689421000,"departure":1522689422000,"zoneId":"NA","stopIndex":1,"stopSequence":2,"vertexType":"TRANSIT"},"legGeometry":{"points":"{oqfHbevpLGA@m@JqFDuAB_A","length":6},"rentedBike":false,"transitLeg":false,"duration":135.0,"steps":[{"distance":3.953,"relativeDirection":"DEPART","streetName":"alley","absoluteDirection":"NORTH","stayOn":false,"area":false,"bogusName":false,"lon":-71.06145049552407,"lat":48.42766718037407,"elevation":[]},{"distance":162.572,"relativeDirection":"RIGHT","streetName":"Rue Racine Est","absoluteDirection":"EAST","stayOn":false,"area":false,"bogusName":false,"lon":-71.061448,"lat":48.427702700000005,"elevation":[]}]},{"startTime":1522689422000,"endTime":1522690376000,"departureDelay":0,"arrivalDelay":0,"realTime":false,"distance":4882.541287827642,"pathway":false,"mode":"BUS","route":"175","agencyName":"Société de Transport du Saguenay","agencyUrl":"http://ville.saguenay.ca/fr/services-aux-citoyens/transport-sts","agencyTimeZoneOffset":-14400000,"routeColor":"FF00FF","routeType":3,"routeId":"1:175","routeTextColor":"FFFFFF","interlineWithPreviousLeg":false,"tripBlockId":"7","headsign":"Costco","agencyId":"0","tripId":"1:217334","serviceDate":"20180402","from":{"name":"Racine / Havre","stopId":"1:1639","stopCode":"1639","lon":-71.059267,"lat":48.427469,"arrival":1522689421000,"departure":1522689422000,"zoneId":"NA","stopIndex":1,"stopSequence":2,"vertexType":"TRANSIT"},"to":{"name":"boul. Talbot (no. 1494) (Tim-Horton)","stopId":"1:1854","stopCode":"1854","lon":-71.060941,"lat":48.402118,"arrival":1522690376000,"departure":1522690377000,"zoneId":"NA","stopIndex":21,"stopSequence":22,"vertexType":"TRANSIT"},"legGeometry":{"points":"_oqfHlwupLBkAOsHAg@bAYUwMKoE@mB@kJ@iFbEf@xEj@iCtYp@r@z@`ABBvHtHXRx@l@VwAvAgB\\qBIuAC]g@yEzDuLbBbBvAxAMx@|@v@`A~@Xw@~D~DPxFZtA~ApE`N{LpFmEb@[ROl@[vDQXKfA[|@q@fAsBlEmMr@sBhCsKz@dAjB|@dM`GzCvAXrCr@~Gx@]PEr@ObACn@FrBb@|@Ch@Kx@U~HsB^KZ|DJpII~Fa@rFUzBi@bDUxAm@nCcAlDM^RTfD`D","length":78},"routeShortName":"175","routeLongName":"Term. Chic / Costco","rentedBike":false,"transitLeg":true,"duration":954.0,"steps":[]},{"startTime":1522690377000,"endTime":1522690549000,"departureDelay":0,"arrivalDelay":0,"realTime":false,"distance":221.529,"pathway":false,"mode":"WALK","route":"","agencyTimeZoneOffset":-14400000,"interlineWithPreviousLeg":false,"from":{"name":"boul. Talbot (no. 1494) (Tim-Horton)","stopId":"1:1854","stopCode":"1854","lon":-71.060941,"lat":48.402118,"arrival":1522690376000,"departure":1522690377000,"zoneId":"NA","stopIndex":21,"stopSequence":22,"vertexType":"TRANSIT"},"to":{"name":"Destination","lon":-71.062841,"lat":48.401546,"arrival":1522690549000,"orig":"","vertexType":"NORMAL"},"legGeometry":{"points":"}olfHhavpLjAhAvBtB}AhE","length":4},"rentedBike":false,"transitLeg":false,"duration":172.0,"steps":[{"distance":130.24,"relativeDirection":"DEPART","streetName":"Boulevard Talbot","absoluteDirection":"SOUTHWEST","stayOn":false,"area":false,"bogusName":false,"lon":-71.06084575275527,"lat":48.40207691199218,"elevation":[]},{"distance":91.289,"relativeDirection":"RIGHT","streetName":"road","absoluteDirection":"NORTHWEST","stayOn":false,"area":false,"bogusName":false,"lon":-71.06180710000001,"lat":48.4010948,"elevation":[]}]}],"tooSloped":false},{"duration":1742,"startTime":1522689150000,"endTime":1522690892000,"walkTime":599,"transitTime":1141,"waitingTime":2,"walkDistance":757.6471127756591,"walkLimitExceeded":false,"elevationLost":0.0,"elevationGained":0.0,"transfers":0,"legs":[{"startTime":1522689150000,"endTime":1522689417000,"departureDelay":0,"arrivalDelay":0,"realTime":false,"distance":329.98400000000004,"pathway":false,"mode":"WALK","route":"","agencyTimeZoneOffset":-14400000,"interlineWithPreviousLeg":false,"from":{"name":"Origin","lon":-71.06147699,"lat":48.427668,"departure":1522689150000,"orig":"","vertexType":"NORMAL"},"to":{"name":"Conservatoire (Jacques-Cartier)","stopId":"1:560","stopCode":"560","lon":-71.061503,"lat":48.426285,"arrival":1522689417000,"departure":1522689418000,"zoneId":"NA","stopIndex":2,"stopSequence":3,"vertexType":"TRANSIT"},"legGeometry":{"points":"{oqfHbevpLGA@m@JqFlAD^@fAP`@z@TVPZC~C","length":11},"rentedBike":false,"transitLeg":false,"duration":267.0,"steps":[{"distance":3.953,"relativeDirection":"DEPART","streetName":"alley","absoluteDirection":"NORTH","stayOn":false,"area":false,"bogusName":false,"lon":-71.06145049552407,"lat":48.42766718037407,"elevation":[]},{"distance":106.57400000000001,"relativeDirection":"RIGHT","streetName":"Rue Racine Est","absoluteDirection":"EAST","stayOn":false,"area":false,"bogusName":false,"lon":-71.061448,"lat":48.427702700000005,"elevation":[]},{"distance":101.49900000000001,"relativeDirection":"RIGHT","streetName":"Rue La Fontaine","absoluteDirection":"SOUTH","stayOn":false,"area":false,"bogusName":false,"lon":-71.0600075,"lat":48.4276324,"elevation":[]},{"distance":58.538,"relativeDirection":"SLIGHTLY_RIGHT","streetName":"Rue La Fontaine","absoluteDirection":"SOUTHWEST","stayOn":true,"area":false,"bogusName":false,"lon":-71.0601336,"lat":48.4267252,"elevation":[]},{"distance":59.42,"relativeDirection":"RIGHT","streetName":"Rue Jacques-Cartier Est","absoluteDirection":"WEST","stayOn":false,"area":false,"bogusName":false,"lon":-71.0606935,"lat":48.426355900000004,"elevation":[]}]},{"startTime":1522689418000,"endTime":1522690559000,"departureDelay":0,"arrivalDelay":0,"realTime":false,"distance":4836.874661724965,"pathway":false,"mode":"BUS","route":"15","agencyName":"Société de Transport du Saguenay","agencyUrl":"http://ville.saguenay.ca/fr/services-aux-citoyens/transport-sts","agencyTimeZoneOffset":-14400000,"routeColor":"FF00FF","routeType":3,"routeId":"1:15","routeTextColor":"FFFFFF","interlineWithPreviousLeg":false,"tripBlockId":"33","headsign":"Talbot / Barrette","agencyId":"0","tripId":"1:218185","serviceDate":"20180402","from":{"name":"Conservatoire (Jacques-Cartier)","stopId":"1:560","stopCode":"560","lon":-71.061503,"lat":48.426285,"arrival":1522689417000,"departure":1522689418000,"zoneId":"NA","stopIndex":2,"stopSequence":3,"vertexType":"TRANSIT"},"to":{"name":"Saguenéens  / Bach","stopId":"1:575","stopCode":"575","lon":-71.061104,"lat":48.403689,"arrival":1522690559000,"departure":1522690560000,"zoneId":"NA","stopIndex":23,"stopSequence":24,"vertexType":"TRANSIT"},"legGeometry":{"points":"ahqfHjevpL\\aSN_K^eIrBpBvIpIr@r@\\mBfAaA`@gBOkB_@uF|DyL|DpDQ|@|@z@bA`ATw@dD~Ch@fA@`E~AjGuH`Iy@bBi@dCbEdEjJlJ`HbHlJpJ|J~JdAfALzDNzDrAdBrEKvBEbCv@d@TvFlC|DlBpMlGrB`AM}@hAwEC{B]oBiBmBsH_@_K{H`EgIvCaGfEoItDsH~DeI","length":54},"routeShortName":"15","routeLongName":"Term. Chic / Costco","rentedBike":false,"transitLeg":true,"duration":1141.0,"steps":[]},{"startTime":1522690560000,"endTime":1522690892000,"departureDelay":0,"arrivalDelay":0,"realTime":false,"distance":427.4680000000001,"pathway":false,"mode":"WALK","route":"","agencyTimeZoneOffset":-14400000,"interlineWithPreviousLeg":false,"from":{"name":"Saguenéens  / Bach","stopId":"1:575","stopCode":"575","lon":-71.061104,"lat":48.403689,"arrival":1522690559000,"departure":1522690560000,"zoneId":"NA","stopIndex":23,"stopSequence":24,"vertexType":"TRANSIT"},"to":{"name":"Destination","lon":-71.062841,"lat":48.401546,"arrival":1522690892000,"orig":"","vertexType":"NORMAL"},"legGeometry":{"points":"wylfHfcvpLgAnCRRFJFRDTJ^V\\~CfCRRb@Tt@j@h@f@~@iC`@gA","length":15},"rentedBike":false,"transitLeg":false,"duration":332.0,"steps":[{"distance":66.956,"relativeDirection":"DEPART","streetName":"Rue des Saguenéens","absoluteDirection":"NORTHWEST","stayOn":false,"area":false,"bogusName":false,"lon":-71.0611521754673,"lat":48.403646208471976,"elevation":[]},{"distance":266.117,"relativeDirection":"LEFT","streetName":"Rue Bach","absoluteDirection":"SOUTHWEST","stayOn":false,"area":false,"bogusName":false,"lon":-71.06187870000001,"lat":48.404006700000004,"elevation":[]},{"distance":94.395,"relativeDirection":"LEFT","streetName":"road","absoluteDirection":"SOUTHEAST","stayOn":false,"area":false,"bogusName":true,"lon":-71.06386160000001,"lat":48.402058200000006,"elevation":[]}]}],"tooSloped":false},{"duration":1263,"startTime":1522691086000,"endTime":1522692349000,"walkTime":307,"transitTime":954,"waitingTime":2,"walkDistance":388.14422556099845,"walkLimitExceeded":false,"elevationLost":0.0,"elevationGained":0.0,"transfers":0,"legs":[{"startTime":1522691086000,"endTime":1522691221000,"departureDelay":0,"arrivalDelay":0,"realTime":false,"distance":166.525,"pathway":false,"mode":"WALK","route":"","agencyTimeZoneOffset":-14400000,"interlineWithPreviousLeg":false,"from":{"name":"Origin","lon":-71.06147699,"lat":48.427668,"departure":1522691086000,"orig":"","vertexType":"NORMAL"},"to":{"name":"Racine / Havre","stopId":"1:1639","stopCode":"1639","lon":-71.059267,"lat":48.427469,"arrival":1522691221000,"departure":1522691222000,"zoneId":"NA","stopIndex":1,"stopSequence":2,"vertexType":"TRANSIT"},"legGeometry":{"points":"{oqfHbevpLGA@m@JqFDuAB_A","length":6},"rentedBike":false,"transitLeg":false,"duration":135.0,"steps":[{"distance":3.953,"relativeDirection":"DEPART","streetName":"alley","absoluteDirection":"NORTH","stayOn":false,"area":false,"bogusName":false,"lon":-71.06145049552407,"lat":48.42766718037407,"elevation":[]},{"distance":162.572,"relativeDirection":"RIGHT","streetName":"Rue Racine Est","absoluteDirection":"EAST","stayOn":false,"area":false,"bogusName":false,"lon":-71.061448,"lat":48.427702700000005,"elevation":[]}]},{"startTime":1522691222000,"endTime":1522692176000,"departureDelay":0,"arrivalDelay":0,"realTime":false,"distance":4882.541287827642,"pathway":false,"mode":"BUS","route":"175","agencyName":"Société de Transport du Saguenay","agencyUrl":"http://ville.saguenay.ca/fr/services-aux-citoyens/transport-sts","agencyTimeZoneOffset":-14400000,"routeColor":"FF00FF","routeType":3,"routeId":"1:175","routeTextColor":"FFFFFF","interlineWithPreviousLeg":false,"tripBlockId":"8","headsign":"Costco","agencyId":"0","tripId":"1:217371","serviceDate":"20180402","from":{"name":"Racine / Havre","stopId":"1:1639","stopCode":"1639","lon":-71.059267,"lat":48.427469,"arrival":1522691221000,"departure":1522691222000,"zoneId":"NA","stopIndex":1,"stopSequence":2,"vertexType":"TRANSIT"},"to":{"name":"boul. Talbot (no. 1494) (Tim-Horton)","stopId":"1:1854","stopCode":"1854","lon":-71.060941,"lat":48.402118,"arrival":1522692176000,"departure":1522692177000,"zoneId":"NA","stopIndex":21,"stopSequence":22,"vertexType":"TRANSIT"},"legGeometry":{"points":"_oqfHlwupLBkAOsHAg@bAYUwMKoE@mB@kJ@iFbEf@xEj@iCtYp@r@z@`ABBvHtHXRx@l@VwAvAgB\\qBIuAC]g@yEzDuLbBbBvAxAMx@|@v@`A~@Xw@~D~DPxFZtA~ApE`N{LpFmEb@[ROl@[vDQXKfA[|@q@fAsBlEmMr@sBhCsKz@dAjB|@dM`GzCvAXrCr@~Gx@]PEr@ObACn@FrBb@|@Ch@Kx@U~HsB^KZ|DJpII~Fa@rFUzBi@bDUxAm@nCcAlDM^RTfD`D","length":78},"routeShortName":"175","routeLongName":"Term. Chic / Costco","rentedBike":false,"transitLeg":true,"duration":954.0,"steps":[]},{"startTime":1522692177000,"endTime":1522692349000,"departureDelay":0,"arrivalDelay":0,"realTime":false,"distance":221.529,"pathway":false,"mode":"WALK","route":"","agencyTimeZoneOffset":-14400000,"interlineWithPreviousLeg":false,"from":{"name":"boul. Talbot (no. 1494) (Tim-Horton)","stopId":"1:1854","stopCode":"1854","lon":-71.060941,"lat":48.402118,"arrival":1522692176000,"departure":1522692177000,"zoneId":"NA","stopIndex":21,"stopSequence":22,"vertexType":"TRANSIT"},"to":{"name":"Destination","lon":-71.062841,"lat":48.401546,"arrival":1522692349000,"orig":"","vertexType":"NORMAL"},"legGeometry":{"points":"}olfHhavpLjAhAvBtB}AhE","length":4},"rentedBike":false,"transitLeg":false,"duration":172.0,"steps":[{"distance":130.24,"relativeDirection":"DEPART","streetName":"Boulevard Talbot","absoluteDirection":"SOUTHWEST","stayOn":false,"area":false,"bogusName":false,"lon":-71.06084575275527,"lat":48.40207691199218,"elevation":[]},{"distance":91.289,"relativeDirection":"RIGHT","streetName":"road","absoluteDirection":"NORTHWEST","stayOn":false,"area":false,"bogusName":false,"lon":-71.06180710000001,"lat":48.4010948,"elevation":[]}]}],"tooSloped":false}]},"debugOutput":{"precalculationTime":32,"pathCalculationTime":36,"pathTimes":[17,9,10],"renderingTime":0,"totalTime":68,"timedOut":false},"elevationMetadata":{"ellipsoidToGeoidDifference":-28.885904201182168,"geoidElevation":false}}