{"requestParameters":{"date":"2018/04/02","walkSpeed":"1.33","walkReluctance":"2.0","fromPlace":"48.425881,-71.054137","maxWalkDistance":"3000","waitReluctance":"1.0","carSpeed":"33","numItineraries":"3","waitAtBeginningFactor":"0.4","mode":"TRANSIT,WALK","ignoreRealtimeUpdates":"false","stairsReluctance":"2.0","toPlace":"48.426905,-71.048929","time":"11:0:00"},"plan":{"date":1522681200000,"from":{"name":"Origin","lon":-71.054137,"lat":48.425881,"orig":"","vertexType":"NORMAL"},"to":{"name":"Destination","lon":-71.048929,"lat":48.426905,"orig":"","vertexType":"NORMAL"},"itineraries":[{"duration":363,"startTime":1522681200000,"endTime":1522681563000,"walkTime":363,"transitTime":0,"waitingTime":0,"walkDistance":464.83223308131176,"walkLimitExceeded":false,"elevationLost":0.0,"elevationGained":0.0,"transfers":0,"legs":[{"startTime":1522681200000,"endTime":1522681563000,"departureDelay":0,"arrivalDelay":0,"realTime":false,"distance":464.789,"pathway":false,"mode":"WALK","route":"","agencyTimeZoneOffset":-14400000,"interlineWithPreviousLeg":false,"from":{"name":"Origin","lon":-71.054137,"lat":48.425881,"departure":1522681200000,"orig":"","vertexType":"NORMAL"},"to":{"name":"Destination","lon":-71.048929,"lat":48.426905,"arrival":1522681563000,"orig":"","vertexType":"NORMAL"},"legGeometry":{"points":"edqfHzwtpLLc@Jc@@GNgB@g@FyAHuBXoHmEu@G?qBUC?","length":13},"rentedBike":false,"transitLeg":false,"duration":363.0,"steps":[{"distance":277.85900000000004,"relativeDirection":"DEPART","streetName":"Rue Jacques-Cartier Est","absoluteDirection":"SOUTHEAST","stayOn":false,"area":false,"bogusName":false,"lon":-71.0542117324672,"lat":48.42579546140323,"elevation":[]},{"distance":186.93,"relativeDirection":"LEFT","streetName":"Rue Saint-Vallier","absoluteDirection":"NORTH","stayOn":false,"area":false,"bogusName":false,"lon":-71.0505352,"lat":48.4253415,"elevation":[]}]}],"tooSloped":false},{"duration":230,"startTime":1522681346000,"endTime":1522681576000,"walkTime":146,"transitTime":82,"waitingTime":2,"walkDistance":174.31724059839837,"walkLimitExceeded":false,"elevationLost":0.0,"elevationGained":0.0,"transfers":0,"legs":[{"startTime":1522681346000,"endTime":1522681417000,"departureDelay":0,"arrivalDelay":0,"realTime":false,"distance":85.165,"pathway":false,"mode":"WALK","route":"","agencyTimeZoneOffset":-14400000,"interlineWithPreviousLeg":false,"from":{"name":"Origin","lon":-71.054137,"lat":48.425881,"departure":1522681346000,"orig":"","vertexType":"NORMAL"},"to":{"name":"Bégin / Jacques-Cartier","stopId":"1:561","stopCode":"561","lon":-71.05511,"lat":48.425555,"arrival":1522681417000,"departure":1522681418000,"zoneId":"NA","stopIndex":18,"stopSequence":19,"vertexType":"TRANSIT"},"legGeometry":{"points":"edqfHzwtpLOd@@h@DZJ\\DN`@`@","length":7},"rentedBike":false,"transitLeg":false,"duration":71.0,"steps":[{"distance":16.569,"relativeDirection":"DEPART","streetName":"Rue Jacques-Cartier Est","absoluteDirection":"NORTHWEST","stayOn":false,"area":false,"bogusName":false,"lon":-71.0542117324672,"lat":48.42579546140323,"elevation":[]},{"distance":45.819,"relativeDirection":"SLIGHTLY_LEFT","streetName":"link","absoluteDirection":"WEST","stayOn":false,"area":false,"bogusName":true,"lon":-71.054406,"lat":48.425870200000006,"elevation":[]},{"distance":22.777,"relativeDirection":"SLIGHTLY_LEFT","streetName":"Rue Bégin","absoluteDirection":"SOUTHWEST","stayOn":false,"area":false,"bogusName":false,"lon":-71.05498390000001,"lat":48.425745500000005,"elevation":[]}]},{"startTime":1522681418000,"endTime":1522681500000,"departureDelay":0,"arrivalDelay":0,"realTime":false,"distance":388.10904823120256,"pathway":false,"mode":"BUS","route":"175","agencyName":"Société de Transport du Saguenay","agencyUrl":"http://ville.saguenay.ca/fr/services-aux-citoyens/transport-sts","agencyTimeZoneOffset":-14400000,"routeColor":"FF00FF","routeType":3,"routeId":"1:175","routeTextColor":"FFFFFF","interlineWithPreviousLeg":false,"tripBlockId":"11","headsign":"Terminus Chicoutimi","agencyId":"0","tripId":"1:217470","serviceDate":"20180402","from":{"name":"Bégin / Jacques-Cartier","stopId":"1:561","stopCode":"561","lon":-71.05511,"lat":48.425555,"arrival":1522681417000,"departure":1522681418000,"zoneId":"NA","stopIndex":18,"stopSequence":19,"vertexType":"TRANSIT"},"to":{"name":"Hôpital de Chicoutimi (Saint-Vallier)","stopId":"1:410","stopCode":"410","lon":-71.050193,"lat":48.426282,"arrival":1522681500000,"departure":1522681501000,"zoneId":"NA","stopIndex":20,"stopSequence":21,"vertexType":"TRANSIT"},"legGeometry":{"points":"}bqfH`~tpLg@i@ZiGTmEl@oLaEe@","length":6},"routeShortName":"175","routeLongName":"Term. Chic / Costco","rentedBike":false,"transitLeg":true,"duration":82.0,"steps":[]},{"startTime":1522681501000,"endTime":1522681576000,"departureDelay":0,"arrivalDelay":0,"realTime":false,"distance":89.05600000000001,"pathway":false,"mode":"WALK","route":"","agencyTimeZoneOffset":-14400000,"interlineWithPreviousLeg":false,"from":{"name":"Hôpital de Chicoutimi (Saint-Vallier)","stopId":"1:410","stopCode":"410","lon":-71.050193,"lat":48.426282,"arrival":1522681500000,"departure":1522681501000,"zoneId":"NA","stopIndex":20,"stopSequence":21,"vertexType":"TRANSIT"},"to":{"name":"Destination","lon":-71.048929,"lat":48.426905,"arrival":1522681576000,"orig":"","vertexType":"NORMAL"},"legGeometry":{"points":"egqfHd~spLG?K^G?qBUC?","length":6},"rentedBike":false,"transitLeg":false,"duration":75.0,"steps":[{"distance":4.443,"relativeDirection":"DEPART","streetName":"service road","absoluteDirection":"NORTH","stayOn":false,"area":false,"bogusName":true,"lon":-71.05010794672428,"lat":48.426274963568915,"elevation":[]},{"distance":13.926,"relativeDirection":"LEFT","streetName":"path","absoluteDirection":"NORTHWEST","stayOn":true,"area":false,"bogusName":true,"lon":-71.0501005,"lat":48.426314600000005,"elevation":[]},{"distance":70.68700000000001,"relativeDirection":"RIGHT","streetName":"Rue Saint-Vallier","absoluteDirection":"NORTH","stayOn":false,"area":false,"bogusName":false,"lon":-71.05026840000001,"lat":48.426371800000005,"elevation":[]}]}],"tooSloped":false},{"duration":292,"startTime":1522682159000,"endTime":1522682451000,"walkTime":220,"transitTime":70,"waitingTime":2,"walkDistance":281.0517293219618,"walkLimitExceeded":false,"elevationLost":0.0,"elevationGained":0.0,"transfers":0,"legs":[{"startTime":1522682159000,"endTime":1522682329000,"departureDelay":0,"arrivalDelay":0,"realTime":false,"distance":215.336,"pathway":false,"mode":"WALK","route":"","agencyTimeZoneOffset":-14400000,"interlineWithPreviousLeg":false,"from":{"name":"Origin","lon":-71.054137,"lat":48.425881,"departure":1522682159000,"orig":"","vertexType":"NORMAL"},"to":{"name":"Hôtel-Dieu / Sainte-Famille","stopId":"1:340","stopCode":"340","lon":-71.053062,"lat":48.427336,"arrival":1522682329000,"departure":1522682330000,"zoneId":"NA","stopIndex":4,"stopSequence":5,"vertexType":"TRANSIT"},"legGeometry":{"points":"edqfHzwtpLLc@sD_EkC_@","length":4},"rentedBike":false,"transitLeg":false,"duration":170.0,"steps":[{"distance":14.8,"relativeDirection":"DEPART","streetName":"Rue Jacques-Cartier Est","absoluteDirection":"SOUTHEAST","stayOn":false,"area":false,"bogusName":false,"lon":-71.0542117324672,"lat":48.42579546140323,"elevation":[]},{"distance":122.44,"relativeDirection":"LEFT","streetName":"Rue Parent","absoluteDirection":"NORTHEAST","stayOn":false,"area":false,"bogusName":false,"lon":-71.05403820000001,"lat":48.4257287,"elevation":[]},{"distance":78.096,"relativeDirection":"SLIGHTLY_LEFT","streetName":"Rue Saint-Famille","absoluteDirection":"NORTH","stayOn":false,"area":false,"bogusName":false,"lon":-71.05307830000001,"lat":48.4266269,"elevation":[]}]},{"startTime":1522682330000,"endTime":1522682400000,"departureDelay":0,"arrivalDelay":0,"realTime":false,"distance":256.13784558534877,"pathway":false,"mode":"BUS","route":"10","agencyName":"Société de Transport du Saguenay","agencyUrl":"http://ville.saguenay.ca/fr/services-aux-citoyens/transport-sts","agencyTimeZoneOffset":-14400000,"routeColor":"0000FF","routeType":3,"routeId":"1:10","routeTextColor":"FFFFFF","interlineWithPreviousLeg":false,"tripBlockId":"29","headsign":"Terminus UQAC","agencyId":"0","tripId":"1:218061","serviceDate":"20180402","from":{"name":"Hôtel-Dieu / Sainte-Famille","stopId":"1:340","stopCode":"340","lon":-71.053062,"lat":48.427336,"arrival":1522682329000,"departure":1522682330000,"zoneId":"NA","stopIndex":4,"stopSequence":5,"vertexType":"TRANSIT"},"to":{"name":"Hôpital de Chicoutimi (Saint-Vallier)","stopId":"1:342","stopCode":"342","lon":-71.050416,"lat":48.426429,"arrival":1522682400000,"departure":1522682401000,"zoneId":"NA","stopIndex":6,"stopSequence":7,"vertexType":"TRANSIT"},"legGeometry":{"points":"mnqfHtptpL?eH?cAEuEDO^AjD`@","length":7},"routeShortName":"10","routeLongName":"Notre-Dame du Saguenay","rentedBike":false,"transitLeg":true,"duration":70.0,"steps":[]},{"startTime":1522682401000,"endTime":1522682451000,"departureDelay":0,"arrivalDelay":0,"realTime":false,"distance":65.674,"pathway":false,"mode":"WALK","route":"","agencyTimeZoneOffset":-14400000,"interlineWithPreviousLeg":false,"from":{"name":"Hôpital de Chicoutimi (Saint-Vallier)","stopId":"1:342","stopCode":"342","lon":-71.050416,"lat":48.426429,"arrival":1522682400000,"departure":1522682401000,"zoneId":"NA","stopIndex":6,"stopSequence":7,"vertexType":"TRANSIT"},"to":{"name":"Destination","lon":-71.048929,"lat":48.426905,"arrival":1522682451000,"orig":"","vertexType":"NORMAL"},"legGeometry":{"points":"ahqfHd_tpLqBUC?","length":3},"rentedBike":false,"transitLeg":false,"duration":50.0,"steps":[{"distance":65.674,"relativeDirection":"DEPART","streetName":"Rue Saint-Vallier","absoluteDirection":"NORTH","stayOn":false,"area":false,"bogusName":false,"lon":-71.05026027647143,"lat":48.426416552989835,"elevation":[]}]}],"tooSloped":false}]},"debugOutput":{"precalculationTime":40,"pathCalculationTime":18,"pathTimes":[8,7,3],"renderingTime":0,"totalTime":58,"timedOut":false},"elevationMetadata":{"ellipsoidToGeoidDifference":-28.885904201182168,"geoidElevation":false}}