{"requestParameters":{"date":"2018/04/02","walkSpeed":"1.33","walkReluctance":"2.0","fromPlace":"48.43745,-71.06138699","maxWalkDistance":"3000","waitReluctance":"1.0","carSpeed":"33","numItineraries":"3","waitAtBeginningFactor":"0.4","mode":"TRANSIT,WALK","ignoreRealtimeUpdates":"false","stairsReluctance":"2.0","toPlace":"48.443416,-71.07852499","time":"14:5:00"},"plan":{"date":1522692300000,"from":{"name":"Origin","lon":-71.06138699,"lat":48.43745,"orig":"","vertexType":"NORMAL"},"to":{"name":"Destination","lon":-71.07852499,"lat":48.443416,"orig":"","vertexType":"NORMAL"},"itineraries":[{"duration":1233,"startTime":1522692320000,"endTime":1522693553000,"walkTime":1099,"transitTime":132,"waitingTime":2,"walkDistance":1393.5033608927574,"walkLimitExceeded":false,"elevationLost":0.0,"elevationGained":0.0,"transfers":0,"legs":[{"startTime":1522692320000,"endTime":1522693232000,"departureDelay":0,"arrivalDelay":0,"realTime":false,"distance":1157.3670000000002,"pathway":false,"mode":"WALK","route":"","agencyTimeZoneOffset":-14400000,"interlineWithPreviousLeg":false,"from":{"name":"Origin","lon":-71.06138699,"lat":48.43745,"departure":1522692320000,"orig":"","vertexType":"NORMAL"},"to":{"name":"Roussel / Carillon","stopId":"1:678","stopCode":"678","lon":-71.074116,"lat":48.437686,"arrival":1522693232000,"departure":1522693233000,"zoneId":"NA","stopIndex":3,"stopSequence":4,"vertexType":"TRANSIT"},"legGeometry":{"points":"{ksfHfevpLGh@Vh@@r@cFcBFv@Dn@N|@Rz@Jb@Tr@X~@H^Lb@x@fDJpC@xA@R?dACvCE?C@ABCBAD?D?D@F?@@BBBB@Q~Ai@~CGj@Ch@A^@ZFd@F\\HXD\\BLDnAAp@Cr@APKlAEf@A`@@HDn@@p@@v@?L?n@AbAGdB?p@AP","length":60},"rentedBike":false,"transitLeg":false,"duration":912.0,"steps":[{"distance":56.313,"relativeDirection":"DEPART","streetName":"path","absoluteDirection":"WEST","stayOn":false,"area":false,"bogusName":false,"lon":-71.06147041104263,"lat":48.43726209181293,"elevation":[]},{"distance":132.169,"relativeDirection":"RIGHT","streetName":"Boulevard de Tadoussac","absoluteDirection":"NORTH","stayOn":false,"area":false,"bogusName":false,"lon":-71.0621543,"lat":48.4371765,"elevation":[]},{"distance":968.885,"relativeDirection":"HARD_LEFT","streetName":"Rue Roussel","absoluteDirection":"WEST","stayOn":false,"area":false,"bogusName":false,"lon":-71.0616517,"lat":48.4383174,"elevation":[]}]},{"startTime":1522693233000,"endTime":1522693365000,"departureDelay":0,"arrivalDelay":0,"realTime":false,"distance":813.025069993083,"pathway":false,"mode":"BUS","route":"20","agencyName":"Société de Transport du Saguenay","agencyUrl":"http://ville.saguenay.ca/fr/services-aux-citoyens/transport-sts","agencyTimeZoneOffset":-14400000,"routeColor":"0000FF","routeType":3,"routeId":"1:20","routeTextColor":"FFFFFF","interlineWithPreviousLeg":false,"tripBlockId":"1","headsign":"Terminus Chicoutimi","agencyId":"0","tripId":"1:217145","serviceDate":"20180402","from":{"name":"Roussel / Carillon","stopId":"1:678","stopCode":"678","lon":-71.074116,"lat":48.437686,"arrival":1522693232000,"departure":1522693233000,"zoneId":"NA","stopIndex":3,"stopSequence":4,"vertexType":"TRANSIT"},"to":{"name":"Sauvé / St-Albert","stopId":"1:681","stopCode":"681","lon":-71.079877,"lat":48.443248,"arrival":1522693365000,"departure":1522693366000,"zoneId":"NA","stopIndex":6,"stopSequence":7,"vertexType":"TRANSIT"},"legGeometry":{"points":"gnsfHhtxpLE`AIdBK`AOdAMd@EJKR}B~Bw@`Bs@dB]bAWb@q@jAaB|BkA~A}@nAu@IIAe@Cs@Fy@DWA[EUGyCgAU~@","length":27},"routeShortName":"20","routeLongName":"Sainte-Claire","rentedBike":false,"transitLeg":true,"duration":132.0,"steps":[]},{"startTime":1522693366000,"endTime":1522693553000,"departureDelay":0,"arrivalDelay":0,"realTime":false,"distance":235.84199999999998,"pathway":false,"mode":"WALK","route":"","agencyTimeZoneOffset":-14400000,"interlineWithPreviousLeg":false,"from":{"name":"Sauvé / St-Albert","stopId":"1:681","stopCode":"681","lon":-71.079877,"lat":48.443248,"arrival":1522693365000,"departure":1522693366000,"zoneId":"NA","stopIndex":6,"stopSequence":7,"vertexType":"TRANSIT"},"to":{"name":"Destination","lon":-71.07852499,"lat":48.443416,"arrival":1522693553000,"orig":"","vertexType":"NORMAL"},"legGeometry":{"points":"_qtfHnxypLVy@iCw@]MUKc@a@bAuD","length":7},"rentedBike":false,"transitLeg":false,"duration":187.0,"steps":[{"distance":25.591,"relativeDirection":"DEPART","streetName":"Rue Sauvé","absoluteDirection":"SOUTHEAST","stayOn":false,"area":false,"bogusName":false,"lon":-71.07991974491567,"lat":48.44320065683302,"elevation":[]},{"distance":133.438,"relativeDirection":"LEFT","streetName":"Rue Saint-Albert","absoluteDirection":"NORTH","stayOn":false,"area":false,"bogusName":false,"lon":-71.07962210000001,"lat":48.4430824,"elevation":[]},{"distance":76.813,"relativeDirection":"RIGHT","streetName":"Boulevard Sainte-Geneviève","absoluteDirection":"SOUTHEAST","stayOn":false,"area":false,"bogusName":false,"lon":-71.0790497,"lat":48.4442132,"elevation":[]}]}],"tooSloped":false},{"duration":1348,"startTime":1522692300000,"endTime":1522693648000,"walkTime":1348,"transitTime":0,"waitingTime":0,"walkDistance":1735.137345856971,"walkLimitExceeded":false,"elevationLost":0.0,"elevationGained":0.0,"transfers":0,"legs":[{"startTime":1522692300000,"endTime":1522693648000,"departureDelay":0,"arrivalDelay":0,"realTime":false,"distance":1734.899,"pathway":false,"mode":"WALK","route":"","agencyTimeZoneOffset":-14400000,"interlineWithPreviousLeg":false,"from":{"name":"Origin","lon":-71.06138699,"lat":48.43745,"departure":1522692300000,"orig":"","vertexType":"NORMAL"},"to":{"name":"Destination","lon":-71.07852499,"lat":48.443416,"arrival":1522693648000,"orig":"","vertexType":"NORMAL"},"legGeometry":{"points":"{ksfHfevpLGh@Vh@@r@cFcBFv@Dn@N|@Rz@Jb@Tr@X~@H^Lb@x@fDJpC@xA@R?dACvCE?C@ABCBAD?DK?e@^u@x@wAbCw@tA[l@Yj@Sd@i@z@c@z@wAnC{AvCaIhORRsAhC_DbG}@vBiAhDc@bB","length":45},"rentedBike":false,"transitLeg":false,"duration":1348.0,"steps":[{"distance":56.313,"relativeDirection":"DEPART","streetName":"path","absoluteDirection":"WEST","stayOn":false,"area":false,"bogusName":false,"lon":-71.06147041104263,"lat":48.43726209181293,"elevation":[]},{"distance":132.169,"relativeDirection":"RIGHT","streetName":"Boulevard de Tadoussac","absoluteDirection":"NORTH","stayOn":false,"area":false,"bogusName":false,"lon":-71.0621543,"lat":48.4371765,"elevation":[]},{"distance":428.865,"relativeDirection":"HARD_LEFT","streetName":"Rue Roussel","absoluteDirection":"WEST","stayOn":false,"area":false,"bogusName":false,"lon":-71.0616517,"lat":48.4383174,"elevation":[]},{"distance":14.306,"relativeDirection":"CIRCLE_COUNTERCLOCKWISE","streetName":"Rue Roussel","absoluteDirection":"NORTHWEST","exit":"1","stayOn":false,"area":false,"bogusName":false,"lon":-71.0671123,"lat":48.437299200000005,"elevation":[]},{"distance":6.516,"relativeDirection":"RIGHT","streetName":"R 172","absoluteDirection":"NORTH","stayOn":false,"area":false,"bogusName":true,"lon":-71.0672278,"lat":48.4373869,"elevation":[]},{"distance":236.639,"relativeDirection":"SLIGHTLY_LEFT","streetName":"R 172","absoluteDirection":"NORTHWEST","stayOn":true,"area":false,"bogusName":true,"lon":-71.0672291,"lat":48.4374455,"elevation":[]},{"distance":860.091,"relativeDirection":"CONTINUE","streetName":"Boulevard Sainte-Geneviève","absoluteDirection":"NORTHWEST","stayOn":false,"area":false,"bogusName":false,"lon":-71.0694016,"lat":48.4389935,"elevation":[]}]}],"tooSloped":false},{"duration":1248,"startTime":1522693927000,"endTime":1522695175000,"walkTime":379,"transitTime":867,"waitingTime":2,"walkDistance":484.3781428536857,"walkLimitExceeded":false,"elevationLost":0.0,"elevationGained":0.0,"transfers":0,"legs":[{"startTime":1522693927000,"endTime":1522694151000,"departureDelay":0,"arrivalDelay":0,"realTime":false,"distance":290.369,"pathway":false,"mode":"WALK","route":"","agencyTimeZoneOffset":-14400000,"interlineWithPreviousLeg":false,"from":{"name":"Origin","lon":-71.06138699,"lat":48.43745,"departure":1522693927000,"orig":"","vertexType":"NORMAL"},"to":{"name":"boul. Tadoussac / Bourget","stopId":"1:831","stopCode":"831","lon":-71.061384,"lat":48.43922,"arrival":1522694151000,"departure":1522694152000,"zoneId":"NA","stopIndex":30,"stopSequence":31,"vertexType":"TRANSIT"},"legGeometry":{"points":"{ksfHfevpLGh@Vh@@r@cFcBoDmA","length":6},"rentedBike":false,"transitLeg":false,"duration":224.0,"steps":[{"distance":56.313,"relativeDirection":"DEPART","streetName":"path","absoluteDirection":"WEST","stayOn":false,"area":false,"bogusName":false,"lon":-71.06147041104263,"lat":48.43726209181293,"elevation":[]},{"distance":234.056,"relativeDirection":"RIGHT","streetName":"Boulevard de Tadoussac","absoluteDirection":"NORTH","stayOn":false,"area":false,"bogusName":false,"lon":-71.0621543,"lat":48.4371765,"elevation":[]}]},{"startTime":1522694152000,"endTime":1522694460000,"departureDelay":0,"arrivalDelay":0,"realTime":false,"distance":1919.7483661497956,"pathway":false,"mode":"BUS","route":"24","agencyName":"Société de Transport du Saguenay","agencyUrl":"http://ville.saguenay.ca/fr/services-aux-citoyens/transport-sts","agencyTimeZoneOffset":-14400000,"routeColor":"00FF00","routeType":3,"routeId":"1:24","routeTextColor":"000000","interlineWithPreviousLeg":false,"tripBlockId":"5","headsign":"Terminus Chicoutimi","agencyId":"0","tripId":"1:217265","serviceDate":"20180402","from":{"name":"boul. Tadoussac / Bourget","stopId":"1:831","stopCode":"831","lon":-71.061384,"lat":48.43922,"arrival":1522694151000,"departure":1522694152000,"zoneId":"NA","stopIndex":30,"stopSequence":31,"vertexType":"TRANSIT"},"to":{"name":"Terminus Chicoutimi","stopId":"1:1289","stopCode":"1289","lon":-71.066163,"lat":48.428677,"arrival":1522694460000,"departure":1522694700000,"zoneId":"NA","stopIndex":35,"stopSequence":36,"vertexType":"TRANSIT"},"legGeometry":{"points":"}wsfHxcvpLvDpALnBJt@Pp@Nj@l@tBHZPn@`@rBNnAFr@DbA?bB@jABzA?p@A???A???A?A???A@??A?A@??A@?@A??@A@???@A@?@?@A@?@?@?@?@???@?@?@?@?@?@@@?@?@@@?@@@?@@@?@@?@@??@@@?E`@Kr@]rACVEl@I|AAr@JbAWJe@FUAM?a@Ke@YYWWa@v@}@RQPMz@k@tAe@REZG^Af@@X@VF`@Jn@XbClAr@Xt\\`PrAb@pA^hBTjAFj@Pb@JPHLLJNJRFXDT?X?ZEVEVKTMNMHMFOB}DWSGOSYcAN}FFkAF}DJyDPwGvAHN_HDiB@m@","length":131},"routeShortName":"24","routeLongName":"Saint-Luc","rentedBike":false,"transitLeg":true,"duration":308.0,"steps":[]},{"startTime":1522694700000,"endTime":1522695019000,"departureDelay":0,"arrivalDelay":0,"realTime":false,"distance":2130.322985965611,"pathway":false,"mode":"BUS","route":"23","agencyName":"Société de Transport du Saguenay","agencyUrl":"http://ville.saguenay.ca/fr/services-aux-citoyens/transport-sts","agencyTimeZoneOffset":-14400000,"routeColor":"FF00FF","routeType":3,"routeId":"1:23","routeTextColor":"FFFFFF","interlineWithPreviousLeg":true,"tripBlockId":"5","headsign":"Terminus Chicoutimi","agencyId":"0","tripId":"1:217266","serviceDate":"20180402","from":{"name":"Terminus Chicoutimi","stopId":"1:1289","stopCode":"1289","lon":-71.066163,"lat":48.428677,"arrival":1522694460000,"departure":1522694700000,"zoneId":"NA","stopIndex":0,"stopSequence":1,"vertexType":"TRANSIT"},"to":{"name":"Place de la Colline (boul. Ste-Geneviève)","stopId":"1:706","stopCode":"706","lon":-71.080094,"lat":48.44485,"arrival":1522695019000,"departure":1522695020000,"zoneId":"NA","stopIndex":2,"stopSequence":3,"vertexType":"TRANSIT"},"legGeometry":{"points":"kwqfHjbwpLF_CkAOYCm@rRO\\WjGOfGCRK^KJMHQB_AMg@Gw`@eR}@g@u@Su@Ia@Ck@Dm@HwAf@c@VeAx@iAlAU^[d@eLtTsAvB_CvEuAnCmBlE}@|B_BvFoC`J","length":36},"routeShortName":"23","routeLongName":"Côte Verdun via Aréna du Plateau","rentedBike":false,"transitLeg":true,"duration":319.0,"steps":[]},{"startTime":1522695020000,"endTime":1522695175000,"departureDelay":0,"arrivalDelay":0,"realTime":false,"distance":193.902,"pathway":false,"mode":"WALK","route":"","agencyTimeZoneOffset":-14400000,"interlineWithPreviousLeg":false,"from":{"name":"Place de la Colline (boul. Ste-Geneviève)","stopId":"1:706","stopCode":"706","lon":-71.080094,"lat":48.44485,"arrival":1522695019000,"departure":1522695020000,"zoneId":"NA","stopIndex":2,"stopSequence":3,"vertexType":"TRANSIT"},"to":{"name":"Destination","lon":-71.07852499,"lat":48.443416,"arrival":1522695175000,"orig":"","vertexType":"NORMAL"},"legGeometry":{"points":"a{tfHxyypLdBkFPRbAuD","length":4},"rentedBike":false,"transitLeg":false,"duration":155.0,"steps":[{"distance":193.902,"relativeDirection":"DEPART","streetName":"Boulevard Sainte-Geneviève","absoluteDirection":"SOUTHEAST","stayOn":false,"area":false,"bogusName":false,"lon":-71.08012797466124,"lat":48.44481509343017,"elevation":[]}]}],"tooSloped":false}]},"debugOutput":{"precalculationTime":29,"pathCalculationTime":26,"pathTimes":[20,3,3],"renderingTime":0,"totalTime":55,"timedOut":false},"elevationMetadata":{"ellipsoidToGeoidDifference":-28.885904201182168,"geoidElevation":false}}