{"requestParameters":{"date":"2018/04/02","walkSpeed":"1.33","walkReluctance":"2.0","fromPlace":"48.449901,-71.076722","maxWalkDistance":"3000","waitReluctance":"1.0","carSpeed":"33","numItineraries":"3","waitAtBeginningFactor":"0.4","mode":"TRANSIT,WALK","ignoreRealtimeUpdates":"false","stairsReluctance":"2.0","toPlace":"48.444385,-71.081322","time":"14:0:00"},"plan":{"date":1522692000000,"from":{"name":"Origin","lon":-71.076722,"lat":48.449901,"orig":"","vertexType":"NORMAL"},"to":{"name":"Destination","lon":-71.081322,"lat":48.444385,"orig":"","vertexType":"NORMAL"},"itineraries":[{"duration":951,"startTime":1522692000000,"endTime":1522692951000,"walkTime":951,"transitTime":0,"waitingTime":0,"walkDistance":1234.055263154498,"walkLimitExceeded":false,"elevationLost":0.0,"elevationGained":0.0,"transfers":0,"legs":[{"startTime":1522692000000,"endTime":1522692951000,"departureDelay":0,"arrivalDelay":0,"realTime":false,"distance":1233.95,"pathway":false,"mode":"WALK","route":"","agencyTimeZoneOffset":-14400000,"interlineWithPreviousLeg":false,"from":{"name":"Origin","lon":-71.076722,"lat":48.449901,"departure":1522692000000,"orig":"","vertexType":"NORMAL"},"to":{"name":"Destination","lon":-71.081322,"lat":48.444385,"arrival":1522692951000,"orig":"","vertexType":"NORMAL"},"legGeometry":{"points":"q~ufH~jypLJPDFj@r@n@~@^f@DFh@z@Z\\zAfBILOh@S~@I\\ETIz@Ed@CT?f@DzANpCLpCDl@Fn@H^JV\\|@FPJTv@lBN\\`D{DtDmEj@s@|AoB|A_C`BcDnBhB","length":38},"rentedBike":false,"transitLeg":false,"duration":951.0,"steps":[{"distance":223.233,"relativeDirection":"DEPART","streetName":"Rue Pinel","absoluteDirection":"SOUTHWEST","stayOn":false,"area":false,"bogusName":false,"lon":-71.07775609904292,"lat":48.450498414117945,"elevation":[]},{"distance":447.54999999999995,"relativeDirection":"RIGHT","streetName":"Rue Saint-Gérard","absoluteDirection":"NORTHWEST","stayOn":false,"area":false,"bogusName":false,"lon":-71.079678,"lat":48.4489492,"elevation":[]},{"distance":489.394,"relativeDirection":"LEFT","streetName":"Boulevard Sainte-Geneviève","absoluteDirection":"SOUTHEAST","stayOn":false,"area":false,"bogusName":false,"lon":-71.08521470000001,"lat":48.448382800000005,"elevation":[]},{"distance":73.773,"relativeDirection":"RIGHT","streetName":"Rue David","absoluteDirection":"SOUTHWEST","stayOn":false,"area":false,"bogusName":false,"lon":-71.08096180000001,"lat":48.445019,"elevation":[]}]}],"tooSloped":false},{"duration":867,"startTime":1522693341000,"endTime":1522694208000,"walkTime":103,"transitTime":762,"waitingTime":2,"walkDistance":130.72296240488689,"walkLimitExceeded":false,"elevationLost":0.0,"elevationGained":0.0,"transfers":0,"legs":[{"startTime":1522693341000,"endTime":1522693352000,"departureDelay":0,"arrivalDelay":0,"realTime":false,"distance":14.37,"pathway":false,"mode":"WALK","route":"","agencyTimeZoneOffset":-14400000,"interlineWithPreviousLeg":false,"from":{"name":"Origin","lon":-71.076722,"lat":48.449901,"departure":1522693341000,"orig":"","vertexType":"NORMAL"},"to":{"name":"Pinel (no. 163)","stopId":"1:730","stopCode":"730","lon":-71.077992,"lat":48.45046,"arrival":1522693352000,"departure":1522693353000,"zoneId":"NA","stopIndex":6,"stopSequence":7,"vertexType":"TRANSIT"},"legGeometry":{"points":"q~ufH~jypLJPDF","length":3},"rentedBike":false,"transitLeg":false,"duration":11.0,"steps":[{"distance":14.37,"relativeDirection":"DEPART","streetName":"Rue Pinel","absoluteDirection":"SOUTHWEST","stayOn":false,"area":false,"bogusName":false,"lon":-71.07775609904292,"lat":48.450498414117945,"elevation":[]}]},{"startTime":1522693353000,"endTime":1522694115000,"departureDelay":0,"arrivalDelay":0,"realTime":false,"distance":6717.1643681273445,"pathway":false,"mode":"BUS","route":"21","agencyName":"Société de Transport du Saguenay","agencyUrl":"http://ville.saguenay.ca/fr/services-aux-citoyens/transport-sts","agencyTimeZoneOffset":-14400000,"routeColor":"556B2F","routeType":3,"routeId":"1:21","routeTextColor":"FFFFFF","interlineWithPreviousLeg":false,"tripBlockId":"2","headsign":"Terminus Chicoutimi","agencyId":"0","tripId":"1:217171","serviceDate":"20180402","from":{"name":"Pinel (no. 163)","stopId":"1:730","stopCode":"730","lon":-71.077992,"lat":48.45046,"arrival":1522693352000,"departure":1522693353000,"zoneId":"NA","stopIndex":6,"stopSequence":7,"vertexType":"TRANSIT"},"to":{"name":"Place de la Colline (boul. Ste-Geneviève)","stopId":"1:2009","stopCode":"2009","lon":-71.080522,"lat":48.444768,"arrival":1522694115000,"departure":1522694116000,"zoneId":"NA","stopIndex":31,"stopSequence":32,"vertexType":"TRANSIT"},"legGeometry":{"points":"a~ufH|kypLpGlIPNa@fAOn@Gd@UtBA^A^R`E^fGRbAVl@P`@BFNb@t@xAiCvCMP}@jAY`@q@jAm@jA}@rBmArD?Tu@|CYzAET{AxOQhBQ~Aa@~DQ~A[xCM~AiAjLo@vGk@tFe@vEu@xHgAdLIl@UhCyAnPQhBK`Ae@fFm@vGS`Co@`HQhBQlBAHo@fHc@fEc@`FiDiAOSIMOQOa@GQWs@Gf@A\\@r@DRFBDCb@e@NPHLNR|Bt@j@Rb@aF\\eDDa@n@gH@Ib@wEn@aH?A`AwK^}DDi@\\kD~AyQN_BHm@fAeLd@{Et@uHZyC~@sJjAyLJqAZyCP_BZuCDi@b@iExAsO@E^qBt@}CJGnAmDx@iBpAcCb@o@Zi@h@o@`AiArFkG`FgGdBwBt@cAbAmBx@eBj@eB","length":122},"routeShortName":"21","routeLongName":"Boul. Ste-Geneviève/Élie","rentedBike":false,"transitLeg":true,"duration":762.0,"steps":[]},{"startTime":1522694116000,"endTime":1522694208000,"departureDelay":0,"arrivalDelay":0,"realTime":false,"distance":116.318,"pathway":false,"mode":"WALK","route":"","agencyTimeZoneOffset":-14400000,"interlineWithPreviousLeg":false,"from":{"name":"Place de la Colline (boul. Ste-Geneviève)","stopId":"1:2009","stopCode":"2009","lon":-71.080522,"lat":48.444768,"arrival":1522694115000,"departure":1522694116000,"zoneId":"NA","stopIndex":31,"stopSequence":32,"vertexType":"TRANSIT"},"to":{"name":"Destination","lon":-71.081322,"lat":48.444385,"arrival":1522694208000,"orig":"","vertexType":"NORMAL"},"legGeometry":{"points":"_{tfH`|ypLi@~AnBhB","length":3},"rentedBike":false,"transitLeg":false,"duration":92.0,"steps":[{"distance":42.545,"relativeDirection":"DEPART","streetName":"Boulevard Sainte-Geneviève","absoluteDirection":"NORTHWEST","stayOn":false,"area":false,"bogusName":false,"lon":-71.0804866067989,"lat":48.44480212337132,"elevation":[]},{"distance":73.773,"relativeDirection":"LEFT","streetName":"Rue David","absoluteDirection":"SOUTHWEST","stayOn":false,"area":false,"bogusName":false,"lon":-71.08096180000001,"lat":48.445019,"elevation":[]}]}],"tooSloped":false}]},"debugOutput":{"precalculationTime":20,"pathCalculationTime":21,"pathTimes":[6,13,2],"renderingTime":0,"totalTime":41,"timedOut":false},"elevationMetadata":{"ellipsoidToGeoidDifference":-28.885904201182168,"geoidElevation":false}}