{"requestParameters":{"date":"2018/04/02","walkSpeed":"1.33","walkReluctance":"2.0","fromPlace":"48.340885,-71.116622","maxWalkDistance":"3000","waitReluctance":"1.0","carSpeed":"33","numItineraries":"3","waitAtBeginningFactor":"0.4","mode":"TRANSIT,WALK","ignoreRealtimeUpdates":"false","stairsReluctance":"2.0","toPlace":"48.316512,-71.13472099","time":"12:0:00"},"plan":{"date":1522684800000,"from":{"name":"Origin","lon":-71.116622,"lat":48.340885,"orig":"","vertexType":"NORMAL"},"to":{"name":"Destination","lon":-71.13472099,"lat":48.316512,"orig":"","vertexType":"NORMAL"},"itineraries":[{"duration":1648,"startTime":1522686365000,"endTime":1522688013000,"walkTime":1441,"transitTime":205,"waitingTime":2,"walkDistance":1910.119263157725,"walkLimitExceeded":false,"elevationLost":0.0,"elevationGained":0.0,"transfers":0,"legs":[{"startTime":1522686365000,"endTime":1522687594000,"departureDelay":0,"arrivalDelay":0,"realTime":false,"distance":1634.053,"pathway":false,"mode":"WALK","route":"","agencyTimeZoneOffset":-14400000,"interlineWithPreviousLeg":false,"from":{"name":"Origin","lon":-71.116622,"lat":48.340885,"departure":1522686365000,"orig":"","vertexType":"NORMAL"},"to":{"name":"ch. St-Paul (no. 4667)","stopId":"1:1766","stopCode":"1766","lon":-71.13789,"lat":48.344563,"arrival":1522687594000,"departure":1522687595000,"zoneId":"NA","stopIndex":6,"stopSequence":7,"vertexType":"TRANSIT"},"legGeometry":{"points":"cx_fHvwaqL{L|]a@`C@vG@dIa@vDkKn\\}AzBuE~@gCbAeCdDiAlC","length":12},"rentedBike":false,"transitLeg":false,"duration":1229.0,"steps":[{"distance":1634.053,"relativeDirection":"DEPART","streetName":"Rue Saint-Paul","absoluteDirection":"NORTHWEST","stayOn":false,"area":false,"bogusName":false,"lon":-71.12075511271483,"lat":48.336821961347376,"elevation":[]}]},{"startTime":1522687595000,"endTime":1522687800000,"departureDelay":0,"arrivalDelay":0,"realTime":false,"distance":3198.518580474011,"pathway":false,"mode":"BUS","route":"60","agencyName":"Société de Transport du Saguenay","agencyUrl":"http://ville.saguenay.ca/fr/services-aux-citoyens/transport-sts","agencyTimeZoneOffset":-14400000,"routeColor":"00FFFF","routeType":3,"routeId":"1:60","routeTextColor":"000000","interlineWithPreviousLeg":false,"tripBlockId":"73","headsign":"Costco","agencyId":"0","tripId":"1:218620","serviceDate":"20180402","from":{"name":"ch. St-Paul (no. 4667)","stopId":"1:1766","stopCode":"1766","lon":-71.13789,"lat":48.344563,"arrival":1522687594000,"departure":1522687595000,"zoneId":"NA","stopIndex":6,"stopSequence":7,"vertexType":"TRANSIT"},"to":{"name":"Boulevard (no. 1557)","stopId":"1:2127","stopCode":"2127","lon":-71.130498,"lat":48.316221,"arrival":1522687800000,"departure":1522687801000,"zoneId":"NA","stopIndex":7,"stopSequence":8,"vertexType":"TRANSIT"},"legGeometry":{"points":"uhafHrbeqLl@{Aj@oATe@b@i@\\Y\\Qd@QvDy@r@Ud@Up@i@Z[X]^i@LUL_@^gAxGgUVaAPq@PaAL{@Fq@@eACoBKwFAiCD_AFe@V_AbVqq@Pw@bl@bm@~A|AtE|DnEnDjDdCf`@vVbCdBnAfAjClCpDkJjAgD","length":44},"routeShortName":"60","routeLongName":"Portage des Roches Nord","rentedBike":false,"transitLeg":true,"duration":205.0,"steps":[]},{"startTime":1522687801000,"endTime":1522688013000,"departureDelay":0,"arrivalDelay":0,"realTime":false,"distance":276.061,"pathway":false,"mode":"WALK","route":"","agencyTimeZoneOffset":-14400000,"interlineWithPreviousLeg":false,"from":{"name":"Boulevard (no. 1557)","stopId":"1:2127","stopCode":"2127","lon":-71.130498,"lat":48.316221,"arrival":1522687800000,"departure":1522687801000,"zoneId":"NA","stopIndex":7,"stopSequence":8,"vertexType":"TRANSIT"},"to":{"name":"Destination","lon":-71.13472099,"lat":48.316512,"arrival":1522688013000,"orig":"","vertexType":"NORMAL"},"legGeometry":{"points":"yw{eHdtcqLaDfJ}@bC]p@]dA","length":5},"rentedBike":false,"transitLeg":false,"duration":212.0,"steps":[{"distance":276.061,"relativeDirection":"DEPART","streetName":"Rue du Boulevard","absoluteDirection":"NORTHWEST","stayOn":false,"area":false,"bogusName":false,"lon":-71.13042411256752,"lat":48.31629385824829,"elevation":[]}]}],"tooSloped":false},{"duration":1444,"startTime":1522697256000,"endTime":1522698700000,"walkTime":1268,"transitTime":174,"waitingTime":2,"walkDistance":1685.0210000000002,"walkLimitExceeded":false,"elevationLost":0.0,"elevationGained":0.0,"transfers":0,"legs":[{"startTime":1522697256000,"endTime":1522698485000,"departureDelay":0,"arrivalDelay":0,"realTime":false,"distance":1634.053,"pathway":false,"mode":"WALK","route":"","agencyTimeZoneOffset":-14400000,"interlineWithPreviousLeg":false,"from":{"name":"Origin","lon":-71.116622,"lat":48.340885,"departure":1522697256000,"orig":"","vertexType":"NORMAL"},"to":{"name":"ch. St-Paul (no. 4667)","stopId":"1:1766","stopCode":"1766","lon":-71.13789,"lat":48.344563,"arrival":1522698485000,"departure":1522698486000,"zoneId":"NA","stopIndex":7,"stopSequence":8,"vertexType":"TRANSIT"},"legGeometry":{"points":"cx_fHvwaqL{L|]a@`C@vG@dIa@vDkKn\\}AzBuE~@gCbAeCdDiAlC","length":12},"rentedBike":false,"transitLeg":false,"duration":1229.0,"steps":[{"distance":1634.053,"relativeDirection":"DEPART","streetName":"Rue Saint-Paul","absoluteDirection":"NORTHWEST","stayOn":false,"area":false,"bogusName":false,"lon":-71.12075511271483,"lat":48.336821961347376,"elevation":[]}]},{"startTime":1522698486000,"endTime":1522698660000,"departureDelay":0,"arrivalDelay":0,"realTime":false,"distance":2965.502623931657,"pathway":false,"mode":"BUS","route":"60","agencyName":"Société de Transport du Saguenay","agencyUrl":"http://ville.saguenay.ca/fr/services-aux-citoyens/transport-sts","agencyTimeZoneOffset":-14400000,"routeColor":"00FFFF","routeType":3,"routeId":"1:60","routeTextColor":"000000","interlineWithPreviousLeg":false,"tripBlockId":"95","headsign":"chemin Portageurs","agencyId":"0","tripId":"1:218716","serviceDate":"20180402","from":{"name":"ch. St-Paul (no. 4667)","stopId":"1:1766","stopCode":"1766","lon":-71.13789,"lat":48.344563,"arrival":1522698485000,"departure":1522698486000,"zoneId":"NA","stopIndex":7,"stopSequence":8,"vertexType":"TRANSIT"},"to":{"name":"Boulevard / boul. Talbot","stopId":"1:1767","stopCode":"1767","lon":-71.134005,"lat":48.318019,"arrival":1522698660000,"departure":1522698661000,"zoneId":"NA","stopIndex":8,"stopSequence":9,"vertexType":"TRANSIT"},"legGeometry":{"points":"uhafHrbeqLl@{Aj@oATe@b@i@\\Y\\Qd@QvDy@r@Ud@Up@i@Z[X]^i@LUL_@^gAxGgUVaAPq@PaAL{@Fq@@eACoBKwFAiCD_AFe@V_AbVqq@Pw@bl@bm@~A|AtE|DnEnDjDdCf`@vVbCdBnAfAjClCsA|D","length":43},"routeShortName":"60","routeLongName":"Portage des Roches Nord","rentedBike":false,"transitLeg":true,"duration":174.0,"steps":[]},{"startTime":1522698661000,"endTime":1522698700000,"departureDelay":0,"arrivalDelay":0,"realTime":false,"distance":50.968,"pathway":false,"mode":"WALK","route":"","agencyTimeZoneOffset":-14400000,"interlineWithPreviousLeg":false,"from":{"name":"Boulevard / boul. Talbot","stopId":"1:1767","stopCode":"1767","lon":-71.134005,"lat":48.318019,"arrival":1522698660000,"departure":1522698661000,"zoneId":"NA","stopIndex":8,"stopSequence":9,"vertexType":"TRANSIT"},"to":{"name":"Destination","lon":-71.13472099,"lat":48.316512,"arrival":1522698700000,"orig":"","vertexType":"NORMAL"},"legGeometry":{"points":"ib|eHxjdqLr@oB","length":2},"rentedBike":false,"transitLeg":false,"duration":39.0,"steps":[{"distance":50.968,"relativeDirection":"DEPART","streetName":"Rue du Boulevard","absoluteDirection":"SOUTHEAST","stayOn":false,"area":false,"bogusName":false,"lon":-71.13404981163029,"lat":48.317975470719105,"elevation":[]}]}],"tooSloped":false},{"duration":1444,"startTime":1522700856000,"endTime":1522702300000,"walkTime":1268,"transitTime":174,"waitingTime":2,"walkDistance":1685.0210000000002,"walkLimitExceeded":false,"elevationLost":0.0,"elevationGained":0.0,"transfers":0,"legs":[{"startTime":1522700856000,"endTime":1522702085000,"departureDelay":0,"arrivalDelay":0,"realTime":false,"distance":1634.053,"pathway":false,"mode":"WALK","route":"","agencyTimeZoneOffset":-14400000,"interlineWithPreviousLeg":false,"from":{"name":"Origin","lon":-71.116622,"lat":48.340885,"departure":1522700856000,"orig":"","vertexType":"NORMAL"},"to":{"name":"ch. St-Paul (no. 4667)","stopId":"1:1766","stopCode":"1766","lon":-71.13789,"lat":48.344563,"arrival":1522702085000,"departure":1522702086000,"zoneId":"NA","stopIndex":7,"stopSequence":8,"vertexType":"TRANSIT"},"legGeometry":{"points":"cx_fHvwaqL{L|]a@`C@vG@dIa@vDkKn\\}AzBuE~@gCbAeCdDiAlC","length":12},"rentedBike":false,"transitLeg":false,"duration":1229.0,"steps":[{"distance":1634.053,"relativeDirection":"DEPART","streetName":"Rue Saint-Paul","absoluteDirection":"NORTHWEST","stayOn":false,"area":false,"bogusName":false,"lon":-71.12075511271483,"lat":48.336821961347376,"elevation":[]}]},{"startTime":1522702086000,"endTime":1522702260000,"departureDelay":0,"arrivalDelay":0,"realTime":false,"distance":2965.502623931657,"pathway":false,"mode":"BUS","route":"60","agencyName":"Société de Transport du Saguenay","agencyUrl":"http://ville.saguenay.ca/fr/services-aux-citoyens/transport-sts","agencyTimeZoneOffset":-14400000,"routeColor":"00FFFF","routeType":3,"routeId":"1:60","routeTextColor":"000000","interlineWithPreviousLeg":false,"tripBlockId":"107","headsign":"chemin Portageurs","agencyId":"0","tripId":"1:218823","serviceDate":"20180402","from":{"name":"ch. St-Paul (no. 4667)","stopId":"1:1766","stopCode":"1766","lon":-71.13789,"lat":48.344563,"arrival":1522702085000,"departure":1522702086000,"zoneId":"NA","stopIndex":7,"stopSequence":8,"vertexType":"TRANSIT"},"to":{"name":"Boulevard / boul. Talbot","stopId":"1:1767","stopCode":"1767","lon":-71.134005,"lat":48.318019,"arrival":1522702260000,"departure":1522702261000,"zoneId":"NA","stopIndex":8,"stopSequence":9,"vertexType":"TRANSIT"},"legGeometry":{"points":"uhafHrbeqLl@{Aj@oATe@b@i@\\Y\\Qd@QvDy@r@Ud@Up@i@Z[X]^i@LUL_@^gAxGgUVaAPq@PaAL{@Fq@@eACoBKwFAiCD_AFe@V_AbVqq@Pw@bl@bm@~A|AtE|DnEnDjDdCf`@vVbCdBnAfAjClCsA|D","length":43},"routeShortName":"60","routeLongName":"Portage des Roches Nord","rentedBike":false,"transitLeg":true,"duration":174.0,"steps":[]},{"startTime":1522702261000,"endTime":1522702300000,"departureDelay":0,"arrivalDelay":0,"realTime":false,"distance":50.968,"pathway":false,"mode":"WALK","route":"","agencyTimeZoneOffset":-14400000,"interlineWithPreviousLeg":false,"from":{"name":"Boulevard / boul. Talbot","stopId":"1:1767","stopCode":"1767","lon":-71.134005,"lat":48.318019,"arrival":1522702260000,"departure":1522702261000,"zoneId":"NA","stopIndex":8,"stopSequence":9,"vertexType":"TRANSIT"},"to":{"name":"Destination","lon":-71.13472099,"lat":48.316512,"arrival":1522702300000,"orig":"","vertexType":"NORMAL"},"legGeometry":{"points":"ib|eHxjdqLr@oB","length":2},"rentedBike":false,"transitLeg":false,"duration":39.0,"steps":[{"distance":50.968,"relativeDirection":"DEPART","streetName":"Rue du Boulevard","absoluteDirection":"SOUTHEAST","stayOn":false,"area":false,"bogusName":false,"lon":-71.13404981163029,"lat":48.317975470719105,"elevation":[]}]}],"tooSloped":false}]},"debugOutput":{"precalculationTime":1,"pathCalculationTime":1,"pathTimes":[1,0,0],"renderingTime":1,"totalTime":3,"timedOut":false},"elevationMetadata":{"ellipsoidToGeoidDifference":-28.885904201182168,"geoidElevation":false}}