{"requestParameters":{"date":"2018/04/02","walkSpeed":"1.33","walkReluctance":"2.0","fromPlace":"48.480147,-71.054728","maxWalkDistance":"3000","waitReluctance":"1.0","carSpeed":"33","numItineraries":"3","waitAtBeginningFactor":"0.4","mode":"TRANSIT,WALK","ignoreRealtimeUpdates":"false","stairsReluctance":"2.0","toPlace":"48.428838,-71.06388099","time":"7:0:00"},"plan":{"date":1522666800000,"from":{"name":"Origin","lon":-71.054728,"lat":48.480147,"orig":"","vertexType":"NORMAL"},"to":{"name":"Destination","lon":-71.06388099,"lat":48.428838,"orig":"","vertexType":"NORMAL"},"itineraries":[{"duration":2413,"startTime":1522701159000,"endTime":1522703572000,"walkTime":1423,"transitTime":988,"waitingTime":2,"walkDistance":1859.7868421008477,"walkLimitExceeded":false,"elevationLost":0.0,"elevationGained":0.0,"transfers":0,"legs":[{"startTime":1522701159000,"endTime":1522702291000,"departureDelay":0,"arrivalDelay":0,"realTime":false,"distance":1489.667,"pathway":false,"mode":"WALK","route":"","agencyTimeZoneOffset":-14400000,"interlineWithPreviousLeg":false,"from":{"name":"Origin","lon":-71.054728,"lat":48.480147,"departure":1522701159000,"orig":"","vertexType":"NORMAL"},"to":{"name":"Madoc / ch. Ruisseaux","stopId":"1:1797","stopCode":"1797","lon":-71.047484,"lat":48.491855,"arrival":1522702291000,"departure":1522702292000,"zoneId":"NA","stopIndex":19,"stopSequence":20,"vertexType":"TRANSIT"},"legGeometry":{"points":"_y{fHj_upLmDT{Aa@sD_DaD_AcDgBCCQKs@sAM_@i@_C}@wGm@yAu@}@_CyAgEwAi[uKA?","length":18},"rentedBike":false,"transitLeg":false,"duration":1132.0,"steps":[{"distance":1489.667,"relativeDirection":"DEPART","streetName":"Route Madoc","absoluteDirection":"NORTH","stayOn":false,"area":false,"bogusName":false,"lon":-71.055413,"lat":48.480326,"elevation":[]}]},{"startTime":1522702292000,"endTime":1522703280000,"departureDelay":0,"arrivalDelay":0,"realTime":false,"distance":7627.711615858298,"pathway":false,"mode":"BUS","route":"27","agencyName":"Société de Transport du Saguenay","agencyUrl":"http://ville.saguenay.ca/fr/services-aux-citoyens/transport-sts","agencyTimeZoneOffset":-14400000,"routeColor":"00FFFF","routeType":3,"routeId":"1:27","routeTextColor":"000000","interlineWithPreviousLeg":false,"tripBlockId":"97","headsign":"Terminus Chicoutimi","agencyId":"0","tripId":"1:218741","serviceDate":"20180402","from":{"name":"Madoc / ch. Ruisseaux","stopId":"1:1797","stopCode":"1797","lon":-71.047484,"lat":48.491855,"arrival":1522702291000,"departure":1522702292000,"zoneId":"NA","stopIndex":19,"stopSequence":20,"vertexType":"TRANSIT"},"to":{"name":"Terminus Chicoutimi","stopId":"1:1289","stopCode":"1289","lon":-71.066163,"lat":48.428677,"arrival":1522703280000,"departure":1522703281000,"zoneId":"NA","stopIndex":24,"stopSequence":25,"vertexType":"TRANSIT"},"legGeometry":{"points":"}`~fHbmspL|CfAvBt@tRzG^J`A`@dA\\`@L\\LPJRJLFLLPJj@t@JLLRLRDHFNDNDPBPDJLn@j@pE`@lBN`@Pb@HNLNNPVPJHb@ZvAp@j@RjBd@XHj@`@LRRTt@x@NJ^Rr@Zj@PN?^A`@E`AYTCXDZNLHjAfAh@Xx@`@`APf@Fz@B~@?v@K~Ao@`@WVWb@g@b@u@`@cAVyAJc@Ha@Nc@Te@^q@RWLILIb@MRA|CGf@BRDXLzJnFhB|ATNl@Xp@NjA^RHRNZ\\Xh@x@hDRn@Xj@VXNRPPNJXPVJn@NvE?\\Bl@DTD`Bb@jCz@\\F`@Hb@Br@BX@~@HRDNFJH\\`@^\\n@XVHXBTKNUlBqPH[FOHKHGJEZFjYhJd@R^P`At@XJTF^@h@A]~D~TxH~@^|InDji@fTv@^HFNNJPHTHTDVvBrWN|A`ExJZ|@tAnDP\\h@~@PVrCmFhHqN~@eBr@cAt@_Av@}@RQPMz@k@tAe@REZG^Af@@X@VF`@Jn@XbClAr@Xt\\`PrAb@pA^hBTjAFj@Pb@JPHLLJNJRFXDT?X?ZEVEVKTMNMHMFOB}DWSGOSYcAN}FFkAF}DJyDd@wPV_HdALD@An@d@D","length":217},"routeShortName":"27","routeLongName":"St-Honoré","rentedBike":false,"transitLeg":true,"duration":988.0,"steps":[]},{"startTime":1522703281000,"endTime":1522703572000,"departureDelay":0,"arrivalDelay":0,"realTime":false,"distance":369.98299999999995,"pathway":false,"mode":"WALK","route":"","agencyTimeZoneOffset":-14400000,"interlineWithPreviousLeg":false,"from":{"name":"Terminus Chicoutimi","stopId":"1:1289","stopCode":"1289","lon":-71.066163,"lat":48.428677,"arrival":1522703280000,"departure":1522703281000,"zoneId":"NA","stopIndex":24,"stopSequence":25,"vertexType":"TRANSIT"},"to":{"name":"Destination","lon":-71.06388099,"lat":48.428838,"arrival":1522703572000,"orig":"","vertexType":"NORMAL"},"legGeometry":{"points":"{uqfHb~vpL_BMOAh@yL@c@TRr@@@v@m@GClB","length":10},"rentedBike":false,"transitLeg":false,"duration":291.0,"steps":[{"distance":62.342,"relativeDirection":"DEPART","streetName":"Rue Morin","absoluteDirection":"NORTH","stayOn":false,"area":false,"bogusName":false,"lon":-71.0654590096484,"lat":48.428628638946556,"elevation":[]},{"distance":177.949,"relativeDirection":"RIGHT","streetName":"Boulevard du Saguenay Est","absoluteDirection":"EAST","stayOn":false,"area":false,"bogusName":false,"lon":-71.0653717,"lat":48.429186300000005,"elevation":[]},{"distance":43.025,"relativeDirection":"RIGHT","streetName":"service road","absoluteDirection":"SOUTHWEST","stayOn":false,"area":false,"bogusName":true,"lon":-71.06298410000001,"lat":48.428960200000006,"elevation":[]},{"distance":86.667,"relativeDirection":"RIGHT","streetName":"service road","absoluteDirection":"WEST","stayOn":true,"area":false,"bogusName":false,"lon":-71.0630939,"lat":48.42859240000001,"elevation":[]}]}],"tooSloped":false},{"duration":2355,"startTime":1522705237000,"endTime":1522707592000,"walkTime":1423,"transitTime":930,"waitingTime":2,"walkDistance":1859.7868421008477,"walkLimitExceeded":false,"elevationLost":0.0,"elevationGained":0.0,"transfers":0,"legs":[{"startTime":1522705237000,"endTime":1522706369000,"departureDelay":0,"arrivalDelay":0,"realTime":false,"distance":1489.667,"pathway":false,"mode":"WALK","route":"","agencyTimeZoneOffset":-14400000,"interlineWithPreviousLeg":false,"from":{"name":"Origin","lon":-71.054728,"lat":48.480147,"departure":1522705237000,"orig":"","vertexType":"NORMAL"},"to":{"name":"Madoc / ch. Ruisseaux","stopId":"1:1797","stopCode":"1797","lon":-71.047484,"lat":48.491855,"arrival":1522706369000,"departure":1522706370000,"zoneId":"NA","stopIndex":28,"stopSequence":29,"vertexType":"TRANSIT"},"legGeometry":{"points":"_y{fHj_upLmDT{Aa@sD_DaD_AcDgBCCQKs@sAM_@i@_C}@wGm@yAu@}@_CyAgEwAi[uKA?","length":18},"rentedBike":false,"transitLeg":false,"duration":1132.0,"steps":[{"distance":1489.667,"relativeDirection":"DEPART","streetName":"Route Madoc","absoluteDirection":"NORTH","stayOn":false,"area":false,"bogusName":false,"lon":-71.055413,"lat":48.480326,"elevation":[]}]},{"startTime":1522706370000,"endTime":1522707300000,"departureDelay":0,"arrivalDelay":0,"realTime":false,"distance":7627.711615858298,"pathway":false,"mode":"BUS","route":"27","agencyName":"Société de Transport du Saguenay","agencyUrl":"http://ville.saguenay.ca/fr/services-aux-citoyens/transport-sts","agencyTimeZoneOffset":-14400000,"routeColor":"00FFFF","routeType":3,"routeId":"1:27","routeTextColor":"000000","interlineWithPreviousLeg":false,"tripBlockId":"100","headsign":"Terminus Chicoutimi","agencyId":"0","tripId":"1:218761","serviceDate":"20180402","from":{"name":"Madoc / ch. Ruisseaux","stopId":"1:1797","stopCode":"1797","lon":-71.047484,"lat":48.491855,"arrival":1522706369000,"departure":1522706370000,"zoneId":"NA","stopIndex":28,"stopSequence":29,"vertexType":"TRANSIT"},"to":{"name":"Terminus Chicoutimi","stopId":"1:1289","stopCode":"1289","lon":-71.066163,"lat":48.428677,"arrival":1522707300000,"departure":1522707301000,"zoneId":"NA","stopIndex":33,"stopSequence":34,"vertexType":"TRANSIT"},"legGeometry":{"points":"{`~fH~lspLla@jNdCtAx@fAf@nAv@dGd@rBX`Ax@vAvDrB|C|@tD`DnA`@xDWnCfBf@Zp@TfAVpAFf@AZA~@IdA_@d@Yf@]b@s@r@aAPk@LcAXoAp@oBz@aARQX?`@EbBA|@Ad@BTHfAh@fCpAt@^rAt@x@f@hAdAdAz@p@PjATf@Xz@z@^lAf@`DHb@DZPh@r@l@lAt@~@ZvARf@A^OVKZUXKXEt@Fn@Jr@PbAb@tAf@^J|@DlA?`AJf@b@h@f@jAf@VBTEPUHWj@eFp@qHVs@l@WzBv@~UxHd@R^P`At@XJTF^@h@A]~D~TxH~@^|InDji@fTv@^HFNNJPHTHTDVvBrWN|A`ExJZ|@tAnDP\\h@~@PVXk@xBaEhHqN~@eBr@cAt@_Av@}@RQPMz@k@tAe@REZG^Af@@X@VF`@Jn@XbClAr@Xt\\`PrAb@pA^|@Jj@HjAFj@Pb@JPHLLJNJRFXDT?X?ZEVEVKTMNMHMFOB}DWSGOSYcAN}FFkAF}DJyDd@wPBi@RuFjANAn@d@D","length":172},"routeShortName":"27","routeLongName":"St-Honoré","rentedBike":false,"transitLeg":true,"duration":930.0,"steps":[]},{"startTime":1522707301000,"endTime":1522707592000,"departureDelay":0,"arrivalDelay":0,"realTime":false,"distance":369.98299999999995,"pathway":false,"mode":"WALK","route":"","agencyTimeZoneOffset":-14400000,"interlineWithPreviousLeg":false,"from":{"name":"Terminus Chicoutimi","stopId":"1:1289","stopCode":"1289","lon":-71.066163,"lat":48.428677,"arrival":1522707300000,"departure":1522707301000,"zoneId":"NA","stopIndex":33,"stopSequence":34,"vertexType":"TRANSIT"},"to":{"name":"Destination","lon":-71.06388099,"lat":48.428838,"arrival":1522707592000,"orig":"","vertexType":"NORMAL"},"legGeometry":{"points":"{uqfHb~vpL_BMOAh@yL@c@TRr@@@v@m@GClB","length":10},"rentedBike":false,"transitLeg":false,"duration":291.0,"steps":[{"distance":62.342,"relativeDirection":"DEPART","streetName":"Rue Morin","absoluteDirection":"NORTH","stayOn":false,"area":false,"bogusName":false,"lon":-71.0654590096484,"lat":48.428628638946556,"elevation":[]},{"distance":177.949,"relativeDirection":"RIGHT","streetName":"Boulevard du Saguenay Est","absoluteDirection":"EAST","stayOn":false,"area":false,"bogusName":false,"lon":-71.0653717,"lat":48.429186300000005,"elevation":[]},{"distance":43.025,"relativeDirection":"RIGHT","streetName":"service road","absoluteDirection":"SOUTHWEST","stayOn":false,"area":false,"bogusName":true,"lon":-71.06298410000001,"lat":48.428960200000006,"elevation":[]},{"distance":86.667,"relativeDirection":"RIGHT","streetName":"service road","absoluteDirection":"WEST","stayOn":true,"area":false,"bogusName":false,"lon":-71.0630939,"lat":48.42859240000001,"elevation":[]}]}],"tooSloped":false}]},"debugOutput":{"precalculationTime":21,"pathCalculationTime":4,"pathTimes":[0,3],"renderingTime":0,"totalTime":25,"timedOut":false},"elevationMetadata":{"ellipsoidToGeoidDifference":-28.885904201182168,"geoidElevation":false}}