{"requestParameters":{"date":"2018/04/02","walkSpeed":"1.33","walkReluctance":"2.0","fromPlace":"48.448475,-71.038727","maxWalkDistance":"3000","waitReluctance":"1.0","carSpeed":"33","numItineraries":"3","waitAtBeginningFactor":"0.4","mode":"TRANSIT,WALK","ignoreRealtimeUpdates":"false","stairsReluctance":"2.0","toPlace":"48.442106,-71.059971","time":"17:30:00"},"plan":{"date":1522704600000,"from":{"name":"Origin","lon":-71.038727,"lat":48.448475,"orig":"","vertexType":"NORMAL"},"to":{"name":"Destination","lon":-71.059971,"lat":48.442106,"orig":"","vertexType":"NORMAL"},"itineraries":[{"duration":1723,"startTime":1522704600000,"endTime":1522706323000,"walkTime":1723,"transitTime":0,"waitingTime":0,"walkDistance":2212.7739097643075,"walkLimitExceeded":false,"elevationLost":0.0,"elevationGained":0.0,"transfers":0,"legs":[{"startTime":1522704600000,"endTime":1522706323000,"departureDelay":0,"arrivalDelay":0,"realTime":false,"distance":2212.4600000000005,"pathway":false,"mode":"WALK","route":"","agencyTimeZoneOffset":-14400000,"interlineWithPreviousLeg":false,"from":{"name":"Origin","lon":-71.038727,"lat":48.448475,"departure":1522704600000,"orig":"","vertexType":"NORMAL"},"to":{"name":"Destination","lon":-71.059971,"lat":48.442106,"arrival":1522706323000,"orig":"","vertexType":"NORMAL"},"legGeometry":{"points":"oqufHxtqpLl@R\\JB?O`AAFvBjAt@^T\\Jz@V`@|@CLvCL|C@`@CXa@~CDB|B|@l@Nh@Bh@A`@Ef@Mn@IvCfAFlAFzAZbF@TBd@HdCHv@Fb@NnA@HVbBZdB@Db@dB\\pATr@FPXv@~@`CtAjDHNLZn@fBNb@Jb@@HBL@HFb@Dt@?b@?F?j@AJAXCVIx@Gb@E\\QnAWlBIh@G^G\\E`@Gj@Cv@@h@@d@Bj@B^@LDp@RdBVbDD^BPF\\BL@FL`@BJQRQRKLGNI\\QbAuAe@","length":95},"alerts":[{"alertHeaderText":"Unpaved surface"}],"rentedBike":false,"transitLeg":false,"duration":1723.0,"steps":[{"distance":46.111,"relativeDirection":"DEPART","streetName":"Chemin Raymond","absoluteDirection":"SOUTH","stayOn":false,"area":false,"bogusName":false,"lon":-71.03836710928712,"lat":48.44840851603988,"elevation":[],"alerts":[{"alertHeaderText":"Unpaved surface"}]},{"distance":28.982,"relativeDirection":"RIGHT","streetName":"Rue de Vimy","absoluteDirection":"WEST","stayOn":false,"area":false,"bogusName":false,"lon":-71.03852780000001,"lat":48.448007800000006,"elevation":[]},{"distance":196.89600000000002,"relativeDirection":"LEFT","streetName":"path","absoluteDirection":"SOUTH","stayOn":false,"area":false,"bogusName":true,"lon":-71.0388973,"lat":48.448096500000005,"elevation":[]},{"distance":200.147,"relativeDirection":"RIGHT","streetName":"Rue du Diamant","absoluteDirection":"WEST","stayOn":false,"area":false,"bogusName":false,"lon":-71.0400302,"lat":48.446626,"elevation":[]},{"distance":191.704,"relativeDirection":"LEFT","streetName":"Rue Thibeault","absoluteDirection":"SOUTH","stayOn":false,"area":false,"bogusName":false,"lon":-71.04268900000001,"lat":48.446660300000005,"elevation":[]},{"distance":114.942,"relativeDirection":"CONTINUE","streetName":"path","absoluteDirection":"SOUTH","stayOn":false,"area":false,"bogusName":true,"lon":-71.0430066,"lat":48.4449836,"elevation":[]},{"distance":1303.474,"relativeDirection":"RIGHT","streetName":"Boulevard de Tadoussac","absoluteDirection":"WEST","stayOn":false,"area":false,"bogusName":false,"lon":-71.0433155,"lat":48.443988600000004,"elevation":[]},{"distance":80.529,"relativeDirection":"RIGHT","streetName":"Rue Talon","absoluteDirection":"NORTHWEST","stayOn":false,"area":false,"bogusName":false,"lon":-71.0596842,"lat":48.441320700000006,"elevation":[]},{"distance":49.675,"relativeDirection":"RIGHT","streetName":"Rue du Régent","absoluteDirection":"NORTH","stayOn":false,"area":false,"bogusName":false,"lon":-71.0605235,"lat":48.441746900000005,"elevation":[]}]}],"tooSloped":false},{"duration":1104,"startTime":1522705724000,"endTime":1522706828000,"walkTime":437,"transitTime":665,"waitingTime":2,"walkDistance":550.0666315740224,"walkLimitExceeded":false,"elevationLost":0.0,"elevationGained":0.0,"transfers":0,"legs":[{"startTime":1522705724000,"endTime":1522706043000,"departureDelay":0,"arrivalDelay":0,"realTime":false,"distance":399.937,"pathway":false,"mode":"WALK","route":"","agencyTimeZoneOffset":-14400000,"interlineWithPreviousLeg":false,"from":{"name":"Origin","lon":-71.038727,"lat":48.448475,"departure":1522705724000,"orig":"","vertexType":"NORMAL"},"to":{"name":"Adam / Thibeault","stopId":"1:814","stopCode":"814","lon":-71.042521,"lat":48.448191,"arrival":1522706043000,"departure":1522706044000,"zoneId":"NA","stopIndex":10,"stopSequence":11,"vertexType":"TRANSIT"},"legGeometry":{"points":"oqufHxtqpLl@R\\JB?O`AAFvBjAk@tEGNQp@}@bGW`B","length":12},"alerts":[{"alertHeaderText":"Unpaved surface"}],"rentedBike":false,"transitLeg":false,"duration":319.0,"steps":[{"distance":46.111,"relativeDirection":"DEPART","streetName":"Chemin Raymond","absoluteDirection":"SOUTH","stayOn":false,"area":false,"bogusName":false,"lon":-71.03836710928712,"lat":48.44840851603988,"elevation":[],"alerts":[{"alertHeaderText":"Unpaved surface"}]},{"distance":28.982,"relativeDirection":"RIGHT","streetName":"Rue de Vimy","absoluteDirection":"WEST","stayOn":false,"area":false,"bogusName":false,"lon":-71.03852780000001,"lat":48.448007800000006,"elevation":[]},{"distance":155.755,"relativeDirection":"LEFT","streetName":"path","absoluteDirection":"SOUTH","stayOn":false,"area":false,"bogusName":true,"lon":-71.0388973,"lat":48.448096500000005,"elevation":[]},{"distance":169.089,"relativeDirection":"CONTINUE","streetName":"Rue Adam","absoluteDirection":"NORTHWEST","stayOn":false,"area":false,"bogusName":false,"lon":-71.04034370000001,"lat":48.447717700000005,"elevation":[]}]},{"startTime":1522706044000,"endTime":1522706709000,"departureDelay":0,"arrivalDelay":0,"realTime":false,"distance":4543.676084518636,"pathway":false,"mode":"BUS","route":"24","agencyName":"Société de Transport du Saguenay","agencyUrl":"http://ville.saguenay.ca/fr/services-aux-citoyens/transport-sts","agencyTimeZoneOffset":-14400000,"routeColor":"00FF00","routeType":3,"routeId":"1:24","routeTextColor":"000000","interlineWithPreviousLeg":false,"tripBlockId":"4","headsign":"Terminus Chicoutimi","agencyId":"0","tripId":"1:217245","serviceDate":"20180402","from":{"name":"Adam / Thibeault","stopId":"1:814","stopCode":"814","lon":-71.042521,"lat":48.448191,"arrival":1522706043000,"departure":1522706044000,"zoneId":"NA","stopIndex":10,"stopSequence":11,"vertexType":"TRANSIT"},"to":{"name":"Église St-Luc (boul. Tadoussac)","stopId":"1:830","stopCode":"830","lon":-71.059501,"lat":48.441464,"arrival":1522706709000,"departure":1522706710000,"zoneId":"NA","stopIndex":29,"stopSequence":30,"vertexType":"TRANSIT"},"legGeometry":{"points":"upufHnnrpLV{AxG~BPFhCdAn@Lx@BxA]QeDI}AzAW~ASQoDg@eKG{A?_@?m@?i@LeCJkAd@yGxAqSBs@p@^VRPRbF~FlCxBxB|B~JjK`IjIRPb@^r@d@rAp@\\T\\ZNVRd@J\\Nd@Hf@F`@@DFr@LtAJpB@jAAt@ObEIzAKbBUrBMp@Sn@gAlCk@pAw@fCwB|HCNk@jCeDuAq@UC?mG_CaHiCsJqD_A]VvC\\`Ch@rCj@tBf@bBxDxJN\\bAjCTnAHvA@|@CPIpAe@pDUfBCTEXK~@MxAEn@@v@Bp@Dr@l@~HNlAH\\","length":94},"routeShortName":"24","routeLongName":"Saint-Luc","rentedBike":false,"transitLeg":true,"duration":665.0,"steps":[]},{"startTime":1522706710000,"endTime":1522706828000,"departureDelay":0,"arrivalDelay":0,"realTime":false,"distance":149.97699999999998,"pathway":false,"mode":"WALK","route":"","agencyTimeZoneOffset":-14400000,"interlineWithPreviousLeg":false,"from":{"name":"Église St-Luc (boul. Tadoussac)","stopId":"1:830","stopCode":"830","lon":-71.059501,"lat":48.441464,"arrival":1522706709000,"departure":1522706710000,"zoneId":"NA","stopIndex":29,"stopSequence":30,"vertexType":"TRANSIT"},"to":{"name":"Destination","lon":-71.059971,"lat":48.442106,"arrival":1522706828000,"orig":"","vertexType":"NORMAL"},"legGeometry":{"points":"yetfHrxupLL`@BJQRQRKLGNI\\QbAuAe@","length":10},"rentedBike":false,"transitLeg":false,"duration":118.0,"steps":[{"distance":19.773,"relativeDirection":"DEPART","streetName":"Boulevard de Tadoussac","absoluteDirection":"SOUTHWEST","stayOn":false,"area":false,"bogusName":false,"lon":-71.05945543369864,"lat":48.44141337892131,"elevation":[]},{"distance":80.529,"relativeDirection":"RIGHT","streetName":"Rue Talon","absoluteDirection":"NORTHWEST","stayOn":false,"area":false,"bogusName":false,"lon":-71.0596842,"lat":48.441320700000006,"elevation":[]},{"distance":49.675,"relativeDirection":"RIGHT","streetName":"Rue du Régent","absoluteDirection":"NORTH","stayOn":false,"area":false,"bogusName":false,"lon":-71.0605235,"lat":48.441746900000005,"elevation":[]}]}],"tooSloped":false},{"duration":1104,"startTime":1522707584000,"endTime":1522708688000,"walkTime":437,"transitTime":665,"waitingTime":2,"walkDistance":550.0666315740224,"walkLimitExceeded":false,"elevationLost":0.0,"elevationGained":0.0,"transfers":0,"legs":[{"startTime":1522707584000,"endTime":1522707903000,"departureDelay":0,"arrivalDelay":0,"realTime":false,"distance":399.937,"pathway":false,"mode":"WALK","route":"","agencyTimeZoneOffset":-14400000,"interlineWithPreviousLeg":false,"from":{"name":"Origin","lon":-71.038727,"lat":48.448475,"departure":1522707584000,"orig":"","vertexType":"NORMAL"},"to":{"name":"Adam / Thibeault","stopId":"1:814","stopCode":"814","lon":-71.042521,"lat":48.448191,"arrival":1522707903000,"departure":1522707904000,"zoneId":"NA","stopIndex":10,"stopSequence":11,"vertexType":"TRANSIT"},"legGeometry":{"points":"oqufHxtqpLl@R\\JB?O`AAFvBjAk@tEGNQp@}@bGW`B","length":12},"alerts":[{"alertHeaderText":"Unpaved surface"}],"rentedBike":false,"transitLeg":false,"duration":319.0,"steps":[{"distance":46.111,"relativeDirection":"DEPART","streetName":"Chemin Raymond","absoluteDirection":"SOUTH","stayOn":false,"area":false,"bogusName":false,"lon":-71.03836710928712,"lat":48.44840851603988,"elevation":[],"alerts":[{"alertHeaderText":"Unpaved surface"}]},{"distance":28.982,"relativeDirection":"RIGHT","streetName":"Rue de Vimy","absoluteDirection":"WEST","stayOn":false,"area":false,"bogusName":false,"lon":-71.03852780000001,"lat":48.448007800000006,"elevation":[]},{"distance":155.755,"relativeDirection":"LEFT","streetName":"path","absoluteDirection":"SOUTH","stayOn":false,"area":false,"bogusName":true,"lon":-71.0388973,"lat":48.448096500000005,"elevation":[]},{"distance":169.089,"relativeDirection":"CONTINUE","streetName":"Rue Adam","absoluteDirection":"NORTHWEST","stayOn":false,"area":false,"bogusName":false,"lon":-71.04034370000001,"lat":48.447717700000005,"elevation":[]}]},{"startTime":1522707904000,"endTime":1522708569000,"departureDelay":0,"arrivalDelay":0,"realTime":false,"distance":4543.676084518636,"pathway":false,"mode":"BUS","route":"24","agencyName":"Société de Transport du Saguenay","agencyUrl":"http://ville.saguenay.ca/fr/services-aux-citoyens/transport-sts","agencyTimeZoneOffset":-14400000,"routeColor":"00FF00","routeType":3,"routeId":"1:24","routeTextColor":"000000","interlineWithPreviousLeg":false,"tripBlockId":"5","headsign":"Terminus Chicoutimi","agencyId":"0","tripId":"1:217273","serviceDate":"20180402","from":{"name":"Adam / Thibeault","stopId":"1:814","stopCode":"814","lon":-71.042521,"lat":48.448191,"arrival":1522707903000,"departure":1522707904000,"zoneId":"NA","stopIndex":10,"stopSequence":11,"vertexType":"TRANSIT"},"to":{"name":"Église St-Luc (boul. Tadoussac)","stopId":"1:830","stopCode":"830","lon":-71.059501,"lat":48.441464,"arrival":1522708569000,"departure":1522708570000,"zoneId":"NA","stopIndex":29,"stopSequence":30,"vertexType":"TRANSIT"},"legGeometry":{"points":"upufHnnrpLV{AxG~BPFhCdAn@Lx@BxA]QeDI}AzAW~ASQoDg@eKG{A?_@?m@?i@LeCJkAd@yGxAqSBs@p@^VRPRbF~FlCxBxB|B~JjK`IjIRPb@^r@d@rAp@\\T\\ZNVRd@J\\Nd@Hf@F`@@DFr@LtAJpB@jAAt@ObEIzAKbBUrBMp@Sn@gAlCk@pAw@fCwB|HCNk@jCeDuAq@UC?mG_CaHiCsJqD_A]VvC\\`Ch@rCj@tBf@bBxDxJN\\bAjCTnAHvA@|@CPIpAe@pDUfBCTEXK~@MxAEn@@v@Bp@Dr@l@~HNlAH\\","length":94},"routeShortName":"24","routeLongName":"Saint-Luc","rentedBike":false,"transitLeg":true,"duration":665.0,"steps":[]},{"startTime":1522708570000,"endTime":1522708688000,"departureDelay":0,"arrivalDelay":0,"realTime":false,"distance":149.97699999999998,"pathway":false,"mode":"WALK","route":"","agencyTimeZoneOffset":-14400000,"interlineWithPreviousLeg":false,"from":{"name":"Église St-Luc (boul. Tadoussac)","stopId":"1:830","stopCode":"830","lon":-71.059501,"lat":48.441464,"arrival":1522708569000,"departure":1522708570000,"zoneId":"NA","stopIndex":29,"stopSequence":30,"vertexType":"TRANSIT"},"to":{"name":"Destination","lon":-71.059971,"lat":48.442106,"arrival":1522708688000,"orig":"","vertexType":"NORMAL"},"legGeometry":{"points":"yetfHrxupLL`@BJQRQRKLGNI\\QbAuAe@","length":10},"rentedBike":false,"transitLeg":false,"duration":118.0,"steps":[{"distance":19.773,"relativeDirection":"DEPART","streetName":"Boulevard de Tadoussac","absoluteDirection":"SOUTHWEST","stayOn":false,"area":false,"bogusName":false,"lon":-71.05945543369864,"lat":48.44141337892131,"elevation":[]},{"distance":80.529,"relativeDirection":"RIGHT","streetName":"Rue Talon","absoluteDirection":"NORTHWEST","stayOn":false,"area":false,"bogusName":false,"lon":-71.0596842,"lat":48.441320700000006,"elevation":[]},{"distance":49.675,"relativeDirection":"RIGHT","streetName":"Rue du Régent","absoluteDirection":"NORTH","stayOn":false,"area":false,"bogusName":false,"lon":-71.0605235,"lat":48.441746900000005,"elevation":[]}]}],"tooSloped":false}]},"debugOutput":{"precalculationTime":10,"pathCalculationTime":14,"pathTimes":[6,7,1],"renderingTime":1,"totalTime":25,"timedOut":false},"elevationMetadata":{"ellipsoidToGeoidDifference":-28.885904201182168,"geoidElevation":false}}