{"requestParameters":{"date":"2018/04/02","walkSpeed":"1.33","walkReluctance":"2.0","fromPlace":"48.428766,-71.067439","maxWalkDistance":"3000","waitReluctance":"1.0","carSpeed":"33","numItineraries":"3","waitAtBeginningFactor":"0.4","mode":"TRANSIT,WALK","ignoreRealtimeUpdates":"false","stairsReluctance":"2.0","toPlace":"48.40924,-71.05257199","time":"10:0:00"},"plan":{"date":1522677600000,"from":{"name":"Origin","lon":-71.067439,"lat":48.428766,"orig":"","vertexType":"NORMAL"},"to":{"name":"Destination","lon":-71.05257199,"lat":48.40924,"orig":"","vertexType":"NORMAL"},"itineraries":[{"duration":1380,"startTime":1522678294000,"endTime":1522679674000,"walkTime":595,"transitTime":783,"waitingTime":2,"walkDistance":754.0144962341965,"walkLimitExceeded":false,"elevationLost":0.0,"elevationGained":0.0,"transfers":0,"legs":[{"startTime":1522678294000,"endTime":1522678499000,"departureDelay":0,"arrivalDelay":0,"realTime":false,"distance":254.988,"pathway":false,"mode":"WALK","route":"","agencyTimeZoneOffset":-14400000,"interlineWithPreviousLeg":false,"from":{"name":"Origin","lon":-71.067439,"lat":48.428766,"departure":1522678294000,"orig":"","vertexType":"NORMAL"},"to":{"name":"Terminus Chicoutimi","stopId":"1:1289","stopCode":"1289","lon":-71.066163,"lat":48.428677,"arrival":1522678499000,"departure":1522678500000,"zoneId":"NA","stopIndex":0,"stopSequence":1,"vertexType":"TRANSIT"},"legGeometry":{"points":"{wqfHjjwpLDmBsAQXoFBg@N@~AL","length":7},"rentedBike":false,"transitLeg":false,"duration":205.0,"steps":[{"distance":40.985,"relativeDirection":"DEPART","streetName":"Rue Smith Est","absoluteDirection":"EAST","stayOn":false,"area":false,"bogusName":false,"lon":-71.06741500602136,"lat":48.428949466700935,"elevation":[]},{"distance":46.661,"relativeDirection":"LEFT","streetName":"Rue Tessier","absoluteDirection":"NORTH","stayOn":false,"area":false,"bogusName":false,"lon":-71.06686160000001,"lat":48.428917600000005,"elevation":[]},{"distance":105.0,"relativeDirection":"RIGHT","streetName":"Boulevard du Saguenay Est","absoluteDirection":"EAST","stayOn":false,"area":false,"bogusName":false,"lon":-71.0667774,"lat":48.429333500000006,"elevation":[]},{"distance":62.342,"relativeDirection":"RIGHT","streetName":"Rue Morin","absoluteDirection":"SOUTH","stayOn":false,"area":false,"bogusName":false,"lon":-71.0653717,"lat":48.429186300000005,"elevation":[]}]},{"startTime":1522678500000,"endTime":1522679283000,"departureDelay":0,"arrivalDelay":0,"realTime":false,"distance":3542.2693364457004,"pathway":false,"mode":"BUS","route":"175","agencyName":"Société de Transport du Saguenay","agencyUrl":"http://ville.saguenay.ca/fr/services-aux-citoyens/transport-sts","agencyTimeZoneOffset":-14400000,"routeColor":"FF00FF","routeType":3,"routeId":"1:175","routeTextColor":"FFFFFF","interlineWithPreviousLeg":false,"tripBlockId":"7","headsign":"Costco","agencyId":"0","tripId":"1:217328","serviceDate":"20180402","from":{"name":"Terminus Chicoutimi","stopId":"1:1289","stopCode":"1289","lon":-71.066163,"lat":48.428677,"arrival":1522678499000,"departure":1522678500000,"zoneId":"NA","stopIndex":0,"stopSequence":1,"vertexType":"TRANSIT"},"to":{"name":"boul. Université / Murdock","stopId":"1:80","stopCode":"80","lon":-71.050111,"lat":48.411498,"arrival":1522679283000,"departure":1522679284000,"zoneId":"NA","stopIndex":14,"stopSequence":15,"vertexType":"TRANSIT"},"legGeometry":{"points":"kvqfH~awpL~CgBbAqa@FwCBkAOsHAg@bAYUwMKoE@mB@kJ@iFbEf@xEj@iCtYp@r@z@`ABBvHtHXRx@l@VwAvAgB\\qBIuAC]g@yEzDuLbBbBvAxAMx@|@v@`A~@Xw@~D~DPxFZtA~ApE`N{LpFmEb@[ROl@[vDQXKfA[|@q@fAsBlEmM","length":50},"routeShortName":"175","routeLongName":"Term. Chic / Costco","rentedBike":false,"transitLeg":true,"duration":783.0,"steps":[]},{"startTime":1522679284000,"endTime":1522679674000,"departureDelay":0,"arrivalDelay":0,"realTime":false,"distance":498.82800000000003,"pathway":false,"mode":"WALK","route":"","agencyTimeZoneOffset":-14400000,"interlineWithPreviousLeg":false,"from":{"name":"boul. Université / Murdock","stopId":"1:80","stopCode":"80","lon":-71.050111,"lat":48.411498,"arrival":1522679283000,"departure":1522679284000,"zoneId":"NA","stopIndex":14,"stopSequence":15,"vertexType":"TRANSIT"},"to":{"name":"Destination","lon":-71.05257199,"lat":48.40924,"arrival":1522679674000,"orig":"","vertexType":"NORMAL"},"legGeometry":{"points":"aknfH|}spL}AlELJx@|@bDfDjDlDDKb@iAt@sB@Ez@z@","length":11},"rentedBike":false,"transitLeg":false,"duration":390.0,"steps":[{"distance":91.298,"relativeDirection":"DEPART","streetName":"Boulevard de l'Université","absoluteDirection":"NORTHWEST","stayOn":false,"area":false,"bogusName":false,"lon":-71.05006857152243,"lat":48.41153928216614,"elevation":[]},{"distance":274.079,"relativeDirection":"LEFT","streetName":"Boulevard Talbot","absoluteDirection":"SOUTHWEST","stayOn":false,"area":false,"bogusName":false,"lon":-71.0510904,"lat":48.412002,"elevation":[]},{"distance":133.451,"relativeDirection":"LEFT","streetName":"service road","absoluteDirection":"SOUTHEAST","stayOn":false,"area":false,"bogusName":true,"lon":-71.0531788,"lat":48.4099639,"elevation":[]}]}],"tooSloped":false},{"duration":1580,"startTime":1522678294000,"endTime":1522679874000,"walkTime":602,"transitTime":976,"waitingTime":2,"walkDistance":762.0222481138715,"walkLimitExceeded":false,"elevationLost":0.0,"elevationGained":0.0,"transfers":0,"legs":[{"startTime":1522678294000,"endTime":1522678499000,"departureDelay":0,"arrivalDelay":0,"realTime":false,"distance":254.988,"pathway":false,"mode":"WALK","route":"","agencyTimeZoneOffset":-14400000,"interlineWithPreviousLeg":false,"from":{"name":"Origin","lon":-71.067439,"lat":48.428766,"departure":1522678294000,"orig":"","vertexType":"NORMAL"},"to":{"name":"Terminus Chicoutimi","stopId":"1:1289","stopCode":"1289","lon":-71.066163,"lat":48.428677,"arrival":1522678499000,"departure":1522678500000,"zoneId":"NA","stopIndex":0,"stopSequence":1,"vertexType":"TRANSIT"},"legGeometry":{"points":"{wqfHjjwpLDmBsAQXoFBg@N@~AL","length":7},"rentedBike":false,"transitLeg":false,"duration":205.0,"steps":[{"distance":40.985,"relativeDirection":"DEPART","streetName":"Rue Smith Est","absoluteDirection":"EAST","stayOn":false,"area":false,"bogusName":false,"lon":-71.06741500602136,"lat":48.428949466700935,"elevation":[]},{"distance":46.661,"relativeDirection":"LEFT","streetName":"Rue Tessier","absoluteDirection":"NORTH","stayOn":false,"area":false,"bogusName":false,"lon":-71.06686160000001,"lat":48.428917600000005,"elevation":[]},{"distance":105.0,"relativeDirection":"RIGHT","streetName":"Boulevard du Saguenay Est","absoluteDirection":"EAST","stayOn":false,"area":false,"bogusName":false,"lon":-71.0667774,"lat":48.429333500000006,"elevation":[]},{"distance":62.342,"relativeDirection":"RIGHT","streetName":"Rue Morin","absoluteDirection":"SOUTH","stayOn":false,"area":false,"bogusName":false,"lon":-71.0653717,"lat":48.429186300000005,"elevation":[]}]},{"startTime":1522678500000,"endTime":1522679476000,"departureDelay":0,"arrivalDelay":0,"realTime":false,"distance":4818.336852562372,"pathway":false,"mode":"BUS","route":"10","agencyName":"Société de Transport du Saguenay","agencyUrl":"http://ville.saguenay.ca/fr/services-aux-citoyens/transport-sts","agencyTimeZoneOffset":-14400000,"routeColor":"0000FF","routeType":3,"routeId":"1:10","routeTextColor":"FFFFFF","interlineWithPreviousLeg":false,"tripBlockId":"29","headsign":"Terminus UQAC","agencyId":"0","tripId":"1:218059","serviceDate":"20180402","from":{"name":"Terminus Chicoutimi","stopId":"1:1289","stopCode":"1289","lon":-71.066163,"lat":48.428677,"arrival":1522678499000,"departure":1522678500000,"zoneId":"NA","stopIndex":0,"stopSequence":1,"vertexType":"TRANSIT"},"to":{"name":"boul. Université / Murdock","stopId":"1:59","stopCode":"59","lon":-71.049971,"lat":48.411755,"arrival":1522679476000,"departure":1522679477000,"zoneId":"NA","stopIndex":21,"stopSequence":22,"vertexType":"TRANSIT"},"legGeometry":{"points":"svqfHnbwpLDmCdDZ\\kO`@mQBuCD}DQ_ECk@^Cd@QWkL?m@IuF@gA?eH?cAEuEDO^AjD`@B@rEf@T_FjBXpDd@hCObDaCfCaHbFqN`CwG_J_CwMiDGe@T}C\\yELaCJeAJcAXw@Fk@M_@xBwVr@^LJ|@z@HdAlBbD`Av@b@\\v@d@`@BpBAzAXl@t@XZt@lCl@tAnBpB~@~@lDjDr@r@zDrDnAlAjBrBl@pBPlBCj@KrAAHSpAe@jB_A|Bz@xAvA~BvB|BdN|Nc@bA","length":78},"routeShortName":"10","routeLongName":"Notre-Dame du Saguenay","rentedBike":false,"transitLeg":true,"duration":976.0,"steps":[]},{"startTime":1522679477000,"endTime":1522679874000,"departureDelay":0,"arrivalDelay":0,"realTime":false,"distance":506.83500000000004,"pathway":false,"mode":"WALK","route":"","agencyTimeZoneOffset":-14400000,"interlineWithPreviousLeg":false,"from":{"name":"boul. Université / Murdock","stopId":"1:59","stopCode":"59","lon":-71.049971,"lat":48.411755,"arrival":1522679476000,"departure":1522679477000,"zoneId":"NA","stopIndex":21,"stopSequence":22,"vertexType":"TRANSIT"},"to":{"name":"Destination","lon":-71.05257199,"lat":48.40924,"arrival":1522679874000,"orig":"","vertexType":"NORMAL"},"legGeometry":{"points":"_lnfHx}spLoAhDELTXLJx@|@bDfDjDlDDKb@iAt@sB@Ez@z@","length":13},"rentedBike":false,"transitLeg":false,"duration":397.0,"steps":[{"distance":83.417,"relativeDirection":"DEPART","streetName":"Boulevard de l'Université","absoluteDirection":"NORTHWEST","stayOn":false,"area":false,"bogusName":false,"lon":-71.05004245459075,"lat":48.41168714240219,"elevation":[]},{"distance":289.967,"relativeDirection":"LEFT","streetName":"Boulevard Talbot","absoluteDirection":"SOUTHWEST","stayOn":false,"area":false,"bogusName":false,"lon":-71.05096660000001,"lat":48.4121189,"elevation":[]},{"distance":133.451,"relativeDirection":"LEFT","streetName":"service road","absoluteDirection":"SOUTHEAST","stayOn":false,"area":false,"bogusName":true,"lon":-71.0531788,"lat":48.4099639,"elevation":[]}]}],"tooSloped":false},{"duration":1767,"startTime":1522678294000,"endTime":1522680061000,"walkTime":445,"transitTime":1320,"waitingTime":2,"walkDistance":569.5093984927106,"walkLimitExceeded":false,"elevationLost":0.0,"elevationGained":0.0,"transfers":0,"legs":[{"startTime":1522678294000,"endTime":1522678499000,"departureDelay":0,"arrivalDelay":0,"realTime":false,"distance":254.988,"pathway":false,"mode":"WALK","route":"","agencyTimeZoneOffset":-14400000,"interlineWithPreviousLeg":false,"from":{"name":"Origin","lon":-71.067439,"lat":48.428766,"departure":1522678294000,"orig":"","vertexType":"NORMAL"},"to":{"name":"Terminus Chicoutimi","stopId":"1:1289","stopCode":"1289","lon":-71.066163,"lat":48.428677,"arrival":1522678499000,"departure":1522678500000,"zoneId":"NA","stopIndex":0,"stopSequence":1,"vertexType":"TRANSIT"},"legGeometry":{"points":"{wqfHjjwpLDmBsAQXoFBg@N@~AL","length":7},"rentedBike":false,"transitLeg":false,"duration":205.0,"steps":[{"distance":40.985,"relativeDirection":"DEPART","streetName":"Rue Smith Est","absoluteDirection":"EAST","stayOn":false,"area":false,"bogusName":false,"lon":-71.06741500602136,"lat":48.428949466700935,"elevation":[]},{"distance":46.661,"relativeDirection":"LEFT","streetName":"Rue Tessier","absoluteDirection":"NORTH","stayOn":false,"area":false,"bogusName":false,"lon":-71.06686160000001,"lat":48.428917600000005,"elevation":[]},{"distance":105.0,"relativeDirection":"RIGHT","streetName":"Boulevard du Saguenay Est","absoluteDirection":"EAST","stayOn":false,"area":false,"bogusName":false,"lon":-71.0667774,"lat":48.429333500000006,"elevation":[]},{"distance":62.342,"relativeDirection":"RIGHT","streetName":"Rue Morin","absoluteDirection":"SOUTH","stayOn":false,"area":false,"bogusName":false,"lon":-71.0653717,"lat":48.429186300000005,"elevation":[]}]},{"startTime":1522678500000,"endTime":1522679820000,"departureDelay":0,"arrivalDelay":0,"realTime":false,"distance":8399.25115758389,"pathway":false,"mode":"BUS","route":"12","agencyName":"Société de Transport du Saguenay","agencyUrl":"http://ville.saguenay.ca/fr/services-aux-citoyens/transport-sts","agencyTimeZoneOffset":-14400000,"routeColor":"556B2F","routeType":3,"routeId":"1:12","routeTextColor":"FFFFFF","interlineWithPreviousLeg":false,"tripBlockId":"28","headsign":"Terminus UQAC","agencyId":"0","tripId":"1:218033","serviceDate":"20180402","from":{"name":"Terminus Chicoutimi","stopId":"1:1289","stopCode":"1289","lon":-71.066163,"lat":48.428677,"arrival":1522678499000,"departure":1522678500000,"zoneId":"NA","stopIndex":0,"stopSequence":1,"vertexType":"TRANSIT"},"to":{"name":"Place du Royaume (Champs-Élysées)","stopId":"1:193","stopCode":"193","lon":-71.052659,"lat":48.407065,"arrival":1522679820000,"departure":1522679821000,"zoneId":"NA","stopIndex":28,"stopSequence":29,"vertexType":"TRANSIT"},"legGeometry":{"points":"evqfHpbwpLpFcj@IaKmFy^_DaZz@u]SeV}@aNs@gKToKd@gTnCyHkGuLqFqJ_DeFf@iIvGsKlIrH`JlH`EfDnOdIdGlGjL|BzBiLv@}L`b@fNvVvrCdRvMcAjK","length":29},"routeShortName":"12","routeLongName":"Rivière du Moulin","rentedBike":false,"transitLeg":true,"duration":1320.0,"steps":[]},{"startTime":1522679821000,"endTime":1522680061000,"departureDelay":0,"arrivalDelay":0,"realTime":false,"distance":314.41200000000003,"pathway":false,"mode":"WALK","route":"","agencyTimeZoneOffset":-14400000,"interlineWithPreviousLeg":false,"from":{"name":"Place du Royaume (Champs-Élysées)","stopId":"1:193","stopCode":"193","lon":-71.052659,"lat":48.407065,"arrival":1522679820000,"departure":1522679821000,"zoneId":"NA","stopIndex":28,"stopSequence":29,"vertexType":"TRANSIT"},"to":{"name":"Destination","lon":-71.05257199,"lat":48.40924,"arrival":1522680061000,"orig":"","vertexType":"NORMAL"},"legGeometry":{"points":"unmfH|ntpLQTyAeCSKUFSXQb@MDSKcAeAKCSLu@lB{@{@","length":14},"rentedBike":false,"transitLeg":false,"duration":240.0,"steps":[{"distance":12.653,"relativeDirection":"DEPART","streetName":"Rue des Champs-Élysées","absoluteDirection":"NORTHWEST","stayOn":false,"area":false,"bogusName":false,"lon":-71.0527883359973,"lat":48.40699779220329,"elevation":[]},{"distance":301.759,"relativeDirection":"RIGHT","streetName":"service road","absoluteDirection":"NORTHEAST","stayOn":false,"area":false,"bogusName":true,"lon":-71.05289400000001,"lat":48.4070874,"elevation":[]}]}],"tooSloped":false}]},"debugOutput":{"precalculationTime":58,"pathCalculationTime":50,"pathTimes":[27,11,12],"renderingTime":3,"totalTime":111,"timedOut":false},"elevationMetadata":{"ellipsoidToGeoidDifference":-28.885904201182168,"geoidElevation":false}}