{"requestParameters":{"date":"2018/04/02","walkSpeed":"1.33","walkReluctance":"2.0","fromPlace":"48.383492,-71.08352999","maxWalkDistance":"3000","waitReluctance":"1.0","carSpeed":"33","numItineraries":"3","waitAtBeginningFactor":"0.4","mode":"TRANSIT,WALK","ignoreRealtimeUpdates":"false","stairsReluctance":"2.0","toPlace":"48.37438,-71.137186","time":"11:10:00"},"plan":{"date":1522681800000,"from":{"name":"Origin","lon":-71.08352999,"lat":48.383492,"orig":"","vertexType":"NORMAL"},"to":{"name":"Destination","lon":-71.137186,"lat":48.37438,"orig":"","vertexType":"NORMAL"},"itineraries":[{"duration":2003,"startTime":1522681940000,"endTime":1522683943000,"walkTime":1701,"transitTime":300,"waitingTime":2,"walkDistance":2246.681729321962,"walkLimitExceeded":false,"elevationLost":0.0,"elevationGained":0.0,"transfers":0,"legs":[{"startTime":1522681940000,"endTime":1522682099000,"departureDelay":0,"arrivalDelay":0,"realTime":false,"distance":206.20600000000002,"pathway":false,"mode":"WALK","route":"","agencyTimeZoneOffset":-14400000,"interlineWithPreviousLeg":false,"from":{"name":"Origin","lon":-71.08352999,"lat":48.383492,"departure":1522681940000,"orig":"","vertexType":"NORMAL"},"to":{"name":"COSTCO","stopId":"1:1710","stopCode":"1710","lon":-71.085767,"lat":48.382333,"arrival":1522682099000,"departure":1522682100000,"zoneId":"NA","stopIndex":0,"stopSequence":1,"vertexType":"TRANSIT"},"legGeometry":{"points":"_~hfH|rzpLTZJJhApAdAhAvBfC","length":6},"rentedBike":false,"transitLeg":false,"duration":159.0,"steps":[{"distance":206.20600000000002,"relativeDirection":"DEPART","streetName":"service road","absoluteDirection":"SOUTHWEST","stayOn":false,"area":false,"bogusName":false,"lon":-71.08414271500874,"lat":48.383841239633476,"elevation":[]}]},{"startTime":1522682100000,"endTime":1522682400000,"departureDelay":0,"arrivalDelay":0,"realTime":false,"distance":3486.4253948114783,"pathway":false,"mode":"BUS","route":"2","agencyName":"Société de Transport du Saguenay","agencyUrl":"http://ville.saguenay.ca/fr/services-aux-citoyens/transport-sts","agencyTimeZoneOffset":-14400000,"routeColor":"FF0000","routeType":3,"routeId":"1:2","routeTextColor":"FFFFFF","interlineWithPreviousLeg":false,"tripBlockId":"8","headsign":"Terminus Jonquière","agencyId":"0","tripId":"1:217366","serviceDate":"20180402","from":{"name":"COSTCO","stopId":"1:1710","stopCode":"1710","lon":-71.085767,"lat":48.382333,"arrival":1522682099000,"departure":1522682100000,"zoneId":"NA","stopIndex":0,"stopSequence":1,"vertexType":"TRANSIT"},"to":{"name":"boul. Royaume / St-Pierre","stopId":"1:1922","stopCode":"1922","lon":-71.129819,"lat":48.391404,"arrival":1522682400000,"departure":1522682401000,"zoneId":"NA","stopIndex":7,"stopSequence":8,"vertexType":"TRANSIT"},"legGeometry":{"points":"wthfHn}zpLeLkMxCaIbPzPkL|[eB~GwBlIa@bXIbQO`^aBhTiBlNUfBiI~ZeHzQeFxMqDtKAJ}ApJM~EWhIb@`N","length":22},"routeShortName":"2","routeLongName":"Chic/Jonq via Boul. Royaume","rentedBike":false,"transitLeg":true,"duration":300.0,"steps":[]},{"startTime":1522682401000,"endTime":1522683943000,"departureDelay":0,"arrivalDelay":0,"realTime":false,"distance":2040.4340000000002,"pathway":false,"mode":"WALK","route":"","agencyTimeZoneOffset":-14400000,"interlineWithPreviousLeg":false,"from":{"name":"boul. Royaume / St-Pierre","stopId":"1:1922","stopCode":"1922","lon":-71.129819,"lat":48.391404,"arrival":1522682400000,"departure":1522682401000,"zoneId":"NA","stopIndex":7,"stopSequence":8,"vertexType":"TRANSIT"},"to":{"name":"Destination","lon":-71.137186,"lat":48.37438,"arrival":1522683943000,"orig":"","vertexType":"NORMAL"},"legGeometry":{"points":"uljfHjpcqL@n@?TTDPB\\Dp@Bh@DlATrAV~A`@`Br@`Bt@p@ZtAb@~Ah@ZHx@LnAHt@@z@BPA~ACzAGfCKbD_@vCSjAATAT@b@J^HjCz@fJrDxKhGzC`Cj@d@nC|D~AzBZ`@l@x@","length":41},"rentedBike":false,"transitLeg":false,"duration":1542.0,"steps":[{"distance":25.659,"relativeDirection":"DEPART","streetName":"Boulevard du Royaume Ouest","absoluteDirection":"WEST","stayOn":false,"area":false,"bogusName":false,"lon":-71.12981366448275,"lat":48.39131535185243,"elevation":[]},{"distance":2014.775,"relativeDirection":"LEFT","streetName":"Rang Saint-Pierre","absoluteDirection":"SOUTH","stayOn":false,"area":false,"bogusName":false,"lon":-71.1301609,"lat":48.3913062,"elevation":[]}]}],"tooSloped":false},{"duration":2003,"startTime":1522683740000,"endTime":1522685743000,"walkTime":1701,"transitTime":300,"waitingTime":2,"walkDistance":2246.681729321962,"walkLimitExceeded":false,"elevationLost":0.0,"elevationGained":0.0,"transfers":0,"legs":[{"startTime":1522683740000,"endTime":1522683899000,"departureDelay":0,"arrivalDelay":0,"realTime":false,"distance":206.20600000000002,"pathway":false,"mode":"WALK","route":"","agencyTimeZoneOffset":-14400000,"interlineWithPreviousLeg":false,"from":{"name":"Origin","lon":-71.08352999,"lat":48.383492,"departure":1522683740000,"orig":"","vertexType":"NORMAL"},"to":{"name":"COSTCO","stopId":"1:1710","stopCode":"1710","lon":-71.085767,"lat":48.382333,"arrival":1522683899000,"departure":1522683900000,"zoneId":"NA","stopIndex":0,"stopSequence":1,"vertexType":"TRANSIT"},"legGeometry":{"points":"_~hfH|rzpLTZJJhApAdAhAvBfC","length":6},"rentedBike":false,"transitLeg":false,"duration":159.0,"steps":[{"distance":206.20600000000002,"relativeDirection":"DEPART","streetName":"service road","absoluteDirection":"SOUTHWEST","stayOn":false,"area":false,"bogusName":false,"lon":-71.08414271500874,"lat":48.383841239633476,"elevation":[]}]},{"startTime":1522683900000,"endTime":1522684200000,"departureDelay":0,"arrivalDelay":0,"realTime":false,"distance":3486.4253948114783,"pathway":false,"mode":"BUS","route":"2","agencyName":"Société de Transport du Saguenay","agencyUrl":"http://ville.saguenay.ca/fr/services-aux-citoyens/transport-sts","agencyTimeZoneOffset":-14400000,"routeColor":"FF0000","routeType":3,"routeId":"1:2","routeTextColor":"FFFFFF","interlineWithPreviousLeg":false,"tripBlockId":"6","headsign":"Terminus Jonquière","agencyId":"0","tripId":"1:217295","serviceDate":"20180402","from":{"name":"COSTCO","stopId":"1:1710","stopCode":"1710","lon":-71.085767,"lat":48.382333,"arrival":1522683899000,"departure":1522683900000,"zoneId":"NA","stopIndex":0,"stopSequence":1,"vertexType":"TRANSIT"},"to":{"name":"boul. Royaume / St-Pierre","stopId":"1:1922","stopCode":"1922","lon":-71.129819,"lat":48.391404,"arrival":1522684200000,"departure":1522684201000,"zoneId":"NA","stopIndex":7,"stopSequence":8,"vertexType":"TRANSIT"},"legGeometry":{"points":"wthfHn}zpLeLkMxCaIbPzPkL|[eB~GwBlIa@bXIbQO`^aBhTiBlNUfBiI~ZeHzQeFxMqDtKAJ}ApJM~EWhIb@`N","length":22},"routeShortName":"2","routeLongName":"Chic/Jonq via Boul. Royaume","rentedBike":false,"transitLeg":true,"duration":300.0,"steps":[]},{"startTime":1522684201000,"endTime":1522685743000,"departureDelay":0,"arrivalDelay":0,"realTime":false,"distance":2040.4340000000002,"pathway":false,"mode":"WALK","route":"","agencyTimeZoneOffset":-14400000,"interlineWithPreviousLeg":false,"from":{"name":"boul. Royaume / St-Pierre","stopId":"1:1922","stopCode":"1922","lon":-71.129819,"lat":48.391404,"arrival":1522684200000,"departure":1522684201000,"zoneId":"NA","stopIndex":7,"stopSequence":8,"vertexType":"TRANSIT"},"to":{"name":"Destination","lon":-71.137186,"lat":48.37438,"arrival":1522685743000,"orig":"","vertexType":"NORMAL"},"legGeometry":{"points":"uljfHjpcqL@n@?TTDPB\\Dp@Bh@DlATrAV~A`@`Br@`Bt@p@ZtAb@~Ah@ZHx@LnAHt@@z@BPA~ACzAGfCKbD_@vCSjAATAT@b@J^HjCz@fJrDxKhGzC`Cj@d@nC|D~AzBZ`@l@x@","length":41},"rentedBike":false,"transitLeg":false,"duration":1542.0,"steps":[{"distance":25.659,"relativeDirection":"DEPART","streetName":"Boulevard du Royaume Ouest","absoluteDirection":"WEST","stayOn":false,"area":false,"bogusName":false,"lon":-71.12981366448275,"lat":48.39131535185243,"elevation":[]},{"distance":2014.775,"relativeDirection":"LEFT","streetName":"Rang Saint-Pierre","absoluteDirection":"SOUTH","stayOn":false,"area":false,"bogusName":false,"lon":-71.1301609,"lat":48.3913062,"elevation":[]}]}],"tooSloped":false},{"duration":2399,"startTime":1522684340000,"endTime":1522686739000,"walkTime":253,"transitTime":2144,"waitingTime":2,"walkDistance":329.963751879675,"walkLimitExceeded":false,"elevationLost":0.0,"elevationGained":0.0,"transfers":0,"legs":[{"startTime":1522684340000,"endTime":1522684499000,"departureDelay":0,"arrivalDelay":0,"realTime":false,"distance":206.20600000000002,"pathway":false,"mode":"WALK","route":"","agencyTimeZoneOffset":-14400000,"interlineWithPreviousLeg":false,"from":{"name":"Origin","lon":-71.08352999,"lat":48.383492,"departure":1522684340000,"orig":"","vertexType":"NORMAL"},"to":{"name":"COSTCO","stopId":"1:1710","stopCode":"1710","lon":-71.085767,"lat":48.382333,"arrival":1522684499000,"departure":1522684500000,"zoneId":"NA","stopIndex":0,"stopSequence":1,"vertexType":"TRANSIT"},"legGeometry":{"points":"_~hfH|rzpLTZJJhApAdAhAvBfC","length":6},"rentedBike":false,"transitLeg":false,"duration":159.0,"steps":[{"distance":206.20600000000002,"relativeDirection":"DEPART","streetName":"service road","absoluteDirection":"SOUTHWEST","stayOn":false,"area":false,"bogusName":false,"lon":-71.08414271500874,"lat":48.383841239633476,"elevation":[]}]},{"startTime":1522684500000,"endTime":1522686644000,"departureDelay":0,"arrivalDelay":0,"realTime":false,"distance":23984.0482175181,"pathway":false,"mode":"BUS","route":"62","agencyName":"Société de Transport du Saguenay","agencyUrl":"http://ville.saguenay.ca/fr/services-aux-citoyens/transport-sts","agencyTimeZoneOffset":-14400000,"routeColor":"00FFFF","routeType":3,"routeId":"1:62","routeTextColor":"000000","interlineWithPreviousLeg":false,"tripBlockId":"73","headsign":"Costco","agencyId":"0","tripId":"1:218619","serviceDate":"20180402","from":{"name":"COSTCO","stopId":"1:1710","stopCode":"1710","lon":-71.085767,"lat":48.382333,"arrival":1522684499000,"departure":1522684500000,"zoneId":"NA","stopIndex":0,"stopSequence":1,"vertexType":"TRANSIT"},"to":{"name":"ch. St-Pierre (no. 3010)","stopId":"1:1785","stopCode":"1785","lon":-71.135837,"lat":48.37508,"arrival":1522686644000,"departure":1522686645000,"zoneId":"NA","stopIndex":31,"stopSequence":32,"vertexType":"TRANSIT"},"legGeometry":{"points":"uthfHh}zpLUYyAcBs@`BjChDJn@Nr@`@x@PNlFwMHWbFmMBc@~d@skANe@Jk@H_AD_ABuADs@Hk@Lc@N_@X_@ZYbAq@pA]hDuA~UqLAEjJ_EjRiIrJeEdCmAbAs@rAkAbCyC|@cB|@sBpEkN|cA}`D~@wCz@~@~GjH|^d`@fNxNng@di@dJrJ`aAtcA`@d@RZJVNn@Dr@nAp_@HzAHx@ZxAlDzN|DlPjIn]P~@JbB@b@?b@IdAiA|KObAU`A_HfTCDt_AzaA^h@BFDTBV?VATADwBlGCPCl@Jt@pBnG^pBFd@DlAEdCGhCElAg@pG?nAF~@PnAVxAp@lF^`B^dAxAnC@@pAzAr@lAPp@Lj@Dh@HjB@fAWzFA~BQAOAQGWMk@k@QSM[M_@IY_@_AQWSO_DcBUEYLa@VWLYPyGrNeC`GoAzBw@t@kCvBkBvAg@`@[\\g@t@i@bACF}AlEkHvSwIrVgDpJ_KjYkAhDqDjJsA|DuGjRi@i@w@gA_@e@e@UmAc@sHmAaIiA_BAM?cADsJn@gAPkAZODcAl@}@j@w@x@ML_BlB_B`DiAlDsBdH_AfCq@zAQ^S\\{BtD}BxCyAvAyA`AqDtAiCn@yD\\w@DKAOCw@c@EAcRwRe@]_AWMAgJeB{BKe@LGDeAj@kAx@cEnC_BlAoAxAeB`DsBbIQbAiAhHk@tFMlAKzAYhCOnCKdDWjGKlAMxAa@vCWnAoBbFkH~Si@lAc@j@WNcAf@{@HiCYcBc@m@Wq@Iu@Qy@_@qBeAkAu@uAm@mImCsA_@yDs@qGk@eB[o@KWCgASaA]cBkAgPsN_FkEwAgAwAsAgAyBe@gBU}AAEMmB_@aEUaB_AeE}BqIy@mCmD{JsAuCu@_Ao@u@y@y@MOsIoKeHaKkEuFSYuAcB","length":264},"routeShortName":"62","routeLongName":"Portage des Roches Sud","rentedBike":false,"transitLeg":true,"duration":2144.0,"steps":[]},{"startTime":1522686645000,"endTime":1522686739000,"departureDelay":0,"arrivalDelay":0,"realTime":false,"distance":123.757,"pathway":false,"mode":"WALK","route":"","agencyTimeZoneOffset":-14400000,"interlineWithPreviousLeg":false,"from":{"name":"ch. St-Pierre (no. 3010)","stopId":"1:1785","stopCode":"1785","lon":-71.135837,"lat":48.37508,"arrival":1522686644000,"departure":1522686645000,"zoneId":"NA","stopIndex":31,"stopSequence":32,"vertexType":"TRANSIT"},"to":{"name":"Destination","lon":-71.137186,"lat":48.37438,"arrival":1522686739000,"orig":"","vertexType":"NORMAL"},"legGeometry":{"points":"wggfH|vdqL~AzBZ`@l@x@","length":4},"rentedBike":false,"transitLeg":false,"duration":94.0,"steps":[{"distance":123.757,"relativeDirection":"DEPART","streetName":"Rang Saint-Pierre","absoluteDirection":"SOUTHWEST","stayOn":false,"area":false,"bogusName":false,"lon":-71.13598081689122,"lat":48.37516242996354,"elevation":[]}]}],"tooSloped":false}]},"debugOutput":{"precalculationTime":1,"pathCalculationTime":12,"pathTimes":[5,5,2],"renderingTime":0,"totalTime":13,"timedOut":false},"elevationMetadata":{"ellipsoidToGeoidDifference":-28.885904201182168,"geoidElevation":false}}