{"requestParameters":{"date":"2018/04/02","walkSpeed":"1.33","walkReluctance":"2.0","fromPlace":"48.425998,-71.06900299","maxWalkDistance":"3000","waitReluctance":"1.0","carSpeed":"33","numItineraries":"3","waitAtBeginningFactor":"0.4","mode":"TRANSIT,WALK","ignoreRealtimeUpdates":"false","stairsReluctance":"2.0","toPlace":"48.442106,-71.059971","time":"11:30:00"},"plan":{"date":1522683000000,"from":{"name":"Origin","lon":-71.06900299,"lat":48.425998,"orig":"","vertexType":"NORMAL"},"to":{"name":"Destination","lon":-71.059971,"lat":48.442106,"orig":"","vertexType":"NORMAL"},"itineraries":[{"duration":1096,"startTime":1522683477000,"endTime":1522684573000,"walkTime":791,"transitTime":303,"waitingTime":2,"walkDistance":1005.780142850459,"walkLimitExceeded":false,"elevationLost":0.0,"elevationGained":0.0,"transfers":0,"legs":[{"startTime":1522683477000,"endTime":1522683899000,"departureDelay":0,"arrivalDelay":0,"realTime":false,"distance":535.085,"pathway":false,"mode":"WALK","route":"","agencyTimeZoneOffset":-14400000,"interlineWithPreviousLeg":false,"from":{"name":"Origin","lon":-71.06900299,"lat":48.425998,"departure":1522683477000,"orig":"","vertexType":"NORMAL"},"to":{"name":"Terminus Chicoutimi","stopId":"1:1289","stopCode":"1289","lon":-71.066163,"lat":48.428677,"arrival":1522683899000,"departure":1522683900000,"zoneId":"NA","stopIndex":0,"stopSequence":1,"vertexType":"TRANSIT"},"legGeometry":{"points":"_fqfHdtwpLD_A{@GiAISAq@Cy@CA?GAg@C}AKDwD@k@@w@PuGc@MKESAcAK","length":19},"rentedBike":false,"transitLeg":false,"duration":422.0,"steps":[{"distance":24.049,"relativeDirection":"DEPART","streetName":"alley","absoluteDirection":"EAST","stayOn":false,"area":false,"bogusName":false,"lon":-71.06898669268597,"lat":48.42608414185642,"elevation":[]},{"distance":226.154,"relativeDirection":"LEFT","streetName":"Rue Sainte-Anne","absoluteDirection":"NORTH","stayOn":false,"area":false,"bogusName":false,"lon":-71.06866330000001,"lat":48.4260572,"elevation":[]},{"distance":207.675,"relativeDirection":"RIGHT","streetName":"Rue Racine Est","absoluteDirection":"EAST","stayOn":false,"area":false,"bogusName":false,"lon":-71.06843,"lat":48.42808470000001,"elevation":[]},{"distance":77.207,"relativeDirection":"LEFT","streetName":"Rue Morin","absoluteDirection":"NORTH","stayOn":false,"area":false,"bogusName":false,"lon":-71.0656238,"lat":48.4279449,"elevation":[]}]},{"startTime":1522683900000,"endTime":1522684203000,"departureDelay":0,"arrivalDelay":0,"realTime":false,"distance":1445.1781370852384,"pathway":false,"mode":"BUS","route":"24","agencyName":"Société de Transport du Saguenay","agencyUrl":"http://ville.saguenay.ca/fr/services-aux-citoyens/transport-sts","agencyTimeZoneOffset":-14400000,"routeColor":"00FF00","routeType":3,"routeId":"1:24","routeTextColor":"000000","interlineWithPreviousLeg":false,"tripBlockId":"4","headsign":"Terminus Chicoutimi","agencyId":"0","tripId":"1:217233","serviceDate":"20180402","from":{"name":"Terminus Chicoutimi","stopId":"1:1289","stopCode":"1289","lon":-71.066163,"lat":48.428677,"arrival":1522683899000,"departure":1522683900000,"zoneId":"NA","stopIndex":0,"stopSequence":1,"vertexType":"TRANSIT"},"to":{"name":"Napoléon / Roussel","stopId":"1:805","stopCode":"805","lon":-71.059698,"lat":48.438926,"arrival":1522684203000,"departure":1522684204000,"zoneId":"NA","stopIndex":3,"stopSequence":4,"vertexType":"TRANSIT"},"legGeometry":{"points":"evqfHzcwpLg@?EhBO~GoBKCp@O\\WjGOfGCRK^KJMHQB_AMg@Gm\\wO]i@wAyA_@WUKMEwEm@Js@Da@??@@??@?@???@???@?@??A@???@A@??A@??A@A??@A?A??@A?A?A?A@A?A???A?A?A???A?A?A?A???A?AAA?A???AAA?A??AA?AA??AA??A??AA??A??AA?A???A????q@C{AAaB?mAEcAGs@OoAa@sB[kAYcASq@Ok@Qq@Ku@MoBKmAa@eHi@FKC_@I??","length":110},"routeShortName":"24","routeLongName":"Saint-Luc","rentedBike":false,"transitLeg":true,"duration":303.0,"steps":[]},{"startTime":1522684204000,"endTime":1522684573000,"departureDelay":0,"arrivalDelay":0,"realTime":false,"distance":470.488,"pathway":false,"mode":"WALK","route":"","agencyTimeZoneOffset":-14400000,"interlineWithPreviousLeg":false,"from":{"name":"Napoléon / Roussel","stopId":"1:805","stopCode":"805","lon":-71.059698,"lat":48.438926,"arrival":1522684203000,"departure":1522684204000,"zoneId":"NA","stopIndex":3,"stopSequence":4,"vertexType":"TRANSIT"},"to":{"name":"Destination","lon":-71.059971,"lat":48.442106,"arrival":1522684573000,"orig":"","vertexType":"NORMAL"},"legGeometry":{"points":"kvsfHrzupLkEaBy@lH{Ao@Mj@AFEDGBKCcD_AuAe@","length":11},"alerts":[{"alertHeaderText":"Unpaved surface"}],"rentedBike":false,"transitLeg":false,"duration":369.0,"steps":[{"distance":119.173,"relativeDirection":"DEPART","streetName":"Rue Napoléon","absoluteDirection":"NORTH","stayOn":false,"area":false,"bogusName":false,"lon":-71.05977092785905,"lat":48.43894142274176,"elevation":[]},{"distance":116.708,"relativeDirection":"LEFT","streetName":"Rue De Bienville","absoluteDirection":"WEST","stayOn":false,"area":false,"bogusName":false,"lon":-71.0592803,"lat":48.4399625,"elevation":[]},{"distance":53.855,"relativeDirection":"RIGHT","streetName":"Boulevard de Tadoussac","absoluteDirection":"NORTH","stayOn":false,"area":false,"bogusName":false,"lon":-71.0607978,"lat":48.4402594,"elevation":[]},{"distance":180.752,"relativeDirection":"LEFT","streetName":"Rue du Régent","absoluteDirection":"NORTHWEST","stayOn":false,"area":false,"bogusName":false,"lon":-71.06055090000001,"lat":48.4407152,"elevation":[],"alerts":[{"alertHeaderText":"Unpaved surface"}]}]}],"tooSloped":false},{"duration":1633,"startTime":1522683000000,"endTime":1522684633000,"walkTime":1633,"transitTime":0,"waitingTime":0,"walkDistance":2114.4062330764714,"walkLimitExceeded":false,"elevationLost":0.0,"elevationGained":0.0,"transfers":0,"legs":[{"startTime":1522683000000,"endTime":1522684633000,"departureDelay":0,"arrivalDelay":0,"realTime":false,"distance":2114.2129999999997,"pathway":false,"mode":"WALK","route":"","agencyTimeZoneOffset":-14400000,"interlineWithPreviousLeg":false,"from":{"name":"Origin","lon":-71.06900299,"lat":48.425998,"departure":1522683000000,"orig":"","vertexType":"NORMAL"},"to":{"name":"Destination","lon":-71.059971,"lat":48.442106,"arrival":1522684633000,"orig":"","vertexType":"NORMAL"},"legGeometry":{"points":"_fqfHdtwpLD_A{@GiAISAq@Cy@CA?GAg@C}AKsAE[AeAGiAGSASCIKQ?kACE?e]uBQuBMBwAcLy@eGgA_CyB}BiAi@cFcBoDmAiA_@CAeC{@{Ao@Mj@AFEDGBKCcD_AuAe@","length":42},"alerts":[{"alertHeaderText":"Unpaved surface"}],"rentedBike":false,"transitLeg":false,"duration":1633.0,"steps":[{"distance":24.049,"relativeDirection":"DEPART","streetName":"alley","absoluteDirection":"EAST","stayOn":false,"area":false,"bogusName":false,"lon":-71.06898669268597,"lat":48.42608414185642,"elevation":[]},{"distance":391.451,"relativeDirection":"LEFT","streetName":"Rue Sainte-Anne","absoluteDirection":"NORTH","stayOn":false,"area":false,"bogusName":false,"lon":-71.06866330000001,"lat":48.4260572,"elevation":[]},{"distance":59.134,"relativeDirection":"CONTINUE","streetName":"path","absoluteDirection":"NORTH","stayOn":false,"area":false,"bogusName":true,"lon":-71.06828730000001,"lat":48.4295678,"elevation":[]},{"distance":542.29,"relativeDirection":"CONTINUE","streetName":"Pont de Sainte-Anne","absoluteDirection":"NORTH","stayOn":false,"area":false,"bogusName":false,"lon":-71.06820450000001,"lat":48.430080800000006,"elevation":[]},{"distance":52.638,"relativeDirection":"RIGHT","streetName":"bike path","absoluteDirection":"EAST","stayOn":false,"area":false,"bogusName":true,"lon":-71.0676151,"lat":48.434942,"elevation":[]},{"distance":863.8989999999999,"relativeDirection":"RIGHT","streetName":"Boulevard de Tadoussac","absoluteDirection":"EAST","stayOn":false,"area":false,"bogusName":false,"lon":-71.0670497,"lat":48.4351063,"elevation":[]},{"distance":180.752,"relativeDirection":"LEFT","streetName":"Rue du Régent","absoluteDirection":"NORTHWEST","stayOn":false,"area":false,"bogusName":false,"lon":-71.06055090000001,"lat":48.4407152,"elevation":[],"alerts":[{"alertHeaderText":"Unpaved surface"}]}]}],"tooSloped":false},{"duration":1402,"startTime":1522683477000,"endTime":1522684879000,"walkTime":540,"transitTime":860,"waitingTime":2,"walkDistance":685.2056090179225,"walkLimitExceeded":false,"elevationLost":0.0,"elevationGained":0.0,"transfers":0,"legs":[{"startTime":1522683477000,"endTime":1522683899000,"departureDelay":0,"arrivalDelay":0,"realTime":false,"distance":535.085,"pathway":false,"mode":"WALK","route":"","agencyTimeZoneOffset":-14400000,"interlineWithPreviousLeg":false,"from":{"name":"Origin","lon":-71.06900299,"lat":48.425998,"departure":1522683477000,"orig":"","vertexType":"NORMAL"},"to":{"name":"Terminus Chicoutimi","stopId":"1:1289","stopCode":"1289","lon":-71.066163,"lat":48.428677,"arrival":1522683899000,"departure":1522683900000,"zoneId":"NA","stopIndex":0,"stopSequence":1,"vertexType":"TRANSIT"},"legGeometry":{"points":"_fqfHdtwpLD_A{@GiAISAq@Cy@CA?GAg@C}AKDwD@k@@w@PuGc@MKESAcAK","length":19},"rentedBike":false,"transitLeg":false,"duration":422.0,"steps":[{"distance":24.049,"relativeDirection":"DEPART","streetName":"alley","absoluteDirection":"EAST","stayOn":false,"area":false,"bogusName":false,"lon":-71.06898669268597,"lat":48.42608414185642,"elevation":[]},{"distance":226.154,"relativeDirection":"LEFT","streetName":"Rue Sainte-Anne","absoluteDirection":"NORTH","stayOn":false,"area":false,"bogusName":false,"lon":-71.06866330000001,"lat":48.4260572,"elevation":[]},{"distance":207.675,"relativeDirection":"RIGHT","streetName":"Rue Racine Est","absoluteDirection":"EAST","stayOn":false,"area":false,"bogusName":false,"lon":-71.06843,"lat":48.42808470000001,"elevation":[]},{"distance":77.207,"relativeDirection":"LEFT","streetName":"Rue Morin","absoluteDirection":"NORTH","stayOn":false,"area":false,"bogusName":false,"lon":-71.0656238,"lat":48.4279449,"elevation":[]}]},{"startTime":1522683900000,"endTime":1522684760000,"departureDelay":0,"arrivalDelay":0,"realTime":false,"distance":6208.286971651185,"pathway":false,"mode":"BUS","route":"23","agencyName":"Société de Transport du Saguenay","agencyUrl":"http://ville.saguenay.ca/fr/services-aux-citoyens/transport-sts","agencyTimeZoneOffset":-14400000,"routeColor":"FF00FF","routeType":3,"routeId":"1:23","routeTextColor":"FFFFFF","interlineWithPreviousLeg":false,"tripBlockId":"5","headsign":"Terminus Chicoutimi","agencyId":"0","tripId":"1:217260","serviceDate":"20180402","from":{"name":"Terminus Chicoutimi","stopId":"1:1289","stopCode":"1289","lon":-71.066163,"lat":48.428677,"arrival":1522683899000,"departure":1522683900000,"zoneId":"NA","stopIndex":0,"stopSequence":1,"vertexType":"TRANSIT"},"to":{"name":"Église St-Luc (boul. Tadoussac)","stopId":"1:830","stopCode":"830","lon":-71.059501,"lat":48.441464,"arrival":1522684760000,"departure":1522684761000,"zoneId":"NA","stopIndex":20,"stopSequence":21,"vertexType":"TRANSIT"},"legGeometry":{"points":"kwqfHjbwpLF_CkAOYCm@rRO\\WjGOfGCRK^KJMHQB_AMg@Gw`@eR}@g@u@Su@Ia@Ck@Dm@HwAf@c@VeAx@iAlAU^[d@eLtTsAvB_CvEuAnCmBlE}@|B_BvFoC`JCD}@hCo@~Aq@pAs@fA{BlCqH|Iq@Bq@Im@UGCUi@Wm@ScA_@gGSaE@_@@_@@ERoBFe@No@`@gAbCyFNe@Ha@He@Fg@Du@Dg@Hc@Pa@RW\\S`@QZEm@eHM}B?GGi@Is@Ou@Qw@Mo@Kw@ImAGoBAk@aALa@?YEUKc@Yc@_@KOIUGUEWAW?YBqAH_AXeC@IdB_Mh@_EJk@d@kDhAqI`AgHz@oGBU?UAWCWUwAWD]B]AUEoAc@kE}AOIq@g@g@u@]w@b@s@T[~CkFf@s@\\e@x@}@jAeAXQZStBaAh@]`@]`@i@l@kDF_@R{AFWFMPIPC`@BT@V?TAVKLENCLCJ@J@xAb@x@Zz@\\CP?R@N@NFLFF`GtBx@Xw@pG@l@B\\DXL\\RZDFXPf@N@v@Bp@Dr@l@~HNlAH\\","length":178},"routeShortName":"23","routeLongName":"Côte Verdun via Aréna du Plateau","rentedBike":false,"transitLeg":true,"duration":860.0,"steps":[]},{"startTime":1522684761000,"endTime":1522684879000,"departureDelay":0,"arrivalDelay":0,"realTime":false,"distance":149.97699999999998,"pathway":false,"mode":"WALK","route":"","agencyTimeZoneOffset":-14400000,"interlineWithPreviousLeg":false,"from":{"name":"Église St-Luc (boul. Tadoussac)","stopId":"1:830","stopCode":"830","lon":-71.059501,"lat":48.441464,"arrival":1522684760000,"departure":1522684761000,"zoneId":"NA","stopIndex":20,"stopSequence":21,"vertexType":"TRANSIT"},"to":{"name":"Destination","lon":-71.059971,"lat":48.442106,"arrival":1522684879000,"orig":"","vertexType":"NORMAL"},"legGeometry":{"points":"yetfHrxupLL`@BJQRQRKLGNI\\QbAuAe@","length":10},"rentedBike":false,"transitLeg":false,"duration":118.0,"steps":[{"distance":19.773,"relativeDirection":"DEPART","streetName":"Boulevard de Tadoussac","absoluteDirection":"SOUTHWEST","stayOn":false,"area":false,"bogusName":false,"lon":-71.05945543369864,"lat":48.44141337892131,"elevation":[]},{"distance":80.529,"relativeDirection":"RIGHT","streetName":"Rue Talon","absoluteDirection":"NORTHWEST","stayOn":false,"area":false,"bogusName":false,"lon":-71.0596842,"lat":48.441320700000006,"elevation":[]},{"distance":49.675,"relativeDirection":"RIGHT","streetName":"Rue du Régent","absoluteDirection":"NORTH","stayOn":false,"area":false,"bogusName":false,"lon":-71.0605235,"lat":48.441746900000005,"elevation":[]}]}],"tooSloped":false}]},"debugOutput":{"precalculationTime":27,"pathCalculationTime":33,"pathTimes":[19,6,8],"renderingTime":0,"totalTime":60,"timedOut":false},"elevationMetadata":{"ellipsoidToGeoidDifference":-28.885904201182168,"geoidElevation":false}}