{"requestParameters":{"date":"2018/04/02","walkSpeed":"1.33","walkReluctance":"2.0","fromPlace":"48.415821,-71.046058","maxWalkDistance":"3000","waitReluctance":"1.0","carSpeed":"33","numItineraries":"3","waitAtBeginningFactor":"0.4","mode":"TRANSIT,WALK","ignoreRealtimeUpdates":"false","stairsReluctance":"2.0","toPlace":"48.408776,-71.055667","time":"12:45:00"},"plan":{"date":1522687500000,"from":{"name":"Origin","lon":-71.046058,"lat":48.415821,"orig":"","vertexType":"NORMAL"},"to":{"name":"Destination","lon":-71.055667,"lat":48.408776,"orig":"","vertexType":"NORMAL"},"itineraries":[{"duration":927,"startTime":1522687500000,"endTime":1522688427000,"walkTime":927,"transitTime":0,"waitingTime":0,"walkDistance":1202.2203383414978,"walkLimitExceeded":false,"elevationLost":0.0,"elevationGained":0.0,"transfers":0,"legs":[{"startTime":1522687500000,"endTime":1522688427000,"departureDelay":0,"arrivalDelay":0,"realTime":false,"distance":1202.0850000000003,"pathway":false,"mode":"WALK","route":"","agencyTimeZoneOffset":-14400000,"interlineWithPreviousLeg":false,"from":{"name":"Origin","lon":-71.046058,"lat":48.415821,"departure":1522687500000,"orig":"","vertexType":"NORMAL"},"to":{"name":"Destination","lon":-71.055667,"lat":48.408776,"arrival":1522688427000,"orig":"","vertexType":"NORMAL"},"legGeometry":{"points":"adofHrfspLWx@_@`AIVTV`BdBx@z@vCzCnArArI~ITXLJx@|@bDfDjDlDK^hD`DdE`ENNGPm@|AUl@","length":22},"rentedBike":false,"transitLeg":false,"duration":927.0,"steps":[{"distance":66.32,"relativeDirection":"DEPART","streetName":"Rue Chabanel","absoluteDirection":"NORTHWEST","stayOn":false,"area":false,"bogusName":false,"lon":-71.04633656038507,"lat":48.415533675726444,"elevation":[]},{"distance":1063.672,"relativeDirection":"LEFT","streetName":"Boulevard Talbot","absoluteDirection":"SOUTHWEST","stayOn":false,"area":false,"bogusName":false,"lon":-71.0470797,"lat":48.415868800000005,"elevation":[]},{"distance":72.093,"relativeDirection":"RIGHT","streetName":"Rue des Champs-Élysées","absoluteDirection":"NORTHWEST","stayOn":false,"area":false,"bogusName":false,"lon":-71.0551966,"lat":48.4081015,"elevation":[]}]}],"tooSloped":false},{"duration":991,"startTime":1522687611000,"endTime":1522688602000,"walkTime":872,"transitTime":117,"waitingTime":2,"walkDistance":1115.674300747998,"walkLimitExceeded":false,"elevationLost":0.0,"elevationGained":0.0,"transfers":0,"legs":[{"startTime":1522687611000,"endTime":1522688098000,"departureDelay":0,"arrivalDelay":0,"realTime":false,"distance":620.505,"pathway":false,"mode":"WALK","route":"","agencyTimeZoneOffset":-14400000,"interlineWithPreviousLeg":false,"from":{"name":"Origin","lon":-71.046058,"lat":48.415821,"departure":1522687611000,"orig":"","vertexType":"NORMAL"},"to":{"name":"boul. Université / Murdock","stopId":"1:80","stopCode":"80","lon":-71.050111,"lat":48.411498,"arrival":1522688098000,"departure":1522688099000,"zoneId":"NA","stopIndex":20,"stopSequence":21,"vertexType":"TRANSIT"},"legGeometry":{"points":"adofHrfspLdAaDt@hABDn@~@b@lA`ArAl@l@@Bh@j@PRdBlBdEbEnBrBVPUn@","length":16},"rentedBike":false,"transitLeg":false,"duration":487.0,"steps":[{"distance":71.382,"relativeDirection":"DEPART","streetName":"Rue Chabanel","absoluteDirection":"SOUTHEAST","stayOn":false,"area":false,"bogusName":false,"lon":-71.04633656038507,"lat":48.415533675726444,"elevation":[]},{"distance":527.521,"relativeDirection":"RIGHT","streetName":"Rue Murdock","absoluteDirection":"SOUTHWEST","stayOn":false,"area":false,"bogusName":false,"lon":-71.0455232,"lat":48.4151863,"elevation":[]},{"distance":21.602,"relativeDirection":"RIGHT","streetName":"Boulevard de l'Université","absoluteDirection":"NORTHWEST","stayOn":false,"area":false,"bogusName":false,"lon":-71.0498268,"lat":48.4114298,"elevation":[]}]},{"startTime":1522688099000,"endTime":1522688216000,"departureDelay":0,"arrivalDelay":0,"realTime":false,"distance":619.5296263120817,"pathway":false,"mode":"BUS","route":"27","agencyName":"Société de Transport du Saguenay","agencyUrl":"http://ville.saguenay.ca/fr/services-aux-citoyens/transport-sts","agencyTimeZoneOffset":-14400000,"routeColor":"00FFFF","routeType":3,"routeId":"1:27","routeTextColor":"000000","interlineWithPreviousLeg":false,"tripBlockId":"98","headsign":"Place du Royaume","agencyId":"0","tripId":"1:218746","serviceDate":"20180402","from":{"name":"boul. Université / Murdock","stopId":"1:80","stopCode":"80","lon":-71.050111,"lat":48.411498,"arrival":1522688098000,"departure":1522688099000,"zoneId":"NA","stopIndex":20,"stopSequence":21,"vertexType":"TRANSIT"},"to":{"name":"Émile Girardin / Roitelets","stopId":"1:253","stopCode":"253","lon":-71.050677,"lat":48.406726,"arrival":1522688216000,"departure":1522688217000,"zoneId":"NA","stopIndex":23,"stopSequence":24,"vertexType":"TRANSIT"},"legGeometry":{"points":"_knfH`~spLXy@nBqGLo@^k@VOf@KjB~@@@~DlB~C|AbBt@FD`Bv@LJ^l@BH?~@B^BL","length":20},"routeShortName":"27","routeLongName":"St-Honoré","rentedBike":false,"transitLeg":true,"duration":117.0,"steps":[]},{"startTime":1522688217000,"endTime":1522688602000,"departureDelay":0,"arrivalDelay":0,"realTime":false,"distance":495.049,"pathway":false,"mode":"WALK","route":"","agencyTimeZoneOffset":-14400000,"interlineWithPreviousLeg":false,"from":{"name":"Émile Girardin / Roitelets","stopId":"1:253","stopCode":"253","lon":-71.050677,"lat":48.406726,"arrival":1522688216000,"departure":1522688217000,"zoneId":"NA","stopIndex":23,"stopSequence":24,"vertexType":"TRANSIT"},"to":{"name":"Destination","lon":-71.055667,"lat":48.408776,"arrival":1522688602000,"orig":"","vertexType":"NORMAL"},"legGeometry":{"points":"qlmfHnatpL@J@FFn@z@pEcA`AgAtAQTOb@aA~Cs@pBk@~AIRO`@GPm@|AUl@","length":17},"rentedBike":false,"transitLeg":false,"duration":385.0,"steps":[{"distance":110.098,"relativeDirection":"DEPART","streetName":"Rue Émile-Girardin","absoluteDirection":"WEST","stayOn":false,"area":false,"bogusName":false,"lon":-71.05063801296859,"lat":48.406654574894674,"elevation":[]},{"distance":384.951,"relativeDirection":"RIGHT","streetName":"Rue des Champs-Élysées","absoluteDirection":"NORTHWEST","stayOn":false,"area":false,"bogusName":false,"lon":-71.05202630000001,"lat":48.4062974,"elevation":[]}]}],"tooSloped":false},{"duration":1219,"startTime":1522688297000,"endTime":1522689516000,"walkTime":108,"transitTime":1109,"waitingTime":2,"walkDistance":136.47209022439938,"walkLimitExceeded":false,"elevationLost":0.0,"elevationGained":0.0,"transfers":0,"legs":[{"startTime":1522688297000,"endTime":1522688389000,"departureDelay":0,"arrivalDelay":0,"realTime":false,"distance":115.25800000000001,"pathway":false,"mode":"WALK","route":"","agencyTimeZoneOffset":-14400000,"interlineWithPreviousLeg":false,"from":{"name":"Origin","lon":-71.046058,"lat":48.415821,"departure":1522688297000,"orig":"","vertexType":"NORMAL"},"to":{"name":"Murdock / Chabanel","stopId":"1:3552","stopCode":"3552","lon":-71.046063,"lat":48.414978,"arrival":1522688389000,"departure":1522688390000,"zoneId":"NA","stopIndex":19,"stopSequence":20,"vertexType":"TRANSIT"},"legGeometry":{"points":"adofHrfspLdAaDt@hABD","length":4},"rentedBike":false,"transitLeg":false,"duration":92.0,"steps":[{"distance":71.382,"relativeDirection":"DEPART","streetName":"Rue Chabanel","absoluteDirection":"SOUTHEAST","stayOn":false,"area":false,"bogusName":false,"lon":-71.04633656038507,"lat":48.415533675726444,"elevation":[]},{"distance":43.876,"relativeDirection":"RIGHT","streetName":"Rue Murdock","absoluteDirection":"SOUTHWEST","stayOn":false,"area":false,"bogusName":false,"lon":-71.0455232,"lat":48.4151863,"elevation":[]}]},{"startTime":1522688390000,"endTime":1522688820000,"departureDelay":0,"arrivalDelay":0,"realTime":false,"distance":1772.2321208598964,"pathway":false,"mode":"BUS","route":"10","agencyName":"Société de Transport du Saguenay","agencyUrl":"http://ville.saguenay.ca/fr/services-aux-citoyens/transport-sts","agencyTimeZoneOffset":-14400000,"routeColor":"0000FF","routeType":3,"routeId":"1:10","routeTextColor":"FFFFFF","interlineWithPreviousLeg":false,"tripBlockId":"26","headsign":"Terminus UQAC","agencyId":"0","tripId":"1:217976","serviceDate":"20180402","from":{"name":"Murdock / Chabanel","stopId":"1:3552","stopCode":"3552","lon":-71.046063,"lat":48.414978,"arrival":1522688389000,"departure":1522688390000,"zoneId":"NA","stopIndex":19,"stopSequence":20,"vertexType":"TRANSIT"},"to":{"name":"Terminus UQAC","stopId":"1:1670","stopCode":"1670","lon":-71.053369,"lat":48.420903,"arrival":1522688820000,"departure":1522689000000,"zoneId":"NA","stopIndex":24,"stopSequence":25,"vertexType":"TRANSIT"},"legGeometry":{"points":"e`ofHhdspLvA~BvB|BdN|Nc@bAuA~C}VeWaEpLeIrU|D~EfDdEwLpKeBgGAsE]gAoD}CUt@a@_@USMM","length":20},"routeShortName":"10","routeLongName":"Notre-Dame du Saguenay","rentedBike":false,"transitLeg":true,"duration":430.0,"steps":[]},{"startTime":1522689000000,"endTime":1522689499000,"departureDelay":0,"arrivalDelay":0,"realTime":false,"distance":2601.259953128011,"pathway":false,"mode":"BUS","route":"12","agencyName":"Société de Transport du Saguenay","agencyUrl":"http://ville.saguenay.ca/fr/services-aux-citoyens/transport-sts","agencyTimeZoneOffset":-14400000,"routeColor":"556B2F","routeType":3,"routeId":"1:12","routeTextColor":"FFFFFF","interlineWithPreviousLeg":true,"tripBlockId":"26","headsign":"Terminus Chicoutimi","agencyId":"0","tripId":"1:217977","serviceDate":"20180402","from":{"name":"Terminus UQAC","stopId":"1:1670","stopCode":"1670","lon":-71.053369,"lat":48.420903,"arrival":1522688820000,"departure":1522689000000,"zoneId":"NA","stopIndex":0,"stopSequence":1,"vertexType":"TRANSIT"},"to":{"name":"Place du Saguenay (Champs-Élysées)","stopId":"1:571","stopCode":"571","lon":-71.055824,"lat":48.408307,"arrival":1522689499000,"departure":1522689500000,"zoneId":"NA","stopIndex":12,"stopSequence":13,"vertexType":"TRANSIT"},"legGeometry":{"points":"sepfHprtpL}@y@Pw@wAsAaB{A}DrL?jCv@fCa@nDaC`D~E`F~MfNjJnJ~GbHnCpCv@iBlAgIdCmFbAqDtBeCjFm@`Gs@hFo@xAmBrGcP","length":25},"routeShortName":"12","routeLongName":"Rivière du Moulin","rentedBike":false,"transitLeg":true,"duration":499.0,"steps":[]},{"startTime":1522689500000,"endTime":1522689516000,"departureDelay":0,"arrivalDelay":0,"realTime":false,"distance":21.178,"pathway":false,"mode":"WALK","route":"","agencyTimeZoneOffset":-14400000,"interlineWithPreviousLeg":false,"from":{"name":"Place du Saguenay (Champs-Élysées)","stopId":"1:571","stopCode":"571","lon":-71.055824,"lat":48.408307,"arrival":1522689499000,"departure":1522689500000,"zoneId":"NA","stopIndex":12,"stopSequence":13,"vertexType":"TRANSIT"},"to":{"name":"Destination","lon":-71.055667,"lat":48.408776,"arrival":1522689516000,"orig":"","vertexType":"NORMAL"},"legGeometry":{"points":"iwmfHnaupLUl@","length":2},"rentedBike":false,"transitLeg":false,"duration":16.0,"steps":[{"distance":21.178,"relativeDirection":"DEPART","streetName":"Rue des Champs-Élysées","absoluteDirection":"NORTHWEST","stayOn":false,"area":false,"bogusName":false,"lon":-71.05575512063196,"lat":48.408370203803415,"elevation":[]}]}],"tooSloped":false}]},"debugOutput":{"precalculationTime":45,"pathCalculationTime":24,"pathTimes":[15,4,5],"renderingTime":0,"totalTime":69,"timedOut":false},"elevationMetadata":{"ellipsoidToGeoidDifference":-28.885904201182168,"geoidElevation":false}}