{"requestParameters":{"date":"2018/04/02","walkSpeed":"1.33","walkReluctance":"2.0","fromPlace":"48.408776,-71.055667","maxWalkDistance":"3000","waitReluctance":"1.0","carSpeed":"33","numItineraries":"3","waitAtBeginningFactor":"0.4","mode":"TRANSIT,WALK","ignoreRealtimeUpdates":"false","stairsReluctance":"2.0","toPlace":"48.403374,-71.058501","time":"13:30:00"},"plan":{"date":1522690200000,"from":{"name":"Origin","lon":-71.055667,"lat":48.408776,"orig":"","vertexType":"NORMAL"},"to":{"name":"Destination","lon":-71.058501,"lat":48.403374,"orig":"","vertexType":"NORMAL"},"itineraries":[{"duration":561,"startTime":1522690200000,"endTime":1522690761000,"walkTime":561,"transitTime":0,"waitingTime":0,"walkDistance":717.7966240569357,"walkLimitExceeded":false,"elevationLost":0.0,"elevationGained":0.0,"transfers":0,"legs":[{"startTime":1522690200000,"endTime":1522690761000,"departureDelay":0,"arrivalDelay":0,"realTime":false,"distance":717.6969999999998,"pathway":false,"mode":"WALK","route":"","agencyTimeZoneOffset":-14400000,"interlineWithPreviousLeg":false,"from":{"name":"Origin","lon":-71.055667,"lat":48.408776,"departure":1522690200000,"orig":"","vertexType":"NORMAL"},"to":{"name":"Destination","lon":-71.058501,"lat":48.403374,"arrival":1522690761000,"orig":"","vertexType":"NORMAL"},"legGeometry":{"points":"_xmfH|bupLTm@l@}AFQNa@JJzFjF|DpDLJhE~Dt@aCTTTT\\ZXVXVXXXVXV@@","length":20},"rentedBike":false,"transitLeg":false,"duration":561.0,"steps":[{"distance":87.23,"relativeDirection":"DEPART","streetName":"Rue des Champs-Élysées","absoluteDirection":"SOUTHEAST","stayOn":false,"area":false,"bogusName":false,"lon":-71.05598758317785,"lat":48.40848183785827,"elevation":[]},{"distance":439.014,"relativeDirection":"RIGHT","streetName":"Boulevard Talbot","absoluteDirection":"SOUTHWEST","stayOn":false,"area":false,"bogusName":false,"lon":-71.05502820000001,"lat":48.4080238,"elevation":[]},{"distance":191.45299999999997,"relativeDirection":"LEFT","streetName":"parking aisle","absoluteDirection":"SOUTHEAST","stayOn":false,"area":false,"bogusName":true,"lon":-71.0581722,"lat":48.4046724,"elevation":[]}]}],"tooSloped":false},{"duration":693,"startTime":1522691603000,"endTime":1522692296000,"walkTime":560,"transitTime":131,"waitingTime":2,"walkDistance":706.6216240553224,"walkLimitExceeded":false,"elevationLost":0.0,"elevationGained":0.0,"transfers":0,"legs":[{"startTime":1522691603000,"endTime":1522691988000,"departureDelay":0,"arrivalDelay":0,"realTime":false,"distance":495.049,"pathway":false,"mode":"WALK","route":"","agencyTimeZoneOffset":-14400000,"interlineWithPreviousLeg":false,"from":{"name":"Origin","lon":-71.055667,"lat":48.408776,"departure":1522691603000,"orig":"","vertexType":"NORMAL"},"to":{"name":"Émile Girardin / Roitelets","stopId":"1:253","stopCode":"253","lon":-71.050677,"lat":48.406726,"arrival":1522691988000,"departure":1522691989000,"zoneId":"NA","stopIndex":17,"stopSequence":18,"vertexType":"TRANSIT"},"legGeometry":{"points":"_xmfH|bupLTm@l@}AFQNa@HSj@_Br@qB`A_DNc@PUfAuAbAaA{@qEGo@AGAK","length":17},"rentedBike":false,"transitLeg":false,"duration":385.0,"steps":[{"distance":384.951,"relativeDirection":"DEPART","streetName":"Rue des Champs-Élysées","absoluteDirection":"SOUTHEAST","stayOn":false,"area":false,"bogusName":false,"lon":-71.05598758317785,"lat":48.40848183785827,"elevation":[]},{"distance":110.09799999999998,"relativeDirection":"LEFT","streetName":"Rue Émile-Girardin","absoluteDirection":"NORTHEAST","stayOn":false,"area":false,"bogusName":false,"lon":-71.05202630000001,"lat":48.4062974,"elevation":[]}]},{"startTime":1522691989000,"endTime":1522692120000,"departureDelay":0,"arrivalDelay":0,"realTime":false,"distance":1005.6276159597858,"pathway":false,"mode":"BUS","route":"175","agencyName":"Société de Transport du Saguenay","agencyUrl":"http://ville.saguenay.ca/fr/services-aux-citoyens/transport-sts","agencyTimeZoneOffset":-14400000,"routeColor":"FF00FF","routeType":3,"routeId":"1:175","routeTextColor":"FFFFFF","interlineWithPreviousLeg":false,"tripBlockId":"8","headsign":"Costco","agencyId":"0","tripId":"1:217371","serviceDate":"20180402","from":{"name":"Émile Girardin / Roitelets","stopId":"1:253","stopCode":"253","lon":-71.050677,"lat":48.406726,"arrival":1522691988000,"departure":1522691989000,"zoneId":"NA","stopIndex":17,"stopSequence":18,"vertexType":"TRANSIT"},"to":{"name":"Place du Royaume (Saguenéens)","stopId":"1:1294","stopCode":"1294","lon":-71.057691,"lat":48.402355,"arrival":1522692120000,"departure":1522692121000,"zoneId":"NA","stopIndex":20,"stopSequence":21,"vertexType":"TRANSIT"},"legGeometry":{"points":"_lmfHhatpLr@~Gx@]PEr@ObACn@FrBb@|@Ch@Kx@U~HsB^KZ|DJpII~Fa@rFUzBi@bD","length":19},"routeShortName":"175","routeLongName":"Term. Chic / Costco","rentedBike":false,"transitLeg":true,"duration":131.0,"steps":[]},{"startTime":1522692121000,"endTime":1522692296000,"departureDelay":0,"arrivalDelay":0,"realTime":false,"distance":211.423,"pathway":false,"mode":"WALK","route":"","agencyTimeZoneOffset":-14400000,"interlineWithPreviousLeg":false,"from":{"name":"Place du Royaume (Saguenéens)","stopId":"1:1294","stopCode":"1294","lon":-71.057691,"lat":48.402355,"arrival":1522692120000,"departure":1522692121000,"zoneId":"NA","stopIndex":20,"stopSequence":21,"vertexType":"TRANSIT"},"to":{"name":"Destination","lon":-71.058501,"lat":48.403374,"arrival":1522692296000,"orig":"","vertexType":"NORMAL"},"legGeometry":{"points":"iqlfHxmupLa@dCMh@GM[m@i@aAMZe@pAIT[Y","length":10},"rentedBike":false,"transitLeg":false,"duration":175.0,"steps":[{"distance":70.008,"relativeDirection":"DEPART","streetName":"Rue des Saguenéens","absoluteDirection":"WEST","stayOn":false,"area":false,"bogusName":false,"lon":-71.05772328170832,"lat":48.402297506554895,"elevation":[]},{"distance":63.614000000000004,"relativeDirection":"RIGHT","streetName":"service road","absoluteDirection":"NORTHEAST","stayOn":false,"area":false,"bogusName":true,"lon":-71.0586019,"lat":48.4025327,"elevation":[]},{"distance":77.801,"relativeDirection":"LEFT","streetName":"parking aisle","absoluteDirection":"NORTHWEST","stayOn":true,"area":false,"bogusName":true,"lon":-71.0579793,"lat":48.402928200000005,"elevation":[]}]}],"tooSloped":false}]},"debugOutput":{"precalculationTime":45,"pathCalculationTime":29,"pathTimes":[13,7,9],"renderingTime":0,"totalTime":74,"timedOut":false},"elevationMetadata":{"ellipsoidToGeoidDifference":-28.885904201182168,"geoidElevation":false}}