{"requestParameters":{"date":"2018/04/02","walkSpeed":"1.33","walkReluctance":"2.0","fromPlace":"48.42269,-71.044387","maxWalkDistance":"3000","waitReluctance":"1.0","carSpeed":"33","numItineraries":"3","waitAtBeginningFactor":"0.4","mode":"TRANSIT,WALK","ignoreRealtimeUpdates":"false","stairsReluctance":"2.0","toPlace":"48.423148,-71.052406","time":"8:30:00"},"plan":{"date":1522672200000,"from":{"name":"Origin","lon":-71.044387,"lat":48.42269,"orig":"","vertexType":"NORMAL"},"to":{"name":"Destination","lon":-71.052406,"lat":48.423148,"orig":"","vertexType":"NORMAL"},"itineraries":[{"duration":661,"startTime":1522672200000,"endTime":1522672861000,"walkTime":661,"transitTime":0,"waitingTime":0,"walkDistance":839.3554887154969,"walkLimitExceeded":false,"elevationLost":0.0,"elevationGained":0.0,"transfers":0,"legs":[{"startTime":1522672200000,"endTime":1522672861000,"departureDelay":0,"arrivalDelay":0,"realTime":false,"distance":839.1600000000002,"pathway":false,"mode":"WALK","route":"","agencyTimeZoneOffset":-14400000,"interlineWithPreviousLeg":false,"from":{"name":"Origin","lon":-71.044387,"lat":48.42269,"departure":1522672200000,"orig":"","vertexType":"NORMAL"},"to":{"name":"Destination","lon":-71.052406,"lat":48.423148,"arrival":1522672861000,"orig":"","vertexType":"NORMAL"},"legGeometry":{"points":"oopfH~zrpLE`@ALQ|AMpACJQ`BJDJF~@~@|CbDo@bBm@dBo@vA]`@aA~@GDi@f@}@Xs@DSx@I`@Cf@JHd@ZJFYbC\\PZPLb@HTBbB?f@","length":33},"rentedBike":false,"transitLeg":false,"duration":661.0,"steps":[{"distance":127.52199999999999,"relativeDirection":"DEPART","streetName":"Rue du Cénacle","absoluteDirection":"WEST","stayOn":false,"area":false,"bogusName":false,"lon":-71.04447564072281,"lat":48.422481969617124,"elevation":[]},{"distance":163.088,"relativeDirection":"LEFT","streetName":"Rue Bécard","absoluteDirection":"SOUTH","stayOn":false,"area":false,"bogusName":false,"lon":-71.04614020000001,"lat":48.4227902,"elevation":[]},{"distance":294.831,"relativeDirection":"RIGHT","streetName":"Chemin Sydenham","absoluteDirection":"NORTHWEST","stayOn":false,"area":false,"bogusName":false,"lon":-71.0473547,"lat":48.4215682,"elevation":[]},{"distance":52.897,"relativeDirection":"LEFT","streetName":"path","absoluteDirection":"NORTHWEST","stayOn":false,"area":false,"bogusName":true,"lon":-71.0496871,"lat":48.42357620000001,"elevation":[]},{"distance":37.986,"relativeDirection":"LEFT","streetName":"road","absoluteDirection":"SOUTHWEST","stayOn":true,"area":false,"bogusName":true,"lon":-71.0503491,"lat":48.423747000000006,"elevation":[]},{"distance":162.83599999999998,"relativeDirection":"RIGHT","streetName":"service road","absoluteDirection":"WEST","stayOn":true,"area":false,"bogusName":true,"lon":-71.0505725,"lat":48.4234394,"elevation":[]}]}],"tooSloped":false},{"duration":716,"startTime":1522673918000,"endTime":1522674634000,"walkTime":630,"transitTime":84,"waitingTime":2,"walkDistance":790.3195939772962,"walkLimitExceeded":false,"elevationLost":0.0,"elevationGained":0.0,"transfers":0,"legs":[{"startTime":1522673918000,"endTime":1522674100000,"departureDelay":0,"arrivalDelay":0,"realTime":false,"distance":221.903,"pathway":false,"mode":"WALK","route":"","agencyTimeZoneOffset":-14400000,"interlineWithPreviousLeg":false,"from":{"name":"Origin","lon":-71.044387,"lat":48.42269,"departure":1522673918000,"orig":"","vertexType":"NORMAL"},"to":{"name":"nouveau","stopId":"1:2289","stopCode":"2289","lon":-71.043198,"lat":48.421725,"arrival":1522674100000,"departure":1522674101000,"zoneId":"NA","stopIndex":11,"stopSequence":12,"vertexType":"TRANSIT"},"legGeometry":{"points":"oopfH~zrpLHo@Da@nAp@JFdBkFu@S","length":7},"rentedBike":false,"transitLeg":false,"duration":182.0,"steps":[{"distance":31.249,"relativeDirection":"DEPART","streetName":"Rue du Cénacle","absoluteDirection":"EAST","stayOn":false,"area":false,"bogusName":false,"lon":-71.04447564072281,"lat":48.422481969617124,"elevation":[]},{"distance":55.471000000000004,"relativeDirection":"RIGHT","streetName":"Rue de Sales","absoluteDirection":"SOUTH","stayOn":false,"area":false,"bogusName":false,"lon":-71.04406780000001,"lat":48.422406300000006,"elevation":[]},{"distance":103.944,"relativeDirection":"LEFT","streetName":"Rue Charles-Huot","absoluteDirection":"SOUTHEAST","stayOn":false,"area":false,"bogusName":false,"lon":-71.04435140000001,"lat":48.4219443,"elevation":[]},{"distance":31.239,"relativeDirection":"LEFT","streetName":"Boulevard Talbot","absoluteDirection":"NORTH","stayOn":false,"area":false,"bogusName":false,"lon":-71.0431721,"lat":48.4214331,"elevation":[]}]},{"startTime":1522674101000,"endTime":1522674185000,"departureDelay":0,"arrivalDelay":0,"realTime":false,"distance":365.26611515609284,"pathway":false,"mode":"BUS","route":"10","agencyName":"Société de Transport du Saguenay","agencyUrl":"http://ville.saguenay.ca/fr/services-aux-citoyens/transport-sts","agencyTimeZoneOffset":-14400000,"routeColor":"0000FF","routeType":3,"routeId":"1:10","routeTextColor":"FFFFFF","interlineWithPreviousLeg":false,"tripBlockId":"28","headsign":"Terminus Chicoutimi","agencyId":"0","tripId":"1:218030","serviceDate":"20180402","from":{"name":"nouveau","stopId":"1:2289","stopCode":"2289","lon":-71.043198,"lat":48.421725,"arrival":1522674100000,"departure":1522674101000,"zoneId":"NA","stopIndex":11,"stopSequence":12,"vertexType":"TRANSIT"},"to":{"name":"nouveau","stopId":"1:2285","stopCode":"2285","lon":-71.04706,"lat":48.42154,"arrival":1522674185000,"departure":1522674186000,"zoneId":"NA","stopIndex":13,"stopSequence":14,"vertexType":"TRANSIT"},"legGeometry":{"points":"ujpfHprrpL~ElAhChAsBtFaEvK","length":5},"routeShortName":"10","routeLongName":"Notre-Dame du Saguenay","rentedBike":false,"transitLeg":true,"duration":84.0,"steps":[]},{"startTime":1522674186000,"endTime":1522674634000,"departureDelay":0,"arrivalDelay":0,"realTime":false,"distance":568.179,"pathway":false,"mode":"WALK","route":"","agencyTimeZoneOffset":-14400000,"interlineWithPreviousLeg":false,"from":{"name":"nouveau","stopId":"1:2285","stopCode":"2285","lon":-71.04706,"lat":48.42154,"arrival":1522674185000,"departure":1522674186000,"zoneId":"NA","stopIndex":13,"stopSequence":14,"vertexType":"TRANSIT"},"to":{"name":"Destination","lon":-71.052406,"lat":48.423148,"arrival":1522674634000,"orig":"","vertexType":"NORMAL"},"legGeometry":{"points":"cipfHrkspLSj@o@bBm@dBo@vA]`@aA~@GDi@f@}@Xs@DSx@I`@Cf@JHd@ZJFYbC\\PZPLb@HTBbB?f@","length":24},"rentedBike":false,"transitLeg":false,"duration":448.0,"steps":[{"distance":314.46000000000004,"relativeDirection":"DEPART","streetName":"Chemin Sydenham","absoluteDirection":"NORTHWEST","stayOn":false,"area":false,"bogusName":false,"lon":-71.04713656370923,"lat":48.42146718345403,"elevation":[]},{"distance":52.897,"relativeDirection":"LEFT","streetName":"path","absoluteDirection":"NORTHWEST","stayOn":false,"area":false,"bogusName":true,"lon":-71.0496871,"lat":48.42357620000001,"elevation":[]},{"distance":37.986,"relativeDirection":"LEFT","streetName":"road","absoluteDirection":"SOUTHWEST","stayOn":true,"area":false,"bogusName":true,"lon":-71.0503491,"lat":48.423747000000006,"elevation":[]},{"distance":162.83599999999998,"relativeDirection":"RIGHT","streetName":"service road","absoluteDirection":"WEST","stayOn":true,"area":false,"bogusName":true,"lon":-71.0505725,"lat":48.4234394,"elevation":[]}]}],"tooSloped":false}]},"debugOutput":{"precalculationTime":44,"pathCalculationTime":24,"pathTimes":[7,10,7],"renderingTime":1,"totalTime":69,"timedOut":false},"elevationMetadata":{"ellipsoidToGeoidDifference":-28.885904201182168,"geoidElevation":false}}