{"requestParameters":{"date":"2018/04/02","walkSpeed":"1.33","walkReluctance":"2.0","fromPlace":"48.402927,-71.060087","maxWalkDistance":"3000","waitReluctance":"1.0","carSpeed":"33","numItineraries":"3","waitAtBeginningFactor":"0.4","mode":"TRANSIT,WALK","ignoreRealtimeUpdates":"false","stairsReluctance":"2.0","toPlace":"48.395234,-71.069299","time":"12:0:00"},"plan":{"date":1522684800000,"from":{"name":"Origin","lon":-71.060087,"lat":48.402927,"orig":"","vertexType":"NORMAL"},"to":{"name":"Destination","lon":-71.069299,"lat":48.395234,"orig":"","vertexType":"NORMAL"},"itineraries":[{"duration":292,"startTime":1522684883000,"endTime":1522685175000,"walkTime":106,"transitTime":184,"waitingTime":2,"walkDistance":132.89795488618694,"walkLimitExceeded":false,"elevationLost":0.0,"elevationGained":0.0,"transfers":0,"legs":[{"startTime":1522684883000,"endTime":1522684975000,"departureDelay":0,"arrivalDelay":0,"realTime":false,"distance":115.479,"pathway":false,"mode":"WALK","route":"","agencyTimeZoneOffset":-14400000,"interlineWithPreviousLeg":false,"from":{"name":"Origin","lon":-71.060087,"lat":48.402927,"departure":1522684883000,"orig":"","vertexType":"NORMAL"},"to":{"name":"boul. Talbot (no. 1494) (Tim-Horton)","stopId":"1:1854","stopCode":"1854","lon":-71.060941,"lat":48.402118,"arrival":1522684975000,"departure":1522684976000,"zoneId":"NA","stopIndex":21,"stopSequence":22,"vertexType":"TRANSIT"},"legGeometry":{"points":"kulfHn|upLDIfDbD","length":3},"rentedBike":false,"transitLeg":false,"duration":92.0,"steps":[{"distance":4.33,"relativeDirection":"DEPART","streetName":"Rue des Saguenéens","absoluteDirection":"SOUTHEAST","stayOn":false,"area":false,"bogusName":false,"lon":-71.06007025782489,"lat":48.402940191876965,"elevation":[]},{"distance":111.149,"relativeDirection":"RIGHT","streetName":"Boulevard Talbot","absoluteDirection":"SOUTHWEST","stayOn":false,"area":false,"bogusName":false,"lon":-71.0600254,"lat":48.4029151,"elevation":[]}]},{"startTime":1522684976000,"endTime":1522685160000,"departureDelay":0,"arrivalDelay":0,"realTime":false,"distance":1002.070971778586,"pathway":false,"mode":"BUS","route":"175","agencyName":"Société de Transport du Saguenay","agencyUrl":"http://ville.saguenay.ca/fr/services-aux-citoyens/transport-sts","agencyTimeZoneOffset":-14400000,"routeColor":"FF00FF","routeType":3,"routeId":"1:175","routeTextColor":"FFFFFF","interlineWithPreviousLeg":false,"tripBlockId":"7","headsign":"Costco","agencyId":"0","tripId":"1:217331","serviceDate":"20180402","from":{"name":"boul. Talbot (no. 1494) (Tim-Horton)","stopId":"1:1854","stopCode":"1854","lon":-71.060941,"lat":48.402118,"arrival":1522684975000,"departure":1522684976000,"zoneId":"NA","stopIndex":21,"stopSequence":22,"vertexType":"TRANSIT"},"to":{"name":"boul. Talbot (no. 1870)","stopId":"1:1556","stopCode":"1556","lon":-71.069429,"lat":48.3951,"arrival":1522685160000,"departure":1522685161000,"zoneId":"NA","stopIndex":24,"stopSequence":25,"vertexType":"TRANSIT"},"legGeometry":{"points":"_plfHjavpLjF`FjCrCrAvAbCfDjIfMdAzAfFpHd@n@nC`D","length":10},"routeShortName":"175","routeLongName":"Term. Chic / Costco","rentedBike":false,"transitLeg":true,"duration":184.0,"steps":[]},{"startTime":1522685161000,"endTime":1522685175000,"departureDelay":0,"arrivalDelay":0,"realTime":false,"distance":17.387,"pathway":false,"mode":"WALK","route":"","agencyTimeZoneOffset":-14400000,"interlineWithPreviousLeg":false,"from":{"name":"boul. Talbot (no. 1870)","stopId":"1:1556","stopCode":"1556","lon":-71.069429,"lat":48.3951,"arrival":1522685160000,"departure":1522685161000,"zoneId":"NA","stopIndex":24,"stopSequence":25,"vertexType":"TRANSIT"},"to":{"name":"Destination","lon":-71.069299,"lat":48.395234,"arrival":1522685175000,"orig":"","vertexType":"NORMAL"},"legGeometry":{"points":"adkfHjvwpLUYAA","length":3},"rentedBike":false,"transitLeg":false,"duration":14.0,"steps":[{"distance":17.387,"relativeDirection":"DEPART","streetName":"Boulevard Talbot","absoluteDirection":"NORTHEAST","stayOn":false,"area":false,"bogusName":false,"lon":-71.0693341574882,"lat":48.39505259726926,"elevation":[]}]}],"tooSloped":false},{"duration":841,"startTime":1522684800000,"endTime":1522685641000,"walkTime":841,"transitTime":0,"waitingTime":0,"walkDistance":1101.2818421040743,"walkLimitExceeded":false,"elevationLost":0.0,"elevationGained":0.0,"transfers":0,"legs":[{"startTime":1522684800000,"endTime":1522685641000,"departureDelay":0,"arrivalDelay":0,"realTime":false,"distance":1101.245,"pathway":false,"mode":"WALK","route":"","agencyTimeZoneOffset":-14400000,"interlineWithPreviousLeg":false,"from":{"name":"Origin","lon":-71.060087,"lat":48.402927,"departure":1522684800000,"orig":"","vertexType":"NORMAL"},"to":{"name":"Destination","lon":-71.069299,"lat":48.395234,"arrival":1522685641000,"orig":"","vertexType":"NORMAL"},"legGeometry":{"points":"kulfHn|upLDIfDbDjAhAvBtBbC`Cn@v@t@`AhCfDLN`@h@fJnNLPlAbBjCpDHL`D`E","length":17},"rentedBike":false,"transitLeg":false,"duration":841.0,"steps":[{"distance":4.33,"relativeDirection":"DEPART","streetName":"Rue des Saguenéens","absoluteDirection":"SOUTHEAST","stayOn":false,"area":false,"bogusName":false,"lon":-71.06007025782489,"lat":48.402940191876965,"elevation":[]},{"distance":1096.915,"relativeDirection":"RIGHT","streetName":"Boulevard Talbot","absoluteDirection":"SOUTHWEST","stayOn":false,"area":false,"bogusName":false,"lon":-71.0600254,"lat":48.4029151,"elevation":[]}]}],"tooSloped":false},{"duration":292,"startTime":1522685783000,"endTime":1522686075000,"walkTime":106,"transitTime":184,"waitingTime":2,"walkDistance":132.89795488618694,"walkLimitExceeded":false,"elevationLost":0.0,"elevationGained":0.0,"transfers":0,"legs":[{"startTime":1522685783000,"endTime":1522685875000,"departureDelay":0,"arrivalDelay":0,"realTime":false,"distance":115.479,"pathway":false,"mode":"WALK","route":"","agencyTimeZoneOffset":-14400000,"interlineWithPreviousLeg":false,"from":{"name":"Origin","lon":-71.060087,"lat":48.402927,"departure":1522685783000,"orig":"","vertexType":"NORMAL"},"to":{"name":"boul. Talbot (no. 1494) (Tim-Horton)","stopId":"1:1854","stopCode":"1854","lon":-71.060941,"lat":48.402118,"arrival":1522685875000,"departure":1522685876000,"zoneId":"NA","stopIndex":21,"stopSequence":22,"vertexType":"TRANSIT"},"legGeometry":{"points":"kulfHn|upLDIfDbD","length":3},"rentedBike":false,"transitLeg":false,"duration":92.0,"steps":[{"distance":4.33,"relativeDirection":"DEPART","streetName":"Rue des Saguenéens","absoluteDirection":"SOUTHEAST","stayOn":false,"area":false,"bogusName":false,"lon":-71.06007025782489,"lat":48.402940191876965,"elevation":[]},{"distance":111.149,"relativeDirection":"RIGHT","streetName":"Boulevard Talbot","absoluteDirection":"SOUTHWEST","stayOn":false,"area":false,"bogusName":false,"lon":-71.0600254,"lat":48.4029151,"elevation":[]}]},{"startTime":1522685876000,"endTime":1522686060000,"departureDelay":0,"arrivalDelay":0,"realTime":false,"distance":1002.070971778586,"pathway":false,"mode":"BUS","route":"175","agencyName":"Société de Transport du Saguenay","agencyUrl":"http://ville.saguenay.ca/fr/services-aux-citoyens/transport-sts","agencyTimeZoneOffset":-14400000,"routeColor":"FF00FF","routeType":3,"routeId":"1:175","routeTextColor":"FFFFFF","interlineWithPreviousLeg":false,"tripBlockId":"78","headsign":"Costco","agencyId":"0","tripId":"1:218643","serviceDate":"20180402","from":{"name":"boul. Talbot (no. 1494) (Tim-Horton)","stopId":"1:1854","stopCode":"1854","lon":-71.060941,"lat":48.402118,"arrival":1522685875000,"departure":1522685876000,"zoneId":"NA","stopIndex":21,"stopSequence":22,"vertexType":"TRANSIT"},"to":{"name":"boul. Talbot (no. 1870)","stopId":"1:1556","stopCode":"1556","lon":-71.069429,"lat":48.3951,"arrival":1522686060000,"departure":1522686061000,"zoneId":"NA","stopIndex":24,"stopSequence":25,"vertexType":"TRANSIT"},"legGeometry":{"points":"_plfHjavpLjF`FjCrCrAvAbCfDjIfMdAzAfFpHd@n@nC`D","length":10},"routeShortName":"175","routeLongName":"Term. Chic / Costco","rentedBike":false,"transitLeg":true,"duration":184.0,"steps":[]},{"startTime":1522686061000,"endTime":1522686075000,"departureDelay":0,"arrivalDelay":0,"realTime":false,"distance":17.387,"pathway":false,"mode":"WALK","route":"","agencyTimeZoneOffset":-14400000,"interlineWithPreviousLeg":false,"from":{"name":"boul. Talbot (no. 1870)","stopId":"1:1556","stopCode":"1556","lon":-71.069429,"lat":48.3951,"arrival":1522686060000,"departure":1522686061000,"zoneId":"NA","stopIndex":24,"stopSequence":25,"vertexType":"TRANSIT"},"to":{"name":"Destination","lon":-71.069299,"lat":48.395234,"arrival":1522686075000,"orig":"","vertexType":"NORMAL"},"legGeometry":{"points":"adkfHjvwpLUYAA","length":3},"rentedBike":false,"transitLeg":false,"duration":14.0,"steps":[{"distance":17.387,"relativeDirection":"DEPART","streetName":"Boulevard Talbot","absoluteDirection":"NORTHEAST","stayOn":false,"area":false,"bogusName":false,"lon":-71.0693341574882,"lat":48.39505259726926,"elevation":[]}]}],"tooSloped":false}]},"debugOutput":{"precalculationTime":35,"pathCalculationTime":23,"pathTimes":[15,4,4],"renderingTime":1,"totalTime":59,"timedOut":false},"elevationMetadata":{"ellipsoidToGeoidDifference":-28.885904201182168,"geoidElevation":false}}