{"requestParameters":{"date":"2018/04/02","walkSpeed":"1.33","walkReluctance":"2.0","fromPlace":"48.396569,-71.11286499","maxWalkDistance":"3000","waitReluctance":"1.0","carSpeed":"33","numItineraries":"3","waitAtBeginningFactor":"0.4","mode":"TRANSIT,WALK","ignoreRealtimeUpdates":"false","stairsReluctance":"2.0","toPlace":"48.404592,-71.074478","time":"12:0:00"},"plan":{"date":1522684800000,"from":{"name":"Origin","lon":-71.11286499,"lat":48.396569,"orig":"","vertexType":"NORMAL"},"to":{"name":"Destination","lon":-71.074478,"lat":48.404592,"orig":"","vertexType":"NORMAL"},"itineraries":[{"duration":2423,"startTime":1522685028000,"endTime":1522687451000,"walkTime":1474,"transitTime":936,"waitingTime":13,"walkDistance":1897.4801353301461,"walkLimitExceeded":false,"elevationLost":0.0,"elevationGained":0.0,"transfers":1,"legs":[{"startTime":1522685028000,"endTime":1522685099000,"departureDelay":0,"arrivalDelay":0,"realTime":false,"distance":93.827,"pathway":false,"mode":"WALK","route":"","agencyTimeZoneOffset":-14400000,"interlineWithPreviousLeg":false,"from":{"name":"Origin","lon":-71.11286499,"lat":48.396569,"departure":1522685028000,"orig":"","vertexType":"NORMAL"},"to":{"name":"Société de Transport du Saguenay","stopId":"1:1924","stopCode":"1924","lon":-71.114415,"lat":48.39638,"arrival":1522685099000,"departure":1522685100000,"zoneId":"NA","stopIndex":24,"stopSequence":25,"vertexType":"TRANSIT"},"legGeometry":{"points":"mjkfHth`qLgAdF","length":2},"rentedBike":false,"transitLeg":false,"duration":71.0,"steps":[{"distance":93.827,"relativeDirection":"DEPART","streetName":"Rue Bersimis","absoluteDirection":"NORTHWEST","stayOn":false,"area":false,"bogusName":false,"lon":-71.11322797948361,"lat":48.396071492500376,"elevation":[]}]},{"startTime":1522685100000,"endTime":1522685216000,"departureDelay":0,"arrivalDelay":0,"realTime":false,"distance":1490.8540407076568,"pathway":false,"mode":"BUS","route":"11","agencyName":"Société de Transport du Saguenay","agencyUrl":"http://ville.saguenay.ca/fr/services-aux-citoyens/transport-sts","agencyTimeZoneOffset":-14400000,"routeColor":"FF0000","routeType":3,"routeId":"1:11","routeTextColor":"FFFFFF","interlineWithPreviousLeg":false,"tripBlockId":"35","headsign":"Boul.Royaume/St-Pierre","agencyId":"0","tripId":"1:218252","serviceDate":"20180402","from":{"name":"Société de Transport du Saguenay","stopId":"1:1924","stopCode":"1924","lon":-71.114415,"lat":48.39638,"arrival":1522685099000,"departure":1522685100000,"zoneId":"NA","stopIndex":24,"stopSequence":25,"vertexType":"TRANSIT"},"to":{"name":"boul. Royaume (no. 1409)","stopId":"1:264","stopCode":"264","lon":-71.118186,"lat":48.388875,"arrival":1522685216000,"departure":1522685216000,"zoneId":"NA","stopIndex":28,"stopSequence":29,"vertexType":"TRANSIT"},"legGeometry":{"points":"ylkfHvo`qLvE}Sh@kCb@oCXyBTuAFSBMl@iBlHjJxEtGPRbBdBp@r@xDpDrL`LlAtAiBdFOd@oCrH","length":20},"routeShortName":"11","routeLongName":"Chic/Faubourg via St-Paul","rentedBike":false,"transitLeg":true,"duration":116.0,"steps":[]},{"startTime":1522685216000,"endTime":1522685229000,"departureDelay":0,"arrivalDelay":0,"realTime":false,"distance":13.493,"pathway":false,"mode":"WALK","route":"","agencyTimeZoneOffset":-14400000,"interlineWithPreviousLeg":false,"from":{"name":"boul. Royaume (no. 1409)","stopId":"1:264","stopCode":"264","lon":-71.118186,"lat":48.388875,"arrival":1522685216000,"departure":1522685216000,"zoneId":"NA","stopIndex":28,"stopSequence":29,"vertexType":"TRANSIT"},"to":{"name":"boul. Royaume (no. 1460)","stopId":"1:267","stopCode":"267","lon":-71.1185,"lat":48.388791,"arrival":1522685229000,"departure":1522685240000,"zoneId":"NA","stopIndex":23,"stopSequence":24,"vertexType":"TRANSIT"},"legGeometry":{"points":"a}ifHbhaqLMZ","length":2},"rentedBike":false,"transitLeg":false,"duration":13.0,"steps":[{"distance":13.493,"relativeDirection":"DEPART","streetName":"Boulevard du Royaume Ouest","absoluteDirection":"NORTHWEST","stayOn":false,"area":false,"bogusName":false,"lon":-71.11825025873861,"lat":48.3888149249102,"elevation":[]}]},{"startTime":1522685240000,"endTime":1522685460000,"departureDelay":0,"arrivalDelay":0,"realTime":false,"distance":2570.2679685702965,"pathway":false,"mode":"BUS","route":"2","agencyName":"Société de Transport du Saguenay","agencyUrl":"http://ville.saguenay.ca/fr/services-aux-citoyens/transport-sts","agencyTimeZoneOffset":-14400000,"routeColor":"FF0000","routeType":3,"routeId":"1:2","routeTextColor":"FFFFFF","interlineWithPreviousLeg":false,"tripBlockId":"11","headsign":"Costco","agencyId":"0","tripId":"1:217472","serviceDate":"20180402","from":{"name":"boul. Royaume (no. 1460)","stopId":"1:267","stopCode":"267","lon":-71.1185,"lat":48.388791,"arrival":1522685229000,"departure":1522685240000,"zoneId":"NA","stopIndex":23,"stopSequence":24,"vertexType":"TRANSIT"},"to":{"name":"COSTCO","stopId":"1:1710","stopCode":"1710","lon":-71.085767,"lat":48.382333,"arrival":1522685460000,"departure":1522685700000,"zoneId":"NA","stopIndex":28,"stopSequence":29,"vertexType":"TRANSIT"},"legGeometry":{"points":"e}ifHjiaqL|BaGbDgIz@{B|G}WVyBfB_OrBsTDa]?sD`@uc@tBcJz@yDtI}UaCcC","length":15},"routeShortName":"2","routeLongName":"Chic/Jonq via Boul. Royaume","rentedBike":false,"transitLeg":true,"duration":220.0,"steps":[]},{"startTime":1522685700000,"endTime":1522686060000,"departureDelay":0,"arrivalDelay":0,"realTime":false,"distance":1990.475444549822,"pathway":false,"mode":"BUS","route":"175","agencyName":"Société de Transport du Saguenay","agencyUrl":"http://ville.saguenay.ca/fr/services-aux-citoyens/transport-sts","agencyTimeZoneOffset":-14400000,"routeColor":"FF00FF","routeType":3,"routeId":"1:175","routeTextColor":"FFFFFF","interlineWithPreviousLeg":true,"tripBlockId":"11","headsign":"Terminus Chicoutimi","agencyId":"0","tripId":"1:217473","serviceDate":"20180402","from":{"name":"COSTCO","stopId":"1:1710","stopCode":"1710","lon":-71.085767,"lat":48.382333,"arrival":1522685460000,"departure":1522685700000,"zoneId":"NA","stopIndex":0,"stopSequence":1,"vertexType":"TRANSIT"},"to":{"name":"boul. Talbot / boul. Barrette","stopId":"1:49","stopCode":"49","lon":-71.069502,"lat":48.394497,"arrival":1522686060000,"departure":1522686061000,"zoneId":"NA","stopIndex":7,"stopSequence":8,"vertexType":"TRANSIT"},"legGeometry":{"points":"euhfHt|zpL_BiBsCoDwCqDrCsGN_@uEoFoEiFUWSUqCwC]a@{ByC{@cAkJuKoAwA_CeCeExJ~AlB`@mAu@k@}@q@|C}Iw@}@aO_QkEsE","length":26},"routeShortName":"175","routeLongName":"Term. Chic / Costco","rentedBike":false,"transitLeg":true,"duration":360.0,"steps":[]},{"startTime":1522686061000,"endTime":1522687451000,"departureDelay":0,"arrivalDelay":0,"realTime":false,"distance":1789.9060000000006,"pathway":false,"mode":"WALK","route":"","agencyTimeZoneOffset":-14400000,"interlineWithPreviousLeg":false,"from":{"name":"boul. Talbot / boul. Barrette","stopId":"1:49","stopCode":"49","lon":-71.069502,"lat":48.394497,"arrival":1522686060000,"departure":1522686061000,"zoneId":"NA","stopIndex":7,"stopSequence":8,"vertexType":"TRANSIT"},"to":{"name":"Destination","lon":-71.074478,"lat":48.404592,"arrival":1522687451000,"orig":"","vertexType":"NORMAL"},"legGeometry":{"points":"}`kfHdxwpL|BlCQb@}EfMy@xBWl@e@dBGRiArEgBzG[fAuAoAyB}By@cAw@aAuAlDoCwCyAg@}A_@uBJk@IOM{AkAM^{@dCk@zAc@bAy@bAMNe@{@gA}BwAyC_AmBU\\MP","length":35},"rentedBike":false,"transitLeg":false,"duration":1390.0,"steps":[{"distance":87.727,"relativeDirection":"DEPART","streetName":"Boulevard Talbot","absoluteDirection":"SOUTHWEST","stayOn":false,"area":false,"bogusName":false,"lon":-71.06962085488986,"lat":48.394555935445034,"elevation":[]},{"distance":593.355,"relativeDirection":"RIGHT","streetName":"Boulevard Barrette","absoluteDirection":"NORTHWEST","stayOn":false,"area":false,"bogusName":false,"lon":-71.0703318,"lat":48.3939238,"elevation":[]},{"distance":219.137,"relativeDirection":"RIGHT","streetName":"Rue des Cent-Associés","absoluteDirection":"NORTHEAST","stayOn":false,"area":false,"bogusName":false,"lon":-71.07708930000001,"lat":48.396790800000005,"elevation":[]},{"distance":80.599,"relativeDirection":"LEFT","streetName":"Rue des Vingt-et-Un","absoluteDirection":"NORTHWEST","stayOn":false,"area":false,"bogusName":false,"lon":-71.0753823,"lat":48.3984004,"elevation":[]},{"distance":362.48800000000006,"relativeDirection":"RIGHT","streetName":"Rue de la Place Royale","absoluteDirection":"NORTHEAST","stayOn":false,"area":false,"bogusName":false,"lon":-71.0762516,"lat":48.3988389,"elevation":[]},{"distance":198.84300000000002,"relativeDirection":"LEFT","streetName":"Rue Saint-Urbain","absoluteDirection":"NORTHWEST","stayOn":false,"area":false,"bogusName":false,"lon":-71.07469180000001,"lat":48.401827600000004,"elevation":[]},{"distance":220.405,"relativeDirection":"RIGHT","streetName":"Rue Bégin","absoluteDirection":"NORTHEAST","stayOn":false,"area":false,"bogusName":false,"lon":-71.0767486,"lat":48.402957,"elevation":[]},{"distance":27.352,"relativeDirection":"LEFT","streetName":"Rue Ballantyne","absoluteDirection":"NORTHWEST","stayOn":false,"area":false,"bogusName":false,"lon":-71.07449910000001,"lat":48.4042602,"elevation":[]}]}],"tooSloped":false},{"duration":1880,"startTime":1522685807000,"endTime":1522687687000,"walkTime":678,"transitTime":759,"waitingTime":443,"walkDistance":890.0028345853743,"walkLimitExceeded":false,"elevationLost":0.0,"elevationGained":0.0,"transfers":1,"legs":[{"startTime":1522685807000,"endTime":1522685879000,"departureDelay":0,"arrivalDelay":0,"realTime":false,"distance":94.595,"pathway":false,"mode":"WALK","route":"","agencyTimeZoneOffset":-14400000,"interlineWithPreviousLeg":false,"from":{"name":"Origin","lon":-71.11286499,"lat":48.396569,"departure":1522685807000,"orig":"","vertexType":"NORMAL"},"to":{"name":"Société de Transport du Saguenay","stopId":"1:96","stopCode":"96","lon":-71.114331,"lat":48.396511,"arrival":1522685879000,"departure":1522685880000,"zoneId":"NA","stopIndex":7,"stopSequence":8,"vertexType":"TRANSIT"},"legGeometry":{"points":"mjkfHth`qLgAdFA@","length":3},"rentedBike":false,"transitLeg":false,"duration":72.0,"steps":[{"distance":94.595,"relativeDirection":"DEPART","streetName":"Rue Bersimis","absoluteDirection":"NORTHWEST","stayOn":false,"area":false,"bogusName":false,"lon":-71.11322797948361,"lat":48.396071492500376,"elevation":[]}]},{"startTime":1522685880000,"endTime":1522686485000,"departureDelay":0,"arrivalDelay":0,"realTime":false,"distance":1877.3972157614737,"pathway":false,"mode":"BUS","route":"11","agencyName":"Société de Transport du Saguenay","agencyUrl":"http://ville.saguenay.ca/fr/services-aux-citoyens/transport-sts","agencyTimeZoneOffset":-14400000,"routeColor":"FF0000","routeType":3,"routeId":"1:11","routeTextColor":"FFFFFF","interlineWithPreviousLeg":false,"tripBlockId":"35","headsign":"Terminus Chicoutimi","agencyId":"0","tripId":"1:218253","serviceDate":"20180402","from":{"name":"Société de Transport du Saguenay","stopId":"1:96","stopCode":"96","lon":-71.114331,"lat":48.396511,"arrival":1522685879000,"departure":1522685880000,"zoneId":"NA","stopIndex":7,"stopSequence":8,"vertexType":"TRANSIT"},"to":{"name":"boul. Barrette / Estacade","stopId":"1:478","stopCode":"478","lon":-71.098119,"lat":48.404568,"arrival":1522686485000,"departure":1522686485000,"zoneId":"NA","stopIndex":12,"stopSequence":13,"vertexType":"TRANSIT"},"legGeometry":{"points":"ylkfHzo`qL}@dEoLxh@GLIHI@KAgN{IhHu[p@aCjDyJfQie@`AmCJ[kXi[gKsLqMgOmAbDAVSl@","length":20},"routeShortName":"11","routeLongName":"Chic/Faubourg via St-Paul","rentedBike":false,"transitLeg":true,"duration":605.0,"steps":[]},{"startTime":1522686485000,"endTime":1522687025000,"departureDelay":0,"arrivalDelay":0,"realTime":false,"distance":714.458,"pathway":false,"mode":"WALK","route":"","agencyTimeZoneOffset":-14400000,"interlineWithPreviousLeg":false,"from":{"name":"boul. Barrette / Estacade","stopId":"1:478","stopCode":"478","lon":-71.098119,"lat":48.404568,"arrival":1522686485000,"departure":1522686485000,"zoneId":"NA","stopIndex":12,"stopSequence":13,"vertexType":"TRANSIT"},"to":{"name":"Malraux / Pagnol","stopId":"1:441","stopCode":"441","lon":-71.09356,"lat":48.400447,"arrival":1522687025000,"departure":1522687466000,"zoneId":"NA","stopIndex":6,"stopSequence":7,"vertexType":"TRANSIT"},"legGeometry":{"points":"__mfHzj}pLhB{ErCsHFQx@uBzEwM@?`@kAjFzFDD","length":10},"rentedBike":false,"transitLeg":false,"duration":540.0,"steps":[{"distance":549.651,"relativeDirection":"DEPART","streetName":"Boulevard Barrette","absoluteDirection":"SOUTHEAST","stayOn":false,"area":false,"bogusName":false,"lon":-71.09821286252294,"lat":48.40448187965961,"elevation":[]},{"distance":164.807,"relativeDirection":"RIGHT","streetName":"Rue Malraux","absoluteDirection":"SOUTHWEST","stayOn":false,"area":false,"bogusName":false,"lon":-71.0921587,"lat":48.401604500000005,"elevation":[]}]},{"startTime":1522687466000,"endTime":1522687620000,"departureDelay":0,"arrivalDelay":0,"realTime":false,"distance":2067.5661085441734,"pathway":false,"mode":"BUS","route":"14","agencyName":"Société de Transport du Saguenay","agencyUrl":"http://ville.saguenay.ca/fr/services-aux-citoyens/transport-sts","agencyTimeZoneOffset":-14400000,"routeColor":"C0C000","routeType":3,"routeId":"1:14","routeTextColor":"000000","interlineWithPreviousLeg":false,"tripBlockId":"33","headsign":"Terminus Chicoutimi","agencyId":"0","tripId":"1:218184","serviceDate":"20180402","from":{"name":"Malraux / Pagnol","stopId":"1:441","stopCode":"441","lon":-71.09356,"lat":48.400447,"arrival":1522687025000,"departure":1522687466000,"zoneId":"NA","stopIndex":6,"stopSequence":7,"vertexType":"TRANSIT"},"to":{"name":"Bégin / Ballantyne","stopId":"1:451","stopCode":"451","lon":-71.07501,"lat":48.403916,"arrival":1522687620000,"departure":1522687621000,"zoneId":"NA","stopIndex":15,"stopSequence":16,"vertexType":"TRANSIT"},"legGeometry":{"points":"melfHbm|pLhCtCdDY|F_On@aB`B_GNoBvAyT|@sNuAyAuF}F}AaB_BkAC@qC\\gAWiBwBiKgMiCwEgEyHCG","length":21},"routeShortName":"14","routeLongName":"Coopérative","rentedBike":false,"transitLeg":true,"duration":154.0,"steps":[]},{"startTime":1522687621000,"endTime":1522687687000,"departureDelay":0,"arrivalDelay":0,"realTime":false,"distance":80.91600000000001,"pathway":false,"mode":"WALK","route":"","agencyTimeZoneOffset":-14400000,"interlineWithPreviousLeg":false,"from":{"name":"Bégin / Ballantyne","stopId":"1:451","stopCode":"451","lon":-71.07501,"lat":48.403916,"arrival":1522687620000,"departure":1522687621000,"zoneId":"NA","stopIndex":15,"stopSequence":16,"vertexType":"TRANSIT"},"to":{"name":"Destination","lon":-71.074478,"lat":48.404592,"arrival":1522687687000,"orig":"","vertexType":"NORMAL"},"legGeometry":{"points":"s{lfH`zxpL_AmBU\\MP","length":4},"rentedBike":false,"transitLeg":false,"duration":66.0,"steps":[{"distance":53.564,"relativeDirection":"DEPART","streetName":"Rue Bégin","absoluteDirection":"NORTHEAST","stayOn":false,"area":false,"bogusName":false,"lon":-71.07504767716766,"lat":48.40394489025268,"elevation":[]},{"distance":27.352,"relativeDirection":"LEFT","streetName":"Rue Ballantyne","absoluteDirection":"NORTHWEST","stayOn":false,"area":false,"bogusName":false,"lon":-71.07449910000001,"lat":48.4042602,"elevation":[]}]}],"tooSloped":false},{"duration":1880,"startTime":1522687607000,"endTime":1522689487000,"walkTime":678,"transitTime":759,"waitingTime":443,"walkDistance":890.0028345853743,"walkLimitExceeded":false,"elevationLost":0.0,"elevationGained":0.0,"transfers":1,"legs":[{"startTime":1522687607000,"endTime":1522687679000,"departureDelay":0,"arrivalDelay":0,"realTime":false,"distance":94.595,"pathway":false,"mode":"WALK","route":"","agencyTimeZoneOffset":-14400000,"interlineWithPreviousLeg":false,"from":{"name":"Origin","lon":-71.11286499,"lat":48.396569,"departure":1522687607000,"orig":"","vertexType":"NORMAL"},"to":{"name":"Société de Transport du Saguenay","stopId":"1:96","stopCode":"96","lon":-71.114331,"lat":48.396511,"arrival":1522687679000,"departure":1522687680000,"zoneId":"NA","stopIndex":7,"stopSequence":8,"vertexType":"TRANSIT"},"legGeometry":{"points":"mjkfHth`qLgAdFA@","length":3},"rentedBike":false,"transitLeg":false,"duration":72.0,"steps":[{"distance":94.595,"relativeDirection":"DEPART","streetName":"Rue Bersimis","absoluteDirection":"NORTHWEST","stayOn":false,"area":false,"bogusName":false,"lon":-71.11322797948361,"lat":48.396071492500376,"elevation":[]}]},{"startTime":1522687680000,"endTime":1522688285000,"departureDelay":0,"arrivalDelay":0,"realTime":false,"distance":1877.3972157614737,"pathway":false,"mode":"BUS","route":"11","agencyName":"Société de Transport du Saguenay","agencyUrl":"http://ville.saguenay.ca/fr/services-aux-citoyens/transport-sts","agencyTimeZoneOffset":-14400000,"routeColor":"FF0000","routeType":3,"routeId":"1:11","routeTextColor":"FFFFFF","interlineWithPreviousLeg":false,"tripBlockId":"37","headsign":"Terminus Chicoutimi","agencyId":"0","tripId":"1:218315","serviceDate":"20180402","from":{"name":"Société de Transport du Saguenay","stopId":"1:96","stopCode":"96","lon":-71.114331,"lat":48.396511,"arrival":1522687679000,"departure":1522687680000,"zoneId":"NA","stopIndex":7,"stopSequence":8,"vertexType":"TRANSIT"},"to":{"name":"boul. Barrette / Estacade","stopId":"1:478","stopCode":"478","lon":-71.098119,"lat":48.404568,"arrival":1522688285000,"departure":1522688285000,"zoneId":"NA","stopIndex":12,"stopSequence":13,"vertexType":"TRANSIT"},"legGeometry":{"points":"ylkfHzo`qL}@dEoLxh@GLIHI@KAgN{IhHu[p@aCjDyJfQie@`AmCJ[kXi[gKsLqMgOmAbDAVSl@","length":20},"routeShortName":"11","routeLongName":"Chic/Faubourg via St-Paul","rentedBike":false,"transitLeg":true,"duration":605.0,"steps":[]},{"startTime":1522688285000,"endTime":1522688825000,"departureDelay":0,"arrivalDelay":0,"realTime":false,"distance":714.458,"pathway":false,"mode":"WALK","route":"","agencyTimeZoneOffset":-14400000,"interlineWithPreviousLeg":false,"from":{"name":"boul. Barrette / Estacade","stopId":"1:478","stopCode":"478","lon":-71.098119,"lat":48.404568,"arrival":1522688285000,"departure":1522688285000,"zoneId":"NA","stopIndex":12,"stopSequence":13,"vertexType":"TRANSIT"},"to":{"name":"Malraux / Pagnol","stopId":"1:441","stopCode":"441","lon":-71.09356,"lat":48.400447,"arrival":1522688825000,"departure":1522689266000,"zoneId":"NA","stopIndex":6,"stopSequence":7,"vertexType":"TRANSIT"},"legGeometry":{"points":"__mfHzj}pLhB{ErCsHFQx@uBzEwM@?`@kAjFzFDD","length":10},"rentedBike":false,"transitLeg":false,"duration":540.0,"steps":[{"distance":549.651,"relativeDirection":"DEPART","streetName":"Boulevard Barrette","absoluteDirection":"SOUTHEAST","stayOn":false,"area":false,"bogusName":false,"lon":-71.09821286252294,"lat":48.40448187965961,"elevation":[]},{"distance":164.807,"relativeDirection":"RIGHT","streetName":"Rue Malraux","absoluteDirection":"SOUTHWEST","stayOn":false,"area":false,"bogusName":false,"lon":-71.0921587,"lat":48.401604500000005,"elevation":[]}]},{"startTime":1522689266000,"endTime":1522689420000,"departureDelay":0,"arrivalDelay":0,"realTime":false,"distance":2067.5661085441734,"pathway":false,"mode":"BUS","route":"14","agencyName":"Société de Transport du Saguenay","agencyUrl":"http://ville.saguenay.ca/fr/services-aux-citoyens/transport-sts","agencyTimeZoneOffset":-14400000,"routeColor":"C0C000","routeType":3,"routeId":"1:14","routeTextColor":"000000","interlineWithPreviousLeg":false,"tripBlockId":"31","headsign":"Terminus Chicoutimi","agencyId":"0","tripId":"1:218135","serviceDate":"20180402","from":{"name":"Malraux / Pagnol","stopId":"1:441","stopCode":"441","lon":-71.09356,"lat":48.400447,"arrival":1522688825000,"departure":1522689266000,"zoneId":"NA","stopIndex":6,"stopSequence":7,"vertexType":"TRANSIT"},"to":{"name":"Bégin / Ballantyne","stopId":"1:451","stopCode":"451","lon":-71.07501,"lat":48.403916,"arrival":1522689420000,"departure":1522689421000,"zoneId":"NA","stopIndex":15,"stopSequence":16,"vertexType":"TRANSIT"},"legGeometry":{"points":"melfHbm|pLhCtCdDY|F_On@aB`B_GNoBvAyT|@sNuAyAuF}F}AaB_BkAC@qC\\gAWiBwBiKgMiCwEgEyHCG","length":21},"routeShortName":"14","routeLongName":"Coopérative","rentedBike":false,"transitLeg":true,"duration":154.0,"steps":[]},{"startTime":1522689421000,"endTime":1522689487000,"departureDelay":0,"arrivalDelay":0,"realTime":false,"distance":80.91600000000001,"pathway":false,"mode":"WALK","route":"","agencyTimeZoneOffset":-14400000,"interlineWithPreviousLeg":false,"from":{"name":"Bégin / Ballantyne","stopId":"1:451","stopCode":"451","lon":-71.07501,"lat":48.403916,"arrival":1522689420000,"departure":1522689421000,"zoneId":"NA","stopIndex":15,"stopSequence":16,"vertexType":"TRANSIT"},"to":{"name":"Destination","lon":-71.074478,"lat":48.404592,"arrival":1522689487000,"orig":"","vertexType":"NORMAL"},"legGeometry":{"points":"s{lfH`zxpL_AmBU\\MP","length":4},"rentedBike":false,"transitLeg":false,"duration":66.0,"steps":[{"distance":53.564,"relativeDirection":"DEPART","streetName":"Rue Bégin","absoluteDirection":"NORTHEAST","stayOn":false,"area":false,"bogusName":false,"lon":-71.07504767716766,"lat":48.40394489025268,"elevation":[]},{"distance":27.352,"relativeDirection":"LEFT","streetName":"Rue Ballantyne","absoluteDirection":"NORTHWEST","stayOn":false,"area":false,"bogusName":false,"lon":-71.07449910000001,"lat":48.4042602,"elevation":[]}]}],"tooSloped":false}]},"debugOutput":{"precalculationTime":23,"pathCalculationTime":19,"pathTimes":[12,4,3],"renderingTime":0,"totalTime":42,"timedOut":false},"elevationMetadata":{"ellipsoidToGeoidDifference":-28.885904201182168,"geoidElevation":false}}