{"requestParameters":{"date":"2018/04/02","walkSpeed":"1.33","walkReluctance":"2.0","fromPlace":"48.401546,-71.062841","maxWalkDistance":"3000","waitReluctance":"1.0","carSpeed":"33","numItineraries":"3","waitAtBeginningFactor":"0.4","mode":"TRANSIT,WALK","ignoreRealtimeUpdates":"false","stairsReluctance":"2.0","toPlace":"48.409862,-71.070882","time":"15:0:00"},"plan":{"date":1522695600000,"from":{"name":"Origin","lon":-71.062841,"lat":48.401546,"orig":"","vertexType":"NORMAL"},"to":{"name":"Destination","lon":-71.070882,"lat":48.409862,"orig":"","vertexType":"NORMAL"},"itineraries":[{"duration":1183,"startTime":1522695600000,"endTime":1522696783000,"walkTime":1183,"transitTime":0,"waitingTime":0,"walkDistance":1519.7544285658973,"walkLimitExceeded":false,"elevationLost":0.0,"elevationGained":0.0,"transfers":0,"legs":[{"startTime":1522695600000,"endTime":1522696783000,"departureDelay":0,"arrivalDelay":0,"realTime":false,"distance":1519.5830000000005,"pathway":false,"mode":"WALK","route":"","agencyTimeZoneOffset":-14400000,"interlineWithPreviousLeg":false,"from":{"name":"Origin","lon":-71.062841,"lat":48.401546,"departure":1522695600000,"orig":"","vertexType":"NORMAL"},"to":{"name":"Destination","lon":-71.070882,"lat":48.409862,"arrival":1522696783000,"orig":"","vertexType":"NORMAL"},"legGeometry":{"points":"wllfHrmvpLa@fA_AhCi@g@u@k@c@USS_DgCW]K_@EUGSGKeA~BaAjAKJkAbA}@v@SDcA~@CB?@gAvA{@dCm@|AGNgBxEGNELQ`@??aD`IKZSO]CGAo@HqBFi@?uBJi@?SAMrCAXAZCfBb@?lA\\j@NFH","length":50},"rentedBike":false,"transitLeg":false,"duration":1183.0,"steps":[{"distance":94.395,"relativeDirection":"DEPART","streetName":"road","absoluteDirection":"NORTHWEST","stayOn":false,"area":false,"bogusName":false,"lon":-71.06281762883856,"lat":48.40156799878133,"elevation":[]},{"distance":253.217,"relativeDirection":"RIGHT","streetName":"Rue Bach","absoluteDirection":"NORTHEAST","stayOn":false,"area":false,"bogusName":false,"lon":-71.06386160000001,"lat":48.402058200000006,"elevation":[]},{"distance":715.36,"relativeDirection":"LEFT","streetName":"Rue des Saguenéens","absoluteDirection":"NORTHWEST","stayOn":false,"area":false,"bogusName":false,"lon":-71.0619727,"lat":48.403908900000005,"elevation":[]},{"distance":246.98399999999998,"relativeDirection":"RIGHT","streetName":"Rue Bégin","absoluteDirection":"NORTHEAST","stayOn":false,"area":false,"bogusName":false,"lon":-71.0688714,"lat":48.4082796,"elevation":[]},{"distance":113.584,"relativeDirection":"LEFT","streetName":"path","absoluteDirection":"WEST","stayOn":false,"area":false,"bogusName":true,"lon":-71.0689037,"lat":48.4104819,"elevation":[]},{"distance":96.043,"relativeDirection":"LEFT","streetName":"Rue d'Angoulème","absoluteDirection":"SOUTH","stayOn":false,"area":false,"bogusName":false,"lon":-71.0704312,"lat":48.4105992,"elevation":[]}]}],"tooSloped":false},{"duration":675,"startTime":1522696451000,"endTime":1522697126000,"walkTime":353,"transitTime":320,"waitingTime":2,"walkDistance":453.4949398471737,"walkLimitExceeded":false,"elevationLost":0.0,"elevationGained":0.0,"transfers":0,"legs":[{"startTime":1522696451000,"endTime":1522696784000,"departureDelay":0,"arrivalDelay":0,"realTime":false,"distance":427.468,"pathway":false,"mode":"WALK","route":"","agencyTimeZoneOffset":-14400000,"interlineWithPreviousLeg":false,"from":{"name":"Origin","lon":-71.062841,"lat":48.401546,"departure":1522696451000,"orig":"","vertexType":"NORMAL"},"to":{"name":"Saguenéens  / Bach","stopId":"1:575","stopCode":"575","lon":-71.061104,"lat":48.403689,"arrival":1522696784000,"departure":1522696785000,"zoneId":"NA","stopIndex":12,"stopSequence":13,"vertexType":"TRANSIT"},"legGeometry":{"points":"wllfHrmvpLa@fA_AhCi@g@u@k@c@USS_DgCW]K_@EUGSGKSSfAoC","length":15},"rentedBike":false,"transitLeg":false,"duration":333.0,"steps":[{"distance":94.395,"relativeDirection":"DEPART","streetName":"road","absoluteDirection":"NORTHWEST","stayOn":false,"area":false,"bogusName":false,"lon":-71.06281762883856,"lat":48.40156799878133,"elevation":[]},{"distance":266.117,"relativeDirection":"RIGHT","streetName":"Rue Bach","absoluteDirection":"NORTHEAST","stayOn":false,"area":false,"bogusName":false,"lon":-71.06386160000001,"lat":48.402058200000006,"elevation":[]},{"distance":66.956,"relativeDirection":"RIGHT","streetName":"Rue des Saguenéens","absoluteDirection":"SOUTHEAST","stayOn":false,"area":false,"bogusName":false,"lon":-71.06187870000001,"lat":48.404006700000004,"elevation":[]}]},{"startTime":1522696785000,"endTime":1522697105000,"departureDelay":0,"arrivalDelay":0,"realTime":false,"distance":1815.0931676860364,"pathway":false,"mode":"BUS","route":"15","agencyName":"Société de Transport du Saguenay","agencyUrl":"http://ville.saguenay.ca/fr/services-aux-citoyens/transport-sts","agencyTimeZoneOffset":-14400000,"routeColor":"FF00FF","routeType":3,"routeId":"1:15","routeTextColor":"FFFFFF","interlineWithPreviousLeg":false,"tripBlockId":"30","headsign":"Terminus Chicoutimi","agencyId":"0","tripId":"1:218104","serviceDate":"20180402","from":{"name":"Saguenéens  / Bach","stopId":"1:575","stopCode":"575","lon":-71.061104,"lat":48.403689,"arrival":1522696784000,"departure":1522696785000,"zoneId":"NA","stopIndex":12,"stopSequence":13,"vertexType":"TRANSIT"},"to":{"name":"Écorceurs - Place des Cordeliers","stopId":"1:543","stopCode":"543","lon":-71.070889,"lat":48.409559,"arrival":1522697105000,"departure":1522697106000,"zoneId":"NA","stopIndex":21,"stopSequence":22,"vertexType":"TRANSIT"},"legGeometry":{"points":"sylfHjcvpLmA|CUr@}@~A_@\\_DvCEZcA|@UP_@d@Yl@oBdFeCxG_CfGYVQXS\\dK|HlFZbC\\p@zA\\rB@hBiArG{BNw@FiG}@iDwAECcCcBo@y@sEeG","length":32},"routeShortName":"15","routeLongName":"Term. Chic / Costco","rentedBike":false,"transitLeg":true,"duration":320.0,"steps":[]},{"startTime":1522697106000,"endTime":1522697126000,"departureDelay":0,"arrivalDelay":0,"realTime":false,"distance":25.951,"pathway":false,"mode":"WALK","route":"","agencyTimeZoneOffset":-14400000,"interlineWithPreviousLeg":false,"from":{"name":"Écorceurs - Place des Cordeliers","stopId":"1:543","stopCode":"543","lon":-71.070889,"lat":48.409559,"arrival":1522697105000,"departure":1522697106000,"zoneId":"NA","stopIndex":21,"stopSequence":22,"vertexType":"TRANSIT"},"to":{"name":"Destination","lon":-71.070882,"lat":48.409862,"arrival":1522697126000,"orig":"","vertexType":"NORMAL"},"legGeometry":{"points":"{~mfHl`xpLc@m@","length":2},"rentedBike":false,"transitLeg":false,"duration":20.0,"steps":[{"distance":25.951,"relativeDirection":"DEPART","streetName":"Rue d'Angoulème","absoluteDirection":"NORTHEAST","stayOn":false,"area":false,"bogusName":false,"lon":-71.07094221482478,"lat":48.40958918107497,"elevation":[]}]}],"tooSloped":false},{"duration":1057,"startTime":1522697000000,"endTime":1522698057000,"walkTime":385,"transitTime":670,"waitingTime":2,"walkDistance":490.30236841791077,"walkLimitExceeded":false,"elevationLost":0.0,"elevationGained":0.0,"transfers":0,"legs":[{"startTime":1522697000000,"endTime":1522697166000,"departureDelay":0,"arrivalDelay":0,"realTime":false,"distance":212.252,"pathway":false,"mode":"WALK","route":"","agencyTimeZoneOffset":-14400000,"interlineWithPreviousLeg":false,"from":{"name":"Origin","lon":-71.062841,"lat":48.401546,"departure":1522697000000,"orig":"","vertexType":"NORMAL"},"to":{"name":"boul. Talbot (no.1600) (mode Choc)","stopId":"1:86","stopCode":"86","lon":-71.06283,"lat":48.40025,"arrival":1522697166000,"departure":1522697167000,"zoneId":"NA","stopIndex":3,"stopSequence":4,"vertexType":"TRANSIT"},"legGeometry":{"points":"wllfHrmvpL|AiEbC`Cn@v@","length":4},"rentedBike":false,"transitLeg":false,"duration":166.0,"steps":[{"distance":91.289,"relativeDirection":"DEPART","streetName":"road","absoluteDirection":"SOUTHEAST","stayOn":false,"area":false,"bogusName":false,"lon":-71.06281762883856,"lat":48.40156799878133,"elevation":[]},{"distance":120.963,"relativeDirection":"RIGHT","streetName":"Boulevard Talbot","absoluteDirection":"SOUTHWEST","stayOn":false,"area":false,"bogusName":false,"lon":-71.06180710000001,"lat":48.4010948,"elevation":[]}]},{"startTime":1522697167000,"endTime":1522697837000,"departureDelay":0,"arrivalDelay":0,"realTime":false,"distance":3380.4370555276682,"pathway":false,"mode":"BUS","route":"204S","agencyName":"Société de Transport du Saguenay","agencyUrl":"http://ville.saguenay.ca/fr/services-aux-citoyens/transport-sts","agencyTimeZoneOffset":-14400000,"routeColor":"8B0000","routeType":3,"routeId":"1:204S","routeTextColor":"FFFFFF","interlineWithPreviousLeg":false,"tripBlockId":"102","headsign":"Dominique-Racine","agencyId":"0","tripId":"1:218772","serviceDate":"20180402","from":{"name":"boul. Talbot (no.1600) (mode Choc)","stopId":"1:86","stopCode":"86","lon":-71.06283,"lat":48.40025,"arrival":1522697166000,"departure":1522697167000,"zoneId":"NA","stopIndex":3,"stopSequence":4,"vertexType":"TRANSIT"},"to":{"name":"Centre jeunesse - Pavillon St-Georges","stopId":"1:579","stopCode":"579","lon":-71.0684,"lat":48.411,"arrival":1522697837000,"departure":1522697838000,"zoneId":"NA","stopIndex":11,"stopSequence":12,"vertexType":"TRANSIT"},"legGeometry":{"points":"gdlfH`mvpLrAvAbCfDjIfMdAzAfFpHd@n@nC`DhEbF{ElMaAjCeGpUIE{@q@OSyBaC_@`AKXG\\KlAmD`JCDCDEFAJAJ@HBJDFDDF@H@HDlAnAKp@OpBEj@YEU?SBODMFQDQB[?OCUGSKUQyAmBa@e@jEkLbCcHqAwAm@k@SQc@O}@Q{A_@]AmBJOEKEEEi@k@s@g@m@bB]x@o@fBSf@U\\{@lAc@s@iD{GkA{BIWGSG[Ee@Ag@@_@F{@T_AL_@Li@Fq@@k@Ce@GaAOq@Ma@Uc@OSQOQMUKUGi@Ei@?eCEUAUCi@Qo@_@uCcCyCgCMSSSY@S@SLuBH_DDe@Eq@Sk@][YMI","length":118},"routeShortName":"204S","routeLongName":"Séminaire - Domaine du Royaume","rentedBike":false,"transitLeg":true,"duration":670.0,"steps":[]},{"startTime":1522697838000,"endTime":1522698057000,"departureDelay":0,"arrivalDelay":0,"realTime":false,"distance":277.953,"pathway":false,"mode":"WALK","route":"","agencyTimeZoneOffset":-14400000,"interlineWithPreviousLeg":false,"from":{"name":"Centre jeunesse - Pavillon St-Georges","stopId":"1:579","stopCode":"579","lon":-71.0684,"lat":48.411,"arrival":1522697837000,"departure":1522697838000,"zoneId":"NA","stopIndex":11,"stopSequence":12,"vertexType":"TRANSIT"},"to":{"name":"Destination","lon":-71.070882,"lat":48.409862,"arrival":1522698057000,"orig":"","vertexType":"NORMAL"},"legGeometry":{"points":"}gnfHbqwpLjAz@`@TMrCAXAZCfBb@?lA\\j@NFH","length":11},"rentedBike":false,"transitLeg":false,"duration":219.0,"steps":[{"distance":68.326,"relativeDirection":"DEPART","streetName":"Rue Bégin","absoluteDirection":"SOUTHWEST","stayOn":false,"area":false,"bogusName":false,"lon":-71.06849858178542,"lat":48.41103391472155,"elevation":[]},{"distance":113.584,"relativeDirection":"RIGHT","streetName":"path","absoluteDirection":"WEST","stayOn":false,"area":false,"bogusName":true,"lon":-71.0689037,"lat":48.4104819,"elevation":[]},{"distance":96.043,"relativeDirection":"LEFT","streetName":"Rue d'Angoulème","absoluteDirection":"SOUTH","stayOn":false,"area":false,"bogusName":false,"lon":-71.0704312,"lat":48.4105992,"elevation":[]}]}],"tooSloped":false}]},"debugOutput":{"precalculationTime":43,"pathCalculationTime":29,"pathTimes":[17,6,6],"renderingTime":1,"totalTime":73,"timedOut":false},"elevationMetadata":{"ellipsoidToGeoidDifference":-28.885904201182168,"geoidElevation":false}}