{"requestParameters":{"date":"2018/04/02","walkSpeed":"1.33","walkReluctance":"2.0","fromPlace":"48.412628,-71.066376","maxWalkDistance":"3000","waitReluctance":"1.0","carSpeed":"33","numItineraries":"3","waitAtBeginningFactor":"0.4","mode":"TRANSIT,WALK","ignoreRealtimeUpdates":"false","stairsReluctance":"2.0","toPlace":"48.407764,-71.05336099","time":"11:0:00"},"plan":{"date":1522681200000,"from":{"name":"Origin","lon":-71.066376,"lat":48.412628,"orig":"","vertexType":"NORMAL"},"to":{"name":"Destination","lon":-71.05336099,"lat":48.407764,"orig":"","vertexType":"NORMAL"},"itineraries":[{"duration":1192,"startTime":1522681200000,"endTime":1522682392000,"walkTime":1192,"transitTime":0,"waitingTime":0,"walkDistance":1539.0885112732096,"walkLimitExceeded":false,"elevationLost":0.0,"elevationGained":0.0,"transfers":0,"legs":[{"startTime":1522681200000,"endTime":1522682392000,"departureDelay":0,"arrivalDelay":0,"realTime":false,"distance":1538.9339999999995,"pathway":false,"mode":"WALK","route":"","agencyTimeZoneOffset":-14400000,"interlineWithPreviousLeg":false,"from":{"name":"Origin","lon":-71.066376,"lat":48.412628,"departure":1522681200000,"orig":"","vertexType":"NORMAL"},"to":{"name":"Destination","lon":-71.05336099,"lat":48.407764,"arrival":1522682392000,"orig":"","vertexType":"NORMAL"},"legGeometry":{"points":"konfHnfwpLBEtByE{EcFoASsAIa@a@}@{@vFiP\\_A`@]dEi@l@GXOZo@No@EqBvC_@`@a@n@}A?A`@}@lCcHd@aAL]Na@\\}@l@}AFQNa@HSj@_Br@qBNe@","length":34},"rentedBike":false,"transitLeg":false,"duration":1192.0,"steps":[{"distance":106.443,"relativeDirection":"DEPART","streetName":"Rue Georges-Vanier","absoluteDirection":"SOUTHEAST","stayOn":false,"area":false,"bogusName":false,"lon":-71.066793,"lat":48.41222,"elevation":[]},{"distance":148.772,"relativeDirection":"LEFT","streetName":"Rue Georges-Vanier","absoluteDirection":"NORTHEAST","stayOn":true,"area":false,"bogusName":false,"lon":-71.0656757,"lat":48.4116147,"elevation":[]},{"distance":44.858,"relativeDirection":"SLIGHTLY_LEFT","streetName":"bike path","absoluteDirection":"NORTH","stayOn":false,"area":false,"bogusName":true,"lon":-71.06453590000001,"lat":48.4127182,"elevation":[]},{"distance":46.958,"relativeDirection":"CONTINUE","streetName":"Rue Georges-Vanier","absoluteDirection":"NORTH","stayOn":false,"area":false,"bogusName":false,"lon":-71.0644384,"lat":48.4131164,"elevation":[]},{"distance":63.473,"relativeDirection":"SLIGHTLY_RIGHT","streetName":"Rue Georges-Vanier","absoluteDirection":"NORTHEAST","stayOn":true,"area":false,"bogusName":false,"lon":-71.064383,"lat":48.413537100000006,"elevation":[]},{"distance":536.2139999999999,"relativeDirection":"RIGHT","streetName":"Rue de Longchamp","absoluteDirection":"SOUTHEAST","stayOn":false,"area":false,"bogusName":false,"lon":-71.0639159,"lat":48.4140164,"elevation":[]},{"distance":592.216,"relativeDirection":"RIGHT","streetName":"Rue des Champs-Élysées","absoluteDirection":"SOUTH","stayOn":false,"area":false,"bogusName":false,"lon":-71.05929110000001,"lat":48.4109186,"elevation":[]}]}],"tooSloped":false},{"duration":812,"startTime":1522681629000,"endTime":1522682441000,"walkTime":570,"transitTime":240,"waitingTime":2,"walkDistance":723.9196090179224,"walkLimitExceeded":false,"elevationLost":0.0,"elevationGained":0.0,"transfers":0,"legs":[{"startTime":1522681629000,"endTime":1522682099000,"departureDelay":0,"arrivalDelay":0,"realTime":false,"distance":604.04,"pathway":false,"mode":"WALK","route":"","agencyTimeZoneOffset":-14400000,"interlineWithPreviousLeg":false,"from":{"name":"Origin","lon":-71.066376,"lat":48.412628,"departure":1522681629000,"orig":"","vertexType":"NORMAL"},"to":{"name":"Champs-Élysées / Bégin","stopId":"1:566","stopCode":"566","lon":-71.064237,"lat":48.415762,"arrival":1522682099000,"departure":1522682100000,"zoneId":"NA","stopIndex":7,"stopSequence":8,"vertexType":"TRANSIT"},"legGeometry":{"points":"konfHnfwpLyAdGMUs@m@{@u@UI_BwBsCqCw@w@CCGGsCqCMOo@m@j@kB","length":15},"rentedBike":false,"transitLeg":false,"duration":470.0,"steps":[{"distance":109.258,"relativeDirection":"DEPART","streetName":"Rue Georges-Vanier","absoluteDirection":"NORTHWEST","stayOn":false,"area":false,"bogusName":false,"lon":-71.066793,"lat":48.41222,"elevation":[]},{"distance":448.497,"relativeDirection":"RIGHT","streetName":"Rue Bégin","absoluteDirection":"NORTHEAST","stayOn":false,"area":false,"bogusName":false,"lon":-71.0681022,"lat":48.4126786,"elevation":[]},{"distance":46.285,"relativeDirection":"RIGHT","streetName":"Rue des Champs-Élysées","absoluteDirection":"SOUTHEAST","stayOn":false,"area":false,"bogusName":false,"lon":-71.0647342,"lat":48.416021,"elevation":[]}]},{"startTime":1522682100000,"endTime":1522682340000,"departureDelay":0,"arrivalDelay":0,"realTime":false,"distance":1324.4564382346837,"pathway":false,"mode":"BUS","route":"12","agencyName":"Société de Transport du Saguenay","agencyUrl":"http://ville.saguenay.ca/fr/services-aux-citoyens/transport-sts","agencyTimeZoneOffset":-14400000,"routeColor":"556B2F","routeType":3,"routeId":"1:12","routeTextColor":"FFFFFF","interlineWithPreviousLeg":false,"tripBlockId":"26","headsign":"Terminus Chicoutimi","agencyId":"0","tripId":"1:217973","serviceDate":"20180402","from":{"name":"Champs-Élysées / Bégin","stopId":"1:566","stopCode":"566","lon":-71.064237,"lat":48.415762,"arrival":1522682099000,"departure":1522682100000,"zoneId":"NA","stopIndex":7,"stopSequence":8,"vertexType":"TRANSIT"},"to":{"name":"Place du Royaume (Champs-Élysées)","stopId":"1:572","stopCode":"572","lon":-71.053302,"lat":48.407097,"arrival":1522682340000,"departure":1522682341000,"zoneId":"NA","stopIndex":13,"stopSequence":14,"vertexType":"TRANSIT"},"legGeometry":{"points":"oeofHnvvpLlAgIdCmFbAqDtBeCjFm@`Gs@hFo@xAmBrGcPxFoN","length":11},"routeShortName":"12","routeLongName":"Rivière du Moulin","rentedBike":false,"transitLeg":true,"duration":240.0,"steps":[]},{"startTime":1522682341000,"endTime":1522682441000,"departureDelay":0,"arrivalDelay":0,"realTime":false,"distance":119.736,"pathway":false,"mode":"WALK","route":"","agencyTimeZoneOffset":-14400000,"interlineWithPreviousLeg":false,"from":{"name":"Place du Royaume (Champs-Élysées)","stopId":"1:572","stopCode":"572","lon":-71.053302,"lat":48.407097,"arrival":1522682340000,"departure":1522682341000,"zoneId":"NA","stopIndex":13,"stopSequence":14,"vertexType":"TRANSIT"},"to":{"name":"Destination","lon":-71.05336099,"lat":48.407764,"arrival":1522682441000,"orig":"","vertexType":"NORMAL"},"legGeometry":{"points":"aomfHrrtpL\\e@U]M[Ob@q@xB","length":6},"rentedBike":false,"transitLeg":false,"duration":100.0,"steps":[{"distance":51.254000000000005,"relativeDirection":"DEPART","streetName":"service road","absoluteDirection":"SOUTHEAST","stayOn":false,"area":false,"bogusName":true,"lon":-71.05337753367286,"lat":48.40705341309266,"elevation":[]},{"distance":68.482,"relativeDirection":"LEFT","streetName":"Rue des Champs-Élysées","absoluteDirection":"NORTHWEST","stayOn":false,"area":false,"bogusName":false,"lon":-71.05289400000001,"lat":48.4070874,"elevation":[]}]}],"tooSloped":false},{"duration":812,"startTime":1522683429000,"endTime":1522684241000,"walkTime":570,"transitTime":240,"waitingTime":2,"walkDistance":723.9196090179224,"walkLimitExceeded":false,"elevationLost":0.0,"elevationGained":0.0,"transfers":0,"legs":[{"startTime":1522683429000,"endTime":1522683899000,"departureDelay":0,"arrivalDelay":0,"realTime":false,"distance":604.04,"pathway":false,"mode":"WALK","route":"","agencyTimeZoneOffset":-14400000,"interlineWithPreviousLeg":false,"from":{"name":"Origin","lon":-71.066376,"lat":48.412628,"departure":1522683429000,"orig":"","vertexType":"NORMAL"},"to":{"name":"Champs-Élysées / Bégin","stopId":"1:566","stopCode":"566","lon":-71.064237,"lat":48.415762,"arrival":1522683899000,"departure":1522683900000,"zoneId":"NA","stopIndex":7,"stopSequence":8,"vertexType":"TRANSIT"},"legGeometry":{"points":"konfHnfwpLyAdGMUs@m@{@u@UI_BwBsCqCw@w@CCGGsCqCMOo@m@j@kB","length":15},"rentedBike":false,"transitLeg":false,"duration":470.0,"steps":[{"distance":109.258,"relativeDirection":"DEPART","streetName":"Rue Georges-Vanier","absoluteDirection":"NORTHWEST","stayOn":false,"area":false,"bogusName":false,"lon":-71.066793,"lat":48.41222,"elevation":[]},{"distance":448.497,"relativeDirection":"RIGHT","streetName":"Rue Bégin","absoluteDirection":"NORTHEAST","stayOn":false,"area":false,"bogusName":false,"lon":-71.0681022,"lat":48.4126786,"elevation":[]},{"distance":46.285,"relativeDirection":"RIGHT","streetName":"Rue des Champs-Élysées","absoluteDirection":"SOUTHEAST","stayOn":false,"area":false,"bogusName":false,"lon":-71.0647342,"lat":48.416021,"elevation":[]}]},{"startTime":1522683900000,"endTime":1522684140000,"departureDelay":0,"arrivalDelay":0,"realTime":false,"distance":1324.4564382346837,"pathway":false,"mode":"BUS","route":"12","agencyName":"Société de Transport du Saguenay","agencyUrl":"http://ville.saguenay.ca/fr/services-aux-citoyens/transport-sts","agencyTimeZoneOffset":-14400000,"routeColor":"556B2F","routeType":3,"routeId":"1:12","routeTextColor":"FFFFFF","interlineWithPreviousLeg":false,"tripBlockId":"29","headsign":"Terminus Chicoutimi","agencyId":"0","tripId":"1:218062","serviceDate":"20180402","from":{"name":"Champs-Élysées / Bégin","stopId":"1:566","stopCode":"566","lon":-71.064237,"lat":48.415762,"arrival":1522683899000,"departure":1522683900000,"zoneId":"NA","stopIndex":7,"stopSequence":8,"vertexType":"TRANSIT"},"to":{"name":"Place du Royaume (Champs-Élysées)","stopId":"1:572","stopCode":"572","lon":-71.053302,"lat":48.407097,"arrival":1522684140000,"departure":1522684141000,"zoneId":"NA","stopIndex":13,"stopSequence":14,"vertexType":"TRANSIT"},"legGeometry":{"points":"oeofHnvvpLlAgIdCmFbAqDtBeCjFm@`Gs@hFo@xAmBrGcPxFoN","length":11},"routeShortName":"12","routeLongName":"Rivière du Moulin","rentedBike":false,"transitLeg":true,"duration":240.0,"steps":[]},{"startTime":1522684141000,"endTime":1522684241000,"departureDelay":0,"arrivalDelay":0,"realTime":false,"distance":119.736,"pathway":false,"mode":"WALK","route":"","agencyTimeZoneOffset":-14400000,"interlineWithPreviousLeg":false,"from":{"name":"Place du Royaume (Champs-Élysées)","stopId":"1:572","stopCode":"572","lon":-71.053302,"lat":48.407097,"arrival":1522684140000,"departure":1522684141000,"zoneId":"NA","stopIndex":13,"stopSequence":14,"vertexType":"TRANSIT"},"to":{"name":"Destination","lon":-71.05336099,"lat":48.407764,"arrival":1522684241000,"orig":"","vertexType":"NORMAL"},"legGeometry":{"points":"aomfHrrtpL\\e@U]M[Ob@q@xB","length":6},"rentedBike":false,"transitLeg":false,"duration":100.0,"steps":[{"distance":51.254000000000005,"relativeDirection":"DEPART","streetName":"service road","absoluteDirection":"SOUTHEAST","stayOn":false,"area":false,"bogusName":true,"lon":-71.05337753367286,"lat":48.40705341309266,"elevation":[]},{"distance":68.482,"relativeDirection":"LEFT","streetName":"Rue des Champs-Élysées","absoluteDirection":"NORTHWEST","stayOn":false,"area":false,"bogusName":false,"lon":-71.05289400000001,"lat":48.4070874,"elevation":[]}]}],"tooSloped":false}]},"debugOutput":{"precalculationTime":55,"pathCalculationTime":35,"pathTimes":[20,5,10],"renderingTime":0,"totalTime":90,"timedOut":false},"elevationMetadata":{"ellipsoidToGeoidDifference":-28.885904201182168,"geoidElevation":false}}