{"requestParameters":{"date":"2018/04/02","walkSpeed":"1.33","walkReluctance":"2.0","fromPlace":"48.383492,-71.08352999","maxWalkDistance":"3000","waitReluctance":"1.0","carSpeed":"33","numItineraries":"3","waitAtBeginningFactor":"0.4","mode":"TRANSIT,WALK","ignoreRealtimeUpdates":"false","stairsReluctance":"2.0","toPlace":"48.399603,-71.081121","time":"16:45:00"},"plan":{"date":1522701900000,"from":{"name":"Origin","lon":-71.08352999,"lat":48.383492,"orig":"","vertexType":"NORMAL"},"to":{"name":"Destination","lon":-71.081121,"lat":48.399603,"orig":"","vertexType":"NORMAL"},"itineraries":[{"duration":1245,"startTime":1522701908000,"endTime":1522703153000,"walkTime":910,"transitTime":333,"waitingTime":2,"walkDistance":1188.1133157870108,"walkLimitExceeded":false,"elevationLost":0.0,"elevationGained":0.0,"transfers":0,"legs":[{"startTime":1522701908000,"endTime":1522701926000,"departureDelay":0,"arrivalDelay":0,"realTime":false,"distance":23.36,"pathway":false,"mode":"WALK","route":"","agencyTimeZoneOffset":-14400000,"interlineWithPreviousLeg":false,"from":{"name":"Origin","lon":-71.08352999,"lat":48.383492,"departure":1522701908000,"orig":"","vertexType":"NORMAL"},"to":{"name":"COSTCO","stopId":"1:1542","stopCode":"1542","lon":-71.084272,"lat":48.383644,"arrival":1522701926000,"departure":1522701927000,"zoneId":"NA","stopIndex":1,"stopSequence":2,"vertexType":"TRANSIT"},"legGeometry":{"points":"_~hfH|rzpLTZJJ","length":3},"rentedBike":false,"transitLeg":false,"duration":18.0,"steps":[{"distance":23.36,"relativeDirection":"DEPART","streetName":"service road","absoluteDirection":"SOUTHWEST","stayOn":false,"area":false,"bogusName":false,"lon":-71.08414271500874,"lat":48.383841239633476,"elevation":[]}]},{"startTime":1522701927000,"endTime":1522702260000,"departureDelay":0,"arrivalDelay":0,"realTime":false,"distance":1807.6085323849115,"pathway":false,"mode":"BUS","route":"175","agencyName":"Société de Transport du Saguenay","agencyUrl":"http://ville.saguenay.ca/fr/services-aux-citoyens/transport-sts","agencyTimeZoneOffset":-14400000,"routeColor":"FF00FF","routeType":3,"routeId":"1:175","routeTextColor":"FFFFFF","interlineWithPreviousLeg":false,"tripBlockId":"11","headsign":"Terminus Chicoutimi","agencyId":"0","tripId":"1:217482","serviceDate":"20180402","from":{"name":"COSTCO","stopId":"1:1542","stopCode":"1542","lon":-71.084272,"lat":48.383644,"arrival":1522701926000,"departure":1522701927000,"zoneId":"NA","stopIndex":1,"stopSequence":2,"vertexType":"TRANSIT"},"to":{"name":"boul. Talbot / boul. Barrette","stopId":"1:49","stopCode":"49","lon":-71.069502,"lat":48.394497,"arrival":1522702260000,"departure":1522702261000,"zoneId":"NA","stopIndex":7,"stopSequence":8,"vertexType":"TRANSIT"},"legGeometry":{"points":"y|hfHzszpLwCqDrCsGN_@uEoFoEiFUWSUqCwC]a@{ByC{@cAkJuKoAwA_CeCeExJ~AlB`@mAu@k@}@q@|C}Iw@}@aO_QkEsE","length":24},"routeShortName":"175","routeLongName":"Term. Chic / Costco","rentedBike":false,"transitLeg":true,"duration":333.0,"steps":[]},{"startTime":1522702261000,"endTime":1522703153000,"departureDelay":0,"arrivalDelay":0,"realTime":false,"distance":1164.6769999999997,"pathway":false,"mode":"WALK","route":"","agencyTimeZoneOffset":-14400000,"interlineWithPreviousLeg":false,"from":{"name":"boul. Talbot / boul. Barrette","stopId":"1:49","stopCode":"49","lon":-71.069502,"lat":48.394497,"arrival":1522702260000,"departure":1522702261000,"zoneId":"NA","stopIndex":7,"stopSequence":8,"vertexType":"TRANSIT"},"to":{"name":"Destination","lon":-71.081121,"lat":48.399603,"arrival":1522703153000,"orig":"","vertexType":"NORMAL"},"legGeometry":{"points":"}`kfHdxwpL|BlCQb@}EfMy@xBWl@e@dBGRiArEgBzG[fAWdAo@bC_DdMc@dBGTKIaAu@ICOCECkC^QG","length":23},"rentedBike":false,"transitLeg":false,"duration":892.0,"steps":[{"distance":87.727,"relativeDirection":"DEPART","streetName":"Boulevard Talbot","absoluteDirection":"SOUTHWEST","stayOn":false,"area":false,"bogusName":false,"lon":-71.06962085488986,"lat":48.394555935445034,"elevation":[]},{"distance":919.6320000000001,"relativeDirection":"RIGHT","streetName":"Boulevard Barrette","absoluteDirection":"NORTHWEST","stayOn":false,"area":false,"bogusName":false,"lon":-71.0703318,"lat":48.3939238,"elevation":[]},{"distance":157.318,"relativeDirection":"RIGHT","streetName":"Rue Bégin","absoluteDirection":"NORTHEAST","stayOn":false,"area":false,"bogusName":false,"lon":-71.080988,"lat":48.3981725,"elevation":[]}]}],"tooSloped":false},{"duration":944,"startTime":1522702808000,"endTime":1522703752000,"walkTime":312,"transitTime":400,"waitingTime":232,"walkDistance":402.87247368293686,"walkLimitExceeded":false,"elevationLost":0.0,"elevationGained":0.0,"transfers":1,"legs":[{"startTime":1522702808000,"endTime":1522702826000,"departureDelay":0,"arrivalDelay":0,"realTime":false,"distance":23.36,"pathway":false,"mode":"WALK","route":"","agencyTimeZoneOffset":-14400000,"interlineWithPreviousLeg":false,"from":{"name":"Origin","lon":-71.08352999,"lat":48.383492,"departure":1522702808000,"orig":"","vertexType":"NORMAL"},"to":{"name":"COSTCO","stopId":"1:1542","stopCode":"1542","lon":-71.084272,"lat":48.383644,"arrival":1522702826000,"departure":1522702827000,"zoneId":"NA","stopIndex":1,"stopSequence":2,"vertexType":"TRANSIT"},"legGeometry":{"points":"_~hfH|rzpLTZJJ","length":3},"rentedBike":false,"transitLeg":false,"duration":18.0,"steps":[{"distance":23.36,"relativeDirection":"DEPART","streetName":"service road","absoluteDirection":"SOUTHWEST","stayOn":false,"area":false,"bogusName":false,"lon":-71.08414271500874,"lat":48.383841239633476,"elevation":[]}]},{"startTime":1522702827000,"endTime":1522703160000,"departureDelay":0,"arrivalDelay":0,"realTime":false,"distance":1807.6085323849115,"pathway":false,"mode":"BUS","route":"175","agencyName":"Société de Transport du Saguenay","agencyUrl":"http://ville.saguenay.ca/fr/services-aux-citoyens/transport-sts","agencyTimeZoneOffset":-14400000,"routeColor":"FF00FF","routeType":3,"routeId":"1:175","routeTextColor":"FFFFFF","interlineWithPreviousLeg":false,"tripBlockId":"77","headsign":"Terminus Chicoutimi","agencyId":"0","tripId":"1:218638","serviceDate":"20180402","from":{"name":"COSTCO","stopId":"1:1542","stopCode":"1542","lon":-71.084272,"lat":48.383644,"arrival":1522702826000,"departure":1522702827000,"zoneId":"NA","stopIndex":1,"stopSequence":2,"vertexType":"TRANSIT"},"to":{"name":"boul. Talbot / boul. Barrette","stopId":"1:49","stopCode":"49","lon":-71.069502,"lat":48.394497,"arrival":1522703160000,"departure":1522703160000,"zoneId":"NA","stopIndex":7,"stopSequence":8,"vertexType":"TRANSIT"},"legGeometry":{"points":"y|hfHzszpLwCqDrCsGN_@uEoFoEiFUWSUqCwC]a@{ByC{@cAkJuKoAwA_CeCeExJ~AlB`@mAu@k@}@q@|C}Iw@}@aO_QkEsE","length":24},"routeShortName":"175","routeLongName":"Term. Chic / Costco","rentedBike":false,"transitLeg":true,"duration":333.0,"steps":[]},{"startTime":1522703160000,"endTime":1522703290000,"departureDelay":0,"arrivalDelay":0,"realTime":false,"distance":169.691,"pathway":false,"mode":"WALK","route":"","agencyTimeZoneOffset":-14400000,"interlineWithPreviousLeg":false,"from":{"name":"boul. Talbot / boul. Barrette","stopId":"1:49","stopCode":"49","lon":-71.069502,"lat":48.394497,"arrival":1522703160000,"departure":1522703160000,"zoneId":"NA","stopIndex":7,"stopSequence":8,"vertexType":"TRANSIT"},"to":{"name":"Roitelets / Sapins","stopId":"1:1513","stopCode":"1513","lon":-71.069396,"lat":48.393523,"arrival":1522703290000,"departure":1522703520000,"zoneId":"NA","stopIndex":0,"stopSequence":1,"vertexType":"TRANSIT"},"legGeometry":{"points":"}`kfHdxwpL|BlCFQ@CnA{C","length":5},"rentedBike":false,"transitLeg":false,"duration":130.0,"steps":[{"distance":87.727,"relativeDirection":"DEPART","streetName":"Boulevard Talbot","absoluteDirection":"SOUTHWEST","stayOn":false,"area":false,"bogusName":false,"lon":-71.06962085488986,"lat":48.394555935445034,"elevation":[]},{"distance":81.964,"relativeDirection":"LEFT","streetName":"Rue Des Roitelets","absoluteDirection":"SOUTHEAST","stayOn":false,"area":false,"bogusName":false,"lon":-71.0703318,"lat":48.3939238,"elevation":[]}]},{"startTime":1522703520000,"endTime":1522703587000,"departureDelay":0,"arrivalDelay":0,"realTime":false,"distance":949.8506897541384,"pathway":false,"mode":"BUS","route":"14","agencyName":"Société de Transport du Saguenay","agencyUrl":"http://ville.saguenay.ca/fr/services-aux-citoyens/transport-sts","agencyTimeZoneOffset":-14400000,"routeColor":"C0C000","routeType":3,"routeId":"1:14","routeTextColor":"000000","interlineWithPreviousLeg":false,"tripBlockId":"31","headsign":"Terminus Chicoutimi","agencyId":"0","tripId":"1:218143","serviceDate":"20180402","from":{"name":"Roitelets / Sapins","stopId":"1:1513","stopCode":"1513","lon":-71.069396,"lat":48.393523,"arrival":1522703290000,"departure":1522703520000,"zoneId":"NA","stopIndex":0,"stopSequence":1,"vertexType":"TRANSIT"},"to":{"name":"boul. Barrette / Bégin","stopId":"1:468","stopCode":"468","lon":-71.080331,"lat":48.397988,"arrival":1522703587000,"departure":1522703588000,"zoneId":"NA","stopIndex":3,"stopSequence":4,"vertexType":"TRANSIT"},"legGeometry":{"points":"azjfHfwwpLiEfLuBzFsAnDgGzSWfAcD`Mi@dC","length":8},"routeShortName":"14","routeLongName":"Coopérative","rentedBike":false,"transitLeg":true,"duration":67.0,"steps":[]},{"startTime":1522703588000,"endTime":1522703752000,"departureDelay":0,"arrivalDelay":0,"realTime":false,"distance":209.78199999999998,"pathway":false,"mode":"WALK","route":"","agencyTimeZoneOffset":-14400000,"interlineWithPreviousLeg":false,"from":{"name":"boul. Barrette / Bégin","stopId":"1:468","stopCode":"468","lon":-71.080331,"lat":48.397988,"arrival":1522703587000,"departure":1522703588000,"zoneId":"NA","stopIndex":3,"stopSequence":4,"vertexType":"TRANSIT"},"to":{"name":"Destination","lon":-71.081121,"lat":48.399603,"arrival":1522703752000,"orig":"","vertexType":"NORMAL"},"legGeometry":{"points":"evkfHh{ypLc@dBGTKIaAu@ICOCECkC^QG","length":10},"rentedBike":false,"transitLeg":false,"duration":164.0,"steps":[{"distance":52.464,"relativeDirection":"DEPART","streetName":"Boulevard Barrette","absoluteDirection":"NORTHWEST","stayOn":false,"area":false,"bogusName":false,"lon":-71.08036046032548,"lat":48.397951117221574,"elevation":[]},{"distance":157.318,"relativeDirection":"RIGHT","streetName":"Rue Bégin","absoluteDirection":"NORTHEAST","stayOn":false,"area":false,"bogusName":false,"lon":-71.080988,"lat":48.3981725,"elevation":[]}]}],"tooSloped":false},{"duration":1245,"startTime":1522703708000,"endTime":1522704953000,"walkTime":910,"transitTime":333,"waitingTime":2,"walkDistance":1188.1133157870108,"walkLimitExceeded":false,"elevationLost":0.0,"elevationGained":0.0,"transfers":0,"legs":[{"startTime":1522703708000,"endTime":1522703726000,"departureDelay":0,"arrivalDelay":0,"realTime":false,"distance":23.36,"pathway":false,"mode":"WALK","route":"","agencyTimeZoneOffset":-14400000,"interlineWithPreviousLeg":false,"from":{"name":"Origin","lon":-71.08352999,"lat":48.383492,"departure":1522703708000,"orig":"","vertexType":"NORMAL"},"to":{"name":"COSTCO","stopId":"1:1542","stopCode":"1542","lon":-71.084272,"lat":48.383644,"arrival":1522703726000,"departure":1522703727000,"zoneId":"NA","stopIndex":1,"stopSequence":2,"vertexType":"TRANSIT"},"legGeometry":{"points":"_~hfH|rzpLTZJJ","length":3},"rentedBike":false,"transitLeg":false,"duration":18.0,"steps":[{"distance":23.36,"relativeDirection":"DEPART","streetName":"service road","absoluteDirection":"SOUTHWEST","stayOn":false,"area":false,"bogusName":false,"lon":-71.08414271500874,"lat":48.383841239633476,"elevation":[]}]},{"startTime":1522703727000,"endTime":1522704060000,"departureDelay":0,"arrivalDelay":0,"realTime":false,"distance":1807.6085323849115,"pathway":false,"mode":"BUS","route":"175","agencyName":"Société de Transport du Saguenay","agencyUrl":"http://ville.saguenay.ca/fr/services-aux-citoyens/transport-sts","agencyTimeZoneOffset":-14400000,"routeColor":"FF00FF","routeType":3,"routeId":"1:175","routeTextColor":"FFFFFF","interlineWithPreviousLeg":false,"tripBlockId":"10","headsign":"Terminus Chicoutimi","agencyId":"0","tripId":"1:217448","serviceDate":"20180402","from":{"name":"COSTCO","stopId":"1:1542","stopCode":"1542","lon":-71.084272,"lat":48.383644,"arrival":1522703726000,"departure":1522703727000,"zoneId":"NA","stopIndex":1,"stopSequence":2,"vertexType":"TRANSIT"},"to":{"name":"boul. Talbot / boul. Barrette","stopId":"1:49","stopCode":"49","lon":-71.069502,"lat":48.394497,"arrival":1522704060000,"departure":1522704061000,"zoneId":"NA","stopIndex":7,"stopSequence":8,"vertexType":"TRANSIT"},"legGeometry":{"points":"y|hfHzszpLwCqDrCsGN_@uEoFoEiFUWSUqCwC]a@{ByC{@cAkJuKoAwA_CeCeExJ~AlB`@mAu@k@}@q@|C}Iw@}@aO_QkEsE","length":24},"routeShortName":"175","routeLongName":"Term. Chic / Costco","rentedBike":false,"transitLeg":true,"duration":333.0,"steps":[]},{"startTime":1522704061000,"endTime":1522704953000,"departureDelay":0,"arrivalDelay":0,"realTime":false,"distance":1164.6769999999997,"pathway":false,"mode":"WALK","route":"","agencyTimeZoneOffset":-14400000,"interlineWithPreviousLeg":false,"from":{"name":"boul. Talbot / boul. Barrette","stopId":"1:49","stopCode":"49","lon":-71.069502,"lat":48.394497,"arrival":1522704060000,"departure":1522704061000,"zoneId":"NA","stopIndex":7,"stopSequence":8,"vertexType":"TRANSIT"},"to":{"name":"Destination","lon":-71.081121,"lat":48.399603,"arrival":1522704953000,"orig":"","vertexType":"NORMAL"},"legGeometry":{"points":"}`kfHdxwpL|BlCQb@}EfMy@xBWl@e@dBGRiArEgBzG[fAWdAo@bC_DdMc@dBGTKIaAu@ICOCECkC^QG","length":23},"rentedBike":false,"transitLeg":false,"duration":892.0,"steps":[{"distance":87.727,"relativeDirection":"DEPART","streetName":"Boulevard Talbot","absoluteDirection":"SOUTHWEST","stayOn":false,"area":false,"bogusName":false,"lon":-71.06962085488986,"lat":48.394555935445034,"elevation":[]},{"distance":919.6320000000001,"relativeDirection":"RIGHT","streetName":"Boulevard Barrette","absoluteDirection":"NORTHWEST","stayOn":false,"area":false,"bogusName":false,"lon":-71.0703318,"lat":48.3939238,"elevation":[]},{"distance":157.318,"relativeDirection":"RIGHT","streetName":"Rue Bégin","absoluteDirection":"NORTHEAST","stayOn":false,"area":false,"bogusName":false,"lon":-71.080988,"lat":48.3981725,"elevation":[]}]}],"tooSloped":false}]},"debugOutput":{"precalculationTime":14,"pathCalculationTime":13,"pathTimes":[6,4,3],"renderingTime":1,"totalTime":28,"timedOut":false},"elevationMetadata":{"ellipsoidToGeoidDifference":-28.885904201182168,"geoidElevation":false}}