{"requestParameters":{"date":"2018/04/02","walkSpeed":"1.33","walkReluctance":"2.0","fromPlace":"48.41388,-71.06744299","maxWalkDistance":"3000","waitReluctance":"1.0","carSpeed":"33","numItineraries":"3","waitAtBeginningFactor":"0.4","mode":"TRANSIT,WALK","ignoreRealtimeUpdates":"false","stairsReluctance":"2.0","toPlace":"48.409354,-71.071857","time":"15:0:00"},"plan":{"date":1522695600000,"from":{"name":"Origin","lon":-71.06744299,"lat":48.41388,"orig":"","vertexType":"NORMAL"},"to":{"name":"Destination","lon":-71.071857,"lat":48.409354,"orig":"","vertexType":"NORMAL"},"itineraries":[{"duration":628,"startTime":1522695600000,"endTime":1522696228000,"walkTime":628,"transitTime":0,"waitingTime":0,"walkDistance":802.929285710598,"walkLimitExceeded":false,"elevationLost":0.0,"elevationGained":0.0,"transfers":0,"legs":[{"startTime":1522695600000,"endTime":1522696228000,"departureDelay":0,"arrivalDelay":0,"realTime":false,"distance":802.8150000000002,"pathway":false,"mode":"WALK","route":"","agencyTimeZoneOffset":-14400000,"interlineWithPreviousLeg":false,"from":{"name":"Origin","lon":-71.06744299,"lat":48.41388,"departure":1522695600000,"orig":"","vertexType":"NORMAL"},"to":{"name":"Destination","lon":-71.071857,"lat":48.409354,"arrival":1522696228000,"orig":"","vertexType":"NORMAL"},"legGeometry":{"points":"{znfHvhwpL`@}@~AvBTHz@t@r@l@LTGhAAvABV?B?FFn@TvAl@tAv@x@|@TjAC`A[DA@?lA?b@?lA\\j@Nj@v@@@Xb@tA|Ae@pA","length":30},"rentedBike":false,"transitLeg":false,"duration":628.0,"steps":[{"distance":29.081,"relativeDirection":"DEPART","streetName":"Rue D'Youville","absoluteDirection":"SOUTHEAST","stayOn":false,"area":false,"bogusName":false,"lon":-71.067151,"lat":48.414064,"elevation":[]},{"distance":165.857,"relativeDirection":"RIGHT","streetName":"Rue Bégin","absoluteDirection":"SOUTHWEST","stayOn":false,"area":false,"bogusName":false,"lon":-71.0668443,"lat":48.4138998,"elevation":[]},{"distance":571.027,"relativeDirection":"RIGHT","streetName":"Rue d'Angoulème","absoluteDirection":"WEST","stayOn":false,"area":false,"bogusName":false,"lon":-71.0681022,"lat":48.4126786,"elevation":[]},{"distance":36.85,"relativeDirection":"RIGHT","streetName":"Place des Écorceurs","absoluteDirection":"NORTHWEST","stayOn":false,"area":false,"bogusName":false,"lon":-71.07160610000001,"lat":48.409015700000005,"elevation":[]}]}],"tooSloped":false},{"duration":328,"startTime":1522697099000,"endTime":1522697427000,"walkTime":214,"transitTime":112,"waitingTime":2,"walkDistance":266.85018044879877,"walkLimitExceeded":false,"elevationLost":0.0,"elevationGained":0.0,"transfers":0,"legs":[{"startTime":1522697099000,"endTime":1522697219000,"departureDelay":0,"arrivalDelay":0,"realTime":false,"distance":150.867,"pathway":false,"mode":"WALK","route":"","agencyTimeZoneOffset":-14400000,"interlineWithPreviousLeg":false,"from":{"name":"Origin","lon":-71.06744299,"lat":48.41388,"departure":1522697099000,"orig":"","vertexType":"NORMAL"},"to":{"name":"École secondaire de l'Odyssé Dominique-Racine","stopId":"1:580","stopCode":"580","lon":-71.067703,"lat":48.412977,"arrival":1522697219000,"departure":1522697220000,"zoneId":"NA","stopIndex":12,"stopSequence":13,"vertexType":"TRANSIT"},"legGeometry":{"points":"{znfHvhwpL`@}@~AvBTHz@t@","length":5},"rentedBike":false,"transitLeg":false,"duration":120.0,"steps":[{"distance":29.081,"relativeDirection":"DEPART","streetName":"Rue D'Youville","absoluteDirection":"SOUTHEAST","stayOn":false,"area":false,"bogusName":false,"lon":-71.067151,"lat":48.414064,"elevation":[]},{"distance":121.786,"relativeDirection":"RIGHT","streetName":"Rue Bégin","absoluteDirection":"SOUTHWEST","stayOn":false,"area":false,"bogusName":false,"lon":-71.0668443,"lat":48.4138998,"elevation":[]}]},{"startTime":1522697220000,"endTime":1522697332000,"departureDelay":0,"arrivalDelay":0,"realTime":false,"distance":488.1492054007068,"pathway":false,"mode":"BUS","route":"15","agencyName":"Société de Transport du Saguenay","agencyUrl":"http://ville.saguenay.ca/fr/services-aux-citoyens/transport-sts","agencyTimeZoneOffset":-14400000,"routeColor":"FF00FF","routeType":3,"routeId":"1:15","routeTextColor":"FFFFFF","interlineWithPreviousLeg":false,"tripBlockId":"33","headsign":"Talbot / Barrette","agencyId":"0","tripId":"1:218189","serviceDate":"20180402","from":{"name":"École secondaire de l'Odyssé Dominique-Racine","stopId":"1:580","stopCode":"580","lon":-71.067703,"lat":48.412977,"arrival":1522697219000,"departure":1522697220000,"zoneId":"NA","stopIndex":12,"stopSequence":13,"vertexType":"TRANSIT"},"to":{"name":"Écorceurs - Place des Cordeliers","stopId":"1:533","stopCode":"533","lon":-71.071031,"lat":48.409623,"arrival":1522697332000,"departure":1522697333000,"zoneId":"NA","stopIndex":15,"stopSequence":16,"vertexType":"TRANSIT"},"legGeometry":{"points":"ctnfHhlwpLdAfALzDNzDrAdBrEKvBEbCv@d@T","length":9},"routeShortName":"15","routeLongName":"Term. Chic / Costco","rentedBike":false,"transitLeg":true,"duration":112.0,"steps":[]},{"startTime":1522697333000,"endTime":1522697427000,"departureDelay":0,"arrivalDelay":0,"realTime":false,"distance":115.911,"pathway":false,"mode":"WALK","route":"","agencyTimeZoneOffset":-14400000,"interlineWithPreviousLeg":false,"from":{"name":"Écorceurs - Place des Cordeliers","stopId":"1:533","stopCode":"533","lon":-71.071031,"lat":48.409623,"arrival":1522697332000,"departure":1522697333000,"zoneId":"NA","stopIndex":15,"stopSequence":16,"vertexType":"TRANSIT"},"to":{"name":"Destination","lon":-71.071857,"lat":48.409354,"arrival":1522697427000,"orig":"","vertexType":"NORMAL"},"legGeometry":{"points":"y~mfHn`xpLXb@tA|Ae@pA","length":4},"rentedBike":false,"transitLeg":false,"duration":94.0,"steps":[{"distance":79.061,"relativeDirection":"DEPART","streetName":"Rue d'Angoulème","absoluteDirection":"SOUTHWEST","stayOn":false,"area":false,"bogusName":false,"lon":-71.07095451770647,"lat":48.40957962276379,"elevation":[]},{"distance":36.85,"relativeDirection":"RIGHT","streetName":"Place des Écorceurs","absoluteDirection":"NORTHWEST","stayOn":false,"area":false,"bogusName":false,"lon":-71.07160610000001,"lat":48.409015700000005,"elevation":[]}]}],"tooSloped":false}]},"debugOutput":{"precalculationTime":58,"pathCalculationTime":19,"pathTimes":[7,8,4],"renderingTime":0,"totalTime":77,"timedOut":false},"elevationMetadata":{"ellipsoidToGeoidDifference":-28.885904201182168,"geoidElevation":false}}