{"requestParameters":{"date":"2018/04/02","walkSpeed":"1.33","walkReluctance":"2.0","fromPlace":"48.40971,-71.07259","maxWalkDistance":"3000","waitReluctance":"1.0","carSpeed":"33","numItineraries":"3","waitAtBeginningFactor":"0.4","mode":"TRANSIT,WALK","ignoreRealtimeUpdates":"false","stairsReluctance":"2.0","toPlace":"48.415665,-71.06147","time":"7:30:00"},"plan":{"date":1522668600000,"from":{"name":"Origin","lon":-71.07259,"lat":48.40971,"orig":"","vertexType":"NORMAL"},"to":{"name":"Destination","lon":-71.06147,"lat":48.415665,"orig":"","vertexType":"NORMAL"},"itineraries":[{"duration":962,"startTime":1522668681000,"endTime":1522669643000,"walkTime":826,"transitTime":134,"waitingTime":2,"walkDistance":1059.8146090179225,"walkLimitExceeded":false,"elevationLost":0.0,"elevationGained":0.0,"transfers":0,"legs":[{"startTime":1522668681000,"endTime":1522669240000,"departureDelay":0,"arrivalDelay":0,"realTime":false,"distance":718.9700000000001,"pathway":false,"mode":"WALK","route":"","agencyTimeZoneOffset":-14400000,"interlineWithPreviousLeg":false,"from":{"name":"Origin","lon":-71.07259,"lat":48.40971,"departure":1522668681000,"orig":"","vertexType":"NORMAL"},"to":{"name":"École secondaire de l'Odyssé Dominique-Racine","stopId":"1:580","stopCode":"580","lon":-71.067703,"lat":48.412977,"arrival":1522669240000,"departure":1522669241000,"zoneId":"NA","stopIndex":10,"stopSequence":11,"vertexType":"TRANSIT"},"legGeometry":{"points":"u~mfHvkxpL`@gAhA}CuA}AYc@AAk@w@k@OmA]c@?mA?A?E@aAZkAB}@Uw@y@m@uAUwAGo@?G?CCW@wAFiAMUs@m@","length":27},"rentedBike":false,"transitLeg":false,"duration":559.0,"steps":[{"distance":103.872,"relativeDirection":"DEPART","streetName":"Place des Écorceurs","absoluteDirection":"SOUTHEAST","stayOn":false,"area":false,"bogusName":false,"lon":-71.07275479986899,"lat":48.40955532783862,"elevation":[]},{"distance":571.027,"relativeDirection":"LEFT","streetName":"Rue d'Angoulème","absoluteDirection":"NORTHEAST","stayOn":false,"area":false,"bogusName":false,"lon":-71.07160610000001,"lat":48.409015700000005,"elevation":[]},{"distance":44.071,"relativeDirection":"LEFT","streetName":"Rue Bégin","absoluteDirection":"NORTHEAST","stayOn":false,"area":false,"bogusName":false,"lon":-71.0681022,"lat":48.4126786,"elevation":[]}]},{"startTime":1522669241000,"endTime":1522669375000,"departureDelay":0,"arrivalDelay":0,"realTime":false,"distance":491.4681487250135,"pathway":false,"mode":"BUS","route":"71S","agencyName":"Société de Transport du Saguenay","agencyUrl":"http://ville.saguenay.ca/fr/services-aux-citoyens/transport-sts","agencyTimeZoneOffset":-14400000,"routeColor":"8B0000","routeType":3,"routeId":"1:71S","routeTextColor":"FFFFFF","interlineWithPreviousLeg":false,"tripBlockId":"103","headsign":"École Lafontaine","agencyId":"0","tripId":"1:218791","serviceDate":"20180402","from":{"name":"École secondaire de l'Odyssé Dominique-Racine","stopId":"1:580","stopCode":"580","lon":-71.067703,"lat":48.412977,"arrival":1522669240000,"departure":1522669241000,"zoneId":"NA","stopIndex":10,"stopSequence":11,"vertexType":"TRANSIT"},"to":{"name":"Résidence Funéraire (Bégin)","stopId":"1:582","stopCode":"582","lon":-71.063981,"lat":48.416642,"arrival":1522669375000,"departure":1522669376000,"zoneId":"NA","stopIndex":12,"stopSequence":13,"vertexType":"TRANSIT"},"legGeometry":{"points":"ktnfH~lwpLsAkAoBwB_EcE{A_BoAmAk@o@cCaC","length":8},"routeShortName":"71S","routeLongName":"COSTCO vers L.Conan/D.Racine/Oasis/Lafon","rentedBike":false,"transitLeg":true,"duration":134.0,"steps":[]},{"startTime":1522669376000,"endTime":1522669643000,"departureDelay":0,"arrivalDelay":0,"realTime":false,"distance":340.701,"pathway":false,"mode":"WALK","route":"","agencyTimeZoneOffset":-14400000,"interlineWithPreviousLeg":false,"from":{"name":"Résidence Funéraire (Bégin)","stopId":"1:582","stopCode":"582","lon":-71.063981,"lat":48.416642,"arrival":1522669375000,"departure":1522669376000,"zoneId":"NA","stopIndex":12,"stopSequence":13,"vertexType":"TRANSIT"},"to":{"name":"Destination","lon":-71.06147,"lat":48.415665,"arrival":1522669643000,"orig":"","vertexType":"NORMAL"},"legGeometry":{"points":"gkofHpuvpL\\X|A`BFDj@kB??FQNi@bA}FqB}B","length":10},"rentedBike":false,"transitLeg":false,"duration":267.0,"steps":[{"distance":88.092,"relativeDirection":"DEPART","streetName":"Rue Bégin","absoluteDirection":"SOUTHWEST","stayOn":false,"area":false,"bogusName":false,"lon":-71.0640821702576,"lat":48.416683565223295,"elevation":[]},{"distance":173.619,"relativeDirection":"LEFT","streetName":"Rue des Champs-Élysées","absoluteDirection":"SOUTHEAST","stayOn":false,"area":false,"bogusName":false,"lon":-71.0647342,"lat":48.416021,"elevation":[]},{"distance":78.99,"relativeDirection":"LEFT","streetName":"bike path","absoluteDirection":"NORTHEAST","stayOn":false,"area":false,"bogusName":false,"lon":-71.0626228,"lat":48.4153431,"elevation":[]}]}],"tooSloped":false},{"duration":1069,"startTime":1522668600000,"endTime":1522669669000,"walkTime":1069,"transitTime":0,"waitingTime":0,"walkDistance":1376.152744356135,"walkLimitExceeded":false,"elevationLost":0.0,"elevationGained":0.0,"transfers":0,"legs":[{"startTime":1522668600000,"endTime":1522669669000,"departureDelay":0,"arrivalDelay":0,"realTime":false,"distance":1376.0049999999999,"pathway":false,"mode":"WALK","route":"","agencyTimeZoneOffset":-14400000,"interlineWithPreviousLeg":false,"from":{"name":"Origin","lon":-71.07259,"lat":48.40971,"departure":1522668600000,"orig":"","vertexType":"NORMAL"},"to":{"name":"Destination","lon":-71.06147,"lat":48.415665,"arrival":1522669669000,"orig":"","vertexType":"NORMAL"},"legGeometry":{"points":"u~mfHvkxpL`@gAhA}CuA}AYc@AAk@w@k@OmA]c@?mA?A?E@aAZkAB}@Uw@y@m@uAUwAGo@?G?CCW@wAFiAMUs@m@{@u@UI_BwBsCqCw@w@CCGGsCqCMOo@m@j@kB??FQNi@bA}FqB}B","length":43},"rentedBike":false,"transitLeg":false,"duration":1069.0,"steps":[{"distance":103.872,"relativeDirection":"DEPART","streetName":"Place des Écorceurs","absoluteDirection":"SOUTHEAST","stayOn":false,"area":false,"bogusName":false,"lon":-71.07275479986899,"lat":48.40955532783862,"elevation":[]},{"distance":571.027,"relativeDirection":"LEFT","streetName":"Rue d'Angoulème","absoluteDirection":"NORTHEAST","stayOn":false,"area":false,"bogusName":false,"lon":-71.07160610000001,"lat":48.409015700000005,"elevation":[]},{"distance":448.497,"relativeDirection":"LEFT","streetName":"Rue Bégin","absoluteDirection":"NORTHEAST","stayOn":false,"area":false,"bogusName":false,"lon":-71.0681022,"lat":48.4126786,"elevation":[]},{"distance":173.619,"relativeDirection":"RIGHT","streetName":"Rue des Champs-Élysées","absoluteDirection":"SOUTHEAST","stayOn":false,"area":false,"bogusName":false,"lon":-71.0647342,"lat":48.416021,"elevation":[]},{"distance":78.99,"relativeDirection":"LEFT","streetName":"bike path","absoluteDirection":"NORTHEAST","stayOn":false,"area":false,"bogusName":false,"lon":-71.0626228,"lat":48.4153431,"elevation":[]}]}],"tooSloped":false},{"duration":573,"startTime":1522669957000,"endTime":1522670530000,"walkTime":414,"transitTime":157,"waitingTime":2,"walkDistance":525.1317518764482,"walkLimitExceeded":false,"elevationLost":0.0,"elevationGained":0.0,"transfers":0,"legs":[{"startTime":1522669957000,"endTime":1522670104000,"departureDelay":0,"arrivalDelay":0,"realTime":false,"distance":184.33,"pathway":false,"mode":"WALK","route":"","agencyTimeZoneOffset":-14400000,"interlineWithPreviousLeg":false,"from":{"name":"Origin","lon":-71.07259,"lat":48.40971,"departure":1522669957000,"orig":"","vertexType":"NORMAL"},"to":{"name":"Écorceurs - Place des Cordeliers","stopId":"1:543","stopCode":"543","lon":-71.070889,"lat":48.409559,"arrival":1522670104000,"departure":1522670105000,"zoneId":"NA","stopIndex":21,"stopSequence":22,"vertexType":"TRANSIT"},"legGeometry":{"points":"u~mfHvkxpL`@gAhA}CuA}AYc@AA","length":6},"rentedBike":false,"transitLeg":false,"duration":147.0,"steps":[{"distance":103.872,"relativeDirection":"DEPART","streetName":"Place des Écorceurs","absoluteDirection":"SOUTHEAST","stayOn":false,"area":false,"bogusName":false,"lon":-71.07275479986899,"lat":48.40955532783862,"elevation":[]},{"distance":80.45800000000001,"relativeDirection":"LEFT","streetName":"Rue d'Angoulème","absoluteDirection":"NORTHEAST","stayOn":false,"area":false,"bogusName":false,"lon":-71.07160610000001,"lat":48.409015700000005,"elevation":[]}]},{"startTime":1522670105000,"endTime":1522670262000,"departureDelay":0,"arrivalDelay":0,"realTime":false,"distance":968.1187947241772,"pathway":false,"mode":"BUS","route":"15","agencyName":"Société de Transport du Saguenay","agencyUrl":"http://ville.saguenay.ca/fr/services-aux-citoyens/transport-sts","agencyTimeZoneOffset":-14400000,"routeColor":"FF00FF","routeType":3,"routeId":"1:15","routeTextColor":"FFFFFF","interlineWithPreviousLeg":false,"tripBlockId":"32","headsign":"Terminus Chicoutimi","agencyId":"0","tripId":"1:218149","serviceDate":"20180402","from":{"name":"Écorceurs - Place des Cordeliers","stopId":"1:543","stopCode":"543","lon":-71.070889,"lat":48.409559,"arrival":1522670104000,"departure":1522670105000,"zoneId":"NA","stopIndex":21,"stopSequence":22,"vertexType":"TRANSIT"},"to":{"name":"Résidence Funéraire (Bégin)","stopId":"1:582","stopCode":"582","lon":-71.063981,"lat":48.416642,"arrival":1522670262000,"departure":1522670263000,"zoneId":"NA","stopIndex":26,"stopSequence":27,"vertexType":"TRANSIT"},"legGeometry":{"points":"{~mfHj`xpLe@o@qAa@m@MoB?C@}BZwAc@oA_Bs@gDCKZ{Di@QECc@_@sAkAoBwB_EcE{A_BoAmAk@o@cCaC","length":22},"routeShortName":"15","routeLongName":"Term. Chic / Costco","rentedBike":false,"transitLeg":true,"duration":157.0,"steps":[]},{"startTime":1522670263000,"endTime":1522670530000,"departureDelay":0,"arrivalDelay":0,"realTime":false,"distance":340.701,"pathway":false,"mode":"WALK","route":"","agencyTimeZoneOffset":-14400000,"interlineWithPreviousLeg":false,"from":{"name":"Résidence Funéraire (Bégin)","stopId":"1:582","stopCode":"582","lon":-71.063981,"lat":48.416642,"arrival":1522670262000,"departure":1522670263000,"zoneId":"NA","stopIndex":26,"stopSequence":27,"vertexType":"TRANSIT"},"to":{"name":"Destination","lon":-71.06147,"lat":48.415665,"arrival":1522670530000,"orig":"","vertexType":"NORMAL"},"legGeometry":{"points":"gkofHpuvpL\\X|A`BFDj@kB??FQNi@bA}FqB}B","length":10},"rentedBike":false,"transitLeg":false,"duration":267.0,"steps":[{"distance":88.092,"relativeDirection":"DEPART","streetName":"Rue Bégin","absoluteDirection":"SOUTHWEST","stayOn":false,"area":false,"bogusName":false,"lon":-71.0640821702576,"lat":48.416683565223295,"elevation":[]},{"distance":173.619,"relativeDirection":"LEFT","streetName":"Rue des Champs-Élysées","absoluteDirection":"SOUTHEAST","stayOn":false,"area":false,"bogusName":false,"lon":-71.0647342,"lat":48.416021,"elevation":[]},{"distance":78.99,"relativeDirection":"LEFT","streetName":"bike path","absoluteDirection":"NORTHEAST","stayOn":false,"area":false,"bogusName":false,"lon":-71.0626228,"lat":48.4153431,"elevation":[]}]}],"tooSloped":false}]},"debugOutput":{"precalculationTime":60,"pathCalculationTime":20,"pathTimes":[15,3,2],"renderingTime":1,"totalTime":81,"timedOut":false},"elevationMetadata":{"ellipsoidToGeoidDifference":-28.885904201182168,"geoidElevation":false}}