{"requestParameters":{"date":"2018/04/02","walkSpeed":"1.33","walkReluctance":"2.0","fromPlace":"48.415665,-71.06147","maxWalkDistance":"3000","waitReluctance":"1.0","carSpeed":"33","numItineraries":"3","waitAtBeginningFactor":"0.4","mode":"TRANSIT,WALK","ignoreRealtimeUpdates":"false","stairsReluctance":"2.0","toPlace":"48.428526,-71.055547","time":"16:0:00"},"plan":{"date":1522699200000,"from":{"name":"Origin","lon":-71.06147,"lat":48.415665,"orig":"","vertexType":"NORMAL"},"to":{"name":"Destination","lon":-71.055547,"lat":48.428526,"orig":"","vertexType":"NORMAL"},"itineraries":[{"duration":941,"startTime":1522699621000,"endTime":1522700562000,"walkTime":797,"transitTime":142,"waitingTime":2,"walkDistance":992.5867142781082,"walkLimitExceeded":false,"elevationLost":0.0,"elevationGained":0.0,"transfers":0,"legs":[{"startTime":1522699621000,"endTime":1522699781000,"departureDelay":0,"arrivalDelay":0,"realTime":false,"distance":206.18599999999998,"pathway":false,"mode":"WALK","route":"","agencyTimeZoneOffset":-14400000,"interlineWithPreviousLeg":false,"from":{"name":"Origin","lon":-71.06147,"lat":48.415665,"departure":1522699621000,"orig":"","vertexType":"NORMAL"},"to":{"name":"Champs-Élysées / Bégin","stopId":"1:587","stopCode":"587","lon":-71.064119,"lat":48.41589,"arrival":1522699781000,"departure":1522699782000,"zoneId":"NA","stopIndex":32,"stopSequence":33,"vertexType":"TRANSIT"},"legGeometry":{"points":"mfofHnhvpLpB|BcA|FOh@GP","length":5},"rentedBike":false,"transitLeg":false,"duration":160.0,"steps":[{"distance":78.99,"relativeDirection":"DEPART","streetName":"bike path","absoluteDirection":"SOUTHWEST","stayOn":false,"area":false,"bogusName":false,"lon":-71.06199324931485,"lat":48.41591759518041,"elevation":[]},{"distance":127.196,"relativeDirection":"RIGHT","streetName":"Rue des Champs-Élysées","absoluteDirection":"WEST","stayOn":false,"area":false,"bogusName":false,"lon":-71.0626228,"lat":48.4153431,"elevation":[]}]},{"startTime":1522699782000,"endTime":1522699924000,"departureDelay":0,"arrivalDelay":0,"realTime":false,"distance":1062.1463183493597,"pathway":false,"mode":"BUS","route":"12","agencyName":"Société de Transport du Saguenay","agencyUrl":"http://ville.saguenay.ca/fr/services-aux-citoyens/transport-sts","agencyTimeZoneOffset":-14400000,"routeColor":"556B2F","routeType":3,"routeId":"1:12","routeTextColor":"FFFFFF","interlineWithPreviousLeg":false,"tripBlockId":"27","headsign":"Terminus UQAC","agencyId":"0","tripId":"1:218018","serviceDate":"20180402","from":{"name":"Champs-Élysées / Bégin","stopId":"1:587","stopCode":"587","lon":-71.064119,"lat":48.41589,"arrival":1522699781000,"departure":1522699782000,"zoneId":"NA","stopIndex":32,"stopSequence":33,"vertexType":"TRANSIT"},"to":{"name":"Cégep de Chicoutimi (voie réservée)","stopId":"1:75","stopCode":"75","lon":-71.055283,"lat":48.422761,"arrival":1522699924000,"departure":1522699925000,"zoneId":"NA","stopIndex":37,"stopSequence":38,"vertexType":"TRANSIT"},"legGeometry":{"points":"ifofHvuvpLuCYmIeIeJ_J{J{JwCiT","length":6},"routeShortName":"12","routeLongName":"Rivière du Moulin","rentedBike":false,"transitLeg":true,"duration":142.0,"steps":[]},{"startTime":1522699925000,"endTime":1522700562000,"departureDelay":0,"arrivalDelay":0,"realTime":false,"distance":786.1650000000001,"pathway":false,"mode":"WALK","route":"","agencyTimeZoneOffset":-14400000,"interlineWithPreviousLeg":false,"from":{"name":"Cégep de Chicoutimi (voie réservée)","stopId":"1:75","stopCode":"75","lon":-71.055283,"lat":48.422761,"arrival":1522699924000,"departure":1522699925000,"zoneId":"NA","stopIndex":37,"stopSequence":38,"vertexType":"TRANSIT"},"to":{"name":"Destination","lon":-71.055547,"lat":48.428526,"arrival":1522700562000,"orig":"","vertexType":"NORMAL"},"legGeometry":{"points":"mqpfHr~tpLGi@M@[DK@S?UCGAUGGCSIECOGwBKMAY`@_@hAa@jB]SMSe@s@[]c@c@a@a@q@q@{@s@[Ws@xCERk@Wi@W]KQEM@gDz@OFEL]L","length":38},"rentedBike":false,"transitLeg":false,"duration":637.0,"steps":[{"distance":16.607,"relativeDirection":"DEPART","streetName":"Chemin Saint Thomas","absoluteDirection":"EAST","stayOn":false,"area":false,"bogusName":false,"lon":-71.05529730066766,"lat":48.42279572871795,"elevation":[]},{"distance":167.118,"relativeDirection":"LEFT","streetName":"service road","absoluteDirection":"NORTH","stayOn":false,"area":false,"bogusName":true,"lon":-71.0550802,"lat":48.4228351,"elevation":[]},{"distance":103.541,"relativeDirection":"CONTINUE","streetName":"Rue Price Est","absoluteDirection":"NORTH","stayOn":false,"area":false,"bogusName":false,"lon":-71.0548701,"lat":48.424313700000006,"elevation":[]},{"distance":212.611,"relativeDirection":"RIGHT","streetName":"Rue Bégin","absoluteDirection":"NORTHEAST","stayOn":false,"area":false,"bogusName":false,"lon":-71.0559435,"lat":48.424848700000005,"elevation":[]},{"distance":71.203,"relativeDirection":"LEFT","streetName":"Rue De Verchères","absoluteDirection":"NORTHWEST","stayOn":false,"area":false,"bogusName":false,"lon":-71.0543595,"lat":48.4264379,"elevation":[]},{"distance":192.30200000000002,"relativeDirection":"RIGHT","streetName":"Rue Riverin","absoluteDirection":"NORTH","stayOn":false,"area":false,"bogusName":false,"lon":-71.0552234,"lat":48.426723,"elevation":[]},{"distance":22.783,"relativeDirection":"CONTINUE","streetName":"parking aisle","absoluteDirection":"NORTHWEST","stayOn":false,"area":false,"bogusName":false,"lon":-71.0552459,"lat":48.428389700000004,"elevation":[]}]}],"tooSloped":false},{"duration":1298,"startTime":1522699348000,"endTime":1522700646000,"walkTime":817,"transitTime":479,"waitingTime":2,"walkDistance":1041.4517669122345,"walkLimitExceeded":false,"elevationLost":0.0,"elevationGained":0.0,"transfers":0,"legs":[{"startTime":1522699348000,"endTime":1522700008000,"departureDelay":0,"arrivalDelay":0,"realTime":false,"distance":843.083,"pathway":false,"mode":"WALK","route":"","agencyTimeZoneOffset":-14400000,"interlineWithPreviousLeg":false,"from":{"name":"Origin","lon":-71.06147,"lat":48.415665,"departure":1522699348000,"orig":"","vertexType":"NORMAL"},"to":{"name":"Polyclinique du Saguenay (boul. Université)","stopId":"1:61","stopCode":"61","lon":-71.053728,"lat":48.415424,"arrival":1522700008000,"departure":1522700009000,"zoneId":"NA","stopIndex":13,"stopSequence":14,"vertexType":"TRANSIT"},"legGeometry":{"points":"mfofHnhvpL_FsF[_@_AeAMO_@mBEqAAg@f@w@r@oBh@}Ad@}@Zw@pA_EZeATu@bBwASs@Wq@GWQi@JI`BwA","length":23},"rentedBike":false,"transitLeg":false,"duration":660.0,"steps":[{"distance":470.12699999999995,"relativeDirection":"DEPART","streetName":"bike path","absoluteDirection":"NORTHEAST","stayOn":false,"area":false,"bogusName":false,"lon":-71.06199324931485,"lat":48.41591759518041,"elevation":[]},{"distance":228.853,"relativeDirection":"CONTINUE","streetName":"Rue Thomas-Edison","absoluteDirection":"SOUTHEAST","stayOn":false,"area":false,"bogusName":false,"lon":-71.0574093,"lat":48.4169053,"elevation":[]},{"distance":72.972,"relativeDirection":"LEFT","streetName":"Rue Nobel","absoluteDirection":"NORTHEAST","stayOn":false,"area":false,"bogusName":false,"lon":-71.05510070000001,"lat":48.415600100000006,"elevation":[]},{"distance":71.131,"relativeDirection":"RIGHT","streetName":"Boulevard de l'Université","absoluteDirection":"SOUTHEAST","stayOn":false,"area":false,"bogusName":false,"lon":-71.0542688,"lat":48.4159547,"elevation":[]}]},{"startTime":1522700009000,"endTime":1522700488000,"departureDelay":0,"arrivalDelay":0,"realTime":false,"distance":2013.2585644332137,"pathway":false,"mode":"BUS","route":"175","agencyName":"Société de Transport du Saguenay","agencyUrl":"http://ville.saguenay.ca/fr/services-aux-citoyens/transport-sts","agencyTimeZoneOffset":-14400000,"routeColor":"FF00FF","routeType":3,"routeId":"1:175","routeTextColor":"FFFFFF","interlineWithPreviousLeg":false,"tripBlockId":"77","headsign":"Terminus Chicoutimi","agencyId":"0","tripId":"1:218636","serviceDate":"20180402","from":{"name":"Polyclinique du Saguenay (boul. Université)","stopId":"1:61","stopCode":"61","lon":-71.053728,"lat":48.415424,"arrival":1522700008000,"departure":1522700009000,"zoneId":"NA","stopIndex":13,"stopSequence":14,"vertexType":"TRANSIT"},"to":{"name":"Hôtel-Dieu / Riverin","stopId":"1:338","stopCode":"338","lon":-71.054073,"lat":48.427466,"arrival":1522700488000,"departure":1522700489000,"zoneId":"NA","stopIndex":21,"stopSequence":22,"vertexType":"TRANSIT"},"legGeometry":{"points":"icofH~ttpLk@XgSrQqB_GAeFiEeEOt@gAeA_A_ATm@yAwAgBeBqDnL@nBF`@f@|C[dCuAfB]xAs@OmCmCmEkE]a@g@i@ZiGTmEl@oLaEe@cFk@?pH?tJDvB","length":32},"routeShortName":"175","routeLongName":"Term. Chic / Costco","rentedBike":false,"transitLeg":true,"duration":479.0,"steps":[]},{"startTime":1522700489000,"endTime":1522700646000,"departureDelay":0,"arrivalDelay":0,"realTime":false,"distance":198.21200000000005,"pathway":false,"mode":"WALK","route":"","agencyTimeZoneOffset":-14400000,"interlineWithPreviousLeg":false,"from":{"name":"Hôtel-Dieu / Riverin","stopId":"1:338","stopCode":"338","lon":-71.054073,"lat":48.427466,"arrival":1522700488000,"departure":1522700489000,"zoneId":"NA","stopIndex":21,"stopSequence":22,"vertexType":"TRANSIT"},"to":{"name":"Destination","lon":-71.055547,"lat":48.428526,"arrival":1522700646000,"orig":"","vertexType":"NORMAL"},"legGeometry":{"points":"knqfH|vtpLDdDM@gDz@OFEL]L","length":7},"rentedBike":false,"transitLeg":false,"duration":157.0,"steps":[{"distance":61.3,"relativeDirection":"DEPART","streetName":"Rue de l'Hôtel-Dieu","absoluteDirection":"WEST","stayOn":false,"area":false,"bogusName":false,"lon":-71.05406930388979,"lat":48.42742042441727,"elevation":[]},{"distance":114.129,"relativeDirection":"RIGHT","streetName":"Rue Riverin","absoluteDirection":"NORTH","stayOn":false,"area":false,"bogusName":false,"lon":-71.0548989,"lat":48.427390800000005,"elevation":[]},{"distance":22.783,"relativeDirection":"CONTINUE","streetName":"parking aisle","absoluteDirection":"NORTHWEST","stayOn":false,"area":false,"bogusName":false,"lon":-71.0552459,"lat":48.428389700000004,"elevation":[]}]}],"tooSloped":false},{"duration":946,"startTime":1522700594000,"endTime":1522701540000,"walkTime":586,"transitTime":358,"waitingTime":2,"walkDistance":739.7176240553223,"walkLimitExceeded":false,"elevationLost":0.0,"elevationGained":0.0,"transfers":0,"legs":[{"startTime":1522700594000,"endTime":1522700861000,"departureDelay":0,"arrivalDelay":0,"realTime":false,"distance":340.70099999999996,"pathway":false,"mode":"WALK","route":"","agencyTimeZoneOffset":-14400000,"interlineWithPreviousLeg":false,"from":{"name":"Origin","lon":-71.06147,"lat":48.415665,"departure":1522700594000,"orig":"","vertexType":"NORMAL"},"to":{"name":"Résidence Funéraire (Bégin)","stopId":"1:582","stopCode":"582","lon":-71.063981,"lat":48.416642,"arrival":1522700861000,"departure":1522700862000,"zoneId":"NA","stopIndex":26,"stopSequence":27,"vertexType":"TRANSIT"},"legGeometry":{"points":"mfofHnhvpLpB|BcA|FOh@GP??k@jBGE}AaB]Y","length":10},"rentedBike":false,"transitLeg":false,"duration":267.0,"steps":[{"distance":78.99,"relativeDirection":"DEPART","streetName":"bike path","absoluteDirection":"SOUTHWEST","stayOn":false,"area":false,"bogusName":false,"lon":-71.06199324931485,"lat":48.41591759518041,"elevation":[]},{"distance":173.619,"relativeDirection":"RIGHT","streetName":"Rue des Champs-Élysées","absoluteDirection":"WEST","stayOn":false,"area":false,"bogusName":false,"lon":-71.0626228,"lat":48.4153431,"elevation":[]},{"distance":88.092,"relativeDirection":"RIGHT","streetName":"Rue Bégin","absoluteDirection":"NORTHEAST","stayOn":false,"area":false,"bogusName":false,"lon":-71.0647342,"lat":48.416021,"elevation":[]}]},{"startTime":1522700862000,"endTime":1522701220000,"departureDelay":0,"arrivalDelay":0,"realTime":false,"distance":1699.6349135727546,"pathway":false,"mode":"BUS","route":"15","agencyName":"Société de Transport du Saguenay","agencyUrl":"http://ville.saguenay.ca/fr/services-aux-citoyens/transport-sts","agencyTimeZoneOffset":-14400000,"routeColor":"FF00FF","routeType":3,"routeId":"1:15","routeTextColor":"FFFFFF","interlineWithPreviousLeg":false,"tripBlockId":"30","headsign":"Terminus Chicoutimi","agencyId":"0","tripId":"1:218106","serviceDate":"20180402","from":{"name":"Résidence Funéraire (Bégin)","stopId":"1:582","stopCode":"582","lon":-71.063981,"lat":48.416642,"arrival":1522700861000,"departure":1522700862000,"zoneId":"NA","stopIndex":26,"stopSequence":27,"vertexType":"TRANSIT"},"to":{"name":"Bégin / Jacques-Cartier","stopId":"1:561","stopCode":"561","lon":-71.05511,"lat":48.425555,"arrival":1522701220000,"departure":1522701221000,"zoneId":"NA","stopIndex":33,"stopSequence":34,"vertexType":"TRANSIT"},"legGeometry":{"points":"kkofHvuvpLkIkIaJaJUUwBaCj@wCjAsCzGoG_CoHL{D_@kAqD{CQr@iAcAy@w@L{@wAuA_B_B_EpLDh@NbBVvCIxBg@`Am@l@Sb@a@rAqDqDmEkE]a@","length":30},"routeShortName":"15","routeLongName":"Term. Chic / Costco","rentedBike":false,"transitLeg":true,"duration":358.0,"steps":[]},{"startTime":1522701221000,"endTime":1522701540000,"departureDelay":0,"arrivalDelay":0,"realTime":false,"distance":398.867,"pathway":false,"mode":"WALK","route":"","agencyTimeZoneOffset":-14400000,"interlineWithPreviousLeg":false,"from":{"name":"Bégin / Jacques-Cartier","stopId":"1:561","stopCode":"561","lon":-71.05511,"lat":48.425555,"arrival":1522701220000,"departure":1522701221000,"zoneId":"NA","stopIndex":33,"stopSequence":34,"vertexType":"TRANSIT"},"to":{"name":"Destination","lon":-71.055547,"lat":48.428526,"arrival":1522701540000,"orig":"","vertexType":"NORMAL"},"legGeometry":{"points":"ybqfHv}tpLa@a@q@q@{@s@[Ws@xCERk@Wi@W]KQEM@gDz@OFEL]L","length":16},"rentedBike":false,"transitLeg":false,"duration":319.0,"steps":[{"distance":112.579,"relativeDirection":"DEPART","streetName":"Rue Bégin","absoluteDirection":"NORTHEAST","stayOn":false,"area":false,"bogusName":false,"lon":-71.05515571766598,"lat":48.425575326522214,"elevation":[]},{"distance":71.203,"relativeDirection":"LEFT","streetName":"Rue De Verchères","absoluteDirection":"NORTHWEST","stayOn":false,"area":false,"bogusName":false,"lon":-71.0543595,"lat":48.4264379,"elevation":[]},{"distance":192.30200000000002,"relativeDirection":"RIGHT","streetName":"Rue Riverin","absoluteDirection":"NORTH","stayOn":false,"area":false,"bogusName":false,"lon":-71.0552234,"lat":48.426723,"elevation":[]},{"distance":22.783,"relativeDirection":"CONTINUE","streetName":"parking aisle","absoluteDirection":"NORTHWEST","stayOn":false,"area":false,"bogusName":false,"lon":-71.0552459,"lat":48.428389700000004,"elevation":[]}]}],"tooSloped":false}]},"debugOutput":{"precalculationTime":54,"pathCalculationTime":41,"pathTimes":[20,10,11],"renderingTime":0,"totalTime":95,"timedOut":false},"elevationMetadata":{"ellipsoidToGeoidDifference":-28.885904201182168,"geoidElevation":false}}