{"requestParameters":{"date":"2018/04/02","walkSpeed":"1.33","walkReluctance":"2.0","fromPlace":"48.410318,-71.073245","maxWalkDistance":"3000","waitReluctance":"1.0","carSpeed":"33","numItineraries":"3","waitAtBeginningFactor":"0.4","mode":"TRANSIT,WALK","ignoreRealtimeUpdates":"false","stairsReluctance":"2.0","toPlace":"48.394631,-71.073569","time":"12:30:00"},"plan":{"date":1522686600000,"from":{"name":"Origin","lon":-71.073245,"lat":48.410318,"orig":"","vertexType":"NORMAL"},"to":{"name":"Destination","lon":-71.073569,"lat":48.394631,"orig":"","vertexType":"NORMAL"},"itineraries":[{"duration":1746,"startTime":1522686600000,"endTime":1522688346000,"walkTime":1746,"transitTime":0,"waitingTime":0,"walkDistance":2240.8889398391075,"walkLimitExceeded":false,"elevationLost":0.0,"elevationGained":0.0,"transfers":0,"legs":[{"startTime":1522686600000,"endTime":1522688346000,"departureDelay":0,"arrivalDelay":0,"realTime":false,"distance":2240.5630000000006,"pathway":false,"mode":"WALK","route":"","agencyTimeZoneOffset":-14400000,"interlineWithPreviousLeg":false,"from":{"name":"Origin","lon":-71.073245,"lat":48.410318,"departure":1522686600000,"orig":"","vertexType":"NORMAL"},"to":{"name":"Destination","lon":-71.073569,"lat":48.394631,"arrival":1522688346000,"orig":"","vertexType":"NORMAL"},"legGeometry":{"points":"_anfHtpxpLjBeFhA}CdBzB?@v@bAbAx@t@`@B@FBpAf@~Al@jBZ~AVj@Fr@IPAxBCBpAXr@HT~@lBvAxCfA|Bd@z@LOx@cAb@cAj@{Az@eCL_@zAjANLj@HtBK|A^xAf@nCvCtAmDv@`Ax@bAxB|BtAnATV\\kAFHf@kBlAyEnA_Fj@eBj@_B","length":51},"rentedBike":false,"transitLeg":false,"duration":1746.0,"steps":[{"distance":175.347,"relativeDirection":"DEPART","streetName":"Place des Écorceurs","absoluteDirection":"SOUTHEAST","stayOn":false,"area":false,"bogusName":false,"lon":-71.0735454,"lat":48.409926500000005,"elevation":[]},{"distance":547.12,"relativeDirection":"RIGHT","streetName":"Rue d'Angoulème","absoluteDirection":"SOUTHWEST","stayOn":false,"area":false,"bogusName":false,"lon":-71.07160610000001,"lat":48.409015700000005,"elevation":[]},{"distance":285.025,"relativeDirection":"RIGHT","streetName":"Rue Bégin","absoluteDirection":"WEST","stayOn":false,"area":false,"bogusName":false,"lon":-71.0737143,"lat":48.404464100000006,"elevation":[]},{"distance":198.84300000000002,"relativeDirection":"LEFT","streetName":"Rue Saint-Urbain","absoluteDirection":"SOUTHEAST","stayOn":false,"area":false,"bogusName":false,"lon":-71.0767486,"lat":48.402957,"elevation":[]},{"distance":362.48800000000006,"relativeDirection":"RIGHT","streetName":"Rue de la Place Royale","absoluteDirection":"SOUTHWEST","stayOn":false,"area":false,"bogusName":false,"lon":-71.07469180000001,"lat":48.401827600000004,"elevation":[]},{"distance":80.599,"relativeDirection":"LEFT","streetName":"Rue des Vingt-et-Un","absoluteDirection":"SOUTHEAST","stayOn":false,"area":false,"bogusName":false,"lon":-71.0762516,"lat":48.3988389,"elevation":[]},{"distance":234.032,"relativeDirection":"RIGHT","streetName":"Rue des Cent-Associés","absoluteDirection":"SOUTHWEST","stayOn":false,"area":false,"bogusName":false,"lon":-71.0753823,"lat":48.3984004,"elevation":[]},{"distance":32.019,"relativeDirection":"LEFT","streetName":"Boulevard Barrette","absoluteDirection":"SOUTHEAST","stayOn":false,"area":false,"bogusName":false,"lon":-71.0772053,"lat":48.3966812,"elevation":[]},{"distance":5.822,"relativeDirection":"RIGHT","streetName":"path","absoluteDirection":"SOUTHWEST","stayOn":false,"area":false,"bogusName":true,"lon":-71.0768299,"lat":48.396537,"elevation":[]},{"distance":319.26800000000003,"relativeDirection":"LEFT","streetName":"bike path","absoluteDirection":"SOUTHEAST","stayOn":true,"area":false,"bogusName":true,"lon":-71.0768749,"lat":48.396494000000004,"elevation":[]}]}],"tooSloped":false},{"duration":947,"startTime":1522688105000,"endTime":1522689052000,"walkTime":666,"transitTime":279,"waitingTime":2,"walkDistance":869.6071278178993,"walkLimitExceeded":false,"elevationLost":0.0,"elevationGained":0.0,"transfers":0,"legs":[{"startTime":1522688105000,"endTime":1522688759000,"departureDelay":0,"arrivalDelay":0,"realTime":false,"distance":854.0050000000002,"pathway":false,"mode":"WALK","route":"","agencyTimeZoneOffset":-14400000,"interlineWithPreviousLeg":false,"from":{"name":"Origin","lon":-71.073245,"lat":48.410318,"departure":1522688105000,"orig":"","vertexType":"NORMAL"},"to":{"name":"Ballantyne / Garon","stopId":"1:539","stopCode":"539","lon":-71.076506,"lat":48.404894,"arrival":1522688759000,"departure":1522688760000,"zoneId":"NA","stopIndex":20,"stopSequence":21,"vertexType":"TRANSIT"},"legGeometry":{"points":"_anfHtpxpLjBeFhA}CdBzB?@v@bAbAx@t@`@B@FBpAf@~Al@jBZ~AVj@FFnGXdAVX~@XUpC","length":20},"rentedBike":false,"transitLeg":false,"duration":654.0,"steps":[{"distance":175.347,"relativeDirection":"DEPART","streetName":"Place des Écorceurs","absoluteDirection":"SOUTHEAST","stayOn":false,"area":false,"bogusName":false,"lon":-71.0735454,"lat":48.409926500000005,"elevation":[]},{"distance":439.989,"relativeDirection":"RIGHT","streetName":"Rue d'Angoulème","absoluteDirection":"SOUTHWEST","stayOn":false,"area":false,"bogusName":false,"lon":-71.07160610000001,"lat":48.409015700000005,"elevation":[]},{"distance":183.368,"relativeDirection":"RIGHT","streetName":"Rue Garon","absoluteDirection":"WEST","stayOn":false,"area":false,"bogusName":false,"lon":-71.0737922,"lat":48.405425300000005,"elevation":[]},{"distance":55.301,"relativeDirection":"RIGHT","streetName":"Rue Ballantyne","absoluteDirection":"WEST","stayOn":false,"area":false,"bogusName":false,"lon":-71.0757641,"lat":48.404816700000005,"elevation":[]}]},{"startTime":1522688760000,"endTime":1522689039000,"departureDelay":0,"arrivalDelay":0,"realTime":false,"distance":3745.5509627868523,"pathway":false,"mode":"BUS","route":"14","agencyName":"Société de Transport du Saguenay","agencyUrl":"http://ville.saguenay.ca/fr/services-aux-citoyens/transport-sts","agencyTimeZoneOffset":-14400000,"routeColor":"C0C000","routeType":3,"routeId":"1:14","routeTextColor":"000000","interlineWithPreviousLeg":false,"tripBlockId":"30","headsign":"Talbot / Barrette","agencyId":"0","tripId":"1:218099","serviceDate":"20180402","from":{"name":"Ballantyne / Garon","stopId":"1:539","stopCode":"539","lon":-71.076506,"lat":48.404894,"arrival":1522688759000,"departure":1522688760000,"zoneId":"NA","stopIndex":20,"stopSequence":21,"vertexType":"TRANSIT"},"to":{"name":"Maxi - boulevard Barrette","stopId":"1:88","stopCode":"88","lon":-71.07294,"lat":48.395,"arrival":1522689039000,"departure":1522689040000,"zoneId":"NA","stopIndex":34,"stopSequence":35,"vertexType":"TRANSIT"},"legGeometry":{"points":"{amfHbcypLb@gFd@_B`A}@tEvJBDvC`FtJ|LLNlClC|@^hCYVExCjCb@d@vE`F`BhB?pHaBhRqAbLK~@qBxFqB|FcC~GyC\\aDkDcFsF~CgOtGm[j@oCvEoSl@_CxCmLjAeFpCeKrByHfAqC","length":37},"routeShortName":"14","routeLongName":"Coopérative","rentedBike":false,"transitLeg":true,"duration":279.0,"steps":[]},{"startTime":1522689040000,"endTime":1522689052000,"departureDelay":0,"arrivalDelay":0,"realTime":false,"distance":15.551,"pathway":false,"mode":"WALK","route":"","agencyTimeZoneOffset":-14400000,"interlineWithPreviousLeg":false,"from":{"name":"Maxi - boulevard Barrette","stopId":"1:88","stopCode":"88","lon":-71.07294,"lat":48.395,"arrival":1522689039000,"departure":1522689040000,"zoneId":"NA","stopIndex":34,"stopSequence":35,"vertexType":"TRANSIT"},"to":{"name":"Destination","lon":-71.073569,"lat":48.394631,"arrival":1522689052000,"orig":"","vertexType":"NORMAL"},"legGeometry":{"points":"sckfH~lxpLOb@","length":2},"rentedBike":false,"transitLeg":false,"duration":12.0,"steps":[{"distance":15.551,"relativeDirection":"DEPART","streetName":"bike path","absoluteDirection":"NORTHWEST","stayOn":false,"area":false,"bogusName":false,"lon":-71.072956176549,"lat":48.39498407908756,"elevation":[]}]}],"tooSloped":false},{"duration":1200,"startTime":1522688170000,"endTime":1522689370000,"walkTime":441,"transitTime":757,"waitingTime":2,"walkDistance":576.2510902243994,"walkLimitExceeded":false,"elevationLost":0.0,"elevationGained":0.0,"transfers":0,"legs":[{"startTime":1522688170000,"endTime":1522688362000,"departureDelay":0,"arrivalDelay":0,"realTime":false,"distance":248.56600000000003,"pathway":false,"mode":"WALK","route":"","agencyTimeZoneOffset":-14400000,"interlineWithPreviousLeg":false,"from":{"name":"Origin","lon":-71.073245,"lat":48.410318,"departure":1522688170000,"orig":"","vertexType":"NORMAL"},"to":{"name":"Centre d'hébergement Mgr Victor Tremblay","stopId":"1:534","stopCode":"534","lon":-71.072236,"lat":48.408507,"arrival":1522688362000,"departure":1522688363000,"zoneId":"NA","stopIndex":16,"stopSequence":17,"vertexType":"TRANSIT"},"legGeometry":{"points":"_anfHtpxpLjBeFhA}CdBzB?@","length":5},"rentedBike":false,"transitLeg":false,"duration":192.0,"steps":[{"distance":175.347,"relativeDirection":"DEPART","streetName":"Place des Écorceurs","absoluteDirection":"SOUTHEAST","stayOn":false,"area":false,"bogusName":false,"lon":-71.0735454,"lat":48.409926500000005,"elevation":[]},{"distance":73.219,"relativeDirection":"RIGHT","streetName":"Rue d'Angoulème","absoluteDirection":"SOUTHWEST","stayOn":false,"area":false,"bogusName":false,"lon":-71.07160610000001,"lat":48.409015700000005,"elevation":[]}]},{"startTime":1522688363000,"endTime":1522689120000,"departureDelay":0,"arrivalDelay":0,"realTime":false,"distance":5013.32171797573,"pathway":false,"mode":"BUS","route":"15","agencyName":"Société de Transport du Saguenay","agencyUrl":"http://ville.saguenay.ca/fr/services-aux-citoyens/transport-sts","agencyTimeZoneOffset":-14400000,"routeColor":"FF00FF","routeType":3,"routeId":"1:15","routeTextColor":"FFFFFF","interlineWithPreviousLeg":false,"tripBlockId":"31","headsign":"Talbot / Barrette","agencyId":"0","tripId":"1:218134","serviceDate":"20180402","from":{"name":"Centre d'hébergement Mgr Victor Tremblay","stopId":"1:534","stopCode":"534","lon":-71.072236,"lat":48.408507,"arrival":1522688362000,"departure":1522688363000,"zoneId":"NA","stopIndex":16,"stopSequence":17,"vertexType":"TRANSIT"},"to":{"name":"Roitelets / Sapins","stopId":"1:1543","stopCode":"1543","lon":-71.069553,"lat":48.393375,"arrival":1522689120000,"departure":1522689121000,"zoneId":"NA","stopIndex":35,"stopSequence":36,"vertexType":"TRANSIT"},"legGeometry":{"points":"}vmfHxcxpL|DlBpMlGrB`AM}@hAwEC{B]oBiBmBsH_@_K{H`EgIvCaGfEoItDsH~DeItC{FnBoLbCaO?qLa@uJzF`ApF~@~@PzAgEeDcBf@qAWcKUqEx@Ef@ExDVjDxAFBrBvAfGjG@BjCzC~DxC@@zA~Cb@fCJlC?BsBre@?DWbOAn@?nEGnM@H\\hCzA~ELvAAlAi@jDo@nB","length":57},"routeShortName":"15","routeLongName":"Term. Chic / Costco","rentedBike":false,"transitLeg":true,"duration":757.0,"steps":[]},{"startTime":1522689121000,"endTime":1522689370000,"departureDelay":0,"arrivalDelay":0,"realTime":false,"distance":327.64899999999994,"pathway":false,"mode":"WALK","route":"","agencyTimeZoneOffset":-14400000,"interlineWithPreviousLeg":false,"from":{"name":"Roitelets / Sapins","stopId":"1:1543","stopCode":"1543","lon":-71.069553,"lat":48.393375,"arrival":1522689120000,"departure":1522689121000,"zoneId":"NA","stopIndex":35,"stopSequence":36,"vertexType":"TRANSIT"},"to":{"name":"Destination","lon":-71.073569,"lat":48.394631,"arrival":1522689370000,"orig":"","vertexType":"NORMAL"},"legGeometry":{"points":"oyjfHxwwpL?@mAzCMHC@Qb@?H?PuCvH{@bCOb@","length":11},"rentedBike":false,"transitLeg":false,"duration":249.0,"steps":[{"distance":327.64899999999994,"relativeDirection":"DEPART","streetName":"bike path","absoluteDirection":"NORTHWEST","stayOn":false,"area":false,"bogusName":true,"lon":-71.0695674967601,"lat":48.39336056343373,"elevation":[]}]}],"tooSloped":false}]},"debugOutput":{"precalculationTime":37,"pathCalculationTime":32,"pathTimes":[17,5,10],"renderingTime":0,"totalTime":69,"timedOut":false},"elevationMetadata":{"ellipsoidToGeoidDifference":-28.885904201182168,"geoidElevation":false}}