{"requestParameters":{"date":"2018/04/02","walkSpeed":"1.33","walkReluctance":"2.0","fromPlace":"48.403952,-71.054642","maxWalkDistance":"3000","waitReluctance":"1.0","carSpeed":"33","numItineraries":"3","waitAtBeginningFactor":"0.4","mode":"TRANSIT,WALK","ignoreRealtimeUpdates":"false","stairsReluctance":"2.0","toPlace":"48.410318,-71.073245","time":"13:45:00"},"plan":{"date":1522691100000,"from":{"name":"Origin","lon":-71.054642,"lat":48.403952,"orig":"","vertexType":"NORMAL"},"to":{"name":"Destination","lon":-71.073245,"lat":48.410318,"orig":"","vertexType":"NORMAL"},"itineraries":[{"duration":1739,"startTime":1522691100000,"endTime":1522692839000,"walkTime":1739,"transitTime":0,"waitingTime":0,"walkDistance":2226.4573308179583,"walkLimitExceeded":false,"elevationLost":0.0,"elevationGained":0.0,"transfers":0,"legs":[{"startTime":1522691100000,"endTime":1522692839000,"departureDelay":0,"arrivalDelay":0,"realTime":false,"distance":2226.1750000000006,"pathway":false,"mode":"WALK","route":"","agencyTimeZoneOffset":-14400000,"interlineWithPreviousLeg":false,"from":{"name":"Origin","lon":-71.054642,"lat":48.403952,"departure":1522691100000,"orig":"","vertexType":"NORMAL"},"to":{"name":"Destination","lon":-71.073245,"lat":48.410318,"arrival":1522692839000,"orig":"","vertexType":"NORMAL"},"legGeometry":{"points":"{zlfHhytpLJPNVVq@PCk@vDmBtGZZRPVVXXXXr@p@XVXXb@`@h@`AZl@FLmArEGRADKVyBvFgAnCaAzBu@~@WZaA|@aA~@IVcA~@CB?@gAvA{@dCm@|AGNgBxEGNELQ`@??aD`IKZSO]CGAo@HqBFi@?uBJi@?SAMrCAXAZCfBb@?lA\\j@Nj@v@@@Xb@tA|AiA|CkBdF","length":67},"rentedBike":false,"transitLeg":false,"duration":1739.0,"steps":[{"distance":55.269,"relativeDirection":"DEPART","streetName":"parking aisle","absoluteDirection":"SOUTHWEST","stayOn":false,"area":false,"bogusName":false,"lon":-71.05444515294332,"lat":48.40382759190054,"elevation":[]},{"distance":191.916,"relativeDirection":"HARD_RIGHT","streetName":"path","absoluteDirection":"WEST","stayOn":false,"area":false,"bogusName":true,"lon":-71.0543818,"lat":48.403475,"elevation":[]},{"distance":237.68300000000002,"relativeDirection":"LEFT","streetName":"service road","absoluteDirection":"SOUTHWEST","stayOn":true,"area":false,"bogusName":true,"lon":-71.0566984,"lat":48.4042426,"elevation":[]},{"distance":1002.939,"relativeDirection":"RIGHT","streetName":"Rue des Saguenéens","absoluteDirection":"NORTHWEST","stayOn":false,"area":false,"bogusName":false,"lon":-71.0586019,"lat":48.4025327,"elevation":[]},{"distance":246.98399999999998,"relativeDirection":"RIGHT","streetName":"Rue Bégin","absoluteDirection":"NORTHEAST","stayOn":false,"area":false,"bogusName":false,"lon":-71.0688714,"lat":48.4082796,"elevation":[]},{"distance":113.584,"relativeDirection":"LEFT","streetName":"path","absoluteDirection":"WEST","stayOn":false,"area":false,"bogusName":true,"lon":-71.0689037,"lat":48.4104819,"elevation":[]},{"distance":202.453,"relativeDirection":"LEFT","streetName":"Rue d'Angoulème","absoluteDirection":"SOUTH","stayOn":false,"area":false,"bogusName":false,"lon":-71.0704312,"lat":48.4105992,"elevation":[]},{"distance":175.347,"relativeDirection":"RIGHT","streetName":"Place des Écorceurs","absoluteDirection":"NORTHWEST","stayOn":false,"area":false,"bogusName":false,"lon":-71.07160610000001,"lat":48.409015700000005,"elevation":[]}]}],"tooSloped":false},{"duration":905,"startTime":1522692769000,"endTime":1522693674000,"walkTime":561,"transitTime":342,"waitingTime":2,"walkDistance":691.4629473610335,"walkLimitExceeded":false,"elevationLost":0.0,"elevationGained":0.0,"transfers":0,"legs":[{"startTime":1522692769000,"endTime":1522693139000,"departureDelay":0,"arrivalDelay":0,"realTime":false,"distance":443.3719999999999,"pathway":false,"mode":"WALK","route":"","agencyTimeZoneOffset":-14400000,"interlineWithPreviousLeg":false,"from":{"name":"Origin","lon":-71.054642,"lat":48.403952,"departure":1522692769000,"orig":"","vertexType":"NORMAL"},"to":{"name":"Place du Royaume (Saguenéens)","stopId":"1:1294","stopCode":"1294","lon":-71.057691,"lat":48.402355,"arrival":1522693139000,"departure":1522693140000,"zoneId":"NA","stopIndex":11,"stopSequence":12,"vertexType":"TRANSIT"},"legGeometry":{"points":"{zlfHhytpLJPNVVq@PCb@TTYFH@DTRVXJJPFXFDBXFFBVFHB\\HFr@BLo@dEJJDZBLRh@k@vD","length":28},"rentedBike":false,"transitLeg":false,"duration":370.0,"steps":[{"distance":55.269,"relativeDirection":"DEPART","streetName":"parking aisle","absoluteDirection":"SOUTHWEST","stayOn":false,"area":false,"bogusName":false,"lon":-71.05444515294332,"lat":48.40382759190054,"elevation":[]},{"distance":37.529,"relativeDirection":"RIGHT","streetName":"parking aisle","absoluteDirection":"SOUTHWEST","stayOn":true,"area":false,"bogusName":true,"lon":-71.0543818,"lat":48.403475,"elevation":[]},{"distance":131.32600000000002,"relativeDirection":"RIGHT","streetName":"service road","absoluteDirection":"SOUTHWEST","stayOn":true,"area":false,"bogusName":true,"lon":-71.0543643,"lat":48.403182300000005,"elevation":[]},{"distance":102.75299999999999,"relativeDirection":"RIGHT","streetName":"parking aisle","absoluteDirection":"WEST","stayOn":true,"area":false,"bogusName":true,"lon":-71.0550072,"lat":48.402104300000005,"elevation":[]},{"distance":44.199,"relativeDirection":"LEFT","streetName":"service road","absoluteDirection":"SOUTHWEST","stayOn":true,"area":false,"bogusName":true,"lon":-71.0563248,"lat":48.4022894,"elevation":[]},{"distance":72.296,"relativeDirection":"RIGHT","streetName":"Rue des Saguenéens","absoluteDirection":"WEST","stayOn":false,"area":false,"bogusName":false,"lon":-71.0568056,"lat":48.4020704,"elevation":[]}]},{"startTime":1522693140000,"endTime":1522693482000,"departureDelay":0,"arrivalDelay":0,"realTime":false,"distance":1954.3754857284937,"pathway":false,"mode":"BUS","route":"15","agencyName":"Société de Transport du Saguenay","agencyUrl":"http://ville.saguenay.ca/fr/services-aux-citoyens/transport-sts","agencyTimeZoneOffset":-14400000,"routeColor":"FF00FF","routeType":3,"routeId":"1:15","routeTextColor":"FFFFFF","interlineWithPreviousLeg":false,"tripBlockId":"30","headsign":"Terminus Chicoutimi","agencyId":"0","tripId":"1:218102","serviceDate":"20180402","from":{"name":"Place du Royaume (Saguenéens)","stopId":"1:1294","stopCode":"1294","lon":-71.057691,"lat":48.402355,"arrival":1522693139000,"departure":1522693140000,"zoneId":"NA","stopIndex":11,"stopSequence":12,"vertexType":"TRANSIT"},"to":{"name":"Centre d'hébergement Mgr Victor Tremblay","stopId":"1:542","stopCode":"542","lon":-71.072091,"lat":48.408437,"arrival":1522693482000,"departure":1522693483000,"zoneId":"NA","stopIndex":20,"stopSequence":21,"vertexType":"TRANSIT"},"legGeometry":{"points":"eqlfHzmupLUxAm@nCcAlDeCvGmA|CUr@}@~A_@\\_DvCEZcA|@UP_@d@Yl@oBdFeCxG_CfGYVQXS\\dK|HlFZbC\\p@zA\\rB@hBiArG{BNw@FiG}@iDwAECcCcBo@y@","length":35},"routeShortName":"15","routeLongName":"Term. Chic / Costco","rentedBike":false,"transitLeg":true,"duration":342.0,"steps":[]},{"startTime":1522693483000,"endTime":1522693674000,"departureDelay":0,"arrivalDelay":0,"realTime":false,"distance":247.86200000000002,"pathway":false,"mode":"WALK","route":"","agencyTimeZoneOffset":-14400000,"interlineWithPreviousLeg":false,"from":{"name":"Centre d'hébergement Mgr Victor Tremblay","stopId":"1:542","stopCode":"542","lon":-71.072091,"lat":48.408437,"arrival":1522693482000,"departure":1522693483000,"zoneId":"NA","stopIndex":20,"stopSequence":21,"vertexType":"TRANSIT"},"to":{"name":"Destination","lon":-71.073245,"lat":48.410318,"arrival":1522693674000,"orig":"","vertexType":"NORMAL"},"legGeometry":{"points":"cxmfHlhxpLeB{BiA|CkBdF","length":4},"rentedBike":false,"transitLeg":false,"duration":191.0,"steps":[{"distance":72.515,"relativeDirection":"DEPART","streetName":"Rue d'Angoulème","absoluteDirection":"NORTHEAST","stayOn":false,"area":false,"bogusName":false,"lon":-71.07222538772793,"lat":48.4085094391393,"elevation":[]},{"distance":175.347,"relativeDirection":"LEFT","streetName":"Place des Écorceurs","absoluteDirection":"NORTHWEST","stayOn":false,"area":false,"bogusName":false,"lon":-71.07160610000001,"lat":48.409015700000005,"elevation":[]}]}],"tooSloped":false},{"duration":905,"startTime":1522694569000,"endTime":1522695474000,"walkTime":561,"transitTime":342,"waitingTime":2,"walkDistance":691.4629473610335,"walkLimitExceeded":false,"elevationLost":0.0,"elevationGained":0.0,"transfers":0,"legs":[{"startTime":1522694569000,"endTime":1522694939000,"departureDelay":0,"arrivalDelay":0,"realTime":false,"distance":443.3719999999999,"pathway":false,"mode":"WALK","route":"","agencyTimeZoneOffset":-14400000,"interlineWithPreviousLeg":false,"from":{"name":"Origin","lon":-71.054642,"lat":48.403952,"departure":1522694569000,"orig":"","vertexType":"NORMAL"},"to":{"name":"Place du Royaume (Saguenéens)","stopId":"1:1294","stopCode":"1294","lon":-71.057691,"lat":48.402355,"arrival":1522694939000,"departure":1522694940000,"zoneId":"NA","stopIndex":11,"stopSequence":12,"vertexType":"TRANSIT"},"legGeometry":{"points":"{zlfHhytpLJPNVVq@PCb@TTYFH@DTRVXJJPFXFDBXFFBVFHB\\HFr@BLo@dEJJDZBLRh@k@vD","length":28},"rentedBike":false,"transitLeg":false,"duration":370.0,"steps":[{"distance":55.269,"relativeDirection":"DEPART","streetName":"parking aisle","absoluteDirection":"SOUTHWEST","stayOn":false,"area":false,"bogusName":false,"lon":-71.05444515294332,"lat":48.40382759190054,"elevation":[]},{"distance":37.529,"relativeDirection":"RIGHT","streetName":"parking aisle","absoluteDirection":"SOUTHWEST","stayOn":true,"area":false,"bogusName":true,"lon":-71.0543818,"lat":48.403475,"elevation":[]},{"distance":131.32600000000002,"relativeDirection":"RIGHT","streetName":"service road","absoluteDirection":"SOUTHWEST","stayOn":true,"area":false,"bogusName":true,"lon":-71.0543643,"lat":48.403182300000005,"elevation":[]},{"distance":102.75299999999999,"relativeDirection":"RIGHT","streetName":"parking aisle","absoluteDirection":"WEST","stayOn":true,"area":false,"bogusName":true,"lon":-71.0550072,"lat":48.402104300000005,"elevation":[]},{"distance":44.199,"relativeDirection":"LEFT","streetName":"service road","absoluteDirection":"SOUTHWEST","stayOn":true,"area":false,"bogusName":true,"lon":-71.0563248,"lat":48.4022894,"elevation":[]},{"distance":72.296,"relativeDirection":"RIGHT","streetName":"Rue des Saguenéens","absoluteDirection":"WEST","stayOn":false,"area":false,"bogusName":false,"lon":-71.0568056,"lat":48.4020704,"elevation":[]}]},{"startTime":1522694940000,"endTime":1522695282000,"departureDelay":0,"arrivalDelay":0,"realTime":false,"distance":1954.3754857284937,"pathway":false,"mode":"BUS","route":"15","agencyName":"Société de Transport du Saguenay","agencyUrl":"http://ville.saguenay.ca/fr/services-aux-citoyens/transport-sts","agencyTimeZoneOffset":-14400000,"routeColor":"FF00FF","routeType":3,"routeId":"1:15","routeTextColor":"FFFFFF","interlineWithPreviousLeg":false,"tripBlockId":"32","headsign":"Terminus Chicoutimi","agencyId":"0","tripId":"1:218163","serviceDate":"20180402","from":{"name":"Place du Royaume (Saguenéens)","stopId":"1:1294","stopCode":"1294","lon":-71.057691,"lat":48.402355,"arrival":1522694939000,"departure":1522694940000,"zoneId":"NA","stopIndex":11,"stopSequence":12,"vertexType":"TRANSIT"},"to":{"name":"Centre d'hébergement Mgr Victor Tremblay","stopId":"1:542","stopCode":"542","lon":-71.072091,"lat":48.408437,"arrival":1522695282000,"departure":1522695283000,"zoneId":"NA","stopIndex":20,"stopSequence":21,"vertexType":"TRANSIT"},"legGeometry":{"points":"eqlfHzmupLUxAm@nCcAlDeCvGmA|CUr@}@~A_@\\_DvCEZcA|@UP_@d@Yl@oBdFeCxG_CfGYVQXS\\dK|HlFZbC\\p@zA\\rB@hBiArG{BNw@FiG}@iDwAECcCcBo@y@","length":35},"routeShortName":"15","routeLongName":"Term. Chic / Costco","rentedBike":false,"transitLeg":true,"duration":342.0,"steps":[]},{"startTime":1522695283000,"endTime":1522695474000,"departureDelay":0,"arrivalDelay":0,"realTime":false,"distance":247.86200000000002,"pathway":false,"mode":"WALK","route":"","agencyTimeZoneOffset":-14400000,"interlineWithPreviousLeg":false,"from":{"name":"Centre d'hébergement Mgr Victor Tremblay","stopId":"1:542","stopCode":"542","lon":-71.072091,"lat":48.408437,"arrival":1522695282000,"departure":1522695283000,"zoneId":"NA","stopIndex":20,"stopSequence":21,"vertexType":"TRANSIT"},"to":{"name":"Destination","lon":-71.073245,"lat":48.410318,"arrival":1522695474000,"orig":"","vertexType":"NORMAL"},"legGeometry":{"points":"cxmfHlhxpLeB{BiA|CkBdF","length":4},"rentedBike":false,"transitLeg":false,"duration":191.0,"steps":[{"distance":72.515,"relativeDirection":"DEPART","streetName":"Rue d'Angoulème","absoluteDirection":"NORTHEAST","stayOn":false,"area":false,"bogusName":false,"lon":-71.07222538772793,"lat":48.4085094391393,"elevation":[]},{"distance":175.347,"relativeDirection":"LEFT","streetName":"Place des Écorceurs","absoluteDirection":"NORTHWEST","stayOn":false,"area":false,"bogusName":false,"lon":-71.07160610000001,"lat":48.409015700000005,"elevation":[]}]}],"tooSloped":false}]},"debugOutput":{"precalculationTime":40,"pathCalculationTime":34,"pathTimes":[15,10,9],"renderingTime":1,"totalTime":75,"timedOut":false},"elevationMetadata":{"ellipsoidToGeoidDifference":-28.885904201182168,"geoidElevation":false}}