{"requestParameters":{"date":"2018/04/02","walkSpeed":"1.33","walkReluctance":"2.0","fromPlace":"48.394631,-71.073569","maxWalkDistance":"3000","waitReluctance":"1.0","carSpeed":"33","numItineraries":"3","waitAtBeginningFactor":"0.4","mode":"TRANSIT,WALK","ignoreRealtimeUpdates":"false","stairsReluctance":"2.0","toPlace":"48.409312,-71.073059","time":"14:0:00"},"plan":{"date":1522692000000,"from":{"name":"Origin","lon":-71.073569,"lat":48.394631,"orig":"","vertexType":"NORMAL"},"to":{"name":"Destination","lon":-71.073059,"lat":48.409312,"orig":"","vertexType":"NORMAL"},"itineraries":[{"duration":1165,"startTime":1522692455000,"endTime":1522693620000,"walkTime":863,"transitTime":300,"waitingTime":2,"walkDistance":1108.331233078085,"walkLimitExceeded":false,"elevationLost":0.0,"elevationGained":0.0,"transfers":0,"legs":[{"startTime":1522692455000,"endTime":1522692719000,"departureDelay":0,"arrivalDelay":0,"realTime":false,"distance":336.304,"pathway":false,"mode":"WALK","route":"","agencyTimeZoneOffset":-14400000,"interlineWithPreviousLeg":false,"from":{"name":"Origin","lon":-71.073569,"lat":48.394631,"departure":1522692455000,"orig":"","vertexType":"NORMAL"},"to":{"name":"Roitelets / Sapins","stopId":"1:1513","stopCode":"1513","lon":-71.069396,"lat":48.393523,"arrival":1522692719000,"departure":1522692720000,"zoneId":"NA","stopIndex":0,"stopSequence":1,"vertexType":"TRANSIT"},"legGeometry":{"points":"cdkfHbnxpLNc@z@cCtCwH?Q?IPc@OOFQ@CnA{C","length":11},"rentedBike":false,"transitLeg":false,"duration":264.0,"steps":[{"distance":226.96099999999998,"relativeDirection":"DEPART","streetName":"bike path","absoluteDirection":"SOUTHEAST","stayOn":false,"area":false,"bogusName":false,"lon":-71.07313078418363,"lat":48.395062296987234,"elevation":[]},{"distance":16.674,"relativeDirection":"SLIGHTLY_RIGHT","streetName":"Boulevard Barrette","absoluteDirection":"SOUTHEAST","stayOn":false,"area":false,"bogusName":false,"lon":-71.0705975,"lat":48.3939363,"elevation":[]},{"distance":10.705,"relativeDirection":"LEFT","streetName":"Boulevard Talbot","absoluteDirection":"NORTHEAST","stayOn":false,"area":false,"bogusName":false,"lon":-71.07041720000001,"lat":48.393846,"elevation":[]},{"distance":81.964,"relativeDirection":"RIGHT","streetName":"Rue Des Roitelets","absoluteDirection":"SOUTHEAST","stayOn":false,"area":false,"bogusName":false,"lon":-71.0703318,"lat":48.3939238,"elevation":[]}]},{"startTime":1522692720000,"endTime":1522693020000,"departureDelay":0,"arrivalDelay":0,"realTime":false,"distance":4069.4990759481375,"pathway":false,"mode":"BUS","route":"14","agencyName":"Société de Transport du Saguenay","agencyUrl":"http://ville.saguenay.ca/fr/services-aux-citoyens/transport-sts","agencyTimeZoneOffset":-14400000,"routeColor":"C0C000","routeType":3,"routeId":"1:14","routeTextColor":"000000","interlineWithPreviousLeg":false,"tripBlockId":"31","headsign":"Terminus Chicoutimi","agencyId":"0","tripId":"1:218137","serviceDate":"20180402","from":{"name":"Roitelets / Sapins","stopId":"1:1513","stopCode":"1513","lon":-71.069396,"lat":48.393523,"arrival":1522692719000,"departure":1522692720000,"zoneId":"NA","stopIndex":0,"stopSequence":1,"vertexType":"TRANSIT"},"to":{"name":"Bégin / Ballantyne","stopId":"1:451","stopCode":"451","lon":-71.07501,"lat":48.403916,"arrival":1522693020000,"departure":1522693021000,"zoneId":"NA","stopIndex":15,"stopSequence":16,"vertexType":"TRANSIT"},"legGeometry":{"points":"azjfHfwwpLiEfLuBzFsAnDgGzSWfAcD`Mi@dCgChLmCzMwGd\\aDxOdFtFhCtCdDY|F_On@aB`B_GNoBvAyT|@sNuAyAuF}F}AaB_BkAC@qC\\gAWiBwBiKgMiCwEgEyHCG","length":33},"routeShortName":"14","routeLongName":"Coopérative","rentedBike":false,"transitLeg":true,"duration":300.0,"steps":[]},{"startTime":1522693021000,"endTime":1522693620000,"departureDelay":0,"arrivalDelay":0,"realTime":false,"distance":771.884,"pathway":false,"mode":"WALK","route":"","agencyTimeZoneOffset":-14400000,"interlineWithPreviousLeg":false,"from":{"name":"Bégin / Ballantyne","stopId":"1:451","stopCode":"451","lon":-71.07501,"lat":48.403916,"arrival":1522693020000,"departure":1522693021000,"zoneId":"NA","stopIndex":15,"stopSequence":16,"vertexType":"TRANSIT"},"to":{"name":"Destination","lon":-71.073059,"lat":48.409312,"arrival":1522693620000,"orig":"","vertexType":"NORMAL"},"legGeometry":{"points":"s{lfH`zxpL_AmBIUYs@CqAyBBQ@s@Hk@G_BWkB[_Bm@qAg@GCCAu@a@cAy@w@cA?AeB{BiA|Cc@lA","length":22},"rentedBike":false,"transitLeg":false,"duration":599.0,"steps":[{"distance":118.184,"relativeDirection":"DEPART","streetName":"Rue Bégin","absoluteDirection":"NORTHEAST","stayOn":false,"area":false,"bogusName":false,"lon":-71.07504767716766,"lat":48.40394489025268,"elevation":[]},{"distance":547.1200000000001,"relativeDirection":"LEFT","streetName":"Rue d'Angoulème","absoluteDirection":"NORTH","stayOn":false,"area":false,"bogusName":false,"lon":-71.0737143,"lat":48.404464100000006,"elevation":[]},{"distance":106.58,"relativeDirection":"LEFT","streetName":"Place des Écorceurs","absoluteDirection":"NORTHWEST","stayOn":false,"area":false,"bogusName":false,"lon":-71.07160610000001,"lat":48.409015700000005,"elevation":[]}]}],"tooSloped":false},{"duration":997,"startTime":1522692626000,"endTime":1522693623000,"walkTime":152,"transitTime":843,"waitingTime":2,"walkDistance":194.6817142845619,"walkLimitExceeded":false,"elevationLost":0.0,"elevationGained":0.0,"transfers":0,"legs":[{"startTime":1522692626000,"endTime":1522692638000,"departureDelay":0,"arrivalDelay":0,"realTime":false,"distance":15.551,"pathway":false,"mode":"WALK","route":"","agencyTimeZoneOffset":-14400000,"interlineWithPreviousLeg":false,"from":{"name":"Origin","lon":-71.073569,"lat":48.394631,"departure":1522692626000,"orig":"","vertexType":"NORMAL"},"to":{"name":"Maxi - boulevard Barrette","stopId":"1:88","stopCode":"88","lon":-71.07294,"lat":48.395,"arrival":1522692638000,"departure":1522692639000,"zoneId":"NA","stopIndex":34,"stopSequence":35,"vertexType":"TRANSIT"},"legGeometry":{"points":"cdkfHbnxpLNc@","length":2},"rentedBike":false,"transitLeg":false,"duration":12.0,"steps":[{"distance":15.551,"relativeDirection":"DEPART","streetName":"bike path","absoluteDirection":"SOUTHEAST","stayOn":false,"area":false,"bogusName":false,"lon":-71.07313078418363,"lat":48.395062296987234,"elevation":[]}]},{"startTime":1522692639000,"endTime":1522692660000,"departureDelay":0,"arrivalDelay":0,"realTime":false,"distance":308.52410100423333,"pathway":false,"mode":"BUS","route":"14","agencyName":"Société de Transport du Saguenay","agencyUrl":"http://ville.saguenay.ca/fr/services-aux-citoyens/transport-sts","agencyTimeZoneOffset":-14400000,"routeColor":"C0C000","routeType":3,"routeId":"1:14","routeTextColor":"000000","interlineWithPreviousLeg":false,"tripBlockId":"30","headsign":"Talbot / Barrette","agencyId":"0","tripId":"1:218101","serviceDate":"20180402","from":{"name":"Maxi - boulevard Barrette","stopId":"1:88","stopCode":"88","lon":-71.07294,"lat":48.395,"arrival":1522692638000,"departure":1522692639000,"zoneId":"NA","stopIndex":34,"stopSequence":35,"vertexType":"TRANSIT"},"to":{"name":"Roitelets / Sapins","stopId":"1:1543","stopCode":"1543","lon":-71.069553,"lat":48.393375,"arrival":1522692660000,"departure":1522692660000,"zoneId":"NA","stopIndex":35,"stopSequence":36,"vertexType":"TRANSIT"},"legGeometry":{"points":"_dkfHplxpLvH_SLa@","length":3},"routeShortName":"14","routeLongName":"Coopérative","rentedBike":false,"transitLeg":true,"duration":21.0,"steps":[]},{"startTime":1522692660000,"endTime":1522693482000,"departureDelay":0,"arrivalDelay":0,"realTime":false,"distance":5098.006504243648,"pathway":false,"mode":"BUS","route":"15","agencyName":"Société de Transport du Saguenay","agencyUrl":"http://ville.saguenay.ca/fr/services-aux-citoyens/transport-sts","agencyTimeZoneOffset":-14400000,"routeColor":"FF00FF","routeType":3,"routeId":"1:15","routeTextColor":"FFFFFF","interlineWithPreviousLeg":true,"tripBlockId":"30","headsign":"Terminus Chicoutimi","agencyId":"0","tripId":"1:218102","serviceDate":"20180402","from":{"name":"Roitelets / Sapins","stopId":"1:1543","stopCode":"1543","lon":-71.069553,"lat":48.393375,"arrival":1522692660000,"departure":1522692660000,"zoneId":"NA","stopIndex":0,"stopSequence":1,"vertexType":"TRANSIT"},"to":{"name":"Centre d'hébergement Mgr Victor Tremblay","stopId":"1:542","stopCode":"542","lon":-71.072091,"lat":48.408437,"arrival":1522693482000,"departure":1522693483000,"zoneId":"NA","stopIndex":20,"stopSequence":21,"vertexType":"TRANSIT"},"legGeometry":{"points":"_zjfHfwwpLx@}BHa@NaADq@@y@Cy@I{@Ka@O[Sg@c@mAWwAMyA?EC]?wABuABmFB{@BmDFuH@i@F[FsC@c@TuGEGVsHPuDLuBXsFDoA?W@]Cu@GcAKu@Q_ASo@a@y@a@o@MOUUeCqBiDsDqE{EiAcAcB_AqBgA_AQaBSaBG_@Bu@FG?h@fNKnDpCfBkAzDgA}@y@q@sDy@GAeGT~@~KKrKyAnL[hBUxAm@nCcAlDeCvGmA|CUr@}@~A_@\\_DvCEZcA|@UP_@d@Yl@oBdFeCxG_CfGYVQXS\\dK|HlFZbC\\p@zA\\rB@hBiArG{BNw@FiG}@iDwAECcCcBo@y@","length":103},"routeShortName":"15","routeLongName":"Term. Chic / Costco","rentedBike":false,"transitLeg":true,"duration":822.0,"steps":[]},{"startTime":1522693483000,"endTime":1522693623000,"departureDelay":0,"arrivalDelay":0,"realTime":false,"distance":179.095,"pathway":false,"mode":"WALK","route":"","agencyTimeZoneOffset":-14400000,"interlineWithPreviousLeg":false,"from":{"name":"Centre d'hébergement Mgr Victor Tremblay","stopId":"1:542","stopCode":"542","lon":-71.072091,"lat":48.408437,"arrival":1522693482000,"departure":1522693483000,"zoneId":"NA","stopIndex":20,"stopSequence":21,"vertexType":"TRANSIT"},"to":{"name":"Destination","lon":-71.073059,"lat":48.409312,"arrival":1522693623000,"orig":"","vertexType":"NORMAL"},"legGeometry":{"points":"cxmfHlhxpLeB{BiA|Cc@lA","length":4},"rentedBike":false,"transitLeg":false,"duration":140.0,"steps":[{"distance":72.515,"relativeDirection":"DEPART","streetName":"Rue d'Angoulème","absoluteDirection":"NORTHEAST","stayOn":false,"area":false,"bogusName":false,"lon":-71.07222538772793,"lat":48.4085094391393,"elevation":[]},{"distance":106.58,"relativeDirection":"LEFT","streetName":"Place des Écorceurs","absoluteDirection":"NORTHWEST","stayOn":false,"area":false,"bogusName":false,"lon":-71.07160610000001,"lat":48.409015700000005,"elevation":[]}]}],"tooSloped":false},{"duration":997,"startTime":1522694426000,"endTime":1522695423000,"walkTime":152,"transitTime":843,"waitingTime":2,"walkDistance":194.6817142845619,"walkLimitExceeded":false,"elevationLost":0.0,"elevationGained":0.0,"transfers":0,"legs":[{"startTime":1522694426000,"endTime":1522694438000,"departureDelay":0,"arrivalDelay":0,"realTime":false,"distance":15.551,"pathway":false,"mode":"WALK","route":"","agencyTimeZoneOffset":-14400000,"interlineWithPreviousLeg":false,"from":{"name":"Origin","lon":-71.073569,"lat":48.394631,"departure":1522694426000,"orig":"","vertexType":"NORMAL"},"to":{"name":"Maxi - boulevard Barrette","stopId":"1:88","stopCode":"88","lon":-71.07294,"lat":48.395,"arrival":1522694438000,"departure":1522694439000,"zoneId":"NA","stopIndex":34,"stopSequence":35,"vertexType":"TRANSIT"},"legGeometry":{"points":"cdkfHbnxpLNc@","length":2},"rentedBike":false,"transitLeg":false,"duration":12.0,"steps":[{"distance":15.551,"relativeDirection":"DEPART","streetName":"bike path","absoluteDirection":"SOUTHEAST","stayOn":false,"area":false,"bogusName":false,"lon":-71.07313078418363,"lat":48.395062296987234,"elevation":[]}]},{"startTime":1522694439000,"endTime":1522694460000,"departureDelay":0,"arrivalDelay":0,"realTime":false,"distance":308.52410100423333,"pathway":false,"mode":"BUS","route":"14","agencyName":"Société de Transport du Saguenay","agencyUrl":"http://ville.saguenay.ca/fr/services-aux-citoyens/transport-sts","agencyTimeZoneOffset":-14400000,"routeColor":"C0C000","routeType":3,"routeId":"1:14","routeTextColor":"000000","interlineWithPreviousLeg":false,"tripBlockId":"32","headsign":"Talbot / Barrette","agencyId":"0","tripId":"1:218162","serviceDate":"20180402","from":{"name":"Maxi - boulevard Barrette","stopId":"1:88","stopCode":"88","lon":-71.07294,"lat":48.395,"arrival":1522694438000,"departure":1522694439000,"zoneId":"NA","stopIndex":34,"stopSequence":35,"vertexType":"TRANSIT"},"to":{"name":"Roitelets / Sapins","stopId":"1:1543","stopCode":"1543","lon":-71.069553,"lat":48.393375,"arrival":1522694460000,"departure":1522694460000,"zoneId":"NA","stopIndex":35,"stopSequence":36,"vertexType":"TRANSIT"},"legGeometry":{"points":"_dkfHplxpLvH_SLa@","length":3},"routeShortName":"14","routeLongName":"Coopérative","rentedBike":false,"transitLeg":true,"duration":21.0,"steps":[]},{"startTime":1522694460000,"endTime":1522695282000,"departureDelay":0,"arrivalDelay":0,"realTime":false,"distance":5098.006504243648,"pathway":false,"mode":"BUS","route":"15","agencyName":"Société de Transport du Saguenay","agencyUrl":"http://ville.saguenay.ca/fr/services-aux-citoyens/transport-sts","agencyTimeZoneOffset":-14400000,"routeColor":"FF00FF","routeType":3,"routeId":"1:15","routeTextColor":"FFFFFF","interlineWithPreviousLeg":true,"tripBlockId":"32","headsign":"Terminus Chicoutimi","agencyId":"0","tripId":"1:218163","serviceDate":"20180402","from":{"name":"Roitelets / Sapins","stopId":"1:1543","stopCode":"1543","lon":-71.069553,"lat":48.393375,"arrival":1522694460000,"departure":1522694460000,"zoneId":"NA","stopIndex":0,"stopSequence":1,"vertexType":"TRANSIT"},"to":{"name":"Centre d'hébergement Mgr Victor Tremblay","stopId":"1:542","stopCode":"542","lon":-71.072091,"lat":48.408437,"arrival":1522695282000,"departure":1522695283000,"zoneId":"NA","stopIndex":20,"stopSequence":21,"vertexType":"TRANSIT"},"legGeometry":{"points":"_zjfHfwwpLx@}BHa@NaADq@@y@Cy@I{@Ka@O[Sg@c@mAWwAMyA?EC]?wABuABmFB{@BmDFuH@i@F[FsC@c@TuGEGVsHPuDLuBXsFDoA?W@]Cu@GcAKu@Q_ASo@a@y@a@o@MOUUeCqBiDsDqE{EiAcAcB_AqBgA_AQaBSaBG_@Bu@FG?h@fNKnDpCfBkAzDgA}@y@q@sDy@GAeGT~@~KKrKyAnL[hBUxAm@nCcAlDeCvGmA|CUr@}@~A_@\\_DvCEZcA|@UP_@d@Yl@oBdFeCxG_CfGYVQXS\\dK|HlFZbC\\p@zA\\rB@hBiArG{BNw@FiG}@iDwAECcCcBo@y@","length":103},"routeShortName":"15","routeLongName":"Term. Chic / Costco","rentedBike":false,"transitLeg":true,"duration":822.0,"steps":[]},{"startTime":1522695283000,"endTime":1522695423000,"departureDelay":0,"arrivalDelay":0,"realTime":false,"distance":179.095,"pathway":false,"mode":"WALK","route":"","agencyTimeZoneOffset":-14400000,"interlineWithPreviousLeg":false,"from":{"name":"Centre d'hébergement Mgr Victor Tremblay","stopId":"1:542","stopCode":"542","lon":-71.072091,"lat":48.408437,"arrival":1522695282000,"departure":1522695283000,"zoneId":"NA","stopIndex":20,"stopSequence":21,"vertexType":"TRANSIT"},"to":{"name":"Destination","lon":-71.073059,"lat":48.409312,"arrival":1522695423000,"orig":"","vertexType":"NORMAL"},"legGeometry":{"points":"cxmfHlhxpLeB{BiA|Cc@lA","length":4},"rentedBike":false,"transitLeg":false,"duration":140.0,"steps":[{"distance":72.515,"relativeDirection":"DEPART","streetName":"Rue d'Angoulème","absoluteDirection":"NORTHEAST","stayOn":false,"area":false,"bogusName":false,"lon":-71.07222538772793,"lat":48.4085094391393,"elevation":[]},{"distance":106.58,"relativeDirection":"LEFT","streetName":"Place des Écorceurs","absoluteDirection":"NORTHWEST","stayOn":false,"area":false,"bogusName":false,"lon":-71.07160610000001,"lat":48.409015700000005,"elevation":[]}]}],"tooSloped":false}]},"debugOutput":{"precalculationTime":37,"pathCalculationTime":24,"pathTimes":[16,4,4],"renderingTime":0,"totalTime":61,"timedOut":false},"elevationMetadata":{"ellipsoidToGeoidDifference":-28.885904201182168,"geoidElevation":false}}