{"requestParameters":{"date":"2018/04/02","walkSpeed":"1.33","walkReluctance":"2.0","fromPlace":"48.40001,-71.044398","maxWalkDistance":"3000","waitReluctance":"1.0","carSpeed":"33","numItineraries":"3","waitAtBeginningFactor":"0.4","mode":"TRANSIT,WALK","ignoreRealtimeUpdates":"false","stairsReluctance":"2.0","toPlace":"48.397202,-71.082768","time":"14:10:00"},"plan":{"date":1522692600000,"from":{"name":"Origin","lon":-71.044398,"lat":48.40001,"orig":"","vertexType":"NORMAL"},"to":{"name":"Destination","lon":-71.082768,"lat":48.397202,"orig":"","vertexType":"NORMAL"},"itineraries":[{"duration":4487,"startTime":1522693395000,"endTime":1522697882000,"walkTime":2325,"transitTime":1620,"waitingTime":542,"walkDistance":3028.242601492769,"walkLimitExceeded":false,"elevationLost":0.0,"elevationGained":0.0,"transfers":1,"legs":[{"startTime":1522693395000,"endTime":1522695682000,"departureDelay":0,"arrivalDelay":0,"realTime":false,"distance":2977.9049999999997,"pathway":false,"mode":"WALK","route":"","agencyTimeZoneOffset":-14400000,"interlineWithPreviousLeg":false,"from":{"name":"Origin","lon":-71.044398,"lat":48.40001,"departure":1522693395000,"orig":"","vertexType":"NORMAL"},"to":{"name":"nouveau","stopId":"1:2297","stopCode":"2297","lon":-71.02468,"lat":48.413593,"arrival":1522695682000,"departure":1522695683000,"zoneId":"NA","stopIndex":25,"stopSequence":26,"vertexType":"TRANSIT"},"legGeometry":{"points":"}clfH|wrpLA@SNg@Pw@UUs@GcAAaAo@cAkCmDs@uASe@k@}@y@aAMkGSmBDmCOoCa@aCIQUAUN]dAyBxEQt@Ev@?`AIn@YN[Ce@Eq@kCM}AcAiA{@c@q@e@}Ba@Us@Qm@Uc@Q_@[I[OQc@_@[S[Ug@B_ADa@?QQg@Kk@MGOeAc@]_@SSOULSI?YGO[KOc@KGG]@GBEt@_@EqACWGiB[UKdA_@b@SRYLu@d@}@Ni@A]Jw@Cc@N}AAg@r@y@NIqA[wEA_@Ei@MaCC]g@yEUsAIm@yB}Mk@uKq@JUD","length":98},"alerts":[{"alertHeaderText":"Unpaved surface"}],"rentedBike":false,"transitLeg":false,"duration":2287.0,"steps":[{"distance":1750.5240000000001,"relativeDirection":"DEPART","streetName":"path","absoluteDirection":"NORTHWEST","stayOn":false,"area":false,"bogusName":false,"lon":-71.0439825575643,"lat":48.40015161754005,"elevation":[]},{"distance":63.259,"relativeDirection":"RIGHT","streetName":"steps","absoluteDirection":"SOUTH","stayOn":false,"area":false,"bogusName":true,"lon":-71.0331419,"lat":48.4089727,"elevation":[]},{"distance":386.934,"relativeDirection":"LEFT","streetName":"Sentier des Moulins","absoluteDirection":"EAST","stayOn":false,"area":false,"bogusName":false,"lon":-71.03298500000001,"lat":48.408708000000004,"elevation":[],"alerts":[{"alertHeaderText":"Unpaved surface"}]},{"distance":62.209,"relativeDirection":"LEFT","streetName":"path","absoluteDirection":"NORTHWEST","stayOn":false,"area":false,"bogusName":true,"lon":-71.0328834,"lat":48.4112566,"elevation":[],"alerts":[{"alertHeaderText":"Unpaved surface"}]},{"distance":674.7560000000001,"relativeDirection":"RIGHT","streetName":"Boulevard de l'Université","absoluteDirection":"EAST","stayOn":false,"area":false,"bogusName":false,"lon":-71.0332252,"lat":48.411744500000005,"elevation":[]},{"distance":40.223,"relativeDirection":"LEFT","streetName":"Boulevard du Saguenay Est","absoluteDirection":"NORTH","stayOn":false,"area":false,"bogusName":false,"lon":-71.0244078,"lat":48.413254800000004,"elevation":[]}]},{"startTime":1522695683000,"endTime":1522696380000,"departureDelay":0,"arrivalDelay":0,"realTime":false,"distance":5088.739460799068,"pathway":false,"mode":"BUS","route":"12","agencyName":"Société de Transport du Saguenay","agencyUrl":"http://ville.saguenay.ca/fr/services-aux-citoyens/transport-sts","agencyTimeZoneOffset":-14400000,"routeColor":"556B2F","routeType":3,"routeId":"1:12","routeTextColor":"FFFFFF","interlineWithPreviousLeg":false,"tripBlockId":"27","headsign":"Terminus UQAC","agencyId":"0","tripId":"1:218016","serviceDate":"20180402","from":{"name":"nouveau","stopId":"1:2297","stopCode":"2297","lon":-71.02468,"lat":48.413593,"arrival":1522695682000,"departure":1522695683000,"zoneId":"NA","stopIndex":25,"stopSequence":26,"vertexType":"TRANSIT"},"to":{"name":"Terminus UQAC","stopId":"1:1670","stopCode":"1670","lon":-71.053369,"lat":48.420903,"arrival":1522696380000,"departure":1522696920000,"zoneId":"NA","stopIndex":39,"stopSequence":40,"vertexType":"TRANSIT"},"legGeometry":{"points":"}wnfHf_opLvVvrCdRvMcAjKcP~b@iHhDaGz@uSl[uCYmIeIeJ_J{J{JwCiThFaQhC`E","length":15},"routeShortName":"12","routeLongName":"Rivière du Moulin","rentedBike":false,"transitLeg":true,"duration":697.0,"steps":[]},{"startTime":1522696920000,"endTime":1522697843000,"departureDelay":0,"arrivalDelay":0,"realTime":false,"distance":4720.493870056359,"pathway":false,"mode":"BUS","route":"14","agencyName":"Société de Transport du Saguenay","agencyUrl":"http://ville.saguenay.ca/fr/services-aux-citoyens/transport-sts","agencyTimeZoneOffset":-14400000,"routeColor":"C0C000","routeType":3,"routeId":"1:14","routeTextColor":"000000","interlineWithPreviousLeg":false,"tripBlockId":"32","headsign":"Talbot / Barrette","agencyId":"0","tripId":"1:218164","serviceDate":"20180402","from":{"name":"Terminus UQAC","stopId":"1:1670","stopCode":"1670","lon":-71.053369,"lat":48.420903,"arrival":1522696380000,"departure":1522696920000,"zoneId":"NA","stopIndex":8,"stopSequence":9,"vertexType":"TRANSIT"},"to":{"name":"Malraux / Mauriac","stopId":"1:1979","stopCode":"1979","lon":-71.082747,"lat":48.396652,"arrival":1522697843000,"departure":1522697844000,"zoneId":"NA","stopIndex":25,"stopSequence":26,"vertexType":"TRANSIT"},"legGeometry":{"points":"sepfHrrtpLdA`ATq@`E~DL`@E`Ex@hDd@`B}FtFaAzAm@xAe@jCa@nDiAbm@SpKM`H]vBhDVzCTcAvCO^bEbEzK`LfBeEtK`KhAdAnCbCvBpCNR~BxAxBf@z@h@vAz@z@{DrCoITTlElEtAnB`@l@pFrD@?fDr@XgAjFuR\\yADm@b@gFd@_B`A}@tEvJBDvC`FtJ|LLNlClC|@^hCYVExCjCb@d@vE`F","length":61},"routeShortName":"14","routeLongName":"Coopérative","rentedBike":false,"transitLeg":true,"duration":923.0,"steps":[]},{"startTime":1522697844000,"endTime":1522697882000,"departureDelay":0,"arrivalDelay":0,"realTime":false,"distance":49.997,"pathway":false,"mode":"WALK","route":"","agencyTimeZoneOffset":-14400000,"interlineWithPreviousLeg":false,"from":{"name":"Malraux / Mauriac","stopId":"1:1979","stopCode":"1979","lon":-71.082747,"lat":48.396652,"arrival":1522697843000,"departure":1522697844000,"zoneId":"NA","stopIndex":25,"stopSequence":26,"vertexType":"TRANSIT"},"to":{"name":"Destination","lon":-71.082768,"lat":48.397202,"arrival":1522697882000,"orig":"","vertexType":"NORMAL"},"legGeometry":{"points":"qmkfHbizpLiAkA","length":2},"rentedBike":false,"transitLeg":false,"duration":38.0,"steps":[{"distance":49.997,"relativeDirection":"DEPART","streetName":"Rue Malraux","absoluteDirection":"NORTHEAST","stayOn":false,"area":false,"bogusName":false,"lon":-71.08257556801581,"lat":48.39657598034157,"elevation":[]}]}],"tooSloped":false},{"duration":4487,"startTime":1522695195000,"endTime":1522699682000,"walkTime":2325,"transitTime":1620,"waitingTime":542,"walkDistance":3028.242601492769,"walkLimitExceeded":false,"elevationLost":0.0,"elevationGained":0.0,"transfers":1,"legs":[{"startTime":1522695195000,"endTime":1522697482000,"departureDelay":0,"arrivalDelay":0,"realTime":false,"distance":2977.9049999999997,"pathway":false,"mode":"WALK","route":"","agencyTimeZoneOffset":-14400000,"interlineWithPreviousLeg":false,"from":{"name":"Origin","lon":-71.044398,"lat":48.40001,"departure":1522695195000,"orig":"","vertexType":"NORMAL"},"to":{"name":"nouveau","stopId":"1:2297","stopCode":"2297","lon":-71.02468,"lat":48.413593,"arrival":1522697482000,"departure":1522697483000,"zoneId":"NA","stopIndex":25,"stopSequence":26,"vertexType":"TRANSIT"},"legGeometry":{"points":"}clfH|wrpLA@SNg@Pw@UUs@GcAAaAo@cAkCmDs@uASe@k@}@y@aAMkGSmBDmCOoCa@aCIQUAUN]dAyBxEQt@Ev@?`AIn@YN[Ce@Eq@kCM}AcAiA{@c@q@e@}Ba@Us@Qm@Uc@Q_@[I[OQc@_@[S[Ug@B_ADa@?QQg@Kk@MGOeAc@]_@SSOULSI?YGO[KOc@KGG]@GBEt@_@EqACWGiB[UKdA_@b@SRYLu@d@}@Ni@A]Jw@Cc@N}AAg@r@y@NIqA[wEA_@Ei@MaCC]g@yEUsAIm@yB}Mk@uKq@JUD","length":98},"alerts":[{"alertHeaderText":"Unpaved surface"}],"rentedBike":false,"transitLeg":false,"duration":2287.0,"steps":[{"distance":1750.5240000000001,"relativeDirection":"DEPART","streetName":"path","absoluteDirection":"NORTHWEST","stayOn":false,"area":false,"bogusName":false,"lon":-71.0439825575643,"lat":48.40015161754005,"elevation":[]},{"distance":63.259,"relativeDirection":"RIGHT","streetName":"steps","absoluteDirection":"SOUTH","stayOn":false,"area":false,"bogusName":true,"lon":-71.0331419,"lat":48.4089727,"elevation":[]},{"distance":386.934,"relativeDirection":"LEFT","streetName":"Sentier des Moulins","absoluteDirection":"EAST","stayOn":false,"area":false,"bogusName":false,"lon":-71.03298500000001,"lat":48.408708000000004,"elevation":[],"alerts":[{"alertHeaderText":"Unpaved surface"}]},{"distance":62.209,"relativeDirection":"LEFT","streetName":"path","absoluteDirection":"NORTHWEST","stayOn":false,"area":false,"bogusName":true,"lon":-71.0328834,"lat":48.4112566,"elevation":[],"alerts":[{"alertHeaderText":"Unpaved surface"}]},{"distance":674.7560000000001,"relativeDirection":"RIGHT","streetName":"Boulevard de l'Université","absoluteDirection":"EAST","stayOn":false,"area":false,"bogusName":false,"lon":-71.0332252,"lat":48.411744500000005,"elevation":[]},{"distance":40.223,"relativeDirection":"LEFT","streetName":"Boulevard du Saguenay Est","absoluteDirection":"NORTH","stayOn":false,"area":false,"bogusName":false,"lon":-71.0244078,"lat":48.413254800000004,"elevation":[]}]},{"startTime":1522697483000,"endTime":1522698180000,"departureDelay":0,"arrivalDelay":0,"realTime":false,"distance":5088.739460799068,"pathway":false,"mode":"BUS","route":"12","agencyName":"Société de Transport du Saguenay","agencyUrl":"http://ville.saguenay.ca/fr/services-aux-citoyens/transport-sts","agencyTimeZoneOffset":-14400000,"routeColor":"556B2F","routeType":3,"routeId":"1:12","routeTextColor":"FFFFFF","interlineWithPreviousLeg":false,"tripBlockId":"28","headsign":"Terminus UQAC","agencyId":"0","tripId":"1:218043","serviceDate":"20180402","from":{"name":"nouveau","stopId":"1:2297","stopCode":"2297","lon":-71.02468,"lat":48.413593,"arrival":1522697482000,"departure":1522697483000,"zoneId":"NA","stopIndex":25,"stopSequence":26,"vertexType":"TRANSIT"},"to":{"name":"Terminus UQAC","stopId":"1:1670","stopCode":"1670","lon":-71.053369,"lat":48.420903,"arrival":1522698180000,"departure":1522698720000,"zoneId":"NA","stopIndex":39,"stopSequence":40,"vertexType":"TRANSIT"},"legGeometry":{"points":"}wnfHf_opLvVvrCdRvMcAjKcP~b@iHhDaGz@uSl[uCYmIeIeJ_J{J{JwCiThFaQhC`E","length":15},"routeShortName":"12","routeLongName":"Rivière du Moulin","rentedBike":false,"transitLeg":true,"duration":697.0,"steps":[]},{"startTime":1522698720000,"endTime":1522699643000,"departureDelay":0,"arrivalDelay":0,"realTime":false,"distance":4720.493870056359,"pathway":false,"mode":"BUS","route":"14","agencyName":"Société de Transport du Saguenay","agencyUrl":"http://ville.saguenay.ca/fr/services-aux-citoyens/transport-sts","agencyTimeZoneOffset":-14400000,"routeColor":"C0C000","routeType":3,"routeId":"1:14","routeTextColor":"000000","interlineWithPreviousLeg":false,"tripBlockId":"30","headsign":"Talbot / Barrette","agencyId":"0","tripId":"1:218105","serviceDate":"20180402","from":{"name":"Terminus UQAC","stopId":"1:1670","stopCode":"1670","lon":-71.053369,"lat":48.420903,"arrival":1522698180000,"departure":1522698720000,"zoneId":"NA","stopIndex":8,"stopSequence":9,"vertexType":"TRANSIT"},"to":{"name":"Malraux / Mauriac","stopId":"1:1979","stopCode":"1979","lon":-71.082747,"lat":48.396652,"arrival":1522699643000,"departure":1522699644000,"zoneId":"NA","stopIndex":25,"stopSequence":26,"vertexType":"TRANSIT"},"legGeometry":{"points":"sepfHrrtpLdA`ATq@`E~DL`@E`Ex@hDd@`B}FtFaAzAm@xAe@jCa@nDiAbm@SpKM`H]vBhDVzCTcAvCO^bEbEzK`LfBeEtK`KhAdAnCbCvBpCNR~BxAxBf@z@h@vAz@z@{DrCoITTlElEtAnB`@l@pFrD@?fDr@XgAjFuR\\yADm@b@gFd@_B`A}@tEvJBDvC`FtJ|LLNlClC|@^hCYVExCjCb@d@vE`F","length":61},"routeShortName":"14","routeLongName":"Coopérative","rentedBike":false,"transitLeg":true,"duration":923.0,"steps":[]},{"startTime":1522699644000,"endTime":1522699682000,"departureDelay":0,"arrivalDelay":0,"realTime":false,"distance":49.997,"pathway":false,"mode":"WALK","route":"","agencyTimeZoneOffset":-14400000,"interlineWithPreviousLeg":false,"from":{"name":"Malraux / Mauriac","stopId":"1:1979","stopCode":"1979","lon":-71.082747,"lat":48.396652,"arrival":1522699643000,"departure":1522699644000,"zoneId":"NA","stopIndex":25,"stopSequence":26,"vertexType":"TRANSIT"},"to":{"name":"Destination","lon":-71.082768,"lat":48.397202,"arrival":1522699682000,"orig":"","vertexType":"NORMAL"},"legGeometry":{"points":"qmkfHbizpLiAkA","length":2},"rentedBike":false,"transitLeg":false,"duration":38.0,"steps":[{"distance":49.997,"relativeDirection":"DEPART","streetName":"Rue Malraux","absoluteDirection":"NORTHEAST","stayOn":false,"area":false,"bogusName":false,"lon":-71.08257556801581,"lat":48.39657598034157,"elevation":[]}]}],"tooSloped":false},{"duration":3893,"startTime":1522696995000,"endTime":1522700888000,"walkTime":2456,"transitTime":1112,"waitingTime":325,"walkDistance":3193.4998120179807,"walkLimitExceeded":false,"elevationLost":0.0,"elevationGained":0.0,"transfers":1,"legs":[{"startTime":1522696995000,"endTime":1522699282000,"departureDelay":0,"arrivalDelay":0,"realTime":false,"distance":2977.9049999999997,"pathway":false,"mode":"WALK","route":"","agencyTimeZoneOffset":-14400000,"interlineWithPreviousLeg":false,"from":{"name":"Origin","lon":-71.044398,"lat":48.40001,"departure":1522696995000,"orig":"","vertexType":"NORMAL"},"to":{"name":"nouveau","stopId":"1:2297","stopCode":"2297","lon":-71.02468,"lat":48.413593,"arrival":1522699282000,"departure":1522699283000,"zoneId":"NA","stopIndex":25,"stopSequence":26,"vertexType":"TRANSIT"},"legGeometry":{"points":"}clfH|wrpLA@SNg@Pw@UUs@GcAAaAo@cAkCmDs@uASe@k@}@y@aAMkGSmBDmCOoCa@aCIQUAUN]dAyBxEQt@Ev@?`AIn@YN[Ce@Eq@kCM}AcAiA{@c@q@e@}Ba@Us@Qm@Uc@Q_@[I[OQc@_@[S[Ug@B_ADa@?QQg@Kk@MGOeAc@]_@SSOULSI?YGO[KOc@KGG]@GBEt@_@EqACWGiB[UKdA_@b@SRYLu@d@}@Ni@A]Jw@Cc@N}AAg@r@y@NIqA[wEA_@Ei@MaCC]g@yEUsAIm@yB}Mk@uKq@JUD","length":98},"alerts":[{"alertHeaderText":"Unpaved surface"}],"rentedBike":false,"transitLeg":false,"duration":2287.0,"steps":[{"distance":1750.5240000000001,"relativeDirection":"DEPART","streetName":"path","absoluteDirection":"NORTHWEST","stayOn":false,"area":false,"bogusName":false,"lon":-71.0439825575643,"lat":48.40015161754005,"elevation":[]},{"distance":63.259,"relativeDirection":"RIGHT","streetName":"steps","absoluteDirection":"SOUTH","stayOn":false,"area":false,"bogusName":true,"lon":-71.0331419,"lat":48.4089727,"elevation":[]},{"distance":386.934,"relativeDirection":"LEFT","streetName":"Sentier des Moulins","absoluteDirection":"EAST","stayOn":false,"area":false,"bogusName":false,"lon":-71.03298500000001,"lat":48.408708000000004,"elevation":[],"alerts":[{"alertHeaderText":"Unpaved surface"}]},{"distance":62.209,"relativeDirection":"LEFT","streetName":"path","absoluteDirection":"NORTHWEST","stayOn":false,"area":false,"bogusName":true,"lon":-71.0328834,"lat":48.4112566,"elevation":[],"alerts":[{"alertHeaderText":"Unpaved surface"}]},{"distance":674.7560000000001,"relativeDirection":"RIGHT","streetName":"Boulevard de l'Université","absoluteDirection":"EAST","stayOn":false,"area":false,"bogusName":false,"lon":-71.0332252,"lat":48.411744500000005,"elevation":[]},{"distance":40.223,"relativeDirection":"LEFT","streetName":"Boulevard du Saguenay Est","absoluteDirection":"NORTH","stayOn":false,"area":false,"bogusName":false,"lon":-71.0244078,"lat":48.413254800000004,"elevation":[]}]},{"startTime":1522699283000,"endTime":1522699536000,"departureDelay":0,"arrivalDelay":0,"realTime":false,"distance":1794.6969377223602,"pathway":false,"mode":"BUS","route":"12","agencyName":"Société de Transport du Saguenay","agencyUrl":"http://ville.saguenay.ca/fr/services-aux-citoyens/transport-sts","agencyTimeZoneOffset":-14400000,"routeColor":"556B2F","routeType":3,"routeId":"1:12","routeTextColor":"FFFFFF","interlineWithPreviousLeg":false,"tripBlockId":"27","headsign":"Terminus UQAC","agencyId":"0","tripId":"1:218018","serviceDate":"20180402","from":{"name":"nouveau","stopId":"1:2297","stopCode":"2297","lon":-71.02468,"lat":48.413593,"arrival":1522699282000,"departure":1522699283000,"zoneId":"NA","stopIndex":25,"stopSequence":26,"vertexType":"TRANSIT"},"to":{"name":"Sûreté du Québec (Roitelets / Lorenzo-Genest)","stopId":"1:58","stopCode":"58","lon":-71.048311,"lat":48.40979,"arrival":1522699536000,"departure":1522699859000,"zoneId":"NA","stopIndex":26,"stopSequence":27,"vertexType":"TRANSIT"},"legGeometry":{"points":"}wnfHf_opLvVvrC","length":2},"routeShortName":"12","routeLongName":"Rivière du Moulin","rentedBike":false,"transitLeg":true,"duration":253.0,"steps":[]},{"startTime":1522699859000,"endTime":1522700718000,"departureDelay":0,"arrivalDelay":0,"realTime":false,"distance":5131.407459236099,"pathway":false,"mode":"BUS","route":"214S","agencyName":"Société de Transport du Saguenay","agencyUrl":"http://ville.saguenay.ca/fr/services-aux-citoyens/transport-sts","agencyTimeZoneOffset":-14400000,"routeColor":"8B0000","routeType":3,"routeId":"1:214S","routeTextColor":"FFFFFF","interlineWithPreviousLeg":false,"headsign":"Carcajous / Martres","agencyId":"0","tripId":"1:218520","serviceDate":"20180402","from":{"name":"Sûreté du Québec (Roitelets / Lorenzo-Genest)","stopId":"1:58","stopCode":"58","lon":-71.048311,"lat":48.40979,"arrival":1522699536000,"departure":1522699859000,"zoneId":"NA","stopIndex":11,"stopSequence":12,"vertexType":"TRANSIT"},"to":{"name":"boul. Barrette / Bégin","stopId":"1:468","stopCode":"468","lon":-71.080331,"lat":48.397988,"arrival":1522700718000,"departure":1522700719000,"zoneId":"NA","stopIndex":25,"stopSequence":26,"vertexType":"TRANSIT"},"legGeometry":{"points":"{_nfH|qspLBBzDjB|FpCFDHDbAb@pAb@tGuA~VwIJCxCqA~Ae@LElB]vFBtEfBPFzHpHx@v@XZdBjBz@t@hChB`@|@@Bv@`Bb@bCBjDpCg@fAIr@B@}DJ[NGjAD~@WjA_Ab@y@XeAL{@DaBfAqHx@}D~@mDiC_C{EuDq@jC@j@VRvHrGy@`E_@nC_@xCCNGrAMz@WbAc@v@mAfA{@RiAESDKZC|Do@CiAJkCb@IbBEn@GfAYbGu@zPKjD?NMzEMxLExKBnC\\zC~AlFHhAEnAO|ASbAo@nBADcI`TSj@}@bCeGzS_IqI|@oC~@mDQcDGcAEo@\\vG}@fD_ArC|HzIU~@mE|PCH","length":104},"routeShortName":"214S","routeLongName":"Séminaire - Chicoutimi Sud","rentedBike":false,"transitLeg":true,"duration":859.0,"steps":[]},{"startTime":1522700719000,"endTime":1522700888000,"departureDelay":0,"arrivalDelay":0,"realTime":false,"distance":215.21999999999997,"pathway":false,"mode":"WALK","route":"","agencyTimeZoneOffset":-14400000,"interlineWithPreviousLeg":false,"from":{"name":"boul. Barrette / Bégin","stopId":"1:468","stopCode":"468","lon":-71.080331,"lat":48.397988,"arrival":1522700718000,"departure":1522700719000,"zoneId":"NA","stopIndex":25,"stopSequence":26,"vertexType":"TRANSIT"},"to":{"name":"Destination","lon":-71.082768,"lat":48.397202,"arrival":1522700888000,"orig":"","vertexType":"NORMAL"},"legGeometry":{"points":"evkfHh{ypLc@dBGTTRJH|@~@DDz@x@rArA","length":9},"rentedBike":false,"transitLeg":false,"duration":169.0,"steps":[{"distance":52.464,"relativeDirection":"DEPART","streetName":"Boulevard Barrette","absoluteDirection":"NORTHWEST","stayOn":false,"area":false,"bogusName":false,"lon":-71.08036046032548,"lat":48.397951117221574,"elevation":[]},{"distance":162.75599999999997,"relativeDirection":"LEFT","streetName":"Rue Malraux","absoluteDirection":"SOUTHWEST","stayOn":false,"area":false,"bogusName":false,"lon":-71.080988,"lat":48.3981725,"elevation":[]}]}],"tooSloped":false}]},"debugOutput":{"precalculationTime":15,"pathCalculationTime":9,"pathTimes":[3,5,1],"renderingTime":1,"totalTime":25,"timedOut":false},"elevationMetadata":{"ellipsoidToGeoidDifference":-28.885904201182168,"geoidElevation":false}}