{"requestParameters":{"date":"2018/04/02","walkSpeed":"1.33","walkReluctance":"2.0","fromPlace":"48.408412,-71.073469","maxWalkDistance":"3000","waitReluctance":"1.0","carSpeed":"33","numItineraries":"3","waitAtBeginningFactor":"0.4","mode":"TRANSIT,WALK","ignoreRealtimeUpdates":"false","stairsReluctance":"2.0","toPlace":"48.423496,-71.072786","time":"14:30:00"},"plan":{"date":1522693800000,"from":{"name":"Origin","lon":-71.073469,"lat":48.408412,"orig":"","vertexType":"NORMAL"},"to":{"name":"Destination","lon":-71.072786,"lat":48.423496,"orig":"","vertexType":"NORMAL"},"itineraries":[{"duration":1694,"startTime":1522693800000,"endTime":1522695494000,"walkTime":1694,"transitTime":0,"waitingTime":0,"walkDistance":2162.1021654033325,"walkLimitExceeded":false,"elevationLost":0.0,"elevationGained":0.0,"transfers":0,"legs":[{"startTime":1522693800000,"endTime":1522695494000,"departureDelay":0,"arrivalDelay":0,"realTime":false,"distance":2161.786,"pathway":false,"mode":"WALK","route":"","agencyTimeZoneOffset":-14400000,"interlineWithPreviousLeg":false,"from":{"name":"Origin","lon":-71.073469,"lat":48.408412,"departure":1522693800000,"orig":"","vertexType":"NORMAL"},"to":{"name":"Destination","lon":-71.072786,"lat":48.423496,"arrival":1522695494000,"orig":"","vertexType":"NORMAL"},"legGeometry":{"points":"sumfHfkxpLWSw@cA?AeB{BuA}AYc@AAk@w@k@OmA]c@?mA?A?E@aAZkAB}@Uw@y@m@uAUwAGo@?G?CCW@wAFiAMUs@m@{@u@UIIP}AhEi@xAc@jAeEUaAEaBE}CKsBIO?c@CW?o@L_@J_@X]XGDWZW`@QR[h@gBvEo@|AcAjCYWaCQSAkAEE?g@CWbAy@dCG`@S[KM_AkAk@u@MIa@z@ECE?C?EDADAF?F","length":77},"rentedBike":false,"transitLeg":false,"duration":1694.0,"steps":[{"distance":699.2270000000001,"relativeDirection":"DEPART","streetName":"Rue d'Angoulème","absoluteDirection":"NORTHEAST","stayOn":false,"area":false,"bogusName":false,"lon":-71.0726750361586,"lat":48.40810885552929,"elevation":[]},{"distance":96.293,"relativeDirection":"LEFT","streetName":"Rue Bégin","absoluteDirection":"NORTHEAST","stayOn":false,"area":false,"bogusName":false,"lon":-71.0681022,"lat":48.4126786,"elevation":[]},{"distance":174.902,"relativeDirection":"LEFT","streetName":"Rue Des Oblats Est","absoluteDirection":"NORTHWEST","stayOn":false,"area":false,"bogusName":false,"lon":-71.06744280000001,"lat":48.413416500000004,"elevation":[]},{"distance":762.096,"relativeDirection":"RIGHT","streetName":"Rue Jolliet","absoluteDirection":"NORTH","stayOn":false,"area":false,"bogusName":false,"lon":-71.0693767,"lat":48.414325600000005,"elevation":[]},{"distance":168.719,"relativeDirection":"RIGHT","streetName":"Rue Audet","absoluteDirection":"NORTHEAST","stayOn":false,"area":false,"bogusName":false,"lon":-71.07236060000001,"lat":48.4202062,"elevation":[]},{"distance":100.466,"relativeDirection":"LEFT","streetName":"Boulevard de l'Université","absoluteDirection":"NORTHWEST","stayOn":false,"area":false,"bogusName":false,"lon":-71.07209830000001,"lat":48.421699100000005,"elevation":[]},{"distance":109.688,"relativeDirection":"RIGHT","streetName":"Boulevard Saint-Paul","absoluteDirection":"NORTHEAST","stayOn":false,"area":false,"bogusName":false,"lon":-71.0732783,"lat":48.4221458,"elevation":[]},{"distance":28.76,"relativeDirection":"LEFT","streetName":"path","absoluteDirection":"NORTHWEST","stayOn":false,"area":false,"bogusName":true,"lon":-71.0723612,"lat":48.422919900000004,"elevation":[]},{"distance":21.634999999999998,"relativeDirection":"RIGHT","streetName":"Rue Gilbert","absoluteDirection":"NORTH","stayOn":false,"area":false,"bogusName":false,"lon":-71.0726606,"lat":48.423085500000006,"elevation":[]}]}],"tooSloped":false},{"duration":1142,"startTime":1522694442000,"endTime":1522695584000,"walkTime":657,"transitTime":483,"waitingTime":2,"walkDistance":834.2902857089846,"walkLimitExceeded":false,"elevationLost":0.0,"elevationGained":0.0,"transfers":0,"legs":[{"startTime":1522694442000,"endTime":1522694862000,"departureDelay":0,"arrivalDelay":0,"realTime":false,"distance":550.458,"pathway":false,"mode":"WALK","route":"","agencyTimeZoneOffset":-14400000,"interlineWithPreviousLeg":false,"from":{"name":"Origin","lon":-71.073469,"lat":48.408412,"departure":1522694442000,"orig":"","vertexType":"NORMAL"},"to":{"name":"Ballantyne / Garon","stopId":"1:538","stopCode":"538","lon":-71.07646,"lat":48.405026,"arrival":1522694862000,"departure":1522694863000,"zoneId":"NA","stopIndex":16,"stopSequence":17,"vertexType":"TRANSIT"},"legGeometry":{"points":"sumfHfkxpLj@d@t@`@B@FBpAf@~Al@jBZ~AVj@FFnGXdAVX~@XUpC??","length":16},"rentedBike":false,"transitLeg":false,"duration":420.0,"steps":[{"distance":311.789,"relativeDirection":"DEPART","streetName":"Rue d'Angoulème","absoluteDirection":"SOUTHWEST","stayOn":false,"area":false,"bogusName":false,"lon":-71.0726750361586,"lat":48.40810885552929,"elevation":[]},{"distance":183.368,"relativeDirection":"RIGHT","streetName":"Rue Garon","absoluteDirection":"WEST","stayOn":false,"area":false,"bogusName":false,"lon":-71.0737922,"lat":48.405425300000005,"elevation":[]},{"distance":55.301,"relativeDirection":"RIGHT","streetName":"Rue Ballantyne","absoluteDirection":"WEST","stayOn":false,"area":false,"bogusName":false,"lon":-71.0757641,"lat":48.404816700000005,"elevation":[]}]},{"startTime":1522694863000,"endTime":1522695346000,"departureDelay":0,"arrivalDelay":0,"realTime":false,"distance":2318.3515184413895,"pathway":false,"mode":"BUS","route":"14","agencyName":"Société de Transport du Saguenay","agencyUrl":"http://ville.saguenay.ca/fr/services-aux-citoyens/transport-sts","agencyTimeZoneOffset":-14400000,"routeColor":"C0C000","routeType":3,"routeId":"1:14","routeTextColor":"000000","interlineWithPreviousLeg":false,"tripBlockId":"33","headsign":"Terminus Chicoutimi","agencyId":"0","tripId":"1:218188","serviceDate":"20180402","from":{"name":"Ballantyne / Garon","stopId":"1:538","stopCode":"538","lon":-71.07646,"lat":48.405026,"arrival":1522694862000,"departure":1522694863000,"zoneId":"NA","stopIndex":16,"stopSequence":17,"vertexType":"TRANSIT"},"to":{"name":"Audet / boul. Université","stopId":"1:553","stopCode":"553","lon":-71.072005,"lat":48.421488,"arrival":1522695346000,"departure":1522695347000,"zoneId":"NA","stopIndex":28,"stopSequence":29,"vertexType":"TRANSIT"},"legGeometry":{"points":"wamfHbcypLEf@mGvUYfAqCs@ICMCqFmDc@s@mAkBuEoESUgAhDiAfD}@zDyAcA_@Um@U{AWgB_Au@s@EEsBkCqFgF{IiI][aBhE}@}@oBmBwE{EwE{Ej@mBZeAa@SyEQ","length":35},"routeShortName":"14","routeLongName":"Coopérative","rentedBike":false,"transitLeg":true,"duration":483.0,"steps":[]},{"startTime":1522695347000,"endTime":1522695584000,"departureDelay":0,"arrivalDelay":0,"realTime":false,"distance":283.668,"pathway":false,"mode":"WALK","route":"","agencyTimeZoneOffset":-14400000,"interlineWithPreviousLeg":false,"from":{"name":"Audet / boul. Université","stopId":"1:553","stopCode":"553","lon":-71.072005,"lat":48.421488,"arrival":1522695346000,"departure":1522695347000,"zoneId":"NA","stopIndex":28,"stopSequence":29,"vertexType":"TRANSIT"},"to":{"name":"Destination","lon":-71.072786,"lat":48.423496,"arrival":1522695584000,"orig":"","vertexType":"NORMAL"},"legGeometry":{"points":"iipfHvgxpLg@CWbAy@dCG`@S[KM_AkAk@u@MIa@z@ECE?C?EDADAF?F","length":18},"rentedBike":false,"transitLeg":false,"duration":237.0,"steps":[{"distance":23.119,"relativeDirection":"DEPART","streetName":"Rue Audet","absoluteDirection":"NORTH","stayOn":false,"area":false,"bogusName":false,"lon":-71.07211324351135,"lat":48.42149143047572,"elevation":[]},{"distance":100.466,"relativeDirection":"LEFT","streetName":"Boulevard de l'Université","absoluteDirection":"NORTHWEST","stayOn":false,"area":false,"bogusName":false,"lon":-71.07209830000001,"lat":48.421699100000005,"elevation":[]},{"distance":109.688,"relativeDirection":"RIGHT","streetName":"Boulevard Saint-Paul","absoluteDirection":"NORTHEAST","stayOn":false,"area":false,"bogusName":false,"lon":-71.0732783,"lat":48.4221458,"elevation":[]},{"distance":28.76,"relativeDirection":"LEFT","streetName":"path","absoluteDirection":"NORTHWEST","stayOn":false,"area":false,"bogusName":true,"lon":-71.0723612,"lat":48.422919900000004,"elevation":[]},{"distance":21.634999999999998,"relativeDirection":"RIGHT","streetName":"Rue Gilbert","absoluteDirection":"NORTH","stayOn":false,"area":false,"bogusName":false,"lon":-71.0726606,"lat":48.423085500000006,"elevation":[]}]}],"tooSloped":false},{"duration":1394,"startTime":1522695238000,"endTime":1522696632000,"walkTime":681,"transitTime":711,"waitingTime":2,"walkDistance":857.8571278130589,"walkLimitExceeded":false,"elevationLost":0.0,"elevationGained":0.0,"transfers":0,"legs":[{"startTime":1522695238000,"endTime":1522695281000,"departureDelay":0,"arrivalDelay":0,"realTime":false,"distance":55.685,"pathway":false,"mode":"WALK","route":"","agencyTimeZoneOffset":-14400000,"interlineWithPreviousLeg":false,"from":{"name":"Origin","lon":-71.073469,"lat":48.408412,"departure":1522695238000,"orig":"","vertexType":"NORMAL"},"to":{"name":"Centre d'hébergement Mgr Victor Tremblay","stopId":"1:542","stopCode":"542","lon":-71.072091,"lat":48.408437,"arrival":1522695281000,"departure":1522695282000,"zoneId":"NA","stopIndex":20,"stopSequence":21,"vertexType":"TRANSIT"},"legGeometry":{"points":"sumfHfkxpLWSw@cA?A","length":4},"rentedBike":false,"transitLeg":false,"duration":43.0,"steps":[{"distance":55.685,"relativeDirection":"DEPART","streetName":"Rue d'Angoulème","absoluteDirection":"NORTHEAST","stayOn":false,"area":false,"bogusName":false,"lon":-71.0726750361586,"lat":48.40810885552929,"elevation":[]}]},{"startTime":1522695282000,"endTime":1522695993000,"departureDelay":0,"arrivalDelay":0,"realTime":false,"distance":3754.606407178616,"pathway":false,"mode":"BUS","route":"15","agencyName":"Société de Transport du Saguenay","agencyUrl":"http://ville.saguenay.ca/fr/services-aux-citoyens/transport-sts","agencyTimeZoneOffset":-14400000,"routeColor":"FF00FF","routeType":3,"routeId":"1:15","routeTextColor":"FFFFFF","interlineWithPreviousLeg":false,"tripBlockId":"32","headsign":"Terminus Chicoutimi","agencyId":"0","tripId":"1:218163","serviceDate":"20180402","from":{"name":"Centre d'hébergement Mgr Victor Tremblay","stopId":"1:542","stopCode":"542","lon":-71.072091,"lat":48.408437,"arrival":1522695281000,"departure":1522695282000,"zoneId":"NA","stopIndex":20,"stopSequence":21,"vertexType":"TRANSIT"},"to":{"name":"Jacques-Cartier / Tessier","stopId":"1:62","stopCode":"62","lon":-71.067531,"lat":48.426736,"arrival":1522695993000,"departure":1522695994000,"zoneId":"NA","stopIndex":37,"stopSequence":38,"vertexType":"TRANSIT"},"legGeometry":{"points":"gxmfHphxpLsEeGe@o@qAa@m@MoB?C@}BZwAc@oA_Bs@gDCKZ{Di@QECc@_@sAkAoBwB_EcE{A_BoAmAk@o@cCaCkIkIaJaJUUwBaCj@wCjAsCzGoG_CoHL{D_@kAqD{CQr@iAcAy@w@L{@wAuA_B_B_EpLDh@NbBVvCIxBg@`Am@l@Sb@a@rAqDqDmEkE]a@kAqAU|@WnKG|DGxDOdPKvJU|F?XQlJC~@ChA","length":64},"routeShortName":"15","routeLongName":"Term. Chic / Costco","rentedBike":false,"transitLeg":true,"duration":711.0,"steps":[]},{"startTime":1522695994000,"endTime":1522696632000,"departureDelay":0,"arrivalDelay":0,"realTime":false,"distance":801.971,"pathway":false,"mode":"WALK","route":"","agencyTimeZoneOffset":-14400000,"interlineWithPreviousLeg":false,"from":{"name":"Jacques-Cartier / Tessier","stopId":"1:62","stopCode":"62","lon":-71.067531,"lat":48.426736,"arrival":1522695993000,"departure":1522695994000,"zoneId":"NA","stopIndex":37,"stopSequence":38,"vertexType":"TRANSIT"},"to":{"name":"Destination","lon":-71.072786,"lat":48.423496,"arrival":1522696632000,"orig":"","vertexType":"NORMAL"},"legGeometry":{"points":"uiqfHbkwpLEnBC~AMrEInCAj@A`DjAJVJRXJRFFJBJEBG`AXNLDb@xBa@f@?jAJPBnBJ|@Hf@Fb@PZTa@z@ECE?C?EDADAF?F","length":35},"rentedBike":false,"transitLeg":false,"duration":638.0,"steps":[{"distance":76.392,"relativeDirection":"DEPART","streetName":"Rue Jacques-Cartier Est","absoluteDirection":"WEST","stayOn":false,"area":false,"bogusName":false,"lon":-71.0675380239516,"lat":48.42667414840684,"elevation":[]},{"distance":208.179,"relativeDirection":"CONTINUE","streetName":"Rue Jacques-Cartier Ouest","absoluteDirection":"WEST","stayOn":false,"area":false,"bogusName":false,"lon":-71.0685709,"lat":48.426721,"elevation":[]},{"distance":103.339,"relativeDirection":"LEFT","streetName":"Rue Montcalm","absoluteDirection":"SOUTH","stayOn":false,"area":false,"bogusName":false,"lon":-71.0713817,"lat":48.426863100000006,"elevation":[]},{"distance":48.492,"relativeDirection":"SLIGHTLY_RIGHT","streetName":"path","absoluteDirection":"SOUTH","stayOn":false,"area":false,"bogusName":true,"lon":-71.0717267,"lat":48.426028200000005,"elevation":[]},{"distance":13.871,"relativeDirection":"RIGHT","streetName":"Rue Price Ouest","absoluteDirection":"WEST","stayOn":false,"area":false,"bogusName":false,"lon":-71.0719217,"lat":48.425614800000005,"elevation":[]},{"distance":301.303,"relativeDirection":"LEFT","streetName":"Boulevard Saint-Paul","absoluteDirection":"SOUTH","stayOn":false,"area":false,"bogusName":false,"lon":-71.0721044,"lat":48.4255854,"elevation":[]},{"distance":28.76,"relativeDirection":"RIGHT","streetName":"path","absoluteDirection":"NORTHWEST","stayOn":false,"area":false,"bogusName":true,"lon":-71.0723612,"lat":48.422919900000004,"elevation":[]},{"distance":21.634999999999998,"relativeDirection":"RIGHT","streetName":"Rue Gilbert","absoluteDirection":"NORTH","stayOn":false,"area":false,"bogusName":false,"lon":-71.0726606,"lat":48.423085500000006,"elevation":[]}]}],"tooSloped":false}]},"debugOutput":{"precalculationTime":49,"pathCalculationTime":34,"pathTimes":[16,9,9],"renderingTime":0,"totalTime":83,"timedOut":false},"elevationMetadata":{"ellipsoidToGeoidDifference":-28.885904201182168,"geoidElevation":false}}