{"requestParameters":{"date":"2018/04/02","walkSpeed":"1.33","walkReluctance":"2.0","fromPlace":"48.429318,-71.03761299","maxWalkDistance":"3000","waitReluctance":"1.0","carSpeed":"33","numItineraries":"3","waitAtBeginningFactor":"0.4","mode":"TRANSIT,WALK","ignoreRealtimeUpdates":"false","stairsReluctance":"2.0","toPlace":"48.423931,-71.079358","time":"22:0:00"},"plan":{"date":1522720800000,"from":{"name":"Origin","lon":-71.03761299,"lat":48.429318,"orig":"","vertexType":"NORMAL"},"to":{"name":"Destination","lon":-71.079358,"lat":48.423931,"orig":"","vertexType":"NORMAL"},"itineraries":[{"duration":1480,"startTime":1522721132000,"endTime":1522722612000,"walkTime":1197,"transitTime":281,"waitingTime":2,"walkDistance":1528.5643834520843,"walkLimitExceeded":false,"elevationLost":0.0,"elevationGained":0.0,"transfers":0,"legs":[{"startTime":1522721132000,"endTime":1522721178000,"departureDelay":0,"arrivalDelay":0,"realTime":false,"distance":60.956,"pathway":false,"mode":"WALK","route":"","agencyTimeZoneOffset":-14400000,"interlineWithPreviousLeg":false,"from":{"name":"Origin","lon":-71.03761299,"lat":48.429318,"departure":1522721132000,"orig":"","vertexType":"NORMAL"},"to":{"name":"boul. Saguenay / École","stopId":"1:1991","stopCode":"1991","lon":-71.038515,"lat":48.429521,"arrival":1522721178000,"departure":1522721179000,"zoneId":"NA","stopIndex":29,"stopSequence":30,"vertexType":"TRANSIT"},"legGeometry":{"points":"y{qfHrpqpLFfAJxA","length":3},"rentedBike":false,"transitLeg":false,"duration":46.0,"steps":[{"distance":60.956,"relativeDirection":"DEPART","streetName":"Boulevard du Saguenay Est","absoluteDirection":"WEST","stayOn":false,"area":false,"bogusName":false,"lon":-71.03769036455614,"lat":48.42957832513216,"elevation":[]}]},{"startTime":1522721179000,"endTime":1522721460000,"departureDelay":0,"arrivalDelay":0,"realTime":false,"distance":2054.5096367917276,"pathway":false,"mode":"BUS","route":"12","agencyName":"Société de Transport du Saguenay","agencyUrl":"http://ville.saguenay.ca/fr/services-aux-citoyens/transport-sts","agencyTimeZoneOffset":-14400000,"routeColor":"556B2F","routeType":3,"routeId":"1:12","routeTextColor":"FFFFFF","interlineWithPreviousLeg":false,"tripBlockId":"29","headsign":"Terminus Chicoutimi","agencyId":"0","tripId":"1:218082","serviceDate":"20180402","from":{"name":"boul. Saguenay / École","stopId":"1:1991","stopCode":"1991","lon":-71.038515,"lat":48.429521,"arrival":1522721178000,"departure":1522721179000,"zoneId":"NA","stopIndex":29,"stopSequence":30,"vertexType":"TRANSIT"},"to":{"name":"Terminus Chicoutimi","stopId":"1:1289","stopCode":"1289","lon":-71.066163,"lat":48.428677,"arrival":1522721460000,"departure":1522721461000,"zoneId":"NA","stopIndex":33,"stopSequence":34,"vertexType":"TRANSIT"},"legGeometry":{"points":"e}qfH~uqpLr@~ZPvHsCrMFxf@|ApJj@nDDl]BvZdCXJhC","length":11},"routeShortName":"12","routeLongName":"Rivière du Moulin","rentedBike":false,"transitLeg":true,"duration":281.0,"steps":[]},{"startTime":1522721461000,"endTime":1522722612000,"departureDelay":0,"arrivalDelay":0,"realTime":false,"distance":1467.4049999999997,"pathway":false,"mode":"WALK","route":"","agencyTimeZoneOffset":-14400000,"interlineWithPreviousLeg":false,"from":{"name":"Terminus Chicoutimi","stopId":"1:1289","stopCode":"1289","lon":-71.066163,"lat":48.428677,"arrival":1522721460000,"departure":1522721461000,"zoneId":"NA","stopIndex":33,"stopSequence":34,"vertexType":"TRANSIT"},"to":{"name":"Destination","lon":-71.079358,"lat":48.423931,"arrival":1522722612000,"orig":"","vertexType":"NORMAL"},"legGeometry":{"points":"{uqfHb~vpLbAJR@JDb@LrBHP@jCPKdEC`ACvAEnBC~AMrEInCAj@A`DjAJVJRXJRFFJBJEBG`AXNLDb@@Zp@hDF|@BZEbA?@ARGh@Gj@r@TdCRAb@G|CBjD@Z?d@BLf@nCLp@LZLNVF`@HFFDJ@T?d@Ap@D\\HX","length":58},"rentedBike":false,"transitLeg":false,"duration":1151.0,"steps":[{"distance":229.71300000000002,"relativeDirection":"DEPART","streetName":"Rue Morin","absoluteDirection":"SOUTH","stayOn":false,"area":false,"bogusName":false,"lon":-71.0654590096484,"lat":48.428628638946556,"elevation":[]},{"distance":206.749,"relativeDirection":"RIGHT","streetName":"Rue Jacques-Cartier Est","absoluteDirection":"WEST","stayOn":false,"area":false,"bogusName":false,"lon":-71.0657774,"lat":48.426577300000005,"elevation":[]},{"distance":208.179,"relativeDirection":"CONTINUE","streetName":"Rue Jacques-Cartier Ouest","absoluteDirection":"WEST","stayOn":false,"area":false,"bogusName":false,"lon":-71.0685709,"lat":48.426721,"elevation":[]},{"distance":103.339,"relativeDirection":"LEFT","streetName":"Rue Montcalm","absoluteDirection":"SOUTH","stayOn":false,"area":false,"bogusName":false,"lon":-71.0713817,"lat":48.426863100000006,"elevation":[]},{"distance":48.492,"relativeDirection":"SLIGHTLY_RIGHT","streetName":"path","absoluteDirection":"SOUTH","stayOn":false,"area":false,"bogusName":true,"lon":-71.0717267,"lat":48.426028200000005,"elevation":[]},{"distance":193.44,"relativeDirection":"RIGHT","streetName":"Rue Price Ouest","absoluteDirection":"WEST","stayOn":false,"area":false,"bogusName":false,"lon":-71.0719217,"lat":48.425614800000005,"elevation":[]},{"distance":104.41,"relativeDirection":"LEFT","streetName":"Rue Sainte-Marthe","absoluteDirection":"SOUTH","stayOn":false,"area":false,"bogusName":false,"lon":-71.07442610000001,"lat":48.425381900000005,"elevation":[]},{"distance":304.524,"relativeDirection":"RIGHT","streetName":"Rue Bossé","absoluteDirection":"WEST","stayOn":false,"area":false,"bogusName":false,"lon":-71.0746309,"lat":48.424456500000005,"elevation":[]},{"distance":68.559,"relativeDirection":"RIGHT","streetName":"Rue Bossé","absoluteDirection":"WEST","stayOn":true,"area":false,"bogusName":false,"lon":-71.0781822,"lat":48.42371,"elevation":[]}]}],"tooSloped":false},{"duration":898,"startTime":1522722932000,"endTime":1522723830000,"walkTime":48,"transitTime":608,"waitingTime":242,"walkDistance":63.476000000000006,"walkLimitExceeded":false,"elevationLost":0.0,"elevationGained":0.0,"transfers":1,"legs":[{"startTime":1522722932000,"endTime":1522722978000,"departureDelay":0,"arrivalDelay":0,"realTime":false,"distance":60.956,"pathway":false,"mode":"WALK","route":"","agencyTimeZoneOffset":-14400000,"interlineWithPreviousLeg":false,"from":{"name":"Origin","lon":-71.03761299,"lat":48.429318,"departure":1522722932000,"orig":"","vertexType":"NORMAL"},"to":{"name":"boul. Saguenay / École","stopId":"1:1991","stopCode":"1991","lon":-71.038515,"lat":48.429521,"arrival":1522722978000,"departure":1522722979000,"zoneId":"NA","stopIndex":29,"stopSequence":30,"vertexType":"TRANSIT"},"legGeometry":{"points":"y{qfHrpqpLFfAJxA","length":3},"rentedBike":false,"transitLeg":false,"duration":46.0,"steps":[{"distance":60.956,"relativeDirection":"DEPART","streetName":"Boulevard du Saguenay Est","absoluteDirection":"WEST","stayOn":false,"area":false,"bogusName":false,"lon":-71.03769036455614,"lat":48.42957832513216,"elevation":[]}]},{"startTime":1522722979000,"endTime":1522723260000,"departureDelay":0,"arrivalDelay":0,"realTime":false,"distance":2054.5096367917276,"pathway":false,"mode":"BUS","route":"12","agencyName":"Société de Transport du Saguenay","agencyUrl":"http://ville.saguenay.ca/fr/services-aux-citoyens/transport-sts","agencyTimeZoneOffset":-14400000,"routeColor":"556B2F","routeType":3,"routeId":"1:12","routeTextColor":"FFFFFF","interlineWithPreviousLeg":false,"tripBlockId":"26","headsign":"Terminus Chicoutimi","agencyId":"0","tripId":"1:217995","serviceDate":"20180402","from":{"name":"boul. Saguenay / École","stopId":"1:1991","stopCode":"1991","lon":-71.038515,"lat":48.429521,"arrival":1522722978000,"departure":1522722979000,"zoneId":"NA","stopIndex":29,"stopSequence":30,"vertexType":"TRANSIT"},"to":{"name":"Terminus Chicoutimi","stopId":"1:1289","stopCode":"1289","lon":-71.066163,"lat":48.428677,"arrival":1522723260000,"departure":1522723500000,"zoneId":"NA","stopIndex":33,"stopSequence":34,"vertexType":"TRANSIT"},"legGeometry":{"points":"e}qfH~uqpLr@~ZPvHsCrMFxf@|ApJj@nDDl]BvZdCXJhC","length":11},"routeShortName":"12","routeLongName":"Rivière du Moulin","rentedBike":false,"transitLeg":true,"duration":281.0,"steps":[]},{"startTime":1522723500000,"endTime":1522723827000,"departureDelay":0,"arrivalDelay":0,"realTime":false,"distance":1303.2324042490318,"pathway":false,"mode":"BUS","route":"16","agencyName":"Société de Transport du Saguenay","agencyUrl":"http://ville.saguenay.ca/fr/services-aux-citoyens/transport-sts","agencyTimeZoneOffset":-14400000,"routeColor":"00FF00","routeType":3,"routeId":"1:16","routeTextColor":"000000","interlineWithPreviousLeg":false,"tripBlockId":"35","headsign":"Faubourg Sagamie","agencyId":"0","tripId":"1:218274","serviceDate":"20180402","from":{"name":"Terminus Chicoutimi","stopId":"1:1289","stopCode":"1289","lon":-71.066163,"lat":48.428677,"arrival":1522723260000,"departure":1522723500000,"zoneId":"NA","stopIndex":0,"stopSequence":1,"vertexType":"TRANSIT"},"to":{"name":"La Pulperie de Chicoutimi (Doré)","stopId":"1:593","stopCode":"593","lon":-71.079137,"lat":48.423635,"arrival":1522723827000,"departure":1522723828000,"zoneId":"NA","stopIndex":7,"stopSequence":8,"vertexType":"TRANSIT"},"legGeometry":{"points":"evqfHzcwpLg@?AXCnAO~GxDVhCP~M~@jDTOrHKdGE^E~BQnIMhGAxCD~@Df@DVDZd@zBBLDJJNHHHDJBn@HCxAHdAFX","length":31},"routeShortName":"16","routeLongName":"Côte de la Réserve","rentedBike":false,"transitLeg":true,"duration":327.0,"steps":[]},{"startTime":1522723828000,"endTime":1522723830000,"departureDelay":0,"arrivalDelay":0,"realTime":false,"distance":2.52,"pathway":false,"mode":"WALK","route":"","agencyTimeZoneOffset":-14400000,"interlineWithPreviousLeg":false,"from":{"name":"La Pulperie de Chicoutimi (Doré)","stopId":"1:593","stopCode":"593","lon":-71.079137,"lat":48.423635,"arrival":1522723827000,"departure":1522723828000,"zoneId":"NA","stopIndex":7,"stopSequence":8,"vertexType":"TRANSIT"},"to":{"name":"Destination","lon":-71.079358,"lat":48.423931,"arrival":1522723830000,"orig":"","vertexType":"NORMAL"},"legGeometry":{"points":"mvpfHlsypLAE","length":2},"rentedBike":false,"transitLeg":false,"duration":2.0,"steps":[{"distance":2.52,"relativeDirection":"DEPART","streetName":"Rue Bossé","absoluteDirection":"NORTHEAST","stayOn":false,"area":false,"bogusName":false,"lon":-71.07910401166372,"lat":48.423597523089356,"elevation":[]}]}],"tooSloped":false},{"duration":1480,"startTime":1522724732000,"endTime":1522726212000,"walkTime":1197,"transitTime":281,"waitingTime":2,"walkDistance":1528.5643834520843,"walkLimitExceeded":false,"elevationLost":0.0,"elevationGained":0.0,"transfers":0,"legs":[{"startTime":1522724732000,"endTime":1522724778000,"departureDelay":0,"arrivalDelay":0,"realTime":false,"distance":60.956,"pathway":false,"mode":"WALK","route":"","agencyTimeZoneOffset":-14400000,"interlineWithPreviousLeg":false,"from":{"name":"Origin","lon":-71.03761299,"lat":48.429318,"departure":1522724732000,"orig":"","vertexType":"NORMAL"},"to":{"name":"boul. Saguenay / École","stopId":"1:1991","stopCode":"1991","lon":-71.038515,"lat":48.429521,"arrival":1522724778000,"departure":1522724779000,"zoneId":"NA","stopIndex":29,"stopSequence":30,"vertexType":"TRANSIT"},"legGeometry":{"points":"y{qfHrpqpLFfAJxA","length":3},"rentedBike":false,"transitLeg":false,"duration":46.0,"steps":[{"distance":60.956,"relativeDirection":"DEPART","streetName":"Boulevard du Saguenay Est","absoluteDirection":"WEST","stayOn":false,"area":false,"bogusName":false,"lon":-71.03769036455614,"lat":48.42957832513216,"elevation":[]}]},{"startTime":1522724779000,"endTime":1522725060000,"departureDelay":0,"arrivalDelay":0,"realTime":false,"distance":2054.5096367917276,"pathway":false,"mode":"BUS","route":"12","agencyName":"Société de Transport du Saguenay","agencyUrl":"http://ville.saguenay.ca/fr/services-aux-citoyens/transport-sts","agencyTimeZoneOffset":-14400000,"routeColor":"556B2F","routeType":3,"routeId":"1:12","routeTextColor":"FFFFFF","interlineWithPreviousLeg":false,"tripBlockId":"29","headsign":"Terminus Chicoutimi","agencyId":"0","tripId":"1:218084","serviceDate":"20180402","from":{"name":"boul. Saguenay / École","stopId":"1:1991","stopCode":"1991","lon":-71.038515,"lat":48.429521,"arrival":1522724778000,"departure":1522724779000,"zoneId":"NA","stopIndex":29,"stopSequence":30,"vertexType":"TRANSIT"},"to":{"name":"Terminus Chicoutimi","stopId":"1:1289","stopCode":"1289","lon":-71.066163,"lat":48.428677,"arrival":1522725060000,"departure":1522725061000,"zoneId":"NA","stopIndex":33,"stopSequence":34,"vertexType":"TRANSIT"},"legGeometry":{"points":"e}qfH~uqpLr@~ZPvHsCrMFxf@|ApJj@nDDl]BvZdCXJhC","length":11},"routeShortName":"12","routeLongName":"Rivière du Moulin","rentedBike":false,"transitLeg":true,"duration":281.0,"steps":[]},{"startTime":1522725061000,"endTime":1522726212000,"departureDelay":0,"arrivalDelay":0,"realTime":false,"distance":1467.4049999999997,"pathway":false,"mode":"WALK","route":"","agencyTimeZoneOffset":-14400000,"interlineWithPreviousLeg":false,"from":{"name":"Terminus Chicoutimi","stopId":"1:1289","stopCode":"1289","lon":-71.066163,"lat":48.428677,"arrival":1522725060000,"departure":1522725061000,"zoneId":"NA","stopIndex":33,"stopSequence":34,"vertexType":"TRANSIT"},"to":{"name":"Destination","lon":-71.079358,"lat":48.423931,"arrival":1522726212000,"orig":"","vertexType":"NORMAL"},"legGeometry":{"points":"{uqfHb~vpLbAJR@JDb@LrBHP@jCPKdEC`ACvAEnBC~AMrEInCAj@A`DjAJVJRXJRFFJBJEBG`AXNLDb@@Zp@hDF|@BZEbA?@ARGh@Gj@r@TdCRAb@G|CBjD@Z?d@BLf@nCLp@LZLNVF`@HFFDJ@T?d@Ap@D\\HX","length":58},"rentedBike":false,"transitLeg":false,"duration":1151.0,"steps":[{"distance":229.71300000000002,"relativeDirection":"DEPART","streetName":"Rue Morin","absoluteDirection":"SOUTH","stayOn":false,"area":false,"bogusName":false,"lon":-71.0654590096484,"lat":48.428628638946556,"elevation":[]},{"distance":206.749,"relativeDirection":"RIGHT","streetName":"Rue Jacques-Cartier Est","absoluteDirection":"WEST","stayOn":false,"area":false,"bogusName":false,"lon":-71.0657774,"lat":48.426577300000005,"elevation":[]},{"distance":208.179,"relativeDirection":"CONTINUE","streetName":"Rue Jacques-Cartier Ouest","absoluteDirection":"WEST","stayOn":false,"area":false,"bogusName":false,"lon":-71.0685709,"lat":48.426721,"elevation":[]},{"distance":103.339,"relativeDirection":"LEFT","streetName":"Rue Montcalm","absoluteDirection":"SOUTH","stayOn":false,"area":false,"bogusName":false,"lon":-71.0713817,"lat":48.426863100000006,"elevation":[]},{"distance":48.492,"relativeDirection":"SLIGHTLY_RIGHT","streetName":"path","absoluteDirection":"SOUTH","stayOn":false,"area":false,"bogusName":true,"lon":-71.0717267,"lat":48.426028200000005,"elevation":[]},{"distance":193.44,"relativeDirection":"RIGHT","streetName":"Rue Price Ouest","absoluteDirection":"WEST","stayOn":false,"area":false,"bogusName":false,"lon":-71.0719217,"lat":48.425614800000005,"elevation":[]},{"distance":104.41,"relativeDirection":"LEFT","streetName":"Rue Sainte-Marthe","absoluteDirection":"SOUTH","stayOn":false,"area":false,"bogusName":false,"lon":-71.07442610000001,"lat":48.425381900000005,"elevation":[]},{"distance":304.524,"relativeDirection":"RIGHT","streetName":"Rue Bossé","absoluteDirection":"WEST","stayOn":false,"area":false,"bogusName":false,"lon":-71.0746309,"lat":48.424456500000005,"elevation":[]},{"distance":68.559,"relativeDirection":"RIGHT","streetName":"Rue Bossé","absoluteDirection":"WEST","stayOn":true,"area":false,"bogusName":false,"lon":-71.0781822,"lat":48.42371,"elevation":[]}]}],"tooSloped":false}]},"debugOutput":{"precalculationTime":33,"pathCalculationTime":35,"pathTimes":[21,4,10],"renderingTime":1,"totalTime":69,"timedOut":false},"elevationMetadata":{"ellipsoidToGeoidDifference":-28.885904201182168,"geoidElevation":false}}