{"requestParameters":{"date":"2018/04/02","walkSpeed":"1.33","walkReluctance":"2.0","fromPlace":"48.423931,-71.079358","maxWalkDistance":"3000","waitReluctance":"1.0","carSpeed":"33","numItineraries":"3","waitAtBeginningFactor":"0.4","mode":"TRANSIT,WALK","ignoreRealtimeUpdates":"false","stairsReluctance":"2.0","toPlace":"48.429318,-71.03761299","time":"21:30:00"},"plan":{"date":1522719000000,"from":{"name":"Origin","lon":-71.079358,"lat":48.423931,"orig":"","vertexType":"NORMAL"},"to":{"name":"Destination","lon":-71.03761299,"lat":48.429318,"orig":"","vertexType":"NORMAL"},"itineraries":[{"duration":1878,"startTime":1522719261000,"endTime":1522721139000,"walkTime":1051,"transitTime":585,"waitingTime":242,"walkDistance":1364.7849248081604,"walkLimitExceeded":false,"elevationLost":0.0,"elevationGained":0.0,"transfers":1,"legs":[{"startTime":1522719261000,"endTime":1522719331000,"departureDelay":0,"arrivalDelay":0,"realTime":false,"distance":84.757,"pathway":false,"mode":"WALK","route":"","agencyTimeZoneOffset":-14400000,"interlineWithPreviousLeg":false,"from":{"name":"Origin","lon":-71.079358,"lat":48.423931,"departure":1522719261000,"orig":"","vertexType":"NORMAL"},"to":{"name":"Doré / Bossé","stopId":"1:1851","stopCode":"1851","lon":-71.078314,"lat":48.423588,"arrival":1522719331000,"departure":1522719332000,"zoneId":"NA","stopIndex":24,"stopSequence":25,"vertexType":"TRANSIT"},"legGeometry":{"points":"ovpfHfsypLIYE]@q@?e@AUEKFETF","length":9},"rentedBike":false,"transitLeg":false,"duration":70.0,"steps":[{"distance":68.559,"relativeDirection":"DEPART","streetName":"Rue Bossé","absoluteDirection":"NORTHEAST","stayOn":false,"area":false,"bogusName":false,"lon":-71.07907452225615,"lat":48.423608954467134,"elevation":[]},{"distance":16.198,"relativeDirection":"RIGHT","streetName":"road","absoluteDirection":"SOUTH","stayOn":false,"area":false,"bogusName":true,"lon":-71.0781822,"lat":48.42371,"elevation":[]}]},{"startTime":1522719332000,"endTime":1522719660000,"departureDelay":0,"arrivalDelay":0,"realTime":false,"distance":1255.4672450276205,"pathway":false,"mode":"BUS","route":"11","agencyName":"Société de Transport du Saguenay","agencyUrl":"http://ville.saguenay.ca/fr/services-aux-citoyens/transport-sts","agencyTimeZoneOffset":-14400000,"routeColor":"FF0000","routeType":3,"routeId":"1:11","routeTextColor":"FFFFFF","interlineWithPreviousLeg":false,"tripBlockId":"34","headsign":"Terminus Chicoutimi","agencyId":"0","tripId":"1:218236","serviceDate":"20180402","from":{"name":"Doré / Bossé","stopId":"1:1851","stopCode":"1851","lon":-71.078314,"lat":48.423588,"arrival":1522719331000,"departure":1522719332000,"zoneId":"NA","stopIndex":24,"stopSequence":25,"vertexType":"TRANSIT"},"to":{"name":"Terminus Chicoutimi","stopId":"1:1289","stopCode":"1289","lon":-71.066163,"lat":48.428677,"arrival":1522719660000,"departure":1522719900000,"zoneId":"NA","stopIndex":30,"stopSequence":31,"vertexType":"TRANSIT"},"legGeometry":{"points":"{vpfHlnypL?Yo@IKCIEIIKOEKCKe@}BKs@CQAUE_A@yCFcDVsLDaCD_@kBKW?e@Q_BQNuEDuBXmNLgHmKm@}BW{AMCn@o@G??","length":33},"routeShortName":"11","routeLongName":"Chic/Faubourg via St-Paul","rentedBike":false,"transitLeg":true,"duration":328.0,"steps":[]},{"startTime":1522719900000,"endTime":1522720157000,"departureDelay":0,"arrivalDelay":0,"realTime":false,"distance":1120.329347323449,"pathway":false,"mode":"BUS","route":"175","agencyName":"Société de Transport du Saguenay","agencyUrl":"http://ville.saguenay.ca/fr/services-aux-citoyens/transport-sts","agencyTimeZoneOffset":-14400000,"routeColor":"FF00FF","routeType":3,"routeId":"1:175","routeTextColor":"FFFFFF","interlineWithPreviousLeg":false,"tripBlockId":"6","headsign":"Costco","agencyId":"0","tripId":"1:217315","serviceDate":"20180402","from":{"name":"Terminus Chicoutimi","stopId":"1:1289","stopCode":"1289","lon":-71.066163,"lat":48.428677,"arrival":1522719660000,"departure":1522719900000,"zoneId":"NA","stopIndex":0,"stopSequence":1,"vertexType":"TRANSIT"},"to":{"name":"Hôtel-Dieu / Séminaire","stopId":"1:341","stopCode":"341","lon":-71.05125,"lat":48.42738,"arrival":1522720157000,"departure":1522720158000,"zoneId":"NA","stopIndex":5,"stopSequence":6,"vertexType":"TRANSIT"},"legGeometry":{"points":"kvqfH~awpL~CgBbAqa@FwCBkAOsHAg@bAYUwMKoE@mB@kJ","length":12},"routeShortName":"175","routeLongName":"Term. Chic / Costco","rentedBike":false,"transitLeg":true,"duration":257.0,"steps":[]},{"startTime":1522720158000,"endTime":1522721139000,"departureDelay":0,"arrivalDelay":0,"realTime":false,"distance":1279.9080000000001,"pathway":false,"mode":"WALK","route":"","agencyTimeZoneOffset":-14400000,"interlineWithPreviousLeg":false,"from":{"name":"Hôtel-Dieu / Séminaire","stopId":"1:341","stopCode":"341","lon":-71.05125,"lat":48.42738,"arrival":1522720157000,"departure":1522720158000,"zoneId":"NA","stopIndex":5,"stopSequence":6,"vertexType":"TRANSIT"},"to":{"name":"Destination","lon":-71.03761299,"lat":48.429318,"arrival":1522721139000,"orig":"","vertexType":"NORMAL"},"legGeometry":{"points":"unqfHhetpLArA_@Lc@Fq@LeBVWDUDg@}@OQm@w@m@cBIm@Cq@@uH?g@@kC?kD@{A?[?}@?a@DmAB[PuBHkAB[Dy@DqA@q@@}@@M?ADqCA{JMuDCYGy@MiBKyAGgA","length":41},"rentedBike":false,"transitLeg":false,"duration":981.0,"steps":[{"distance":31.086,"relativeDirection":"DEPART","streetName":"Rue de l'Hôtel-Dieu","absoluteDirection":"WEST","stayOn":false,"area":false,"bogusName":false,"lon":-71.0512474120159,"lat":48.4274749435329,"elevation":[]},{"distance":151.044,"relativeDirection":"RIGHT","streetName":"Rue du Séminaire","absoluteDirection":"NORTH","stayOn":false,"area":false,"bogusName":false,"lon":-71.05166870000001,"lat":48.42748,"elevation":[]},{"distance":656.1899999999999,"relativeDirection":"RIGHT","streetName":"Rue Racine Est","absoluteDirection":"NORTHEAST","stayOn":false,"area":false,"bogusName":false,"lon":-71.0520228,"lat":48.4288171,"elevation":[]},{"distance":441.588,"relativeDirection":"CONTINUE","streetName":"Boulevard du Saguenay Est","absoluteDirection":"EAST","stayOn":false,"area":false,"bogusName":false,"lon":-71.04363190000001,"lat":48.4293294,"elevation":[]}]}],"tooSloped":false},{"duration":2089,"startTime":1522719051000,"endTime":1522721140000,"walkTime":1387,"transitTime":460,"waitingTime":242,"walkDistance":1798.081661648822,"walkLimitExceeded":false,"elevationLost":0.0,"elevationGained":0.0,"transfers":1,"legs":[{"startTime":1522719051000,"endTime":1522719457000,"departureDelay":0,"arrivalDelay":0,"realTime":false,"distance":518.0089999999999,"pathway":false,"mode":"WALK","route":"","agencyTimeZoneOffset":-14400000,"interlineWithPreviousLeg":false,"from":{"name":"Origin","lon":-71.079358,"lat":48.423931,"departure":1522719051000,"orig":"","vertexType":"NORMAL"},"to":{"name":"Price / Sainte-Marthe","stopId":"1:628","stopCode":"628","lon":-71.073911,"lat":48.425195,"arrival":1522719457000,"departure":1522719458000,"zoneId":"NA","stopIndex":32,"stopSequence":33,"vertexType":"TRANSIT"},"legGeometry":{"points":"ovpfHfsypLIYE]@q@?e@AUEKGGa@IWGMOM[Mq@g@oCCM?e@A[CkDF}C@c@eCSs@UFk@Fi@@S","length":25},"rentedBike":false,"transitLeg":false,"duration":406.0,"steps":[{"distance":68.559,"relativeDirection":"DEPART","streetName":"Rue Bossé","absoluteDirection":"NORTHEAST","stayOn":false,"area":false,"bogusName":false,"lon":-71.07907452225615,"lat":48.423608954467134,"elevation":[]},{"distance":304.52399999999994,"relativeDirection":"LEFT","streetName":"Rue Bossé","absoluteDirection":"NORTH","stayOn":true,"area":false,"bogusName":false,"lon":-71.0781822,"lat":48.42371,"elevation":[]},{"distance":104.41,"relativeDirection":"LEFT","streetName":"Rue Sainte-Marthe","absoluteDirection":"NORTH","stayOn":false,"area":false,"bogusName":false,"lon":-71.0746309,"lat":48.424456500000005,"elevation":[]},{"distance":40.516000000000005,"relativeDirection":"RIGHT","streetName":"Rue Price Ouest","absoluteDirection":"EAST","stayOn":false,"area":false,"bogusName":false,"lon":-71.07442610000001,"lat":48.425381900000005,"elevation":[]}]},{"startTime":1522719458000,"endTime":1522719660000,"departureDelay":0,"arrivalDelay":0,"realTime":false,"distance":737.3644338023462,"pathway":false,"mode":"BUS","route":"16","agencyName":"Société de Transport du Saguenay","agencyUrl":"http://ville.saguenay.ca/fr/services-aux-citoyens/transport-sts","agencyTimeZoneOffset":-14400000,"routeColor":"00FF00","routeType":3,"routeId":"1:16","routeTextColor":"000000","interlineWithPreviousLeg":false,"tripBlockId":"35","headsign":"Terminus Chicoutimi","agencyId":"0","tripId":"1:218271","serviceDate":"20180402","from":{"name":"Price / Sainte-Marthe","stopId":"1:628","stopCode":"628","lon":-71.073911,"lat":48.425195,"arrival":1522719457000,"departure":1522719458000,"zoneId":"NA","stopIndex":32,"stopSequence":33,"vertexType":"TRANSIT"},"to":{"name":"Terminus Chicoutimi","stopId":"1:1289","stopCode":"1289","lon":-71.066163,"lat":48.428677,"arrival":1522719660000,"departure":1522719900000,"zoneId":"NA","stopIndex":35,"stopSequence":36,"vertexType":"TRANSIT"},"legGeometry":{"points":"{`qfHxrxpL@IBcAG_A{@sEEg@oAP}@DiBDFeBMa@iBCq@FmBPFcEDoBNiHyDWN_HBoA@Y@m@","length":22},"routeShortName":"16","routeLongName":"Côte de la Réserve","rentedBike":false,"transitLeg":true,"duration":202.0,"steps":[]},{"startTime":1522719900000,"endTime":1522720158000,"departureDelay":0,"arrivalDelay":0,"realTime":false,"distance":1120.329347323449,"pathway":false,"mode":"BUS","route":"10","agencyName":"Société de Transport du Saguenay","agencyUrl":"http://ville.saguenay.ca/fr/services-aux-citoyens/transport-sts","agencyTimeZoneOffset":-14400000,"routeColor":"0000FF","routeType":3,"routeId":"1:10","routeTextColor":"FFFFFF","interlineWithPreviousLeg":false,"tripBlockId":"26","headsign":"Terminus UQAC","agencyId":"0","tripId":"1:217994","serviceDate":"20180402","from":{"name":"Terminus Chicoutimi","stopId":"1:1289","stopCode":"1289","lon":-71.066163,"lat":48.428677,"arrival":1522719660000,"departure":1522719900000,"zoneId":"NA","stopIndex":0,"stopSequence":1,"vertexType":"TRANSIT"},"to":{"name":"Hôtel-Dieu / Séminaire","stopId":"1:341","stopCode":"341","lon":-71.05125,"lat":48.42738,"arrival":1522720158000,"departure":1522720159000,"zoneId":"NA","stopIndex":5,"stopSequence":6,"vertexType":"TRANSIT"},"legGeometry":{"points":"svqfHnbwpLDmCdDZ\\kO`@mQBuCD}DQ_ECk@^Cd@QWkL?m@IuF@gA?eH?cA","length":17},"routeShortName":"10","routeLongName":"Notre-Dame du Saguenay","rentedBike":false,"transitLeg":true,"duration":258.0,"steps":[]},{"startTime":1522720159000,"endTime":1522721140000,"departureDelay":0,"arrivalDelay":0,"realTime":false,"distance":1279.9080000000001,"pathway":false,"mode":"WALK","route":"","agencyTimeZoneOffset":-14400000,"interlineWithPreviousLeg":false,"from":{"name":"Hôtel-Dieu / Séminaire","stopId":"1:341","stopCode":"341","lon":-71.05125,"lat":48.42738,"arrival":1522720158000,"departure":1522720159000,"zoneId":"NA","stopIndex":5,"stopSequence":6,"vertexType":"TRANSIT"},"to":{"name":"Destination","lon":-71.03761299,"lat":48.429318,"arrival":1522721140000,"orig":"","vertexType":"NORMAL"},"legGeometry":{"points":"unqfHhetpLArA_@Lc@Fq@LeBVWDUDg@}@OQm@w@m@cBIm@Cq@@uH?g@@kC?kD@{A?[?}@?a@DmAB[PuBHkAB[Dy@DqA@q@@}@@M?ADqCA{JMuDCYGy@MiBKyAGgA","length":41},"rentedBike":false,"transitLeg":false,"duration":981.0,"steps":[{"distance":31.086,"relativeDirection":"DEPART","streetName":"Rue de l'Hôtel-Dieu","absoluteDirection":"WEST","stayOn":false,"area":false,"bogusName":false,"lon":-71.0512474120159,"lat":48.4274749435329,"elevation":[]},{"distance":151.044,"relativeDirection":"RIGHT","streetName":"Rue du Séminaire","absoluteDirection":"NORTH","stayOn":false,"area":false,"bogusName":false,"lon":-71.05166870000001,"lat":48.42748,"elevation":[]},{"distance":656.1899999999999,"relativeDirection":"RIGHT","streetName":"Rue Racine Est","absoluteDirection":"NORTHEAST","stayOn":false,"area":false,"bogusName":false,"lon":-71.0520228,"lat":48.4288171,"elevation":[]},{"distance":441.588,"relativeDirection":"CONTINUE","streetName":"Boulevard du Saguenay Est","absoluteDirection":"EAST","stayOn":false,"area":false,"bogusName":false,"lon":-71.04363190000001,"lat":48.4293294,"elevation":[]}]}],"tooSloped":false},{"duration":2501,"startTime":1522720507000,"endTime":1522723008000,"walkTime":1210,"transitTime":1289,"waitingTime":2,"walkDistance":1544.5102030000583,"walkLimitExceeded":false,"elevationLost":0.0,"elevationGained":0.0,"transfers":0,"legs":[{"startTime":1522720507000,"endTime":1522721673000,"departureDelay":0,"arrivalDelay":0,"realTime":false,"distance":1485.921,"pathway":false,"mode":"WALK","route":"","agencyTimeZoneOffset":-14400000,"interlineWithPreviousLeg":false,"from":{"name":"Origin","lon":-71.079358,"lat":48.423931,"departure":1522720507000,"orig":"","vertexType":"NORMAL"},"to":{"name":"Bégin (no. 825)","stopId":"1:2005","stopCode":"2005","lon":-71.064205,"lat":48.41684,"arrival":1522721673000,"departure":1522721674000,"zoneId":"NA","stopIndex":6,"stopSequence":7,"vertexType":"TRANSIT"},"legGeometry":{"points":"ovpfHfsypL@D@DDPd@@h@SRgAD[NeANu@`@qAvAuDbAkCDIN[BIx@uBf@}AXq@Pa@FEFCDCBG@I@K?MESfA_CNc@`@mAZ}@bAkCn@}AfBwEZi@PSVa@V[FE\\Y^Y^Kn@MXy@d@oBQEK]Mq@C_BQWQKUEP]Jg@?[@gABk@Hy@p@gAlAiBzA_B","length":62},"rentedBike":false,"transitLeg":false,"duration":1166.0,"steps":[{"distance":12.51,"relativeDirection":"DEPART","streetName":"Rue Bossé","absoluteDirection":"SOUTHWEST","stayOn":false,"area":false,"bogusName":false,"lon":-71.07907452225615,"lat":48.423608954467134,"elevation":[]},{"distance":45.063,"relativeDirection":"LEFT","streetName":"road","absoluteDirection":"SOUTH","stayOn":false,"area":false,"bogusName":true,"lon":-71.0792211,"lat":48.423552400000005,"elevation":[]},{"distance":389.976,"relativeDirection":"LEFT","streetName":"Rue Dubuc","absoluteDirection":"SOUTHEAST","stayOn":false,"area":false,"bogusName":false,"lon":-71.07913570000001,"lat":48.423156500000005,"elevation":[]},{"distance":78.343,"relativeDirection":"CONTINUE","streetName":"path","absoluteDirection":"SOUTHEAST","stayOn":false,"area":false,"bogusName":true,"lon":-71.07469880000001,"lat":48.4212916,"elevation":[]},{"distance":505.5630000000001,"relativeDirection":"RIGHT","streetName":"Rue Jolliet","absoluteDirection":"SOUTHEAST","stayOn":false,"area":false,"bogusName":false,"lon":-71.07388590000001,"lat":48.420954200000004,"elevation":[]},{"distance":454.466,"relativeDirection":"LEFT","streetName":"path","absoluteDirection":"SOUTHEAST","stayOn":false,"area":false,"bogusName":true,"lon":-71.069079,"lat":48.417887500000006,"elevation":[]}]},{"startTime":1522721674000,"endTime":1522722963000,"departureDelay":0,"arrivalDelay":0,"realTime":false,"distance":7533.839598827164,"pathway":false,"mode":"BUS","route":"12","agencyName":"Société de Transport du Saguenay","agencyUrl":"http://ville.saguenay.ca/fr/services-aux-citoyens/transport-sts","agencyTimeZoneOffset":-14400000,"routeColor":"556B2F","routeType":3,"routeId":"1:12","routeTextColor":"FFFFFF","interlineWithPreviousLeg":false,"tripBlockId":"26","headsign":"Terminus Chicoutimi","agencyId":"0","tripId":"1:217995","serviceDate":"20180402","from":{"name":"Bégin (no. 825)","stopId":"1:2005","stopCode":"2005","lon":-71.064205,"lat":48.41684,"arrival":1522721673000,"departure":1522721674000,"zoneId":"NA","stopIndex":6,"stopSequence":7,"vertexType":"TRANSIT"},"to":{"name":"boul. Saguenay / Vézina","stopId":"1:1992","stopCode":"1992","lon":-71.03693,"lat":48.429729,"arrival":1522722963000,"departure":1522722964000,"zoneId":"NA","stopIndex":28,"stopSequence":29,"vertexType":"TRANSIT"},"legGeometry":{"points":"wkofHfuvpLnCpCv@iBlAgIdCmFbAqDtBeCjFm@`Gs@hFo@xAmBrGcPxFoNlCyGa@yFYkD}CyA}KmFgD_BgAgBn@kFD_NoIgrAmD_WcAaLaDHoDJi`@wVoAbDbA|AnBU|B|AfBlAyLtKoGxFcFqDkJaHgEoDmDwC_TqQsBeB{HjWfAvAfM|O|FlHmB`IgA|Cy@`UYzHZvM","length":50},"routeShortName":"12","routeLongName":"Rivière du Moulin","rentedBike":false,"transitLeg":true,"duration":1289.0,"steps":[]},{"startTime":1522722964000,"endTime":1522723008000,"departureDelay":0,"arrivalDelay":0,"realTime":false,"distance":58.358,"pathway":false,"mode":"WALK","route":"","agencyTimeZoneOffset":-14400000,"interlineWithPreviousLeg":false,"from":{"name":"boul. Saguenay / Vézina","stopId":"1:1992","stopCode":"1992","lon":-71.03693,"lat":48.429729,"arrival":1522722963000,"departure":1522722964000,"zoneId":"NA","stopIndex":28,"stopSequence":29,"vertexType":"TRANSIT"},"to":{"name":"Destination","lon":-71.03761299,"lat":48.429318,"arrival":1522723008000,"orig":"","vertexType":"NORMAL"},"legGeometry":{"points":"o|qfHvkqpLDp@L~A@H","length":4},"rentedBike":false,"transitLeg":false,"duration":44.0,"steps":[{"distance":58.358,"relativeDirection":"DEPART","streetName":"Boulevard du Saguenay Est","absoluteDirection":"WEST","stayOn":false,"area":false,"bogusName":false,"lon":-71.03691625321873,"lat":48.429686067172085,"elevation":[]}]}],"tooSloped":false}]},"debugOutput":{"precalculationTime":32,"pathCalculationTime":73,"pathTimes":[35,18,20],"renderingTime":0,"totalTime":105,"timedOut":false},"elevationMetadata":{"ellipsoidToGeoidDifference":-28.885904201182168,"geoidElevation":false}}