{"requestParameters":{"date":"2018/04/02","walkSpeed":"1.33","walkReluctance":"2.0","fromPlace":"48.401546,-71.062841","maxWalkDistance":"3000","waitReluctance":"1.0","carSpeed":"33","numItineraries":"3","waitAtBeginningFactor":"0.4","mode":"TRANSIT,WALK","ignoreRealtimeUpdates":"false","stairsReluctance":"2.0","toPlace":"48.410863,-71.067079","time":"12:15:00"},"plan":{"date":1522685700000,"from":{"name":"Origin","lon":-71.062841,"lat":48.401546,"orig":"","vertexType":"NORMAL"},"to":{"name":"Destination","lon":-71.067079,"lat":48.410863,"orig":"","vertexType":"NORMAL"},"itineraries":[{"duration":1022,"startTime":1522685700000,"endTime":1522686722000,"walkTime":1022,"transitTime":0,"waitingTime":0,"walkDistance":1315.8431428520723,"walkLimitExceeded":false,"elevationLost":0.0,"elevationGained":0.0,"transfers":0,"legs":[{"startTime":1522685700000,"endTime":1522686722000,"departureDelay":0,"arrivalDelay":0,"realTime":false,"distance":1315.6860000000001,"pathway":false,"mode":"WALK","route":"","agencyTimeZoneOffset":-14400000,"interlineWithPreviousLeg":false,"from":{"name":"Origin","lon":-71.062841,"lat":48.401546,"departure":1522685700000,"orig":"","vertexType":"NORMAL"},"to":{"name":"Destination","lon":-71.067079,"lat":48.410863,"arrival":1522686722000,"orig":"","vertexType":"NORMAL"},"legGeometry":{"points":"wllfHrmvpLa@fA_AhCi@g@u@k@c@USS_DgCW]K_@EUGSGKeA~BaAjAKJkAbA}@v@SDcA~@CB?@gAvA{@dCm@|AGNgBxEGNELqB{BiAnCeHXWl@Ya@q@W[Ia@YQ_@","length":38},"rentedBike":false,"transitLeg":false,"duration":1022.0,"steps":[{"distance":94.395,"relativeDirection":"DEPART","streetName":"road","absoluteDirection":"NORTHWEST","stayOn":false,"area":false,"bogusName":false,"lon":-71.06281762883856,"lat":48.40156799878133,"elevation":[]},{"distance":253.217,"relativeDirection":"RIGHT","streetName":"Rue Bach","absoluteDirection":"NORTHEAST","stayOn":false,"area":false,"bogusName":false,"lon":-71.06386160000001,"lat":48.402058200000006,"elevation":[]},{"distance":537.953,"relativeDirection":"LEFT","streetName":"Rue des Saguenéens","absoluteDirection":"NORTHWEST","stayOn":false,"area":false,"bogusName":false,"lon":-71.0619727,"lat":48.403908900000005,"elevation":[]},{"distance":77.658,"relativeDirection":"RIGHT","streetName":"path","absoluteDirection":"NORTHEAST","stayOn":false,"area":false,"bogusName":true,"lon":-71.0669515,"lat":48.4073198,"elevation":[]},{"distance":230.146,"relativeDirection":"LEFT","streetName":"Rue Duhaime","absoluteDirection":"NORTHWEST","stayOn":false,"area":false,"bogusName":false,"lon":-71.0663385,"lat":48.4078874,"elevation":[]},{"distance":21.727,"relativeDirection":"LEFT","streetName":"Rue Don Bosco","absoluteDirection":"NORTHWEST","stayOn":false,"area":false,"bogusName":false,"lon":-71.0671829,"lat":48.4097206,"elevation":[]},{"distance":100.59,"relativeDirection":"RIGHT","streetName":"service road","absoluteDirection":"NORTHEAST","stayOn":false,"area":false,"bogusName":false,"lon":-71.0674104,"lat":48.4098446,"elevation":[]}]}],"tooSloped":false},{"duration":779,"startTime":1522687451000,"endTime":1522688230000,"walkTime":683,"transitTime":94,"waitingTime":2,"walkDistance":873.9607744309349,"walkLimitExceeded":false,"elevationLost":0.0,"elevationGained":0.0,"transfers":0,"legs":[{"startTime":1522687451000,"endTime":1522687784000,"departureDelay":0,"arrivalDelay":0,"realTime":false,"distance":427.468,"pathway":false,"mode":"WALK","route":"","agencyTimeZoneOffset":-14400000,"interlineWithPreviousLeg":false,"from":{"name":"Origin","lon":-71.062841,"lat":48.401546,"departure":1522687451000,"orig":"","vertexType":"NORMAL"},"to":{"name":"Saguenéens  / Bach","stopId":"1:575","stopCode":"575","lon":-71.061104,"lat":48.403689,"arrival":1522687784000,"departure":1522687785000,"zoneId":"NA","stopIndex":12,"stopSequence":13,"vertexType":"TRANSIT"},"legGeometry":{"points":"wllfHrmvpLa@fA_AhCi@g@u@k@c@USS_DgCW]K_@EUGSGKSSfAoC","length":15},"rentedBike":false,"transitLeg":false,"duration":333.0,"steps":[{"distance":94.395,"relativeDirection":"DEPART","streetName":"road","absoluteDirection":"NORTHWEST","stayOn":false,"area":false,"bogusName":false,"lon":-71.06281762883856,"lat":48.40156799878133,"elevation":[]},{"distance":266.117,"relativeDirection":"RIGHT","streetName":"Rue Bach","absoluteDirection":"NORTHEAST","stayOn":false,"area":false,"bogusName":false,"lon":-71.06386160000001,"lat":48.402058200000006,"elevation":[]},{"distance":66.956,"relativeDirection":"RIGHT","streetName":"Rue des Saguenéens","absoluteDirection":"SOUTHEAST","stayOn":false,"area":false,"bogusName":false,"lon":-71.06187870000001,"lat":48.404006700000004,"elevation":[]}]},{"startTime":1522687785000,"endTime":1522687879000,"departureDelay":0,"arrivalDelay":0,"realTime":false,"distance":613.8625669441221,"pathway":false,"mode":"BUS","route":"15","agencyName":"Société de Transport du Saguenay","agencyUrl":"http://ville.saguenay.ca/fr/services-aux-citoyens/transport-sts","agencyTimeZoneOffset":-14400000,"routeColor":"FF00FF","routeType":3,"routeId":"1:15","routeTextColor":"FFFFFF","interlineWithPreviousLeg":false,"tripBlockId":"32","headsign":"Terminus Chicoutimi","agencyId":"0","tripId":"1:218159","serviceDate":"20180402","from":{"name":"Saguenéens  / Bach","stopId":"1:575","stopCode":"575","lon":-71.061104,"lat":48.403689,"arrival":1522687784000,"departure":1522687785000,"zoneId":"NA","stopIndex":12,"stopSequence":13,"vertexType":"TRANSIT"},"to":{"name":"Saguenéens (no. 129)","stopId":"1:2000","stopCode":"2000","lon":-71.067064,"lat":48.407463,"arrival":1522687879000,"departure":1522687880000,"zoneId":"NA","stopIndex":16,"stopSequence":17,"vertexType":"TRANSIT"},"legGeometry":{"points":"sylfHjcvpLmA|CUr@}@~A_@\\_DvCEZcA|@UP_@d@Yl@oBdFeCxG","length":13},"routeShortName":"15","routeLongName":"Term. Chic / Costco","rentedBike":false,"transitLeg":true,"duration":94.0,"steps":[]},{"startTime":1522687880000,"endTime":1522688230000,"departureDelay":0,"arrivalDelay":0,"realTime":false,"distance":446.33299999999997,"pathway":false,"mode":"WALK","route":"","agencyTimeZoneOffset":-14400000,"interlineWithPreviousLeg":false,"from":{"name":"Saguenéens (no. 129)","stopId":"1:2000","stopCode":"2000","lon":-71.067064,"lat":48.407463,"arrival":1522687879000,"departure":1522687880000,"zoneId":"NA","stopIndex":16,"stopSequence":17,"vertexType":"TRANSIT"},"to":{"name":"Destination","lon":-71.067079,"lat":48.410863,"arrival":1522688230000,"orig":"","vertexType":"NORMAL"},"legGeometry":{"points":"gqmfHphwpLPa@qB{BiAnCeHXWl@Ya@q@W[Ia@YQ_@","length":11},"rentedBike":false,"transitLeg":false,"duration":350.0,"steps":[{"distance":16.212,"relativeDirection":"DEPART","streetName":"Rue des Saguenéens","absoluteDirection":"SOUTHEAST","stayOn":false,"area":false,"bogusName":false,"lon":-71.06712694989164,"lat":48.40740751123809,"elevation":[]},{"distance":77.658,"relativeDirection":"LEFT","streetName":"path","absoluteDirection":"NORTHEAST","stayOn":false,"area":false,"bogusName":true,"lon":-71.0669515,"lat":48.4073198,"elevation":[]},{"distance":230.146,"relativeDirection":"LEFT","streetName":"Rue Duhaime","absoluteDirection":"NORTHWEST","stayOn":false,"area":false,"bogusName":false,"lon":-71.0663385,"lat":48.4078874,"elevation":[]},{"distance":21.727,"relativeDirection":"LEFT","streetName":"Rue Don Bosco","absoluteDirection":"NORTHWEST","stayOn":false,"area":false,"bogusName":false,"lon":-71.0671829,"lat":48.4097206,"elevation":[]},{"distance":100.59,"relativeDirection":"RIGHT","streetName":"service road","absoluteDirection":"NORTHEAST","stayOn":false,"area":false,"bogusName":false,"lon":-71.0674104,"lat":48.4098446,"elevation":[]}]}],"tooSloped":false}]},"debugOutput":{"precalculationTime":44,"pathCalculationTime":37,"pathTimes":[19,8,10],"renderingTime":0,"totalTime":81,"timedOut":false},"elevationMetadata":{"ellipsoidToGeoidDifference":-28.885904201182168,"geoidElevation":false}}