{"requestParameters":{"date":"2018/04/02","walkSpeed":"1.33","walkReluctance":"2.0","fromPlace":"48.404659,-71.095404","maxWalkDistance":"3000","waitReluctance":"1.0","carSpeed":"33","numItineraries":"3","waitAtBeginningFactor":"0.4","mode":"TRANSIT,WALK","ignoreRealtimeUpdates":"false","stairsReluctance":"2.0","toPlace":"48.417381,-71.083526","time":"17:0:00"},"plan":{"date":1522702800000,"from":{"name":"Origin","lon":-71.095404,"lat":48.404659,"orig":"","vertexType":"NORMAL"},"to":{"name":"Destination","lon":-71.083526,"lat":48.417381,"orig":"","vertexType":"NORMAL"},"itineraries":[{"duration":1471,"startTime":1522702800000,"endTime":1522704271000,"walkTime":1471,"transitTime":0,"waitingTime":0,"walkDistance":1901.471345858584,"walkLimitExceeded":false,"elevationLost":0.0,"elevationGained":0.0,"transfers":0,"legs":[{"startTime":1522702800000,"endTime":1522704271000,"departureDelay":0,"arrivalDelay":0,"realTime":false,"distance":1901.283,"pathway":false,"mode":"WALK","route":"","agencyTimeZoneOffset":-14400000,"interlineWithPreviousLeg":false,"from":{"name":"Origin","lon":-71.095404,"lat":48.404659,"departure":1522702800000,"orig":"","vertexType":"NORMAL"},"to":{"name":"Destination","lon":-71.083526,"lat":48.417381,"arrival":1522704271000,"orig":"","vertexType":"NORMAL"},"legGeometry":{"points":"}amfH`}|pL[_@a@e@k@o@_AcAm@u@}@eAmB}BoAaB_AoAIOOUo@_Ag@u@yAyBqB_DmCaEmDiFgAcACCk@k@iBkCk@y@cBcC{@sBi@gBi@qDSJe@VIVQUgAgBg@y@oAxBiGoJ}AoB_@rAcB~F","length":38},"rentedBike":false,"transitLeg":false,"duration":1471.0,"steps":[{"distance":1280.916,"relativeDirection":"DEPART","streetName":"Boulevard Saint-Paul","absoluteDirection":"NORTHEAST","stayOn":false,"area":false,"bogusName":false,"lon":-71.0960011376331,"lat":48.4049568414908,"elevation":[]},{"distance":44.901,"relativeDirection":"LEFT","streetName":"Rue Saint-Augustin","absoluteDirection":"NORTHWEST","stayOn":false,"area":false,"bogusName":false,"lon":-71.0843859,"lat":48.413356300000004,"elevation":[]},{"distance":98.993,"relativeDirection":"RIGHT","streetName":"Rue Saint-Paul","absoluteDirection":"NORTHEAST","stayOn":false,"area":false,"bogusName":false,"lon":-71.0846811,"lat":48.413698000000004,"elevation":[]},{"distance":63.19,"relativeDirection":"LEFT","streetName":"Rue Sainte-Thérèse","absoluteDirection":"NORTHWEST","stayOn":false,"area":false,"bogusName":false,"lon":-71.08376480000001,"lat":48.414347400000004,"elevation":[]},{"distance":267.407,"relativeDirection":"RIGHT","streetName":"Rue Nio","absoluteDirection":"NORTHEAST","stayOn":false,"area":false,"bogusName":false,"lon":-71.0843761,"lat":48.4147453,"elevation":[]},{"distance":145.876,"relativeDirection":"LEFT","streetName":"Rue Garneau","absoluteDirection":"NORTHWEST","stayOn":false,"area":false,"bogusName":false,"lon":-71.0819742,"lat":48.416544200000004,"elevation":[]}]}],"tooSloped":false},{"duration":699,"startTime":1522704294000,"endTime":1522704993000,"walkTime":436,"transitTime":261,"waitingTime":2,"walkDistance":547.6209699203602,"walkLimitExceeded":false,"elevationLost":0.0,"elevationGained":0.0,"transfers":0,"legs":[{"startTime":1522704294000,"endTime":1522704484000,"departureDelay":0,"arrivalDelay":0,"realTime":false,"distance":238.85000000000002,"pathway":false,"mode":"WALK","route":"","agencyTimeZoneOffset":-14400000,"interlineWithPreviousLeg":false,"from":{"name":"Origin","lon":-71.095404,"lat":48.404659,"departure":1522704294000,"orig":"","vertexType":"NORMAL"},"to":{"name":"boul. Barrette / Estacade","stopId":"1:478","stopCode":"478","lon":-71.098119,"lat":48.404568,"arrival":1522704484000,"departure":1522704485000,"zoneId":"NA","stopIndex":12,"stopSequence":13,"vertexType":"TRANSIT"},"legGeometry":{"points":"}amfH`}|pLLNfAjAPTnAxANPiBzE","length":7},"rentedBike":false,"transitLeg":false,"duration":190.0,"steps":[{"distance":138.508,"relativeDirection":"DEPART","streetName":"Boulevard Saint-Paul","absoluteDirection":"SOUTHWEST","stayOn":false,"area":false,"bogusName":false,"lon":-71.0960011376331,"lat":48.4049568414908,"elevation":[]},{"distance":100.342,"relativeDirection":"RIGHT","streetName":"Boulevard Barrette","absoluteDirection":"NORTHWEST","stayOn":false,"area":false,"bogusName":false,"lon":-71.0971116,"lat":48.4039529,"elevation":[]}]},{"startTime":1522704485000,"endTime":1522704746000,"departureDelay":0,"arrivalDelay":0,"realTime":false,"distance":1823.916882585831,"pathway":false,"mode":"BUS","route":"11","agencyName":"Société de Transport du Saguenay","agencyUrl":"http://ville.saguenay.ca/fr/services-aux-citoyens/transport-sts","agencyTimeZoneOffset":-14400000,"routeColor":"FF0000","routeType":3,"routeId":"1:11","routeTextColor":"FFFFFF","interlineWithPreviousLeg":false,"tripBlockId":"34","headsign":"Terminus Chicoutimi","agencyId":"0","tripId":"1:218228","serviceDate":"20180402","from":{"name":"boul. Barrette / Estacade","stopId":"1:478","stopCode":"478","lon":-71.098119,"lat":48.404568,"arrival":1522704484000,"departure":1522704485000,"zoneId":"NA","stopIndex":12,"stopSequence":13,"vertexType":"TRANSIT"},"to":{"name":"Saint-Paul / Saint-Gabriel","stopId":"1:1891","stopCode":"1891","lon":-71.081358,"lat":48.4159,"arrival":1522704746000,"departure":1522704747000,"zoneId":"NA","stopIndex":19,"stopSequence":20,"vertexType":"TRANSIT"},"legGeometry":{"points":"c_mfHtj}pLy@vBeCuCoCaDkDuE_@g@{FwGOMnA}CnA_DJWu@iAW[S[yI{MmBqC{@wAQUw@gAsDiF_B_CQYa@cA[_AUy@YcBOgAYHu@\\M`@cAiBuAyBkHgL","length":33},"routeShortName":"11","routeLongName":"Chic/Faubourg via St-Paul","rentedBike":false,"transitLeg":true,"duration":261.0,"steps":[]},{"startTime":1522704747000,"endTime":1522704993000,"departureDelay":0,"arrivalDelay":0,"realTime":false,"distance":308.63300000000004,"pathway":false,"mode":"WALK","route":"","agencyTimeZoneOffset":-14400000,"interlineWithPreviousLeg":false,"from":{"name":"Saint-Paul / Saint-Gabriel","stopId":"1:1891","stopCode":"1891","lon":-71.081358,"lat":48.4159,"arrival":1522704746000,"departure":1522704747000,"zoneId":"NA","stopIndex":19,"stopSequence":20,"vertexType":"TRANSIT"},"to":{"name":"Destination","lon":-71.083526,"lat":48.417381,"arrival":1522704993000,"orig":"","vertexType":"NORMAL"},"legGeometry":{"points":"wfofHdbzpLb@r@y@`D}AoB_@rAcB~F","length":6},"rentedBike":false,"transitLeg":false,"duration":246.0,"steps":[{"distance":28.177,"relativeDirection":"DEPART","streetName":"Rue Saint-Paul","absoluteDirection":"SOUTHWEST","stayOn":false,"area":false,"bogusName":false,"lon":-71.08146004586744,"lat":48.415965139835755,"elevation":[]},{"distance":68.022,"relativeDirection":"RIGHT","streetName":"Rue Saint-Gabriel","absoluteDirection":"NORTHWEST","stayOn":false,"area":false,"bogusName":false,"lon":-71.08172470000001,"lat":48.415782500000006,"elevation":[]},{"distance":66.558,"relativeDirection":"RIGHT","streetName":"Rue Nio","absoluteDirection":"NORTHEAST","stayOn":false,"area":false,"bogusName":false,"lon":-71.0825342,"lat":48.416075000000006,"elevation":[]},{"distance":145.876,"relativeDirection":"LEFT","streetName":"Rue Garneau","absoluteDirection":"NORTHWEST","stayOn":false,"area":false,"bogusName":false,"lon":-71.0819742,"lat":48.416544200000004,"elevation":[]}]}],"tooSloped":false},{"duration":699,"startTime":1522706094000,"endTime":1522706793000,"walkTime":436,"transitTime":261,"waitingTime":2,"walkDistance":547.6209699203602,"walkLimitExceeded":false,"elevationLost":0.0,"elevationGained":0.0,"transfers":0,"legs":[{"startTime":1522706094000,"endTime":1522706284000,"departureDelay":0,"arrivalDelay":0,"realTime":false,"distance":238.85000000000002,"pathway":false,"mode":"WALK","route":"","agencyTimeZoneOffset":-14400000,"interlineWithPreviousLeg":false,"from":{"name":"Origin","lon":-71.095404,"lat":48.404659,"departure":1522706094000,"orig":"","vertexType":"NORMAL"},"to":{"name":"boul. Barrette / Estacade","stopId":"1:478","stopCode":"478","lon":-71.098119,"lat":48.404568,"arrival":1522706284000,"departure":1522706285000,"zoneId":"NA","stopIndex":12,"stopSequence":13,"vertexType":"TRANSIT"},"legGeometry":{"points":"}amfH`}|pLLNfAjAPTnAxANPiBzE","length":7},"rentedBike":false,"transitLeg":false,"duration":190.0,"steps":[{"distance":138.508,"relativeDirection":"DEPART","streetName":"Boulevard Saint-Paul","absoluteDirection":"SOUTHWEST","stayOn":false,"area":false,"bogusName":false,"lon":-71.0960011376331,"lat":48.4049568414908,"elevation":[]},{"distance":100.342,"relativeDirection":"RIGHT","streetName":"Boulevard Barrette","absoluteDirection":"NORTHWEST","stayOn":false,"area":false,"bogusName":false,"lon":-71.0971116,"lat":48.4039529,"elevation":[]}]},{"startTime":1522706285000,"endTime":1522706546000,"departureDelay":0,"arrivalDelay":0,"realTime":false,"distance":1823.916882585831,"pathway":false,"mode":"BUS","route":"11","agencyName":"Société de Transport du Saguenay","agencyUrl":"http://ville.saguenay.ca/fr/services-aux-citoyens/transport-sts","agencyTimeZoneOffset":-14400000,"routeColor":"FF0000","routeType":3,"routeId":"1:11","routeTextColor":"FFFFFF","interlineWithPreviousLeg":false,"tripBlockId":"36","headsign":"Terminus Chicoutimi","agencyId":"0","tripId":"1:218299","serviceDate":"20180402","from":{"name":"boul. Barrette / Estacade","stopId":"1:478","stopCode":"478","lon":-71.098119,"lat":48.404568,"arrival":1522706284000,"departure":1522706285000,"zoneId":"NA","stopIndex":12,"stopSequence":13,"vertexType":"TRANSIT"},"to":{"name":"Saint-Paul / Saint-Gabriel","stopId":"1:1891","stopCode":"1891","lon":-71.081358,"lat":48.4159,"arrival":1522706546000,"departure":1522706547000,"zoneId":"NA","stopIndex":19,"stopSequence":20,"vertexType":"TRANSIT"},"legGeometry":{"points":"c_mfHtj}pLy@vBeCuCoCaDkDuE_@g@{FwGOMnA}CnA_DJWu@iAW[S[yI{MmBqC{@wAQUw@gAsDiF_B_CQYa@cA[_AUy@YcBOgAYHu@\\M`@cAiBuAyBkHgL","length":33},"routeShortName":"11","routeLongName":"Chic/Faubourg via St-Paul","rentedBike":false,"transitLeg":true,"duration":261.0,"steps":[]},{"startTime":1522706547000,"endTime":1522706793000,"departureDelay":0,"arrivalDelay":0,"realTime":false,"distance":308.63300000000004,"pathway":false,"mode":"WALK","route":"","agencyTimeZoneOffset":-14400000,"interlineWithPreviousLeg":false,"from":{"name":"Saint-Paul / Saint-Gabriel","stopId":"1:1891","stopCode":"1891","lon":-71.081358,"lat":48.4159,"arrival":1522706546000,"departure":1522706547000,"zoneId":"NA","stopIndex":19,"stopSequence":20,"vertexType":"TRANSIT"},"to":{"name":"Destination","lon":-71.083526,"lat":48.417381,"arrival":1522706793000,"orig":"","vertexType":"NORMAL"},"legGeometry":{"points":"wfofHdbzpLb@r@y@`D}AoB_@rAcB~F","length":6},"rentedBike":false,"transitLeg":false,"duration":246.0,"steps":[{"distance":28.177,"relativeDirection":"DEPART","streetName":"Rue Saint-Paul","absoluteDirection":"SOUTHWEST","stayOn":false,"area":false,"bogusName":false,"lon":-71.08146004586744,"lat":48.415965139835755,"elevation":[]},{"distance":68.022,"relativeDirection":"RIGHT","streetName":"Rue Saint-Gabriel","absoluteDirection":"NORTHWEST","stayOn":false,"area":false,"bogusName":false,"lon":-71.08172470000001,"lat":48.415782500000006,"elevation":[]},{"distance":66.558,"relativeDirection":"RIGHT","streetName":"Rue Nio","absoluteDirection":"NORTHEAST","stayOn":false,"area":false,"bogusName":false,"lon":-71.0825342,"lat":48.416075000000006,"elevation":[]},{"distance":145.876,"relativeDirection":"LEFT","streetName":"Rue Garneau","absoluteDirection":"NORTHWEST","stayOn":false,"area":false,"bogusName":false,"lon":-71.0819742,"lat":48.416544200000004,"elevation":[]}]}],"tooSloped":false}]},"debugOutput":{"precalculationTime":21,"pathCalculationTime":16,"pathTimes":[10,4,2],"renderingTime":0,"totalTime":37,"timedOut":false},"elevationMetadata":{"ellipsoidToGeoidDifference":-28.885904201182168,"geoidElevation":false}}