{"requestParameters":{"date":"2018/04/02","walkSpeed":"1.33","walkReluctance":"2.0","fromPlace":"48.448027,-71.074484","maxWalkDistance":"3000","waitReluctance":"1.0","carSpeed":"33","numItineraries":"3","waitAtBeginningFactor":"0.4","mode":"TRANSIT,WALK","ignoreRealtimeUpdates":"false","stairsReluctance":"2.0","toPlace":"48.415786,-71.085764","time":"14:30:00"},"plan":{"date":1522693800000,"from":{"name":"Origin","lon":-71.074484,"lat":48.448027,"orig":"","vertexType":"NORMAL"},"to":{"name":"Destination","lon":-71.085764,"lat":48.415786,"orig":"","vertexType":"NORMAL"},"itineraries":[{"duration":1931,"startTime":1522695179000,"endTime":1522697110000,"walkTime":189,"transitTime":1140,"waitingTime":602,"walkDistance":240.48371428456187,"walkLimitExceeded":false,"elevationLost":0.0,"elevationGained":0.0,"transfers":1,"legs":[{"startTime":1522695180000,"endTime":1522695900000,"departureDelay":0,"arrivalDelay":0,"realTime":false,"distance":4966.255246808459,"pathway":false,"mode":"BUS","route":"23","agencyName":"Société de Transport du Saguenay","agencyUrl":"http://ville.saguenay.ca/fr/services-aux-citoyens/transport-sts","agencyTimeZoneOffset":-14400000,"routeColor":"FF00FF","routeType":3,"routeId":"1:23","routeTextColor":"FFFFFF","interlineWithPreviousLeg":false,"tripBlockId":"5","headsign":"Terminus Chicoutimi","agencyId":"0","tripId":"1:217266","serviceDate":"20180402","from":{"name":"Aréna du Plateau","stopId":"1:784","stopCode":"784","lon":-71.074321,"lat":48.447524,"departure":1522695180000,"orig":"","zoneId":"NA","stopIndex":6,"stopSequence":7,"vertexType":"TRANSIT"},"to":{"name":"Terminus Chicoutimi","stopId":"1:1289","stopCode":"1289","lon":-71.066163,"lat":48.428677,"arrival":1522695900000,"departure":1522696500000,"zoneId":"NA","stopIndex":26,"stopSequence":27,"vertexType":"TRANSIT"},"legGeometry":{"points":"qlufHvuxpLGi@Is@Ou@Qw@Mo@Kw@ImAGoBAk@aALa@?YEUKc@Yc@_@KOIUGUEWAW?YBqAH_AXeC@IdB_Mh@_EJk@d@kDhAqI`AgHz@oGBU?UAWCWUwAWD]B]AUEoAc@kE}AOIq@g@g@u@]w@b@s@T[~CkFf@s@\\e@x@}@jAeAXQZStBaAh@]`@]`@i@l@kDF_@R{AFWFMPIPC`@BT@V?TAVKLENCLCJ@J@xAb@x@Zz@\\CP?R@N@NFLFF`GtBx@Xw@pG@l@B\\DXL\\RZDFXPf@N@v@Bp@Dr@l@~HNlAH\\@HLd@\\z@Xd@X\\RTXRr@Zn@PfExAvDpALnBJt@Pp@|@`DHZPn@`@rBNnAFr@DbA?bB@jABzA?p@A???A???A?A???A@??A?A@??A@?@A??@A@???@A@?@?@A@?@?@?@?@???@?@?@?@?@?@@@?@?@@@?@@@?@@@?@@?@@??@@@?E`@Kr@]rACVEl@I|AAr@JbAWJe@FUAM?a@Ke@YYWWa@v@}@RQPMz@k@tAe@REZG^Af@@X@VF`@Jn@XbClAr@Xt\\`PrAb@pA^hBTjAFj@Pb@JPHLLJNJRFXDT?X?ZEVEVKTMNMHMFOB}DWSGOSYcAN}FFkAF}DJyDd@wPV_HjAN~ALI`C","length":243},"routeShortName":"23","routeLongName":"Côte Verdun via Aréna du Plateau","rentedBike":false,"transitLeg":true,"duration":720.0,"steps":[]},{"startTime":1522696500000,"endTime":1522696920000,"departureDelay":0,"arrivalDelay":0,"realTime":false,"distance":2314.629061111065,"pathway":false,"mode":"BUS","route":"11","agencyName":"Société de Transport du Saguenay","agencyUrl":"http://ville.saguenay.ca/fr/services-aux-citoyens/transport-sts","agencyTimeZoneOffset":-14400000,"routeColor":"FF0000","routeType":3,"routeId":"1:11","routeTextColor":"FFFFFF","interlineWithPreviousLeg":false,"tripBlockId":"36","headsign":"Boul.Royaume/St-Pierre","agencyId":"0","tripId":"1:218294","serviceDate":"20180402","from":{"name":"Terminus Chicoutimi","stopId":"1:1289","stopCode":"1289","lon":-71.066163,"lat":48.428677,"arrival":1522695900000,"departure":1522696500000,"zoneId":"NA","stopIndex":0,"stopSequence":1,"vertexType":"TRANSIT"},"to":{"name":"Saint-Paul / Saint-Augustin","stopId":"1:426","stopCode":"426","lon":-71.084129,"lat":48.414194,"arrival":1522696920000,"departure":1522696921000,"zoneId":"NA","stopIndex":12,"stopSequence":13,"vertexType":"TRANSIT"},"legGeometry":{"points":"evqfHzcwpLk@?UhKfIh@dKp@GnDIfDOtEE~@Ff@x@rEF~@CbAALO~ADRNJXBr@DfGRPBPJLN@@FPFTBX?TE`BhBR@?J@NELKFOlAiDL[bA`AfIjIbGdGzDzD`A~An@`ApApBpClEvJrO","length":46},"routeShortName":"11","routeLongName":"Chic/Faubourg via St-Paul","rentedBike":false,"transitLeg":true,"duration":420.0,"steps":[]},{"startTime":1522696921000,"endTime":1522697110000,"departureDelay":0,"arrivalDelay":0,"realTime":false,"distance":240.44799999999998,"pathway":false,"mode":"WALK","route":"","agencyTimeZoneOffset":-14400000,"interlineWithPreviousLeg":false,"from":{"name":"Saint-Paul / Saint-Augustin","stopId":"1:426","stopCode":"426","lon":-71.084129,"lat":48.414194,"arrival":1522696920000,"departure":1522696921000,"zoneId":"NA","stopIndex":12,"stopSequence":13,"vertexType":"TRANSIT"},"to":{"name":"Destination","lon":-71.085764,"lat":48.415786,"arrival":1522697110000,"orig":"","vertexType":"NORMAL"},"legGeometry":{"points":"k{nfHjrzpLg@y@oAxB_B`D{@nBMZ","length":6},"rentedBike":false,"transitLeg":false,"duration":189.0,"steps":[{"distance":30.927,"relativeDirection":"DEPART","streetName":"Rue Saint-Paul","absoluteDirection":"NORTHEAST","stayOn":false,"area":false,"bogusName":false,"lon":-71.08405531431303,"lat":48.4141469515624,"elevation":[]},{"distance":209.521,"relativeDirection":"LEFT","streetName":"Rue Sainte-Thérèse","absoluteDirection":"NORTHWEST","stayOn":false,"area":false,"bogusName":false,"lon":-71.08376480000001,"lat":48.414347400000004,"elevation":[]}]}],"tooSloped":false},{"duration":2782,"startTime":1522695388000,"endTime":1522698170000,"walkTime":995,"transitTime":1485,"waitingTime":302,"walkDistance":1285.8944511236102,"walkLimitExceeded":false,"elevationLost":0.0,"elevationGained":0.0,"transfers":1,"legs":[{"startTime":1522695388000,"endTime":1522695750000,"departureDelay":0,"arrivalDelay":0,"realTime":false,"distance":474.88599999999997,"pathway":false,"mode":"WALK","route":"","agencyTimeZoneOffset":-14400000,"interlineWithPreviousLeg":false,"from":{"name":"Origin","lon":-71.074484,"lat":48.448027,"departure":1522695388000,"orig":"","vertexType":"NORMAL"},"to":{"name":"Boischatel / Cabot","stopId":"1:763","stopCode":"763","lon":-71.070142,"lat":48.449792,"arrival":1522695750000,"departure":1522695751000,"zoneId":"NA","stopIndex":27,"stopSequence":28,"vertexType":"TRANSIT"},"legGeometry":{"points":"ulufHvuxpLEk@Ks@I][gBMs@Ig@Cu@Co@AkA?k@y@Ja@B_@Ce@Q]Ua@g@GIQ]GWCQAq@@e@@e@@Iq@GYICA","length":28},"rentedBike":false,"transitLeg":false,"duration":362.0,"steps":[{"distance":208.91400000000002,"relativeDirection":"DEPART","streetName":"Rue de l'Aréna","absoluteDirection":"EAST","stayOn":false,"area":false,"bogusName":false,"lon":-71.07435585011125,"lat":48.447636666095036,"elevation":[]},{"distance":221.346,"relativeDirection":"LEFT","streetName":"Rue Cabot","absoluteDirection":"NORTH","stayOn":false,"area":false,"bogusName":false,"lon":-71.0716385,"lat":48.448087900000004,"elevation":[]},{"distance":44.626,"relativeDirection":"LEFT","streetName":"Rue de Boischatel","absoluteDirection":"NORTH","stayOn":false,"area":false,"bogusName":false,"lon":-71.0702047,"lat":48.449388000000006,"elevation":[]}]},{"startTime":1522695751000,"endTime":1522696200000,"departureDelay":0,"arrivalDelay":0,"realTime":false,"distance":2905.737028886756,"pathway":false,"mode":"BUS","route":"22","agencyName":"Société de Transport du Saguenay","agencyUrl":"http://ville.saguenay.ca/fr/services-aux-citoyens/transport-sts","agencyTimeZoneOffset":-14400000,"routeColor":"C0C000","routeType":3,"routeId":"1:22","routeTextColor":"000000","interlineWithPreviousLeg":false,"tripBlockId":"1","headsign":"Terminus Chicoutimi","agencyId":"0","tripId":"1:217146","serviceDate":"20180402","from":{"name":"Boischatel / Cabot","stopId":"1:763","stopCode":"763","lon":-71.070142,"lat":48.449792,"arrival":1522695750000,"departure":1522695751000,"zoneId":"NA","stopIndex":27,"stopSequence":28,"vertexType":"TRANSIT"},"to":{"name":"Terminus Chicoutimi","stopId":"1:1289","stopCode":"1289","lon":-71.066163,"lat":48.428677,"arrival":1522696200000,"departure":1522696500000,"zoneId":"NA","stopIndex":35,"stopSequence":36,"vertexType":"TRANSIT"},"legGeometry":{"points":"czufHb{wpLLFbAVH_AXeC@IdB_Mh@_EJk@x@x@bA`A|BrBnDrCl@f@|BlBrAbAj@d@ZTXNd@@lA[ZxDN|Ad@fAz@tB~AzDZ|@Zv@x@vBP\\h@~@PVrCmFhHqN~@eBr@cAt@_Av@}@RQPMz@k@tAe@REZG^Af@@X@VF`@Jn@XbClAr@Xt\\`PrAb@pA^hBTjAFj@Pb@JPHLLJNJRFXDT?X?ZEVEVKTMNMHMFOB}DWSGOSYcAN}FFkAF}DJyDd@wPV_HjAN~ALIzBQb@e@@","length":89},"routeShortName":"22","routeLongName":"Vanier","rentedBike":false,"transitLeg":true,"duration":449.0,"steps":[]},{"startTime":1522696500000,"endTime":1522697536000,"departureDelay":0,"arrivalDelay":0,"realTime":false,"distance":4327.601584691453,"pathway":false,"mode":"BUS","route":"14","agencyName":"Société de Transport du Saguenay","agencyUrl":"http://ville.saguenay.ca/fr/services-aux-citoyens/transport-sts","agencyTimeZoneOffset":-14400000,"routeColor":"C0C000","routeType":3,"routeId":"1:14","routeTextColor":"000000","interlineWithPreviousLeg":false,"tripBlockId":"32","headsign":"Talbot / Barrette","agencyId":"0","tripId":"1:218164","serviceDate":"20180402","from":{"name":"Terminus Chicoutimi","stopId":"1:1289","stopCode":"1289","lon":-71.066163,"lat":48.428677,"arrival":1522696200000,"departure":1522696500000,"zoneId":"NA","stopIndex":0,"stopSequence":1,"vertexType":"TRANSIT"},"to":{"name":"Boily / Garnier","stopId":"1:1567","stopCode":"1567","lon":-71.080057,"lat":48.411756,"arrival":1522697536000,"departure":1522697537000,"zoneId":"NA","stopIndex":15,"stopSequence":16,"vertexType":"TRANSIT"},"legGeometry":{"points":"qvqfHnbwpLJkClLh@DsDTmSHwFB{I@m@@eBH_AF}A@w@Dq@@i@B}B@Y@e@D]F_@@SHQCKnBnBvIrIn@n@\\iATg@v@_ATg@LmABg@Is@c@iEAm@bAcDTcAtA{DJI|AxAvAvAQv@~@z@dA`ATq@`E~DL`@E`Ex@hDd@`B}FtFaAzAm@xAe@jCa@nDiAbm@SpKM`H]vBhDVzCTcAvCO^bEbEzK`LfBeEtK`KhAdAnCbCvBpCNR~BxAxBf@z@h@","length":73},"routeShortName":"14","routeLongName":"Coopérative","rentedBike":false,"transitLeg":true,"duration":1036.0,"steps":[]},{"startTime":1522697537000,"endTime":1522698170000,"departureDelay":0,"arrivalDelay":0,"realTime":false,"distance":810.8779999999999,"pathway":false,"mode":"WALK","route":"","agencyTimeZoneOffset":-14400000,"interlineWithPreviousLeg":false,"from":{"name":"Boily / Garnier","stopId":"1:1567","stopCode":"1567","lon":-71.080057,"lat":48.411756,"arrival":1522697536000,"departure":1522697537000,"zoneId":"NA","stopIndex":15,"stopSequence":16,"vertexType":"TRANSIT"},"to":{"name":"Destination","lon":-71.085764,"lat":48.415786,"arrival":1522698170000,"orig":"","vertexType":"NORMAL"},"legGeometry":{"points":"elnfHpxypLnAr@{@vDWzBY`D{@fDoAnBg@XoAh@IB[PSJe@VIV}FbL}BsD","length":16},"rentedBike":false,"transitLeg":false,"duration":633.0,"steps":[{"distance":49.36,"relativeDirection":"DEPART","streetName":"Rue Boily","absoluteDirection":"SOUTHWEST","stayOn":false,"area":false,"bogusName":false,"lon":-71.07992373269299,"lat":48.41171817126571,"elevation":[]},{"distance":387.072,"relativeDirection":"RIGHT","streetName":"Rue Garnier","absoluteDirection":"NORTHWEST","stayOn":false,"area":false,"bogusName":false,"lon":-71.0801867,"lat":48.41131,"elevation":[]},{"distance":277.179,"relativeDirection":"CONTINUE","streetName":"Rue Saint-Augustin","absoluteDirection":"NORTH","stayOn":false,"area":false,"bogusName":false,"lon":-71.0842714,"lat":48.413164,"elevation":[]},{"distance":97.267,"relativeDirection":"RIGHT","streetName":"Rue Brébeuf","absoluteDirection":"NORTHEAST","stayOn":false,"area":false,"bogusName":false,"lon":-71.0867839,"lat":48.4149607,"elevation":[]}]}],"tooSloped":false},{"duration":1931,"startTime":1522696979000,"endTime":1522698910000,"walkTime":189,"transitTime":1140,"waitingTime":602,"walkDistance":240.48371428456187,"walkLimitExceeded":false,"elevationLost":0.0,"elevationGained":0.0,"transfers":1,"legs":[{"startTime":1522696980000,"endTime":1522697700000,"departureDelay":0,"arrivalDelay":0,"realTime":false,"distance":4966.255246808459,"pathway":false,"mode":"BUS","route":"23","agencyName":"Société de Transport du Saguenay","agencyUrl":"http://ville.saguenay.ca/fr/services-aux-citoyens/transport-sts","agencyTimeZoneOffset":-14400000,"routeColor":"FF00FF","routeType":3,"routeId":"1:23","routeTextColor":"FFFFFF","interlineWithPreviousLeg":false,"tripBlockId":"4","headsign":"Terminus Chicoutimi","agencyId":"0","tripId":"1:217240","serviceDate":"20180402","from":{"name":"Aréna du Plateau","stopId":"1:784","stopCode":"784","lon":-71.074321,"lat":48.447524,"departure":1522696980000,"orig":"","zoneId":"NA","stopIndex":6,"stopSequence":7,"vertexType":"TRANSIT"},"to":{"name":"Terminus Chicoutimi","stopId":"1:1289","stopCode":"1289","lon":-71.066163,"lat":48.428677,"arrival":1522697700000,"departure":1522698300000,"zoneId":"NA","stopIndex":26,"stopSequence":27,"vertexType":"TRANSIT"},"legGeometry":{"points":"qlufHvuxpLGi@Is@Ou@Qw@Mo@Kw@ImAGoBAk@aALa@?YEUKc@Yc@_@KOIUGUEWAW?YBqAH_AXeC@IdB_Mh@_EJk@d@kDhAqI`AgHz@oGBU?UAWCWUwAWD]B]AUEoAc@kE}AOIq@g@g@u@]w@b@s@T[~CkFf@s@\\e@x@}@jAeAXQZStBaAh@]`@]`@i@l@kDF_@R{AFWFMPIPC`@BT@V?TAVKLENCLCJ@J@xAb@x@Zz@\\CP?R@N@NFLFF`GtBx@Xw@pG@l@B\\DXL\\RZDFXPf@N@v@Bp@Dr@l@~HNlAH\\@HLd@\\z@Xd@X\\RTXRr@Zn@PfExAvDpALnBJt@Pp@|@`DHZPn@`@rBNnAFr@DbA?bB@jABzA?p@A???A???A?A???A@??A?A@??A@?@A??@A@???@A@?@?@A@?@?@?@?@???@?@?@?@?@?@@@?@?@@@?@@@?@@@?@@?@@??@@@?E`@Kr@]rACVEl@I|AAr@JbAWJe@FUAM?a@Ke@YYWWa@v@}@RQPMz@k@tAe@REZG^Af@@X@VF`@Jn@XbClAr@Xt\\`PrAb@pA^hBTjAFj@Pb@JPHLLJNJRFXDT?X?ZEVEVKTMNMHMFOB}DWSGOSYcAN}FFkAF}DJyDd@wPV_HjAN~ALI`C","length":243},"routeShortName":"23","routeLongName":"Côte Verdun via Aréna du Plateau","rentedBike":false,"transitLeg":true,"duration":720.0,"steps":[]},{"startTime":1522698300000,"endTime":1522698720000,"departureDelay":0,"arrivalDelay":0,"realTime":false,"distance":2314.629061111065,"pathway":false,"mode":"BUS","route":"11","agencyName":"Société de Transport du Saguenay","agencyUrl":"http://ville.saguenay.ca/fr/services-aux-citoyens/transport-sts","agencyTimeZoneOffset":-14400000,"routeColor":"FF0000","routeType":3,"routeId":"1:11","routeTextColor":"FFFFFF","interlineWithPreviousLeg":false,"tripBlockId":"35","headsign":"Boul.Royaume/St-Pierre","agencyId":"0","tripId":"1:218260","serviceDate":"20180402","from":{"name":"Terminus Chicoutimi","stopId":"1:1289","stopCode":"1289","lon":-71.066163,"lat":48.428677,"arrival":1522697700000,"departure":1522698300000,"zoneId":"NA","stopIndex":0,"stopSequence":1,"vertexType":"TRANSIT"},"to":{"name":"Saint-Paul / Saint-Augustin","stopId":"1:426","stopCode":"426","lon":-71.084129,"lat":48.414194,"arrival":1522698720000,"departure":1522698721000,"zoneId":"NA","stopIndex":12,"stopSequence":13,"vertexType":"TRANSIT"},"legGeometry":{"points":"evqfHzcwpLk@?UhKfIh@dKp@GnDIfDOtEE~@Ff@x@rEF~@CbAALO~ADRNJXBr@DfGRPBPJLN@@FPFTBX?TE`BhBR@?J@NELKFOlAiDL[bA`AfIjIbGdGzDzD`A~An@`ApApBpClEvJrO","length":46},"routeShortName":"11","routeLongName":"Chic/Faubourg via St-Paul","rentedBike":false,"transitLeg":true,"duration":420.0,"steps":[]},{"startTime":1522698721000,"endTime":1522698910000,"departureDelay":0,"arrivalDelay":0,"realTime":false,"distance":240.44799999999998,"pathway":false,"mode":"WALK","route":"","agencyTimeZoneOffset":-14400000,"interlineWithPreviousLeg":false,"from":{"name":"Saint-Paul / Saint-Augustin","stopId":"1:426","stopCode":"426","lon":-71.084129,"lat":48.414194,"arrival":1522698720000,"departure":1522698721000,"zoneId":"NA","stopIndex":12,"stopSequence":13,"vertexType":"TRANSIT"},"to":{"name":"Destination","lon":-71.085764,"lat":48.415786,"arrival":1522698910000,"orig":"","vertexType":"NORMAL"},"legGeometry":{"points":"k{nfHjrzpLg@y@oAxB_B`D{@nBMZ","length":6},"rentedBike":false,"transitLeg":false,"duration":189.0,"steps":[{"distance":30.927,"relativeDirection":"DEPART","streetName":"Rue Saint-Paul","absoluteDirection":"NORTHEAST","stayOn":false,"area":false,"bogusName":false,"lon":-71.08405531431303,"lat":48.4141469515624,"elevation":[]},{"distance":209.521,"relativeDirection":"LEFT","streetName":"Rue Sainte-Thérèse","absoluteDirection":"NORTHWEST","stayOn":false,"area":false,"bogusName":false,"lon":-71.08376480000001,"lat":48.414347400000004,"elevation":[]}]}],"tooSloped":false}]},"debugOutput":{"precalculationTime":16,"pathCalculationTime":29,"pathTimes":[18,6,5],"renderingTime":1,"totalTime":46,"timedOut":false},"elevationMetadata":{"ellipsoidToGeoidDifference":-28.885904201182168,"geoidElevation":false}}