{"requestParameters":{"date":"2018/04/02","walkSpeed":"1.33","walkReluctance":"2.0","fromPlace":"48.400069,-71.115305","maxWalkDistance":"3000","waitReluctance":"1.0","carSpeed":"33","numItineraries":"3","waitAtBeginningFactor":"0.4","mode":"TRANSIT,WALK","ignoreRealtimeUpdates":"false","stairsReluctance":"2.0","toPlace":"48.407617,-71.079267","time":"16:25:00"},"plan":{"date":1522700700000,"from":{"name":"Origin","lon":-71.115305,"lat":48.400069,"orig":"","vertexType":"NORMAL"},"to":{"name":"Destination","lon":-71.079267,"lat":48.407617,"orig":"","vertexType":"NORMAL"},"itineraries":[{"duration":2123,"startTime":1522701707000,"endTime":1522703830000,"walkTime":1295,"transitTime":826,"waitingTime":2,"walkDistance":1668.806639091109,"walkLimitExceeded":false,"elevationLost":0.0,"elevationGained":0.0,"transfers":0,"legs":[{"startTime":1522701707000,"endTime":1522702093000,"departureDelay":0,"arrivalDelay":0,"realTime":false,"distance":500.96400000000006,"pathway":false,"mode":"WALK","route":"","agencyTimeZoneOffset":-14400000,"interlineWithPreviousLeg":false,"from":{"name":"Origin","lon":-71.115305,"lat":48.400069,"departure":1522701707000,"orig":"","vertexType":"NORMAL"},"to":{"name":"Bersimis / Outardes","stopId":"1:98","stopCode":"98","lon":-71.115315,"lat":48.396831,"arrival":1522702093000,"departure":1522702094000,"zoneId":"NA","stopIndex":8,"stopSequence":9,"vertexType":"TRANSIT"},"legGeometry":{"points":"gblfHrv`qLj@wBpCuHzA~ArBjAtFrDQz@","length":7},"rentedBike":false,"transitLeg":false,"duration":386.0,"steps":[{"distance":191.569,"relativeDirection":"DEPART","streetName":"Rue de la Manic","absoluteDirection":"SOUTHEAST","stayOn":false,"area":false,"bogusName":false,"lon":-71.11545752241229,"lat":48.39988881206213,"elevation":[]},{"distance":284.487,"relativeDirection":"RIGHT","streetName":"Rue des Outardes","absoluteDirection":"SOUTHWEST","stayOn":false,"area":false,"bogusName":false,"lon":-71.1133042,"lat":48.3989309,"elevation":[]},{"distance":24.908,"relativeDirection":"RIGHT","streetName":"Rue Bersimis","absoluteDirection":"NORTHWEST","stayOn":false,"area":false,"bogusName":false,"lon":-71.1150635,"lat":48.396661900000005,"elevation":[]}]},{"startTime":1522702094000,"endTime":1522702920000,"departureDelay":0,"arrivalDelay":0,"realTime":false,"distance":3391.9864750441243,"pathway":false,"mode":"BUS","route":"11","agencyName":"Société de Transport du Saguenay","agencyUrl":"http://ville.saguenay.ca/fr/services-aux-citoyens/transport-sts","agencyTimeZoneOffset":-14400000,"routeColor":"FF0000","routeType":3,"routeId":"1:11","routeTextColor":"FFFFFF","interlineWithPreviousLeg":false,"tripBlockId":"37","headsign":"Terminus Chicoutimi","agencyId":"0","tripId":"1:218323","serviceDate":"20180402","from":{"name":"Bersimis / Outardes","stopId":"1:98","stopCode":"98","lon":-71.115315,"lat":48.396831,"arrival":1522702093000,"departure":1522702094000,"zoneId":"NA","stopIndex":8,"stopSequence":9,"vertexType":"TRANSIT"},"to":{"name":"Saint-Paul / Sainte-Thérèse","stopId":"1:1890","stopCode":"1890","lon":-71.083492,"lat":48.414412,"arrival":1522702920000,"departure":1522702921000,"zoneId":"NA","stopIndex":18,"stopSequence":19,"vertexType":"TRANSIT"},"legGeometry":{"points":"wnkfH`v`qLoLxh@GLIHI@KAgN{IhHu[p@aCjDyJfQie@`AmCJ[kXi[gKsLqMgOmAbDAVSl@y@vBeCuCoCaDkDuE_@g@{FwGOMnA}CnA_DJWu@iAW[S[yI{MmBqC{@wAQUw@gAsDiF_B_CQYa@cA[_AUy@YcBOgAYHu@\\M`@cAiBuAyB","length":50},"routeShortName":"11","routeLongName":"Chic/Faubourg via St-Paul","rentedBike":false,"transitLeg":true,"duration":826.0,"steps":[]},{"startTime":1522702921000,"endTime":1522703830000,"departureDelay":0,"arrivalDelay":0,"realTime":false,"distance":1167.6370000000002,"pathway":false,"mode":"WALK","route":"","agencyTimeZoneOffset":-14400000,"interlineWithPreviousLeg":false,"from":{"name":"Saint-Paul / Sainte-Thérèse","stopId":"1:1890","stopCode":"1890","lon":-71.083492,"lat":48.414412,"arrival":1522702920000,"departure":1522702921000,"zoneId":"NA","stopIndex":18,"stopSequence":19,"vertexType":"TRANSIT"},"to":{"name":"Destination","lon":-71.079267,"lat":48.407617,"arrival":1522703830000,"orig":"","vertexType":"NORMAL"},"legGeometry":{"points":"m}nfHlozpLXb@f@x@fAfBPTHWd@WRKZQHCnAi@f@YnAoBz@gDXaDV{Bz@wDfA{DlCmITT@@pEjEnAjBBD^j@VP\\{@d@k@l@Wf@ILF","length":31},"rentedBike":false,"transitLeg":false,"duration":909.0,"steps":[{"distance":118.035,"relativeDirection":"DEPART","streetName":"Rue Saint-Paul","absoluteDirection":"SOUTHWEST","stayOn":false,"area":false,"bogusName":false,"lon":-71.08358773464661,"lat":48.41447195589856,"elevation":[]},{"distance":67.896,"relativeDirection":"LEFT","streetName":"Rue Saint-Augustin","absoluteDirection":"SOUTHEAST","stayOn":false,"area":false,"bogusName":false,"lon":-71.0846811,"lat":48.413698000000004,"elevation":[]},{"distance":613.328,"relativeDirection":"CONTINUE","streetName":"Rue Garnier","absoluteDirection":"SOUTH","stayOn":false,"area":false,"bogusName":false,"lon":-71.0842714,"lat":48.413164,"elevation":[]},{"distance":256.554,"relativeDirection":"RIGHT","streetName":"Rue Jolliet","absoluteDirection":"SOUTHWEST","stayOn":false,"area":false,"bogusName":false,"lon":-71.0775766,"lat":48.4102442,"elevation":[]},{"distance":111.824,"relativeDirection":"LEFT","streetName":"Rue Du Cran","absoluteDirection":"SOUTHEAST","stayOn":false,"area":false,"bogusName":false,"lon":-71.0795918,"lat":48.408374900000005,"elevation":[]}]}],"tooSloped":false},{"duration":3405,"startTime":1522700700000,"endTime":1522704105000,"walkTime":422,"transitTime":1540,"waitingTime":1443,"walkDistance":538.0175413512362,"walkLimitExceeded":false,"elevationLost":0.0,"elevationGained":0.0,"transfers":2,"legs":[{"startTime":1522700700000,"endTime":1522700857000,"departureDelay":0,"arrivalDelay":0,"realTime":false,"distance":201.07399999999998,"pathway":false,"mode":"WALK","route":"","agencyTimeZoneOffset":-14400000,"interlineWithPreviousLeg":false,"from":{"name":"Origin","lon":-71.115305,"lat":48.400069,"departure":1522700700000,"orig":"","vertexType":"NORMAL"},"to":{"name":"Manic / Outardes","stopId":"1:474","stopCode":"474","lon":-71.113129,"lat":48.39895,"arrival":1522700857000,"departure":1522701158000,"zoneId":"NA","stopIndex":21,"stopSequence":22,"vertexType":"TRANSIT"},"legGeometry":{"points":"gblfHrv`qLj@wBpCuHKO","length":4},"rentedBike":false,"transitLeg":false,"duration":157.0,"steps":[{"distance":191.569,"relativeDirection":"DEPART","streetName":"Rue de la Manic","absoluteDirection":"SOUTHEAST","stayOn":false,"area":false,"bogusName":false,"lon":-71.11545752241229,"lat":48.39988881206213,"elevation":[]},{"distance":9.505,"relativeDirection":"LEFT","streetName":"Rue de la Manouane","absoluteDirection":"NORTHEAST","stayOn":false,"area":false,"bogusName":false,"lon":-71.1133042,"lat":48.3989309,"elevation":[]}]},{"startTime":1522701158000,"endTime":1522701416000,"departureDelay":0,"arrivalDelay":0,"realTime":false,"distance":3053.811840143515,"pathway":false,"mode":"BUS","route":"11","agencyName":"Société de Transport du Saguenay","agencyUrl":"http://ville.saguenay.ca/fr/services-aux-citoyens/transport-sts","agencyTimeZoneOffset":-14400000,"routeColor":"FF0000","routeType":3,"routeId":"1:11","routeTextColor":"FFFFFF","interlineWithPreviousLeg":false,"tripBlockId":"37","headsign":"Boul.Royaume/St-Pierre","agencyId":"0","tripId":"1:218322","serviceDate":"20180402","from":{"name":"Manic / Outardes","stopId":"1:474","stopCode":"474","lon":-71.113129,"lat":48.39895,"arrival":1522700857000,"departure":1522701158000,"zoneId":"NA","stopIndex":21,"stopSequence":22,"vertexType":"TRANSIT"},"to":{"name":"boul. Royaume (no. 1409)","stopId":"1:264","stopCode":"264","lon":-71.118186,"lat":48.388875,"arrival":1522701416000,"departure":1522701416000,"zoneId":"NA","stopIndex":28,"stopSequence":29,"vertexType":"TRANSIT"},"legGeometry":{"points":"e|kfHhh`qLKZkDxJq@`CyGfZOl@fNzIJ@HAHIDI@CnNco@vE}Sh@kCb@oCXyBTuAFSBMl@iBlHjJxEtGPRbBdBp@r@xDpDrL`LlAtAiBdFOd@oCrH","length":32},"routeShortName":"11","routeLongName":"Chic/Faubourg via St-Paul","rentedBike":false,"transitLeg":true,"duration":258.0,"steps":[]},{"startTime":1522701416000,"endTime":1522701429000,"departureDelay":0,"arrivalDelay":0,"realTime":false,"distance":13.493,"pathway":false,"mode":"WALK","route":"","agencyTimeZoneOffset":-14400000,"interlineWithPreviousLeg":false,"from":{"name":"boul. Royaume (no. 1409)","stopId":"1:264","stopCode":"264","lon":-71.118186,"lat":48.388875,"arrival":1522701416000,"departure":1522701416000,"zoneId":"NA","stopIndex":28,"stopSequence":29,"vertexType":"TRANSIT"},"to":{"name":"boul. Royaume (no. 1460)","stopId":"1:267","stopCode":"267","lon":-71.1185,"lat":48.388791,"arrival":1522701429000,"departure":1522701440000,"zoneId":"NA","stopIndex":23,"stopSequence":24,"vertexType":"TRANSIT"},"legGeometry":{"points":"a}ifHbhaqLMZ","length":2},"rentedBike":false,"transitLeg":false,"duration":13.0,"steps":[{"distance":13.493,"relativeDirection":"DEPART","streetName":"Boulevard du Royaume Ouest","absoluteDirection":"NORTHWEST","stayOn":false,"area":false,"bogusName":false,"lon":-71.11825025873861,"lat":48.3888149249102,"elevation":[]}]},{"startTime":1522701440000,"endTime":1522701660000,"departureDelay":0,"arrivalDelay":0,"realTime":false,"distance":2570.2679685702965,"pathway":false,"mode":"BUS","route":"2","agencyName":"Société de Transport du Saguenay","agencyUrl":"http://ville.saguenay.ca/fr/services-aux-citoyens/transport-sts","agencyTimeZoneOffset":-14400000,"routeColor":"FF0000","routeType":3,"routeId":"1:2","routeTextColor":"FFFFFF","interlineWithPreviousLeg":false,"tripBlockId":"11","headsign":"Costco","agencyId":"0","tripId":"1:217481","serviceDate":"20180402","from":{"name":"boul. Royaume (no. 1460)","stopId":"1:267","stopCode":"267","lon":-71.1185,"lat":48.388791,"arrival":1522701429000,"departure":1522701440000,"zoneId":"NA","stopIndex":23,"stopSequence":24,"vertexType":"TRANSIT"},"to":{"name":"COSTCO","stopId":"1:1710","stopCode":"1710","lon":-71.085767,"lat":48.382333,"arrival":1522701660000,"departure":1522701900000,"zoneId":"NA","stopIndex":28,"stopSequence":29,"vertexType":"TRANSIT"},"legGeometry":{"points":"e}ifHjiaqL|BaGbDgIz@{B|G}WVyBfB_OrBsTDa]?sD`@uc@tBcJz@yDtI}UaCcC","length":15},"routeShortName":"2","routeLongName":"Chic/Jonq via Boul. Royaume","rentedBike":false,"transitLeg":true,"duration":220.0,"steps":[]},{"startTime":1522701900000,"endTime":1522702260000,"departureDelay":0,"arrivalDelay":0,"realTime":false,"distance":1990.475444549822,"pathway":false,"mode":"BUS","route":"175","agencyName":"Société de Transport du Saguenay","agencyUrl":"http://ville.saguenay.ca/fr/services-aux-citoyens/transport-sts","agencyTimeZoneOffset":-14400000,"routeColor":"FF00FF","routeType":3,"routeId":"1:175","routeTextColor":"FFFFFF","interlineWithPreviousLeg":true,"tripBlockId":"11","headsign":"Terminus Chicoutimi","agencyId":"0","tripId":"1:217482","serviceDate":"20180402","from":{"name":"COSTCO","stopId":"1:1710","stopCode":"1710","lon":-71.085767,"lat":48.382333,"arrival":1522701660000,"departure":1522701900000,"zoneId":"NA","stopIndex":0,"stopSequence":1,"vertexType":"TRANSIT"},"to":{"name":"boul. Talbot / boul. Barrette","stopId":"1:49","stopCode":"49","lon":-71.069502,"lat":48.394497,"arrival":1522702260000,"departure":1522702260000,"zoneId":"NA","stopIndex":7,"stopSequence":8,"vertexType":"TRANSIT"},"legGeometry":{"points":"euhfHt|zpL_BiBsCoDwCqDrCsGN_@uEoFoEiFUWSUqCwC]a@{ByC{@cAkJuKoAwA_CeCeExJ~AlB`@mAu@k@}@q@|C}Iw@}@aO_QkEsE","length":26},"routeShortName":"175","routeLongName":"Term. Chic / Costco","rentedBike":false,"transitLeg":true,"duration":360.0,"steps":[]},{"startTime":1522702260000,"endTime":1522702390000,"departureDelay":0,"arrivalDelay":0,"realTime":false,"distance":169.691,"pathway":false,"mode":"WALK","route":"","agencyTimeZoneOffset":-14400000,"interlineWithPreviousLeg":false,"from":{"name":"boul. Talbot / boul. Barrette","stopId":"1:49","stopCode":"49","lon":-71.069502,"lat":48.394497,"arrival":1522702260000,"departure":1522702260000,"zoneId":"NA","stopIndex":7,"stopSequence":8,"vertexType":"TRANSIT"},"to":{"name":"Roitelets / Sapins","stopId":"1:1513","stopCode":"1513","lon":-71.069396,"lat":48.393523,"arrival":1522702390000,"departure":1522703520000,"zoneId":"NA","stopIndex":0,"stopSequence":1,"vertexType":"TRANSIT"},"legGeometry":{"points":"}`kfHdxwpL|BlCFQ@CnA{C","length":5},"rentedBike":false,"transitLeg":false,"duration":130.0,"steps":[{"distance":87.727,"relativeDirection":"DEPART","streetName":"Boulevard Talbot","absoluteDirection":"SOUTHWEST","stayOn":false,"area":false,"bogusName":false,"lon":-71.06962085488986,"lat":48.394555935445034,"elevation":[]},{"distance":81.964,"relativeDirection":"LEFT","streetName":"Rue Des Roitelets","absoluteDirection":"SOUTHEAST","stayOn":false,"area":false,"bogusName":false,"lon":-71.0703318,"lat":48.3939238,"elevation":[]}]},{"startTime":1522703520000,"endTime":1522703982000,"departureDelay":0,"arrivalDelay":0,"realTime":false,"distance":4828.66321823252,"pathway":false,"mode":"BUS","route":"14","agencyName":"Société de Transport du Saguenay","agencyUrl":"http://ville.saguenay.ca/fr/services-aux-citoyens/transport-sts","agencyTimeZoneOffset":-14400000,"routeColor":"C0C000","routeType":3,"routeId":"1:14","routeTextColor":"000000","interlineWithPreviousLeg":false,"tripBlockId":"31","headsign":"Terminus Chicoutimi","agencyId":"0","tripId":"1:218143","serviceDate":"20180402","from":{"name":"Roitelets / Sapins","stopId":"1:1513","stopCode":"1513","lon":-71.069396,"lat":48.393523,"arrival":1522702390000,"departure":1522703520000,"zoneId":"NA","stopIndex":0,"stopSequence":1,"vertexType":"TRANSIT"},"to":{"name":"Jolliet / Cran","stopId":"1:1560","stopCode":"1560","lon":-71.07925,"lat":48.40867,"arrival":1522703982000,"departure":1522703983000,"zoneId":"NA","stopIndex":19,"stopSequence":20,"vertexType":"TRANSIT"},"legGeometry":{"points":"azjfHfwwpLiEfLuBzFsAnDgGzSWfAcD`Mi@dCgChLmCzMwGd\\aDxOdFtFhCtCdDY|F_On@aB`B_GNoBvAyT|@sNuAyAuF}F}AaB_BkAC@qC\\gAWiBwBiKgMiCwEgEyHCGy@uB}@rAa@nAc@lFEf@mGvUYfAqCs@ICMCqFmDc@s@","length":45},"routeShortName":"14","routeLongName":"Coopérative","rentedBike":false,"transitLeg":true,"duration":462.0,"steps":[]},{"startTime":1522703983000,"endTime":1522704105000,"departureDelay":0,"arrivalDelay":0,"realTime":false,"distance":153.69299999999998,"pathway":false,"mode":"WALK","route":"","agencyTimeZoneOffset":-14400000,"interlineWithPreviousLeg":false,"from":{"name":"Jolliet / Cran","stopId":"1:1560","stopCode":"1560","lon":-71.07925,"lat":48.40867,"arrival":1522703982000,"departure":1522703983000,"zoneId":"NA","stopIndex":19,"stopSequence":20,"vertexType":"TRANSIT"},"to":{"name":"Destination","lon":-71.079267,"lat":48.407617,"arrival":1522704105000,"orig":"","vertexType":"NORMAL"},"legGeometry":{"points":"eymfHjtypLBD^j@VP\\{@d@k@l@Wf@ILF","length":9},"rentedBike":false,"transitLeg":false,"duration":122.0,"steps":[{"distance":41.869,"relativeDirection":"DEPART","streetName":"Rue Jolliet","absoluteDirection":"SOUTHWEST","stayOn":false,"area":false,"bogusName":false,"lon":-71.07925881393753,"lat":48.408675280428824,"elevation":[]},{"distance":111.824,"relativeDirection":"LEFT","streetName":"Rue Du Cran","absoluteDirection":"SOUTHEAST","stayOn":false,"area":false,"bogusName":false,"lon":-71.0795918,"lat":48.408374900000005,"elevation":[]}]}],"tooSloped":false},{"duration":2123,"startTime":1522703507000,"endTime":1522705630000,"walkTime":1295,"transitTime":826,"waitingTime":2,"walkDistance":1668.806639091109,"walkLimitExceeded":false,"elevationLost":0.0,"elevationGained":0.0,"transfers":0,"legs":[{"startTime":1522703507000,"endTime":1522703893000,"departureDelay":0,"arrivalDelay":0,"realTime":false,"distance":500.96400000000006,"pathway":false,"mode":"WALK","route":"","agencyTimeZoneOffset":-14400000,"interlineWithPreviousLeg":false,"from":{"name":"Origin","lon":-71.115305,"lat":48.400069,"departure":1522703507000,"orig":"","vertexType":"NORMAL"},"to":{"name":"Bersimis / Outardes","stopId":"1:98","stopCode":"98","lon":-71.115315,"lat":48.396831,"arrival":1522703893000,"departure":1522703894000,"zoneId":"NA","stopIndex":8,"stopSequence":9,"vertexType":"TRANSIT"},"legGeometry":{"points":"gblfHrv`qLj@wBpCuHzA~ArBjAtFrDQz@","length":7},"rentedBike":false,"transitLeg":false,"duration":386.0,"steps":[{"distance":191.569,"relativeDirection":"DEPART","streetName":"Rue de la Manic","absoluteDirection":"SOUTHEAST","stayOn":false,"area":false,"bogusName":false,"lon":-71.11545752241229,"lat":48.39988881206213,"elevation":[]},{"distance":284.487,"relativeDirection":"RIGHT","streetName":"Rue des Outardes","absoluteDirection":"SOUTHWEST","stayOn":false,"area":false,"bogusName":false,"lon":-71.1133042,"lat":48.3989309,"elevation":[]},{"distance":24.908,"relativeDirection":"RIGHT","streetName":"Rue Bersimis","absoluteDirection":"NORTHWEST","stayOn":false,"area":false,"bogusName":false,"lon":-71.1150635,"lat":48.396661900000005,"elevation":[]}]},{"startTime":1522703894000,"endTime":1522704720000,"departureDelay":0,"arrivalDelay":0,"realTime":false,"distance":3391.9864750441243,"pathway":false,"mode":"BUS","route":"11","agencyName":"Société de Transport du Saguenay","agencyUrl":"http://ville.saguenay.ca/fr/services-aux-citoyens/transport-sts","agencyTimeZoneOffset":-14400000,"routeColor":"FF0000","routeType":3,"routeId":"1:11","routeTextColor":"FFFFFF","interlineWithPreviousLeg":false,"tripBlockId":"34","headsign":"Terminus Chicoutimi","agencyId":"0","tripId":"1:218228","serviceDate":"20180402","from":{"name":"Bersimis / Outardes","stopId":"1:98","stopCode":"98","lon":-71.115315,"lat":48.396831,"arrival":1522703893000,"departure":1522703894000,"zoneId":"NA","stopIndex":8,"stopSequence":9,"vertexType":"TRANSIT"},"to":{"name":"Saint-Paul / Sainte-Thérèse","stopId":"1:1890","stopCode":"1890","lon":-71.083492,"lat":48.414412,"arrival":1522704720000,"departure":1522704721000,"zoneId":"NA","stopIndex":18,"stopSequence":19,"vertexType":"TRANSIT"},"legGeometry":{"points":"wnkfH`v`qLoLxh@GLIHI@KAgN{IhHu[p@aCjDyJfQie@`AmCJ[kXi[gKsLqMgOmAbDAVSl@y@vBeCuCoCaDkDuE_@g@{FwGOMnA}CnA_DJWu@iAW[S[yI{MmBqC{@wAQUw@gAsDiF_B_CQYa@cA[_AUy@YcBOgAYHu@\\M`@cAiBuAyB","length":50},"routeShortName":"11","routeLongName":"Chic/Faubourg via St-Paul","rentedBike":false,"transitLeg":true,"duration":826.0,"steps":[]},{"startTime":1522704721000,"endTime":1522705630000,"departureDelay":0,"arrivalDelay":0,"realTime":false,"distance":1167.6370000000002,"pathway":false,"mode":"WALK","route":"","agencyTimeZoneOffset":-14400000,"interlineWithPreviousLeg":false,"from":{"name":"Saint-Paul / Sainte-Thérèse","stopId":"1:1890","stopCode":"1890","lon":-71.083492,"lat":48.414412,"arrival":1522704720000,"departure":1522704721000,"zoneId":"NA","stopIndex":18,"stopSequence":19,"vertexType":"TRANSIT"},"to":{"name":"Destination","lon":-71.079267,"lat":48.407617,"arrival":1522705630000,"orig":"","vertexType":"NORMAL"},"legGeometry":{"points":"m}nfHlozpLXb@f@x@fAfBPTHWd@WRKZQHCnAi@f@YnAoBz@gDXaDV{Bz@wDfA{DlCmITT@@pEjEnAjBBD^j@VP\\{@d@k@l@Wf@ILF","length":31},"rentedBike":false,"transitLeg":false,"duration":909.0,"steps":[{"distance":118.035,"relativeDirection":"DEPART","streetName":"Rue Saint-Paul","absoluteDirection":"SOUTHWEST","stayOn":false,"area":false,"bogusName":false,"lon":-71.08358773464661,"lat":48.41447195589856,"elevation":[]},{"distance":67.896,"relativeDirection":"LEFT","streetName":"Rue Saint-Augustin","absoluteDirection":"SOUTHEAST","stayOn":false,"area":false,"bogusName":false,"lon":-71.0846811,"lat":48.413698000000004,"elevation":[]},{"distance":613.328,"relativeDirection":"CONTINUE","streetName":"Rue Garnier","absoluteDirection":"SOUTH","stayOn":false,"area":false,"bogusName":false,"lon":-71.0842714,"lat":48.413164,"elevation":[]},{"distance":256.554,"relativeDirection":"RIGHT","streetName":"Rue Jolliet","absoluteDirection":"SOUTHWEST","stayOn":false,"area":false,"bogusName":false,"lon":-71.0775766,"lat":48.4102442,"elevation":[]},{"distance":111.824,"relativeDirection":"LEFT","streetName":"Rue Du Cran","absoluteDirection":"SOUTHEAST","stayOn":false,"area":false,"bogusName":false,"lon":-71.0795918,"lat":48.408374900000005,"elevation":[]}]}],"tooSloped":false}]},"debugOutput":{"precalculationTime":17,"pathCalculationTime":17,"pathTimes":[9,5,2],"renderingTime":1,"totalTime":35,"timedOut":false},"elevationMetadata":{"ellipsoidToGeoidDifference":-28.885904201182168,"geoidElevation":false}}