{"requestParameters":{"date":"2018/04/02","walkSpeed":"1.33","walkReluctance":"2.0","fromPlace":"48.427865,-71.061025","maxWalkDistance":"3000","waitReluctance":"1.0","carSpeed":"33","numItineraries":"3","waitAtBeginningFactor":"0.4","mode":"TRANSIT,WALK","ignoreRealtimeUpdates":"false","stairsReluctance":"2.0","toPlace":"48.42351,-71.08851599","time":"15:0:00"},"plan":{"date":1522695600000,"from":{"name":"Origin","lon":-71.061025,"lat":48.427865,"orig":"","vertexType":"NORMAL"},"to":{"name":"Destination","lon":-71.08851599,"lat":48.42351,"orig":"","vertexType":"NORMAL"},"itineraries":[{"duration":1036,"startTime":1522696176000,"endTime":1522697212000,"walkTime":463,"transitTime":571,"waitingTime":2,"walkDistance":592.5531879674986,"walkLimitExceeded":false,"elevationLost":0.0,"elevationGained":0.0,"transfers":0,"legs":[{"startTime":1522696176000,"endTime":1522696499000,"departureDelay":0,"arrivalDelay":0,"realTime":false,"distance":416.30899999999997,"pathway":false,"mode":"WALK","route":"","agencyTimeZoneOffset":-14400000,"interlineWithPreviousLeg":false,"from":{"name":"Origin","lon":-71.061025,"lat":48.427865,"departure":1522696176000,"orig":"","vertexType":"NORMAL"},"to":{"name":"Terminus Chicoutimi","stopId":"1:1289","stopCode":"1289","lon":-71.066163,"lat":48.428677,"arrival":1522696499000,"departure":1522696500000,"zoneId":"NA","stopIndex":0,"stopSequence":1,"vertexType":"TRANSIT"},"legGeometry":{"points":"_pqfHpbvpLA`@Al@?RCv@IxEAh@GpBAXAj@SzHc@MKESAcAK","length":15},"rentedBike":false,"transitLeg":false,"duration":323.0,"steps":[{"distance":339.102,"relativeDirection":"DEPART","streetName":"Rue Racine Est","absoluteDirection":"WEST","stayOn":false,"area":false,"bogusName":false,"lon":-71.06104516752244,"lat":48.427683040768365,"elevation":[]},{"distance":77.207,"relativeDirection":"RIGHT","streetName":"Rue Morin","absoluteDirection":"NORTH","stayOn":false,"area":false,"bogusName":false,"lon":-71.0656238,"lat":48.4279449,"elevation":[]}]},{"startTime":1522696500000,"endTime":1522697071000,"departureDelay":0,"arrivalDelay":0,"realTime":false,"distance":2967.5596063171365,"pathway":false,"mode":"BUS","route":"16","agencyName":"Société de Transport du Saguenay","agencyUrl":"http://ville.saguenay.ca/fr/services-aux-citoyens/transport-sts","agencyTimeZoneOffset":-14400000,"routeColor":"00FF00","routeType":3,"routeId":"1:16","routeTextColor":"000000","interlineWithPreviousLeg":false,"tripBlockId":"37","headsign":"Faubourg Sagamie","agencyId":"0","tripId":"1:218320","serviceDate":"20180402","from":{"name":"Terminus Chicoutimi","stopId":"1:1289","stopCode":"1289","lon":-71.066163,"lat":48.428677,"arrival":1522696499000,"departure":1522696500000,"zoneId":"NA","stopIndex":0,"stopSequence":1,"vertexType":"TRANSIT"},"to":{"name":"Dequen / Vilmond","stopId":"1:601","stopCode":"601","lon":-71.087641,"lat":48.424724,"arrival":1522697071000,"departure":1522697072000,"zoneId":"NA","stopIndex":15,"stopSequence":16,"vertexType":"TRANSIT"},"legGeometry":{"points":"evqfHzcwpLg@?AXCnAO~GxDVhCP~M~@jDTOrHKdGE^E~BQnIMhGAxCD~@Df@DVDZd@zBBLDJJNHHHDJBn@HCxAHdAFX@DFj@@b@Ab@SvAe@p@{EnEEB{@w@m@o@aDeDIKCMCM?SL}A?A@WCYi@mDOu@Wm@EIMSSWaAcAuAcBq@f@URa@d@u@`A}BzCV`DX~C@HFT^v@bA|AZ^`Av@\\`@Zf@pAvCtD`JJTrAtCpAjC@BvA|CvA~Ci@zA","length":82},"routeShortName":"16","routeLongName":"Côte de la Réserve","rentedBike":false,"transitLeg":true,"duration":571.0,"steps":[]},{"startTime":1522697072000,"endTime":1522697212000,"departureDelay":0,"arrivalDelay":0,"realTime":false,"distance":176.16899999999998,"pathway":false,"mode":"WALK","route":"","agencyTimeZoneOffset":-14400000,"interlineWithPreviousLeg":false,"from":{"name":"Dequen / Vilmond","stopId":"1:601","stopCode":"601","lon":-71.087641,"lat":48.424724,"arrival":1522697071000,"departure":1522697072000,"zoneId":"NA","stopIndex":15,"stopSequence":16,"vertexType":"TRANSIT"},"to":{"name":"Destination","lon":-71.08851599,"lat":48.42351,"arrival":1522697212000,"orig":"","vertexType":"NORMAL"},"legGeometry":{"points":"g}pfH~h{pLh@wA~AhDZt@Tf@??JP","length":7},"rentedBike":false,"transitLeg":false,"duration":140.0,"steps":[{"distance":40.67,"relativeDirection":"DEPART","streetName":"Rue De Quen","absoluteDirection":"SOUTHEAST","stayOn":false,"area":false,"bogusName":false,"lon":-71.08767920713842,"lat":48.42468992051686,"elevation":[]},{"distance":135.49900000000002,"relativeDirection":"RIGHT","streetName":"Chemin de la Réserve","absoluteDirection":"SOUTHWEST","stayOn":false,"area":false,"bogusName":false,"lon":-71.087237,"lat":48.424471600000004,"elevation":[]}]}],"tooSloped":false},{"duration":1476,"startTime":1522696176000,"endTime":1522697652000,"walkTime":1254,"transitTime":220,"waitingTime":2,"walkDistance":1613.1884436032965,"walkLimitExceeded":false,"elevationLost":0.0,"elevationGained":0.0,"transfers":0,"legs":[{"startTime":1522696176000,"endTime":1522696499000,"departureDelay":0,"arrivalDelay":0,"realTime":false,"distance":416.30899999999997,"pathway":false,"mode":"WALK","route":"","agencyTimeZoneOffset":-14400000,"interlineWithPreviousLeg":false,"from":{"name":"Origin","lon":-71.061025,"lat":48.427865,"departure":1522696176000,"orig":"","vertexType":"NORMAL"},"to":{"name":"Terminus Chicoutimi","stopId":"1:1289","stopCode":"1289","lon":-71.066163,"lat":48.428677,"arrival":1522696499000,"departure":1522696500000,"zoneId":"NA","stopIndex":0,"stopSequence":1,"vertexType":"TRANSIT"},"legGeometry":{"points":"_pqfHpbvpLA`@Al@?RCv@IxEAh@GpBAXAj@SzHc@MKESAcAK","length":15},"rentedBike":false,"transitLeg":false,"duration":323.0,"steps":[{"distance":339.102,"relativeDirection":"DEPART","streetName":"Rue Racine Est","absoluteDirection":"WEST","stayOn":false,"area":false,"bogusName":false,"lon":-71.06104516752244,"lat":48.427683040768365,"elevation":[]},{"distance":77.207,"relativeDirection":"RIGHT","streetName":"Rue Morin","absoluteDirection":"NORTH","stayOn":false,"area":false,"bogusName":false,"lon":-71.0656238,"lat":48.4279449,"elevation":[]}]},{"startTime":1522696500000,"endTime":1522696720000,"departureDelay":0,"arrivalDelay":0,"realTime":false,"distance":1122.0893295461835,"pathway":false,"mode":"BUS","route":"11","agencyName":"Société de Transport du Saguenay","agencyUrl":"http://ville.saguenay.ca/fr/services-aux-citoyens/transport-sts","agencyTimeZoneOffset":-14400000,"routeColor":"FF0000","routeType":3,"routeId":"1:11","routeTextColor":"FFFFFF","interlineWithPreviousLeg":false,"tripBlockId":"36","headsign":"Boul.Royaume/St-Pierre","agencyId":"0","tripId":"1:218294","serviceDate":"20180402","from":{"name":"Terminus Chicoutimi","stopId":"1:1289","stopCode":"1289","lon":-71.066163,"lat":48.428677,"arrival":1522696499000,"departure":1522696500000,"zoneId":"NA","stopIndex":0,"stopSequence":1,"vertexType":"TRANSIT"},"to":{"name":"Taché / Sainte-Marthe","stopId":"1:419","stopCode":"419","lon":-71.075998,"lat":48.422681,"arrival":1522696720000,"departure":1522696721000,"zoneId":"NA","stopIndex":6,"stopSequence":7,"vertexType":"TRANSIT"},"legGeometry":{"points":"evqfHzcwpLk@?UhKfIh@dKp@GnDIfDOtEE~@Ff@x@rEF~@CbAALO~ADRNJXBr@DfGRPBPJLN@@FPFTBX?TE`BhBR","length":30},"routeShortName":"11","routeLongName":"Chic/Faubourg via St-Paul","rentedBike":false,"transitLeg":true,"duration":220.0,"steps":[]},{"startTime":1522696721000,"endTime":1522697652000,"departureDelay":0,"arrivalDelay":0,"realTime":false,"distance":1196.7019999999995,"pathway":false,"mode":"WALK","route":"","agencyTimeZoneOffset":-14400000,"interlineWithPreviousLeg":false,"from":{"name":"Taché / Sainte-Marthe","stopId":"1:419","stopCode":"419","lon":-71.075998,"lat":48.422681,"arrival":1522696720000,"departure":1522696721000,"zoneId":"NA","stopIndex":6,"stopSequence":7,"vertexType":"TRANSIT"},"to":{"name":"Destination","lon":-71.08851599,"lat":48.42351,"arrival":1522697652000,"orig":"","vertexType":"NORMAL"},"legGeometry":{"points":"sppfH~_ypL@LCj@Yj@o@bAe@|@_@fADBBDBH?LCJELK^Ep@WtDDP?jAO`B_BpBqBpBs@t@Y`@Yl@aAxCi@zAyAfEjBrD~@hBBFf@dAbAzBz@bC~AhDZt@Tf@??JP","length":38},"rentedBike":false,"transitLeg":false,"duration":931.0,"steps":[{"distance":142.785,"relativeDirection":"DEPART","streetName":"path","absoluteDirection":"WEST","stayOn":false,"area":false,"bogusName":true,"lon":-71.07599606605297,"lat":48.42266087507635,"elevation":[]},{"distance":41.096000000000004,"relativeDirection":"LEFT","streetName":"Rue Saint Onésime","absoluteDirection":"SOUTHWEST","stayOn":false,"area":false,"bogusName":false,"lon":-71.0775138,"lat":48.423397400000006,"elevation":[]},{"distance":86.86699999999999,"relativeDirection":"SLIGHTLY_LEFT","streetName":"Rue le Doré","absoluteDirection":"WEST","stayOn":false,"area":false,"bogusName":false,"lon":-71.077976,"lat":48.423435700000006,"elevation":[]},{"distance":7.693,"relativeDirection":"LEFT","streetName":"Rue Bossé","absoluteDirection":"SOUTHWEST","stayOn":false,"area":false,"bogusName":false,"lon":-71.07913090000001,"lat":48.423587100000006,"elevation":[]},{"distance":65.531,"relativeDirection":"SLIGHTLY_RIGHT","streetName":"road","absoluteDirection":"WEST","stayOn":false,"area":false,"bogusName":true,"lon":-71.0792211,"lat":48.423552400000005,"elevation":[]},{"distance":179.39800000000002,"relativeDirection":"SLIGHTLY_RIGHT","streetName":"Rue Dubuc","absoluteDirection":"NORTHWEST","stayOn":false,"area":false,"bogusName":false,"lon":-71.080094,"lat":48.4236379,"elevation":[]},{"distance":238.88,"relativeDirection":"CONTINUE","streetName":"Côte Saint-Ange","absoluteDirection":"NORTHWEST","stayOn":false,"area":false,"bogusName":false,"lon":-71.0815067,"lat":48.424949000000005,"elevation":[]},{"distance":434.452,"relativeDirection":"LEFT","streetName":"Chemin de la Réserve","absoluteDirection":"SOUTHWEST","stayOn":false,"area":false,"bogusName":false,"lon":-71.0841347,"lat":48.426195400000005,"elevation":[]}]}],"tooSloped":false},{"duration":1036,"startTime":1522697976000,"endTime":1522699012000,"walkTime":463,"transitTime":571,"waitingTime":2,"walkDistance":592.5531879674986,"walkLimitExceeded":false,"elevationLost":0.0,"elevationGained":0.0,"transfers":0,"legs":[{"startTime":1522697976000,"endTime":1522698299000,"departureDelay":0,"arrivalDelay":0,"realTime":false,"distance":416.30899999999997,"pathway":false,"mode":"WALK","route":"","agencyTimeZoneOffset":-14400000,"interlineWithPreviousLeg":false,"from":{"name":"Origin","lon":-71.061025,"lat":48.427865,"departure":1522697976000,"orig":"","vertexType":"NORMAL"},"to":{"name":"Terminus Chicoutimi","stopId":"1:1289","stopCode":"1289","lon":-71.066163,"lat":48.428677,"arrival":1522698299000,"departure":1522698300000,"zoneId":"NA","stopIndex":0,"stopSequence":1,"vertexType":"TRANSIT"},"legGeometry":{"points":"_pqfHpbvpLA`@Al@?RCv@IxEAh@GpBAXAj@SzHc@MKESAcAK","length":15},"rentedBike":false,"transitLeg":false,"duration":323.0,"steps":[{"distance":339.102,"relativeDirection":"DEPART","streetName":"Rue Racine Est","absoluteDirection":"WEST","stayOn":false,"area":false,"bogusName":false,"lon":-71.06104516752244,"lat":48.427683040768365,"elevation":[]},{"distance":77.207,"relativeDirection":"RIGHT","streetName":"Rue Morin","absoluteDirection":"NORTH","stayOn":false,"area":false,"bogusName":false,"lon":-71.0656238,"lat":48.4279449,"elevation":[]}]},{"startTime":1522698300000,"endTime":1522698871000,"departureDelay":0,"arrivalDelay":0,"realTime":false,"distance":2967.5596063171365,"pathway":false,"mode":"BUS","route":"16","agencyName":"Société de Transport du Saguenay","agencyUrl":"http://ville.saguenay.ca/fr/services-aux-citoyens/transport-sts","agencyTimeZoneOffset":-14400000,"routeColor":"00FF00","routeType":3,"routeId":"1:16","routeTextColor":"000000","interlineWithPreviousLeg":false,"tripBlockId":"34","headsign":"Faubourg Sagamie","agencyId":"0","tripId":"1:218225","serviceDate":"20180402","from":{"name":"Terminus Chicoutimi","stopId":"1:1289","stopCode":"1289","lon":-71.066163,"lat":48.428677,"arrival":1522698299000,"departure":1522698300000,"zoneId":"NA","stopIndex":0,"stopSequence":1,"vertexType":"TRANSIT"},"to":{"name":"Dequen / Vilmond","stopId":"1:601","stopCode":"601","lon":-71.087641,"lat":48.424724,"arrival":1522698871000,"departure":1522698872000,"zoneId":"NA","stopIndex":15,"stopSequence":16,"vertexType":"TRANSIT"},"legGeometry":{"points":"evqfHzcwpLg@?AXCnAO~GxDVhCP~M~@jDTOrHKdGE^E~BQnIMhGAxCD~@Df@DVDZd@zBBLDJJNHHHDJBn@HCxAHdAFX@DFj@@b@Ab@SvAe@p@{EnEEB{@w@m@o@aDeDIKCMCM?SL}A?A@WCYi@mDOu@Wm@EIMSSWaAcAuAcBq@f@URa@d@u@`A}BzCV`DX~C@HFT^v@bA|AZ^`Av@\\`@Zf@pAvCtD`JJTrAtCpAjC@BvA|CvA~Ci@zA","length":82},"routeShortName":"16","routeLongName":"Côte de la Réserve","rentedBike":false,"transitLeg":true,"duration":571.0,"steps":[]},{"startTime":1522698872000,"endTime":1522699012000,"departureDelay":0,"arrivalDelay":0,"realTime":false,"distance":176.16899999999998,"pathway":false,"mode":"WALK","route":"","agencyTimeZoneOffset":-14400000,"interlineWithPreviousLeg":false,"from":{"name":"Dequen / Vilmond","stopId":"1:601","stopCode":"601","lon":-71.087641,"lat":48.424724,"arrival":1522698871000,"departure":1522698872000,"zoneId":"NA","stopIndex":15,"stopSequence":16,"vertexType":"TRANSIT"},"to":{"name":"Destination","lon":-71.08851599,"lat":48.42351,"arrival":1522699012000,"orig":"","vertexType":"NORMAL"},"legGeometry":{"points":"g}pfH~h{pLh@wA~AhDZt@Tf@??JP","length":7},"rentedBike":false,"transitLeg":false,"duration":140.0,"steps":[{"distance":40.67,"relativeDirection":"DEPART","streetName":"Rue De Quen","absoluteDirection":"SOUTHEAST","stayOn":false,"area":false,"bogusName":false,"lon":-71.08767920713842,"lat":48.42468992051686,"elevation":[]},{"distance":135.49900000000002,"relativeDirection":"RIGHT","streetName":"Chemin de la Réserve","absoluteDirection":"SOUTHWEST","stayOn":false,"area":false,"bogusName":false,"lon":-71.087237,"lat":48.424471600000004,"elevation":[]}]}],"tooSloped":false}]},"debugOutput":{"precalculationTime":30,"pathCalculationTime":34,"pathTimes":[17,7,10],"renderingTime":0,"totalTime":64,"timedOut":false},"elevationMetadata":{"ellipsoidToGeoidDifference":-28.885904201182168,"geoidElevation":false}}