{"requestParameters":{"date":"2018/04/02","walkSpeed":"1.33","walkReluctance":"2.0","fromPlace":"48.412051,-71.05021899","maxWalkDistance":"3000","waitReluctance":"1.0","carSpeed":"33","numItineraries":"3","waitAtBeginningFactor":"0.4","mode":"TRANSIT,WALK","ignoreRealtimeUpdates":"false","stairsReluctance":"2.0","toPlace":"48.409182,-71.079244","time":"16:15:00"},"plan":{"date":1522700100000,"from":{"name":"Origin","lon":-71.05021899,"lat":48.412051,"orig":"","vertexType":"NORMAL"},"to":{"name":"Destination","lon":-71.079244,"lat":48.409182,"orig":"","vertexType":"NORMAL"},"itineraries":[{"duration":1418,"startTime":1522700798000,"endTime":1522702216000,"walkTime":117,"transitTime":999,"waitingTime":302,"walkDistance":140.43854135123635,"walkLimitExceeded":false,"elevationLost":0.0,"elevationGained":0.0,"transfers":1,"legs":[{"startTime":1522700798000,"endTime":1522700882000,"departureDelay":0,"arrivalDelay":0,"realTime":false,"distance":97.81099999999999,"pathway":false,"mode":"WALK","route":"","agencyTimeZoneOffset":-14400000,"interlineWithPreviousLeg":false,"from":{"name":"Origin","lon":-71.05021899,"lat":48.412051,"departure":1522700798000,"orig":"","vertexType":"NORMAL"},"to":{"name":"boul. Université / Murdock","stopId":"1:80","stopCode":"80","lon":-71.050111,"lat":48.411498,"arrival":1522700882000,"departure":1522700883000,"zoneId":"NA","stopIndex":14,"stopSequence":15,"vertexType":"TRANSIT"},"legGeometry":{"points":"cmnfHb`tpLb@iAZ}@VPUn@","length":5},"rentedBike":false,"transitLeg":false,"duration":84.0,"steps":[{"distance":61.79599999999999,"relativeDirection":"DEPART","streetName":"Boulevard de l'Université","absoluteDirection":"SOUTHEAST","stayOn":false,"area":false,"bogusName":false,"lon":-71.05041844838937,"lat":48.41186158446426,"elevation":[]},{"distance":36.015,"relativeDirection":"UTURN_RIGHT","streetName":"Boulevard de l'Université","absoluteDirection":"NORTHWEST","stayOn":true,"area":false,"bogusName":false,"lon":-71.0498268,"lat":48.4114298,"elevation":[]}]},{"startTime":1522700883000,"endTime":1522701120000,"departureDelay":0,"arrivalDelay":0,"realTime":false,"distance":1625.1572422718677,"pathway":false,"mode":"BUS","route":"175","agencyName":"Société de Transport du Saguenay","agencyUrl":"http://ville.saguenay.ca/fr/services-aux-citoyens/transport-sts","agencyTimeZoneOffset":-14400000,"routeColor":"FF00FF","routeType":3,"routeId":"1:175","routeTextColor":"FFFFFF","interlineWithPreviousLeg":false,"tripBlockId":"7","headsign":"Costco","agencyId":"0","tripId":"1:217340","serviceDate":"20180402","from":{"name":"boul. Université / Murdock","stopId":"1:80","stopCode":"80","lon":-71.050111,"lat":48.411498,"arrival":1522700882000,"departure":1522700883000,"zoneId":"NA","stopIndex":14,"stopSequence":15,"vertexType":"TRANSIT"},"to":{"name":"Place du Royaume (Saguenéens)","stopId":"1:1294","stopCode":"1294","lon":-71.057691,"lat":48.402355,"arrival":1522701120000,"departure":1522701420000,"zoneId":"NA","stopIndex":20,"stopSequence":21,"vertexType":"TRANSIT"},"legGeometry":{"points":"aknfH~}spLr@sBhCsKz@dAjB|@dM`GzCvAXrCr@~Gx@]PEr@ObACn@FrBb@|@Ch@Kx@U~HsB^KZ|DJpII~Fa@rFUzBi@bD","length":26},"routeShortName":"175","routeLongName":"Term. Chic / Costco","rentedBike":false,"transitLeg":true,"duration":237.0,"steps":[]},{"startTime":1522701420000,"endTime":1522701720000,"departureDelay":0,"arrivalDelay":0,"realTime":false,"distance":3143.631018514618,"pathway":false,"mode":"BUS","route":"15","agencyName":"Société de Transport du Saguenay","agencyUrl":"http://ville.saguenay.ca/fr/services-aux-citoyens/transport-sts","agencyTimeZoneOffset":-14400000,"routeColor":"FF00FF","routeType":3,"routeId":"1:15","routeTextColor":"FFFFFF","interlineWithPreviousLeg":false,"tripBlockId":"33","headsign":"Talbot / Barrette","agencyId":"0","tripId":"1:218191","serviceDate":"20180402","from":{"name":"Place du Royaume (Saguenéens)","stopId":"1:1294","stopCode":"1294","lon":-71.057691,"lat":48.402355,"arrival":1522701120000,"departure":1522701420000,"zoneId":"NA","stopIndex":24,"stopSequence":25,"vertexType":"TRANSIT"},"to":{"name":"Roitelets / Sapins","stopId":"1:1543","stopCode":"1543","lon":-71.069553,"lat":48.393375,"arrival":1522701720000,"departure":1522701720000,"zoneId":"NA","stopIndex":35,"stopSequence":36,"vertexType":"TRANSIT"},"legGeometry":{"points":"_rlfHjmupLbCaO?qLa@uJzF`ApF~@~@PzAgEeDcBf@qAWcKUqEx@Ef@ExDVjDxAFBrBvAfGjG@BjCzC~DxC@@zA~Cb@fCJlC?BsBre@?DWbOAn@?nEGnM@H\\hCzA~ELvAAlAi@jDo@nB","length":40},"routeShortName":"15","routeLongName":"Term. Chic / Costco","rentedBike":false,"transitLeg":true,"duration":300.0,"steps":[]},{"startTime":1522701720000,"endTime":1522702182000,"departureDelay":0,"arrivalDelay":0,"realTime":false,"distance":4828.66321823252,"pathway":false,"mode":"BUS","route":"14","agencyName":"Société de Transport du Saguenay","agencyUrl":"http://ville.saguenay.ca/fr/services-aux-citoyens/transport-sts","agencyTimeZoneOffset":-14400000,"routeColor":"C0C000","routeType":3,"routeId":"1:14","routeTextColor":"000000","interlineWithPreviousLeg":true,"tripBlockId":"33","headsign":"Terminus Chicoutimi","agencyId":"0","tripId":"1:218192","serviceDate":"20180402","from":{"name":"Roitelets / Sapins","stopId":"1:1513","stopCode":"1513","lon":-71.069396,"lat":48.393523,"arrival":1522701720000,"departure":1522701720000,"zoneId":"NA","stopIndex":0,"stopSequence":1,"vertexType":"TRANSIT"},"to":{"name":"Jolliet / Cran","stopId":"1:1560","stopCode":"1560","lon":-71.07925,"lat":48.40867,"arrival":1522702182000,"departure":1522702183000,"zoneId":"NA","stopIndex":19,"stopSequence":20,"vertexType":"TRANSIT"},"legGeometry":{"points":"azjfHfwwpLiEfLuBzFsAnDgGzSWfAcD`Mi@dCgChLmCzMwGd\\aDxOdFtFhCtCdDY|F_On@aB`B_GNoBvAyT|@sNuAyAuF}F}AaB_BkAC@qC\\gAWiBwBiKgMiCwEgEyHCGy@uB}@rAa@nAc@lFEf@mGvUYfAqCs@ICMCqFmDc@s@","length":45},"routeShortName":"14","routeLongName":"Coopérative","rentedBike":false,"transitLeg":true,"duration":462.0,"steps":[]},{"startTime":1522702183000,"endTime":1522702216000,"departureDelay":0,"arrivalDelay":0,"realTime":false,"distance":42.561,"pathway":false,"mode":"WALK","route":"","agencyTimeZoneOffset":-14400000,"interlineWithPreviousLeg":false,"from":{"name":"Jolliet / Cran","stopId":"1:1560","stopCode":"1560","lon":-71.07925,"lat":48.40867,"arrival":1522702182000,"departure":1522702183000,"zoneId":"NA","stopIndex":19,"stopSequence":20,"vertexType":"TRANSIT"},"to":{"name":"Destination","lon":-71.079244,"lat":48.409182,"arrival":1522702216000,"orig":"","vertexType":"NORMAL"},"legGeometry":{"points":"eymfHjtypLw@kA","length":2},"rentedBike":false,"transitLeg":false,"duration":33.0,"steps":[{"distance":42.561,"relativeDirection":"DEPART","streetName":"Rue Jolliet","absoluteDirection":"NORTHEAST","stayOn":false,"area":false,"bogusName":false,"lon":-71.07925881393753,"lat":48.408675280428824,"elevation":[]}]}],"tooSloped":false},{"duration":1718,"startTime":1522701354000,"endTime":1522703072000,"walkTime":1001,"transitTime":715,"waitingTime":2,"walkDistance":1290.1619849577598,"walkLimitExceeded":false,"elevationLost":0.0,"elevationGained":0.0,"transfers":0,"legs":[{"startTime":1522701354000,"endTime":1522702319000,"departureDelay":0,"arrivalDelay":0,"realTime":false,"distance":1244.665,"pathway":false,"mode":"WALK","route":"","agencyTimeZoneOffset":-14400000,"interlineWithPreviousLeg":false,"from":{"name":"Origin","lon":-71.05021899,"lat":48.412051,"departure":1522701354000,"orig":"","vertexType":"NORMAL"},"to":{"name":"Terminus UQAC","stopId":"1:1670","stopCode":"1670","lon":-71.053369,"lat":48.420903,"arrival":1522702319000,"departure":1522702320000,"zoneId":"NA","stopIndex":8,"stopSequence":9,"vertexType":"TRANSIT"},"legGeometry":{"points":"cmnfHb`tpLk@~AELOb@qAlDELiA`C_@\\_@Zw@TiDJaAXuAv@e@`@aBvAKHAAGM{@M_@BQ@mD_AuDsD[Oi@k@yAyAaAcAUHq@XYz@Ur@e@vAg@vAUp@cAaA","length":35},"rentedBike":false,"transitLeg":false,"duration":965.0,"steps":[{"distance":567.381,"relativeDirection":"DEPART","streetName":"Boulevard de l'Université","absoluteDirection":"NORTHWEST","stayOn":false,"area":false,"bogusName":false,"lon":-71.05041844838937,"lat":48.41186158446426,"elevation":[]},{"distance":169.707,"relativeDirection":"RIGHT","streetName":"path","absoluteDirection":"NORTHEAST","stayOn":false,"area":false,"bogusName":true,"lon":-71.0542688,"lat":48.4159547,"elevation":[]},{"distance":271.004,"relativeDirection":"SLIGHTLY_RIGHT","streetName":"Rue de la Fondation","absoluteDirection":"NORTHEAST","stayOn":false,"area":false,"bogusName":false,"lon":-71.05382350000001,"lat":48.417425900000005,"elevation":[]},{"distance":236.573,"relativeDirection":"LEFT","streetName":"path","absoluteDirection":"NORTH","stayOn":false,"area":false,"bogusName":true,"lon":-71.0518321,"lat":48.419468900000005,"elevation":[]}]},{"startTime":1522702320000,"endTime":1522703035000,"departureDelay":0,"arrivalDelay":0,"realTime":false,"distance":3036.2322768993085,"pathway":false,"mode":"BUS","route":"14","agencyName":"Société de Transport du Saguenay","agencyUrl":"http://ville.saguenay.ca/fr/services-aux-citoyens/transport-sts","agencyTimeZoneOffset":-14400000,"routeColor":"C0C000","routeType":3,"routeId":"1:14","routeTextColor":"000000","interlineWithPreviousLeg":false,"tripBlockId":"30","headsign":"Talbot / Barrette","agencyId":"0","tripId":"1:218107","serviceDate":"20180402","from":{"name":"Terminus UQAC","stopId":"1:1670","stopCode":"1670","lon":-71.053369,"lat":48.420903,"arrival":1522702319000,"departure":1522702320000,"zoneId":"NA","stopIndex":8,"stopSequence":9,"vertexType":"TRANSIT"},"to":{"name":"Jolliet / Cran","stopId":"1:1555","stopCode":"1555","lon":-71.079435,"lat":48.408747,"arrival":1522703035000,"departure":1522703036000,"zoneId":"NA","stopIndex":17,"stopSequence":18,"vertexType":"TRANSIT"},"legGeometry":{"points":"sepfHrrtpLdA`ATq@`E~DL`@E`Ex@hDd@`B}FtFaAzAm@xAe@jCa@nDiAbm@SpKM`H]vBhDVzCTcAvCO^bEbEzK`LfBeEtK`KhAdAnCbCvBpCNR~BxAxBf@z@h@vAz@z@{DrCoITTlElEtAnB","length":38},"routeShortName":"14","routeLongName":"Coopérative","rentedBike":false,"transitLeg":true,"duration":715.0,"steps":[]},{"startTime":1522703036000,"endTime":1522703072000,"departureDelay":0,"arrivalDelay":0,"realTime":false,"distance":45.353,"pathway":false,"mode":"WALK","route":"","agencyTimeZoneOffset":-14400000,"interlineWithPreviousLeg":false,"from":{"name":"Jolliet / Cran","stopId":"1:1555","stopCode":"1555","lon":-71.079435,"lat":48.408747,"arrival":1522703035000,"departure":1522703036000,"zoneId":"NA","stopIndex":17,"stopSequence":18,"vertexType":"TRANSIT"},"to":{"name":"Destination","lon":-71.079244,"lat":48.409182,"arrival":1522703072000,"orig":"","vertexType":"NORMAL"},"legGeometry":{"points":"aymfHptypLCEw@kA","length":3},"rentedBike":false,"transitLeg":false,"duration":36.0,"steps":[{"distance":45.353,"relativeDirection":"DEPART","streetName":"Rue Jolliet","absoluteDirection":"NORTHEAST","stayOn":false,"area":false,"bogusName":false,"lon":-71.07928416444739,"lat":48.40865663471376,"elevation":[]}]}],"tooSloped":false},{"duration":1468,"startTime":1522701698000,"endTime":1522703166000,"walkTime":828,"transitTime":518,"waitingTime":122,"walkDistance":1054.269631572409,"walkLimitExceeded":false,"elevationLost":0.0,"elevationGained":0.0,"transfers":1,"legs":[{"startTime":1522701698000,"endTime":1522701782000,"departureDelay":0,"arrivalDelay":0,"realTime":false,"distance":97.81099999999999,"pathway":false,"mode":"WALK","route":"","agencyTimeZoneOffset":-14400000,"interlineWithPreviousLeg":false,"from":{"name":"Origin","lon":-71.05021899,"lat":48.412051,"departure":1522701698000,"orig":"","vertexType":"NORMAL"},"to":{"name":"boul. Université / Murdock","stopId":"1:80","stopCode":"80","lon":-71.050111,"lat":48.411498,"arrival":1522701782000,"departure":1522701783000,"zoneId":"NA","stopIndex":14,"stopSequence":15,"vertexType":"TRANSIT"},"legGeometry":{"points":"cmnfHb`tpLb@iAZ}@VPUn@","length":5},"rentedBike":false,"transitLeg":false,"duration":84.0,"steps":[{"distance":61.79599999999999,"relativeDirection":"DEPART","streetName":"Boulevard de l'Université","absoluteDirection":"SOUTHEAST","stayOn":false,"area":false,"bogusName":false,"lon":-71.05041844838937,"lat":48.41186158446426,"elevation":[]},{"distance":36.015,"relativeDirection":"UTURN_RIGHT","streetName":"Boulevard de l'Université","absoluteDirection":"NORTHWEST","stayOn":true,"area":false,"bogusName":false,"lon":-71.0498268,"lat":48.4114298,"elevation":[]}]},{"startTime":1522701783000,"endTime":1522702020000,"departureDelay":0,"arrivalDelay":0,"realTime":false,"distance":1625.1572422718677,"pathway":false,"mode":"BUS","route":"175","agencyName":"Société de Transport du Saguenay","agencyUrl":"http://ville.saguenay.ca/fr/services-aux-citoyens/transport-sts","agencyTimeZoneOffset":-14400000,"routeColor":"FF00FF","routeType":3,"routeId":"1:175","routeTextColor":"FFFFFF","interlineWithPreviousLeg":false,"tripBlockId":"77","headsign":"Costco","agencyId":"0","tripId":"1:218637","serviceDate":"20180402","from":{"name":"boul. Université / Murdock","stopId":"1:80","stopCode":"80","lon":-71.050111,"lat":48.411498,"arrival":1522701782000,"departure":1522701783000,"zoneId":"NA","stopIndex":14,"stopSequence":15,"vertexType":"TRANSIT"},"to":{"name":"Place du Royaume (Saguenéens)","stopId":"1:1294","stopCode":"1294","lon":-71.057691,"lat":48.402355,"arrival":1522702020000,"departure":1522702140000,"zoneId":"NA","stopIndex":20,"stopSequence":21,"vertexType":"TRANSIT"},"legGeometry":{"points":"aknfH~}spLr@sBhCsKz@dAjB|@dM`GzCvAXrCr@~Gx@]PEr@ObACn@FrBb@|@Ch@Kx@U~HsB^KZ|DJpII~Fa@rFUzBi@bD","length":26},"routeShortName":"175","routeLongName":"Term. Chic / Costco","rentedBike":false,"transitLeg":true,"duration":237.0,"steps":[]},{"startTime":1522702140000,"endTime":1522702421000,"departureDelay":0,"arrivalDelay":0,"realTime":false,"distance":1564.327418207517,"pathway":false,"mode":"BUS","route":"15","agencyName":"Société de Transport du Saguenay","agencyUrl":"http://ville.saguenay.ca/fr/services-aux-citoyens/transport-sts","agencyTimeZoneOffset":-14400000,"routeColor":"FF00FF","routeType":3,"routeId":"1:15","routeTextColor":"FFFFFF","interlineWithPreviousLeg":false,"tripBlockId":"32","headsign":"Terminus Chicoutimi","agencyId":"0","tripId":"1:218167","serviceDate":"20180402","from":{"name":"Place du Royaume (Saguenéens)","stopId":"1:1294","stopCode":"1294","lon":-71.057691,"lat":48.402355,"arrival":1522702020000,"departure":1522702140000,"zoneId":"NA","stopIndex":11,"stopSequence":12,"vertexType":"TRANSIT"},"to":{"name":"Angoulême / Bégin","stopId":"1:53","stopCode":"53","lon":-71.073604,"lat":48.405143,"arrival":1522702421000,"departure":1522702422000,"zoneId":"NA","stopIndex":18,"stopSequence":19,"vertexType":"TRANSIT"},"legGeometry":{"points":"eqlfHzmupLUxAm@nCcAlDeCvGmA|CUr@}@~A_@\\_DvCEZcA|@UP_@d@Yl@oBdFeCxG_CfGYVQXS\\dK|HlFZbC\\p@zA\\rB@hBiArG{BN","length":29},"routeShortName":"15","routeLongName":"Term. Chic / Costco","rentedBike":false,"transitLeg":true,"duration":281.0,"steps":[]},{"startTime":1522702422000,"endTime":1522703166000,"departureDelay":0,"arrivalDelay":0,"realTime":false,"distance":956.2560000000001,"pathway":false,"mode":"WALK","route":"","agencyTimeZoneOffset":-14400000,"interlineWithPreviousLeg":false,"from":{"name":"Angoulême / Bégin","stopId":"1:53","stopCode":"53","lon":-71.073604,"lat":48.405143,"arrival":1522702421000,"departure":1522702422000,"zoneId":"NA","stopIndex":18,"stopSequence":19,"vertexType":"TRANSIT"},"to":{"name":"Destination","lon":-71.079244,"lat":48.409182,"arrival":1522703166000,"orig":"","vertexType":"NORMAL"},"legGeometry":{"points":"sbmfHbqxpLAVQ@s@HFnGXdAVX~@XUpC??Gf@WbAW`AyEpQ??YdAsCs@ICMCyE}CWQ_@k@CEw@kA","length":24},"rentedBike":false,"transitLeg":false,"duration":744.0,"steps":[{"distance":9.065,"relativeDirection":"DEPART","streetName":"Rue R. E. Joron","absoluteDirection":"WEST","stayOn":false,"area":false,"bogusName":false,"lon":-71.07361147295804,"lat":48.40506820485767,"elevation":[]},{"distance":39.342,"relativeDirection":"RIGHT","streetName":"Rue d'Angoulème","absoluteDirection":"NORTH","stayOn":false,"area":false,"bogusName":false,"lon":-71.073734,"lat":48.4050736,"elevation":[]},{"distance":183.368,"relativeDirection":"LEFT","streetName":"Rue Garon","absoluteDirection":"WEST","stayOn":false,"area":false,"bogusName":false,"lon":-71.0737922,"lat":48.405425300000005,"elevation":[]},{"distance":407.434,"relativeDirection":"RIGHT","streetName":"Rue Ballantyne","absoluteDirection":"WEST","stayOn":false,"area":false,"bogusName":false,"lon":-71.0757641,"lat":48.404816700000005,"elevation":[]},{"distance":317.04699999999997,"relativeDirection":"RIGHT","streetName":"Rue Jolliet","absoluteDirection":"NORTH","stayOn":false,"area":false,"bogusName":false,"lon":-71.08068800000001,"lat":48.406426800000006,"elevation":[]}]}],"tooSloped":false}]},"debugOutput":{"precalculationTime":51,"pathCalculationTime":53,"pathTimes":[20,17,16],"renderingTime":0,"totalTime":104,"timedOut":false},"elevationMetadata":{"ellipsoidToGeoidDifference":-28.885904201182168,"geoidElevation":false}}