{"requestParameters":{"date":"2018/04/02","walkSpeed":"1.33","walkReluctance":"2.0","fromPlace":"48.422574,-71.073789","maxWalkDistance":"3000","waitReluctance":"1.0","carSpeed":"33","numItineraries":"3","waitAtBeginningFactor":"0.4","mode":"TRANSIT,WALK","ignoreRealtimeUpdates":"false","stairsReluctance":"2.0","toPlace":"48.418729,-71.053021","time":"17:0:00"},"plan":{"date":1522702800000,"from":{"name":"Origin","lon":-71.073789,"lat":48.422574,"orig":"","vertexType":"NORMAL"},"to":{"name":"Destination","lon":-71.053021,"lat":48.418729,"orig":"","vertexType":"NORMAL"},"itineraries":[{"duration":1219,"startTime":1522702964000,"endTime":1522704183000,"walkTime":865,"transitTime":352,"waitingTime":2,"walkDistance":1093.7542556325714,"walkLimitExceeded":false,"elevationLost":0.0,"elevationGained":0.0,"transfers":0,"legs":[{"startTime":1522702964000,"endTime":1522703767000,"departureDelay":0,"arrivalDelay":0,"realTime":false,"distance":1012.222,"pathway":false,"mode":"WALK","route":"","agencyTimeZoneOffset":-14400000,"interlineWithPreviousLeg":false,"from":{"name":"Origin","lon":-71.073789,"lat":48.422574,"departure":1522702964000,"orig":"","vertexType":"NORMAL"},"to":{"name":"Jacques-Cartier / Morin","stopId":"1:70","stopCode":"70","lon":-71.064766,"lat":48.426469,"arrival":1522703767000,"departure":1522703768000,"zoneId":"NA","stopIndex":1,"stopSequence":2,"vertexType":"TRANSIT"},"legGeometry":{"points":"_ppfHbqxpL@@Ju@d@a@JIH]DS^kAJ[ZsAKAs@Cc@AaAACSAUO{@Kk@[W@YBy@AMGQg@oAc@kAi@uAUy@c@o@MMi@oAaBuDg@eAo@qBk@g@Ao@QG_@C{BUsAGDwC@s@","length":41},"rentedBike":false,"transitLeg":false,"duration":803.0,"steps":[{"distance":22.358,"relativeDirection":"DEPART","streetName":"Rue Delage","absoluteDirection":"EAST","stayOn":false,"area":false,"bogusName":false,"lon":-71.07361921819961,"lat":48.422565281665584,"elevation":[]},{"distance":32.267,"relativeDirection":"RIGHT","streetName":"path","absoluteDirection":"SOUTHEAST","stayOn":false,"area":false,"bogusName":true,"lon":-71.07335160000001,"lat":48.4224996,"elevation":[]},{"distance":100.87200000000001,"relativeDirection":"SLIGHTLY_LEFT","streetName":"Boulevard de l'Université","absoluteDirection":"SOUTHEAST","stayOn":false,"area":false,"bogusName":false,"lon":-71.0731375,"lat":48.4222466,"elevation":[]},{"distance":35.173,"relativeDirection":"LEFT","streetName":"sidewalk","absoluteDirection":"NORTH","stayOn":false,"area":false,"bogusName":true,"lon":-71.0719452,"lat":48.4218053,"elevation":[]},{"distance":56.932,"relativeDirection":"CONTINUE","streetName":"Rue Lorne Ouest","absoluteDirection":"NORTH","stayOn":false,"area":false,"bogusName":false,"lon":-71.0719153,"lat":48.422121000000004,"elevation":[]},{"distance":74.692,"relativeDirection":"RIGHT","streetName":"alley","absoluteDirection":"EAST","stayOn":false,"area":false,"bogusName":true,"lon":-71.0718933,"lat":48.4226328,"elevation":[]},{"distance":30.689999999999998,"relativeDirection":"RIGHT","streetName":"Rue Lorne Ouest","absoluteDirection":"EAST","stayOn":false,"area":false,"bogusName":false,"lon":-71.0710413,"lat":48.4229422,"elevation":[]},{"distance":421.72799999999995,"relativeDirection":"SLIGHTLY_LEFT","streetName":"path","absoluteDirection":"NORTHEAST","stayOn":false,"area":false,"bogusName":true,"lon":-71.07062780000001,"lat":48.4229131,"elevation":[]},{"distance":17.515,"relativeDirection":"RIGHT","streetName":"Rue Price Est","absoluteDirection":"EAST","stayOn":false,"area":false,"bogusName":false,"lon":-71.0662212,"lat":48.425276600000004,"elevation":[]},{"distance":144.77,"relativeDirection":"LEFT","streetName":"Rue Morin","absoluteDirection":"NORTH","stayOn":false,"area":false,"bogusName":false,"lon":-71.06598410000001,"lat":48.4252842,"elevation":[]},{"distance":75.225,"relativeDirection":"RIGHT","streetName":"Rue Jacques-Cartier Est","absoluteDirection":"EAST","stayOn":false,"area":false,"bogusName":false,"lon":-71.0657774,"lat":48.426577300000005,"elevation":[]}]},{"startTime":1522703768000,"endTime":1522704120000,"departureDelay":0,"arrivalDelay":0,"realTime":false,"distance":1621.209939040986,"pathway":false,"mode":"BUS","route":"27","agencyName":"Société de Transport du Saguenay","agencyUrl":"http://ville.saguenay.ca/fr/services-aux-citoyens/transport-sts","agencyTimeZoneOffset":-14400000,"routeColor":"00FFFF","routeType":3,"routeId":"1:27","routeTextColor":"000000","interlineWithPreviousLeg":false,"tripBlockId":"100","headsign":"Terminus Chicoutimi","agencyId":"0","tripId":"1:218761","serviceDate":"20180402","from":{"name":"Jacques-Cartier / Morin","stopId":"1:70","stopCode":"70","lon":-71.064766,"lat":48.426469,"arrival":1522703767000,"departure":1522703768000,"zoneId":"NA","stopIndex":1,"stopSequence":2,"vertexType":"TRANSIT"},"to":{"name":"Université du Québec à Chicoutimi","stopId":"1:1927","stopCode":"1927","lon":-71.052171,"lat":48.419234,"arrival":1522704120000,"departure":1522704121000,"zoneId":"NA","stopIndex":8,"stopSequence":9,"vertexType":"TRANSIT"},"legGeometry":{"points":"whqfHvyvpLRcFJgLNuNDkCHkFVoKT}@dBnBBBpIlIp@n@l@_Bt@cATm@N}@?i@AgAAIG{@ScBCg@@i@rCmJf@wA~AbBzA|AtCsIFIHAtEpE","length":31},"routeShortName":"27","routeLongName":"St-Honoré","rentedBike":false,"transitLeg":true,"duration":352.0,"steps":[]},{"startTime":1522704121000,"endTime":1522704183000,"departureDelay":0,"arrivalDelay":0,"realTime":false,"distance":81.33000000000001,"pathway":false,"mode":"WALK","route":"","agencyTimeZoneOffset":-14400000,"interlineWithPreviousLeg":false,"from":{"name":"Université du Québec à Chicoutimi","stopId":"1:1927","stopCode":"1927","lon":-71.052171,"lat":48.419234,"arrival":1522704120000,"departure":1522704121000,"zoneId":"NA","stopIndex":8,"stopSequence":9,"vertexType":"TRANSIT"},"to":{"name":"Destination","lon":-71.053021,"lat":48.418729,"arrival":1522704183000,"orig":"","vertexType":"NORMAL"},"legGeometry":{"points":"i{ofHjktpLB@vBtB","length":3},"rentedBike":false,"transitLeg":false,"duration":62.0,"steps":[{"distance":81.33000000000001,"relativeDirection":"DEPART","streetName":"path","absoluteDirection":"SOUTHWEST","stayOn":false,"area":false,"bogusName":true,"lon":-71.05221121256777,"lat":48.419251445558785,"elevation":[]}]}],"tooSloped":false},{"duration":1448,"startTime":1522702800000,"endTime":1522704248000,"walkTime":1448,"transitTime":0,"waitingTime":0,"walkDistance":1866.6385037528967,"walkLimitExceeded":false,"elevationLost":0.0,"elevationGained":0.0,"transfers":0,"legs":[{"startTime":1522702800000,"endTime":1522704248000,"departureDelay":0,"arrivalDelay":0,"realTime":false,"distance":1866.437,"pathway":false,"mode":"WALK","route":"","agencyTimeZoneOffset":-14400000,"interlineWithPreviousLeg":false,"from":{"name":"Origin","lon":-71.073789,"lat":48.422574,"departure":1522702800000,"orig":"","vertexType":"NORMAL"},"to":{"name":"Destination","lon":-71.053021,"lat":48.418729,"arrival":1522704248000,"orig":"","vertexType":"NORMAL"},"legGeometry":{"points":"_ppfHbqxpL@@Ju@d@a@JIH]DS^kAJ[ZsAZ_BHeCL}H?UBkAHaDRuH?UBuANgI@y@DmBVaIHgERuDHe@b@oBl@gBx@oAv@u@dEaEGO_@qAS{@e@mBBiA@wBKa@U[v@{BFa@E]YYe@a@Zy@Rk@X}@vBtB","length":48},"rentedBike":false,"transitLeg":false,"duration":1448.0,"steps":[{"distance":22.358,"relativeDirection":"DEPART","streetName":"Rue Delage","absoluteDirection":"EAST","stayOn":false,"area":false,"bogusName":false,"lon":-71.07361921819961,"lat":48.422565281665584,"elevation":[]},{"distance":32.267,"relativeDirection":"RIGHT","streetName":"path","absoluteDirection":"SOUTHEAST","stayOn":false,"area":false,"bogusName":true,"lon":-71.07335160000001,"lat":48.4224996,"elevation":[]},{"distance":1321.999,"relativeDirection":"SLIGHTLY_LEFT","streetName":"Boulevard de l'Université","absoluteDirection":"SOUTHEAST","stayOn":false,"area":false,"bogusName":false,"lon":-71.0731375,"lat":48.4222466,"elevation":[]},{"distance":112.815,"relativeDirection":"LEFT","streetName":"Rue Newton","absoluteDirection":"NORTHEAST","stayOn":false,"area":false,"bogusName":false,"lon":-71.0569061,"lat":48.4189492,"elevation":[]},{"distance":27.625,"relativeDirection":"SLIGHTLY_RIGHT","streetName":"Rue Newton","absoluteDirection":"EAST","stayOn":true,"area":false,"bogusName":false,"lon":-71.05556510000001,"lat":48.4194344,"elevation":[]},{"distance":74.519,"relativeDirection":"CONTINUE","streetName":"Chemin Saint Thomas","absoluteDirection":"EAST","stayOn":false,"area":false,"bogusName":false,"lon":-71.0551914,"lat":48.4194198,"elevation":[]},{"distance":122.724,"relativeDirection":"RIGHT","streetName":"service road","absoluteDirection":"SOUTHEAST","stayOn":false,"area":false,"bogusName":true,"lon":-71.05428950000001,"lat":48.4195775,"elevation":[]},{"distance":152.13,"relativeDirection":"RIGHT","streetName":"path","absoluteDirection":"SOUTHEAST","stayOn":true,"area":false,"bogusName":true,"lon":-71.05304550000001,"lat":48.4196048,"elevation":[]}]}],"tooSloped":false},{"duration":755,"startTime":1522704183000,"endTime":1522704938000,"walkTime":439,"transitTime":314,"waitingTime":2,"walkDistance":539.9628571366342,"walkLimitExceeded":false,"elevationLost":0.0,"elevationGained":0.0,"transfers":0,"legs":[{"startTime":1522704183000,"endTime":1522704345000,"departureDelay":0,"arrivalDelay":0,"realTime":false,"distance":191.251,"pathway":false,"mode":"WALK","route":"","agencyTimeZoneOffset":-14400000,"interlineWithPreviousLeg":false,"from":{"name":"Origin","lon":-71.073789,"lat":48.422574,"departure":1522704183000,"orig":"","vertexType":"NORMAL"},"to":{"name":"Audet / boul. Université","stopId":"1:553","stopCode":"553","lon":-71.072005,"lat":48.421488,"arrival":1522704345000,"departure":1522704346000,"zoneId":"NA","stopIndex":28,"stopSequence":29,"vertexType":"TRANSIT"},"legGeometry":{"points":"_ppfHbqxpL@@Ju@d@a@JIH]PVx@eCVcAf@B","length":10},"rentedBike":false,"transitLeg":false,"duration":162.0,"steps":[{"distance":22.358,"relativeDirection":"DEPART","streetName":"Rue Delage","absoluteDirection":"EAST","stayOn":false,"area":false,"bogusName":false,"lon":-71.07361921819961,"lat":48.422565281665584,"elevation":[]},{"distance":32.267,"relativeDirection":"RIGHT","streetName":"path","absoluteDirection":"SOUTHEAST","stayOn":false,"area":false,"bogusName":true,"lon":-71.07335160000001,"lat":48.4224996,"elevation":[]},{"distance":113.507,"relativeDirection":"SLIGHTLY_LEFT","streetName":"Boulevard de l'Université","absoluteDirection":"SOUTHEAST","stayOn":false,"area":false,"bogusName":false,"lon":-71.0731375,"lat":48.4222466,"elevation":[]},{"distance":23.119,"relativeDirection":"RIGHT","streetName":"Rue Audet","absoluteDirection":"SOUTH","stayOn":false,"area":false,"bogusName":false,"lon":-71.07209830000001,"lat":48.421699100000005,"elevation":[]}]},{"startTime":1522704346000,"endTime":1522704660000,"departureDelay":0,"arrivalDelay":0,"realTime":false,"distance":1376.7732976059647,"pathway":false,"mode":"BUS","route":"14","agencyName":"Société de Transport du Saguenay","agencyUrl":"http://ville.saguenay.ca/fr/services-aux-citoyens/transport-sts","agencyTimeZoneOffset":-14400000,"routeColor":"C0C000","routeType":3,"routeId":"1:14","routeTextColor":"000000","interlineWithPreviousLeg":false,"tripBlockId":"31","headsign":"Terminus Chicoutimi","agencyId":"0","tripId":"1:218143","serviceDate":"20180402","from":{"name":"Audet / boul. Université","stopId":"1:553","stopCode":"553","lon":-71.072005,"lat":48.421488,"arrival":1522704345000,"departure":1522704346000,"zoneId":"NA","stopIndex":28,"stopSequence":29,"vertexType":"TRANSIT"},"to":{"name":"Terminus UQAC","stopId":"1:1670","stopCode":"1670","lon":-71.053369,"lat":48.420903,"arrival":1522704660000,"departure":1522704661000,"zoneId":"NA","stopIndex":29,"stopSequence":30,"vertexType":"TRANSIT"},"legGeometry":{"points":"iipfHxgxpLg@CPcALuCx@{b@t@{[XoDd@sBl@iB~@gA`G{F{A{D_@sBFqDOq@iG{F","length":16},"routeShortName":"14","routeLongName":"Coopérative","rentedBike":false,"transitLeg":true,"duration":314.0,"steps":[]},{"startTime":1522704661000,"endTime":1522704938000,"departureDelay":0,"arrivalDelay":0,"realTime":false,"distance":348.51900000000006,"pathway":false,"mode":"WALK","route":"","agencyTimeZoneOffset":-14400000,"interlineWithPreviousLeg":false,"from":{"name":"Terminus UQAC","stopId":"1:1670","stopCode":"1670","lon":-71.053369,"lat":48.420903,"arrival":1522704660000,"departure":1522704661000,"zoneId":"NA","stopIndex":29,"stopSequence":30,"vertexType":"TRANSIT"},"to":{"name":"Destination","lon":-71.053021,"lat":48.418729,"arrival":1522704938000,"orig":"","vertexType":"NORMAL"},"legGeometry":{"points":"sepfHrrtpLbA`ATq@f@wAd@wATs@X{@p@Y~@`AB@vBtB","length":11},"rentedBike":false,"transitLeg":false,"duration":277.0,"steps":[{"distance":269.46700000000004,"relativeDirection":"DEPART","streetName":"service road","absoluteDirection":"SOUTHWEST","stayOn":false,"area":false,"bogusName":true,"lon":-71.0533724395415,"lat":48.420904465432976,"elevation":[]},{"distance":79.052,"relativeDirection":"CONTINUE","streetName":"path","absoluteDirection":"SOUTHWEST","stayOn":false,"area":false,"bogusName":false,"lon":-71.05222810000001,"lat":48.41923430000001,"elevation":[]}]}],"tooSloped":false}]},"debugOutput":{"precalculationTime":49,"pathCalculationTime":28,"pathTimes":[15,7,6],"renderingTime":1,"totalTime":78,"timedOut":false},"elevationMetadata":{"ellipsoidToGeoidDifference":-28.885904201182168,"geoidElevation":false}}