{"requestParameters":{"date":"2018/04/02","walkSpeed":"1.33","walkReluctance":"2.0","fromPlace":"48.411741,-71.085474","maxWalkDistance":"3000","waitReluctance":"1.0","carSpeed":"33","numItineraries":"3","waitAtBeginningFactor":"0.4","mode":"TRANSIT,WALK","ignoreRealtimeUpdates":"false","stairsReluctance":"2.0","toPlace":"48.42636,-71.062753","time":"18:30:00"},"plan":{"date":1522708200000,"from":{"name":"Origin","lon":-71.085474,"lat":48.411741,"orig":"","vertexType":"NORMAL"},"to":{"name":"Destination","lon":-71.062753,"lat":48.42636,"orig":"","vertexType":"NORMAL"},"itineraries":[{"duration":1373,"startTime":1522709049000,"endTime":1522710422000,"walkTime":485,"transitTime":886,"waitingTime":2,"walkDistance":626.8087744341614,"walkLimitExceeded":false,"elevationLost":0.0,"elevationGained":0.0,"transfers":0,"legs":[{"startTime":1522709049000,"endTime":1522709476000,"departureDelay":0,"arrivalDelay":0,"realTime":false,"distance":552.0609999999999,"pathway":false,"mode":"WALK","route":"","agencyTimeZoneOffset":-14400000,"interlineWithPreviousLeg":false,"from":{"name":"Origin","lon":-71.085474,"lat":48.411741,"departure":1522709049000,"orig":"","vertexType":"NORMAL"},"to":{"name":"Boily / Garnier","stopId":"1:1561","stopCode":"1561","lon":-71.0798,"lat":48.4117,"arrival":1522709476000,"departure":1522709477000,"zoneId":"NA","stopIndex":21,"stopSequence":22,"vertexType":"TRANSIT"},"legGeometry":{"points":"emnfHt|zpLcB{Bi@_Ac@kCf@YnAoBz@gDXaDV{Bz@wDoAs@CA","length":12},"rentedBike":false,"transitLeg":false,"duration":427.0,"steps":[{"distance":160.997,"relativeDirection":"DEPART","streetName":"Rue la Brosse","absoluteDirection":"NORTHEAST","stayOn":false,"area":false,"bogusName":false,"lon":-71.08570945215125,"lat":48.411871455260986,"elevation":[]},{"distance":339.971,"relativeDirection":"RIGHT","streetName":"Rue Garnier","absoluteDirection":"SOUTHEAST","stayOn":false,"area":false,"bogusName":false,"lon":-71.08406620000001,"lat":48.412762900000004,"elevation":[]},{"distance":51.092999999999996,"relativeDirection":"LEFT","streetName":"Rue Boily","absoluteDirection":"NORTHEAST","stayOn":false,"area":false,"bogusName":false,"lon":-71.0801867,"lat":48.41131,"elevation":[]}]},{"startTime":1522709477000,"endTime":1522710363000,"departureDelay":0,"arrivalDelay":0,"realTime":false,"distance":3867.899993802172,"pathway":false,"mode":"BUS","route":"14","agencyName":"Société de Transport du Saguenay","agencyUrl":"http://ville.saguenay.ca/fr/services-aux-citoyens/transport-sts","agencyTimeZoneOffset":-14400000,"routeColor":"C0C000","routeType":3,"routeId":"1:14","routeTextColor":"000000","interlineWithPreviousLeg":false,"tripBlockId":"33","headsign":"Terminus Chicoutimi","agencyId":"0","tripId":"1:218196","serviceDate":"20180402","from":{"name":"Boily / Garnier","stopId":"1:1561","stopCode":"1561","lon":-71.0798,"lat":48.4117,"arrival":1522709476000,"departure":1522709477000,"zoneId":"NA","stopIndex":21,"stopSequence":22,"vertexType":"TRANSIT"},"to":{"name":"Conservatoire (Jacques-Cartier)","stopId":"1:69","stopCode":"69","lon":-71.06173,"lat":48.42643,"arrival":1522710363000,"departure":1522710364000,"zoneId":"NA","stopIndex":35,"stopSequence":36,"vertexType":"TRANSIT"},"legGeometry":{"points":"glnfHdxypL_@Um@U{AWgB_Au@s@EEsBkCqFgF{IiI][aBhE}@}@oBmBwE{EwE{Ej@mBZeAa@SyEQg@CPcALuCx@{b@t@{[XoDd@sBl@iB~@gA`G{F{A{D_@sBFqDOq@iG{FGIoCkCgBgBsDpLHzBBT`@~COnBQf@gAjAg@bBuDmDmFgFa@_@w@s@CfAOrBEtAGbA?jBQtC?|@ExKMdI","length":59},"routeShortName":"14","routeLongName":"Coopérative","rentedBike":false,"transitLeg":true,"duration":886.0,"steps":[]},{"startTime":1522710364000,"endTime":1522710422000,"departureDelay":0,"arrivalDelay":0,"realTime":false,"distance":74.68799999999999,"pathway":false,"mode":"WALK","route":"","agencyTimeZoneOffset":-14400000,"interlineWithPreviousLeg":false,"from":{"name":"Conservatoire (Jacques-Cartier)","stopId":"1:69","stopCode":"69","lon":-71.06173,"lat":48.42643,"arrival":1522710363000,"departure":1522710364000,"zoneId":"NA","stopIndex":35,"stopSequence":36,"vertexType":"TRANSIT"},"to":{"name":"Destination","lon":-71.062753,"lat":48.42636,"arrival":1522710422000,"orig":"","vertexType":"NORMAL"},"legGeometry":{"points":"ygqfHzfvpLCfBCdAAX?@","length":5},"rentedBike":false,"transitLeg":false,"duration":58.0,"steps":[{"distance":74.68799999999999,"relativeDirection":"DEPART","streetName":"Rue Jacques-Cartier Est","absoluteDirection":"WEST","stayOn":false,"area":false,"bogusName":false,"lon":-71.06173262650398,"lat":48.42637987728782,"elevation":[]}]}],"tooSloped":false},{"duration":1059,"startTime":1522709804000,"endTime":1522710863000,"walkTime":628,"transitTime":429,"waitingTime":2,"walkDistance":792.9227593935349,"walkLimitExceeded":false,"elevationLost":0.0,"elevationGained":0.0,"transfers":0,"legs":[{"startTime":1522709804000,"endTime":1522710119000,"departureDelay":0,"arrivalDelay":0,"realTime":false,"distance":394.0290000000001,"pathway":false,"mode":"WALK","route":"","agencyTimeZoneOffset":-14400000,"interlineWithPreviousLeg":false,"from":{"name":"Origin","lon":-71.085474,"lat":48.411741,"departure":1522709804000,"orig":"","vertexType":"NORMAL"},"to":{"name":"Saint-Paul / Sainte-Thérèse","stopId":"1:1890","stopCode":"1890","lon":-71.083492,"lat":48.414412,"arrival":1522710119000,"departure":1522710120000,"zoneId":"NA","stopIndex":18,"stopSequence":19,"vertexType":"TRANSIT"},"legGeometry":{"points":"emnfHt|zpLcB{Bi@_Ac@kCoAh@IB[PSJe@VIVQUgAgBg@y@Yc@","length":14},"rentedBike":false,"transitLeg":false,"duration":315.0,"steps":[{"distance":160.997,"relativeDirection":"DEPART","streetName":"Rue la Brosse","absoluteDirection":"NORTHEAST","stayOn":false,"area":false,"bogusName":false,"lon":-71.08570945215125,"lat":48.411871455260986,"elevation":[]},{"distance":47.101,"relativeDirection":"LEFT","streetName":"Rue Garnier","absoluteDirection":"NORTH","stayOn":false,"area":false,"bogusName":false,"lon":-71.08406620000001,"lat":48.412762900000004,"elevation":[]},{"distance":67.896,"relativeDirection":"CONTINUE","streetName":"Rue Saint-Augustin","absoluteDirection":"NORTH","stayOn":false,"area":false,"bogusName":false,"lon":-71.0842714,"lat":48.413164,"elevation":[]},{"distance":118.035,"relativeDirection":"RIGHT","streetName":"Rue Saint-Paul","absoluteDirection":"NORTHEAST","stayOn":false,"area":false,"bogusName":false,"lon":-71.0846811,"lat":48.413698000000004,"elevation":[]}]},{"startTime":1522710120000,"endTime":1522710549000,"departureDelay":0,"arrivalDelay":0,"realTime":false,"distance":2162.2966160459437,"pathway":false,"mode":"BUS","route":"11","agencyName":"Société de Transport du Saguenay","agencyUrl":"http://ville.saguenay.ca/fr/services-aux-citoyens/transport-sts","agencyTimeZoneOffset":-14400000,"routeColor":"FF0000","routeType":3,"routeId":"1:11","routeTextColor":"FFFFFF","interlineWithPreviousLeg":false,"tripBlockId":"37","headsign":"Terminus Chicoutimi","agencyId":"0","tripId":"1:218327","serviceDate":"20180402","from":{"name":"Saint-Paul / Sainte-Thérèse","stopId":"1:1890","stopCode":"1890","lon":-71.083492,"lat":48.414412,"arrival":1522710119000,"departure":1522710120000,"zoneId":"NA","stopIndex":18,"stopSequence":19,"vertexType":"TRANSIT"},"to":{"name":"Price / Lemieux","stopId":"1:1897","stopCode":"1897","lon":-71.067472,"lat":48.425313,"arrival":1522710549000,"departure":1522710550000,"zoneId":"NA","stopIndex":29,"stopSequence":30,"vertexType":"TRANSIT"},"legGeometry":{"points":"k}nfHlozpLkHgL{C{E}AcCc@o@q@gAOWwCyCyGyG_IaIs@rBEHwAtDmBvEOd@[bBK~AIf@YHE@Q@O?OCI_@GMEKI_AB_A?Yo@IKCIEIIKOEKCKe@}BKs@CQAUE_A@yCFcDVsLDaCD_@kBKW?e@Q_BQNuEDuBXmN","length":53},"routeShortName":"11","routeLongName":"Chic/Faubourg via St-Paul","rentedBike":false,"transitLeg":true,"duration":429.0,"steps":[]},{"startTime":1522710550000,"endTime":1522710863000,"departureDelay":0,"arrivalDelay":0,"realTime":false,"distance":398.74,"pathway":false,"mode":"WALK","route":"","agencyTimeZoneOffset":-14400000,"interlineWithPreviousLeg":false,"from":{"name":"Price / Lemieux","stopId":"1:1897","stopCode":"1897","lon":-71.067472,"lat":48.425313,"arrival":1522710549000,"departure":1522710550000,"zoneId":"NA","stopIndex":29,"stopSequence":30,"vertexType":"TRANSIT"},"to":{"name":"Destination","lon":-71.062753,"lat":48.42636,"arrival":1522710863000,"orig":"","vertexType":"NORMAL"},"legGeometry":{"points":"kaqfHtjwpLDeBDgB@i@Ao@QGWo@Wo@u@kBcAyBs@qB@WBe@DwB?Q","length":15},"rentedBike":false,"transitLeg":false,"duration":313.0,"steps":[{"distance":109.845,"relativeDirection":"DEPART","streetName":"Rue Price Est","absoluteDirection":"EAST","stayOn":false,"area":false,"bogusName":false,"lon":-71.06746868871497,"lat":48.425341175781035,"elevation":[]},{"distance":10.208,"relativeDirection":"LEFT","streetName":"Rue Morin","absoluteDirection":"NORTH","stayOn":false,"area":false,"bogusName":false,"lon":-71.06598410000001,"lat":48.4252842,"elevation":[]},{"distance":204.015,"relativeDirection":"SLIGHTLY_RIGHT","streetName":"path","absoluteDirection":"NORTHEAST","stayOn":false,"area":false,"bogusName":true,"lon":-71.0659473,"lat":48.425372700000004,"elevation":[]},{"distance":74.672,"relativeDirection":"RIGHT","streetName":"Rue Jacques-Cartier Est","absoluteDirection":"EAST","stayOn":false,"area":false,"bogusName":false,"lon":-71.0637497,"lat":48.426484800000004,"elevation":[]}]}],"tooSloped":false},{"duration":1059,"startTime":1522711604000,"endTime":1522712663000,"walkTime":628,"transitTime":429,"waitingTime":2,"walkDistance":792.9227593935349,"walkLimitExceeded":false,"elevationLost":0.0,"elevationGained":0.0,"transfers":0,"legs":[{"startTime":1522711604000,"endTime":1522711919000,"departureDelay":0,"arrivalDelay":0,"realTime":false,"distance":394.0290000000001,"pathway":false,"mode":"WALK","route":"","agencyTimeZoneOffset":-14400000,"interlineWithPreviousLeg":false,"from":{"name":"Origin","lon":-71.085474,"lat":48.411741,"departure":1522711604000,"orig":"","vertexType":"NORMAL"},"to":{"name":"Saint-Paul / Sainte-Thérèse","stopId":"1:1890","stopCode":"1890","lon":-71.083492,"lat":48.414412,"arrival":1522711919000,"departure":1522711920000,"zoneId":"NA","stopIndex":18,"stopSequence":19,"vertexType":"TRANSIT"},"legGeometry":{"points":"emnfHt|zpLcB{Bi@_Ac@kCoAh@IB[PSJe@VIVQUgAgBg@y@Yc@","length":14},"rentedBike":false,"transitLeg":false,"duration":315.0,"steps":[{"distance":160.997,"relativeDirection":"DEPART","streetName":"Rue la Brosse","absoluteDirection":"NORTHEAST","stayOn":false,"area":false,"bogusName":false,"lon":-71.08570945215125,"lat":48.411871455260986,"elevation":[]},{"distance":47.101,"relativeDirection":"LEFT","streetName":"Rue Garnier","absoluteDirection":"NORTH","stayOn":false,"area":false,"bogusName":false,"lon":-71.08406620000001,"lat":48.412762900000004,"elevation":[]},{"distance":67.896,"relativeDirection":"CONTINUE","streetName":"Rue Saint-Augustin","absoluteDirection":"NORTH","stayOn":false,"area":false,"bogusName":false,"lon":-71.0842714,"lat":48.413164,"elevation":[]},{"distance":118.035,"relativeDirection":"RIGHT","streetName":"Rue Saint-Paul","absoluteDirection":"NORTHEAST","stayOn":false,"area":false,"bogusName":false,"lon":-71.0846811,"lat":48.413698000000004,"elevation":[]}]},{"startTime":1522711920000,"endTime":1522712349000,"departureDelay":0,"arrivalDelay":0,"realTime":false,"distance":2162.2966160459437,"pathway":false,"mode":"BUS","route":"11","agencyName":"Société de Transport du Saguenay","agencyUrl":"http://ville.saguenay.ca/fr/services-aux-citoyens/transport-sts","agencyTimeZoneOffset":-14400000,"routeColor":"FF0000","routeType":3,"routeId":"1:11","routeTextColor":"FFFFFF","interlineWithPreviousLeg":false,"tripBlockId":"34","headsign":"Terminus Chicoutimi","agencyId":"0","tripId":"1:218232","serviceDate":"20180402","from":{"name":"Saint-Paul / Sainte-Thérèse","stopId":"1:1890","stopCode":"1890","lon":-71.083492,"lat":48.414412,"arrival":1522711919000,"departure":1522711920000,"zoneId":"NA","stopIndex":18,"stopSequence":19,"vertexType":"TRANSIT"},"to":{"name":"Price / Lemieux","stopId":"1:1897","stopCode":"1897","lon":-71.067472,"lat":48.425313,"arrival":1522712349000,"departure":1522712350000,"zoneId":"NA","stopIndex":29,"stopSequence":30,"vertexType":"TRANSIT"},"legGeometry":{"points":"k}nfHlozpLkHgL{C{E}AcCc@o@q@gAOWwCyCyGyG_IaIs@rBEHwAtDmBvEOd@[bBK~AIf@YHE@Q@O?OCI_@GMEKI_AB_A?Yo@IKCIEIIKOEKCKe@}BKs@CQAUE_A@yCFcDVsLDaCD_@kBKW?e@Q_BQNuEDuBXmN","length":53},"routeShortName":"11","routeLongName":"Chic/Faubourg via St-Paul","rentedBike":false,"transitLeg":true,"duration":429.0,"steps":[]},{"startTime":1522712350000,"endTime":1522712663000,"departureDelay":0,"arrivalDelay":0,"realTime":false,"distance":398.74,"pathway":false,"mode":"WALK","route":"","agencyTimeZoneOffset":-14400000,"interlineWithPreviousLeg":false,"from":{"name":"Price / Lemieux","stopId":"1:1897","stopCode":"1897","lon":-71.067472,"lat":48.425313,"arrival":1522712349000,"departure":1522712350000,"zoneId":"NA","stopIndex":29,"stopSequence":30,"vertexType":"TRANSIT"},"to":{"name":"Destination","lon":-71.062753,"lat":48.42636,"arrival":1522712663000,"orig":"","vertexType":"NORMAL"},"legGeometry":{"points":"kaqfHtjwpLDeBDgB@i@Ao@QGWo@Wo@u@kBcAyBs@qB@WBe@DwB?Q","length":15},"rentedBike":false,"transitLeg":false,"duration":313.0,"steps":[{"distance":109.845,"relativeDirection":"DEPART","streetName":"Rue Price Est","absoluteDirection":"EAST","stayOn":false,"area":false,"bogusName":false,"lon":-71.06746868871497,"lat":48.425341175781035,"elevation":[]},{"distance":10.208,"relativeDirection":"LEFT","streetName":"Rue Morin","absoluteDirection":"NORTH","stayOn":false,"area":false,"bogusName":false,"lon":-71.06598410000001,"lat":48.4252842,"elevation":[]},{"distance":204.015,"relativeDirection":"SLIGHTLY_RIGHT","streetName":"path","absoluteDirection":"NORTHEAST","stayOn":false,"area":false,"bogusName":true,"lon":-71.0659473,"lat":48.425372700000004,"elevation":[]},{"distance":74.672,"relativeDirection":"RIGHT","streetName":"Rue Jacques-Cartier Est","absoluteDirection":"EAST","stayOn":false,"area":false,"bogusName":false,"lon":-71.0637497,"lat":48.426484800000004,"elevation":[]}]}],"tooSloped":false}]},"debugOutput":{"precalculationTime":34,"pathCalculationTime":19,"pathTimes":[12,3,4],"renderingTime":1,"totalTime":54,"timedOut":false},"elevationMetadata":{"ellipsoidToGeoidDifference":-28.885904201182168,"geoidElevation":false}}