{"requestParameters":{"date":"2018/04/02","walkSpeed":"1.33","walkReluctance":"2.0","fromPlace":"48.418937,-71.078004","maxWalkDistance":"3000","waitReluctance":"1.0","carSpeed":"33","numItineraries":"3","waitAtBeginningFactor":"0.4","mode":"TRANSIT,WALK","ignoreRealtimeUpdates":"false","stairsReluctance":"2.0","toPlace":"48.44911,-71.08157599","time":"12:45:00"},"plan":{"date":1522687500000,"from":{"name":"Origin","lon":-71.078004,"lat":48.418937,"orig":"","vertexType":"NORMAL"},"to":{"name":"Destination","lon":-71.08157599,"lat":48.44911,"orig":"","vertexType":"NORMAL"},"itineraries":[{"duration":1269,"startTime":1522688522000,"endTime":1522689791000,"walkTime":135,"transitTime":892,"waitingTime":242,"walkDistance":162.8331879674987,"walkLimitExceeded":false,"elevationLost":0.0,"elevationGained":0.0,"transfers":1,"legs":[{"startTime":1522688522000,"endTime":1522688587000,"departureDelay":0,"arrivalDelay":0,"realTime":false,"distance":77.86200000000001,"pathway":false,"mode":"WALK","route":"","agencyTimeZoneOffset":-14400000,"interlineWithPreviousLeg":false,"from":{"name":"Origin","lon":-71.078004,"lat":48.418937,"departure":1522688522000,"orig":"","vertexType":"NORMAL"},"to":{"name":"Saint-Paul / Saint-Henri","stopId":"1:1893","stopCode":"1893","lon":-71.078125,"lat":48.418447,"arrival":1522688587000,"departure":1522688588000,"zoneId":"NA","stopIndex":21,"stopSequence":22,"vertexType":"TRANSIT"},"legGeometry":{"points":"}yofH|kypLLa@x@z@`@`@@B","length":5},"rentedBike":false,"transitLeg":false,"duration":65.0,"steps":[{"distance":14.737,"relativeDirection":"DEPART","streetName":"Rue Saint-Henri","absoluteDirection":"SOUTHEAST","stayOn":false,"area":false,"bogusName":false,"lon":-71.07790082118125,"lat":48.41903560078369,"elevation":[]},{"distance":63.12499999999999,"relativeDirection":"RIGHT","streetName":"Rue Saint-Paul","absoluteDirection":"SOUTHWEST","stayOn":false,"area":false,"bogusName":false,"lon":-71.07773680000001,"lat":48.418960000000006,"elevation":[]}]},{"startTime":1522688588000,"endTime":1522689060000,"departureDelay":0,"arrivalDelay":0,"realTime":false,"distance":1949.5263047563287,"pathway":false,"mode":"BUS","route":"11","agencyName":"Société de Transport du Saguenay","agencyUrl":"http://ville.saguenay.ca/fr/services-aux-citoyens/transport-sts","agencyTimeZoneOffset":-14400000,"routeColor":"FF0000","routeType":3,"routeId":"1:11","routeTextColor":"FFFFFF","interlineWithPreviousLeg":false,"tripBlockId":"37","headsign":"Terminus Chicoutimi","agencyId":"0","tripId":"1:218315","serviceDate":"20180402","from":{"name":"Saint-Paul / Saint-Henri","stopId":"1:1893","stopCode":"1893","lon":-71.078125,"lat":48.418447,"arrival":1522688587000,"departure":1522688588000,"zoneId":"NA","stopIndex":21,"stopSequence":22,"vertexType":"TRANSIT"},"to":{"name":"Terminus Chicoutimi","stopId":"1:1289","stopCode":"1289","lon":-71.066163,"lat":48.428677,"arrival":1522689060000,"departure":1522689300000,"zoneId":"NA","stopIndex":30,"stopSequence":31,"vertexType":"TRANSIT"},"legGeometry":{"points":"ovofHzmypLyGyG_IaIs@rBEHwAtDmBvEOd@[bBK~AIf@YHE@Q@O?OCI_@GMEKI_AB_A?Yo@IKCIEIIKOEKCKe@}BKs@CQAUE_A@yCFcDVsLDaCD_@kBKW?e@Q_BQNuEDuBXmNLgHmKm@}BW{AMCn@o@G??","length":53},"routeShortName":"11","routeLongName":"Chic/Faubourg via St-Paul","rentedBike":false,"transitLeg":true,"duration":472.0,"steps":[]},{"startTime":1522689300000,"endTime":1522689720000,"departureDelay":0,"arrivalDelay":0,"realTime":false,"distance":2915.5509070662774,"pathway":false,"mode":"BUS","route":"23","agencyName":"Société de Transport du Saguenay","agencyUrl":"http://ville.saguenay.ca/fr/services-aux-citoyens/transport-sts","agencyTimeZoneOffset":-14400000,"routeColor":"FF00FF","routeType":3,"routeId":"1:23","routeTextColor":"FFFFFF","interlineWithPreviousLeg":false,"tripBlockId":"4","headsign":"Terminus Chicoutimi","agencyId":"0","tripId":"1:217236","serviceDate":"20180402","from":{"name":"Terminus Chicoutimi","stopId":"1:1289","stopCode":"1289","lon":-71.066163,"lat":48.428677,"arrival":1522689060000,"departure":1522689300000,"zoneId":"NA","stopIndex":0,"stopSequence":1,"vertexType":"TRANSIT"},"to":{"name":"École Secondaire Charles-Gravel (St-Gérard)","stopId":"1:728","stopCode":"728","lon":-71.08106,"lat":48.449225,"arrival":1522689720000,"departure":1522689721000,"zoneId":"NA","stopIndex":5,"stopSequence":6,"vertexType":"TRANSIT"},"legGeometry":{"points":"kwqfHjbwpLF_CkAOYCm@rRO\\WjGOfGCRK^KJMHQB_AMg@Gw`@eR}@g@u@Su@Ia@Ck@Dm@HwAf@c@VeAx@iAlAU^[d@eLtTsAvB_CvEuAnCmBlE}@|B_BvFoC`JCD}@hCo@~Aq@pAs@fA{BlCqH|Iq@Bq@Im@UGCUi@Wm@ScA_@gGSaE@_@@_@@E","length":55},"routeShortName":"23","routeLongName":"Côte Verdun via Aréna du Plateau","rentedBike":false,"transitLeg":true,"duration":420.0,"steps":[]},{"startTime":1522689721000,"endTime":1522689791000,"departureDelay":0,"arrivalDelay":0,"realTime":false,"distance":84.896,"pathway":false,"mode":"WALK","route":"","agencyTimeZoneOffset":-14400000,"interlineWithPreviousLeg":false,"from":{"name":"École Secondaire Charles-Gravel (St-Gérard)","stopId":"1:728","stopCode":"728","lon":-71.08106,"lat":48.449225,"arrival":1522689720000,"departure":1522689721000,"zoneId":"NA","stopIndex":5,"stopSequence":6,"vertexType":"TRANSIT"},"to":{"name":"Destination","lon":-71.08157599,"lat":48.44911,"arrival":1522689791000,"orig":"","vertexType":"NORMAL"},"legGeometry":{"points":"iwufHl_zpLCT?f@DzAn@U","length":5},"rentedBike":false,"transitLeg":false,"duration":70.0,"steps":[{"distance":57.31,"relativeDirection":"DEPART","streetName":"Rue Saint-Gérard","absoluteDirection":"WEST","stayOn":false,"area":false,"bogusName":false,"lon":-71.08102429625302,"lat":48.449334223206954,"elevation":[]},{"distance":27.586,"relativeDirection":"LEFT","streetName":"path","absoluteDirection":"SOUTH","stayOn":false,"area":false,"bogusName":false,"lon":-71.0817962,"lat":48.449325400000006,"elevation":[]}]}],"tooSloped":false},{"duration":2063,"startTime":1522687863000,"endTime":1522689926000,"walkTime":376,"transitTime":1265,"waitingTime":422,"walkDistance":473.37688721466066,"walkLimitExceeded":false,"elevationLost":0.0,"elevationGained":0.0,"transfers":1,"legs":[{"startTime":1522687863000,"endTime":1522688034000,"departureDelay":0,"arrivalDelay":0,"realTime":false,"distance":215.031,"pathway":false,"mode":"WALK","route":"","agencyTimeZoneOffset":-14400000,"interlineWithPreviousLeg":false,"from":{"name":"Origin","lon":-71.078004,"lat":48.418937,"departure":1522687863000,"orig":"","vertexType":"NORMAL"},"to":{"name":"Carrefour 216","stopId":"1:550","stopCode":"550","lon":-71.075884,"lat":48.417843,"arrival":1522688034000,"departure":1522688035000,"zoneId":"NA","stopIndex":25,"stopSequence":26,"vertexType":"TRANSIT"},"legGeometry":{"points":"}yofH|kypLLa@j@}Ax@aCHU`AoCRPRP","length":8},"rentedBike":false,"transitLeg":false,"duration":171.0,"steps":[{"distance":189.58300000000003,"relativeDirection":"DEPART","streetName":"Rue Saint-Henri","absoluteDirection":"SOUTHEAST","stayOn":false,"area":false,"bogusName":false,"lon":-71.07790082118125,"lat":48.41903560078369,"elevation":[]},{"distance":25.448,"relativeDirection":"RIGHT","streetName":"Rue Caron","absoluteDirection":"SOUTHWEST","stayOn":false,"area":false,"bogusName":false,"lon":-71.0757816,"lat":48.4180719,"elevation":[]}]},{"startTime":1522688035000,"endTime":1522688880000,"departureDelay":0,"arrivalDelay":0,"realTime":false,"distance":3574.1422919448037,"pathway":false,"mode":"BUS","route":"14","agencyName":"Société de Transport du Saguenay","agencyUrl":"http://ville.saguenay.ca/fr/services-aux-citoyens/transport-sts","agencyTimeZoneOffset":-14400000,"routeColor":"C0C000","routeType":3,"routeId":"1:14","routeTextColor":"000000","interlineWithPreviousLeg":false,"tripBlockId":"33","headsign":"Terminus Chicoutimi","agencyId":"0","tripId":"1:218184","serviceDate":"20180402","from":{"name":"Carrefour 216","stopId":"1:550","stopCode":"550","lon":-71.075884,"lat":48.417843,"arrival":1522688034000,"departure":1522688035000,"zoneId":"NA","stopIndex":25,"stopSequence":26,"vertexType":"TRANSIT"},"to":{"name":"Terminus Chicoutimi","stopId":"1:1289","stopCode":"1289","lon":-71.066163,"lat":48.428677,"arrival":1522688880000,"departure":1522689300000,"zoneId":"NA","stopIndex":37,"stopSequence":38,"vertexType":"TRANSIT"},"legGeometry":{"points":"urofHx_ypLoBmBwE{EwE{Ej@mBZeAa@SyEQg@CPcALuCx@{b@t@{[XoDd@sBl@iB~@gA`G{F{A{D_@sBFqDOq@iG{FGIoCkCgBgBsDpLHzBBT`@~COnBQf@gAjAg@bBuDmDmFgFa@_@w@s@CfAOrBEtAGbA?jBQtC?|@ExKMdIG~EUnLEhC}CKkBOkCOYbC","length":54},"routeShortName":"14","routeLongName":"Coopérative","rentedBike":false,"transitLeg":true,"duration":845.0,"steps":[]},{"startTime":1522689300000,"endTime":1522689720000,"departureDelay":0,"arrivalDelay":0,"realTime":false,"distance":2713.5858046781586,"pathway":false,"mode":"BUS","route":"21","agencyName":"Société de Transport du Saguenay","agencyUrl":"http://ville.saguenay.ca/fr/services-aux-citoyens/transport-sts","agencyTimeZoneOffset":-14400000,"routeColor":"556B2F","routeType":3,"routeId":"1:21","routeTextColor":"FFFFFF","interlineWithPreviousLeg":false,"tripBlockId":"2","headsign":"Terminus Chicoutimi","agencyId":"0","tripId":"1:217169","serviceDate":"20180402","from":{"name":"Terminus Chicoutimi","stopId":"1:1289","stopCode":"1289","lon":-71.066163,"lat":48.428677,"arrival":1522688880000,"departure":1522689300000,"zoneId":"NA","stopIndex":0,"stopSequence":1,"vertexType":"TRANSIT"},"to":{"name":"Pinel / St-Gérard","stopId":"1:99","stopCode":"99","lon":-71.079002,"lat":48.449332,"arrival":1522689720000,"departure":1522689721000,"zoneId":"NA","stopIndex":4,"stopSequence":5,"vertexType":"TRANSIT"},"legGeometry":{"points":"kwqfHjbwpLF_CeBSm@rRO\\WjGOfGCRK^KJMHQB_AMg@Gw`@eR}@g@u@Su@Ia@Ck@Dm@HwAf@c@VeAx@iAlAU^[d@eLtTsAvB_CvEuAnCmBlE}@|B_BvFoC`JCD}@hCo@~Aq@pAs@fAWs@IUC[AI?QCeGAs@Gy@Ks@Ou@OcAIcAIgAWgCG_@Og@IQS]UWYQWIUA[Da@P]RSVQ`@Ib@Ef@Et@Gf@Id@I`@Od@cCxFQOgAwA","length":77},"routeShortName":"21","routeLongName":"Boul. Ste-Geneviève/Élie","rentedBike":false,"transitLeg":true,"duration":420.0,"steps":[]},{"startTime":1522689721000,"endTime":1522689926000,"departureDelay":0,"arrivalDelay":0,"realTime":false,"distance":258.241,"pathway":false,"mode":"WALK","route":"","agencyTimeZoneOffset":-14400000,"interlineWithPreviousLeg":false,"from":{"name":"Pinel / St-Gérard","stopId":"1:99","stopCode":"99","lon":-71.079002,"lat":48.449332,"arrival":1522689720000,"departure":1522689721000,"zoneId":"NA","stopIndex":4,"stopSequence":5,"vertexType":"TRANSIT"},"to":{"name":"Destination","lon":-71.08157599,"lat":48.44911,"arrival":1522689926000,"orig":"","vertexType":"NORMAL"},"legGeometry":{"points":"wwufHvsypLzAfBILOh@S~@I\\ETIz@Ed@CT?f@DzAn@U","length":13},"rentedBike":false,"transitLeg":false,"duration":205.0,"steps":[{"distance":64.055,"relativeDirection":"DEPART","streetName":"Rue Pinel","absoluteDirection":"SOUTHWEST","stayOn":false,"area":false,"bogusName":false,"lon":-71.0791524404459,"lat":48.44940784192698,"elevation":[]},{"distance":166.6,"relativeDirection":"RIGHT","streetName":"Rue Saint-Gérard","absoluteDirection":"NORTHWEST","stayOn":false,"area":false,"bogusName":false,"lon":-71.079678,"lat":48.4489492,"elevation":[]},{"distance":27.586,"relativeDirection":"LEFT","streetName":"path","absoluteDirection":"SOUTH","stayOn":false,"area":false,"bogusName":false,"lon":-71.0817962,"lat":48.449325400000006,"elevation":[]}]}],"tooSloped":false},{"duration":1269,"startTime":1522690322000,"endTime":1522691591000,"walkTime":135,"transitTime":892,"waitingTime":242,"walkDistance":162.8331879674987,"walkLimitExceeded":false,"elevationLost":0.0,"elevationGained":0.0,"transfers":1,"legs":[{"startTime":1522690322000,"endTime":1522690387000,"departureDelay":0,"arrivalDelay":0,"realTime":false,"distance":77.86200000000001,"pathway":false,"mode":"WALK","route":"","agencyTimeZoneOffset":-14400000,"interlineWithPreviousLeg":false,"from":{"name":"Origin","lon":-71.078004,"lat":48.418937,"departure":1522690322000,"orig":"","vertexType":"NORMAL"},"to":{"name":"Saint-Paul / Saint-Henri","stopId":"1:1893","stopCode":"1893","lon":-71.078125,"lat":48.418447,"arrival":1522690387000,"departure":1522690388000,"zoneId":"NA","stopIndex":21,"stopSequence":22,"vertexType":"TRANSIT"},"legGeometry":{"points":"}yofH|kypLLa@x@z@`@`@@B","length":5},"rentedBike":false,"transitLeg":false,"duration":65.0,"steps":[{"distance":14.737,"relativeDirection":"DEPART","streetName":"Rue Saint-Henri","absoluteDirection":"SOUTHEAST","stayOn":false,"area":false,"bogusName":false,"lon":-71.07790082118125,"lat":48.41903560078369,"elevation":[]},{"distance":63.12499999999999,"relativeDirection":"RIGHT","streetName":"Rue Saint-Paul","absoluteDirection":"SOUTHWEST","stayOn":false,"area":false,"bogusName":false,"lon":-71.07773680000001,"lat":48.418960000000006,"elevation":[]}]},{"startTime":1522690388000,"endTime":1522690860000,"departureDelay":0,"arrivalDelay":0,"realTime":false,"distance":1949.5263047563287,"pathway":false,"mode":"BUS","route":"11","agencyName":"Société de Transport du Saguenay","agencyUrl":"http://ville.saguenay.ca/fr/services-aux-citoyens/transport-sts","agencyTimeZoneOffset":-14400000,"routeColor":"FF0000","routeType":3,"routeId":"1:11","routeTextColor":"FFFFFF","interlineWithPreviousLeg":false,"tripBlockId":"34","headsign":"Terminus Chicoutimi","agencyId":"0","tripId":"1:218220","serviceDate":"20180402","from":{"name":"Saint-Paul / Saint-Henri","stopId":"1:1893","stopCode":"1893","lon":-71.078125,"lat":48.418447,"arrival":1522690387000,"departure":1522690388000,"zoneId":"NA","stopIndex":21,"stopSequence":22,"vertexType":"TRANSIT"},"to":{"name":"Terminus Chicoutimi","stopId":"1:1289","stopCode":"1289","lon":-71.066163,"lat":48.428677,"arrival":1522690860000,"departure":1522691100000,"zoneId":"NA","stopIndex":30,"stopSequence":31,"vertexType":"TRANSIT"},"legGeometry":{"points":"ovofHzmypLyGyG_IaIs@rBEHwAtDmBvEOd@[bBK~AIf@YHE@Q@O?OCI_@GMEKI_AB_A?Yo@IKCIEIIKOEKCKe@}BKs@CQAUE_A@yCFcDVsLDaCD_@kBKW?e@Q_BQNuEDuBXmNLgHmKm@}BW{AMCn@o@G??","length":53},"routeShortName":"11","routeLongName":"Chic/Faubourg via St-Paul","rentedBike":false,"transitLeg":true,"duration":472.0,"steps":[]},{"startTime":1522691100000,"endTime":1522691520000,"departureDelay":0,"arrivalDelay":0,"realTime":false,"distance":2915.5509070662774,"pathway":false,"mode":"BUS","route":"23","agencyName":"Société de Transport du Saguenay","agencyUrl":"http://ville.saguenay.ca/fr/services-aux-citoyens/transport-sts","agencyTimeZoneOffset":-14400000,"routeColor":"FF00FF","routeType":3,"routeId":"1:23","routeTextColor":"FFFFFF","interlineWithPreviousLeg":false,"tripBlockId":"5","headsign":"Terminus Chicoutimi","agencyId":"0","tripId":"1:217264","serviceDate":"20180402","from":{"name":"Terminus Chicoutimi","stopId":"1:1289","stopCode":"1289","lon":-71.066163,"lat":48.428677,"arrival":1522690860000,"departure":1522691100000,"zoneId":"NA","stopIndex":0,"stopSequence":1,"vertexType":"TRANSIT"},"to":{"name":"École Secondaire Charles-Gravel (St-Gérard)","stopId":"1:728","stopCode":"728","lon":-71.08106,"lat":48.449225,"arrival":1522691520000,"departure":1522691521000,"zoneId":"NA","stopIndex":5,"stopSequence":6,"vertexType":"TRANSIT"},"legGeometry":{"points":"kwqfHjbwpLF_CkAOYCm@rRO\\WjGOfGCRK^KJMHQB_AMg@Gw`@eR}@g@u@Su@Ia@Ck@Dm@HwAf@c@VeAx@iAlAU^[d@eLtTsAvB_CvEuAnCmBlE}@|B_BvFoC`JCD}@hCo@~Aq@pAs@fA{BlCqH|Iq@Bq@Im@UGCUi@Wm@ScA_@gGSaE@_@@_@@E","length":55},"routeShortName":"23","routeLongName":"Côte Verdun via Aréna du Plateau","rentedBike":false,"transitLeg":true,"duration":420.0,"steps":[]},{"startTime":1522691521000,"endTime":1522691591000,"departureDelay":0,"arrivalDelay":0,"realTime":false,"distance":84.896,"pathway":false,"mode":"WALK","route":"","agencyTimeZoneOffset":-14400000,"interlineWithPreviousLeg":false,"from":{"name":"École Secondaire Charles-Gravel (St-Gérard)","stopId":"1:728","stopCode":"728","lon":-71.08106,"lat":48.449225,"arrival":1522691520000,"departure":1522691521000,"zoneId":"NA","stopIndex":5,"stopSequence":6,"vertexType":"TRANSIT"},"to":{"name":"Destination","lon":-71.08157599,"lat":48.44911,"arrival":1522691591000,"orig":"","vertexType":"NORMAL"},"legGeometry":{"points":"iwufHl_zpLCT?f@DzAn@U","length":5},"rentedBike":false,"transitLeg":false,"duration":70.0,"steps":[{"distance":57.31,"relativeDirection":"DEPART","streetName":"Rue Saint-Gérard","absoluteDirection":"WEST","stayOn":false,"area":false,"bogusName":false,"lon":-71.08102429625302,"lat":48.449334223206954,"elevation":[]},{"distance":27.586,"relativeDirection":"LEFT","streetName":"path","absoluteDirection":"SOUTH","stayOn":false,"area":false,"bogusName":false,"lon":-71.0817962,"lat":48.449325400000006,"elevation":[]}]}],"tooSloped":false}]},"debugOutput":{"precalculationTime":24,"pathCalculationTime":42,"pathTimes":[19,12,10],"renderingTime":0,"totalTime":66,"timedOut":false},"elevationMetadata":{"ellipsoidToGeoidDifference":-28.885904201182168,"geoidElevation":false}}