{"requestParameters":{"date":"2018/04/02","walkSpeed":"1.33","walkReluctance":"2.0","fromPlace":"48.412522,-71.05130499","maxWalkDistance":"3000","waitReluctance":"1.0","carSpeed":"33","numItineraries":"3","waitAtBeginningFactor":"0.4","mode":"TRANSIT,WALK","ignoreRealtimeUpdates":"false","stairsReluctance":"2.0","toPlace":"48.415664,-71.07621","time":"12:0:00"},"plan":{"date":1522684800000,"from":{"name":"Origin","lon":-71.05130499,"lat":48.412522,"orig":"","vertexType":"NORMAL"},"to":{"name":"Destination","lon":-71.07621,"lat":48.415664,"orig":"","vertexType":"NORMAL"},"itineraries":[{"duration":1298,"startTime":1522685430000,"endTime":1522686728000,"walkTime":165,"transitTime":771,"waitingTime":362,"walkDistance":209.4762105252119,"walkLimitExceeded":false,"elevationLost":0.0,"elevationGained":0.0,"transfers":1,"legs":[{"startTime":1522685430000,"endTime":1522685519000,"departureDelay":0,"arrivalDelay":0,"realTime":false,"distance":110.50999999999999,"pathway":false,"mode":"WALK","route":"","agencyTimeZoneOffset":-14400000,"interlineWithPreviousLeg":false,"from":{"name":"Origin","lon":-71.05130499,"lat":48.412522,"departure":1522685430000,"orig":"","vertexType":"NORMAL"},"to":{"name":"missingStopName","stopId":"1:1812","stopCode":"1812","lon":-71.051352,"lat":48.411592,"arrival":1522685519000,"departure":1522685520000,"zoneId":"NA","stopIndex":11,"stopSequence":12,"vertexType":"TRANSIT"},"legGeometry":{"points":"epnfHvftpL^aANc@TXLJx@|@","length":6},"rentedBike":false,"transitLeg":false,"duration":89.0,"steps":[{"distance":46.066,"relativeDirection":"DEPART","streetName":"Boulevard de l'Université","absoluteDirection":"SOUTHEAST","stayOn":false,"area":false,"bogusName":false,"lon":-71.05147948003304,"lat":48.412355007143375,"elevation":[]},{"distance":64.444,"relativeDirection":"RIGHT","streetName":"Boulevard Talbot","absoluteDirection":"SOUTHWEST","stayOn":false,"area":false,"bogusName":false,"lon":-71.05096660000001,"lat":48.4121189,"elevation":[]}]},{"startTime":1522685520000,"endTime":1522685760000,"departureDelay":0,"arrivalDelay":0,"realTime":false,"distance":1075.9539212340014,"pathway":false,"mode":"BUS","route":"175","agencyName":"Société de Transport du Saguenay","agencyUrl":"http://ville.saguenay.ca/fr/services-aux-citoyens/transport-sts","agencyTimeZoneOffset":-14400000,"routeColor":"FF00FF","routeType":3,"routeId":"1:175","routeTextColor":"FFFFFF","interlineWithPreviousLeg":false,"tripBlockId":"81","headsign":"Terminus Chicoutimi","agencyId":"0","tripId":"1:218659","serviceDate":"20180402","from":{"name":"missingStopName","stopId":"1:1812","stopCode":"1812","lon":-71.051352,"lat":48.411592,"arrival":1522685519000,"departure":1522685520000,"zoneId":"NA","stopIndex":11,"stopSequence":12,"vertexType":"TRANSIT"},"to":{"name":"Terminus UQAC","stopId":"1:1670","stopCode":"1670","lon":-71.053369,"lat":48.420903,"arrival":1522685760000,"departure":1522686120000,"zoneId":"NA","stopIndex":14,"stopSequence":15,"vertexType":"TRANSIT"},"legGeometry":{"points":"wknfHxftpLcBcB{E`Jc@x@qG~@{BlAk@XgSrQqB_GAeFiEeEOt@gAeA","length":13},"routeShortName":"175","routeLongName":"Term. Chic / Costco","rentedBike":false,"transitLeg":true,"duration":240.0,"steps":[]},{"startTime":1522686120000,"endTime":1522686651000,"departureDelay":0,"arrivalDelay":0,"realTime":false,"distance":2173.2875861323455,"pathway":false,"mode":"BUS","route":"14","agencyName":"Société de Transport du Saguenay","agencyUrl":"http://ville.saguenay.ca/fr/services-aux-citoyens/transport-sts","agencyTimeZoneOffset":-14400000,"routeColor":"C0C000","routeType":3,"routeId":"1:14","routeTextColor":"000000","interlineWithPreviousLeg":false,"tripBlockId":"32","headsign":"Talbot / Barrette","agencyId":"0","tripId":"1:218158","serviceDate":"20180402","from":{"name":"Terminus UQAC","stopId":"1:1670","stopCode":"1670","lon":-71.053369,"lat":48.420903,"arrival":1522685760000,"departure":1522686120000,"zoneId":"NA","stopIndex":8,"stopSequence":9,"vertexType":"TRANSIT"},"to":{"name":"Parc Saint-Joachim (Boily)","stopId":"1:525","stopCode":"525","lon":-71.077277,"lat":48.415061,"arrival":1522686651000,"departure":1522686652000,"zoneId":"NA","stopIndex":13,"stopSequence":14,"vertexType":"TRANSIT"},"legGeometry":{"points":"sepfHrrtpLdA`ATq@`E~DL`@E`Ex@hDd@`B}FtFaAzAm@xAe@jCa@nDiAbm@SpKM`H]vBhDVzCTcAvCO^bEbEzK`LfBeEtK`K","length":25},"routeShortName":"14","routeLongName":"Coopérative","rentedBike":false,"transitLeg":true,"duration":531.0,"steps":[]},{"startTime":1522686652000,"endTime":1522686728000,"departureDelay":0,"arrivalDelay":0,"realTime":false,"distance":98.932,"pathway":false,"mode":"WALK","route":"","agencyTimeZoneOffset":-14400000,"interlineWithPreviousLeg":false,"from":{"name":"Parc Saint-Joachim (Boily)","stopId":"1:525","stopCode":"525","lon":-71.077277,"lat":48.415061,"arrival":1522686651000,"departure":1522686652000,"zoneId":"NA","stopIndex":13,"stopSequence":14,"vertexType":"TRANSIT"},"to":{"name":"Destination","lon":-71.07621,"lat":48.415664,"arrival":1522686728000,"orig":"","vertexType":"NORMAL"},"legGeometry":{"points":"}`ofHrgypL]]o@k@i@g@]]","length":5},"rentedBike":false,"transitLeg":false,"duration":76.0,"steps":[{"distance":98.932,"relativeDirection":"DEPART","streetName":"Rue Boily","absoluteDirection":"NORTHEAST","stayOn":false,"area":false,"bogusName":false,"lon":-71.07721713862297,"lat":48.41503579328848,"elevation":[]}]}],"tooSloped":false},{"duration":1938,"startTime":1522684800000,"endTime":1522686738000,"walkTime":1938,"transitTime":0,"waitingTime":0,"walkDistance":2505.265075178933,"walkLimitExceeded":false,"elevationLost":0.0,"elevationGained":0.0,"transfers":0,"legs":[{"startTime":1522684800000,"endTime":1522686738000,"departureDelay":0,"arrivalDelay":0,"realTime":false,"distance":2504.985,"pathway":false,"mode":"WALK","route":"","agencyTimeZoneOffset":-14400000,"interlineWithPreviousLeg":false,"from":{"name":"Origin","lon":-71.05130499,"lat":48.412522,"departure":1522684800000,"orig":"","vertexType":"NORMAL"},"to":{"name":"Destination","lon":-71.07621,"lat":48.415664,"arrival":1522686738000,"orig":"","vertexType":"NORMAL"},"legGeometry":{"points":"epnfHvftpLq@jBELXVHHpAjALpA?tDyBCm@Ak@\\Ul@[|@eBzEGNiClHUp@Qf@WtAIf@@`ADhB`@~ADTnAdBY`@iAbD??e@pAoAnDcA|FOh@GP??k@jBn@l@LNrCpCFFBBv@v@rCpC~AvBIP}AhEi@xAc@jA{@`C_DrIaC`HQ`@iCnHe@pAXVnEjEPN","length":56},"rentedBike":false,"transitLeg":false,"duration":1938.0,"steps":[{"distance":54.342,"relativeDirection":"DEPART","streetName":"Boulevard de l'Université","absoluteDirection":"NORTHWEST","stayOn":false,"area":false,"bogusName":false,"lon":-71.05147948003304,"lat":48.412355007143375,"elevation":[]},{"distance":16.985,"relativeDirection":"LEFT","streetName":"Rue d'Alma","absoluteDirection":"SOUTHWEST","stayOn":false,"area":false,"bogusName":false,"lon":-71.0520843,"lat":48.4126337,"elevation":[]},{"distance":158.358,"relativeDirection":"CONTINUE","streetName":"Rue Thérèse-Casgrain","absoluteDirection":"SOUTHWEST","stayOn":false,"area":false,"bogusName":false,"lon":-71.0522085,"lat":48.412505100000004,"elevation":[]},{"distance":670.3929999999999,"relativeDirection":"RIGHT","streetName":"Rue Marguerite-Tellier","absoluteDirection":"NORTH","stayOn":false,"area":false,"bogusName":false,"lon":-71.05395460000001,"lat":48.411977500000006,"elevation":[]},{"distance":381.05899999999997,"relativeDirection":"RIGHT","streetName":"Rue des Champs-Élysées","absoluteDirection":"NORTHWEST","stayOn":false,"area":false,"bogusName":false,"lon":-71.0603414,"lat":48.4142597,"elevation":[]},{"distance":352.20399999999995,"relativeDirection":"LEFT","streetName":"Rue Bégin","absoluteDirection":"SOUTHWEST","stayOn":false,"area":false,"bogusName":false,"lon":-71.0647342,"lat":48.416021,"elevation":[]},{"distance":705.0190000000001,"relativeDirection":"RIGHT","streetName":"Rue Des Oblats Est","absoluteDirection":"NORTHWEST","stayOn":false,"area":false,"bogusName":false,"lon":-71.06744280000001,"lat":48.413416500000004,"elevation":[]},{"distance":166.625,"relativeDirection":"LEFT","streetName":"Rue Boily","absoluteDirection":"SOUTHWEST","stayOn":false,"area":false,"bogusName":false,"lon":-71.07527490000001,"lat":48.4170462,"elevation":[]}]}],"tooSloped":false},{"duration":1639,"startTime":1522685458000,"endTime":1522687097000,"walkTime":833,"transitTime":684,"waitingTime":122,"walkDistance":1077.2548421008478,"walkLimitExceeded":false,"elevationLost":0.0,"elevationGained":0.0,"transfers":1,"legs":[{"startTime":1522685458000,"endTime":1522685582000,"departureDelay":0,"arrivalDelay":0,"realTime":false,"distance":153.252,"pathway":false,"mode":"WALK","route":"","agencyTimeZoneOffset":-14400000,"interlineWithPreviousLeg":false,"from":{"name":"Origin","lon":-71.05130499,"lat":48.412522,"departure":1522685458000,"orig":"","vertexType":"NORMAL"},"to":{"name":"boul. Université / Murdock","stopId":"1:80","stopCode":"80","lon":-71.050111,"lat":48.411498,"arrival":1522685582000,"departure":1522685583000,"zoneId":"NA","stopIndex":14,"stopSequence":15,"vertexType":"TRANSIT"},"legGeometry":{"points":"epnfHvftpL^aANc@TX|AmE","length":5},"rentedBike":false,"transitLeg":false,"duration":124.0,"steps":[{"distance":153.252,"relativeDirection":"DEPART","streetName":"Boulevard de l'Université","absoluteDirection":"SOUTHEAST","stayOn":false,"area":false,"bogusName":false,"lon":-71.05147948003304,"lat":48.412355007143375,"elevation":[]}]},{"startTime":1522685583000,"endTime":1522685820000,"departureDelay":0,"arrivalDelay":0,"realTime":false,"distance":1625.1572422718677,"pathway":false,"mode":"BUS","route":"175","agencyName":"Société de Transport du Saguenay","agencyUrl":"http://ville.saguenay.ca/fr/services-aux-citoyens/transport-sts","agencyTimeZoneOffset":-14400000,"routeColor":"FF00FF","routeType":3,"routeId":"1:175","routeTextColor":"FFFFFF","interlineWithPreviousLeg":false,"tripBlockId":"78","headsign":"Costco","agencyId":"0","tripId":"1:218643","serviceDate":"20180402","from":{"name":"boul. Université / Murdock","stopId":"1:80","stopCode":"80","lon":-71.050111,"lat":48.411498,"arrival":1522685582000,"departure":1522685583000,"zoneId":"NA","stopIndex":14,"stopSequence":15,"vertexType":"TRANSIT"},"to":{"name":"Place du Royaume (Saguenéens)","stopId":"1:1294","stopCode":"1294","lon":-71.057691,"lat":48.402355,"arrival":1522685820000,"departure":1522685940000,"zoneId":"NA","stopIndex":20,"stopSequence":21,"vertexType":"TRANSIT"},"legGeometry":{"points":"aknfH~}spLr@sBhCsKz@dAjB|@dM`GzCvAXrCr@~Gx@]PEr@ObACn@FrBb@|@Ch@Kx@U~HsB^KZ|DJpII~Fa@rFUzBi@bD","length":26},"routeShortName":"175","routeLongName":"Term. Chic / Costco","rentedBike":false,"transitLeg":true,"duration":237.0,"steps":[]},{"startTime":1522685940000,"endTime":1522686387000,"departureDelay":0,"arrivalDelay":0,"realTime":false,"distance":2584.117414773668,"pathway":false,"mode":"BUS","route":"15","agencyName":"Société de Transport du Saguenay","agencyUrl":"http://ville.saguenay.ca/fr/services-aux-citoyens/transport-sts","agencyTimeZoneOffset":-14400000,"routeColor":"FF00FF","routeType":3,"routeId":"1:15","routeTextColor":"FFFFFF","interlineWithPreviousLeg":false,"tripBlockId":"30","headsign":"Terminus Chicoutimi","agencyId":"0","tripId":"1:218098","serviceDate":"20180402","from":{"name":"Place du Royaume (Saguenéens)","stopId":"1:1294","stopCode":"1294","lon":-71.057691,"lat":48.402355,"arrival":1522685820000,"departure":1522685940000,"zoneId":"NA","stopIndex":11,"stopSequence":12,"vertexType":"TRANSIT"},"to":{"name":"École secondaire de l'Odyssé Dominique-Racine","stopId":"1:580","stopCode":"580","lon":-71.067703,"lat":48.412977,"arrival":1522686387000,"departure":1522686388000,"zoneId":"NA","stopIndex":24,"stopSequence":25,"vertexType":"TRANSIT"},"legGeometry":{"points":"eqlfHzmupLUxAm@nCcAlDeCvGmA|CUr@}@~A_@\\_DvCEZcA|@UP_@d@Yl@oBdFeCxG_CfGYVQXS\\dK|HlFZbC\\p@zA\\rB@hBiArG{BNw@FiG}@iDwAECcCcBo@y@sEeGe@o@qAa@m@MoB?C@}BZwAc@oA_Bs@gDCKZ{Di@QECc@_@","length":50},"routeShortName":"15","routeLongName":"Term. Chic / Costco","rentedBike":false,"transitLeg":true,"duration":447.0,"steps":[]},{"startTime":1522686388000,"endTime":1522687097000,"departureDelay":0,"arrivalDelay":0,"realTime":false,"distance":923.8660000000002,"pathway":false,"mode":"WALK","route":"","agencyTimeZoneOffset":-14400000,"interlineWithPreviousLeg":false,"from":{"name":"École secondaire de l'Odyssé Dominique-Racine","stopId":"1:580","stopCode":"580","lon":-71.067703,"lat":48.412977,"arrival":1522686387000,"departure":1522686388000,"zoneId":"NA","stopIndex":24,"stopSequence":25,"vertexType":"TRANSIT"},"to":{"name":"Destination","lon":-71.07621,"lat":48.415664,"arrival":1522687097000,"orig":"","vertexType":"NORMAL"},"legGeometry":{"points":"gtnfHplwpL{@u@UIIP}AhEi@xAc@jA{@`C_DrIaC`HQ`@iCnHe@pAXVnEjEPN","length":16},"rentedBike":false,"transitLeg":false,"duration":709.0,"steps":[{"distance":52.222,"relativeDirection":"DEPART","streetName":"Rue Bégin","absoluteDirection":"NORTHEAST","stayOn":false,"area":false,"bogusName":false,"lon":-71.06776357747735,"lat":48.41300064951352,"elevation":[]},{"distance":705.0190000000001,"relativeDirection":"LEFT","streetName":"Rue Des Oblats Est","absoluteDirection":"NORTHWEST","stayOn":false,"area":false,"bogusName":false,"lon":-71.06744280000001,"lat":48.413416500000004,"elevation":[]},{"distance":166.625,"relativeDirection":"LEFT","streetName":"Rue Boily","absoluteDirection":"SOUTHWEST","stayOn":false,"area":false,"bogusName":false,"lon":-71.07527490000001,"lat":48.4170462,"elevation":[]}]}],"tooSloped":false}]},"debugOutput":{"precalculationTime":52,"pathCalculationTime":54,"pathTimes":[22,14,18],"renderingTime":1,"totalTime":107,"timedOut":false},"elevationMetadata":{"ellipsoidToGeoidDifference":-28.885904201182168,"geoidElevation":false}}