{"requestParameters":{"date":"2018/04/02","walkSpeed":"1.33","walkReluctance":"2.0","fromPlace":"48.416821,-71.080058","maxWalkDistance":"3000","waitReluctance":"1.0","carSpeed":"33","numItineraries":"3","waitAtBeginningFactor":"0.4","mode":"TRANSIT,WALK","ignoreRealtimeUpdates":"false","stairsReluctance":"2.0","toPlace":"48.428131,-71.066743","time":"9:0:00"},"plan":{"date":1522674000000,"from":{"name":"Origin","lon":-71.080058,"lat":48.416821,"orig":"","vertexType":"NORMAL"},"to":{"name":"Destination","lon":-71.066743,"lat":48.428131,"orig":"","vertexType":"NORMAL"},"itineraries":[{"duration":661,"startTime":1522674127000,"endTime":1522674788000,"walkTime":166,"transitTime":493,"waitingTime":2,"walkDistance":211.25983458537442,"walkLimitExceeded":false,"elevationLost":0.0,"elevationGained":0.0,"transfers":0,"legs":[{"startTime":1522674127000,"endTime":1522674166000,"departureDelay":0,"arrivalDelay":0,"realTime":false,"distance":49.86,"pathway":false,"mode":"WALK","route":"","agencyTimeZoneOffset":-14400000,"interlineWithPreviousLeg":false,"from":{"name":"Origin","lon":-71.080058,"lat":48.416821,"departure":1522674127000,"orig":"","vertexType":"NORMAL"},"to":{"name":"Saint-Paul / Cimon","stopId":"1:1892","stopCode":"1892","lon":-71.079616,"lat":48.417161,"arrival":1522674166000,"departure":1522674167000,"zoneId":"NA","stopIndex":20,"stopSequence":21,"vertexType":"TRANSIT"},"legGeometry":{"points":"mlofH|yypLu@mAIO","length":3},"rentedBike":false,"transitLeg":false,"duration":39.0,"steps":[{"distance":49.86,"relativeDirection":"DEPART","streetName":"Rue Saint-Paul","absoluteDirection":"NORTHEAST","stayOn":false,"area":false,"bogusName":false,"lon":-71.08014208643895,"lat":48.41687467369117,"elevation":[]}]},{"startTime":1522674167000,"endTime":1522674660000,"departureDelay":0,"arrivalDelay":0,"realTime":false,"distance":2129.9586378097606,"pathway":false,"mode":"BUS","route":"11","agencyName":"Société de Transport du Saguenay","agencyUrl":"http://ville.saguenay.ca/fr/services-aux-citoyens/transport-sts","agencyTimeZoneOffset":-14400000,"routeColor":"FF0000","routeType":3,"routeId":"1:11","routeTextColor":"FFFFFF","interlineWithPreviousLeg":false,"tripBlockId":"37","headsign":"Terminus Chicoutimi","agencyId":"0","tripId":"1:218307","serviceDate":"20180402","from":{"name":"Saint-Paul / Cimon","stopId":"1:1892","stopCode":"1892","lon":-71.079616,"lat":48.417161,"arrival":1522674166000,"departure":1522674167000,"zoneId":"NA","stopIndex":20,"stopSequence":21,"vertexType":"TRANSIT"},"to":{"name":"Terminus Chicoutimi","stopId":"1:1289","stopCode":"1289","lon":-71.066163,"lat":48.428677,"arrival":1522674660000,"departure":1522674661000,"zoneId":"NA","stopIndex":30,"stopSequence":31,"vertexType":"TRANSIT"},"legGeometry":{"points":"qnofHdwypLc@o@q@gAOWwCyCyGyG_IaIs@rBEHwAtDmBvEOd@[bBK~AIf@YHE@Q@O?OCI_@GMEKI_AB_A?Yo@IKCIEIIKOEKCKe@}BKs@CQAUE_A@yCFcDVsLDaCD_@kBKW?e@Q_BQNuEDuBXmNLgHmKm@}BW{AMCn@o@G??","length":57},"routeShortName":"11","routeLongName":"Chic/Faubourg via St-Paul","rentedBike":false,"transitLeg":true,"duration":493.0,"steps":[]},{"startTime":1522674661000,"endTime":1522674788000,"departureDelay":0,"arrivalDelay":0,"realTime":false,"distance":161.36599999999999,"pathway":false,"mode":"WALK","route":"","agencyTimeZoneOffset":-14400000,"interlineWithPreviousLeg":false,"from":{"name":"Terminus Chicoutimi","stopId":"1:1289","stopCode":"1289","lon":-71.066163,"lat":48.428677,"arrival":1522674660000,"departure":1522674661000,"zoneId":"NA","stopIndex":30,"stopSequence":31,"vertexType":"TRANSIT"},"to":{"name":"Destination","lon":-71.066743,"lat":48.428131,"arrival":1522674788000,"orig":"","vertexType":"NORMAL"},"legGeometry":{"points":"{uqfHb~vpLbAJR@JDb@LM`F","length":6},"rentedBike":false,"transitLeg":false,"duration":127.0,"steps":[{"distance":77.207,"relativeDirection":"DEPART","streetName":"Rue Morin","absoluteDirection":"SOUTH","stayOn":false,"area":false,"bogusName":false,"lon":-71.0654590096484,"lat":48.428628638946556,"elevation":[]},{"distance":84.159,"relativeDirection":"RIGHT","streetName":"Rue Racine Est","absoluteDirection":"WEST","stayOn":false,"area":false,"bogusName":false,"lon":-71.0656238,"lat":48.4279449,"elevation":[]}]}],"tooSloped":false},{"duration":1450,"startTime":1522674000000,"endTime":1522675450000,"walkTime":1450,"transitTime":0,"waitingTime":0,"walkDistance":1861.9922180374588,"walkLimitExceeded":false,"elevationLost":0.0,"elevationGained":0.0,"transfers":0,"legs":[{"startTime":1522674000000,"endTime":1522675450000,"departureDelay":0,"arrivalDelay":0,"realTime":false,"distance":1861.7550000000003,"pathway":false,"mode":"WALK","route":"","agencyTimeZoneOffset":-14400000,"interlineWithPreviousLeg":false,"from":{"name":"Origin","lon":-71.080058,"lat":48.416821,"departure":1522674000000,"orig":"","vertexType":"NORMAL"},"to":{"name":"Destination","lon":-71.066743,"lat":48.428131,"arrival":1522675450000,"orig":"","vertexType":"NORMAL"},"legGeometry":{"points":"mlofH|yypLu@mAIOg@w@{EiFACa@a@y@{@wD{DOOi@k@iCkC}B}BUW}@_AGc@YcACe@E}@Ao@?e@S[KM_AkAk@u@MI[Uc@Qg@G}@IoBKQCkAKg@?yB`@Ec@OMaAYCFKDKCGGKSSYWKkAK@aD@k@HoCLsESAq@Cy@CA?GAg@C}AKDwD@k@@w@Bs@","length":61},"rentedBike":false,"transitLeg":false,"duration":1450.0,"steps":[{"distance":801.3390000000002,"relativeDirection":"DEPART","streetName":"Rue Saint-Paul","absoluteDirection":"NORTHEAST","stayOn":false,"area":false,"bogusName":false,"lon":-71.08014208643895,"lat":48.41687467369117,"elevation":[]},{"distance":410.991,"relativeDirection":"LEFT","streetName":"Boulevard Saint-Paul","absoluteDirection":"NORTHEAST","stayOn":false,"area":false,"bogusName":false,"lon":-71.0732783,"lat":48.4221458,"elevation":[]},{"distance":13.871,"relativeDirection":"RIGHT","streetName":"Rue Price Ouest","absoluteDirection":"EAST","stayOn":false,"area":false,"bogusName":false,"lon":-71.0721044,"lat":48.4255854,"elevation":[]},{"distance":48.492,"relativeDirection":"LEFT","streetName":"path","absoluteDirection":"NORTH","stayOn":false,"area":false,"bogusName":true,"lon":-71.0719217,"lat":48.425614800000005,"elevation":[]},{"distance":103.339,"relativeDirection":"SLIGHTLY_LEFT","streetName":"Rue Montcalm","absoluteDirection":"NORTH","stayOn":false,"area":false,"bogusName":false,"lon":-71.0717267,"lat":48.426028200000005,"elevation":[]},{"distance":208.179,"relativeDirection":"RIGHT","streetName":"Rue Jacques-Cartier Ouest","absoluteDirection":"EAST","stayOn":false,"area":false,"bogusName":false,"lon":-71.0713817,"lat":48.426863100000006,"elevation":[]},{"distance":152.029,"relativeDirection":"LEFT","streetName":"Rue Sainte-Anne","absoluteDirection":"NORTH","stayOn":false,"area":false,"bogusName":false,"lon":-71.0685709,"lat":48.426721,"elevation":[]},{"distance":123.51500000000001,"relativeDirection":"RIGHT","streetName":"Rue Racine Est","absoluteDirection":"EAST","stayOn":false,"area":false,"bogusName":false,"lon":-71.06843,"lat":48.42808470000001,"elevation":[]}]}],"tooSloped":false},{"duration":661,"startTime":1522675927000,"endTime":1522676588000,"walkTime":166,"transitTime":493,"waitingTime":2,"walkDistance":211.25983458537442,"walkLimitExceeded":false,"elevationLost":0.0,"elevationGained":0.0,"transfers":0,"legs":[{"startTime":1522675927000,"endTime":1522675966000,"departureDelay":0,"arrivalDelay":0,"realTime":false,"distance":49.86,"pathway":false,"mode":"WALK","route":"","agencyTimeZoneOffset":-14400000,"interlineWithPreviousLeg":false,"from":{"name":"Origin","lon":-71.080058,"lat":48.416821,"departure":1522675927000,"orig":"","vertexType":"NORMAL"},"to":{"name":"Saint-Paul / Cimon","stopId":"1:1892","stopCode":"1892","lon":-71.079616,"lat":48.417161,"arrival":1522675966000,"departure":1522675967000,"zoneId":"NA","stopIndex":20,"stopSequence":21,"vertexType":"TRANSIT"},"legGeometry":{"points":"mlofH|yypLu@mAIO","length":3},"rentedBike":false,"transitLeg":false,"duration":39.0,"steps":[{"distance":49.86,"relativeDirection":"DEPART","streetName":"Rue Saint-Paul","absoluteDirection":"NORTHEAST","stayOn":false,"area":false,"bogusName":false,"lon":-71.08014208643895,"lat":48.41687467369117,"elevation":[]}]},{"startTime":1522675967000,"endTime":1522676460000,"departureDelay":0,"arrivalDelay":0,"realTime":false,"distance":2129.9586378097606,"pathway":false,"mode":"BUS","route":"11","agencyName":"Société de Transport du Saguenay","agencyUrl":"http://ville.saguenay.ca/fr/services-aux-citoyens/transport-sts","agencyTimeZoneOffset":-14400000,"routeColor":"FF0000","routeType":3,"routeId":"1:11","routeTextColor":"FFFFFF","interlineWithPreviousLeg":false,"tripBlockId":"34","headsign":"Terminus Chicoutimi","agencyId":"0","tripId":"1:218212","serviceDate":"20180402","from":{"name":"Saint-Paul / Cimon","stopId":"1:1892","stopCode":"1892","lon":-71.079616,"lat":48.417161,"arrival":1522675966000,"departure":1522675967000,"zoneId":"NA","stopIndex":20,"stopSequence":21,"vertexType":"TRANSIT"},"to":{"name":"Terminus Chicoutimi","stopId":"1:1289","stopCode":"1289","lon":-71.066163,"lat":48.428677,"arrival":1522676460000,"departure":1522676461000,"zoneId":"NA","stopIndex":30,"stopSequence":31,"vertexType":"TRANSIT"},"legGeometry":{"points":"qnofHdwypLc@o@q@gAOWwCyCyGyG_IaIs@rBEHwAtDmBvEOd@[bBK~AIf@YHE@Q@O?OCI_@GMEKI_AB_A?Yo@IKCIEIIKOEKCKe@}BKs@CQAUE_A@yCFcDVsLDaCD_@kBKW?e@Q_BQNuEDuBXmNLgHmKm@}BW{AMCn@o@G??","length":57},"routeShortName":"11","routeLongName":"Chic/Faubourg via St-Paul","rentedBike":false,"transitLeg":true,"duration":493.0,"steps":[]},{"startTime":1522676461000,"endTime":1522676588000,"departureDelay":0,"arrivalDelay":0,"realTime":false,"distance":161.36599999999999,"pathway":false,"mode":"WALK","route":"","agencyTimeZoneOffset":-14400000,"interlineWithPreviousLeg":false,"from":{"name":"Terminus Chicoutimi","stopId":"1:1289","stopCode":"1289","lon":-71.066163,"lat":48.428677,"arrival":1522676460000,"departure":1522676461000,"zoneId":"NA","stopIndex":30,"stopSequence":31,"vertexType":"TRANSIT"},"to":{"name":"Destination","lon":-71.066743,"lat":48.428131,"arrival":1522676588000,"orig":"","vertexType":"NORMAL"},"legGeometry":{"points":"{uqfHb~vpLbAJR@JDb@LM`F","length":6},"rentedBike":false,"transitLeg":false,"duration":127.0,"steps":[{"distance":77.207,"relativeDirection":"DEPART","streetName":"Rue Morin","absoluteDirection":"SOUTH","stayOn":false,"area":false,"bogusName":false,"lon":-71.0654590096484,"lat":48.428628638946556,"elevation":[]},{"distance":84.159,"relativeDirection":"RIGHT","streetName":"Rue Racine Est","absoluteDirection":"WEST","stayOn":false,"area":false,"bogusName":false,"lon":-71.0656238,"lat":48.4279449,"elevation":[]}]}],"tooSloped":false}]},"debugOutput":{"precalculationTime":35,"pathCalculationTime":17,"pathTimes":[6,8,3],"renderingTime":1,"totalTime":53,"timedOut":false},"elevationMetadata":{"ellipsoidToGeoidDifference":-28.885904201182168,"geoidElevation":false}}