{"requestParameters":{"date":"2018/04/02","walkSpeed":"1.33","walkReluctance":"2.0","fromPlace":"48.408158,-71.09302499","maxWalkDistance":"3000","waitReluctance":"1.0","carSpeed":"33","numItineraries":"3","waitAtBeginningFactor":"0.4","mode":"TRANSIT,WALK","ignoreRealtimeUpdates":"false","stairsReluctance":"2.0","toPlace":"48.410162,-71.089887","time":"14:10:00"},"plan":{"date":1522692600000,"from":{"name":"Origin","lon":-71.09302499,"lat":48.408158,"orig":"","vertexType":"NORMAL"},"to":{"name":"Destination","lon":-71.089887,"lat":48.410162,"orig":"","vertexType":"NORMAL"},"itineraries":[{"duration":306,"startTime":1522692600000,"endTime":1522692906000,"walkTime":306,"transitTime":0,"waitingTime":0,"walkDistance":397.8284586455369,"walkLimitExceeded":false,"elevationLost":0.0,"elevationGained":0.0,"transfers":0,"legs":[{"startTime":1522692600000,"endTime":1522692906000,"departureDelay":0,"arrivalDelay":0,"realTime":false,"distance":397.795,"pathway":false,"mode":"WALK","route":"","agencyTimeZoneOffset":-14400000,"interlineWithPreviousLeg":false,"from":{"name":"Origin","lon":-71.09302499,"lat":48.408158,"departure":1522692600000,"orig":"","vertexType":"NORMAL"},"to":{"name":"Destination","lon":-71.089887,"lat":48.410162,"arrival":1522692906000,"orig":"","vertexType":"NORMAL"},"legGeometry":{"points":"otmfHfl|pLr@{AOUo@_Ag@u@yAyBqB_DmCaESY","length":9},"rentedBike":false,"transitLeg":false,"duration":306.0,"steps":[{"distance":44.829,"relativeDirection":"DEPART","streetName":"Rue Descartes","absoluteDirection":"SOUTHEAST","stayOn":false,"area":false,"bogusName":false,"lon":-71.09331961793023,"lat":48.407926153859854,"elevation":[]},{"distance":352.966,"relativeDirection":"LEFT","streetName":"Boulevard Saint-Paul","absoluteDirection":"NORTHEAST","stayOn":false,"area":false,"bogusName":false,"lon":-71.0928554,"lat":48.4076662,"elevation":[]}]}],"tooSloped":false},{"duration":218,"startTime":1522693771000,"endTime":1522693989000,"walkTime":154,"transitTime":62,"waitingTime":2,"walkDistance":201.10975939837493,"walkLimitExceeded":false,"elevationLost":0.0,"elevationGained":0.0,"transfers":0,"legs":[{"startTime":1522693771000,"endTime":1522693799000,"departureDelay":0,"arrivalDelay":0,"realTime":false,"distance":36.555,"pathway":false,"mode":"WALK","route":"","agencyTimeZoneOffset":-14400000,"interlineWithPreviousLeg":false,"from":{"name":"Origin","lon":-71.09302499,"lat":48.408158,"departure":1522693771000,"orig":"","vertexType":"NORMAL"},"to":{"name":"Descartes / Estacade","stopId":"1:1889","stopCode":"1889","lon":-71.093786,"lat":48.408069,"arrival":1522693799000,"departure":1522693800000,"zoneId":"NA","stopIndex":15,"stopSequence":16,"vertexType":"TRANSIT"},"legGeometry":{"points":"otmfHfl|pLi@jA","length":2},"rentedBike":false,"transitLeg":false,"duration":28.0,"steps":[{"distance":36.555,"relativeDirection":"DEPART","streetName":"Rue Descartes","absoluteDirection":"NORTHWEST","stayOn":false,"area":false,"bogusName":false,"lon":-71.09331961793023,"lat":48.407926153859854,"elevation":[]}]},{"startTime":1522693800000,"endTime":1522693862000,"departureDelay":0,"arrivalDelay":0,"realTime":false,"distance":571.5353312488272,"pathway":false,"mode":"BUS","route":"11","agencyName":"Société de Transport du Saguenay","agencyUrl":"http://ville.saguenay.ca/fr/services-aux-citoyens/transport-sts","agencyTimeZoneOffset":-14400000,"routeColor":"FF0000","routeType":3,"routeId":"1:11","routeTextColor":"FFFFFF","interlineWithPreviousLeg":false,"tripBlockId":"35","headsign":"Terminus Chicoutimi","agencyId":"0","tripId":"1:218257","serviceDate":"20180402","from":{"name":"Descartes / Estacade","stopId":"1:1889","stopCode":"1889","lon":-71.093786,"lat":48.408069,"arrival":1522693799000,"departure":1522693800000,"zoneId":"NA","stopIndex":15,"stopSequence":16,"vertexType":"TRANSIT"},"to":{"name":"boul. Saint-Paul (no. 1177)","stopId":"1:428","stopCode":"428","lon":-71.08801,"lat":48.411065,"arrival":1522693862000,"departure":1522693863000,"zoneId":"NA","stopIndex":17,"stopSequence":18,"vertexType":"TRANSIT"},"legGeometry":{"points":"{umfHrn|pLnA_DJWu@iAW[S[yI{MmBqC{@wAQUw@gA","length":11},"routeShortName":"11","routeLongName":"Chic/Faubourg via St-Paul","rentedBike":false,"transitLeg":true,"duration":62.0,"steps":[]},{"startTime":1522693863000,"endTime":1522693989000,"departureDelay":0,"arrivalDelay":0,"realTime":false,"distance":164.551,"pathway":false,"mode":"WALK","route":"","agencyTimeZoneOffset":-14400000,"interlineWithPreviousLeg":false,"from":{"name":"boul. Saint-Paul (no. 1177)","stopId":"1:428","stopCode":"428","lon":-71.08801,"lat":48.411065,"arrival":1522693862000,"departure":1522693863000,"zoneId":"NA","stopIndex":17,"stopSequence":18,"vertexType":"TRANSIT"},"to":{"name":"Destination","lon":-71.089887,"lat":48.410162,"arrival":1522693989000,"orig":"","vertexType":"NORMAL"},"legGeometry":{"points":"whnfHpl{pLBBfAbAxCnE","length":4},"rentedBike":false,"transitLeg":false,"duration":126.0,"steps":[{"distance":164.551,"relativeDirection":"DEPART","streetName":"Boulevard Saint-Paul","absoluteDirection":"SOUTHWEST","stayOn":false,"area":false,"bogusName":false,"lon":-71.08824412112547,"lat":48.41116476208211,"elevation":[]}]}],"tooSloped":false},{"duration":218,"startTime":1522695571000,"endTime":1522695789000,"walkTime":154,"transitTime":62,"waitingTime":2,"walkDistance":201.10975939837493,"walkLimitExceeded":false,"elevationLost":0.0,"elevationGained":0.0,"transfers":0,"legs":[{"startTime":1522695571000,"endTime":1522695599000,"departureDelay":0,"arrivalDelay":0,"realTime":false,"distance":36.555,"pathway":false,"mode":"WALK","route":"","agencyTimeZoneOffset":-14400000,"interlineWithPreviousLeg":false,"from":{"name":"Origin","lon":-71.09302499,"lat":48.408158,"departure":1522695571000,"orig":"","vertexType":"NORMAL"},"to":{"name":"Descartes / Estacade","stopId":"1:1889","stopCode":"1889","lon":-71.093786,"lat":48.408069,"arrival":1522695599000,"departure":1522695600000,"zoneId":"NA","stopIndex":15,"stopSequence":16,"vertexType":"TRANSIT"},"legGeometry":{"points":"otmfHfl|pLi@jA","length":2},"rentedBike":false,"transitLeg":false,"duration":28.0,"steps":[{"distance":36.555,"relativeDirection":"DEPART","streetName":"Rue Descartes","absoluteDirection":"NORTHWEST","stayOn":false,"area":false,"bogusName":false,"lon":-71.09331961793023,"lat":48.407926153859854,"elevation":[]}]},{"startTime":1522695600000,"endTime":1522695662000,"departureDelay":0,"arrivalDelay":0,"realTime":false,"distance":571.5353312488272,"pathway":false,"mode":"BUS","route":"11","agencyName":"Société de Transport du Saguenay","agencyUrl":"http://ville.saguenay.ca/fr/services-aux-citoyens/transport-sts","agencyTimeZoneOffset":-14400000,"routeColor":"FF0000","routeType":3,"routeId":"1:11","routeTextColor":"FFFFFF","interlineWithPreviousLeg":false,"tripBlockId":"37","headsign":"Terminus Chicoutimi","agencyId":"0","tripId":"1:218319","serviceDate":"20180402","from":{"name":"Descartes / Estacade","stopId":"1:1889","stopCode":"1889","lon":-71.093786,"lat":48.408069,"arrival":1522695599000,"departure":1522695600000,"zoneId":"NA","stopIndex":15,"stopSequence":16,"vertexType":"TRANSIT"},"to":{"name":"boul. Saint-Paul (no. 1177)","stopId":"1:428","stopCode":"428","lon":-71.08801,"lat":48.411065,"arrival":1522695662000,"departure":1522695663000,"zoneId":"NA","stopIndex":17,"stopSequence":18,"vertexType":"TRANSIT"},"legGeometry":{"points":"{umfHrn|pLnA_DJWu@iAW[S[yI{MmBqC{@wAQUw@gA","length":11},"routeShortName":"11","routeLongName":"Chic/Faubourg via St-Paul","rentedBike":false,"transitLeg":true,"duration":62.0,"steps":[]},{"startTime":1522695663000,"endTime":1522695789000,"departureDelay":0,"arrivalDelay":0,"realTime":false,"distance":164.551,"pathway":false,"mode":"WALK","route":"","agencyTimeZoneOffset":-14400000,"interlineWithPreviousLeg":false,"from":{"name":"boul. Saint-Paul (no. 1177)","stopId":"1:428","stopCode":"428","lon":-71.08801,"lat":48.411065,"arrival":1522695662000,"departure":1522695663000,"zoneId":"NA","stopIndex":17,"stopSequence":18,"vertexType":"TRANSIT"},"to":{"name":"Destination","lon":-71.089887,"lat":48.410162,"arrival":1522695789000,"orig":"","vertexType":"NORMAL"},"legGeometry":{"points":"whnfHpl{pLBBfAbAxCnE","length":4},"rentedBike":false,"transitLeg":false,"duration":126.0,"steps":[{"distance":164.551,"relativeDirection":"DEPART","streetName":"Boulevard Saint-Paul","absoluteDirection":"SOUTHWEST","stayOn":false,"area":false,"bogusName":false,"lon":-71.08824412112547,"lat":48.41116476208211,"elevation":[]}]}],"tooSloped":false}]},"debugOutput":{"precalculationTime":18,"pathCalculationTime":14,"pathTimes":[1,6,7],"renderingTime":0,"totalTime":32,"timedOut":false},"elevationMetadata":{"ellipsoidToGeoidDifference":-28.885904201182168,"geoidElevation":false}}