{"requestParameters":{"date":"2018/04/02","walkSpeed":"1.33","walkReluctance":"2.0","fromPlace":"48.419382,-71.078094","maxWalkDistance":"3000","waitReluctance":"1.0","carSpeed":"33","numItineraries":"3","waitAtBeginningFactor":"0.4","mode":"TRANSIT,WALK","ignoreRealtimeUpdates":"false","stairsReluctance":"2.0","toPlace":"48.420173,-71.074303","time":"10:0:00"},"plan":{"date":1522677600000,"from":{"name":"Origin","lon":-71.078094,"lat":48.419382,"orig":"","vertexType":"NORMAL"},"to":{"name":"Destination","lon":-71.074303,"lat":48.420173,"orig":"","vertexType":"NORMAL"},"itineraries":[{"duration":403,"startTime":1522677600000,"endTime":1522678003000,"walkTime":403,"transitTime":0,"waitingTime":0,"walkDistance":510.0960075154732,"walkLimitExceeded":false,"elevationLost":0.0,"elevationGained":0.0,"transfers":0,"legs":[{"startTime":1522677600000,"endTime":1522678003000,"departureDelay":0,"arrivalDelay":0,"realTime":false,"distance":509.99299999999994,"pathway":false,"mode":"WALK","route":"","agencyTimeZoneOffset":-14400000,"interlineWithPreviousLeg":false,"from":{"name":"Origin","lon":-71.078094,"lat":48.419382,"departure":1522677600000,"orig":"","vertexType":"NORMAL"},"to":{"name":"Destination","lon":-71.074303,"lat":48.420173,"arrival":1522678003000,"orig":"","vertexType":"NORMAL"},"legGeometry":{"points":"i|ofHrmypL`@`@v@yBj@}Ax@aCHU`AoCg@i@WYuAsAyA{Ao@q@a@a@IT_@bA","length":15},"rentedBike":false,"transitLeg":false,"duration":403.0,"steps":[{"distance":23.385,"relativeDirection":"DEPART","streetName":"Rue Lapointe","absoluteDirection":"SOUTHWEST","stayOn":false,"area":false,"bogusName":false,"lon":-71.07817104531568,"lat":48.419416166189905,"elevation":[]},{"distance":229.68,"relativeDirection":"LEFT","streetName":"Rue Saint-Henri","absoluteDirection":"SOUTHEAST","stayOn":false,"area":false,"bogusName":false,"lon":-71.0783471,"lat":48.4192413,"elevation":[]},{"distance":216.55599999999998,"relativeDirection":"LEFT","streetName":"Rue Caron","absoluteDirection":"NORTHEAST","stayOn":false,"area":false,"bogusName":false,"lon":-71.0757816,"lat":48.4180719,"elevation":[]},{"distance":40.372,"relativeDirection":"LEFT","streetName":"Rue François-Rénald","absoluteDirection":"NORTHWEST","stayOn":false,"area":false,"bogusName":false,"lon":-71.0741407,"lat":48.4196864,"elevation":[]}]}],"tooSloped":false},{"duration":318,"startTime":1522678811000,"endTime":1522679129000,"walkTime":275,"transitTime":41,"waitingTime":2,"walkDistance":341.50887969596084,"walkLimitExceeded":false,"elevationLost":0.0,"elevationGained":0.0,"transfers":0,"legs":[{"startTime":1522678811000,"endTime":1522679034000,"departureDelay":0,"arrivalDelay":0,"realTime":false,"distance":278.51300000000003,"pathway":false,"mode":"WALK","route":"","agencyTimeZoneOffset":-14400000,"interlineWithPreviousLeg":false,"from":{"name":"Origin","lon":-71.078094,"lat":48.419382,"departure":1522678811000,"orig":"","vertexType":"NORMAL"},"to":{"name":"Carrefour 216","stopId":"1:550","stopCode":"550","lon":-71.075884,"lat":48.417843,"arrival":1522679034000,"departure":1522679035000,"zoneId":"NA","stopIndex":25,"stopSequence":26,"vertexType":"TRANSIT"},"legGeometry":{"points":"i|ofHrmypL`@`@v@yBj@}Ax@aCHU`AoCRPRP","length":9},"rentedBike":false,"transitLeg":false,"duration":223.0,"steps":[{"distance":23.385,"relativeDirection":"DEPART","streetName":"Rue Lapointe","absoluteDirection":"SOUTHWEST","stayOn":false,"area":false,"bogusName":false,"lon":-71.07817104531568,"lat":48.419416166189905,"elevation":[]},{"distance":229.68,"relativeDirection":"LEFT","streetName":"Rue Saint-Henri","absoluteDirection":"SOUTHEAST","stayOn":false,"area":false,"bogusName":false,"lon":-71.0783471,"lat":48.4192413,"elevation":[]},{"distance":25.448,"relativeDirection":"RIGHT","streetName":"Rue Caron","absoluteDirection":"SOUTHWEST","stayOn":false,"area":false,"bogusName":false,"lon":-71.0757816,"lat":48.4180719,"elevation":[]}]},{"startTime":1522679035000,"endTime":1522679076000,"departureDelay":0,"arrivalDelay":0,"realTime":false,"distance":219.2873172483942,"pathway":false,"mode":"BUS","route":"14","agencyName":"Société de Transport du Saguenay","agencyUrl":"http://ville.saguenay.ca/fr/services-aux-citoyens/transport-sts","agencyTimeZoneOffset":-14400000,"routeColor":"C0C000","routeType":3,"routeId":"1:14","routeTextColor":"000000","interlineWithPreviousLeg":false,"tripBlockId":"31","headsign":"Terminus Chicoutimi","agencyId":"0","tripId":"1:218129","serviceDate":"20180402","from":{"name":"Carrefour 216","stopId":"1:550","stopCode":"550","lon":-71.075884,"lat":48.417843,"arrival":1522679034000,"departure":1522679035000,"zoneId":"NA","stopIndex":25,"stopSequence":26,"vertexType":"TRANSIT"},"to":{"name":"Caron / François Rénald","stopId":"1:551","stopCode":"551","lon":-71.074183,"lat":48.41946,"arrival":1522679076000,"departure":1522679077000,"zoneId":"NA","stopIndex":26,"stopSequence":27,"vertexType":"TRANSIT"},"legGeometry":{"points":"urofHx_ypLoBmBwE{E","length":3},"routeShortName":"14","routeLongName":"Coopérative","rentedBike":false,"transitLeg":true,"duration":41.0,"steps":[]},{"startTime":1522679077000,"endTime":1522679129000,"departureDelay":0,"arrivalDelay":0,"realTime":false,"distance":62.89399999999999,"pathway":false,"mode":"WALK","route":"","agencyTimeZoneOffset":-14400000,"interlineWithPreviousLeg":false,"from":{"name":"Caron / François Rénald","stopId":"1:551","stopCode":"551","lon":-71.074183,"lat":48.41946,"arrival":1522679076000,"departure":1522679077000,"zoneId":"NA","stopIndex":26,"stopSequence":27,"vertexType":"TRANSIT"},"to":{"name":"Destination","lon":-71.074303,"lat":48.420173,"arrival":1522679129000,"orig":"","vertexType":"NORMAL"},"legGeometry":{"points":"}|ofHnuxpLa@a@IT_@bA","length":4},"rentedBike":false,"transitLeg":false,"duration":52.0,"steps":[{"distance":22.522,"relativeDirection":"DEPART","streetName":"Rue Caron","absoluteDirection":"NORTHEAST","stayOn":false,"area":false,"bogusName":false,"lon":-71.07431340190298,"lat":48.419519396896064,"elevation":[]},{"distance":40.372,"relativeDirection":"LEFT","streetName":"Rue François-Rénald","absoluteDirection":"NORTHWEST","stayOn":false,"area":false,"bogusName":false,"lon":-71.0741407,"lat":48.4196864,"elevation":[]}]}],"tooSloped":false}]},"debugOutput":{"precalculationTime":45,"pathCalculationTime":13,"pathTimes":[2,8,3],"renderingTime":0,"totalTime":58,"timedOut":false},"elevationMetadata":{"ellipsoidToGeoidDifference":-28.885904201182168,"geoidElevation":false}}