{"requestParameters":{"date":"2018/04/02","walkSpeed":"1.33","walkReluctance":"2.0","fromPlace":"48.415326,-71.083749","maxWalkDistance":"3000","waitReluctance":"1.0","carSpeed":"33","numItineraries":"3","waitAtBeginningFactor":"0.4","mode":"TRANSIT,WALK","ignoreRealtimeUpdates":"false","stairsReluctance":"2.0","toPlace":"48.40001,-71.044398","time":"13:30:00"},"plan":{"date":1522690200000,"from":{"name":"Origin","lon":-71.083749,"lat":48.415326,"orig":"","vertexType":"NORMAL"},"to":{"name":"Destination","lon":-71.044398,"lat":48.40001,"orig":"","vertexType":"NORMAL"},"itineraries":[{"duration":4181,"startTime":1522691988000,"endTime":1522696169000,"walkTime":2416,"transitTime":1523,"waitingTime":242,"walkDistance":3139.381466152943,"walkLimitExceeded":false,"elevationLost":0.0,"elevationGained":0.0,"transfers":1,"legs":[{"startTime":1522691988000,"endTime":1522692119000,"departureDelay":0,"arrivalDelay":0,"realTime":false,"distance":161.09,"pathway":false,"mode":"WALK","route":"","agencyTimeZoneOffset":-14400000,"interlineWithPreviousLeg":false,"from":{"name":"Origin","lon":-71.083749,"lat":48.415326,"departure":1522691988000,"orig":"","vertexType":"NORMAL"},"to":{"name":"Saint-Paul / Sainte-Thérèse","stopId":"1:1890","stopCode":"1890","lon":-71.083492,"lat":48.414412,"arrival":1522692119000,"departure":1522692120000,"zoneId":"NA","stopIndex":18,"stopSequence":19,"vertexType":"TRANSIT"},"legGeometry":{"points":"kbofHzozpLfBnCnAyBYc@","length":4},"rentedBike":false,"transitLeg":false,"duration":131.0,"steps":[{"distance":78.858,"relativeDirection":"DEPART","streetName":"Rue Nio","absoluteDirection":"SOUTHWEST","stayOn":false,"area":false,"bogusName":false,"lon":-71.08365292511326,"lat":48.41526737266784,"elevation":[]},{"distance":63.19,"relativeDirection":"LEFT","streetName":"Rue Sainte-Thérèse","absoluteDirection":"SOUTHEAST","stayOn":false,"area":false,"bogusName":false,"lon":-71.0843761,"lat":48.4147453,"elevation":[]},{"distance":19.042,"relativeDirection":"LEFT","streetName":"Rue Saint-Paul","absoluteDirection":"NORTHEAST","stayOn":false,"area":false,"bogusName":false,"lon":-71.08376480000001,"lat":48.414347400000004,"elevation":[]}]},{"startTime":1522692120000,"endTime":1522692660000,"departureDelay":0,"arrivalDelay":0,"realTime":false,"distance":2548.6254838142936,"pathway":false,"mode":"BUS","route":"11","agencyName":"Société de Transport du Saguenay","agencyUrl":"http://ville.saguenay.ca/fr/services-aux-citoyens/transport-sts","agencyTimeZoneOffset":-14400000,"routeColor":"FF0000","routeType":3,"routeId":"1:11","routeTextColor":"FFFFFF","interlineWithPreviousLeg":false,"tripBlockId":"36","headsign":"Terminus Chicoutimi","agencyId":"0","tripId":"1:218291","serviceDate":"20180402","from":{"name":"Saint-Paul / Sainte-Thérèse","stopId":"1:1890","stopCode":"1890","lon":-71.083492,"lat":48.414412,"arrival":1522692119000,"departure":1522692120000,"zoneId":"NA","stopIndex":18,"stopSequence":19,"vertexType":"TRANSIT"},"to":{"name":"Terminus Chicoutimi","stopId":"1:1289","stopCode":"1289","lon":-71.066163,"lat":48.428677,"arrival":1522692660000,"departure":1522692900000,"zoneId":"NA","stopIndex":30,"stopSequence":31,"vertexType":"TRANSIT"},"legGeometry":{"points":"k}nfHlozpLkHgL{C{E}AcCc@o@q@gAOWwCyCyGyG_IaIs@rBEHwAtDmBvEOd@[bBK~AIf@YHE@Q@O?OCI_@GMEKI_AB_A?Yo@IKCIEIIKOEKCKe@}BKs@CQAUE_A@yCFcDVsLDaCD_@kBKW?e@Q_BQNuEDuBXmNLgHmKm@}BW{AMCn@o@G??","length":60},"routeShortName":"11","routeLongName":"Chic/Faubourg via St-Paul","rentedBike":false,"transitLeg":true,"duration":540.0,"steps":[]},{"startTime":1522692900000,"endTime":1522693883000,"departureDelay":0,"arrivalDelay":0,"realTime":false,"distance":6070.619475259282,"pathway":false,"mode":"BUS","route":"12","agencyName":"Société de Transport du Saguenay","agencyUrl":"http://ville.saguenay.ca/fr/services-aux-citoyens/transport-sts","agencyTimeZoneOffset":-14400000,"routeColor":"556B2F","routeType":3,"routeId":"1:12","routeTextColor":"FFFFFF","interlineWithPreviousLeg":false,"tripBlockId":"28","headsign":"Terminus UQAC","agencyId":"0","tripId":"1:218041","serviceDate":"20180402","from":{"name":"Terminus Chicoutimi","stopId":"1:1289","stopCode":"1289","lon":-71.066163,"lat":48.428677,"arrival":1522692660000,"departure":1522692900000,"zoneId":"NA","stopIndex":0,"stopSequence":1,"vertexType":"TRANSIT"},"to":{"name":"nouveau","stopId":"1:2297","stopCode":"2297","lon":-71.02468,"lat":48.413593,"arrival":1522693883000,"departure":1522693884000,"zoneId":"NA","stopIndex":25,"stopSequence":26,"vertexType":"TRANSIT"},"legGeometry":{"points":"evqfHpbwpLpFcj@IaKmFy^_DaZz@u]SeV}@aNs@gKToKd@gTnCyHkGuLqFqJ_DeFf@iIvGsKlIrH`JlH`EfDnOdIdGlGjL|BzBiLv@}L`b@fN","length":26},"routeShortName":"12","routeLongName":"Rivière du Moulin","rentedBike":false,"transitLeg":true,"duration":983.0,"steps":[]},{"startTime":1522693884000,"endTime":1522696169000,"departureDelay":0,"arrivalDelay":0,"realTime":false,"distance":2977.905,"pathway":false,"mode":"WALK","route":"","agencyTimeZoneOffset":-14400000,"interlineWithPreviousLeg":false,"from":{"name":"nouveau","stopId":"1:2297","stopCode":"2297","lon":-71.02468,"lat":48.413593,"arrival":1522693883000,"departure":1522693884000,"zoneId":"NA","stopIndex":25,"stopSequence":26,"vertexType":"TRANSIT"},"to":{"name":"Destination","lon":-71.044398,"lat":48.40001,"arrival":1522696169000,"orig":"","vertexType":"NORMAL"},"legGeometry":{"points":"axnfHb~npLTEp@Kj@tKxB|MHl@TrAf@xEB\\L`CDh@@^ZvEHpAx@Of@s@|A@b@Ov@B\\Kh@@|@Ot@e@XMRS^c@JeAZTFhBBVDpAu@^CDAFF\\JFNb@ZJFN?XRHTMRN^Rb@\\NdALFJj@Pf@?PE`@C~@Tf@RZ^ZPb@ZNZHP^Tb@Pl@Tr@|B`@p@d@z@b@bAhAL|Ap@jCd@DZBXOHo@?aADw@Pu@xByE\\eATOT@HP`@`CNnCElCRlBLjGx@`Aj@|@Rd@r@tAjClDn@bA@`AFbATr@v@Tf@QRO@A","length":98},"alerts":[{"alertHeaderText":"Unpaved surface"}],"rentedBike":false,"transitLeg":false,"duration":2285.0,"steps":[{"distance":40.223,"relativeDirection":"DEPART","streetName":"Boulevard du Saguenay Est","absoluteDirection":"SOUTH","stayOn":false,"area":false,"bogusName":false,"lon":-71.02449091813529,"lat":48.41361228978169,"elevation":[]},{"distance":674.7560000000001,"relativeDirection":"RIGHT","streetName":"Boulevard de l'Université","absoluteDirection":"WEST","stayOn":false,"area":false,"bogusName":false,"lon":-71.0244078,"lat":48.413254800000004,"elevation":[]},{"distance":62.209,"relativeDirection":"LEFT","streetName":"path","absoluteDirection":"SOUTH","stayOn":false,"area":false,"bogusName":true,"lon":-71.0332252,"lat":48.411744500000005,"elevation":[],"alerts":[{"alertHeaderText":"Unpaved surface"}]},{"distance":386.934,"relativeDirection":"RIGHT","streetName":"Sentier des Moulins","absoluteDirection":"SOUTH","stayOn":false,"area":false,"bogusName":false,"lon":-71.0328834,"lat":48.4112566,"elevation":[],"alerts":[{"alertHeaderText":"Unpaved surface"}]},{"distance":63.259,"relativeDirection":"RIGHT","streetName":"steps","absoluteDirection":"NORTH","stayOn":false,"area":false,"bogusName":true,"lon":-71.03298500000001,"lat":48.408708000000004,"elevation":[]},{"distance":1750.5240000000001,"relativeDirection":"LEFT","streetName":"path","absoluteDirection":"WEST","stayOn":true,"area":false,"bogusName":true,"lon":-71.0331419,"lat":48.4089727,"elevation":[]}]}],"tooSloped":false},{"duration":4181,"startTime":1522693788000,"endTime":1522697969000,"walkTime":2416,"transitTime":1523,"waitingTime":242,"walkDistance":3139.381466152943,"walkLimitExceeded":false,"elevationLost":0.0,"elevationGained":0.0,"transfers":1,"legs":[{"startTime":1522693788000,"endTime":1522693919000,"departureDelay":0,"arrivalDelay":0,"realTime":false,"distance":161.09,"pathway":false,"mode":"WALK","route":"","agencyTimeZoneOffset":-14400000,"interlineWithPreviousLeg":false,"from":{"name":"Origin","lon":-71.083749,"lat":48.415326,"departure":1522693788000,"orig":"","vertexType":"NORMAL"},"to":{"name":"Saint-Paul / Sainte-Thérèse","stopId":"1:1890","stopCode":"1890","lon":-71.083492,"lat":48.414412,"arrival":1522693919000,"departure":1522693920000,"zoneId":"NA","stopIndex":18,"stopSequence":19,"vertexType":"TRANSIT"},"legGeometry":{"points":"kbofHzozpLfBnCnAyBYc@","length":4},"rentedBike":false,"transitLeg":false,"duration":131.0,"steps":[{"distance":78.858,"relativeDirection":"DEPART","streetName":"Rue Nio","absoluteDirection":"SOUTHWEST","stayOn":false,"area":false,"bogusName":false,"lon":-71.08365292511326,"lat":48.41526737266784,"elevation":[]},{"distance":63.19,"relativeDirection":"LEFT","streetName":"Rue Sainte-Thérèse","absoluteDirection":"SOUTHEAST","stayOn":false,"area":false,"bogusName":false,"lon":-71.0843761,"lat":48.4147453,"elevation":[]},{"distance":19.042,"relativeDirection":"LEFT","streetName":"Rue Saint-Paul","absoluteDirection":"NORTHEAST","stayOn":false,"area":false,"bogusName":false,"lon":-71.08376480000001,"lat":48.414347400000004,"elevation":[]}]},{"startTime":1522693920000,"endTime":1522694460000,"departureDelay":0,"arrivalDelay":0,"realTime":false,"distance":2548.6254838142936,"pathway":false,"mode":"BUS","route":"11","agencyName":"Société de Transport du Saguenay","agencyUrl":"http://ville.saguenay.ca/fr/services-aux-citoyens/transport-sts","agencyTimeZoneOffset":-14400000,"routeColor":"FF0000","routeType":3,"routeId":"1:11","routeTextColor":"FFFFFF","interlineWithPreviousLeg":false,"tripBlockId":"35","headsign":"Terminus Chicoutimi","agencyId":"0","tripId":"1:218257","serviceDate":"20180402","from":{"name":"Saint-Paul / Sainte-Thérèse","stopId":"1:1890","stopCode":"1890","lon":-71.083492,"lat":48.414412,"arrival":1522693919000,"departure":1522693920000,"zoneId":"NA","stopIndex":18,"stopSequence":19,"vertexType":"TRANSIT"},"to":{"name":"Terminus Chicoutimi","stopId":"1:1289","stopCode":"1289","lon":-71.066163,"lat":48.428677,"arrival":1522694460000,"departure":1522694700000,"zoneId":"NA","stopIndex":30,"stopSequence":31,"vertexType":"TRANSIT"},"legGeometry":{"points":"k}nfHlozpLkHgL{C{E}AcCc@o@q@gAOWwCyCyGyG_IaIs@rBEHwAtDmBvEOd@[bBK~AIf@YHE@Q@O?OCI_@GMEKI_AB_A?Yo@IKCIEIIKOEKCKe@}BKs@CQAUE_A@yCFcDVsLDaCD_@kBKW?e@Q_BQNuEDuBXmNLgHmKm@}BW{AMCn@o@G??","length":60},"routeShortName":"11","routeLongName":"Chic/Faubourg via St-Paul","rentedBike":false,"transitLeg":true,"duration":540.0,"steps":[]},{"startTime":1522694700000,"endTime":1522695683000,"departureDelay":0,"arrivalDelay":0,"realTime":false,"distance":6070.619475259282,"pathway":false,"mode":"BUS","route":"12","agencyName":"Société de Transport du Saguenay","agencyUrl":"http://ville.saguenay.ca/fr/services-aux-citoyens/transport-sts","agencyTimeZoneOffset":-14400000,"routeColor":"556B2F","routeType":3,"routeId":"1:12","routeTextColor":"FFFFFF","interlineWithPreviousLeg":false,"tripBlockId":"27","headsign":"Terminus UQAC","agencyId":"0","tripId":"1:218016","serviceDate":"20180402","from":{"name":"Terminus Chicoutimi","stopId":"1:1289","stopCode":"1289","lon":-71.066163,"lat":48.428677,"arrival":1522694460000,"departure":1522694700000,"zoneId":"NA","stopIndex":0,"stopSequence":1,"vertexType":"TRANSIT"},"to":{"name":"nouveau","stopId":"1:2297","stopCode":"2297","lon":-71.02468,"lat":48.413593,"arrival":1522695683000,"departure":1522695684000,"zoneId":"NA","stopIndex":25,"stopSequence":26,"vertexType":"TRANSIT"},"legGeometry":{"points":"evqfHpbwpLpFcj@IaKmFy^_DaZz@u]SeV}@aNs@gKToKd@gTnCyHkGuLqFqJ_DeFf@iIvGsKlIrH`JlH`EfDnOdIdGlGjL|BzBiLv@}L`b@fN","length":26},"routeShortName":"12","routeLongName":"Rivière du Moulin","rentedBike":false,"transitLeg":true,"duration":983.0,"steps":[]},{"startTime":1522695684000,"endTime":1522697969000,"departureDelay":0,"arrivalDelay":0,"realTime":false,"distance":2977.905,"pathway":false,"mode":"WALK","route":"","agencyTimeZoneOffset":-14400000,"interlineWithPreviousLeg":false,"from":{"name":"nouveau","stopId":"1:2297","stopCode":"2297","lon":-71.02468,"lat":48.413593,"arrival":1522695683000,"departure":1522695684000,"zoneId":"NA","stopIndex":25,"stopSequence":26,"vertexType":"TRANSIT"},"to":{"name":"Destination","lon":-71.044398,"lat":48.40001,"arrival":1522697969000,"orig":"","vertexType":"NORMAL"},"legGeometry":{"points":"axnfHb~npLTEp@Kj@tKxB|MHl@TrAf@xEB\\L`CDh@@^ZvEHpAx@Of@s@|A@b@Ov@B\\Kh@@|@Ot@e@XMRS^c@JeAZTFhBBVDpAu@^CDAFF\\JFNb@ZJFN?XRHTMRN^Rb@\\NdALFJj@Pf@?PE`@C~@Tf@RZ^ZPb@ZNZHP^Tb@Pl@Tr@|B`@p@d@z@b@bAhAL|Ap@jCd@DZBXOHo@?aADw@Pu@xByE\\eATOT@HP`@`CNnCElCRlBLjGx@`Aj@|@Rd@r@tAjClDn@bA@`AFbATr@v@Tf@QRO@A","length":98},"alerts":[{"alertHeaderText":"Unpaved surface"}],"rentedBike":false,"transitLeg":false,"duration":2285.0,"steps":[{"distance":40.223,"relativeDirection":"DEPART","streetName":"Boulevard du Saguenay Est","absoluteDirection":"SOUTH","stayOn":false,"area":false,"bogusName":false,"lon":-71.02449091813529,"lat":48.41361228978169,"elevation":[]},{"distance":674.7560000000001,"relativeDirection":"RIGHT","streetName":"Boulevard de l'Université","absoluteDirection":"WEST","stayOn":false,"area":false,"bogusName":false,"lon":-71.0244078,"lat":48.413254800000004,"elevation":[]},{"distance":62.209,"relativeDirection":"LEFT","streetName":"path","absoluteDirection":"SOUTH","stayOn":false,"area":false,"bogusName":true,"lon":-71.0332252,"lat":48.411744500000005,"elevation":[],"alerts":[{"alertHeaderText":"Unpaved surface"}]},{"distance":386.934,"relativeDirection":"RIGHT","streetName":"Sentier des Moulins","absoluteDirection":"SOUTH","stayOn":false,"area":false,"bogusName":false,"lon":-71.0328834,"lat":48.4112566,"elevation":[],"alerts":[{"alertHeaderText":"Unpaved surface"}]},{"distance":63.259,"relativeDirection":"RIGHT","streetName":"steps","absoluteDirection":"NORTH","stayOn":false,"area":false,"bogusName":true,"lon":-71.03298500000001,"lat":48.408708000000004,"elevation":[]},{"distance":1750.5240000000001,"relativeDirection":"LEFT","streetName":"path","absoluteDirection":"WEST","stayOn":true,"area":false,"bogusName":true,"lon":-71.0331419,"lat":48.4089727,"elevation":[]}]}],"tooSloped":false},{"duration":5052,"startTime":1522694717000,"endTime":1522699769000,"walkTime":4067,"transitTime":983,"waitingTime":2,"walkDistance":5265.70997742454,"walkLimitExceeded":false,"elevationLost":0.0,"elevationGained":0.0,"transfers":0,"legs":[{"startTime":1522694717000,"endTime":1522696499000,"departureDelay":0,"arrivalDelay":0,"realTime":false,"distance":2287.214,"pathway":false,"mode":"WALK","route":"","agencyTimeZoneOffset":-14400000,"interlineWithPreviousLeg":false,"from":{"name":"Origin","lon":-71.083749,"lat":48.415326,"departure":1522694717000,"orig":"","vertexType":"NORMAL"},"to":{"name":"Terminus Chicoutimi","stopId":"1:1289","stopCode":"1289","lon":-71.066163,"lat":48.428677,"arrival":1522696499000,"departure":1522696500000,"zoneId":"NA","stopIndex":0,"stopSequence":1,"vertexType":"TRANSIT"},"legGeometry":{"points":"kbofHzozpLaD_Fx@aDc@s@IOaFeIIOg@w@{EiFACa@a@y@{@wD{DOOi@k@iCkC}B}BUW}@_AGc@YcACe@E}@Ao@?e@S[H]DS^kAJ[ZsAKAs@Cc@AaAACSAUO{@Kk@[W@YBy@AMGQg@oAc@kAi@uAUy@c@o@MMi@oAaBuDg@eAo@qBk@g@Ao@QG_@C{BUsAGkCQQAsBIc@MKESAcAK","length":67},"rentedBike":false,"transitLeg":false,"duration":1782.0,"steps":[{"distance":121.99,"relativeDirection":"DEPART","streetName":"Rue Nio","absoluteDirection":"NORTHEAST","stayOn":false,"area":false,"bogusName":false,"lon":-71.08365292511326,"lat":48.41526737266784,"elevation":[]},{"distance":68.022,"relativeDirection":"RIGHT","streetName":"Rue Saint-Gabriel","absoluteDirection":"SOUTHEAST","stayOn":false,"area":false,"bogusName":false,"lon":-71.0825342,"lat":48.416075000000006,"elevation":[]},{"distance":969.8340000000001,"relativeDirection":"LEFT","streetName":"Rue Saint-Paul","absoluteDirection":"NORTHEAST","stayOn":false,"area":false,"bogusName":false,"lon":-71.08172470000001,"lat":48.415782500000006,"elevation":[]},{"distance":15.283,"relativeDirection":"LEFT","streetName":"Boulevard Saint-Paul","absoluteDirection":"NORTHEAST","stayOn":false,"area":false,"bogusName":false,"lon":-71.0732783,"lat":48.4221458,"elevation":[]},{"distance":100.87200000000001,"relativeDirection":"RIGHT","streetName":"Boulevard de l'Université","absoluteDirection":"SOUTHEAST","stayOn":false,"area":false,"bogusName":false,"lon":-71.0731375,"lat":48.4222466,"elevation":[]},{"distance":35.173,"relativeDirection":"LEFT","streetName":"sidewalk","absoluteDirection":"NORTH","stayOn":false,"area":false,"bogusName":true,"lon":-71.0719452,"lat":48.4218053,"elevation":[]},{"distance":56.932,"relativeDirection":"CONTINUE","streetName":"Rue Lorne Ouest","absoluteDirection":"NORTH","stayOn":false,"area":false,"bogusName":false,"lon":-71.0719153,"lat":48.422121000000004,"elevation":[]},{"distance":74.692,"relativeDirection":"RIGHT","streetName":"alley","absoluteDirection":"EAST","stayOn":false,"area":false,"bogusName":true,"lon":-71.0718933,"lat":48.4226328,"elevation":[]},{"distance":30.689999999999998,"relativeDirection":"RIGHT","streetName":"Rue Lorne Ouest","absoluteDirection":"EAST","stayOn":false,"area":false,"bogusName":false,"lon":-71.0710413,"lat":48.4229422,"elevation":[]},{"distance":421.72799999999995,"relativeDirection":"SLIGHTLY_LEFT","streetName":"path","absoluteDirection":"NORTHEAST","stayOn":false,"area":false,"bogusName":true,"lon":-71.07062780000001,"lat":48.4229131,"elevation":[]},{"distance":17.515,"relativeDirection":"RIGHT","streetName":"Rue Price Est","absoluteDirection":"EAST","stayOn":false,"area":false,"bogusName":false,"lon":-71.0662212,"lat":48.425276600000004,"elevation":[]},{"distance":374.483,"relativeDirection":"LEFT","streetName":"Rue Morin","absoluteDirection":"NORTH","stayOn":false,"area":false,"bogusName":false,"lon":-71.06598410000001,"lat":48.4252842,"elevation":[]}]},{"startTime":1522696500000,"endTime":1522697483000,"departureDelay":0,"arrivalDelay":0,"realTime":false,"distance":6070.619475259282,"pathway":false,"mode":"BUS","route":"12","agencyName":"Société de Transport du Saguenay","agencyUrl":"http://ville.saguenay.ca/fr/services-aux-citoyens/transport-sts","agencyTimeZoneOffset":-14400000,"routeColor":"556B2F","routeType":3,"routeId":"1:12","routeTextColor":"FFFFFF","interlineWithPreviousLeg":false,"tripBlockId":"28","headsign":"Terminus UQAC","agencyId":"0","tripId":"1:218043","serviceDate":"20180402","from":{"name":"Terminus Chicoutimi","stopId":"1:1289","stopCode":"1289","lon":-71.066163,"lat":48.428677,"arrival":1522696499000,"departure":1522696500000,"zoneId":"NA","stopIndex":0,"stopSequence":1,"vertexType":"TRANSIT"},"to":{"name":"nouveau","stopId":"1:2297","stopCode":"2297","lon":-71.02468,"lat":48.413593,"arrival":1522697483000,"departure":1522697484000,"zoneId":"NA","stopIndex":25,"stopSequence":26,"vertexType":"TRANSIT"},"legGeometry":{"points":"evqfHpbwpLpFcj@IaKmFy^_DaZz@u]SeV}@aNs@gKToKd@gTnCyHkGuLqFqJ_DeFf@iIvGsKlIrH`JlH`EfDnOdIdGlGjL|BzBiLv@}L`b@fN","length":26},"routeShortName":"12","routeLongName":"Rivière du Moulin","rentedBike":false,"transitLeg":true,"duration":983.0,"steps":[]},{"startTime":1522697484000,"endTime":1522699769000,"departureDelay":0,"arrivalDelay":0,"realTime":false,"distance":2977.905,"pathway":false,"mode":"WALK","route":"","agencyTimeZoneOffset":-14400000,"interlineWithPreviousLeg":false,"from":{"name":"nouveau","stopId":"1:2297","stopCode":"2297","lon":-71.02468,"lat":48.413593,"arrival":1522697483000,"departure":1522697484000,"zoneId":"NA","stopIndex":25,"stopSequence":26,"vertexType":"TRANSIT"},"to":{"name":"Destination","lon":-71.044398,"lat":48.40001,"arrival":1522699769000,"orig":"","vertexType":"NORMAL"},"legGeometry":{"points":"axnfHb~npLTEp@Kj@tKxB|MHl@TrAf@xEB\\L`CDh@@^ZvEHpAx@Of@s@|A@b@Ov@B\\Kh@@|@Ot@e@XMRS^c@JeAZTFhBBVDpAu@^CDAFF\\JFNb@ZJFN?XRHTMRN^Rb@\\NdALFJj@Pf@?PE`@C~@Tf@RZ^ZPb@ZNZHP^Tb@Pl@Tr@|B`@p@d@z@b@bAhAL|Ap@jCd@DZBXOHo@?aADw@Pu@xByE\\eATOT@HP`@`CNnCElCRlBLjGx@`Aj@|@Rd@r@tAjClDn@bA@`AFbATr@v@Tf@QRO@A","length":98},"alerts":[{"alertHeaderText":"Unpaved surface"}],"rentedBike":false,"transitLeg":false,"duration":2285.0,"steps":[{"distance":40.223,"relativeDirection":"DEPART","streetName":"Boulevard du Saguenay Est","absoluteDirection":"SOUTH","stayOn":false,"area":false,"bogusName":false,"lon":-71.02449091813529,"lat":48.41361228978169,"elevation":[]},{"distance":674.7560000000001,"relativeDirection":"RIGHT","streetName":"Boulevard de l'Université","absoluteDirection":"WEST","stayOn":false,"area":false,"bogusName":false,"lon":-71.0244078,"lat":48.413254800000004,"elevation":[]},{"distance":62.209,"relativeDirection":"LEFT","streetName":"path","absoluteDirection":"SOUTH","stayOn":false,"area":false,"bogusName":true,"lon":-71.0332252,"lat":48.411744500000005,"elevation":[],"alerts":[{"alertHeaderText":"Unpaved surface"}]},{"distance":386.934,"relativeDirection":"RIGHT","streetName":"Sentier des Moulins","absoluteDirection":"SOUTH","stayOn":false,"area":false,"bogusName":false,"lon":-71.0328834,"lat":48.4112566,"elevation":[],"alerts":[{"alertHeaderText":"Unpaved surface"}]},{"distance":63.259,"relativeDirection":"RIGHT","streetName":"steps","absoluteDirection":"NORTH","stayOn":false,"area":false,"bogusName":true,"lon":-71.03298500000001,"lat":48.408708000000004,"elevation":[]},{"distance":1750.5240000000001,"relativeDirection":"LEFT","streetName":"path","absoluteDirection":"WEST","stayOn":true,"area":false,"bogusName":true,"lon":-71.0331419,"lat":48.4089727,"elevation":[]}]}],"tooSloped":false}]},"debugOutput":{"precalculationTime":17,"pathCalculationTime":52,"pathTimes":[22,11,19],"renderingTime":1,"totalTime":70,"timedOut":false},"elevationMetadata":{"ellipsoidToGeoidDifference":-28.885904201182168,"geoidElevation":false}}