{"requestParameters":{"date":"2018/04/02","walkSpeed":"1.33","walkReluctance":"2.0","fromPlace":"48.415164,-71.051562","maxWalkDistance":"3000","waitReluctance":"1.0","carSpeed":"33","numItineraries":"3","waitAtBeginningFactor":"0.4","mode":"TRANSIT,WALK","ignoreRealtimeUpdates":"false","stairsReluctance":"2.0","toPlace":"48.425237,-71.07349399","time":"10:30:00"},"plan":{"date":1522679400000,"from":{"name":"Origin","lon":-71.051562,"lat":48.415164,"orig":"","vertexType":"NORMAL"},"to":{"name":"Destination","lon":-71.07349399,"lat":48.425237,"orig":"","vertexType":"NORMAL"},"itineraries":[{"duration":1639,"startTime":1522679982000,"endTime":1522681621000,"walkTime":1293,"transitTime":344,"waitingTime":2,"walkDistance":1645.5915187870694,"walkLimitExceeded":false,"elevationLost":0.0,"elevationGained":0.0,"transfers":0,"legs":[{"startTime":1522679982000,"endTime":1522680719000,"departureDelay":0,"arrivalDelay":0,"realTime":false,"distance":941.6,"pathway":false,"mode":"WALK","route":"","agencyTimeZoneOffset":-14400000,"interlineWithPreviousLeg":false,"from":{"name":"Origin","lon":-71.051562,"lat":48.415164,"departure":1522679982000,"orig":"","vertexType":"NORMAL"},"to":{"name":"Terminus UQAC","stopId":"1:1670","stopCode":"1670","lon":-71.053369,"lat":48.420903,"arrival":1522680719000,"departure":1522680720000,"zoneId":"NA","stopIndex":8,"stopSequence":9,"vertexType":"TRANSIT"},"legGeometry":{"points":"i`ofHzctpL_KcJqChI{@hCWt@qAlDKXi@k@yAyAaAcAUHq@XYz@Ur@e@vAg@vAUp@cAaA","length":18},"rentedBike":false,"transitLeg":false,"duration":737.0,"steps":[{"distance":250.157,"relativeDirection":"DEPART","streetName":"Rue d'Alma","absoluteDirection":"NORTHEAST","stayOn":false,"area":false,"bogusName":false,"lon":-71.0510142606893,"lat":48.41493992640824,"elevation":[]},{"distance":321.801,"relativeDirection":"LEFT","streetName":"Rue Chabanel","absoluteDirection":"NORTHWEST","stayOn":false,"area":false,"bogusName":false,"lon":-71.0492358,"lat":48.41685510000001,"elevation":[]},{"distance":133.06900000000002,"relativeDirection":"RIGHT","streetName":"Rue de la Fondation","absoluteDirection":"NORTHEAST","stayOn":false,"area":false,"bogusName":false,"lon":-71.05284470000001,"lat":48.4184787,"elevation":[]},{"distance":236.573,"relativeDirection":"LEFT","streetName":"path","absoluteDirection":"NORTH","stayOn":false,"area":false,"bogusName":true,"lon":-71.0518321,"lat":48.419468900000005,"elevation":[]}]},{"startTime":1522680720000,"endTime":1522681064000,"departureDelay":0,"arrivalDelay":0,"realTime":false,"distance":1400.2257257719145,"pathway":false,"mode":"BUS","route":"14","agencyName":"Société de Transport du Saguenay","agencyUrl":"http://ville.saguenay.ca/fr/services-aux-citoyens/transport-sts","agencyTimeZoneOffset":-14400000,"routeColor":"C0C000","routeType":3,"routeId":"1:14","routeTextColor":"000000","interlineWithPreviousLeg":false,"tripBlockId":"30","headsign":"Talbot / Barrette","agencyId":"0","tripId":"1:218095","serviceDate":"20180402","from":{"name":"Terminus UQAC","stopId":"1:1670","stopCode":"1670","lon":-71.053369,"lat":48.420903,"arrival":1522680719000,"departure":1522680720000,"zoneId":"NA","stopIndex":8,"stopSequence":9,"vertexType":"TRANSIT"},"to":{"name":"Audet / Saint-Charles","stopId":"1:521","stopCode":"521","lon":-71.072343,"lat":48.420999,"arrival":1522681064000,"departure":1522681065000,"zoneId":"NA","stopIndex":9,"stopSequence":10,"vertexType":"TRANSIT"},"legGeometry":{"points":"sepfHrrtpLdA`ATq@`E~DL`@E`Ex@hDd@`B}FtFaAzAm@xAe@jCa@nDiAbm@SpKM`H]vBhDV","length":18},"routeShortName":"14","routeLongName":"Coopérative","rentedBike":false,"transitLeg":true,"duration":344.0,"steps":[]},{"startTime":1522681065000,"endTime":1522681621000,"departureDelay":0,"arrivalDelay":0,"realTime":false,"distance":703.684,"pathway":false,"mode":"WALK","route":"","agencyTimeZoneOffset":-14400000,"interlineWithPreviousLeg":false,"from":{"name":"Audet / Saint-Charles","stopId":"1:521","stopCode":"521","lon":-71.072343,"lat":48.420999,"arrival":1522681064000,"departure":1522681065000,"zoneId":"NA","stopIndex":9,"stopSequence":10,"vertexType":"TRANSIT"},"to":{"name":"Destination","lon":-71.07349399,"lat":48.425237,"arrival":1522681621000,"orig":"","vertexType":"NORMAL"},"legGeometry":{"points":"yfpfH`ixpL@c@kAEE?g@CWbAy@dCG`@S[KM_AkAk@u@MI[Uc@Qg@G}@IoBKQCkAKg@?yB`@@Zp@hDF|@@R","length":26},"rentedBike":false,"transitLeg":false,"duration":556.0,"steps":[{"distance":13.889,"relativeDirection":"DEPART","streetName":"Rue Saint-Charles","absoluteDirection":"EAST","stayOn":false,"area":false,"bogusName":false,"lon":-71.07232986265892,"lat":48.4210959841372,"elevation":[]},{"distance":68.384,"relativeDirection":"LEFT","streetName":"Rue Audet","absoluteDirection":"NORTH","stayOn":false,"area":false,"bogusName":false,"lon":-71.0721424,"lat":48.4210848,"elevation":[]},{"distance":100.466,"relativeDirection":"LEFT","streetName":"Boulevard de l'Université","absoluteDirection":"NORTHWEST","stayOn":false,"area":false,"bogusName":false,"lon":-71.07209830000001,"lat":48.421699100000005,"elevation":[]},{"distance":410.991,"relativeDirection":"RIGHT","streetName":"Boulevard Saint-Paul","absoluteDirection":"NORTHEAST","stayOn":false,"area":false,"bogusName":false,"lon":-71.0732783,"lat":48.4221458,"elevation":[]},{"distance":109.954,"relativeDirection":"LEFT","streetName":"Rue Price Ouest","absoluteDirection":"WEST","stayOn":false,"area":false,"bogusName":false,"lon":-71.0721044,"lat":48.4255854,"elevation":[]}]}],"tooSloped":false},{"duration":1512,"startTime":1522680522000,"endTime":1522682034000,"walkTime":1177,"transitTime":333,"waitingTime":2,"walkDistance":1502.0375263089963,"walkLimitExceeded":false,"elevationLost":0.0,"elevationGained":0.0,"transfers":0,"legs":[{"startTime":1522680522000,"endTime":1522681259000,"departureDelay":0,"arrivalDelay":0,"realTime":false,"distance":941.6,"pathway":false,"mode":"WALK","route":"","agencyTimeZoneOffset":-14400000,"interlineWithPreviousLeg":false,"from":{"name":"Origin","lon":-71.051562,"lat":48.415164,"departure":1522680522000,"orig":"","vertexType":"NORMAL"},"to":{"name":"Terminus UQAC","stopId":"1:1670","stopCode":"1670","lon":-71.053369,"lat":48.420903,"arrival":1522681259000,"departure":1522681260000,"zoneId":"NA","stopIndex":29,"stopSequence":30,"vertexType":"TRANSIT"},"legGeometry":{"points":"i`ofHzctpL_KcJqChI{@hCWt@qAlDKXi@k@yAyAaAcAUHq@XYz@Ur@e@vAg@vAUp@cAaA","length":18},"rentedBike":false,"transitLeg":false,"duration":737.0,"steps":[{"distance":250.157,"relativeDirection":"DEPART","streetName":"Rue d'Alma","absoluteDirection":"NORTHEAST","stayOn":false,"area":false,"bogusName":false,"lon":-71.0510142606893,"lat":48.41493992640824,"elevation":[]},{"distance":321.801,"relativeDirection":"LEFT","streetName":"Rue Chabanel","absoluteDirection":"NORTHWEST","stayOn":false,"area":false,"bogusName":false,"lon":-71.0492358,"lat":48.41685510000001,"elevation":[]},{"distance":133.06900000000002,"relativeDirection":"RIGHT","streetName":"Rue de la Fondation","absoluteDirection":"NORTHEAST","stayOn":false,"area":false,"bogusName":false,"lon":-71.05284470000001,"lat":48.4184787,"elevation":[]},{"distance":236.573,"relativeDirection":"LEFT","streetName":"path","absoluteDirection":"NORTH","stayOn":false,"area":false,"bogusName":true,"lon":-71.0518321,"lat":48.419468900000005,"elevation":[]}]},{"startTime":1522681260000,"endTime":1522681593000,"departureDelay":0,"arrivalDelay":0,"realTime":false,"distance":1633.9851990581458,"pathway":false,"mode":"BUS","route":"15","agencyName":"Société de Transport du Saguenay","agencyUrl":"http://ville.saguenay.ca/fr/services-aux-citoyens/transport-sts","agencyTimeZoneOffset":-14400000,"routeColor":"FF00FF","routeType":3,"routeId":"1:15","routeTextColor":"FFFFFF","interlineWithPreviousLeg":false,"tripBlockId":"32","headsign":"Terminus Chicoutimi","agencyId":"0","tripId":"1:218155","serviceDate":"20180402","from":{"name":"Terminus UQAC","stopId":"1:1670","stopCode":"1670","lon":-71.053369,"lat":48.420903,"arrival":1522681259000,"departure":1522681260000,"zoneId":"NA","stopIndex":29,"stopSequence":30,"vertexType":"TRANSIT"},"to":{"name":"Jacques-Cartier / Tessier","stopId":"1:62","stopCode":"62","lon":-71.067531,"lat":48.426736,"arrival":1522681593000,"departure":1522681594000,"zoneId":"NA","stopIndex":37,"stopSequence":38,"vertexType":"TRANSIT"},"legGeometry":{"points":"sepfHprtpLy@w@L{@wAuA_B_B_EpLDh@NbBVvCIxBg@`Am@l@Sb@a@rAqDqDmEkE]a@kAqAU|@WnKG|DGxDOdPKvJU|F?XQlJC~@ChA","length":29},"routeShortName":"15","routeLongName":"Term. Chic / Costco","rentedBike":false,"transitLeg":true,"duration":333.0,"steps":[]},{"startTime":1522681594000,"endTime":1522682034000,"departureDelay":0,"arrivalDelay":0,"realTime":false,"distance":560.227,"pathway":false,"mode":"WALK","route":"","agencyTimeZoneOffset":-14400000,"interlineWithPreviousLeg":false,"from":{"name":"Jacques-Cartier / Tessier","stopId":"1:62","stopCode":"62","lon":-71.067531,"lat":48.426736,"arrival":1522681593000,"departure":1522681594000,"zoneId":"NA","stopIndex":37,"stopSequence":38,"vertexType":"TRANSIT"},"to":{"name":"Destination","lon":-71.07349399,"lat":48.425237,"arrival":1522682034000,"orig":"","vertexType":"NORMAL"},"legGeometry":{"points":"uiqfHbkwpLEnBC~AMrEInCAj@A`DjAJVJRXJRFFJBJEBG`AXNLDb@@Zp@hDF|@@R","length":22},"rentedBike":false,"transitLeg":false,"duration":440.0,"steps":[{"distance":76.392,"relativeDirection":"DEPART","streetName":"Rue Jacques-Cartier Est","absoluteDirection":"WEST","stayOn":false,"area":false,"bogusName":false,"lon":-71.0675380239516,"lat":48.42667414840684,"elevation":[]},{"distance":208.179,"relativeDirection":"CONTINUE","streetName":"Rue Jacques-Cartier Ouest","absoluteDirection":"WEST","stayOn":false,"area":false,"bogusName":false,"lon":-71.0685709,"lat":48.426721,"elevation":[]},{"distance":103.339,"relativeDirection":"LEFT","streetName":"Rue Montcalm","absoluteDirection":"SOUTH","stayOn":false,"area":false,"bogusName":false,"lon":-71.0713817,"lat":48.426863100000006,"elevation":[]},{"distance":48.492,"relativeDirection":"SLIGHTLY_RIGHT","streetName":"path","absoluteDirection":"SOUTH","stayOn":false,"area":false,"bogusName":true,"lon":-71.0717267,"lat":48.426028200000005,"elevation":[]},{"distance":123.82499999999999,"relativeDirection":"RIGHT","streetName":"Rue Price Ouest","absoluteDirection":"WEST","stayOn":false,"area":false,"bogusName":false,"lon":-71.0719217,"lat":48.425614800000005,"elevation":[]}]}],"tooSloped":false},{"duration":1501,"startTime":1522680777000,"endTime":1522682278000,"walkTime":308,"transitTime":891,"waitingTime":302,"walkDistance":400.03662405854914,"walkLimitExceeded":false,"elevationLost":0.0,"elevationGained":0.0,"transfers":1,"legs":[{"startTime":1522680777000,"endTime":1522681062000,"departureDelay":0,"arrivalDelay":0,"realTime":false,"distance":371.641,"pathway":false,"mode":"WALK","route":"","agencyTimeZoneOffset":-14400000,"interlineWithPreviousLeg":false,"from":{"name":"Origin","lon":-71.051562,"lat":48.415164,"departure":1522680777000,"orig":"","vertexType":"NORMAL"},"to":{"name":"boul. Université / Alma","stopId":"1:60","stopCode":"60","lon":-71.052847,"lat":48.413175,"arrival":1522681062000,"departure":1522681063000,"zoneId":"NA","stopIndex":12,"stopSequence":13,"vertexType":"TRANSIT"},"legGeometry":{"points":"i`ofHzctpL`BzAJJx@t@TPXAt@[z@]ZBzAtAHFiA`C_@\\","length":13},"rentedBike":false,"transitLeg":false,"duration":285.0,"steps":[{"distance":287.869,"relativeDirection":"DEPART","streetName":"Rue d'Alma","absoluteDirection":"SOUTHWEST","stayOn":false,"area":false,"bogusName":false,"lon":-71.0510142606893,"lat":48.41493992640824,"elevation":[]},{"distance":83.772,"relativeDirection":"RIGHT","streetName":"Boulevard de l'Université","absoluteDirection":"NORTHWEST","stayOn":false,"area":false,"bogusName":false,"lon":-71.0520843,"lat":48.4126337,"elevation":[]}]},{"startTime":1522681063000,"endTime":1522681800000,"departureDelay":0,"arrivalDelay":0,"realTime":false,"distance":3192.532780640062,"pathway":false,"mode":"BUS","route":"175","agencyName":"Société de Transport du Saguenay","agencyUrl":"http://ville.saguenay.ca/fr/services-aux-citoyens/transport-sts","agencyTimeZoneOffset":-14400000,"routeColor":"FF00FF","routeType":3,"routeId":"1:175","routeTextColor":"FFFFFF","interlineWithPreviousLeg":false,"tripBlockId":"11","headsign":"Terminus Chicoutimi","agencyId":"0","tripId":"1:217470","serviceDate":"20180402","from":{"name":"boul. Université / Alma","stopId":"1:60","stopCode":"60","lon":-71.052847,"lat":48.413175,"arrival":1522681062000,"departure":1522681063000,"zoneId":"NA","stopIndex":12,"stopSequence":13,"vertexType":"TRANSIT"},"to":{"name":"Terminus Chicoutimi","stopId":"1:1289","stopCode":"1289","lon":-71.066163,"lat":48.428677,"arrival":1522681800000,"departure":1522682100000,"zoneId":"NA","stopIndex":27,"stopSequence":28,"vertexType":"TRANSIT"},"legGeometry":{"points":"wunfHvntpLc@x@qG~@{BlAk@XgSrQqB_GAeFiEeEOt@gAeA_A_ATm@yAwAgBeBqDnL@nBF`@f@|C[dCuAfB]xAs@OmCmCmEkE]a@g@i@ZiGTmEl@oLaEe@cFk@?pH?tJDvBPjMB~Bo@PQDRbFKdGMhIOvIK|EQpHoCQEdC","length":47},"routeShortName":"175","routeLongName":"Term. Chic / Costco","rentedBike":false,"transitLeg":true,"duration":737.0,"steps":[]},{"startTime":1522682100000,"endTime":1522682254000,"departureDelay":0,"arrivalDelay":0,"realTime":false,"distance":763.2357621895715,"pathway":false,"mode":"BUS","route":"11","agencyName":"Société de Transport du Saguenay","agencyUrl":"http://ville.saguenay.ca/fr/services-aux-citoyens/transport-sts","agencyTimeZoneOffset":-14400000,"routeColor":"FF0000","routeType":3,"routeId":"1:11","routeTextColor":"FFFFFF","interlineWithPreviousLeg":false,"tripBlockId":"36","headsign":"Boul.Royaume/St-Pierre","agencyId":"0","tripId":"1:218286","serviceDate":"20180402","from":{"name":"Terminus Chicoutimi","stopId":"1:1289","stopCode":"1289","lon":-71.066163,"lat":48.428677,"arrival":1522681800000,"departure":1522682100000,"zoneId":"NA","stopIndex":0,"stopSequence":1,"vertexType":"TRANSIT"},"to":{"name":"Price / Sainte-Marthe","stopId":"1:416","stopCode":"416","lon":-71.073879,"lat":48.425333,"arrival":1522682254000,"departure":1522682255000,"zoneId":"NA","stopIndex":3,"stopSequence":4,"vertexType":"TRANSIT"},"legGeometry":{"points":"evqfHzcwpLk@?UhKfIh@dKp@GnDIfDOtEE~@Ff@x@rEF~@CbAAL","length":14},"routeShortName":"11","routeLongName":"Chic/Faubourg via St-Paul","rentedBike":false,"transitLeg":true,"duration":154.0,"steps":[]},{"startTime":1522682255000,"endTime":1522682278000,"departureDelay":0,"arrivalDelay":0,"realTime":false,"distance":28.346,"pathway":false,"mode":"WALK","route":"","agencyTimeZoneOffset":-14400000,"interlineWithPreviousLeg":false,"from":{"name":"Price / Sainte-Marthe","stopId":"1:416","stopCode":"416","lon":-71.073879,"lat":48.425333,"arrival":1522682254000,"departure":1522682255000,"zoneId":"NA","stopIndex":3,"stopSequence":4,"vertexType":"TRANSIT"},"to":{"name":"Destination","lon":-71.07349399,"lat":48.425237,"arrival":1522682278000,"orig":"","vertexType":"NORMAL"},"legGeometry":{"points":"aaqfHxrxpLDcAAG","length":3},"rentedBike":false,"transitLeg":false,"duration":23.0,"steps":[{"distance":28.346,"relativeDirection":"DEPART","streetName":"Rue Price Ouest","absoluteDirection":"EAST","stayOn":false,"area":false,"bogusName":false,"lon":-71.07388546753897,"lat":48.425292036907,"elevation":[]}]}],"tooSloped":false}]},"debugOutput":{"precalculationTime":45,"pathCalculationTime":51,"pathTimes":[23,14,13],"renderingTime":0,"totalTime":96,"timedOut":false},"elevationMetadata":{"ellipsoidToGeoidDifference":-28.885904201182168,"geoidElevation":false}}