{"requestParameters":{"date":"2018/04/02","walkSpeed":"1.33","walkReluctance":"2.0","fromPlace":"48.427878,-71.056064","maxWalkDistance":"3000","waitReluctance":"1.0","carSpeed":"33","numItineraries":"3","waitAtBeginningFactor":"0.4","mode":"TRANSIT,WALK","ignoreRealtimeUpdates":"false","stairsReluctance":"2.0","toPlace":"48.419243,-71.080239","time":"12:15:00"},"plan":{"date":1522685700000,"from":{"name":"Origin","lon":-71.056064,"lat":48.427878,"orig":"","vertexType":"NORMAL"},"to":{"name":"Destination","lon":-71.080239,"lat":48.419243,"orig":"","vertexType":"NORMAL"},"itineraries":[{"duration":1842,"startTime":1522685700000,"endTime":1522687542000,"walkTime":1842,"transitTime":0,"waitingTime":0,"walkDistance":2344.051180437504,"walkLimitExceeded":false,"elevationLost":0.0,"elevationGained":0.0,"transfers":0,"legs":[{"startTime":1522685700000,"endTime":1522687542000,"departureDelay":0,"arrivalDelay":0,"realTime":false,"distance":2343.628999999999,"pathway":false,"mode":"WALK","route":"","agencyTimeZoneOffset":-14400000,"interlineWithPreviousLeg":false,"from":{"name":"Origin","lon":-71.056064,"lat":48.427878,"departure":1522685700000,"orig":"","vertexType":"NORMAL"},"to":{"name":"Destination","lon":-71.080239,"lat":48.419243,"arrival":1522687542000,"orig":"","vertexType":"NORMAL"},"legGeometry":{"points":"}qqfH~cupL`AfEFj@LhA?lB?JCrBA~@C~@EtAlAD^@An@XnAJb@Hb@F^FtABjA?~@Bt@@j@Hr@R~ADPJPr@pBbAxBt@jBVn@Vn@PF@n@j@f@n@pBf@dA`BtDh@nALLb@n@Tx@h@tAb@jAf@nAFP@LCx@AXZVJj@Nz@@TBR`A@b@@r@BJ@[rAKZ_@jAERI\\RZ?d@@n@D|@Bd@XbAFb@|@~@TV|B|BhCjCh@j@NNvDzDw@xB]fAdAtCu@rCJJ","length":81},"rentedBike":false,"transitLeg":false,"duration":1842.0,"steps":[{"distance":295.23600000000005,"relativeDirection":"DEPART","streetName":"Rue Racine Est","absoluteDirection":"SOUTHWEST","stayOn":false,"area":false,"bogusName":false,"lon":-71.05615012108905,"lat":48.42799332343495,"elevation":[]},{"distance":61.031000000000006,"relativeDirection":"LEFT","streetName":"Rue La Fontaine","absoluteDirection":"SOUTH","stayOn":false,"area":false,"bogusName":false,"lon":-71.0600075,"lat":48.4276324,"elevation":[]},{"distance":490.78299999999996,"relativeDirection":"RIGHT","streetName":"service road","absoluteDirection":"WEST","stayOn":false,"area":false,"bogusName":true,"lon":-71.0600417,"lat":48.427084,"elevation":[]},{"distance":10.208,"relativeDirection":"SLIGHTLY_LEFT","streetName":"Rue Morin","absoluteDirection":"SOUTH","stayOn":false,"area":false,"bogusName":false,"lon":-71.0659473,"lat":48.425372700000004,"elevation":[]},{"distance":17.515,"relativeDirection":"RIGHT","streetName":"Rue Price Est","absoluteDirection":"WEST","stayOn":false,"area":false,"bogusName":false,"lon":-71.06598410000001,"lat":48.4252842,"elevation":[]},{"distance":421.72799999999995,"relativeDirection":"LEFT","streetName":"path","absoluteDirection":"SOUTHWEST","stayOn":false,"area":false,"bogusName":true,"lon":-71.0662212,"lat":48.425276600000004,"elevation":[]},{"distance":30.689999999999998,"relativeDirection":"SLIGHTLY_RIGHT","streetName":"Rue Lorne Ouest","absoluteDirection":"WEST","stayOn":false,"area":false,"bogusName":false,"lon":-71.07062780000001,"lat":48.4229131,"elevation":[]},{"distance":74.692,"relativeDirection":"LEFT","streetName":"alley","absoluteDirection":"SOUTHWEST","stayOn":false,"area":false,"bogusName":true,"lon":-71.0710413,"lat":48.4229422,"elevation":[]},{"distance":56.932,"relativeDirection":"LEFT","streetName":"Rue Lorne Ouest","absoluteDirection":"SOUTH","stayOn":false,"area":false,"bogusName":false,"lon":-71.0718933,"lat":48.4226328,"elevation":[]},{"distance":35.173,"relativeDirection":"CONTINUE","streetName":"sidewalk","absoluteDirection":"SOUTH","stayOn":false,"area":false,"bogusName":true,"lon":-71.0719153,"lat":48.422121000000004,"elevation":[]},{"distance":100.872,"relativeDirection":"RIGHT","streetName":"Boulevard de l'Université","absoluteDirection":"NORTHWEST","stayOn":false,"area":false,"bogusName":false,"lon":-71.0719452,"lat":48.4218053,"elevation":[]},{"distance":15.283,"relativeDirection":"LEFT","streetName":"Boulevard Saint-Paul","absoluteDirection":"SOUTHWEST","stayOn":false,"area":false,"bogusName":false,"lon":-71.0731375,"lat":48.4222466,"elevation":[]},{"distance":508.621,"relativeDirection":"RIGHT","streetName":"Rue Saint-Paul","absoluteDirection":"WEST","stayOn":false,"area":false,"bogusName":false,"lon":-71.0732783,"lat":48.4221458,"elevation":[]},{"distance":86.137,"relativeDirection":"RIGHT","streetName":"Rue Saint-Henri","absoluteDirection":"NORTHWEST","stayOn":false,"area":false,"bogusName":false,"lon":-71.07773680000001,"lat":48.418960000000006,"elevation":[]},{"distance":68.482,"relativeDirection":"LEFT","streetName":"Rue Saint-Jean","absoluteDirection":"SOUTHWEST","stayOn":false,"area":false,"bogusName":false,"lon":-71.07870050000001,"lat":48.419397000000004,"elevation":[]},{"distance":62.064,"relativeDirection":"RIGHT","streetName":"Rue Saint-Louis","absoluteDirection":"NORTHWEST","stayOn":false,"area":false,"bogusName":false,"lon":-71.079457,"lat":48.419040300000006,"elevation":[]},{"distance":8.182,"relativeDirection":"LEFT","streetName":"Rue Saint-Arthur","absoluteDirection":"SOUTHWEST","stayOn":false,"area":false,"bogusName":false,"lon":-71.0801924,"lat":48.4193111,"elevation":[]}]}],"tooSloped":false},{"duration":1140,"startTime":1522686889000,"endTime":1522688029000,"walkTime":827,"transitTime":311,"waitingTime":2,"walkDistance":1052.3529097691473,"walkLimitExceeded":false,"elevationLost":0.0,"elevationGained":0.0,"transfers":0,"legs":[{"startTime":1522686889000,"endTime":1522687499000,"departureDelay":0,"arrivalDelay":0,"realTime":false,"distance":788.317,"pathway":false,"mode":"WALK","route":"","agencyTimeZoneOffset":-14400000,"interlineWithPreviousLeg":false,"from":{"name":"Origin","lon":-71.056064,"lat":48.427878,"departure":1522686889000,"orig":"","vertexType":"NORMAL"},"to":{"name":"Terminus Chicoutimi","stopId":"1:1289","stopCode":"1289","lon":-71.066163,"lat":48.428677,"arrival":1522687499000,"departure":1522687500000,"zoneId":"NA","stopIndex":0,"stopSequence":1,"vertexType":"TRANSIT"},"legGeometry":{"points":"}qqfH~cupL`AfEFj@LhA?lB?JCrBA~@C~@EtAKpFAl@?RCv@IxEAh@GpBAXAj@SzHc@MKESAcAK","length":24},"rentedBike":false,"transitLeg":false,"duration":610.0,"steps":[{"distance":711.11,"relativeDirection":"DEPART","streetName":"Rue Racine Est","absoluteDirection":"SOUTHWEST","stayOn":false,"area":false,"bogusName":false,"lon":-71.05615012108905,"lat":48.42799332343495,"elevation":[]},{"distance":77.207,"relativeDirection":"RIGHT","streetName":"Rue Morin","absoluteDirection":"NORTH","stayOn":false,"area":false,"bogusName":false,"lon":-71.0656238,"lat":48.4279449,"elevation":[]}]},{"startTime":1522687500000,"endTime":1522687811000,"departureDelay":0,"arrivalDelay":0,"realTime":false,"distance":1643.6101911730875,"pathway":false,"mode":"BUS","route":"11","agencyName":"Société de Transport du Saguenay","agencyUrl":"http://ville.saguenay.ca/fr/services-aux-citoyens/transport-sts","agencyTimeZoneOffset":-14400000,"routeColor":"FF0000","routeType":3,"routeId":"1:11","routeTextColor":"FFFFFF","interlineWithPreviousLeg":false,"tripBlockId":"34","headsign":"Boul.Royaume/St-Pierre","agencyId":"0","tripId":"1:218219","serviceDate":"20180402","from":{"name":"Terminus Chicoutimi","stopId":"1:1289","stopCode":"1289","lon":-71.066163,"lat":48.428677,"arrival":1522687499000,"departure":1522687500000,"zoneId":"NA","stopIndex":0,"stopSequence":1,"vertexType":"TRANSIT"},"to":{"name":"Saint-Paul / Saint-Henri","stopId":"1:422","stopCode":"422","lon":-71.0781,"lat":48.4187,"arrival":1522687811000,"departure":1522687812000,"zoneId":"NA","stopIndex":9,"stopSequence":10,"vertexType":"TRANSIT"},"legGeometry":{"points":"evqfHzcwpLk@?UhKfIh@dKp@GnDIfDOtEE~@Ff@x@rEF~@CbAALO~ADRNJXBr@DfGRPBPJLN@@FPFTBX?TE`BhBR@?J@NELKFOlAiDL[bA`AfIjIbGdG","length":40},"routeShortName":"11","routeLongName":"Chic/Faubourg via St-Paul","rentedBike":false,"transitLeg":true,"duration":311.0,"steps":[]},{"startTime":1522687812000,"endTime":1522688029000,"departureDelay":0,"arrivalDelay":0,"realTime":false,"distance":263.872,"pathway":false,"mode":"WALK","route":"","agencyTimeZoneOffset":-14400000,"interlineWithPreviousLeg":false,"from":{"name":"Saint-Paul / Saint-Henri","stopId":"1:422","stopCode":"422","lon":-71.0781,"lat":48.4187,"arrival":1522687811000,"departure":1522687812000,"zoneId":"NA","stopIndex":9,"stopSequence":10,"vertexType":"TRANSIT"},"to":{"name":"Destination","lon":-71.080239,"lat":48.419243,"arrival":1522688029000,"orig":"","vertexType":"NORMAL"},"legGeometry":{"points":"uwofHvlypLy@{@w@xB]fAdAtCu@rCJJ","length":7},"rentedBike":false,"transitLeg":false,"duration":217.0,"steps":[{"distance":39.007,"relativeDirection":"DEPART","streetName":"Rue Saint-Paul","absoluteDirection":"NORTHEAST","stayOn":false,"area":false,"bogusName":false,"lon":-71.07803616807794,"lat":48.418670886448396,"elevation":[]},{"distance":86.137,"relativeDirection":"LEFT","streetName":"Rue Saint-Henri","absoluteDirection":"NORTHWEST","stayOn":false,"area":false,"bogusName":false,"lon":-71.07773680000001,"lat":48.418960000000006,"elevation":[]},{"distance":68.482,"relativeDirection":"LEFT","streetName":"Rue Saint-Jean","absoluteDirection":"SOUTHWEST","stayOn":false,"area":false,"bogusName":false,"lon":-71.07870050000001,"lat":48.419397000000004,"elevation":[]},{"distance":62.064,"relativeDirection":"RIGHT","streetName":"Rue Saint-Louis","absoluteDirection":"NORTHWEST","stayOn":false,"area":false,"bogusName":false,"lon":-71.079457,"lat":48.419040300000006,"elevation":[]},{"distance":8.182,"relativeDirection":"LEFT","streetName":"Rue Saint-Arthur","absoluteDirection":"SOUTHWEST","stayOn":false,"area":false,"bogusName":false,"lon":-71.0801924,"lat":48.4193111,"elevation":[]}]}],"tooSloped":false},{"duration":1353,"startTime":1522687400000,"endTime":1522688753000,"walkTime":640,"transitTime":711,"waitingTime":2,"walkDistance":803.8332255577717,"walkLimitExceeded":false,"elevationLost":0.0,"elevationGained":0.0,"transfers":0,"legs":[{"startTime":1522687400000,"endTime":1522687667000,"departureDelay":0,"arrivalDelay":0,"realTime":false,"distance":338.38,"pathway":false,"mode":"WALK","route":"","agencyTimeZoneOffset":-14400000,"interlineWithPreviousLeg":false,"from":{"name":"Origin","lon":-71.056064,"lat":48.427878,"departure":1522687400000,"orig":"","vertexType":"NORMAL"},"to":{"name":"Jacques-Cartier / Labrecque","stopId":"1:1929","stopCode":"1929","lon":-71.058294,"lat":48.426189,"arrival":1522687667000,"departure":1522687668000,"zoneId":"NA","stopIndex":3,"stopSequence":4,"vertexType":"TRANSIT"},"legGeometry":{"points":"}qqfH~cupL`AfE\\Gn@OPERC^?nCJI|D?J?VAT","length":12},"rentedBike":false,"transitLeg":false,"duration":267.0,"steps":[{"distance":82.724,"relativeDirection":"DEPART","streetName":"Rue Racine Est","absoluteDirection":"SOUTHWEST","stayOn":false,"area":false,"bogusName":false,"lon":-71.05615012108905,"lat":48.42799332343495,"elevation":[]},{"distance":163.66,"relativeDirection":"LEFT","streetName":"Rue Labrecque","absoluteDirection":"SOUTH","stayOn":false,"area":false,"bogusName":false,"lon":-71.0571547,"lat":48.427663,"elevation":[]},{"distance":91.99600000000001,"relativeDirection":"RIGHT","streetName":"Rue Jacques-Cartier Est","absoluteDirection":"WEST","stayOn":false,"area":false,"bogusName":false,"lon":-71.05704440000001,"lat":48.4262037,"elevation":[]}]},{"startTime":1522687668000,"endTime":1522688379000,"departureDelay":0,"arrivalDelay":0,"realTime":false,"distance":2866.14794298979,"pathway":false,"mode":"BUS","route":"14","agencyName":"Société de Transport du Saguenay","agencyUrl":"http://ville.saguenay.ca/fr/services-aux-citoyens/transport-sts","agencyTimeZoneOffset":-14400000,"routeColor":"C0C000","routeType":3,"routeId":"1:14","routeTextColor":"000000","interlineWithPreviousLeg":false,"tripBlockId":"30","headsign":"Talbot / Barrette","agencyId":"0","tripId":"1:218099","serviceDate":"20180402","from":{"name":"Jacques-Cartier / Labrecque","stopId":"1:1929","stopCode":"1929","lon":-71.058294,"lat":48.426189,"arrival":1522687667000,"departure":1522687668000,"zoneId":"NA","stopIndex":3,"stopSequence":4,"vertexType":"TRANSIT"},"to":{"name":"Carrefour 216","stopId":"1:524","stopCode":"524","lon":-71.076345,"lat":48.417612,"arrival":1522688379000,"departure":1522688380000,"zoneId":"NA","stopIndex":12,"stopSequence":13,"vertexType":"TRANSIT"},"legGeometry":{"points":"kgqfHhqupL@eBH_AF}A@w@Dq@@i@B}B@Y@e@D]F_@@SHQCKnBnBvIrIn@n@\\iATg@v@_ATg@LmABg@Is@c@iEAm@bAcDTcAtA{DJI|AxAvAvAQv@~@z@dA`ATq@`E~DL`@E`Ex@hDd@`B}FtFaAzAm@xAe@jCa@nDiAbm@SpKM`H]vBhDVzCTcAvCO^bEbEzK`L","length":57},"routeShortName":"14","routeLongName":"Coopérative","rentedBike":false,"transitLeg":true,"duration":711.0,"steps":[]},{"startTime":1522688380000,"endTime":1522688753000,"departureDelay":0,"arrivalDelay":0,"realTime":false,"distance":465.2630000000001,"pathway":false,"mode":"WALK","route":"","agencyTimeZoneOffset":-14400000,"interlineWithPreviousLeg":false,"from":{"name":"Carrefour 216","stopId":"1:524","stopCode":"524","lon":-71.076345,"lat":48.417612,"arrival":1522688379000,"departure":1522688380000,"zoneId":"NA","stopIndex":12,"stopSequence":13,"vertexType":"TRANSIT"},"to":{"name":"Destination","lon":-71.080239,"lat":48.419243,"arrival":1522688753000,"orig":"","vertexType":"NORMAL"},"legGeometry":{"points":"ypofHtaypL{@{@SQSQaAnCITy@`Ck@|Aw@xB]fAdAtCu@rCJJ","length":13},"rentedBike":false,"transitLeg":false,"duration":373.0,"steps":[{"distance":65.55199999999999,"relativeDirection":"DEPART","streetName":"Rue Caron","absoluteDirection":"NORTHEAST","stayOn":false,"area":false,"bogusName":false,"lon":-71.07626391976946,"lat":48.41757688506955,"elevation":[]},{"distance":260.983,"relativeDirection":"LEFT","streetName":"Rue Saint-Henri","absoluteDirection":"NORTHWEST","stayOn":false,"area":false,"bogusName":false,"lon":-71.0757816,"lat":48.4180719,"elevation":[]},{"distance":68.482,"relativeDirection":"LEFT","streetName":"Rue Saint-Jean","absoluteDirection":"SOUTHWEST","stayOn":false,"area":false,"bogusName":false,"lon":-71.07870050000001,"lat":48.419397000000004,"elevation":[]},{"distance":62.064,"relativeDirection":"RIGHT","streetName":"Rue Saint-Louis","absoluteDirection":"NORTHWEST","stayOn":false,"area":false,"bogusName":false,"lon":-71.079457,"lat":48.419040300000006,"elevation":[]},{"distance":8.182,"relativeDirection":"LEFT","streetName":"Rue Saint-Arthur","absoluteDirection":"SOUTHWEST","stayOn":false,"area":false,"bogusName":false,"lon":-71.0801924,"lat":48.4193111,"elevation":[]}]}],"tooSloped":false}]},"debugOutput":{"precalculationTime":35,"pathCalculationTime":41,"pathTimes":[20,10,11],"renderingTime":0,"totalTime":76,"timedOut":false},"elevationMetadata":{"ellipsoidToGeoidDifference":-28.885904201182168,"geoidElevation":false}}