{"requestParameters":{"date":"2018/04/02","walkSpeed":"1.33","walkReluctance":"2.0","fromPlace":"48.418942,-71.080693","maxWalkDistance":"3000","waitReluctance":"1.0","carSpeed":"33","numItineraries":"3","waitAtBeginningFactor":"0.4","mode":"TRANSIT,WALK","ignoreRealtimeUpdates":"false","stairsReluctance":"2.0","toPlace":"48.411074,-71.089195","time":"7:10:00"},"plan":{"date":1522667400000,"from":{"name":"Origin","lon":-71.080693,"lat":48.418942,"orig":"","vertexType":"NORMAL"},"to":{"name":"Destination","lon":-71.089195,"lat":48.411074,"orig":"","vertexType":"NORMAL"},"itineraries":[{"duration":494,"startTime":1522667792000,"endTime":1522668286000,"walkTime":293,"transitTime":199,"waitingTime":2,"walkDistance":370.64345864392357,"walkLimitExceeded":false,"elevationLost":0.0,"elevationGained":0.0,"transfers":0,"legs":[{"startTime":1522667792000,"endTime":1522668044000,"departureDelay":0,"arrivalDelay":0,"realTime":false,"distance":318.115,"pathway":false,"mode":"WALK","route":"","agencyTimeZoneOffset":-14400000,"interlineWithPreviousLeg":false,"from":{"name":"Origin","lon":-71.080693,"lat":48.418942,"departure":1522667792000,"orig":"","vertexType":"NORMAL"},"to":{"name":"Saint-Paul / Cimon","stopId":"1:423","stopCode":"423","lon":-71.079825,"lat":48.41719,"arrival":1522668044000,"departure":1522668045000,"zoneId":"NA","stopIndex":10,"stopSequence":11,"vertexType":"TRANSIT"},"legGeometry":{"points":"cyofHz|ypL|CdDj@aDXyAhA}Cf@v@HN","length":7},"rentedBike":false,"transitLeg":false,"duration":252.0,"steps":[{"distance":107.532,"relativeDirection":"DEPART","streetName":"Rue Saint-Arthur","absoluteDirection":"SOUTHWEST","stayOn":false,"area":false,"bogusName":false,"lon":-71.08061512848742,"lat":48.4189061905004,"elevation":[]},{"distance":172.281,"relativeDirection":"LEFT","streetName":"Rue Cimon","absoluteDirection":"EAST","stayOn":false,"area":false,"bogusName":false,"lon":-71.081445,"lat":48.4181113,"elevation":[]},{"distance":38.302,"relativeDirection":"RIGHT","streetName":"Rue Saint-Paul","absoluteDirection":"SOUTHWEST","stayOn":false,"area":false,"bogusName":false,"lon":-71.0793926,"lat":48.417391900000005,"elevation":[]}]},{"startTime":1522668045000,"endTime":1522668244000,"departureDelay":0,"arrivalDelay":0,"realTime":false,"distance":918.4075293566306,"pathway":false,"mode":"BUS","route":"11","agencyName":"Société de Transport du Saguenay","agencyUrl":"http://ville.saguenay.ca/fr/services-aux-citoyens/transport-sts","agencyTimeZoneOffset":-14400000,"routeColor":"FF0000","routeType":3,"routeId":"1:11","routeTextColor":"FFFFFF","interlineWithPreviousLeg":false,"tripBlockId":"36","headsign":"Boul.Royaume/St-Pierre","agencyId":"0","tripId":"1:218278","serviceDate":"20180402","from":{"name":"Saint-Paul / Cimon","stopId":"1:423","stopCode":"423","lon":-71.079825,"lat":48.41719,"arrival":1522668044000,"departure":1522668045000,"zoneId":"NA","stopIndex":10,"stopSequence":11,"vertexType":"TRANSIT"},"to":{"name":"boul. Saint-Paul / Martin Bouvard","stopId":"1:427","stopCode":"427","lon":-71.088402,"lat":48.411206,"arrival":1522668244000,"departure":1522668245000,"zoneId":"NA","stopIndex":13,"stopSequence":14,"vertexType":"TRANSIT"},"legGeometry":{"points":"gnofHvwypLpApBpClEvJrOR\\bAfBLa@t@]LjAVvAVbAVv@^bAXj@b@t@xEtGh@r@","length":17},"routeShortName":"11","routeLongName":"Chic/Faubourg via St-Paul","rentedBike":false,"transitLeg":true,"duration":199.0,"steps":[]},{"startTime":1522668245000,"endTime":1522668286000,"departureDelay":0,"arrivalDelay":0,"realTime":false,"distance":52.445,"pathway":false,"mode":"WALK","route":"","agencyTimeZoneOffset":-14400000,"interlineWithPreviousLeg":false,"from":{"name":"boul. Saint-Paul / Martin Bouvard","stopId":"1:427","stopCode":"427","lon":-71.088402,"lat":48.411206,"arrival":1522668244000,"departure":1522668245000,"zoneId":"NA","stopIndex":13,"stopSequence":14,"vertexType":"TRANSIT"},"to":{"name":"Destination","lon":-71.089195,"lat":48.411074,"arrival":1522668286000,"orig":"","vertexType":"NORMAL"},"legGeometry":{"points":"shnfHtl{pLfAbADH","length":3},"rentedBike":false,"transitLeg":false,"duration":41.0,"steps":[{"distance":52.445,"relativeDirection":"DEPART","streetName":"Boulevard Saint-Paul","absoluteDirection":"SOUTHWEST","stayOn":false,"area":false,"bogusName":false,"lon":-71.08826195247585,"lat":48.41114632424416,"elevation":[]}]}],"tooSloped":false},{"duration":1024,"startTime":1522667400000,"endTime":1522668424000,"walkTime":1024,"transitTime":0,"waitingTime":0,"walkDistance":1309.760323300871,"walkLimitExceeded":false,"elevationLost":0.0,"elevationGained":0.0,"transfers":0,"legs":[{"startTime":1522667400000,"endTime":1522668424000,"departureDelay":0,"arrivalDelay":0,"realTime":false,"distance":1309.531,"pathway":false,"mode":"WALK","route":"","agencyTimeZoneOffset":-14400000,"interlineWithPreviousLeg":false,"from":{"name":"Origin","lon":-71.080693,"lat":48.418942,"departure":1522667400000,"orig":"","vertexType":"NORMAL"},"to":{"name":"Destination","lon":-71.089195,"lat":48.411074,"arrival":1522668424000,"orig":"","vertexType":"NORMAL"},"legGeometry":{"points":"cyofHz|ypL|CdDj@aDXyA~BzDRZTb@hAhB|AnBhGnJnAyBf@x@fAfBPTHWd@WRKh@pDh@fBz@rBbBbCj@x@hBjCj@j@BBfAbADH","length":27},"rentedBike":false,"transitLeg":false,"duration":1024.0,"steps":[{"distance":107.532,"relativeDirection":"DEPART","streetName":"Rue Saint-Arthur","absoluteDirection":"SOUTHWEST","stayOn":false,"area":false,"bogusName":false,"lon":-71.08061512848742,"lat":48.4189061905004,"elevation":[]},{"distance":100.67,"relativeDirection":"LEFT","streetName":"Rue Cimon","absoluteDirection":"EAST","stayOn":false,"area":false,"bogusName":false,"lon":-71.081445,"lat":48.4181113,"elevation":[]},{"distance":456.48199999999997,"relativeDirection":"RIGHT","streetName":"Rue Nio","absoluteDirection":"SOUTHWEST","stayOn":false,"area":false,"bogusName":false,"lon":-71.08018650000001,"lat":48.417762200000006,"elevation":[]},{"distance":63.19,"relativeDirection":"LEFT","streetName":"Rue Sainte-Thérèse","absoluteDirection":"SOUTHEAST","stayOn":false,"area":false,"bogusName":false,"lon":-71.0843761,"lat":48.4147453,"elevation":[]},{"distance":98.993,"relativeDirection":"RIGHT","streetName":"Rue Saint-Paul","absoluteDirection":"SOUTHWEST","stayOn":false,"area":false,"bogusName":false,"lon":-71.08376480000001,"lat":48.414347400000004,"elevation":[]},{"distance":44.901,"relativeDirection":"LEFT","streetName":"Rue Saint-Augustin","absoluteDirection":"SOUTHEAST","stayOn":false,"area":false,"bogusName":false,"lon":-71.0846811,"lat":48.413698000000004,"elevation":[]},{"distance":437.763,"relativeDirection":"RIGHT","streetName":"Boulevard Saint-Paul","absoluteDirection":"WEST","stayOn":false,"area":false,"bogusName":false,"lon":-71.0843859,"lat":48.413356300000004,"elevation":[]}]}],"tooSloped":false},{"duration":494,"startTime":1522669592000,"endTime":1522670086000,"walkTime":293,"transitTime":199,"waitingTime":2,"walkDistance":370.64345864392357,"walkLimitExceeded":false,"elevationLost":0.0,"elevationGained":0.0,"transfers":0,"legs":[{"startTime":1522669592000,"endTime":1522669844000,"departureDelay":0,"arrivalDelay":0,"realTime":false,"distance":318.115,"pathway":false,"mode":"WALK","route":"","agencyTimeZoneOffset":-14400000,"interlineWithPreviousLeg":false,"from":{"name":"Origin","lon":-71.080693,"lat":48.418942,"departure":1522669592000,"orig":"","vertexType":"NORMAL"},"to":{"name":"Saint-Paul / Cimon","stopId":"1:423","stopCode":"423","lon":-71.079825,"lat":48.41719,"arrival":1522669844000,"departure":1522669845000,"zoneId":"NA","stopIndex":10,"stopSequence":11,"vertexType":"TRANSIT"},"legGeometry":{"points":"cyofHz|ypL|CdDj@aDXyAhA}Cf@v@HN","length":7},"rentedBike":false,"transitLeg":false,"duration":252.0,"steps":[{"distance":107.532,"relativeDirection":"DEPART","streetName":"Rue Saint-Arthur","absoluteDirection":"SOUTHWEST","stayOn":false,"area":false,"bogusName":false,"lon":-71.08061512848742,"lat":48.4189061905004,"elevation":[]},{"distance":172.281,"relativeDirection":"LEFT","streetName":"Rue Cimon","absoluteDirection":"EAST","stayOn":false,"area":false,"bogusName":false,"lon":-71.081445,"lat":48.4181113,"elevation":[]},{"distance":38.302,"relativeDirection":"RIGHT","streetName":"Rue Saint-Paul","absoluteDirection":"SOUTHWEST","stayOn":false,"area":false,"bogusName":false,"lon":-71.0793926,"lat":48.417391900000005,"elevation":[]}]},{"startTime":1522669845000,"endTime":1522670044000,"departureDelay":0,"arrivalDelay":0,"realTime":false,"distance":918.4075293566306,"pathway":false,"mode":"BUS","route":"11","agencyName":"Société de Transport du Saguenay","agencyUrl":"http://ville.saguenay.ca/fr/services-aux-citoyens/transport-sts","agencyTimeZoneOffset":-14400000,"routeColor":"FF0000","routeType":3,"routeId":"1:11","routeTextColor":"FFFFFF","interlineWithPreviousLeg":false,"tripBlockId":"35","headsign":"Boul.Royaume/St-Pierre","agencyId":"0","tripId":"1:218244","serviceDate":"20180402","from":{"name":"Saint-Paul / Cimon","stopId":"1:423","stopCode":"423","lon":-71.079825,"lat":48.41719,"arrival":1522669844000,"departure":1522669845000,"zoneId":"NA","stopIndex":10,"stopSequence":11,"vertexType":"TRANSIT"},"to":{"name":"boul. Saint-Paul / Martin Bouvard","stopId":"1:427","stopCode":"427","lon":-71.088402,"lat":48.411206,"arrival":1522670044000,"departure":1522670045000,"zoneId":"NA","stopIndex":13,"stopSequence":14,"vertexType":"TRANSIT"},"legGeometry":{"points":"gnofHvwypLpApBpClEvJrOR\\bAfBLa@t@]LjAVvAVbAVv@^bAXj@b@t@xEtGh@r@","length":17},"routeShortName":"11","routeLongName":"Chic/Faubourg via St-Paul","rentedBike":false,"transitLeg":true,"duration":199.0,"steps":[]},{"startTime":1522670045000,"endTime":1522670086000,"departureDelay":0,"arrivalDelay":0,"realTime":false,"distance":52.445,"pathway":false,"mode":"WALK","route":"","agencyTimeZoneOffset":-14400000,"interlineWithPreviousLeg":false,"from":{"name":"boul. Saint-Paul / Martin Bouvard","stopId":"1:427","stopCode":"427","lon":-71.088402,"lat":48.411206,"arrival":1522670044000,"departure":1522670045000,"zoneId":"NA","stopIndex":13,"stopSequence":14,"vertexType":"TRANSIT"},"to":{"name":"Destination","lon":-71.089195,"lat":48.411074,"arrival":1522670086000,"orig":"","vertexType":"NORMAL"},"legGeometry":{"points":"shnfHtl{pLfAbADH","length":3},"rentedBike":false,"transitLeg":false,"duration":41.0,"steps":[{"distance":52.445,"relativeDirection":"DEPART","streetName":"Boulevard Saint-Paul","absoluteDirection":"SOUTHWEST","stayOn":false,"area":false,"bogusName":false,"lon":-71.08826195247585,"lat":48.41114632424416,"elevation":[]}]}],"tooSloped":false}]},"debugOutput":{"precalculationTime":28,"pathCalculationTime":17,"pathTimes":[9,6,2],"renderingTime":0,"totalTime":45,"timedOut":false},"elevationMetadata":{"ellipsoidToGeoidDifference":-28.885904201182168,"geoidElevation":false}}