{"requestParameters":{"date":"2018/04/02","walkSpeed":"1.33","walkReluctance":"2.0","fromPlace":"48.422645,-71.027091","maxWalkDistance":"3000","waitReluctance":"1.0","carSpeed":"33","numItineraries":"3","waitAtBeginningFactor":"0.4","mode":"TRANSIT,WALK","ignoreRealtimeUpdates":"false","stairsReluctance":"2.0","toPlace":"48.418729,-71.053021","time":"10:0:00"},"plan":{"date":1522677600000,"from":{"name":"Origin","lon":-71.027091,"lat":48.422645,"orig":"","vertexType":"NORMAL"},"to":{"name":"Destination","lon":-71.053021,"lat":48.418729,"orig":"","vertexType":"NORMAL"},"itineraries":[{"duration":1477,"startTime":1522678981000,"endTime":1522680458000,"walkTime":491,"transitTime":984,"waitingTime":2,"walkDistance":620.5832330780852,"walkLimitExceeded":false,"elevationLost":0.0,"elevationGained":0.0,"transfers":0,"legs":[{"startTime":1522678981000,"endTime":1522679195000,"departureDelay":0,"arrivalDelay":0,"realTime":false,"distance":271.921,"pathway":false,"mode":"WALK","route":"","agencyTimeZoneOffset":-14400000,"interlineWithPreviousLeg":false,"from":{"name":"Origin","lon":-71.027091,"lat":48.422645,"departure":1522678981000,"orig":"","vertexType":"NORMAL"},"to":{"name":"Normandie / Ferland","stopId":"1:1532","stopCode":"1532","lon":-71.024617,"lat":48.423555,"arrival":1522679195000,"departure":1522679196000,"zoneId":"NA","stopIndex":20,"stopSequence":21,"vertexType":"TRANSIT"},"legGeometry":{"points":"}opfHbmopLSWIIUUg@i@W[CC]]CC]a@a@a@g@k@Pg@Ng@DMj@yAUK","length":17},"rentedBike":false,"transitLeg":false,"duration":214.0,"steps":[{"distance":176.164,"relativeDirection":"DEPART","streetName":"Rue Honoré-Mercier","absoluteDirection":"NORTHEAST","stayOn":false,"area":false,"bogusName":false,"lon":-71.02689024902531,"lat":48.422551252951735,"elevation":[]},{"distance":82.765,"relativeDirection":"RIGHT","streetName":"Rue Ferland","absoluteDirection":"SOUTHEAST","stayOn":false,"area":false,"bogusName":false,"lon":-71.02551770000001,"lat":48.4238475,"elevation":[]},{"distance":12.992,"relativeDirection":"LEFT","streetName":"Rue de Normandie","absoluteDirection":"NORTH","stayOn":false,"area":false,"bogusName":false,"lon":-71.02459610000001,"lat":48.4234239,"elevation":[]}]},{"startTime":1522679196000,"endTime":1522680180000,"departureDelay":0,"arrivalDelay":0,"realTime":false,"distance":6495.826872222838,"pathway":false,"mode":"BUS","route":"12","agencyName":"Société de Transport du Saguenay","agencyUrl":"http://ville.saguenay.ca/fr/services-aux-citoyens/transport-sts","agencyTimeZoneOffset":-14400000,"routeColor":"556B2F","routeType":3,"routeId":"1:12","routeTextColor":"FFFFFF","interlineWithPreviousLeg":false,"tripBlockId":"28","headsign":"Terminus UQAC","agencyId":"0","tripId":"1:218033","serviceDate":"20180402","from":{"name":"Normandie / Ferland","stopId":"1:1532","stopCode":"1532","lon":-71.024617,"lat":48.423555,"arrival":1522679195000,"departure":1522679196000,"zoneId":"NA","stopIndex":20,"stopSequence":21,"vertexType":"TRANSIT"},"to":{"name":"Terminus UQAC","stopId":"1:1670","stopCode":"1670","lon":-71.053369,"lat":48.420903,"arrival":1522680180000,"departure":1522680181000,"zoneId":"NA","stopIndex":39,"stopSequence":40,"vertexType":"TRANSIT"},"legGeometry":{"points":"evpfHz~npLdGlGjL|BzBiLv@}L`b@fNvVvrCdRvMcAjKcP~b@iHhDaGz@uSl[uCYmIeIeJ_J{J{JwCiThFaQhC`E","length":20},"routeShortName":"12","routeLongName":"Rivière du Moulin","rentedBike":false,"transitLeg":true,"duration":984.0,"steps":[]},{"startTime":1522680181000,"endTime":1522680458000,"departureDelay":0,"arrivalDelay":0,"realTime":false,"distance":348.51900000000006,"pathway":false,"mode":"WALK","route":"","agencyTimeZoneOffset":-14400000,"interlineWithPreviousLeg":false,"from":{"name":"Terminus UQAC","stopId":"1:1670","stopCode":"1670","lon":-71.053369,"lat":48.420903,"arrival":1522680180000,"departure":1522680181000,"zoneId":"NA","stopIndex":39,"stopSequence":40,"vertexType":"TRANSIT"},"to":{"name":"Destination","lon":-71.053021,"lat":48.418729,"arrival":1522680458000,"orig":"","vertexType":"NORMAL"},"legGeometry":{"points":"sepfHrrtpLbA`ATq@f@wAd@wATs@X{@p@Y~@`AB@vBtB","length":11},"rentedBike":false,"transitLeg":false,"duration":277.0,"steps":[{"distance":269.46700000000004,"relativeDirection":"DEPART","streetName":"service road","absoluteDirection":"SOUTHWEST","stayOn":false,"area":false,"bogusName":true,"lon":-71.0533724395415,"lat":48.420904465432976,"elevation":[]},{"distance":79.052,"relativeDirection":"CONTINUE","streetName":"path","absoluteDirection":"SOUTHWEST","stayOn":false,"area":false,"bogusName":false,"lon":-71.05222810000001,"lat":48.41923430000001,"elevation":[]}]}],"tooSloped":false},{"duration":2438,"startTime":1522679164000,"endTime":1522681602000,"walkTime":335,"transitTime":2101,"waitingTime":2,"walkDistance":430.5319323284738,"walkLimitExceeded":false,"elevationLost":0.0,"elevationGained":0.0,"transfers":0,"legs":[{"startTime":1522679164000,"endTime":1522679382000,"departureDelay":0,"arrivalDelay":0,"realTime":false,"distance":277.255,"pathway":false,"mode":"WALK","route":"","agencyTimeZoneOffset":-14400000,"interlineWithPreviousLeg":false,"from":{"name":"Origin","lon":-71.027091,"lat":48.422645,"departure":1522679164000,"orig":"","vertexType":"NORMAL"},"to":{"name":"nouveau","stopId":"1:2300","stopCode":"2300","lon":-71.024659,"lat":48.423249,"arrival":1522679382000,"departure":1522679383000,"zoneId":"NA","stopIndex":20,"stopSequence":21,"vertexType":"TRANSIT"},"legGeometry":{"points":"}opfHbmopLSWIIUUg@i@W[CC]]CC]a@a@a@g@k@Pg@Ng@DMj@yAX\\","length":17},"rentedBike":false,"transitLeg":false,"duration":218.0,"steps":[{"distance":176.164,"relativeDirection":"DEPART","streetName":"Rue Honoré-Mercier","absoluteDirection":"NORTHEAST","stayOn":false,"area":false,"bogusName":false,"lon":-71.02689024902531,"lat":48.422551252951735,"elevation":[]},{"distance":82.765,"relativeDirection":"RIGHT","streetName":"Rue Ferland","absoluteDirection":"SOUTHEAST","stayOn":false,"area":false,"bogusName":false,"lon":-71.02551770000001,"lat":48.4238475,"elevation":[]},{"distance":18.326,"relativeDirection":"RIGHT","streetName":"Rue Fradette","absoluteDirection":"SOUTHWEST","stayOn":false,"area":false,"bogusName":false,"lon":-71.02459610000001,"lat":48.4234239,"elevation":[]}]},{"startTime":1522679383000,"endTime":1522680060000,"departureDelay":0,"arrivalDelay":0,"realTime":false,"distance":4572.511709905732,"pathway":false,"mode":"BUS","route":"12","agencyName":"Société de Transport du Saguenay","agencyUrl":"http://ville.saguenay.ca/fr/services-aux-citoyens/transport-sts","agencyTimeZoneOffset":-14400000,"routeColor":"556B2F","routeType":3,"routeId":"1:12","routeTextColor":"FFFFFF","interlineWithPreviousLeg":false,"tripBlockId":"26","headsign":"Terminus Chicoutimi","agencyId":"0","tripId":"1:217971","serviceDate":"20180402","from":{"name":"nouveau","stopId":"1:2300","stopCode":"2300","lon":-71.024659,"lat":48.423249,"arrival":1522679382000,"departure":1522679383000,"zoneId":"NA","stopIndex":20,"stopSequence":21,"vertexType":"TRANSIT"},"to":{"name":"Terminus Chicoutimi","stopId":"1:1289","stopCode":"1289","lon":-71.066163,"lat":48.428677,"arrival":1522680060000,"departure":1522680300000,"zoneId":"NA","stopIndex":33,"stopSequence":34,"vertexType":"TRANSIT"},"legGeometry":{"points":"gupfHzaopLkJaHgEoDmDwC_TqQsBeB{HjWfAvAfM|O|FlHmB`IgA|Cy@`UYzHZvMR~Hr@~ZPvHsCrMFxf@|ApJj@nDDl]BvZdCXJhC","length":26},"routeShortName":"12","routeLongName":"Rivière du Moulin","rentedBike":false,"transitLeg":true,"duration":677.0,"steps":[]},{"startTime":1522680300000,"endTime":1522681484000,"departureDelay":0,"arrivalDelay":0,"realTime":false,"distance":5752.157201916642,"pathway":false,"mode":"BUS","route":"10","agencyName":"Société de Transport du Saguenay","agencyUrl":"http://ville.saguenay.ca/fr/services-aux-citoyens/transport-sts","agencyTimeZoneOffset":-14400000,"routeColor":"0000FF","routeType":3,"routeId":"1:10","routeTextColor":"FFFFFF","interlineWithPreviousLeg":true,"tripBlockId":"26","headsign":"Terminus UQAC","agencyId":"0","tripId":"1:217972","serviceDate":"20180402","from":{"name":"Terminus Chicoutimi","stopId":"1:1289","stopCode":"1289","lon":-71.066163,"lat":48.428677,"arrival":1522680060000,"departure":1522680300000,"zoneId":"NA","stopIndex":0,"stopSequence":1,"vertexType":"TRANSIT"},"to":{"name":"Fondation / Étudiants","stopId":"1:261","stopCode":"261","lon":-71.053953,"lat":48.417524,"arrival":1522681484000,"departure":1522681485000,"zoneId":"NA","stopIndex":23,"stopSequence":24,"vertexType":"TRANSIT"},"legGeometry":{"points":"svqfHnbwpLDmCdDZ\\kO`@mQBuCD}DQ_ECk@^Cd@QWkL?m@IuF@gA?eH?cAEuEDO^AjD`@B@rEf@T_FjBXpDd@hCObDaCfCaHbFqN`CwG_J_CwMiDGe@T}C\\yELaCJeAJcAXw@Fk@M_@xBwVr@^LJ|@z@HdAlBbD`Av@b@\\v@d@`@BpBAzAXl@t@XZt@lCl@tAnBpB~@~@lDjDr@r@zDrDnAlAjBrBl@pBPlBCj@KrAAHSpAe@jB_A|Bz@xAvA~BvB|BdN|Nc@bAuA~C}VeWaEpLeIrU|D~E","length":83},"routeShortName":"10","routeLongName":"Notre-Dame du Saguenay","rentedBike":false,"transitLeg":true,"duration":1184.0,"steps":[]},{"startTime":1522681485000,"endTime":1522681602000,"departureDelay":0,"arrivalDelay":0,"realTime":false,"distance":153.204,"pathway":false,"mode":"WALK","route":"","agencyTimeZoneOffset":-14400000,"interlineWithPreviousLeg":false,"from":{"name":"Fondation / Étudiants","stopId":"1:261","stopCode":"261","lon":-71.053953,"lat":48.417524,"arrival":1522681484000,"departure":1522681485000,"zoneId":"NA","stopIndex":23,"stopSequence":24,"vertexType":"TRANSIT"},"to":{"name":"Destination","lon":-71.053021,"lat":48.418729,"arrival":1522681602000,"orig":"","vertexType":"NORMAL"},"legGeometry":{"points":"kpofHzutpLs@q@aCeCEFe@g@","length":5},"rentedBike":false,"transitLeg":false,"duration":117.0,"steps":[{"distance":122.981,"relativeDirection":"DEPART","streetName":"Rue de la Fondation","absoluteDirection":"NORTHEAST","stayOn":false,"area":false,"bogusName":false,"lon":-71.05389734227215,"lat":48.41750043741361,"elevation":[]},{"distance":30.223,"relativeDirection":"CONTINUE","streetName":"path","absoluteDirection":"NORTHEAST","stayOn":false,"area":false,"bogusName":false,"lon":-71.05297080000001,"lat":48.4184196,"elevation":[]}]}],"tooSloped":false},{"duration":1477,"startTime":1522680781000,"endTime":1522682258000,"walkTime":491,"transitTime":984,"waitingTime":2,"walkDistance":620.5832330780852,"walkLimitExceeded":false,"elevationLost":0.0,"elevationGained":0.0,"transfers":0,"legs":[{"startTime":1522680781000,"endTime":1522680995000,"departureDelay":0,"arrivalDelay":0,"realTime":false,"distance":271.921,"pathway":false,"mode":"WALK","route":"","agencyTimeZoneOffset":-14400000,"interlineWithPreviousLeg":false,"from":{"name":"Origin","lon":-71.027091,"lat":48.422645,"departure":1522680781000,"orig":"","vertexType":"NORMAL"},"to":{"name":"Normandie / Ferland","stopId":"1:1532","stopCode":"1532","lon":-71.024617,"lat":48.423555,"arrival":1522680995000,"departure":1522680996000,"zoneId":"NA","stopIndex":20,"stopSequence":21,"vertexType":"TRANSIT"},"legGeometry":{"points":"}opfHbmopLSWIIUUg@i@W[CC]]CC]a@a@a@g@k@Pg@Ng@DMj@yAUK","length":17},"rentedBike":false,"transitLeg":false,"duration":214.0,"steps":[{"distance":176.164,"relativeDirection":"DEPART","streetName":"Rue Honoré-Mercier","absoluteDirection":"NORTHEAST","stayOn":false,"area":false,"bogusName":false,"lon":-71.02689024902531,"lat":48.422551252951735,"elevation":[]},{"distance":82.765,"relativeDirection":"RIGHT","streetName":"Rue Ferland","absoluteDirection":"SOUTHEAST","stayOn":false,"area":false,"bogusName":false,"lon":-71.02551770000001,"lat":48.4238475,"elevation":[]},{"distance":12.992,"relativeDirection":"LEFT","streetName":"Rue de Normandie","absoluteDirection":"NORTH","stayOn":false,"area":false,"bogusName":false,"lon":-71.02459610000001,"lat":48.4234239,"elevation":[]}]},{"startTime":1522680996000,"endTime":1522681980000,"departureDelay":0,"arrivalDelay":0,"realTime":false,"distance":6495.826872222838,"pathway":false,"mode":"BUS","route":"12","agencyName":"Société de Transport du Saguenay","agencyUrl":"http://ville.saguenay.ca/fr/services-aux-citoyens/transport-sts","agencyTimeZoneOffset":-14400000,"routeColor":"556B2F","routeType":3,"routeId":"1:12","routeTextColor":"FFFFFF","interlineWithPreviousLeg":false,"tripBlockId":"27","headsign":"Terminus UQAC","agencyId":"0","tripId":"1:218008","serviceDate":"20180402","from":{"name":"Normandie / Ferland","stopId":"1:1532","stopCode":"1532","lon":-71.024617,"lat":48.423555,"arrival":1522680995000,"departure":1522680996000,"zoneId":"NA","stopIndex":20,"stopSequence":21,"vertexType":"TRANSIT"},"to":{"name":"Terminus UQAC","stopId":"1:1670","stopCode":"1670","lon":-71.053369,"lat":48.420903,"arrival":1522681980000,"departure":1522681981000,"zoneId":"NA","stopIndex":39,"stopSequence":40,"vertexType":"TRANSIT"},"legGeometry":{"points":"evpfHz~npLdGlGjL|BzBiLv@}L`b@fNvVvrCdRvMcAjKcP~b@iHhDaGz@uSl[uCYmIeIeJ_J{J{JwCiThFaQhC`E","length":20},"routeShortName":"12","routeLongName":"Rivière du Moulin","rentedBike":false,"transitLeg":true,"duration":984.0,"steps":[]},{"startTime":1522681981000,"endTime":1522682258000,"departureDelay":0,"arrivalDelay":0,"realTime":false,"distance":348.51900000000006,"pathway":false,"mode":"WALK","route":"","agencyTimeZoneOffset":-14400000,"interlineWithPreviousLeg":false,"from":{"name":"Terminus UQAC","stopId":"1:1670","stopCode":"1670","lon":-71.053369,"lat":48.420903,"arrival":1522681980000,"departure":1522681981000,"zoneId":"NA","stopIndex":39,"stopSequence":40,"vertexType":"TRANSIT"},"to":{"name":"Destination","lon":-71.053021,"lat":48.418729,"arrival":1522682258000,"orig":"","vertexType":"NORMAL"},"legGeometry":{"points":"sepfHrrtpLbA`ATq@f@wAd@wATs@X{@p@Y~@`AB@vBtB","length":11},"rentedBike":false,"transitLeg":false,"duration":277.0,"steps":[{"distance":269.46700000000004,"relativeDirection":"DEPART","streetName":"service road","absoluteDirection":"SOUTHWEST","stayOn":false,"area":false,"bogusName":true,"lon":-71.0533724395415,"lat":48.420904465432976,"elevation":[]},{"distance":79.052,"relativeDirection":"CONTINUE","streetName":"path","absoluteDirection":"SOUTHWEST","stayOn":false,"area":false,"bogusName":false,"lon":-71.05222810000001,"lat":48.41923430000001,"elevation":[]}]}],"tooSloped":false}]},"debugOutput":{"precalculationTime":32,"pathCalculationTime":19,"pathTimes":[10,7,2],"renderingTime":0,"totalTime":51,"timedOut":false},"elevationMetadata":{"ellipsoidToGeoidDifference":-28.885904201182168,"geoidElevation":false}}