{"requestParameters":{"date":"2018/04/02","walkSpeed":"1.33","walkReluctance":"2.0","fromPlace":"48.422645,-71.027091","maxWalkDistance":"3000","waitReluctance":"1.0","carSpeed":"33","numItineraries":"3","waitAtBeginningFactor":"0.4","mode":"TRANSIT,WALK","ignoreRealtimeUpdates":"false","stairsReluctance":"2.0","toPlace":"48.428081,-71.062242","time":"7:30:00"},"plan":{"date":1522668600000,"from":{"name":"Origin","lon":-71.027091,"lat":48.422645,"orig":"","vertexType":"NORMAL"},"to":{"name":"Destination","lon":-71.062242,"lat":48.428081,"orig":"","vertexType":"NORMAL"},"itineraries":[{"duration":1098,"startTime":1522670164000,"endTime":1522671262000,"walkTime":479,"transitTime":617,"waitingTime":2,"walkDistance":600.5686842049221,"walkLimitExceeded":false,"elevationLost":0.0,"elevationGained":0.0,"transfers":0,"legs":[{"startTime":1522670164000,"endTime":1522670382000,"departureDelay":0,"arrivalDelay":0,"realTime":false,"distance":277.255,"pathway":false,"mode":"WALK","route":"","agencyTimeZoneOffset":-14400000,"interlineWithPreviousLeg":false,"from":{"name":"Origin","lon":-71.027091,"lat":48.422645,"departure":1522670164000,"orig":"","vertexType":"NORMAL"},"to":{"name":"nouveau","stopId":"1:2300","stopCode":"2300","lon":-71.024659,"lat":48.423249,"arrival":1522670382000,"departure":1522670383000,"zoneId":"NA","stopIndex":20,"stopSequence":21,"vertexType":"TRANSIT"},"legGeometry":{"points":"}opfHbmopLSWIIUUg@i@W[CC]]CC]a@a@a@g@k@Pg@Ng@DMj@yAX\\","length":17},"rentedBike":false,"transitLeg":false,"duration":218.0,"steps":[{"distance":176.164,"relativeDirection":"DEPART","streetName":"Rue Honoré-Mercier","absoluteDirection":"NORTHEAST","stayOn":false,"area":false,"bogusName":false,"lon":-71.02689024902531,"lat":48.422551252951735,"elevation":[]},{"distance":82.765,"relativeDirection":"RIGHT","streetName":"Rue Ferland","absoluteDirection":"SOUTHEAST","stayOn":false,"area":false,"bogusName":false,"lon":-71.02551770000001,"lat":48.4238475,"elevation":[]},{"distance":18.326,"relativeDirection":"RIGHT","streetName":"Rue Fradette","absoluteDirection":"SOUTHWEST","stayOn":false,"area":false,"bogusName":false,"lon":-71.02459610000001,"lat":48.4234239,"elevation":[]}]},{"startTime":1522670383000,"endTime":1522671000000,"departureDelay":0,"arrivalDelay":0,"realTime":false,"distance":4181.165022423717,"pathway":false,"mode":"BUS","route":"12","agencyName":"Société de Transport du Saguenay","agencyUrl":"http://ville.saguenay.ca/fr/services-aux-citoyens/transport-sts","agencyTimeZoneOffset":-14400000,"routeColor":"556B2F","routeType":3,"routeId":"1:12","routeTextColor":"FFFFFF","interlineWithPreviousLeg":false,"tripBlockId":"29","headsign":"Terminus Chicoutimi","agencyId":"0","tripId":"1:218054","serviceDate":"20180402","from":{"name":"nouveau","stopId":"1:2300","stopCode":"2300","lon":-71.024659,"lat":48.423249,"arrival":1522670382000,"departure":1522670383000,"zoneId":"NA","stopIndex":20,"stopSequence":21,"vertexType":"TRANSIT"},"to":{"name":"Agence du revenu Canada (Boul. Saguenay)","stopId":"1:412","stopCode":"412","lon":-71.060901,"lat":48.429119,"arrival":1522671000000,"departure":1522671001000,"zoneId":"NA","stopIndex":32,"stopSequence":33,"vertexType":"TRANSIT"},"legGeometry":{"points":"gupfHzaopLkJaHgEoDmDwC_TqQsBeB{HjWfAvAfM|O|FlHmB`IgA|Cy@`UYzHZvMR~Hr@~ZPvHsCrMFxf@|ApJj@nDDl]","length":23},"routeShortName":"12","routeLongName":"Rivière du Moulin","rentedBike":false,"transitLeg":true,"duration":617.0,"steps":[]},{"startTime":1522671001000,"endTime":1522671262000,"departureDelay":0,"arrivalDelay":0,"realTime":false,"distance":323.14,"pathway":false,"mode":"WALK","route":"","agencyTimeZoneOffset":-14400000,"interlineWithPreviousLeg":false,"from":{"name":"Agence du revenu Canada (Boul. Saguenay)","stopId":"1:412","stopCode":"412","lon":-71.060901,"lat":48.429119,"arrival":1522671000000,"departure":1522671001000,"zoneId":"NA","stopIndex":32,"stopSequence":33,"vertexType":"TRANSIT"},"to":{"name":"Destination","lon":-71.062242,"lat":48.428081,"arrival":1522671262000,"orig":"","vertexType":"NORMAL"},"legGeometry":{"points":"wxqfHravpLBfBA~CIxBA\\`@@FQDOVA`@B\\@JPH@F@^Ad@wB","length":16},"rentedBike":false,"transitLeg":false,"duration":261.0,"steps":[{"distance":153.879,"relativeDirection":"DEPART","streetName":"Boulevard du Saguenay Est","absoluteDirection":"WEST","stayOn":false,"area":false,"bogusName":false,"lon":-71.06089875875612,"lat":48.42908320382368,"elevation":[]},{"distance":19.496,"relativeDirection":"LEFT","streetName":"Rue de l'Hôtel-de-Ville","absoluteDirection":"SOUTH","stayOn":false,"area":false,"bogusName":false,"lon":-71.06297880000001,"lat":48.4291355,"elevation":[]},{"distance":100.47999999999999,"relativeDirection":"LEFT","streetName":"Rue de l'Hôtel-de-Ville","absoluteDirection":"SOUTHEAST","stayOn":true,"area":false,"bogusName":false,"lon":-71.06298410000001,"lat":48.428960200000006,"elevation":[]},{"distance":49.285,"relativeDirection":"LEFT","streetName":"path","absoluteDirection":"SOUTHEAST","stayOn":false,"area":false,"bogusName":false,"lon":-71.06293600000001,"lat":48.4281438,"elevation":[]}]}],"tooSloped":false},{"duration":1946,"startTime":1522669981000,"endTime":1522671927000,"walkTime":1059,"transitTime":885,"waitingTime":2,"walkDistance":1333.001436079757,"walkLimitExceeded":false,"elevationLost":0.0,"elevationGained":0.0,"transfers":0,"legs":[{"startTime":1522669981000,"endTime":1522670195000,"departureDelay":0,"arrivalDelay":0,"realTime":false,"distance":271.921,"pathway":false,"mode":"WALK","route":"","agencyTimeZoneOffset":-14400000,"interlineWithPreviousLeg":false,"from":{"name":"Origin","lon":-71.027091,"lat":48.422645,"departure":1522669981000,"orig":"","vertexType":"NORMAL"},"to":{"name":"Normandie / Ferland","stopId":"1:1532","stopCode":"1532","lon":-71.024617,"lat":48.423555,"arrival":1522670195000,"departure":1522670196000,"zoneId":"NA","stopIndex":20,"stopSequence":21,"vertexType":"TRANSIT"},"legGeometry":{"points":"}opfHbmopLSWIIUUg@i@W[CC]]CC]a@a@a@g@k@Pg@Ng@DMj@yAUK","length":17},"rentedBike":false,"transitLeg":false,"duration":214.0,"steps":[{"distance":176.164,"relativeDirection":"DEPART","streetName":"Rue Honoré-Mercier","absoluteDirection":"NORTHEAST","stayOn":false,"area":false,"bogusName":false,"lon":-71.02689024902531,"lat":48.422551252951735,"elevation":[]},{"distance":82.765,"relativeDirection":"RIGHT","streetName":"Rue Ferland","absoluteDirection":"SOUTHEAST","stayOn":false,"area":false,"bogusName":false,"lon":-71.02551770000001,"lat":48.4238475,"elevation":[]},{"distance":12.992,"relativeDirection":"LEFT","streetName":"Rue de Normandie","absoluteDirection":"NORTH","stayOn":false,"area":false,"bogusName":false,"lon":-71.02459610000001,"lat":48.4234239,"elevation":[]}]},{"startTime":1522670196000,"endTime":1522671081000,"departureDelay":0,"arrivalDelay":0,"realTime":false,"distance":5875.220154937282,"pathway":false,"mode":"BUS","route":"12","agencyName":"Société de Transport du Saguenay","agencyUrl":"http://ville.saguenay.ca/fr/services-aux-citoyens/transport-sts","agencyTimeZoneOffset":-14400000,"routeColor":"556B2F","routeType":3,"routeId":"1:12","routeTextColor":"FFFFFF","interlineWithPreviousLeg":false,"tripBlockId":"27","headsign":"Terminus UQAC","agencyId":"0","tripId":"1:218002","serviceDate":"20180402","from":{"name":"Normandie / Ferland","stopId":"1:1532","stopCode":"1532","lon":-71.024617,"lat":48.423555,"arrival":1522670195000,"departure":1522670196000,"zoneId":"NA","stopIndex":20,"stopSequence":21,"vertexType":"TRANSIT"},"to":{"name":"Bégin / Saint-Thomas","stopId":"1:563","stopCode":"563","lon":-71.0587,"lat":48.422,"arrival":1522671081000,"departure":1522671082000,"zoneId":"NA","stopIndex":36,"stopSequence":37,"vertexType":"TRANSIT"},"legGeometry":{"points":"evpfHz~npLdGlGjL|BzBiLv@}L`b@fNvVvrCdRvMcAjKcP~b@iHhDaGz@uSl[uCYmIeIeJ_J{J{J","length":17},"routeShortName":"12","routeLongName":"Rivière du Moulin","rentedBike":false,"transitLeg":true,"duration":885.0,"steps":[]},{"startTime":1522671082000,"endTime":1522671927000,"departureDelay":0,"arrivalDelay":0,"realTime":false,"distance":1060.756,"pathway":false,"mode":"WALK","route":"","agencyTimeZoneOffset":-14400000,"interlineWithPreviousLeg":false,"from":{"name":"Bégin / Saint-Thomas","stopId":"1:563","stopCode":"563","lon":-71.0587,"lat":48.422,"arrival":1522671081000,"departure":1522671082000,"zoneId":"NA","stopIndex":36,"stopSequence":37,"vertexType":"TRANSIT"},"to":{"name":"Destination","lon":-71.062242,"lat":48.428081,"arrival":1522671927000,"orig":"","vertexType":"NORMAL"},"legGeometry":{"points":"slpfHftupLKIeAkAWYiAgAaAcASOWWIIKIOl@EdACd@MLSICAOEk@CG?KACTM\\I\\Ax@Al@g@Zy@\\iG_@IpEy@DSNgAQ_@AmAEKpFAl@?Rq@|C","length":38},"rentedBike":false,"transitLeg":false,"duration":845.0,"steps":[{"distance":208.109,"relativeDirection":"DEPART","streetName":"Rue Bégin","absoluteDirection":"NORTHEAST","stayOn":false,"area":false,"bogusName":false,"lon":-71.05875953651149,"lat":48.42202602664888,"elevation":[]},{"distance":127.559,"relativeDirection":"LEFT","streetName":"alley","absoluteDirection":"NORTHWEST","stayOn":false,"area":false,"bogusName":true,"lon":-71.05719760000001,"lat":48.4235836,"elevation":[]},{"distance":131.454,"relativeDirection":"LEFT","streetName":"path","absoluteDirection":"WEST","stayOn":true,"area":false,"bogusName":true,"lon":-71.0579166,"lat":48.424303900000005,"elevation":[]},{"distance":147.775,"relativeDirection":"SLIGHTLY_RIGHT","streetName":"Rue Maltais","absoluteDirection":"NORTH","stayOn":false,"area":false,"bogusName":false,"lon":-71.0591387,"lat":48.424959400000006,"elevation":[]},{"distance":77.273,"relativeDirection":"LEFT","streetName":"Rue Jacques-Cartier Est","absoluteDirection":"WEST","stayOn":false,"area":false,"bogusName":false,"lon":-71.0589782,"lat":48.426284100000004,"elevation":[]},{"distance":89.104,"relativeDirection":"RIGHT","streetName":"steps","absoluteDirection":"NORTH","stayOn":false,"area":false,"bogusName":true,"lon":-71.0600222,"lat":48.4263388,"elevation":[]},{"distance":101.499,"relativeDirection":"SLIGHTLY_RIGHT","streetName":"Rue La Fontaine","absoluteDirection":"NORTH","stayOn":false,"area":false,"bogusName":false,"lon":-71.0601336,"lat":48.4267252,"elevation":[]},{"distance":113.60200000000002,"relativeDirection":"LEFT","streetName":"Rue Racine Est","absoluteDirection":"WEST","stayOn":false,"area":false,"bogusName":false,"lon":-71.0600075,"lat":48.4276324,"elevation":[]},{"distance":64.381,"relativeDirection":"SLIGHTLY_RIGHT","streetName":"path","absoluteDirection":"NORTHWEST","stayOn":false,"area":false,"bogusName":false,"lon":-71.061543,"lat":48.4277073,"elevation":[]}]}],"tooSloped":false},{"duration":1098,"startTime":1522671964000,"endTime":1522673062000,"walkTime":479,"transitTime":617,"waitingTime":2,"walkDistance":600.5686842049221,"walkLimitExceeded":false,"elevationLost":0.0,"elevationGained":0.0,"transfers":0,"legs":[{"startTime":1522671964000,"endTime":1522672182000,"departureDelay":0,"arrivalDelay":0,"realTime":false,"distance":277.255,"pathway":false,"mode":"WALK","route":"","agencyTimeZoneOffset":-14400000,"interlineWithPreviousLeg":false,"from":{"name":"Origin","lon":-71.027091,"lat":48.422645,"departure":1522671964000,"orig":"","vertexType":"NORMAL"},"to":{"name":"nouveau","stopId":"1:2300","stopCode":"2300","lon":-71.024659,"lat":48.423249,"arrival":1522672182000,"departure":1522672183000,"zoneId":"NA","stopIndex":20,"stopSequence":21,"vertexType":"TRANSIT"},"legGeometry":{"points":"}opfHbmopLSWIIUUg@i@W[CC]]CC]a@a@a@g@k@Pg@Ng@DMj@yAX\\","length":17},"rentedBike":false,"transitLeg":false,"duration":218.0,"steps":[{"distance":176.164,"relativeDirection":"DEPART","streetName":"Rue Honoré-Mercier","absoluteDirection":"NORTHEAST","stayOn":false,"area":false,"bogusName":false,"lon":-71.02689024902531,"lat":48.422551252951735,"elevation":[]},{"distance":82.765,"relativeDirection":"RIGHT","streetName":"Rue Ferland","absoluteDirection":"SOUTHEAST","stayOn":false,"area":false,"bogusName":false,"lon":-71.02551770000001,"lat":48.4238475,"elevation":[]},{"distance":18.326,"relativeDirection":"RIGHT","streetName":"Rue Fradette","absoluteDirection":"SOUTHWEST","stayOn":false,"area":false,"bogusName":false,"lon":-71.02459610000001,"lat":48.4234239,"elevation":[]}]},{"startTime":1522672183000,"endTime":1522672800000,"departureDelay":0,"arrivalDelay":0,"realTime":false,"distance":4181.165022423717,"pathway":false,"mode":"BUS","route":"12","agencyName":"Société de Transport du Saguenay","agencyUrl":"http://ville.saguenay.ca/fr/services-aux-citoyens/transport-sts","agencyTimeZoneOffset":-14400000,"routeColor":"556B2F","routeType":3,"routeId":"1:12","routeTextColor":"FFFFFF","interlineWithPreviousLeg":false,"tripBlockId":"26","headsign":"Terminus Chicoutimi","agencyId":"0","tripId":"1:217967","serviceDate":"20180402","from":{"name":"nouveau","stopId":"1:2300","stopCode":"2300","lon":-71.024659,"lat":48.423249,"arrival":1522672182000,"departure":1522672183000,"zoneId":"NA","stopIndex":20,"stopSequence":21,"vertexType":"TRANSIT"},"to":{"name":"Agence du revenu Canada (Boul. Saguenay)","stopId":"1:412","stopCode":"412","lon":-71.060901,"lat":48.429119,"arrival":1522672800000,"departure":1522672801000,"zoneId":"NA","stopIndex":32,"stopSequence":33,"vertexType":"TRANSIT"},"legGeometry":{"points":"gupfHzaopLkJaHgEoDmDwC_TqQsBeB{HjWfAvAfM|O|FlHmB`IgA|Cy@`UYzHZvMR~Hr@~ZPvHsCrMFxf@|ApJj@nDDl]","length":23},"routeShortName":"12","routeLongName":"Rivière du Moulin","rentedBike":false,"transitLeg":true,"duration":617.0,"steps":[]},{"startTime":1522672801000,"endTime":1522673062000,"departureDelay":0,"arrivalDelay":0,"realTime":false,"distance":323.14,"pathway":false,"mode":"WALK","route":"","agencyTimeZoneOffset":-14400000,"interlineWithPreviousLeg":false,"from":{"name":"Agence du revenu Canada (Boul. Saguenay)","stopId":"1:412","stopCode":"412","lon":-71.060901,"lat":48.429119,"arrival":1522672800000,"departure":1522672801000,"zoneId":"NA","stopIndex":32,"stopSequence":33,"vertexType":"TRANSIT"},"to":{"name":"Destination","lon":-71.062242,"lat":48.428081,"arrival":1522673062000,"orig":"","vertexType":"NORMAL"},"legGeometry":{"points":"wxqfHravpLBfBA~CIxBA\\`@@FQDOVA`@B\\@JPH@F@^Ad@wB","length":16},"rentedBike":false,"transitLeg":false,"duration":261.0,"steps":[{"distance":153.879,"relativeDirection":"DEPART","streetName":"Boulevard du Saguenay Est","absoluteDirection":"WEST","stayOn":false,"area":false,"bogusName":false,"lon":-71.06089875875612,"lat":48.42908320382368,"elevation":[]},{"distance":19.496,"relativeDirection":"LEFT","streetName":"Rue de l'Hôtel-de-Ville","absoluteDirection":"SOUTH","stayOn":false,"area":false,"bogusName":false,"lon":-71.06297880000001,"lat":48.4291355,"elevation":[]},{"distance":100.47999999999999,"relativeDirection":"LEFT","streetName":"Rue de l'Hôtel-de-Ville","absoluteDirection":"SOUTHEAST","stayOn":true,"area":false,"bogusName":false,"lon":-71.06298410000001,"lat":48.428960200000006,"elevation":[]},{"distance":49.285,"relativeDirection":"LEFT","streetName":"path","absoluteDirection":"SOUTHEAST","stayOn":false,"area":false,"bogusName":false,"lon":-71.06293600000001,"lat":48.4281438,"elevation":[]}]}],"tooSloped":false}]},"debugOutput":{"precalculationTime":24,"pathCalculationTime":18,"pathTimes":[11,5,2],"renderingTime":0,"totalTime":42,"timedOut":false},"elevationMetadata":{"ellipsoidToGeoidDifference":-28.885904201182168,"geoidElevation":false}}