{"requestParameters":{"date":"2018/04/02","walkSpeed":"1.33","walkReluctance":"2.0","fromPlace":"48.421289,-71.040075","maxWalkDistance":"3000","waitReluctance":"1.0","carSpeed":"33","numItineraries":"3","waitAtBeginningFactor":"0.4","mode":"TRANSIT,WALK","ignoreRealtimeUpdates":"false","stairsReluctance":"2.0","toPlace":"48.422645,-71.027091","time":"16:5:00"},"plan":{"date":1522699500000,"from":{"name":"Origin","lon":-71.040075,"lat":48.421289,"orig":"","vertexType":"NORMAL"},"to":{"name":"Destination","lon":-71.027091,"lat":48.422645,"orig":"","vertexType":"NORMAL"},"itineraries":[{"duration":2034,"startTime":1522700777000,"endTime":1522702811000,"walkTime":591,"transitTime":1441,"waitingTime":2,"walkDistance":752.6483458601977,"walkLimitExceeded":false,"elevationLost":0.0,"elevationGained":0.0,"transfers":0,"legs":[{"startTime":1522700777000,"endTime":1522701154000,"departureDelay":0,"arrivalDelay":0,"realTime":false,"distance":480.589,"pathway":false,"mode":"WALK","route":"","agencyTimeZoneOffset":-14400000,"interlineWithPreviousLeg":false,"from":{"name":"Origin","lon":-71.040075,"lat":48.421289,"departure":1522700777000,"orig":"","vertexType":"NORMAL"},"to":{"name":"nouveau","stopId":"1:2287","stopCode":"2287","lon":-71.044979,"lat":48.420614,"arrival":1522701154000,"departure":1522701155000,"zoneId":"NA","stopIndex":12,"stopSequence":13,"vertexType":"TRANSIT"},"legGeometry":{"points":"mhpfHpcrpLZDH@|AfAd@d@VRNLZTL`@z@rAlA|AoAjDIXM^KZoAnDO`@GR","length":18},"rentedBike":false,"transitLeg":false,"duration":377.0,"steps":[{"distance":263.35900000000004,"relativeDirection":"DEPART","streetName":"service road","absoluteDirection":"SOUTH","stayOn":false,"area":false,"bogusName":false,"lon":-71.04072585323445,"lat":48.42135119713972,"elevation":[]},{"distance":217.23000000000002,"relativeDirection":"RIGHT","streetName":"Chemin Sydenham","absoluteDirection":"NORTHWEST","stayOn":false,"area":false,"bogusName":false,"lon":-71.04266,"lat":48.4194089,"elevation":[]}]},{"startTime":1522701155000,"endTime":1522701600000,"departureDelay":0,"arrivalDelay":0,"realTime":false,"distance":1996.6271468825676,"pathway":false,"mode":"BUS","route":"10","agencyName":"Société de Transport du Saguenay","agencyUrl":"http://ville.saguenay.ca/fr/services-aux-citoyens/transport-sts","agencyTimeZoneOffset":-14400000,"routeColor":"0000FF","routeType":3,"routeId":"1:10","routeTextColor":"FFFFFF","interlineWithPreviousLeg":false,"tripBlockId":"27","headsign":"Terminus Chicoutimi","agencyId":"0","tripId":"1:218019","serviceDate":"20180402","from":{"name":"nouveau","stopId":"1:2287","stopCode":"2287","lon":-71.044979,"lat":48.420614,"arrival":1522701154000,"departure":1522701155000,"zoneId":"NA","stopIndex":12,"stopSequence":13,"vertexType":"TRANSIT"},"to":{"name":"Terminus Chicoutimi","stopId":"1:1289","stopCode":"1289","lon":-71.066163,"lat":48.428677,"arrival":1522701600000,"departure":1522701900000,"zoneId":"NA","stopIndex":21,"stopSequence":22,"vertexType":"TRANSIT"},"legGeometry":{"points":"_cpfH~~rpLaEvK_BhE}AfD{BdByBh@iC]oDq@YbF_Ea@AAuEg@MDENF|GAjJDzBDdDLdHFbCo@RUFRbFG|FApAMvFa@tPOnHqBOIjDc@Q","length":31},"routeShortName":"10","routeLongName":"Notre-Dame du Saguenay","rentedBike":false,"transitLeg":true,"duration":445.0,"steps":[]},{"startTime":1522701900000,"endTime":1522702596000,"departureDelay":0,"arrivalDelay":0,"realTime":false,"distance":4663.532063835512,"pathway":false,"mode":"BUS","route":"12","agencyName":"Société de Transport du Saguenay","agencyUrl":"http://ville.saguenay.ca/fr/services-aux-citoyens/transport-sts","agencyTimeZoneOffset":-14400000,"routeColor":"556B2F","routeType":3,"routeId":"1:12","routeTextColor":"FFFFFF","interlineWithPreviousLeg":true,"tripBlockId":"27","headsign":"Terminus UQAC","agencyId":"0","tripId":"1:218020","serviceDate":"20180402","from":{"name":"Terminus Chicoutimi","stopId":"1:1289","stopCode":"1289","lon":-71.066163,"lat":48.428677,"arrival":1522701600000,"departure":1522701900000,"zoneId":"NA","stopIndex":0,"stopSequence":1,"vertexType":"TRANSIT"},"to":{"name":"Normandie / Ferland","stopId":"1:1532","stopCode":"1532","lon":-71.024617,"lat":48.423555,"arrival":1522702596000,"departure":1522702597000,"zoneId":"NA","stopIndex":20,"stopSequence":21,"vertexType":"TRANSIT"},"legGeometry":{"points":"evqfHpbwpLpFcj@IaKmFy^_DaZz@u]SeV}@aNs@gKToKd@gTnCyHkGuLqFqJ_DeFf@iIvGsKlIrH`JlH`EfDnOdI","length":21},"routeShortName":"12","routeLongName":"Rivière du Moulin","rentedBike":false,"transitLeg":true,"duration":696.0,"steps":[]},{"startTime":1522702597000,"endTime":1522702811000,"departureDelay":0,"arrivalDelay":0,"realTime":false,"distance":271.921,"pathway":false,"mode":"WALK","route":"","agencyTimeZoneOffset":-14400000,"interlineWithPreviousLeg":false,"from":{"name":"Normandie / Ferland","stopId":"1:1532","stopCode":"1532","lon":-71.024617,"lat":48.423555,"arrival":1522702596000,"departure":1522702597000,"zoneId":"NA","stopIndex":20,"stopSequence":21,"vertexType":"TRANSIT"},"to":{"name":"Destination","lon":-71.027091,"lat":48.422645,"arrival":1522702811000,"orig":"","vertexType":"NORMAL"},"legGeometry":{"points":"avpfHj~npLTJk@xAELOf@Qf@f@j@`@`@\\`@BB\\\\BBVZf@h@TTHHRV","length":17},"rentedBike":false,"transitLeg":false,"duration":214.0,"steps":[{"distance":12.992,"relativeDirection":"DEPART","streetName":"Rue de Normandie","absoluteDirection":"SOUTH","stayOn":false,"area":false,"bogusName":false,"lon":-71.02453142981058,"lat":48.42353257488335,"elevation":[]},{"distance":82.765,"relativeDirection":"RIGHT","streetName":"Rue Ferland","absoluteDirection":"NORTHWEST","stayOn":false,"area":false,"bogusName":false,"lon":-71.02459610000001,"lat":48.4234239,"elevation":[]},{"distance":176.164,"relativeDirection":"LEFT","streetName":"Rue Honoré-Mercier","absoluteDirection":"SOUTHWEST","stayOn":false,"area":false,"bogusName":false,"lon":-71.02551770000001,"lat":48.4238475,"elevation":[]}]}],"tooSloped":false},{"duration":2544,"startTime":1522700405000,"endTime":1522702949000,"walkTime":529,"transitTime":2013,"waitingTime":2,"walkDistance":679.634406013024,"walkLimitExceeded":false,"elevationLost":0.0,"elevationGained":0.0,"transfers":0,"legs":[{"startTime":1522700405000,"endTime":1522700688000,"departureDelay":0,"arrivalDelay":0,"realTime":false,"distance":362.94999999999993,"pathway":false,"mode":"WALK","route":"","agencyTimeZoneOffset":-14400000,"interlineWithPreviousLeg":false,"from":{"name":"Origin","lon":-71.040075,"lat":48.421289,"departure":1522700405000,"orig":"","vertexType":"NORMAL"},"to":{"name":"Complexe Sagamie","stopId":"1:1565","stopCode":"1565","lon":-71.039089,"lat":48.423475,"arrival":1522700688000,"departure":1522700689000,"zoneId":"NA","stopIndex":11,"stopSequence":12,"vertexType":"TRANSIT"},"legGeometry":{"points":"mhpfHpcrpLGAIASKe@YUy@HgAXkANm@IASEg@Ku@EmA@w@AUGYGQE_@ICAAPAL","length":22},"rentedBike":false,"transitLeg":false,"duration":283.0,"steps":[{"distance":362.94999999999993,"relativeDirection":"DEPART","streetName":"service road","absoluteDirection":"NORTH","stayOn":false,"area":false,"bogusName":false,"lon":-71.04072585323445,"lat":48.42135119713972,"elevation":[]}]},{"startTime":1522700689000,"endTime":1522701420000,"departureDelay":0,"arrivalDelay":0,"realTime":false,"distance":3425.636758994054,"pathway":false,"mode":"BUS","route":"10","agencyName":"Société de Transport du Saguenay","agencyUrl":"http://ville.saguenay.ca/fr/services-aux-citoyens/transport-sts","agencyTimeZoneOffset":-14400000,"routeColor":"0000FF","routeType":3,"routeId":"1:10","routeTextColor":"FFFFFF","interlineWithPreviousLeg":false,"tripBlockId":"29","headsign":"Terminus UQAC","agencyId":"0","tripId":"1:218071","serviceDate":"20180402","from":{"name":"Complexe Sagamie","stopId":"1:1565","stopCode":"1565","lon":-71.039089,"lat":48.423475,"arrival":1522700688000,"departure":1522700689000,"zoneId":"NA","stopIndex":11,"stopSequence":12,"vertexType":"TRANSIT"},"to":{"name":"Terminus UQAC","stopId":"1:1670","stopCode":"1670","lon":-71.053369,"lat":48.420903,"arrival":1522701420000,"departure":1522701600000,"zoneId":"NA","stopIndex":24,"stopSequence":25,"vertexType":"TRANSIT"},"legGeometry":{"points":"kvpfH`yqpLJcAXw@Fk@M_@xBwVr@^LJ|@z@HdAlBbD`Av@b@\\v@d@`@BpBAzAXl@t@XZt@lCl@tAnBpB~@~@lDjDr@r@zDrDnAlAjBrBl@pBPlBCj@KrAAHSpAe@jB_A|Bz@xAvA~BvB|BdN|Nc@bAuA~C}VeWaEpLeIrU|D~EfDdEwLpKeBgGAsE]gAoD}CUt@a@_@USMM","length":56},"routeShortName":"10","routeLongName":"Notre-Dame du Saguenay","rentedBike":false,"transitLeg":true,"duration":731.0,"steps":[]},{"startTime":1522701600000,"endTime":1522702702000,"departureDelay":0,"arrivalDelay":0,"realTime":false,"distance":6159.986327071134,"pathway":false,"mode":"BUS","route":"12","agencyName":"Société de Transport du Saguenay","agencyUrl":"http://ville.saguenay.ca/fr/services-aux-citoyens/transport-sts","agencyTimeZoneOffset":-14400000,"routeColor":"556B2F","routeType":3,"routeId":"1:12","routeTextColor":"FFFFFF","interlineWithPreviousLeg":true,"tripBlockId":"29","headsign":"Terminus Chicoutimi","agencyId":"0","tripId":"1:218072","serviceDate":"20180402","from":{"name":"Terminus UQAC","stopId":"1:1670","stopCode":"1670","lon":-71.053369,"lat":48.420903,"arrival":1522701420000,"departure":1522701600000,"zoneId":"NA","stopIndex":0,"stopSequence":1,"vertexType":"TRANSIT"},"to":{"name":"nouveau","stopId":"1:2299","stopCode":"2299","lon":-71.026429,"lat":48.420216,"arrival":1522702702000,"departure":1522702703000,"zoneId":"NA","stopIndex":19,"stopSequence":20,"vertexType":"TRANSIT"},"legGeometry":{"points":"sepfHprtpL}@y@Pw@wAsAaB{A}DrL?jCv@fCa@nDaC`D~E`F~MfNjJnJ~GbHnCpCv@iBlAgIdCmFbAqDtBeCjFm@`Gs@hFo@xAmBrGcPxFoNlCyGa@yFYkD}CyA}KmFgD_BgAgBn@kFD_NoIgrAmD_WcAaLaDHoDJi`@wVoAbDbA|AnBU|B|AfBlAyLtK","length":47},"routeShortName":"12","routeLongName":"Rivière du Moulin","rentedBike":false,"transitLeg":true,"duration":1102.0,"steps":[]},{"startTime":1522702703000,"endTime":1522702949000,"departureDelay":0,"arrivalDelay":0,"realTime":false,"distance":316.622,"pathway":false,"mode":"WALK","route":"","agencyTimeZoneOffset":-14400000,"interlineWithPreviousLeg":false,"from":{"name":"nouveau","stopId":"1:2299","stopCode":"2299","lon":-71.026429,"lat":48.420216,"arrival":1522702702000,"departure":1522702703000,"zoneId":"NA","stopIndex":19,"stopSequence":20,"vertexType":"TRANSIT"},"to":{"name":"Destination","lon":-71.027091,"lat":48.422645,"arrival":1522702949000,"orig":"","vertexType":"NORMAL"},"legGeometry":{"points":"{`pfHrjopLCDCJWj@IXSl@ABM`@EJCFOJ_@KICOE]MIAYGi@Oi@Oa@KICWGE@SBSPKI??WQCCMMA?","length":31},"rentedBike":false,"transitLeg":false,"duration":246.0,"steps":[{"distance":96.089,"relativeDirection":"DEPART","streetName":"Rue Desbiens","absoluteDirection":"NORTHWEST","stayOn":false,"area":false,"bogusName":false,"lon":-71.02649344265734,"lat":48.42014958233219,"elevation":[]},{"distance":185.29,"relativeDirection":"SLIGHTLY_RIGHT","streetName":"Rue Honoré-Mercier","absoluteDirection":"NORTH","stayOn":false,"area":false,"bogusName":false,"lon":-71.0275115,"lat":48.4206681,"elevation":[]},{"distance":35.243,"relativeDirection":"RIGHT","streetName":"Rue Honoré-Mercier","absoluteDirection":"NORTHEAST","stayOn":true,"area":false,"bogusName":false,"lon":-71.027125,"lat":48.4222763,"elevation":[]}]}],"tooSloped":false},{"duration":2034,"startTime":1522702577000,"endTime":1522704611000,"walkTime":591,"transitTime":1441,"waitingTime":2,"walkDistance":752.6483458601977,"walkLimitExceeded":false,"elevationLost":0.0,"elevationGained":0.0,"transfers":0,"legs":[{"startTime":1522702577000,"endTime":1522702954000,"departureDelay":0,"arrivalDelay":0,"realTime":false,"distance":480.589,"pathway":false,"mode":"WALK","route":"","agencyTimeZoneOffset":-14400000,"interlineWithPreviousLeg":false,"from":{"name":"Origin","lon":-71.040075,"lat":48.421289,"departure":1522702577000,"orig":"","vertexType":"NORMAL"},"to":{"name":"nouveau","stopId":"1:2287","stopCode":"2287","lon":-71.044979,"lat":48.420614,"arrival":1522702954000,"departure":1522702955000,"zoneId":"NA","stopIndex":12,"stopSequence":13,"vertexType":"TRANSIT"},"legGeometry":{"points":"mhpfHpcrpLZDH@|AfAd@d@VRNLZTL`@z@rAlA|AoAjDIXM^KZoAnDO`@GR","length":18},"rentedBike":false,"transitLeg":false,"duration":377.0,"steps":[{"distance":263.35900000000004,"relativeDirection":"DEPART","streetName":"service road","absoluteDirection":"SOUTH","stayOn":false,"area":false,"bogusName":false,"lon":-71.04072585323445,"lat":48.42135119713972,"elevation":[]},{"distance":217.23000000000002,"relativeDirection":"RIGHT","streetName":"Chemin Sydenham","absoluteDirection":"NORTHWEST","stayOn":false,"area":false,"bogusName":false,"lon":-71.04266,"lat":48.4194089,"elevation":[]}]},{"startTime":1522702955000,"endTime":1522703400000,"departureDelay":0,"arrivalDelay":0,"realTime":false,"distance":1996.6271468825676,"pathway":false,"mode":"BUS","route":"10","agencyName":"Société de Transport du Saguenay","agencyUrl":"http://ville.saguenay.ca/fr/services-aux-citoyens/transport-sts","agencyTimeZoneOffset":-14400000,"routeColor":"0000FF","routeType":3,"routeId":"1:10","routeTextColor":"FFFFFF","interlineWithPreviousLeg":false,"tripBlockId":"28","headsign":"Terminus Chicoutimi","agencyId":"0","tripId":"1:218046","serviceDate":"20180402","from":{"name":"nouveau","stopId":"1:2287","stopCode":"2287","lon":-71.044979,"lat":48.420614,"arrival":1522702954000,"departure":1522702955000,"zoneId":"NA","stopIndex":12,"stopSequence":13,"vertexType":"TRANSIT"},"to":{"name":"Terminus Chicoutimi","stopId":"1:1289","stopCode":"1289","lon":-71.066163,"lat":48.428677,"arrival":1522703400000,"departure":1522703700000,"zoneId":"NA","stopIndex":21,"stopSequence":22,"vertexType":"TRANSIT"},"legGeometry":{"points":"_cpfH~~rpLaEvK_BhE}AfD{BdByBh@iC]oDq@YbF_Ea@AAuEg@MDENF|GAjJDzBDdDLdHFbCo@RUFRbFG|FApAMvFa@tPOnHqBOIjDc@Q","length":31},"routeShortName":"10","routeLongName":"Notre-Dame du Saguenay","rentedBike":false,"transitLeg":true,"duration":445.0,"steps":[]},{"startTime":1522703700000,"endTime":1522704396000,"departureDelay":0,"arrivalDelay":0,"realTime":false,"distance":4663.532063835512,"pathway":false,"mode":"BUS","route":"12","agencyName":"Société de Transport du Saguenay","agencyUrl":"http://ville.saguenay.ca/fr/services-aux-citoyens/transport-sts","agencyTimeZoneOffset":-14400000,"routeColor":"556B2F","routeType":3,"routeId":"1:12","routeTextColor":"FFFFFF","interlineWithPreviousLeg":true,"tripBlockId":"28","headsign":"Terminus UQAC","agencyId":"0","tripId":"1:218047","serviceDate":"20180402","from":{"name":"Terminus Chicoutimi","stopId":"1:1289","stopCode":"1289","lon":-71.066163,"lat":48.428677,"arrival":1522703400000,"departure":1522703700000,"zoneId":"NA","stopIndex":0,"stopSequence":1,"vertexType":"TRANSIT"},"to":{"name":"Normandie / Ferland","stopId":"1:1532","stopCode":"1532","lon":-71.024617,"lat":48.423555,"arrival":1522704396000,"departure":1522704397000,"zoneId":"NA","stopIndex":20,"stopSequence":21,"vertexType":"TRANSIT"},"legGeometry":{"points":"evqfHpbwpLpFcj@IaKmFy^_DaZz@u]SeV}@aNs@gKToKd@gTnCyHkGuLqFqJ_DeFf@iIvGsKlIrH`JlH`EfDnOdI","length":21},"routeShortName":"12","routeLongName":"Rivière du Moulin","rentedBike":false,"transitLeg":true,"duration":696.0,"steps":[]},{"startTime":1522704397000,"endTime":1522704611000,"departureDelay":0,"arrivalDelay":0,"realTime":false,"distance":271.921,"pathway":false,"mode":"WALK","route":"","agencyTimeZoneOffset":-14400000,"interlineWithPreviousLeg":false,"from":{"name":"Normandie / Ferland","stopId":"1:1532","stopCode":"1532","lon":-71.024617,"lat":48.423555,"arrival":1522704396000,"departure":1522704397000,"zoneId":"NA","stopIndex":20,"stopSequence":21,"vertexType":"TRANSIT"},"to":{"name":"Destination","lon":-71.027091,"lat":48.422645,"arrival":1522704611000,"orig":"","vertexType":"NORMAL"},"legGeometry":{"points":"avpfHj~npLTJk@xAELOf@Qf@f@j@`@`@\\`@BB\\\\BBVZf@h@TTHHRV","length":17},"rentedBike":false,"transitLeg":false,"duration":214.0,"steps":[{"distance":12.992,"relativeDirection":"DEPART","streetName":"Rue de Normandie","absoluteDirection":"SOUTH","stayOn":false,"area":false,"bogusName":false,"lon":-71.02453142981058,"lat":48.42353257488335,"elevation":[]},{"distance":82.765,"relativeDirection":"RIGHT","streetName":"Rue Ferland","absoluteDirection":"NORTHWEST","stayOn":false,"area":false,"bogusName":false,"lon":-71.02459610000001,"lat":48.4234239,"elevation":[]},{"distance":176.164,"relativeDirection":"LEFT","streetName":"Rue Honoré-Mercier","absoluteDirection":"SOUTHWEST","stayOn":false,"area":false,"bogusName":false,"lon":-71.02551770000001,"lat":48.4238475,"elevation":[]}]}],"tooSloped":false}]},"debugOutput":{"precalculationTime":23,"pathCalculationTime":45,"pathTimes":[20,11,14],"renderingTime":1,"totalTime":69,"timedOut":false},"elevationMetadata":{"ellipsoidToGeoidDifference":-28.885904201182168,"geoidElevation":false}}