{"requestParameters":{"date":"2018/04/02","walkSpeed":"1.33","walkReluctance":"2.0","fromPlace":"48.405991,-71.058711","maxWalkDistance":"3000","waitReluctance":"1.0","carSpeed":"33","numItineraries":"3","waitAtBeginningFactor":"0.4","mode":"TRANSIT,WALK","ignoreRealtimeUpdates":"false","stairsReluctance":"2.0","toPlace":"48.406446,-71.091884","time":"15:0:00"},"plan":{"date":1522695600000,"from":{"name":"Origin","lon":-71.058711,"lat":48.405991,"orig":"","vertexType":"NORMAL"},"to":{"name":"Destination","lon":-71.091884,"lat":48.406446,"orig":"","vertexType":"NORMAL"},"itineraries":[{"duration":1157,"startTime":1522696751000,"endTime":1522697908000,"walkTime":773,"transitTime":382,"waitingTime":2,"walkDistance":1017.1430902243994,"walkLimitExceeded":false,"elevationLost":0.0,"elevationGained":0.0,"transfers":0,"legs":[{"startTime":1522696751000,"endTime":1522697137000,"departureDelay":0,"arrivalDelay":0,"realTime":false,"distance":510.075,"pathway":false,"mode":"WALK","route":"","agencyTimeZoneOffset":-14400000,"interlineWithPreviousLeg":false,"from":{"name":"Origin","lon":-71.058711,"lat":48.405991,"departure":1522696751000,"orig":"","vertexType":"NORMAL"},"to":{"name":"boul. Talbot (no. 1494) (Tim-Horton)","stopId":"1:1854","stopCode":"1854","lon":-71.060941,"lat":48.402118,"arrival":1522697137000,"departure":1522697138000,"zoneId":"NA","stopIndex":5,"stopSequence":6,"vertexType":"TRANSIT"},"legGeometry":{"points":"igmfHbqupLFDxAjAzBlBZXr@_CjF~EPPVTfDbD","length":10},"rentedBike":false,"transitLeg":false,"duration":386.0,"steps":[{"distance":216.553,"relativeDirection":"DEPART","streetName":"parking aisle","absoluteDirection":"SOUTHWEST","stayOn":false,"area":false,"bogusName":false,"lon":-71.05825112020366,"lat":48.40581355272311,"elevation":[]},{"distance":293.522,"relativeDirection":"RIGHT","streetName":"Boulevard Talbot","absoluteDirection":"SOUTHWEST","stayOn":false,"area":false,"bogusName":false,"lon":-71.0587038,"lat":48.4043008,"elevation":[]}]},{"startTime":1522697138000,"endTime":1522697520000,"departureDelay":0,"arrivalDelay":0,"realTime":false,"distance":3148.460041544023,"pathway":false,"mode":"BUS","route":"211S","agencyName":"Société de Transport du Saguenay","agencyUrl":"http://ville.saguenay.ca/fr/services-aux-citoyens/transport-sts","agencyTimeZoneOffset":-14400000,"routeColor":"8B0000","routeType":3,"routeId":"1:211S","routeTextColor":"FFFFFF","interlineWithPreviousLeg":false,"tripBlockId":"104","headsign":"Faubourg Sagamie","agencyId":"0","tripId":"1:218800","serviceDate":"20180402","from":{"name":"boul. Talbot (no. 1494) (Tim-Horton)","stopId":"1:1854","stopCode":"1854","lon":-71.060941,"lat":48.402118,"arrival":1522697137000,"departure":1522697138000,"zoneId":"NA","stopIndex":5,"stopSequence":6,"vertexType":"TRANSIT"},"to":{"name":"boul. Barrette / Voltaire","stopId":"1:477","stopCode":"477","lon":-71.095407,"lat":48.403241,"arrival":1522697520000,"departure":1522697521000,"zoneId":"NA","stopIndex":15,"stopSequence":16,"vertexType":"TRANSIT"},"legGeometry":{"points":"_plfHjavpLjF`FjCrCrAvAbCfDjIfMdAzAfFpHd@n@nC`DhEbF{ElMaAjC{GzWoEfQcEbPcBrIuGf\\}BbLe@bB?La@hAwGhQ","length":23},"routeShortName":"211S","routeLongName":"Séminaire - Arvida / Kénogami","rentedBike":false,"transitLeg":true,"duration":382.0,"steps":[]},{"startTime":1522697521000,"endTime":1522697908000,"departureDelay":0,"arrivalDelay":0,"realTime":false,"distance":507.032,"pathway":false,"mode":"WALK","route":"","agencyTimeZoneOffset":-14400000,"interlineWithPreviousLeg":false,"from":{"name":"boul. Barrette / Voltaire","stopId":"1:477","stopCode":"477","lon":-71.095407,"lat":48.403241,"arrival":1522697520000,"departure":1522697521000,"zoneId":"NA","stopIndex":15,"stopSequence":16,"vertexType":"TRANSIT"},"to":{"name":"Destination","lon":-71.091884,"lat":48.406446,"arrival":1522697908000,"orig":"","vertexType":"NORMAL"},"legGeometry":{"points":"yvlfHxy|pLx@uBoCgCeHsG}FmF","length":5},"rentedBike":false,"transitLeg":false,"duration":387.0,"steps":[{"distance":53.863,"relativeDirection":"DEPART","streetName":"Boulevard Barrette","absoluteDirection":"SOUTHEAST","stayOn":false,"area":false,"bogusName":false,"lon":-71.09548255149865,"lat":48.403171572977286,"elevation":[]},{"distance":453.169,"relativeDirection":"LEFT","streetName":"Rue Voltaire","absoluteDirection":"NORTHEAST","stayOn":false,"area":false,"bogusName":false,"lon":-71.0948911,"lat":48.4028879,"elevation":[]}]}],"tooSloped":false},{"duration":1776,"startTime":1522697032000,"endTime":1522698808000,"walkTime":619,"transitTime":1155,"waitingTime":2,"walkDistance":809.8705864650493,"walkLimitExceeded":false,"elevationLost":0.0,"elevationGained":0.0,"transfers":0,"legs":[{"startTime":1522697032000,"endTime":1522697418000,"departureDelay":0,"arrivalDelay":0,"realTime":false,"distance":510.075,"pathway":false,"mode":"WALK","route":"","agencyTimeZoneOffset":-14400000,"interlineWithPreviousLeg":false,"from":{"name":"Origin","lon":-71.058711,"lat":48.405991,"departure":1522697032000,"orig":"","vertexType":"NORMAL"},"to":{"name":"boul. Talbot (no. 1494) (Tim-Horton)","stopId":"1:1854","stopCode":"1854","lon":-71.060941,"lat":48.402118,"arrival":1522697418000,"departure":1522697419000,"zoneId":"NA","stopIndex":2,"stopSequence":3,"vertexType":"TRANSIT"},"legGeometry":{"points":"igmfHbqupLFDxAjAzBlBZXr@_CjF~EPPVTfDbD","length":10},"rentedBike":false,"transitLeg":false,"duration":386.0,"steps":[{"distance":216.553,"relativeDirection":"DEPART","streetName":"parking aisle","absoluteDirection":"SOUTHWEST","stayOn":false,"area":false,"bogusName":false,"lon":-71.05825112020366,"lat":48.40581355272311,"elevation":[]},{"distance":293.522,"relativeDirection":"RIGHT","streetName":"Boulevard Talbot","absoluteDirection":"SOUTHWEST","stayOn":false,"area":false,"bogusName":false,"lon":-71.0587038,"lat":48.4043008,"elevation":[]}]},{"startTime":1522697419000,"endTime":1522698574000,"departureDelay":0,"arrivalDelay":0,"realTime":false,"distance":4667.950718649414,"pathway":false,"mode":"BUS","route":"215S","agencyName":"Société de Transport du Saguenay","agencyUrl":"http://ville.saguenay.ca/fr/services-aux-citoyens/transport-sts","agencyTimeZoneOffset":-14400000,"routeColor":"8B0000","routeType":3,"routeId":"1:215S","routeTextColor":"FFFFFF","interlineWithPreviousLeg":false,"tripBlockId":"100","headsign":"Jolliet / Audet","agencyId":"0","tripId":"1:218757","serviceDate":"20180402","from":{"name":"boul. Talbot (no. 1494) (Tim-Horton)","stopId":"1:1854","stopCode":"1854","lon":-71.060941,"lat":48.402118,"arrival":1522697418000,"departure":1522697419000,"zoneId":"NA","stopIndex":2,"stopSequence":3,"vertexType":"TRANSIT"},"to":{"name":"Descartes / Estacade","stopId":"1:1889","stopCode":"1889","lon":-71.093786,"lat":48.408069,"arrival":1522698574000,"departure":1522698575000,"zoneId":"NA","stopIndex":16,"stopSequence":17,"vertexType":"TRANSIT"},"legGeometry":{"points":"_plfHlavpLjF~EjCrCrAvAbCfDjIfMdAzAfFpHd@n@nC`DhEbF{ElMaAjCcCnJTRnA|@JSPGtBj@D@VPpBvABDBJ?JQfCSxBOz@Sx@}@fCu@pBsEtLwAhDlAtAT`@Ld@Dl@Ch@u@~IUbCkCs@cB_@?PcDzOSh@s@rAUl@Qh@PPRVJPDHNZV`@tDtE{B|FgCtGKPMJOBqABWASIQOeCsCgFaGa@hAwGhQsBrFQJ[t@mAbDAVUn@w@tBkAfDo@xBcA|Dk@`CI^iBq@{@GmEDg@EQKYWGEkA_Bc@gAKk@E_@Aw@Bq@Lo@J_@u@w@q@w@_@_@e@]mBy@{@w@m@y@Wm@Qm@Mk@QkAKiAOmA_@aAYo@My@uAqOz@Ot@Et@DnD`@\\RTVRf@\\`A`@z@r@lAl@r@dCpAlA{C","length":125},"routeShortName":"215S","routeLongName":"Séminaire - Quartier Écrivains","rentedBike":false,"transitLeg":true,"duration":1155.0,"steps":[]},{"startTime":1522698575000,"endTime":1522698808000,"departureDelay":0,"arrivalDelay":0,"realTime":false,"distance":299.76099999999997,"pathway":false,"mode":"WALK","route":"","agencyTimeZoneOffset":-14400000,"interlineWithPreviousLeg":false,"from":{"name":"Descartes / Estacade","stopId":"1:1889","stopCode":"1889","lon":-71.093786,"lat":48.408069,"arrival":1522698574000,"departure":1522698575000,"zoneId":"NA","stopIndex":16,"stopSequence":17,"vertexType":"TRANSIT"},"to":{"name":"Destination","lon":-71.091884,"lat":48.406446,"arrival":1522698808000,"orig":"","vertexType":"NORMAL"},"legGeometry":{"points":"yumfHrn|pL|AgDxAuDjAwC`BzA","length":5},"rentedBike":false,"transitLeg":false,"duration":233.0,"steps":[{"distance":235.742,"relativeDirection":"DEPART","streetName":"Rue Descartes","absoluteDirection":"SOUTHEAST","stayOn":false,"area":false,"bogusName":false,"lon":-71.09369815391963,"lat":48.40813812734284,"elevation":[]},{"distance":64.019,"relativeDirection":"RIGHT","streetName":"Rue Voltaire","absoluteDirection":"SOUTHWEST","stayOn":false,"area":false,"bogusName":false,"lon":-71.09118190000001,"lat":48.4068338,"elevation":[]}]}],"tooSloped":false},{"duration":1551,"startTime":1522697378000,"endTime":1522698929000,"walkTime":1042,"transitTime":507,"waitingTime":2,"walkDistance":1363.0267593951482,"walkLimitExceeded":false,"elevationLost":0.0,"elevationGained":0.0,"transfers":0,"legs":[{"startTime":1522697378000,"endTime":1522697758000,"departureDelay":0,"arrivalDelay":0,"realTime":false,"distance":497.858,"pathway":false,"mode":"WALK","route":"","agencyTimeZoneOffset":-14400000,"interlineWithPreviousLeg":false,"from":{"name":"Origin","lon":-71.058711,"lat":48.405991,"departure":1522697378000,"orig":"","vertexType":"NORMAL"},"to":{"name":"Saguenéens  / Bach","stopId":"1:575","stopCode":"575","lon":-71.061104,"lat":48.403689,"arrival":1522697758000,"departure":1522697759000,"zoneId":"NA","stopIndex":23,"stopSequence":24,"vertexType":"TRANSIT"},"legGeometry":{"points":"igmfHbqupLFDxAjAzBlBZXr@_CjF~EPPyBvF","length":9},"rentedBike":false,"transitLeg":false,"duration":380.0,"steps":[{"distance":216.553,"relativeDirection":"DEPART","streetName":"parking aisle","absoluteDirection":"SOUTHWEST","stayOn":false,"area":false,"bogusName":false,"lon":-71.05825112020366,"lat":48.40581355272311,"elevation":[]},{"distance":167.019,"relativeDirection":"RIGHT","streetName":"Boulevard Talbot","absoluteDirection":"SOUTHWEST","stayOn":false,"area":false,"bogusName":false,"lon":-71.0587038,"lat":48.4043008,"elevation":[]},{"distance":114.286,"relativeDirection":"RIGHT","streetName":"Rue des Saguenéens","absoluteDirection":"NORTHWEST","stayOn":false,"area":false,"bogusName":false,"lon":-71.0599121,"lat":48.403030900000005,"elevation":[]}]},{"startTime":1522697759000,"endTime":1522698120000,"departureDelay":0,"arrivalDelay":0,"realTime":false,"distance":3436.0046196032185,"pathway":false,"mode":"BUS","route":"15","agencyName":"Société de Transport du Saguenay","agencyUrl":"http://ville.saguenay.ca/fr/services-aux-citoyens/transport-sts","agencyTimeZoneOffset":-14400000,"routeColor":"FF00FF","routeType":3,"routeId":"1:15","routeTextColor":"FFFFFF","interlineWithPreviousLeg":false,"tripBlockId":"33","headsign":"Talbot / Barrette","agencyId":"0","tripId":"1:218189","serviceDate":"20180402","from":{"name":"Saguenéens  / Bach","stopId":"1:575","stopCode":"575","lon":-71.061104,"lat":48.403689,"arrival":1522697758000,"departure":1522697759000,"zoneId":"NA","stopIndex":23,"stopSequence":24,"vertexType":"TRANSIT"},"to":{"name":"Roitelets / Sapins","stopId":"1:1543","stopCode":"1543","lon":-71.069553,"lat":48.393375,"arrival":1522698120000,"departure":1522698120000,"zoneId":"NA","stopIndex":35,"stopSequence":36,"vertexType":"TRANSIT"},"legGeometry":{"points":"ezlfHvbvpLtC{FnBoLbCaO?qLa@uJzF`ApF~@~@PzAgEeDcBf@qAWcKUqEx@Ef@ExDVjDxAFBrBvAfGjG@BjCzC~DxC@@zA~Cb@fCJlC?BsBre@?DWbOAn@?nEGnM@H\\hCzA~ELvAAlAi@jDo@nB","length":42},"routeShortName":"15","routeLongName":"Term. Chic / Costco","rentedBike":false,"transitLeg":true,"duration":361.0,"steps":[]},{"startTime":1522698120000,"endTime":1522698266000,"departureDelay":0,"arrivalDelay":0,"realTime":false,"distance":2001.932967403964,"pathway":false,"mode":"BUS","route":"14","agencyName":"Société de Transport du Saguenay","agencyUrl":"http://ville.saguenay.ca/fr/services-aux-citoyens/transport-sts","agencyTimeZoneOffset":-14400000,"routeColor":"C0C000","routeType":3,"routeId":"1:14","routeTextColor":"000000","interlineWithPreviousLeg":true,"tripBlockId":"33","headsign":"Terminus Chicoutimi","agencyId":"0","tripId":"1:218190","serviceDate":"20180402","from":{"name":"Roitelets / Sapins","stopId":"1:1513","stopCode":"1513","lon":-71.069396,"lat":48.393523,"arrival":1522698120000,"departure":1522698120000,"zoneId":"NA","stopIndex":0,"stopSequence":1,"vertexType":"TRANSIT"},"to":{"name":"Malraux / Pagnol","stopId":"1:441","stopCode":"441","lon":-71.09356,"lat":48.400447,"arrival":1522698266000,"departure":1522698267000,"zoneId":"NA","stopIndex":6,"stopSequence":7,"vertexType":"TRANSIT"},"legGeometry":{"points":"azjfHfwwpLiEfLuBzFsAnDgGzSWfAcD`Mi@dCgChLmCzMwGd\\aDxOdFtF","length":13},"routeShortName":"14","routeLongName":"Coopérative","rentedBike":false,"transitLeg":true,"duration":146.0,"steps":[]},{"startTime":1522698267000,"endTime":1522698929000,"departureDelay":0,"arrivalDelay":0,"realTime":false,"distance":865.065,"pathway":false,"mode":"WALK","route":"","agencyTimeZoneOffset":-14400000,"interlineWithPreviousLeg":false,"from":{"name":"Malraux / Pagnol","stopId":"1:441","stopCode":"441","lon":-71.09356,"lat":48.400447,"arrival":1522698266000,"departure":1522698267000,"zoneId":"NA","stopIndex":6,"stopSequence":7,"vertexType":"TRANSIT"},"to":{"name":"Destination","lon":-71.091884,"lat":48.406446,"arrival":1522698929000,"orig":"","vertexType":"NORMAL"},"legGeometry":{"points":"melfH`m|pLEEkF{Fa@jAA?{EvMoCgCeHsG}FmF","length":9},"rentedBike":false,"transitLeg":false,"duration":662.0,"steps":[{"distance":164.807,"relativeDirection":"DEPART","streetName":"Rue Malraux","absoluteDirection":"NORTHEAST","stayOn":false,"area":false,"bogusName":false,"lon":-71.0934459868607,"lat":48.400393574945504,"elevation":[]},{"distance":247.089,"relativeDirection":"LEFT","streetName":"Boulevard Barrette","absoluteDirection":"NORTHWEST","stayOn":false,"area":false,"bogusName":false,"lon":-71.0921587,"lat":48.401604500000005,"elevation":[]},{"distance":453.169,"relativeDirection":"RIGHT","streetName":"Rue Voltaire","absoluteDirection":"NORTHEAST","stayOn":false,"area":false,"bogusName":false,"lon":-71.0948911,"lat":48.4028879,"elevation":[]}]}],"tooSloped":false}]},"debugOutput":{"precalculationTime":31,"pathCalculationTime":46,"pathTimes":[21,11,14],"renderingTime":0,"totalTime":77,"timedOut":false},"elevationMetadata":{"ellipsoidToGeoidDifference":-28.885904201182168,"geoidElevation":false}}