{"requestParameters":{"date":"2018/04/02","walkSpeed":"1.33","walkReluctance":"2.0","fromPlace":"48.421076,-71.06688499","maxWalkDistance":"3000","waitReluctance":"1.0","carSpeed":"33","numItineraries":"3","waitAtBeginningFactor":"0.4","mode":"TRANSIT,WALK","ignoreRealtimeUpdates":"false","stairsReluctance":"2.0","toPlace":"48.404557,-71.093699","time":"16:0:00"},"plan":{"date":1522699200000,"from":{"name":"Origin","lon":-71.06688499,"lat":48.421076,"orig":"","vertexType":"NORMAL"},"to":{"name":"Destination","lon":-71.093699,"lat":48.404557,"orig":"","vertexType":"NORMAL"},"itineraries":[{"duration":1311,"startTime":1522699848000,"endTime":1522701159000,"walkTime":896,"transitTime":413,"waitingTime":2,"walkDistance":1159.9028045073483,"walkLimitExceeded":false,"elevationLost":0.0,"elevationGained":0.0,"transfers":0,"legs":[{"startTime":1522699848000,"endTime":1522700346000,"departureDelay":0,"arrivalDelay":0,"realTime":false,"distance":644.9960000000001,"pathway":false,"mode":"WALK","route":"","agencyTimeZoneOffset":-14400000,"interlineWithPreviousLeg":false,"from":{"name":"Origin","lon":-71.06688499,"lat":48.421076,"departure":1522699848000,"orig":"","vertexType":"NORMAL"},"to":{"name":"Saint-Paul / Dubuc","stopId":"1:420","stopCode":"420","lon":-71.075186,"lat":48.421664,"arrival":1522700346000,"departure":1522700347000,"zoneId":"NA","stopIndex":7,"stopSequence":8,"vertexType":"TRANSIT"},"legGeometry":{"points":"ghpfHzfwpLEjBEfBMbGA`@QpJKjBO~@WbAy@dCG`@?d@@n@D|@Bd@XbAFb@|@~@","length":18},"rentedBike":false,"transitLeg":false,"duration":498.0,"steps":[{"distance":490.832,"relativeDirection":"DEPART","streetName":"Boulevard de l'Université","absoluteDirection":"WEST","stayOn":false,"area":false,"bogusName":false,"lon":-71.06685369236025,"lat":48.421327184336846,"elevation":[]},{"distance":154.164,"relativeDirection":"SLIGHTLY_LEFT","streetName":"Rue Saint-Paul","absoluteDirection":"WEST","stayOn":false,"area":false,"bogusName":false,"lon":-71.0732783,"lat":48.4221458,"elevation":[]}]},{"startTime":1522700347000,"endTime":1522700760000,"departureDelay":0,"arrivalDelay":0,"realTime":false,"distance":1987.8101991973444,"pathway":false,"mode":"BUS","route":"11","agencyName":"Société de Transport du Saguenay","agencyUrl":"http://ville.saguenay.ca/fr/services-aux-citoyens/transport-sts","agencyTimeZoneOffset":-14400000,"routeColor":"FF0000","routeType":3,"routeId":"1:11","routeTextColor":"FFFFFF","interlineWithPreviousLeg":false,"tripBlockId":"37","headsign":"Boul.Royaume/St-Pierre","agencyId":"0","tripId":"1:218322","serviceDate":"20180402","from":{"name":"Saint-Paul / Dubuc","stopId":"1:420","stopCode":"420","lon":-71.075186,"lat":48.421664,"arrival":1522700346000,"departure":1522700347000,"zoneId":"NA","stopIndex":7,"stopSequence":8,"vertexType":"TRANSIT"},"to":{"name":"boul. St-Paul / Descartes","stopId":"1:467","stopCode":"467","lon":-71.092615,"lat":48.408095,"arrival":1522700760000,"departure":1522700761000,"zoneId":"NA","stopIndex":14,"stopSequence":15,"vertexType":"TRANSIT"},"legGeometry":{"points":"ajpfHfzxpLfIjIbGdGzDzD`A~An@`ApApBpClEvJrOR\\bAfBLa@t@]LjAVvAVbAVv@^bAXj@b@t@xEtGh@r@n@x@FDjA|AlBpCnJ|NNT","length":28},"routeShortName":"11","routeLongName":"Chic/Faubourg via St-Paul","rentedBike":false,"transitLeg":true,"duration":413.0,"steps":[]},{"startTime":1522700761000,"endTime":1522701159000,"departureDelay":0,"arrivalDelay":0,"realTime":false,"distance":514.785,"pathway":false,"mode":"WALK","route":"","agencyTimeZoneOffset":-14400000,"interlineWithPreviousLeg":false,"from":{"name":"boul. St-Paul / Descartes","stopId":"1:467","stopCode":"467","lon":-71.092615,"lat":48.408095,"arrival":1522700760000,"departure":1522700761000,"zoneId":"NA","stopIndex":14,"stopSequence":15,"vertexType":"TRANSIT"},"to":{"name":"Destination","lon":-71.093699,"lat":48.404557,"arrival":1522701159000,"orig":"","vertexType":"NORMAL"},"legGeometry":{"points":"{tmfHtf|pLn@~@NTxAuDjAwC~IhI|BtB","length":7},"rentedBike":false,"transitLeg":false,"duration":398.0,"steps":[{"distance":47.28,"relativeDirection":"DEPART","streetName":"Boulevard Saint-Paul","absoluteDirection":"SOUTHWEST","stayOn":false,"area":false,"bogusName":false,"lon":-71.09242610294163,"lat":48.40798176833643,"elevation":[]},{"distance":154.358,"relativeDirection":"LEFT","streetName":"Rue Descartes","absoluteDirection":"SOUTHEAST","stayOn":false,"area":false,"bogusName":false,"lon":-71.0928554,"lat":48.4076662,"elevation":[]},{"distance":313.147,"relativeDirection":"RIGHT","streetName":"Rue Voltaire","absoluteDirection":"SOUTHWEST","stayOn":false,"area":false,"bogusName":false,"lon":-71.09118190000001,"lat":48.4068338,"elevation":[]}]}],"tooSloped":false},{"duration":1496,"startTime":1522700495000,"endTime":1522701991000,"walkTime":838,"transitTime":656,"waitingTime":2,"walkDistance":1084.2142330780853,"walkLimitExceeded":false,"elevationLost":0.0,"elevationGained":0.0,"transfers":0,"legs":[{"startTime":1522700495000,"endTime":1522700863000,"departureDelay":0,"arrivalDelay":0,"realTime":false,"distance":472.639,"pathway":false,"mode":"WALK","route":"","agencyTimeZoneOffset":-14400000,"interlineWithPreviousLeg":false,"from":{"name":"Origin","lon":-71.06688499,"lat":48.421076,"departure":1522700495000,"orig":"","vertexType":"NORMAL"},"to":{"name":"Audet / Saint-Charles","stopId":"1:521","stopCode":"521","lon":-71.072343,"lat":48.420999,"arrival":1522700863000,"departure":1522700864000,"zoneId":"NA","stopIndex":9,"stopSequence":10,"vertexType":"TRANSIT"},"legGeometry":{"points":"ghpfHzfwpLEjBEfBMbGA`@QpJKjBO~@f@BD?jADAb@","length":12},"rentedBike":false,"transitLeg":false,"duration":368.0,"steps":[{"distance":390.366,"relativeDirection":"DEPART","streetName":"Boulevard de l'Université","absoluteDirection":"WEST","stayOn":false,"area":false,"bogusName":false,"lon":-71.06685369236025,"lat":48.421327184336846,"elevation":[]},{"distance":68.384,"relativeDirection":"LEFT","streetName":"Rue Audet","absoluteDirection":"SOUTH","stayOn":false,"area":false,"bogusName":false,"lon":-71.07209830000001,"lat":48.421699100000005,"elevation":[]},{"distance":13.889,"relativeDirection":"RIGHT","streetName":"Rue Saint-Charles","absoluteDirection":"WEST","stayOn":false,"area":false,"bogusName":false,"lon":-71.0721424,"lat":48.4210848,"elevation":[]}]},{"startTime":1522700864000,"endTime":1522701520000,"departureDelay":0,"arrivalDelay":0,"realTime":false,"distance":4345.656610700377,"pathway":false,"mode":"BUS","route":"14","agencyName":"Société de Transport du Saguenay","agencyUrl":"http://ville.saguenay.ca/fr/services-aux-citoyens/transport-sts","agencyTimeZoneOffset":-14400000,"routeColor":"C0C000","routeType":3,"routeId":"1:14","routeTextColor":"000000","interlineWithPreviousLeg":false,"tripBlockId":"32","headsign":"Talbot / Barrette","agencyId":"0","tripId":"1:218166","serviceDate":"20180402","from":{"name":"Audet / Saint-Charles","stopId":"1:521","stopCode":"521","lon":-71.072343,"lat":48.420999,"arrival":1522700863000,"departure":1522700864000,"zoneId":"NA","stopIndex":9,"stopSequence":10,"vertexType":"TRANSIT"},"to":{"name":"Malraux / Pagnol","stopId":"1:1978","stopCode":"1978","lon":-71.093388,"lat":48.400416,"arrival":1522701520000,"departure":1522701521000,"zoneId":"NA","stopIndex":29,"stopSequence":30,"vertexType":"TRANSIT"},"legGeometry":{"points":"cfpfHbhxpLzCTcAvCO^bEbEzK`LfBeEtK`KhAdAnCbCvBpCNR~BxAxBf@z@h@vAz@z@{DrCoITTlElEtAnB`@l@pFrD@?fDr@XgAjFuR\\yADm@b@gFd@_B`A}@tEvJBDvC`FtJ|LLNlClC|@^hCYVExCjCb@d@vE`F`BhB?pHaBhRqAbLK~@qBxFqB|FcC~GyC\\aDkD","length":54},"routeShortName":"14","routeLongName":"Coopérative","rentedBike":false,"transitLeg":true,"duration":656.0,"steps":[]},{"startTime":1522701521000,"endTime":1522701991000,"departureDelay":0,"arrivalDelay":0,"realTime":false,"distance":611.432,"pathway":false,"mode":"WALK","route":"","agencyTimeZoneOffset":-14400000,"interlineWithPreviousLeg":false,"from":{"name":"Malraux / Pagnol","stopId":"1:1978","stopCode":"1978","lon":-71.093388,"lat":48.400416,"arrival":1522701520000,"departure":1522701521000,"zoneId":"NA","stopIndex":29,"stopSequence":30,"vertexType":"TRANSIT"},"to":{"name":"Destination","lon":-71.093699,"lat":48.404557,"arrival":1522701991000,"orig":"","vertexType":"NORMAL"},"legGeometry":{"points":"selfHzl|pLkF{Fa@jAA?{EvMoCgCgD}C","length":7},"rentedBike":false,"transitLeg":false,"duration":470.0,"steps":[{"distance":160.301,"relativeDirection":"DEPART","streetName":"Rue Malraux","absoluteDirection":"NORTHEAST","stayOn":false,"area":false,"bogusName":false,"lon":-71.09341079342245,"lat":48.40042668071038,"elevation":[]},{"distance":247.089,"relativeDirection":"LEFT","streetName":"Boulevard Barrette","absoluteDirection":"NORTHWEST","stayOn":false,"area":false,"bogusName":false,"lon":-71.0921587,"lat":48.401604500000005,"elevation":[]},{"distance":204.042,"relativeDirection":"RIGHT","streetName":"Rue Voltaire","absoluteDirection":"NORTHEAST","stayOn":false,"area":false,"bogusName":false,"lon":-71.0948911,"lat":48.4028879,"elevation":[]}]}],"tooSloped":false},{"duration":1311,"startTime":1522701648000,"endTime":1522702959000,"walkTime":896,"transitTime":413,"waitingTime":2,"walkDistance":1159.9028045073483,"walkLimitExceeded":false,"elevationLost":0.0,"elevationGained":0.0,"transfers":0,"legs":[{"startTime":1522701648000,"endTime":1522702146000,"departureDelay":0,"arrivalDelay":0,"realTime":false,"distance":644.9960000000001,"pathway":false,"mode":"WALK","route":"","agencyTimeZoneOffset":-14400000,"interlineWithPreviousLeg":false,"from":{"name":"Origin","lon":-71.06688499,"lat":48.421076,"departure":1522701648000,"orig":"","vertexType":"NORMAL"},"to":{"name":"Saint-Paul / Dubuc","stopId":"1:420","stopCode":"420","lon":-71.075186,"lat":48.421664,"arrival":1522702146000,"departure":1522702147000,"zoneId":"NA","stopIndex":7,"stopSequence":8,"vertexType":"TRANSIT"},"legGeometry":{"points":"ghpfHzfwpLEjBEfBMbGA`@QpJKjBO~@WbAy@dCG`@?d@@n@D|@Bd@XbAFb@|@~@","length":18},"rentedBike":false,"transitLeg":false,"duration":498.0,"steps":[{"distance":490.832,"relativeDirection":"DEPART","streetName":"Boulevard de l'Université","absoluteDirection":"WEST","stayOn":false,"area":false,"bogusName":false,"lon":-71.06685369236025,"lat":48.421327184336846,"elevation":[]},{"distance":154.164,"relativeDirection":"SLIGHTLY_LEFT","streetName":"Rue Saint-Paul","absoluteDirection":"WEST","stayOn":false,"area":false,"bogusName":false,"lon":-71.0732783,"lat":48.4221458,"elevation":[]}]},{"startTime":1522702147000,"endTime":1522702560000,"departureDelay":0,"arrivalDelay":0,"realTime":false,"distance":1987.8101991973444,"pathway":false,"mode":"BUS","route":"11","agencyName":"Société de Transport du Saguenay","agencyUrl":"http://ville.saguenay.ca/fr/services-aux-citoyens/transport-sts","agencyTimeZoneOffset":-14400000,"routeColor":"FF0000","routeType":3,"routeId":"1:11","routeTextColor":"FFFFFF","interlineWithPreviousLeg":false,"tripBlockId":"34","headsign":"Boul.Royaume/St-Pierre","agencyId":"0","tripId":"1:218227","serviceDate":"20180402","from":{"name":"Saint-Paul / Dubuc","stopId":"1:420","stopCode":"420","lon":-71.075186,"lat":48.421664,"arrival":1522702146000,"departure":1522702147000,"zoneId":"NA","stopIndex":7,"stopSequence":8,"vertexType":"TRANSIT"},"to":{"name":"boul. St-Paul / Descartes","stopId":"1:467","stopCode":"467","lon":-71.092615,"lat":48.408095,"arrival":1522702560000,"departure":1522702561000,"zoneId":"NA","stopIndex":14,"stopSequence":15,"vertexType":"TRANSIT"},"legGeometry":{"points":"ajpfHfzxpLfIjIbGdGzDzD`A~An@`ApApBpClEvJrOR\\bAfBLa@t@]LjAVvAVbAVv@^bAXj@b@t@xEtGh@r@n@x@FDjA|AlBpCnJ|NNT","length":28},"routeShortName":"11","routeLongName":"Chic/Faubourg via St-Paul","rentedBike":false,"transitLeg":true,"duration":413.0,"steps":[]},{"startTime":1522702561000,"endTime":1522702959000,"departureDelay":0,"arrivalDelay":0,"realTime":false,"distance":514.785,"pathway":false,"mode":"WALK","route":"","agencyTimeZoneOffset":-14400000,"interlineWithPreviousLeg":false,"from":{"name":"boul. St-Paul / Descartes","stopId":"1:467","stopCode":"467","lon":-71.092615,"lat":48.408095,"arrival":1522702560000,"departure":1522702561000,"zoneId":"NA","stopIndex":14,"stopSequence":15,"vertexType":"TRANSIT"},"to":{"name":"Destination","lon":-71.093699,"lat":48.404557,"arrival":1522702959000,"orig":"","vertexType":"NORMAL"},"legGeometry":{"points":"{tmfHtf|pLn@~@NTxAuDjAwC~IhI|BtB","length":7},"rentedBike":false,"transitLeg":false,"duration":398.0,"steps":[{"distance":47.28,"relativeDirection":"DEPART","streetName":"Boulevard Saint-Paul","absoluteDirection":"SOUTHWEST","stayOn":false,"area":false,"bogusName":false,"lon":-71.09242610294163,"lat":48.40798176833643,"elevation":[]},{"distance":154.358,"relativeDirection":"LEFT","streetName":"Rue Descartes","absoluteDirection":"SOUTHEAST","stayOn":false,"area":false,"bogusName":false,"lon":-71.0928554,"lat":48.4076662,"elevation":[]},{"distance":313.147,"relativeDirection":"RIGHT","streetName":"Rue Voltaire","absoluteDirection":"SOUTHWEST","stayOn":false,"area":false,"bogusName":false,"lon":-71.09118190000001,"lat":48.4068338,"elevation":[]}]}],"tooSloped":false}]},"debugOutput":{"precalculationTime":34,"pathCalculationTime":51,"pathTimes":[23,11,17],"renderingTime":0,"totalTime":85,"timedOut":false},"elevationMetadata":{"ellipsoidToGeoidDifference":-28.885904201182168,"geoidElevation":false}}