{"requestParameters":{"date":"2018/04/02","walkSpeed":"1.33","walkReluctance":"2.0","fromPlace":"48.40494,-71.09265","maxWalkDistance":"3000","waitReluctance":"1.0","carSpeed":"33","numItineraries":"3","waitAtBeginningFactor":"0.4","mode":"TRANSIT,WALK","ignoreRealtimeUpdates":"false","stairsReluctance":"2.0","toPlace":"48.398288,-71.104147","time":"6:45:00"},"plan":{"date":1522665900000,"from":{"name":"Origin","lon":-71.09265,"lat":48.40494,"orig":"","vertexType":"NORMAL"},"to":{"name":"Destination","lon":-71.104147,"lat":48.398288,"orig":"","vertexType":"NORMAL"},"itineraries":[{"duration":1003,"startTime":1522665900000,"endTime":1522666903000,"walkTime":1003,"transitTime":0,"waitingTime":0,"walkDistance":1298.4156766894491,"walkLimitExceeded":false,"elevationLost":0.0,"elevationGained":0.0,"transfers":0,"legs":[{"startTime":1522665900000,"endTime":1522666903000,"departureDelay":0,"arrivalDelay":0,"realTime":false,"distance":1298.345,"pathway":false,"mode":"WALK","route":"","agencyTimeZoneOffset":-14400000,"interlineWithPreviousLeg":false,"from":{"name":"Origin","lon":-71.09265,"lat":48.40494,"departure":1522665900000,"orig":"","vertexType":"NORMAL"},"to":{"name":"Destination","lon":-71.104147,"lat":48.398288,"arrival":1522666903000,"orig":"","vertexType":"NORMAL"},"legGeometry":{"points":"mbmfHni|pL|GjGnCfCy@tBGPsCrHpA~AbAjAf@h@z@dA~@dAf@j@HJvA`BLNf@l@hAnAvAbBxAdBFFd@h@NPPRBDfF`GRVHJfAlA","length":28},"rentedBike":false,"transitLeg":false,"duration":1003.0,"steps":[{"distance":281.167,"relativeDirection":"DEPART","streetName":"Rue Voltaire","absoluteDirection":"SOUTHWEST","stayOn":false,"area":false,"bogusName":false,"lon":-71.09287462382461,"lat":48.40503305619014,"elevation":[]},{"distance":202.21999999999997,"relativeDirection":"RIGHT","streetName":"Boulevard Barrette","absoluteDirection":"NORTHWEST","stayOn":false,"area":false,"bogusName":false,"lon":-71.0948911,"lat":48.4028879,"elevation":[]},{"distance":814.958,"relativeDirection":"LEFT","streetName":"Boulevard Saint-Paul","absoluteDirection":"SOUTHWEST","stayOn":false,"area":false,"bogusName":false,"lon":-71.0971116,"lat":48.4039529,"elevation":[]}]}],"tooSloped":false},{"duration":708,"startTime":1522666219000,"endTime":1522666927000,"walkTime":399,"transitTime":307,"waitingTime":2,"walkDistance":507.69663909433564,"walkLimitExceeded":false,"elevationLost":0.0,"elevationGained":0.0,"transfers":0,"legs":[{"startTime":1522666219000,"endTime":1522666559000,"departureDelay":0,"arrivalDelay":0,"realTime":false,"distance":437.659,"pathway":false,"mode":"WALK","route":"","agencyTimeZoneOffset":-14400000,"interlineWithPreviousLeg":false,"from":{"name":"Origin","lon":-71.09265,"lat":48.40494,"departure":1522666219000,"orig":"","vertexType":"NORMAL"},"to":{"name":"boul. St-Paul / Descartes","stopId":"1:467","stopCode":"467","lon":-71.092615,"lat":48.408095,"arrival":1522666559000,"departure":1522666560000,"zoneId":"NA","stopIndex":14,"stopSequence":15,"vertexType":"TRANSIT"},"legGeometry":{"points":"mbmfHni|pLGG_JiIkAvCyAtDOUo@_A","length":7},"rentedBike":false,"transitLeg":false,"duration":340.0,"steps":[{"distance":236.021,"relativeDirection":"DEPART","streetName":"Rue Voltaire","absoluteDirection":"NORTHEAST","stayOn":false,"area":false,"bogusName":false,"lon":-71.09287462382461,"lat":48.40503305619014,"elevation":[]},{"distance":154.358,"relativeDirection":"LEFT","streetName":"Rue Descartes","absoluteDirection":"NORTHWEST","stayOn":false,"area":false,"bogusName":false,"lon":-71.09118190000001,"lat":48.4068338,"elevation":[]},{"distance":47.28,"relativeDirection":"RIGHT","streetName":"Boulevard Saint-Paul","absoluteDirection":"NORTHEAST","stayOn":false,"area":false,"bogusName":false,"lon":-71.0928554,"lat":48.4076662,"elevation":[]}]},{"startTime":1522666560000,"endTime":1522666867000,"departureDelay":0,"arrivalDelay":0,"realTime":false,"distance":1867.1472154293017,"pathway":false,"mode":"BUS","route":"11","agencyName":"Société de Transport du Saguenay","agencyUrl":"http://ville.saguenay.ca/fr/services-aux-citoyens/transport-sts","agencyTimeZoneOffset":-14400000,"routeColor":"FF0000","routeType":3,"routeId":"1:11","routeTextColor":"FFFFFF","interlineWithPreviousLeg":false,"tripBlockId":"34","headsign":"Boul.Royaume/St-Pierre","agencyId":"0","tripId":"1:218207","serviceDate":"20180402","from":{"name":"boul. St-Paul / Descartes","stopId":"1:467","stopCode":"467","lon":-71.092615,"lat":48.408095,"arrival":1522666559000,"departure":1522666560000,"zoneId":"NA","stopIndex":14,"stopSequence":15,"vertexType":"TRANSIT"},"to":{"name":"St-Paul / Cossette","stopId":"1:122","stopCode":"122","lon":-71.103306,"lat":48.398662,"arrival":1522666867000,"departure":1522666868000,"zoneId":"NA","stopIndex":19,"stopSequence":20,"vertexType":"TRANSIT"},"legGeometry":{"points":"eumfHdg|pLX`@V`@eCtHpFjH{FhPcB|Ft@|CEAdCnEdHKrBz@lGiQ|CyI~IrJtAzAmKrWsE`LzJjL|P}d@Ri@hCpEpBdC","length":23},"routeShortName":"11","routeLongName":"Chic/Faubourg via St-Paul","rentedBike":false,"transitLeg":true,"duration":307.0,"steps":[]},{"startTime":1522666868000,"endTime":1522666927000,"departureDelay":0,"arrivalDelay":0,"realTime":false,"distance":69.932,"pathway":false,"mode":"WALK","route":"","agencyTimeZoneOffset":-14400000,"interlineWithPreviousLeg":false,"from":{"name":"St-Paul / Cossette","stopId":"1:122","stopCode":"122","lon":-71.103306,"lat":48.398662,"arrival":1522666867000,"departure":1522666868000,"zoneId":"NA","stopIndex":19,"stopSequence":20,"vertexType":"TRANSIT"},"to":{"name":"Destination","lon":-71.104147,"lat":48.398288,"arrival":1522666927000,"orig":"","vertexType":"NORMAL"},"legGeometry":{"points":"{ykfHjk~pLJ_@HJfAlA","length":4},"rentedBike":false,"transitLeg":false,"duration":59.0,"steps":[{"distance":13.735,"relativeDirection":"DEPART","streetName":"Rue Cossette","absoluteDirection":"SOUTHEAST","stayOn":false,"area":false,"bogusName":false,"lon":-71.10341204586585,"lat":48.398545146160764,"elevation":[]},{"distance":56.197,"relativeDirection":"RIGHT","streetName":"Boulevard Saint-Paul","absoluteDirection":"SOUTHWEST","stayOn":false,"area":false,"bogusName":false,"lon":-71.1032527,"lat":48.3984814,"elevation":[]}]}],"tooSloped":false},{"duration":708,"startTime":1522668019000,"endTime":1522668727000,"walkTime":399,"transitTime":307,"waitingTime":2,"walkDistance":507.69663909433564,"walkLimitExceeded":false,"elevationLost":0.0,"elevationGained":0.0,"transfers":0,"legs":[{"startTime":1522668019000,"endTime":1522668359000,"departureDelay":0,"arrivalDelay":0,"realTime":false,"distance":437.659,"pathway":false,"mode":"WALK","route":"","agencyTimeZoneOffset":-14400000,"interlineWithPreviousLeg":false,"from":{"name":"Origin","lon":-71.09265,"lat":48.40494,"departure":1522668019000,"orig":"","vertexType":"NORMAL"},"to":{"name":"boul. St-Paul / Descartes","stopId":"1:467","stopCode":"467","lon":-71.092615,"lat":48.408095,"arrival":1522668359000,"departure":1522668360000,"zoneId":"NA","stopIndex":14,"stopSequence":15,"vertexType":"TRANSIT"},"legGeometry":{"points":"mbmfHni|pLGG_JiIkAvCyAtDOUo@_A","length":7},"rentedBike":false,"transitLeg":false,"duration":340.0,"steps":[{"distance":236.021,"relativeDirection":"DEPART","streetName":"Rue Voltaire","absoluteDirection":"NORTHEAST","stayOn":false,"area":false,"bogusName":false,"lon":-71.09287462382461,"lat":48.40503305619014,"elevation":[]},{"distance":154.358,"relativeDirection":"LEFT","streetName":"Rue Descartes","absoluteDirection":"NORTHWEST","stayOn":false,"area":false,"bogusName":false,"lon":-71.09118190000001,"lat":48.4068338,"elevation":[]},{"distance":47.28,"relativeDirection":"RIGHT","streetName":"Boulevard Saint-Paul","absoluteDirection":"NORTHEAST","stayOn":false,"area":false,"bogusName":false,"lon":-71.0928554,"lat":48.4076662,"elevation":[]}]},{"startTime":1522668360000,"endTime":1522668667000,"departureDelay":0,"arrivalDelay":0,"realTime":false,"distance":1867.1472154293017,"pathway":false,"mode":"BUS","route":"11","agencyName":"Société de Transport du Saguenay","agencyUrl":"http://ville.saguenay.ca/fr/services-aux-citoyens/transport-sts","agencyTimeZoneOffset":-14400000,"routeColor":"FF0000","routeType":3,"routeId":"1:11","routeTextColor":"FFFFFF","interlineWithPreviousLeg":false,"tripBlockId":"36","headsign":"Boul.Royaume/St-Pierre","agencyId":"0","tripId":"1:218278","serviceDate":"20180402","from":{"name":"boul. St-Paul / Descartes","stopId":"1:467","stopCode":"467","lon":-71.092615,"lat":48.408095,"arrival":1522668359000,"departure":1522668360000,"zoneId":"NA","stopIndex":14,"stopSequence":15,"vertexType":"TRANSIT"},"to":{"name":"St-Paul / Cossette","stopId":"1:122","stopCode":"122","lon":-71.103306,"lat":48.398662,"arrival":1522668667000,"departure":1522668668000,"zoneId":"NA","stopIndex":19,"stopSequence":20,"vertexType":"TRANSIT"},"legGeometry":{"points":"eumfHdg|pLX`@V`@eCtHpFjH{FhPcB|Ft@|CEAdCnEdHKrBz@lGiQ|CyI~IrJtAzAmKrWsE`LzJjL|P}d@Ri@hCpEpBdC","length":23},"routeShortName":"11","routeLongName":"Chic/Faubourg via St-Paul","rentedBike":false,"transitLeg":true,"duration":307.0,"steps":[]},{"startTime":1522668668000,"endTime":1522668727000,"departureDelay":0,"arrivalDelay":0,"realTime":false,"distance":69.932,"pathway":false,"mode":"WALK","route":"","agencyTimeZoneOffset":-14400000,"interlineWithPreviousLeg":false,"from":{"name":"St-Paul / Cossette","stopId":"1:122","stopCode":"122","lon":-71.103306,"lat":48.398662,"arrival":1522668667000,"departure":1522668668000,"zoneId":"NA","stopIndex":19,"stopSequence":20,"vertexType":"TRANSIT"},"to":{"name":"Destination","lon":-71.104147,"lat":48.398288,"arrival":1522668727000,"orig":"","vertexType":"NORMAL"},"legGeometry":{"points":"{ykfHjk~pLJ_@HJfAlA","length":4},"rentedBike":false,"transitLeg":false,"duration":59.0,"steps":[{"distance":13.735,"relativeDirection":"DEPART","streetName":"Rue Cossette","absoluteDirection":"SOUTHEAST","stayOn":false,"area":false,"bogusName":false,"lon":-71.10341204586585,"lat":48.398545146160764,"elevation":[]},{"distance":56.197,"relativeDirection":"RIGHT","streetName":"Boulevard Saint-Paul","absoluteDirection":"SOUTHWEST","stayOn":false,"area":false,"bogusName":false,"lon":-71.1032527,"lat":48.3984814,"elevation":[]}]}],"tooSloped":false}]},"debugOutput":{"precalculationTime":15,"pathCalculationTime":15,"pathTimes":[9,5,1],"renderingTime":0,"totalTime":30,"timedOut":false},"elevationMetadata":{"ellipsoidToGeoidDifference":-28.885904201182168,"geoidElevation":false}}