{"requestParameters":{"date":"2018/04/02","walkSpeed":"1.33","walkReluctance":"2.0","fromPlace":"48.399735,-71.102625","maxWalkDistance":"3000","waitReluctance":"1.0","carSpeed":"33","numItineraries":"3","waitAtBeginningFactor":"0.4","mode":"TRANSIT,WALK","ignoreRealtimeUpdates":"false","stairsReluctance":"2.0","toPlace":"48.402979,-71.094545","time":"16:30:00"},"plan":{"date":1522701000000,"from":{"name":"Origin","lon":-71.102625,"lat":48.399735,"orig":"","vertexType":"NORMAL"},"to":{"name":"Destination","lon":-71.094545,"lat":48.402979,"orig":"","vertexType":"NORMAL"},"itineraries":[{"duration":658,"startTime":1522701000000,"endTime":1522701658000,"walkTime":658,"transitTime":0,"waitingTime":0,"walkDistance":843.5609248097737,"walkLimitExceeded":false,"elevationLost":0.0,"elevationGained":0.0,"transfers":0,"legs":[{"startTime":1522701000000,"endTime":1522701658000,"departureDelay":0,"arrivalDelay":0,"realTime":false,"distance":843.4910000000001,"pathway":false,"mode":"WALK","route":"","agencyTimeZoneOffset":-14400000,"interlineWithPreviousLeg":false,"from":{"name":"Origin","lon":-71.102625,"lat":48.399735,"departure":1522701000000,"orig":"","vertexType":"NORMAL"},"to":{"name":"Destination","lon":-71.094545,"lat":48.402979,"arrival":1522701658000,"orig":"","vertexType":"NORMAL"},"legGeometry":{"points":"w_lfHhc~pLs@w@CEQSOQe@i@GGyAeBwAcBiAoAg@m@MOwAaBIKg@k@_AeA{@eAg@i@cAkAqA_BrCsHFQx@uBa@_@","length":24},"rentedBike":false,"transitLeg":false,"duration":658.0,"steps":[{"distance":619.1510000000001,"relativeDirection":"DEPART","streetName":"Boulevard Saint-Paul","absoluteDirection":"NORTHEAST","stayOn":false,"area":false,"bogusName":false,"lon":-71.10212365174873,"lat":48.39948855866256,"elevation":[]},{"distance":202.22,"relativeDirection":"RIGHT","streetName":"Boulevard Barrette","absoluteDirection":"SOUTHEAST","stayOn":false,"area":false,"bogusName":false,"lon":-71.0971116,"lat":48.4039529,"elevation":[]},{"distance":22.12,"relativeDirection":"LEFT","streetName":"Rue Voltaire","absoluteDirection":"NORTHEAST","stayOn":false,"area":false,"bogusName":false,"lon":-71.0948911,"lat":48.4028879,"elevation":[]}]}],"tooSloped":false},{"duration":403,"startTime":1522702535000,"endTime":1522702938000,"walkTime":279,"transitTime":122,"waitingTime":2,"walkDistance":359.63933834472437,"walkLimitExceeded":false,"elevationLost":0.0,"elevationGained":0.0,"transfers":0,"legs":[{"startTime":1522702535000,"endTime":1522702562000,"departureDelay":0,"arrivalDelay":0,"realTime":false,"distance":34.922,"pathway":false,"mode":"WALK","route":"","agencyTimeZoneOffset":-14400000,"interlineWithPreviousLeg":false,"from":{"name":"Origin","lon":-71.102625,"lat":48.399735,"departure":1522702535000,"orig":"","vertexType":"NORMAL"},"to":{"name":"boul. St-Paul / Actionnaires","stopId":"1:270","stopCode":"270","lon":-71.10171,"lat":48.399676,"arrival":1522702562000,"departure":1522702563000,"zoneId":"NA","stopIndex":10,"stopSequence":11,"vertexType":"TRANSIT"},"legGeometry":{"points":"w_lfHhc~pLs@w@","length":2},"rentedBike":false,"transitLeg":false,"duration":27.0,"steps":[{"distance":34.922,"relativeDirection":"DEPART","streetName":"Boulevard Saint-Paul","absoluteDirection":"NORTHEAST","stayOn":false,"area":false,"bogusName":false,"lon":-71.10212365174873,"lat":48.39948855866256,"elevation":[]}]},{"startTime":1522702563000,"endTime":1522702685000,"departureDelay":0,"arrivalDelay":0,"realTime":false,"distance":613.285066928936,"pathway":false,"mode":"BUS","route":"11","agencyName":"Société de Transport du Saguenay","agencyUrl":"http://ville.saguenay.ca/fr/services-aux-citoyens/transport-sts","agencyTimeZoneOffset":-14400000,"routeColor":"FF0000","routeType":3,"routeId":"1:11","routeTextColor":"FFFFFF","interlineWithPreviousLeg":false,"tripBlockId":"37","headsign":"Terminus Chicoutimi","agencyId":"0","tripId":"1:218323","serviceDate":"20180402","from":{"name":"boul. St-Paul / Actionnaires","stopId":"1:270","stopCode":"270","lon":-71.10171,"lat":48.399676,"arrival":1522702562000,"departure":1522702563000,"zoneId":"NA","stopIndex":10,"stopSequence":11,"vertexType":"TRANSIT"},"to":{"name":"boul. Barrette / Estacade","stopId":"1:478","stopCode":"478","lon":-71.098119,"lat":48.404568,"arrival":1522702685000,"departure":1522702686000,"zoneId":"NA","stopIndex":12,"stopSequence":13,"vertexType":"TRANSIT"},"legGeometry":{"points":"ealfHfa~pLgKsLqMgOmAbDAVSl@","length":6},"routeShortName":"11","routeLongName":"Chic/Faubourg via St-Paul","rentedBike":false,"transitLeg":true,"duration":122.0,"steps":[]},{"startTime":1522702686000,"endTime":1522702938000,"departureDelay":0,"arrivalDelay":0,"realTime":false,"distance":324.682,"pathway":false,"mode":"WALK","route":"","agencyTimeZoneOffset":-14400000,"interlineWithPreviousLeg":false,"from":{"name":"boul. Barrette / Estacade","stopId":"1:478","stopCode":"478","lon":-71.098119,"lat":48.404568,"arrival":1522702685000,"departure":1522702686000,"zoneId":"NA","stopIndex":12,"stopSequence":13,"vertexType":"TRANSIT"},"to":{"name":"Destination","lon":-71.094545,"lat":48.402979,"arrival":1522702938000,"orig":"","vertexType":"NORMAL"},"legGeometry":{"points":"__mfHzj}pLhB{ErCsHFQx@uBa@_@","length":6},"rentedBike":false,"transitLeg":false,"duration":252.0,"steps":[{"distance":302.562,"relativeDirection":"DEPART","streetName":"Boulevard Barrette","absoluteDirection":"SOUTHEAST","stayOn":false,"area":false,"bogusName":false,"lon":-71.09821286252294,"lat":48.40448187965961,"elevation":[]},{"distance":22.12,"relativeDirection":"LEFT","streetName":"Rue Voltaire","absoluteDirection":"NORTHEAST","stayOn":false,"area":false,"bogusName":false,"lon":-71.0948911,"lat":48.4028879,"elevation":[]}]}],"tooSloped":false},{"duration":403,"startTime":1522704335000,"endTime":1522704738000,"walkTime":279,"transitTime":122,"waitingTime":2,"walkDistance":359.63933834472437,"walkLimitExceeded":false,"elevationLost":0.0,"elevationGained":0.0,"transfers":0,"legs":[{"startTime":1522704335000,"endTime":1522704362000,"departureDelay":0,"arrivalDelay":0,"realTime":false,"distance":34.922,"pathway":false,"mode":"WALK","route":"","agencyTimeZoneOffset":-14400000,"interlineWithPreviousLeg":false,"from":{"name":"Origin","lon":-71.102625,"lat":48.399735,"departure":1522704335000,"orig":"","vertexType":"NORMAL"},"to":{"name":"boul. St-Paul / Actionnaires","stopId":"1:270","stopCode":"270","lon":-71.10171,"lat":48.399676,"arrival":1522704362000,"departure":1522704363000,"zoneId":"NA","stopIndex":10,"stopSequence":11,"vertexType":"TRANSIT"},"legGeometry":{"points":"w_lfHhc~pLs@w@","length":2},"rentedBike":false,"transitLeg":false,"duration":27.0,"steps":[{"distance":34.922,"relativeDirection":"DEPART","streetName":"Boulevard Saint-Paul","absoluteDirection":"NORTHEAST","stayOn":false,"area":false,"bogusName":false,"lon":-71.10212365174873,"lat":48.39948855866256,"elevation":[]}]},{"startTime":1522704363000,"endTime":1522704485000,"departureDelay":0,"arrivalDelay":0,"realTime":false,"distance":613.285066928936,"pathway":false,"mode":"BUS","route":"11","agencyName":"Société de Transport du Saguenay","agencyUrl":"http://ville.saguenay.ca/fr/services-aux-citoyens/transport-sts","agencyTimeZoneOffset":-14400000,"routeColor":"FF0000","routeType":3,"routeId":"1:11","routeTextColor":"FFFFFF","interlineWithPreviousLeg":false,"tripBlockId":"34","headsign":"Terminus Chicoutimi","agencyId":"0","tripId":"1:218228","serviceDate":"20180402","from":{"name":"boul. St-Paul / Actionnaires","stopId":"1:270","stopCode":"270","lon":-71.10171,"lat":48.399676,"arrival":1522704362000,"departure":1522704363000,"zoneId":"NA","stopIndex":10,"stopSequence":11,"vertexType":"TRANSIT"},"to":{"name":"boul. Barrette / Estacade","stopId":"1:478","stopCode":"478","lon":-71.098119,"lat":48.404568,"arrival":1522704485000,"departure":1522704486000,"zoneId":"NA","stopIndex":12,"stopSequence":13,"vertexType":"TRANSIT"},"legGeometry":{"points":"ealfHfa~pLgKsLqMgOmAbDAVSl@","length":6},"routeShortName":"11","routeLongName":"Chic/Faubourg via St-Paul","rentedBike":false,"transitLeg":true,"duration":122.0,"steps":[]},{"startTime":1522704486000,"endTime":1522704738000,"departureDelay":0,"arrivalDelay":0,"realTime":false,"distance":324.682,"pathway":false,"mode":"WALK","route":"","agencyTimeZoneOffset":-14400000,"interlineWithPreviousLeg":false,"from":{"name":"boul. Barrette / Estacade","stopId":"1:478","stopCode":"478","lon":-71.098119,"lat":48.404568,"arrival":1522704485000,"departure":1522704486000,"zoneId":"NA","stopIndex":12,"stopSequence":13,"vertexType":"TRANSIT"},"to":{"name":"Destination","lon":-71.094545,"lat":48.402979,"arrival":1522704738000,"orig":"","vertexType":"NORMAL"},"legGeometry":{"points":"__mfHzj}pLhB{ErCsHFQx@uBa@_@","length":6},"rentedBike":false,"transitLeg":false,"duration":252.0,"steps":[{"distance":302.562,"relativeDirection":"DEPART","streetName":"Boulevard Barrette","absoluteDirection":"SOUTHEAST","stayOn":false,"area":false,"bogusName":false,"lon":-71.09821286252294,"lat":48.40448187965961,"elevation":[]},{"distance":22.12,"relativeDirection":"LEFT","streetName":"Rue Voltaire","absoluteDirection":"NORTHEAST","stayOn":false,"area":false,"bogusName":false,"lon":-71.0948911,"lat":48.4028879,"elevation":[]}]}],"tooSloped":false}]},"debugOutput":{"precalculationTime":13,"pathCalculationTime":17,"pathTimes":[3,4,10],"renderingTime":0,"totalTime":30,"timedOut":false},"elevationMetadata":{"ellipsoidToGeoidDifference":-28.885904201182168,"geoidElevation":false}}