{"requestParameters":{"date":"2018/04/02","walkSpeed":"1.33","walkReluctance":"2.0","fromPlace":"48.423148,-71.052406","maxWalkDistance":"3000","waitReluctance":"1.0","carSpeed":"33","numItineraries":"3","waitAtBeginningFactor":"0.4","mode":"TRANSIT,WALK","ignoreRealtimeUpdates":"false","stairsReluctance":"2.0","toPlace":"48.405865,-71.087744","time":"18:30:00"},"plan":{"date":1522708200000,"from":{"name":"Origin","lon":-71.052406,"lat":48.423148,"orig":"","vertexType":"NORMAL"},"to":{"name":"Destination","lon":-71.087744,"lat":48.405865,"orig":"","vertexType":"NORMAL"},"itineraries":[{"duration":1576,"startTime":1522709213000,"endTime":1522710789000,"walkTime":704,"transitTime":870,"waitingTime":2,"walkDistance":887.644624053709,"walkLimitExceeded":false,"elevationLost":0.0,"elevationGained":0.0,"transfers":0,"legs":[{"startTime":1522709213000,"endTime":1522709424000,"departureDelay":0,"arrivalDelay":0,"realTime":false,"distance":256.03600000000006,"pathway":false,"mode":"WALK","route":"","agencyTimeZoneOffset":-14400000,"interlineWithPreviousLeg":false,"from":{"name":"Origin","lon":-71.052406,"lat":48.423148,"departure":1522709213000,"orig":"","vertexType":"NORMAL"},"to":{"name":"Cégep de Chicoutimi (voie réservée)","stopId":"1:75","stopCode":"75","lon":-71.055283,"lat":48.422761,"arrival":1522709424000,"departure":1522709425000,"zoneId":"NA","stopIndex":6,"stopSequence":7,"vertexType":"TRANSIT"},"legGeometry":{"points":"qspfHpltpL?n@CVWrBOpAP`AN`ANnCJAZELAFh@","length":12},"rentedBike":false,"transitLeg":false,"duration":211.0,"steps":[{"distance":239.42900000000003,"relativeDirection":"DEPART","streetName":"service road","absoluteDirection":"WEST","stayOn":false,"area":false,"bogusName":false,"lon":-71.05240568397582,"lat":48.423135724671475,"elevation":[]},{"distance":16.607,"relativeDirection":"RIGHT","streetName":"Chemin Saint Thomas","absoluteDirection":"WEST","stayOn":false,"area":false,"bogusName":false,"lon":-71.0550802,"lat":48.4228351,"elevation":[]}]},{"startTime":1522709425000,"endTime":1522710295000,"departureDelay":0,"arrivalDelay":0,"realTime":false,"distance":3694.048412873645,"pathway":false,"mode":"BUS","route":"14","agencyName":"Société de Transport du Saguenay","agencyUrl":"http://ville.saguenay.ca/fr/services-aux-citoyens/transport-sts","agencyTimeZoneOffset":-14400000,"routeColor":"C0C000","routeType":3,"routeId":"1:14","routeTextColor":"000000","interlineWithPreviousLeg":false,"tripBlockId":"30","headsign":"Talbot / Barrette","agencyId":"0","tripId":"1:218111","serviceDate":"20180402","from":{"name":"Cégep de Chicoutimi (voie réservée)","stopId":"1:75","stopCode":"75","lon":-71.055283,"lat":48.422761,"arrival":1522709424000,"departure":1522709425000,"zoneId":"NA","stopIndex":6,"stopSequence":7,"vertexType":"TRANSIT"},"to":{"name":"Ballantyne / Jolliet","stopId":"1:159","stopCode":"159","lon":-71.08039,"lat":48.406229,"arrival":1522710295000,"departure":1522710296000,"zoneId":"NA","stopIndex":19,"stopSequence":20,"vertexType":"TRANSIT"},"legGeometry":{"points":"mqpfHr~tpLc@iEAm@bAcDTcAtA{DJI|AxAvAvAQv@~@z@dA`ATq@`E~DL`@E`Ex@hDd@`B}FtFaAzAm@xAe@jCa@nDiAbm@SpKM`H]vBhDVzCTcAvCO^bEbEzK`LfBeEtK`KhAdAnCbCvBpCNR~BxAxBf@z@h@vAz@z@{DrCoITTlElEtAnB`@l@pFrD@?fDr@XgA","length":53},"routeShortName":"14","routeLongName":"Coopérative","rentedBike":false,"transitLeg":true,"duration":870.0,"steps":[]},{"startTime":1522710296000,"endTime":1522710789000,"departureDelay":0,"arrivalDelay":0,"realTime":false,"distance":631.409,"pathway":false,"mode":"WALK","route":"","agencyTimeZoneOffset":-14400000,"interlineWithPreviousLeg":false,"from":{"name":"Ballantyne / Jolliet","stopId":"1:159","stopCode":"159","lon":-71.08039,"lat":48.406229,"arrival":1522710295000,"departure":1522710296000,"zoneId":"NA","stopIndex":19,"stopSequence":20,"vertexType":"TRANSIT"},"to":{"name":"Destination","lon":-71.087744,"lat":48.405865,"arrival":1522710789000,"orig":"","vertexType":"NORMAL"},"legGeometry":{"points":"ijmfHb{ypLYdAv@t@VpA^dDNbA??v@tD`@jC@^TjE}Av@\\hBPz@_@fB}@dBKJ","length":17},"rentedBike":false,"transitLeg":false,"duration":493.0,"steps":[{"distance":29.885,"relativeDirection":"DEPART","streetName":"Rue Ballantyne","absoluteDirection":"NORTHWEST","stayOn":false,"area":false,"bogusName":false,"lon":-71.0803339734197,"lat":48.40629640444966,"elevation":[]},{"distance":377.609,"relativeDirection":"LEFT","streetName":"Rue Jolliet","absoluteDirection":"SOUTHWEST","stayOn":false,"area":false,"bogusName":false,"lon":-71.08068800000001,"lat":48.406426800000006,"elevation":[]},{"distance":56.18,"relativeDirection":"RIGHT","streetName":"Rue Victor-Guimond","absoluteDirection":"NORTH","stayOn":false,"area":false,"bogusName":false,"lon":-71.08532290000001,"lat":48.405216,"elevation":[]},{"distance":167.735,"relativeDirection":"LEFT","streetName":"Rue Molière","absoluteDirection":"SOUTHWEST","stayOn":false,"area":false,"bogusName":false,"lon":-71.0856018,"lat":48.405686100000004,"elevation":[]}]}],"tooSloped":false},{"duration":1783,"startTime":1522711011000,"endTime":1522712794000,"walkTime":1160,"transitTime":621,"waitingTime":2,"walkDistance":1478.1684285626702,"walkLimitExceeded":false,"elevationLost":0.0,"elevationGained":0.0,"transfers":0,"legs":[{"startTime":1522711011000,"endTime":1522711222000,"departureDelay":0,"arrivalDelay":0,"realTime":false,"distance":256.03600000000006,"pathway":false,"mode":"WALK","route":"","agencyTimeZoneOffset":-14400000,"interlineWithPreviousLeg":false,"from":{"name":"Origin","lon":-71.052406,"lat":48.423148,"departure":1522711011000,"orig":"","vertexType":"NORMAL"},"to":{"name":"Cégep de Chicoutimi (voie réservée)","stopId":"1:75","stopCode":"75","lon":-71.055283,"lat":48.422761,"arrival":1522711222000,"departure":1522711223000,"zoneId":"NA","stopIndex":6,"stopSequence":7,"vertexType":"TRANSIT"},"legGeometry":{"points":"qspfHpltpL?n@CVWrBOpAP`AN`ANnCJAZELAFh@","length":12},"rentedBike":false,"transitLeg":false,"duration":211.0,"steps":[{"distance":239.42900000000003,"relativeDirection":"DEPART","streetName":"service road","absoluteDirection":"WEST","stayOn":false,"area":false,"bogusName":false,"lon":-71.05240568397582,"lat":48.423135724671475,"elevation":[]},{"distance":16.607,"relativeDirection":"RIGHT","streetName":"Chemin Saint Thomas","absoluteDirection":"WEST","stayOn":false,"area":false,"bogusName":false,"lon":-71.0550802,"lat":48.4228351,"elevation":[]}]},{"startTime":1522711223000,"endTime":1522711844000,"departureDelay":0,"arrivalDelay":0,"realTime":false,"distance":2792.162811703265,"pathway":false,"mode":"BUS","route":"15","agencyName":"Société de Transport du Saguenay","agencyUrl":"http://ville.saguenay.ca/fr/services-aux-citoyens/transport-sts","agencyTimeZoneOffset":-14400000,"routeColor":"FF00FF","routeType":3,"routeId":"1:15","routeTextColor":"FFFFFF","interlineWithPreviousLeg":false,"tripBlockId":"33","headsign":"Talbot / Barrette","agencyId":"0","tripId":"1:218197","serviceDate":"20180402","from":{"name":"Cégep de Chicoutimi (voie réservée)","stopId":"1:75","stopCode":"75","lon":-71.055283,"lat":48.422761,"arrival":1522711222000,"departure":1522711223000,"zoneId":"NA","stopIndex":6,"stopSequence":7,"vertexType":"TRANSIT"},"to":{"name":"Angoulême / Bégin","stopId":"1:536","stopCode":"536","lon":-71.073862,"lat":48.405153,"arrival":1522711844000,"departure":1522711845000,"zoneId":"NA","stopIndex":18,"stopSequence":19,"vertexType":"TRANSIT"},"legGeometry":{"points":"{qpfHv~tpL_@uF|DyL|DpDQ|@|@z@bA`ATw@dD~Ch@fA@`E~AjGuH`Iy@bBi@dCbEdEjJlJ`HbHlJpJ|J~JdAfALzDNzDrAdBrEKvBEbCv@d@TvFlC|DlBpMlG","length":31},"routeShortName":"15","routeLongName":"Term. Chic / Costco","rentedBike":false,"transitLeg":true,"duration":621.0,"steps":[]},{"startTime":1522711845000,"endTime":1522712794000,"departureDelay":0,"arrivalDelay":0,"realTime":false,"distance":1221.8609999999999,"pathway":false,"mode":"WALK","route":"","agencyTimeZoneOffset":-14400000,"interlineWithPreviousLeg":false,"from":{"name":"Angoulême / Bégin","stopId":"1:536","stopCode":"536","lon":-71.073862,"lat":48.405153,"arrival":1522711844000,"departure":1522711845000,"zoneId":"NA","stopIndex":18,"stopSequence":19,"vertexType":"TRANSIT"},"to":{"name":"Destination","lon":-71.087744,"lat":48.405865,"arrival":1522712794000,"orig":"","vertexType":"NORMAL"},"legGeometry":{"points":"gcmfH|qxpLs@HFnGXdAVX~@XUpC??Gf@WbAW`AyEpQ??YdAv@t@VpA^dDNbA??v@tD`@jC@^TjE}Av@\\hBPz@_@fB}@dBKJ","length":29},"rentedBike":false,"transitLeg":false,"duration":949.0,"steps":[{"distance":29.535,"relativeDirection":"DEPART","streetName":"Rue d'Angoulème","absoluteDirection":"NORTH","stayOn":false,"area":false,"bogusName":false,"lon":-71.07374850893203,"lat":48.405161276828096,"elevation":[]},{"distance":183.368,"relativeDirection":"LEFT","streetName":"Rue Garon","absoluteDirection":"WEST","stayOn":false,"area":false,"bogusName":false,"lon":-71.0737922,"lat":48.405425300000005,"elevation":[]},{"distance":407.434,"relativeDirection":"RIGHT","streetName":"Rue Ballantyne","absoluteDirection":"WEST","stayOn":false,"area":false,"bogusName":false,"lon":-71.0757641,"lat":48.404816700000005,"elevation":[]},{"distance":377.609,"relativeDirection":"LEFT","streetName":"Rue Jolliet","absoluteDirection":"SOUTHWEST","stayOn":false,"area":false,"bogusName":false,"lon":-71.08068800000001,"lat":48.406426800000006,"elevation":[]},{"distance":56.18,"relativeDirection":"RIGHT","streetName":"Rue Victor-Guimond","absoluteDirection":"NORTH","stayOn":false,"area":false,"bogusName":false,"lon":-71.08532290000001,"lat":48.405216,"elevation":[]},{"distance":167.735,"relativeDirection":"LEFT","streetName":"Rue Molière","absoluteDirection":"SOUTHWEST","stayOn":false,"area":false,"bogusName":false,"lon":-71.0856018,"lat":48.405686100000004,"elevation":[]}]}],"tooSloped":false},{"duration":1576,"startTime":1522712813000,"endTime":1522714389000,"walkTime":704,"transitTime":870,"waitingTime":2,"walkDistance":887.644624053709,"walkLimitExceeded":false,"elevationLost":0.0,"elevationGained":0.0,"transfers":0,"legs":[{"startTime":1522712813000,"endTime":1522713024000,"departureDelay":0,"arrivalDelay":0,"realTime":false,"distance":256.03600000000006,"pathway":false,"mode":"WALK","route":"","agencyTimeZoneOffset":-14400000,"interlineWithPreviousLeg":false,"from":{"name":"Origin","lon":-71.052406,"lat":48.423148,"departure":1522712813000,"orig":"","vertexType":"NORMAL"},"to":{"name":"Cégep de Chicoutimi (voie réservée)","stopId":"1:75","stopCode":"75","lon":-71.055283,"lat":48.422761,"arrival":1522713024000,"departure":1522713025000,"zoneId":"NA","stopIndex":6,"stopSequence":7,"vertexType":"TRANSIT"},"legGeometry":{"points":"qspfHpltpL?n@CVWrBOpAP`AN`ANnCJAZELAFh@","length":12},"rentedBike":false,"transitLeg":false,"duration":211.0,"steps":[{"distance":239.42900000000003,"relativeDirection":"DEPART","streetName":"service road","absoluteDirection":"WEST","stayOn":false,"area":false,"bogusName":false,"lon":-71.05240568397582,"lat":48.423135724671475,"elevation":[]},{"distance":16.607,"relativeDirection":"RIGHT","streetName":"Chemin Saint Thomas","absoluteDirection":"WEST","stayOn":false,"area":false,"bogusName":false,"lon":-71.0550802,"lat":48.4228351,"elevation":[]}]},{"startTime":1522713025000,"endTime":1522713895000,"departureDelay":0,"arrivalDelay":0,"realTime":false,"distance":3694.048412873645,"pathway":false,"mode":"BUS","route":"14","agencyName":"Société de Transport du Saguenay","agencyUrl":"http://ville.saguenay.ca/fr/services-aux-citoyens/transport-sts","agencyTimeZoneOffset":-14400000,"routeColor":"C0C000","routeType":3,"routeId":"1:14","routeTextColor":"000000","interlineWithPreviousLeg":false,"tripBlockId":"30","headsign":"Talbot / Barrette","agencyId":"0","tripId":"1:218113","serviceDate":"20180402","from":{"name":"Cégep de Chicoutimi (voie réservée)","stopId":"1:75","stopCode":"75","lon":-71.055283,"lat":48.422761,"arrival":1522713024000,"departure":1522713025000,"zoneId":"NA","stopIndex":6,"stopSequence":7,"vertexType":"TRANSIT"},"to":{"name":"Ballantyne / Jolliet","stopId":"1:159","stopCode":"159","lon":-71.08039,"lat":48.406229,"arrival":1522713895000,"departure":1522713896000,"zoneId":"NA","stopIndex":19,"stopSequence":20,"vertexType":"TRANSIT"},"legGeometry":{"points":"mqpfHr~tpLc@iEAm@bAcDTcAtA{DJI|AxAvAvAQv@~@z@dA`ATq@`E~DL`@E`Ex@hDd@`B}FtFaAzAm@xAe@jCa@nDiAbm@SpKM`H]vBhDVzCTcAvCO^bEbEzK`LfBeEtK`KhAdAnCbCvBpCNR~BxAxBf@z@h@vAz@z@{DrCoITTlElEtAnB`@l@pFrD@?fDr@XgA","length":53},"routeShortName":"14","routeLongName":"Coopérative","rentedBike":false,"transitLeg":true,"duration":870.0,"steps":[]},{"startTime":1522713896000,"endTime":1522714389000,"departureDelay":0,"arrivalDelay":0,"realTime":false,"distance":631.409,"pathway":false,"mode":"WALK","route":"","agencyTimeZoneOffset":-14400000,"interlineWithPreviousLeg":false,"from":{"name":"Ballantyne / Jolliet","stopId":"1:159","stopCode":"159","lon":-71.08039,"lat":48.406229,"arrival":1522713895000,"departure":1522713896000,"zoneId":"NA","stopIndex":19,"stopSequence":20,"vertexType":"TRANSIT"},"to":{"name":"Destination","lon":-71.087744,"lat":48.405865,"arrival":1522714389000,"orig":"","vertexType":"NORMAL"},"legGeometry":{"points":"ijmfHb{ypLYdAv@t@VpA^dDNbA??v@tD`@jC@^TjE}Av@\\hBPz@_@fB}@dBKJ","length":17},"rentedBike":false,"transitLeg":false,"duration":493.0,"steps":[{"distance":29.885,"relativeDirection":"DEPART","streetName":"Rue Ballantyne","absoluteDirection":"NORTHWEST","stayOn":false,"area":false,"bogusName":false,"lon":-71.0803339734197,"lat":48.40629640444966,"elevation":[]},{"distance":377.609,"relativeDirection":"LEFT","streetName":"Rue Jolliet","absoluteDirection":"SOUTHWEST","stayOn":false,"area":false,"bogusName":false,"lon":-71.08068800000001,"lat":48.406426800000006,"elevation":[]},{"distance":56.18,"relativeDirection":"RIGHT","streetName":"Rue Victor-Guimond","absoluteDirection":"NORTH","stayOn":false,"area":false,"bogusName":false,"lon":-71.08532290000001,"lat":48.405216,"elevation":[]},{"distance":167.735,"relativeDirection":"LEFT","streetName":"Rue Molière","absoluteDirection":"SOUTHWEST","stayOn":false,"area":false,"bogusName":false,"lon":-71.0856018,"lat":48.405686100000004,"elevation":[]}]}],"tooSloped":false}]},"debugOutput":{"precalculationTime":32,"pathCalculationTime":52,"pathTimes":[20,15,17],"renderingTime":0,"totalTime":84,"timedOut":false},"elevationMetadata":{"ellipsoidToGeoidDifference":-28.885904201182168,"geoidElevation":false}}