{"requestParameters":{"date":"2018/04/02","walkSpeed":"1.33","walkReluctance":"2.0","fromPlace":"48.406827,-71.089646","maxWalkDistance":"3000","waitReluctance":"1.0","carSpeed":"33","numItineraries":"3","waitAtBeginningFactor":"0.4","mode":"TRANSIT,WALK","ignoreRealtimeUpdates":"false","stairsReluctance":"2.0","toPlace":"48.393879,-71.07461399","time":"10:45:00"},"plan":{"date":1522680300000,"from":{"name":"Origin","lon":-71.089646,"lat":48.406827,"orig":"","vertexType":"NORMAL"},"to":{"name":"Destination","lon":-71.07461399,"lat":48.393879,"orig":"","vertexType":"NORMAL"},"itineraries":[{"duration":1767,"startTime":1522680300000,"endTime":1522682067000,"walkTime":1767,"transitTime":0,"waitingTime":0,"walkDistance":2278.5755638992696,"walkLimitExceeded":false,"elevationLost":0.0,"elevationGained":0.0,"transfers":0,"legs":[{"startTime":1522680300000,"endTime":1522682067000,"departureDelay":0,"arrivalDelay":0,"realTime":false,"distance":2278.2499999999995,"pathway":false,"mode":"WALK","route":"","agencyTimeZoneOffset":-14400000,"interlineWithPreviousLeg":false,"from":{"name":"Origin","lon":-71.089646,"lat":48.406827,"departure":1522680300000,"orig":"","vertexType":"NORMAL"},"to":{"name":"Destination","lon":-71.07461399,"lat":48.393879,"arrival":1522682067000,"orig":"","vertexType":"NORMAL"},"legGeometry":{"points":"ylmfH|t{pLMkAg@wDMgAKoADeAn@UxAeAHUn@iBnA}A|Aw@dA\\x@XdI`FjAt@fAp@v@f@~@j@fBuH^{Ap@b@j@V\\ETq@XuAVmATcAv@l@RZRRrBcKfAkEz@}CH_@lB}HdDiM\\kAFHdAh@`AeD^kB\\WxAZd@F`@H\\\\JH","length":48},"rentedBike":false,"transitLeg":false,"duration":1767.0,"steps":[{"distance":184.72000000000003,"relativeDirection":"DEPART","streetName":"Rue Descartes","absoluteDirection":"EAST","stayOn":false,"area":false,"bogusName":false,"lon":-71.08958974815138,"lat":48.406694055767446,"elevation":[]},{"distance":692.2800000000001,"relativeDirection":"RIGHT","streetName":"Rue Victor-Guimond","absoluteDirection":"SOUTH","stayOn":false,"area":false,"bogusName":false,"lon":-71.0871764,"lat":48.4070606,"elevation":[]},{"distance":166.515,"relativeDirection":"LEFT","streetName":"Rue Yves Thériault","absoluteDirection":"SOUTHEAST","stayOn":false,"area":false,"bogusName":false,"lon":-71.08767850000001,"lat":48.4016035,"elevation":[]},{"distance":190.51,"relativeDirection":"RIGHT","streetName":"Rue Jean-Paul Sartre","absoluteDirection":"SOUTHWEST","stayOn":false,"area":false,"bogusName":false,"lon":-71.08566710000001,"lat":48.4009258,"elevation":[]},{"distance":63.553999999999995,"relativeDirection":"RIGHT","streetName":"path","absoluteDirection":"SOUTHWEST","stayOn":false,"area":false,"bogusName":true,"lon":-71.0845255,"lat":48.3998317,"elevation":[]},{"distance":680.125,"relativeDirection":"LEFT","streetName":"Boulevard Barrette","absoluteDirection":"SOUTHEAST","stayOn":false,"area":false,"bogusName":false,"lon":-71.0849987,"lat":48.399357800000004,"elevation":[]},{"distance":47.685,"relativeDirection":"RIGHT","streetName":"path","absoluteDirection":"SOUTHWEST","stayOn":false,"area":false,"bogusName":true,"lon":-71.0768299,"lat":48.396537,"elevation":[]},{"distance":252.861,"relativeDirection":"LEFT","streetName":"Rue Jacques-Ferron","absoluteDirection":"SOUTHEAST","stayOn":false,"area":false,"bogusName":false,"lon":-71.0770823,"lat":48.3961436,"elevation":[]}]}],"tooSloped":false},{"duration":1328,"startTime":1522680837000,"endTime":1522682165000,"walkTime":996,"transitTime":330,"waitingTime":2,"walkDistance":1277.7050676618462,"walkLimitExceeded":false,"elevationLost":0.0,"elevationGained":0.0,"transfers":0,"legs":[{"startTime":1522680837000,"endTime":1522681494000,"departureDelay":0,"arrivalDelay":0,"realTime":false,"distance":846.0539999999999,"pathway":false,"mode":"WALK","route":"","agencyTimeZoneOffset":-14400000,"interlineWithPreviousLeg":false,"from":{"name":"Origin","lon":-71.089646,"lat":48.406827,"departure":1522680837000,"orig":"","vertexType":"NORMAL"},"to":{"name":"Ballantyne / Jolliet","stopId":"1:159","stopCode":"159","lon":-71.08039,"lat":48.406229,"arrival":1522681494000,"departure":1522681495000,"zoneId":"NA","stopIndex":19,"stopSequence":20,"vertexType":"TRANSIT"},"legGeometry":{"points":"ylmfH|t{pLMkAg@wDMgAKoADeAn@UxAeAHUn@iBnA}A|Aw@UkEA_@a@kCw@uD??OcA_@eDWqAw@u@XeA","length":22},"rentedBike":false,"transitLeg":false,"duration":657.0,"steps":[{"distance":184.72000000000003,"relativeDirection":"DEPART","streetName":"Rue Descartes","absoluteDirection":"EAST","stayOn":false,"area":false,"bogusName":false,"lon":-71.08958974815138,"lat":48.406694055767446,"elevation":[]},{"distance":253.84,"relativeDirection":"RIGHT","streetName":"Rue Victor-Guimond","absoluteDirection":"SOUTH","stayOn":false,"area":false,"bogusName":false,"lon":-71.0871764,"lat":48.4070606,"elevation":[]},{"distance":377.609,"relativeDirection":"LEFT","streetName":"Rue Jolliet","absoluteDirection":"EAST","stayOn":false,"area":false,"bogusName":false,"lon":-71.08532290000001,"lat":48.405216,"elevation":[]},{"distance":29.885,"relativeDirection":"RIGHT","streetName":"Rue Ballantyne","absoluteDirection":"SOUTHEAST","stayOn":false,"area":false,"bogusName":false,"lon":-71.08068800000001,"lat":48.406426800000006,"elevation":[]}]},{"startTime":1522681495000,"endTime":1522681825000,"departureDelay":0,"arrivalDelay":0,"realTime":false,"distance":3870.332945928174,"pathway":false,"mode":"BUS","route":"14","agencyName":"Société de Transport du Saguenay","agencyUrl":"http://ville.saguenay.ca/fr/services-aux-citoyens/transport-sts","agencyTimeZoneOffset":-14400000,"routeColor":"C0C000","routeType":3,"routeId":"1:14","routeTextColor":"000000","interlineWithPreviousLeg":false,"tripBlockId":"30","headsign":"Talbot / Barrette","agencyId":"0","tripId":"1:218095","serviceDate":"20180402","from":{"name":"Ballantyne / Jolliet","stopId":"1:159","stopCode":"159","lon":-71.08039,"lat":48.406229,"arrival":1522681494000,"departure":1522681495000,"zoneId":"NA","stopIndex":19,"stopSequence":20,"vertexType":"TRANSIT"},"to":{"name":"boul. Barrette / Jacques-Ferron","stopId":"1:271","stopCode":"271","lon":-71.07524,"lat":48.395917,"arrival":1522681825000,"departure":1522681826000,"zoneId":"NA","stopIndex":33,"stopSequence":34,"vertexType":"TRANSIT"},"legGeometry":{"points":"kjmfH`{ypLjFuR\\yADm@b@gFd@_B`A}@tEvJBDvC`FtJ|LLNlClC|@^hCYVExCjCb@d@vE`F`BhB?pHaBhRqAbLK~@qBxFqB|FcC~GyC\\aDkDcFsF~CgOtGm[j@oCvEoSl@_CxCmLjAeFpCeK","length":38},"routeShortName":"14","routeLongName":"Coopérative","rentedBike":false,"transitLeg":true,"duration":330.0,"steps":[]},{"startTime":1522681826000,"endTime":1522682165000,"departureDelay":0,"arrivalDelay":0,"realTime":false,"distance":431.42400000000004,"pathway":false,"mode":"WALK","route":"","agencyTimeZoneOffset":-14400000,"interlineWithPreviousLeg":false,"from":{"name":"boul. Barrette / Jacques-Ferron","stopId":"1:271","stopCode":"271","lon":-71.07524,"lat":48.395917,"arrival":1522681825000,"departure":1522681826000,"zoneId":"NA","stopIndex":33,"stopSequence":34,"vertexType":"TRANSIT"},"to":{"name":"Destination","lon":-71.07461399,"lat":48.393879,"arrival":1522682165000,"orig":"","vertexType":"NORMAL"},"legGeometry":{"points":"kikfHh{xpLmAxEg@jBdAh@`AeD^kB\\WxAZd@F`@H\\\\JH","length":12},"rentedBike":false,"transitLeg":false,"duration":339.0,"steps":[{"distance":136.7,"relativeDirection":"DEPART","streetName":"bike path","absoluteDirection":"NORTHWEST","stayOn":false,"area":false,"bogusName":true,"lon":-71.07524885323046,"lat":48.39590612634041,"elevation":[]},{"distance":41.863,"relativeDirection":"LEFT","streetName":"path","absoluteDirection":"SOUTH","stayOn":true,"area":false,"bogusName":true,"lon":-71.0768749,"lat":48.396494000000004,"elevation":[]},{"distance":252.861,"relativeDirection":"LEFT","streetName":"Rue Jacques-Ferron","absoluteDirection":"SOUTHEAST","stayOn":false,"area":false,"bogusName":false,"lon":-71.0770823,"lat":48.3961436,"elevation":[]}]}],"tooSloped":false},{"duration":1333,"startTime":1522681279000,"endTime":1522682612000,"walkTime":1251,"transitTime":80,"waitingTime":2,"walkDistance":1624.209278190285,"walkLimitExceeded":false,"elevationLost":0.0,"elevationGained":0.0,"transfers":0,"legs":[{"startTime":1522681279000,"endTime":1522682065000,"departureDelay":0,"arrivalDelay":0,"realTime":false,"distance":1023.274,"pathway":false,"mode":"WALK","route":"","agencyTimeZoneOffset":-14400000,"interlineWithPreviousLeg":false,"from":{"name":"Origin","lon":-71.089646,"lat":48.406827,"departure":1522681279000,"orig":"","vertexType":"NORMAL"},"to":{"name":"Malraux / Pagnol","stopId":"1:441","stopCode":"441","lon":-71.09356,"lat":48.400447,"arrival":1522682065000,"departure":1522682066000,"zoneId":"NA","stopIndex":6,"stopSequence":7,"vertexType":"TRANSIT"},"legGeometry":{"points":"ylmfH|t{pLMkA~Ai@x@a@B|A`@dB?tA[tAhA|Ar@`@`@b@`@Xx@aC~DQrF|F|@sBBEpBzBjFzFDD","length":20},"rentedBike":false,"transitLeg":false,"duration":786.0,"steps":[{"distance":29.254,"relativeDirection":"DEPART","streetName":"Rue Descartes","absoluteDirection":"EAST","stayOn":false,"area":false,"bogusName":false,"lon":-71.08958974815138,"lat":48.406694055767446,"elevation":[]},{"distance":89.92,"relativeDirection":"RIGHT","streetName":"Rue Grimm","absoluteDirection":"SOUTH","stayOn":false,"area":false,"bogusName":false,"lon":-71.0892082,"lat":48.4067652,"elevation":[]},{"distance":273.579,"relativeDirection":"RIGHT","streetName":"Rue Hémingway","absoluteDirection":"WEST","stayOn":false,"area":false,"bogusName":false,"lon":-71.088829,"lat":48.4059972,"elevation":[]},{"distance":329.208,"relativeDirection":"LEFT","streetName":"Rue Baudelaire","absoluteDirection":"SOUTHEAST","stayOn":false,"area":false,"bogusName":false,"lon":-71.09161300000001,"lat":48.4049708,"elevation":[]},{"distance":57.717000000000006,"relativeDirection":"LEFT","streetName":"Rue Verlaine","absoluteDirection":"SOUTHEAST","stayOn":false,"area":false,"bogusName":false,"lon":-71.09214060000001,"lat":48.4025035,"elevation":[]},{"distance":243.59599999999998,"relativeDirection":"RIGHT","streetName":"Rue Malraux","absoluteDirection":"SOUTHWEST","stayOn":false,"area":false,"bogusName":false,"lon":-71.0915317,"lat":48.402177900000005,"elevation":[]}]},{"startTime":1522682066000,"endTime":1522682146000,"departureDelay":0,"arrivalDelay":0,"realTime":false,"distance":1043.4975053867192,"pathway":false,"mode":"BUS","route":"14","agencyName":"Société de Transport du Saguenay","agencyUrl":"http://ville.saguenay.ca/fr/services-aux-citoyens/transport-sts","agencyTimeZoneOffset":-14400000,"routeColor":"C0C000","routeType":3,"routeId":"1:14","routeTextColor":"000000","interlineWithPreviousLeg":false,"tripBlockId":"31","headsign":"Terminus Chicoutimi","agencyId":"0","tripId":"1:218131","serviceDate":"20180402","from":{"name":"Malraux / Pagnol","stopId":"1:441","stopCode":"441","lon":-71.09356,"lat":48.400447,"arrival":1522682065000,"departure":1522682066000,"zoneId":"NA","stopIndex":6,"stopSequence":7,"vertexType":"TRANSIT"},"to":{"name":"Malraux / Mauriac","stopId":"1:446","stopCode":"446","lon":-71.08268,"lat":48.396442,"arrival":1522682146000,"departure":1522682147000,"zoneId":"NA","stopIndex":10,"stopSequence":11,"vertexType":"TRANSIT"},"legGeometry":{"points":"melfHbm|pLhCtCdDY|F_On@aB`B_GNoBvAyT|@sNuAyA","length":10},"routeShortName":"14","routeLongName":"Coopérative","rentedBike":false,"transitLeg":true,"duration":80.0,"steps":[]},{"startTime":1522682147000,"endTime":1522682612000,"departureDelay":0,"arrivalDelay":0,"realTime":false,"distance":600.774,"pathway":false,"mode":"WALK","route":"","agencyTimeZoneOffset":-14400000,"interlineWithPreviousLeg":false,"from":{"name":"Malraux / Mauriac","stopId":"1:446","stopCode":"446","lon":-71.08268,"lat":48.396442,"arrival":1522682146000,"departure":1522682147000,"zoneId":"NA","stopIndex":10,"stopSequence":11,"vertexType":"TRANSIT"},"to":{"name":"Destination","lon":-71.07461399,"lat":48.393879,"arrival":1522682612000,"orig":"","vertexType":"NORMAL"},"legGeometry":{"points":"ylkfH|izpLGIdAiDpEeL`AkCvAoEr@oHsAqA","length":8},"rentedBike":false,"transitLeg":false,"duration":465.0,"steps":[{"distance":6.133,"relativeDirection":"DEPART","streetName":"Rue Malraux","absoluteDirection":"NORTHEAST","stayOn":false,"area":false,"bogusName":false,"lon":-71.08270626503317,"lat":48.3964565289992,"elevation":[]},{"distance":538.785,"relativeDirection":"RIGHT","streetName":"Rue Mauriac","absoluteDirection":"SOUTHEAST","stayOn":false,"area":false,"bogusName":false,"lon":-71.0826531,"lat":48.396498900000005,"elevation":[]},{"distance":55.856,"relativeDirection":"LEFT","streetName":"Rue Jacques-Ferron","absoluteDirection":"NORTHEAST","stayOn":false,"area":false,"bogusName":false,"lon":-71.0764389,"lat":48.3940654,"elevation":[]}]}],"tooSloped":false}]},"debugOutput":{"precalculationTime":26,"pathCalculationTime":28,"pathTimes":[17,6,5],"renderingTime":0,"totalTime":54,"timedOut":false},"elevationMetadata":{"ellipsoidToGeoidDifference":-28.885904201182168,"geoidElevation":false}}