{"requestParameters":{"date":"2018/04/02","walkSpeed":"1.33","walkReluctance":"2.0","fromPlace":"48.426313,-71.06846899","maxWalkDistance":"3000","waitReluctance":"1.0","carSpeed":"33","numItineraries":"3","waitAtBeginningFactor":"0.4","mode":"TRANSIT,WALK","ignoreRealtimeUpdates":"false","stairsReluctance":"2.0","toPlace":"48.401894,-71.090426","time":"15:15:00"},"plan":{"date":1522696500000,"from":{"name":"Origin","lon":-71.06846899,"lat":48.426313,"orig":"","vertexType":"NORMAL"},"to":{"name":"Destination","lon":-71.090426,"lat":48.401894,"orig":"","vertexType":"NORMAL"},"itineraries":[{"duration":1498,"startTime":1522696603000,"endTime":1522698101000,"walkTime":815,"transitTime":681,"waitingTime":2,"walkDistance":1032.7152030016719,"walkLimitExceeded":false,"elevationLost":0.0,"elevationGained":0.0,"transfers":0,"legs":[{"startTime":1522696603000,"endTime":1522697263000,"departureDelay":0,"arrivalDelay":0,"realTime":false,"distance":840.4230000000001,"pathway":false,"mode":"WALK","route":"","agencyTimeZoneOffset":-14400000,"interlineWithPreviousLeg":false,"from":{"name":"Origin","lon":-71.06846899,"lat":48.426313,"departure":1522696603000,"orig":"","vertexType":"NORMAL"},"to":{"name":"Audet / Saint-Charles","stopId":"1:521","stopCode":"521","lon":-71.072343,"lat":48.420999,"arrival":1522697263000,"departure":1522697264000,"zoneId":"NA","stopIndex":9,"stopSequence":10,"vertexType":"TRANSIT"},"legGeometry":{"points":"ogqfH|qwpLt@F`CNB?tAJB?ZBjCNXBR@f@Dl@DzBNd@BxAFt@Dr@DR@P@A`@QpJKjBO~@f@BD?jADAb@","length":27},"rentedBike":false,"transitLeg":false,"duration":660.0,"steps":[{"distance":542.6990000000001,"relativeDirection":"DEPART","streetName":"Rue Sainte-Anne","absoluteDirection":"SOUTH","stayOn":false,"area":false,"bogusName":false,"lon":-71.06862635038415,"lat":48.42632264540047,"elevation":[]},{"distance":215.451,"relativeDirection":"RIGHT","streetName":"Boulevard de l'Université","absoluteDirection":"WEST","stayOn":false,"area":false,"bogusName":false,"lon":-71.06921580000001,"lat":48.421458,"elevation":[]},{"distance":68.384,"relativeDirection":"LEFT","streetName":"Rue Audet","absoluteDirection":"SOUTH","stayOn":false,"area":false,"bogusName":false,"lon":-71.07209830000001,"lat":48.421699100000005,"elevation":[]},{"distance":13.889,"relativeDirection":"RIGHT","streetName":"Rue Saint-Charles","absoluteDirection":"WEST","stayOn":false,"area":false,"bogusName":false,"lon":-71.0721424,"lat":48.4210848,"elevation":[]}]},{"startTime":1522697264000,"endTime":1522697945000,"departureDelay":0,"arrivalDelay":0,"realTime":false,"distance":4617.870673205859,"pathway":false,"mode":"BUS","route":"14","agencyName":"Société de Transport du Saguenay","agencyUrl":"http://ville.saguenay.ca/fr/services-aux-citoyens/transport-sts","agencyTimeZoneOffset":-14400000,"routeColor":"C0C000","routeType":3,"routeId":"1:14","routeTextColor":"000000","interlineWithPreviousLeg":false,"tripBlockId":"32","headsign":"Talbot / Barrette","agencyId":"0","tripId":"1:218164","serviceDate":"20180402","from":{"name":"Audet / Saint-Charles","stopId":"1:521","stopCode":"521","lon":-71.072343,"lat":48.420999,"arrival":1522697263000,"departure":1522697264000,"zoneId":"NA","stopIndex":9,"stopSequence":10,"vertexType":"TRANSIT"},"to":{"name":"boul. Barrette / passerelle rue Balzac","stopId":"1:44","stopCode":"44","lon":-71.089717,"lat":48.400646,"arrival":1522697945000,"departure":1522697946000,"zoneId":"NA","stopIndex":30,"stopSequence":31,"vertexType":"TRANSIT"},"legGeometry":{"points":"cfpfHbhxpLzCTcAvCO^bEbEzK`LfBeEtK`KhAdAnCbCvBpCNR~BxAxBf@z@h@vAz@z@{DrCoITTlElEtAnB`@l@pFrD@?fDr@XgAjFuR\\yADm@b@gFd@_B`A}@tEvJBDvC`FtJ|LLNlClC|@^hCYVExCjCb@d@vE`F`BhB?pHaBhRqAbLK~@qBxFqB|FcC~GyC\\aDkDcFsF~CgO","length":56},"routeShortName":"14","routeLongName":"Coopérative","rentedBike":false,"transitLeg":true,"duration":681.0,"steps":[]},{"startTime":1522697946000,"endTime":1522698101000,"departureDelay":0,"arrivalDelay":0,"realTime":false,"distance":192.111,"pathway":false,"mode":"WALK","route":"","agencyTimeZoneOffset":-14400000,"interlineWithPreviousLeg":false,"from":{"name":"boul. Barrette / passerelle rue Balzac","stopId":"1:44","stopCode":"44","lon":-71.089717,"lat":48.400646,"arrival":1522697945000,"departure":1522697946000,"zoneId":"NA","stopIndex":30,"stopSequence":31,"vertexType":"TRANSIT"},"to":{"name":"Destination","lon":-71.090426,"lat":48.401894,"arrival":1522698101000,"orig":"","vertexType":"NORMAL"},"legGeometry":{"points":"cglfHtu{pLBKSMSOCAmAm@o@zCq@lB","length":8},"rentedBike":false,"transitLeg":false,"duration":155.0,"steps":[{"distance":5.074,"relativeDirection":"DEPART","streetName":"bike path","absoluteDirection":"SOUTHEAST","stayOn":false,"area":false,"bogusName":true,"lon":-71.08970662899452,"lat":48.400660438764696,"elevation":[]},{"distance":74.275,"relativeDirection":"LEFT","streetName":"path","absoluteDirection":"NORTHEAST","stayOn":true,"area":false,"bogusName":true,"lon":-71.0896446,"lat":48.400640800000005,"elevation":[]},{"distance":112.762,"relativeDirection":"LEFT","streetName":"Rue Verlaine","absoluteDirection":"NORTHWEST","stayOn":false,"area":false,"bogusName":false,"lon":-71.08925380000001,"lat":48.4012559,"elevation":[]}]}],"tooSloped":false},{"duration":1424,"startTime":1522698264000,"endTime":1522699688000,"walkTime":695,"transitTime":727,"waitingTime":2,"walkDistance":898.362330824411,"walkLimitExceeded":false,"elevationLost":0.0,"elevationGained":0.0,"transfers":0,"legs":[{"startTime":1522698264000,"endTime":1522698355000,"departureDelay":0,"arrivalDelay":0,"realTime":false,"distance":116.672,"pathway":false,"mode":"WALK","route":"","agencyTimeZoneOffset":-14400000,"interlineWithPreviousLeg":false,"from":{"name":"Origin","lon":-71.06846899,"lat":48.426313,"departure":1522698264000,"orig":"","vertexType":"NORMAL"},"to":{"name":"Sainte-Anne / Jacques-Cartier","stopId":"1:413","stopCode":"413","lon":-71.068639,"lat":48.427373,"arrival":1522698355000,"departure":1522698356000,"zoneId":"NA","stopIndex":1,"stopSequence":2,"vertexType":"TRANSIT"},"legGeometry":{"points":"ogqfH|qwpLE?iAISAq@Cy@C","length":6},"rentedBike":false,"transitLeg":false,"duration":91.0,"steps":[{"distance":116.672,"relativeDirection":"DEPART","streetName":"Rue Sainte-Anne","absoluteDirection":"NORTH","stayOn":false,"area":false,"bogusName":false,"lon":-71.06862635038415,"lat":48.42632264540047,"elevation":[]}]},{"startTime":1522698356000,"endTime":1522699083000,"departureDelay":0,"arrivalDelay":0,"realTime":false,"distance":3601.9933998844267,"pathway":false,"mode":"BUS","route":"11","agencyName":"Société de Transport du Saguenay","agencyUrl":"http://ville.saguenay.ca/fr/services-aux-citoyens/transport-sts","agencyTimeZoneOffset":-14400000,"routeColor":"FF0000","routeType":3,"routeId":"1:11","routeTextColor":"FFFFFF","interlineWithPreviousLeg":false,"tripBlockId":"35","headsign":"Boul.Royaume/St-Pierre","agencyId":"0","tripId":"1:218260","serviceDate":"20180402","from":{"name":"Sainte-Anne / Jacques-Cartier","stopId":"1:413","stopCode":"413","lon":-71.068639,"lat":48.427373,"arrival":1522698355000,"departure":1522698356000,"zoneId":"NA","stopIndex":1,"stopSequence":2,"vertexType":"TRANSIT"},"to":{"name":"boul. Barrette / Estacade","stopId":"1:465","stopCode":"465","lon":-71.098983,"lat":48.40478,"arrival":1522699083000,"departure":1522699084000,"zoneId":"NA","stopIndex":15,"stopSequence":16,"vertexType":"TRANSIT"},"legGeometry":{"points":"_nqfHnqwpLdKp@GnDIfDOtEE~@Ff@x@rEF~@CbAALO~ADRNJXBr@DfGRPBPJLN@@FPFTBX?TE`BhBR@?J@NELKFOlAiDL[bA`AfIjIbGdGzDzD`A~An@`ApApBpClEvJrOR\\bAfBLa@t@]LjAVvAVbAVv@^bAXj@b@t@xEtGh@r@n@x@FDjA|AlBpCnJ|NNTX`@V`@eCtHpFjH{FhPcB|Ft@|CEAdCnEdHKrBz@lGiQ","length":74},"routeShortName":"11","routeLongName":"Chic/Faubourg via St-Paul","rentedBike":false,"transitLeg":true,"duration":727.0,"steps":[]},{"startTime":1522699084000,"endTime":1522699688000,"departureDelay":0,"arrivalDelay":0,"realTime":false,"distance":781.608,"pathway":false,"mode":"WALK","route":"","agencyTimeZoneOffset":-14400000,"interlineWithPreviousLeg":false,"from":{"name":"boul. Barrette / Estacade","stopId":"1:465","stopCode":"465","lon":-71.098983,"lat":48.40478,"arrival":1522699083000,"departure":1522699084000,"zoneId":"NA","stopIndex":15,"stopSequence":16,"vertexType":"TRANSIT"},"to":{"name":"Destination","lon":-71.090426,"lat":48.401894,"arrival":1522699688000,"orig":"","vertexType":"NORMAL"},"legGeometry":{"points":"u`mfHzo}pLL]f@cBjBuEAc@rCsHFQx@uBzEwM@?`@kAqB{B`AqCRk@","length":14},"rentedBike":false,"transitLeg":false,"duration":604.0,"steps":[{"distance":168.596,"relativeDirection":"DEPART","streetName":"bike path","absoluteDirection":"SOUTHEAST","stayOn":false,"area":false,"bogusName":true,"lon":-71.09901282754062,"lat":48.40475012061133,"elevation":[]},{"distance":449.30899999999997,"relativeDirection":"SLIGHTLY_RIGHT","streetName":"Boulevard Barrette","absoluteDirection":"SOUTHEAST","stayOn":false,"area":false,"bogusName":false,"lon":-71.0971116,"lat":48.4039529,"elevation":[]},{"distance":78.789,"relativeDirection":"LEFT","streetName":"Rue Malraux","absoluteDirection":"NORTHEAST","stayOn":false,"area":false,"bogusName":false,"lon":-71.0921587,"lat":48.401604500000005,"elevation":[]},{"distance":84.914,"relativeDirection":"RIGHT","streetName":"Rue Verlaine","absoluteDirection":"SOUTHEAST","stayOn":false,"area":false,"bogusName":false,"lon":-71.0915317,"lat":48.402177900000005,"elevation":[]}]}],"tooSloped":false},{"duration":1786,"startTime":1522698115000,"endTime":1522699901000,"walkTime":411,"transitTime":1373,"waitingTime":2,"walkDistance":518.6717593951482,"walkLimitExceeded":false,"elevationLost":0.0,"elevationGained":0.0,"transfers":0,"legs":[{"startTime":1522698115000,"endTime":1522698371000,"departureDelay":0,"arrivalDelay":0,"realTime":false,"distance":326.45700000000005,"pathway":false,"mode":"WALK","route":"","agencyTimeZoneOffset":-14400000,"interlineWithPreviousLeg":false,"from":{"name":"Origin","lon":-71.06846899,"lat":48.426313,"departure":1522698115000,"orig":"","vertexType":"NORMAL"},"to":{"name":"Jacques-Cartier / Morin","stopId":"1:70","stopCode":"70","lon":-71.064766,"lat":48.426469,"arrival":1522698371000,"departure":1522698372000,"zoneId":"NA","stopIndex":1,"stopSequence":2,"vertexType":"TRANSIT"},"legGeometry":{"points":"ogqfH|qwpLE?iAIB_BDoBBwABaAJeEDwC@s@","length":10},"rentedBike":false,"transitLeg":false,"duration":256.0,"steps":[{"distance":44.483000000000004,"relativeDirection":"DEPART","streetName":"Rue Sainte-Anne","absoluteDirection":"NORTH","stayOn":false,"area":false,"bogusName":false,"lon":-71.06862635038415,"lat":48.42632264540047,"elevation":[]},{"distance":281.97400000000005,"relativeDirection":"RIGHT","streetName":"Rue Jacques-Cartier Est","absoluteDirection":"EAST","stayOn":false,"area":false,"bogusName":false,"lon":-71.0685709,"lat":48.426721,"elevation":[]}]},{"startTime":1522698372000,"endTime":1522699745000,"departureDelay":0,"arrivalDelay":0,"realTime":false,"distance":7481.494525350926,"pathway":false,"mode":"BUS","route":"14","agencyName":"Société de Transport du Saguenay","agencyUrl":"http://ville.saguenay.ca/fr/services-aux-citoyens/transport-sts","agencyTimeZoneOffset":-14400000,"routeColor":"C0C000","routeType":3,"routeId":"1:14","routeTextColor":"000000","interlineWithPreviousLeg":false,"tripBlockId":"30","headsign":"Talbot / Barrette","agencyId":"0","tripId":"1:218105","serviceDate":"20180402","from":{"name":"Jacques-Cartier / Morin","stopId":"1:70","stopCode":"70","lon":-71.064766,"lat":48.426469,"arrival":1522698371000,"departure":1522698372000,"zoneId":"NA","stopIndex":1,"stopSequence":2,"vertexType":"TRANSIT"},"to":{"name":"boul. Barrette / passerelle rue Balzac","stopId":"1:44","stopCode":"44","lon":-71.089717,"lat":48.400646,"arrival":1522699745000,"departure":1522699746000,"zoneId":"NA","stopIndex":30,"stopSequence":31,"vertexType":"TRANSIT"},"legGeometry":{"points":"qhqfHxyvpLTmSHwFB{I@m@@eBH_AF}A@w@Dq@@i@B}B@Y@e@D]F_@@SHQCKnBnBvIrIn@n@\\iATg@v@_ATg@LmABg@Is@c@iEAm@bAcDTcAtA{DJI|AxAvAvAQv@~@z@dA`ATq@`E~DL`@E`Ex@hDd@`B}FtFaAzAm@xAe@jCa@nDiAbm@SpKM`H]vBhDVzCTcAvCO^bEbEzK`LfBeEtK`KhAdAnCbCvBpCNR~BxAxBf@z@h@vAz@z@{DrCoITTlElEtAnB`@l@pFrD@?fDr@XgAjFuR\\yADm@b@gFd@_B`A}@tEvJBDvC`FtJ|LLNlClC|@^hCYVExCjCb@d@vE`F`BhB?pHaBhRqAbLK~@qBxFqB|FcC~GyC\\aDkDcFsF~CgO","length":111},"routeShortName":"14","routeLongName":"Coopérative","rentedBike":false,"transitLeg":true,"duration":1373.0,"steps":[]},{"startTime":1522699746000,"endTime":1522699901000,"departureDelay":0,"arrivalDelay":0,"realTime":false,"distance":192.111,"pathway":false,"mode":"WALK","route":"","agencyTimeZoneOffset":-14400000,"interlineWithPreviousLeg":false,"from":{"name":"boul. Barrette / passerelle rue Balzac","stopId":"1:44","stopCode":"44","lon":-71.089717,"lat":48.400646,"arrival":1522699745000,"departure":1522699746000,"zoneId":"NA","stopIndex":30,"stopSequence":31,"vertexType":"TRANSIT"},"to":{"name":"Destination","lon":-71.090426,"lat":48.401894,"arrival":1522699901000,"orig":"","vertexType":"NORMAL"},"legGeometry":{"points":"cglfHtu{pLBKSMSOCAmAm@o@zCq@lB","length":8},"rentedBike":false,"transitLeg":false,"duration":155.0,"steps":[{"distance":5.074,"relativeDirection":"DEPART","streetName":"bike path","absoluteDirection":"SOUTHEAST","stayOn":false,"area":false,"bogusName":true,"lon":-71.08970662899452,"lat":48.400660438764696,"elevation":[]},{"distance":74.275,"relativeDirection":"LEFT","streetName":"path","absoluteDirection":"NORTHEAST","stayOn":true,"area":false,"bogusName":true,"lon":-71.0896446,"lat":48.400640800000005,"elevation":[]},{"distance":112.762,"relativeDirection":"LEFT","streetName":"Rue Verlaine","absoluteDirection":"NORTHWEST","stayOn":false,"area":false,"bogusName":false,"lon":-71.08925380000001,"lat":48.4012559,"elevation":[]}]}],"tooSloped":false}]},"debugOutput":{"precalculationTime":32,"pathCalculationTime":39,"pathTimes":[19,10,10],"renderingTime":1,"totalTime":72,"timedOut":false},"elevationMetadata":{"ellipsoidToGeoidDifference":-28.885904201182168,"geoidElevation":false}}