{"requestParameters":{"date":"2018/04/02","walkSpeed":"1.33","walkReluctance":"2.0","fromPlace":"48.416393,-71.08319","maxWalkDistance":"3000","waitReluctance":"1.0","carSpeed":"33","numItineraries":"3","waitAtBeginningFactor":"0.4","mode":"TRANSIT,WALK","ignoreRealtimeUpdates":"false","stairsReluctance":"2.0","toPlace":"48.408178,-71.09321599","time":"6:30:00"},"plan":{"date":1522665000000,"from":{"name":"Origin","lon":-71.08319,"lat":48.416393,"orig":"","vertexType":"NORMAL"},"to":{"name":"Destination","lon":-71.09321599,"lat":48.408178,"orig":"","vertexType":"NORMAL"},"itineraries":[{"duration":1105,"startTime":1522665000000,"endTime":1522666105000,"walkTime":1105,"transitTime":0,"waitingTime":0,"walkDistance":1421.8345789398961,"walkLimitExceeded":false,"elevationLost":0.0,"elevationGained":0.0,"transfers":0,"legs":[{"startTime":1522665000000,"endTime":1522666105000,"departureDelay":0,"arrivalDelay":0,"realTime":false,"distance":1421.603,"pathway":false,"mode":"WALK","route":"","agencyTimeZoneOffset":-14400000,"interlineWithPreviousLeg":false,"from":{"name":"Origin","lon":-71.08319,"lat":48.416393,"departure":1522665000000,"orig":"","vertexType":"NORMAL"},"to":{"name":"Destination","lon":-71.09321599,"lat":48.408178,"arrival":1522666105000,"orig":"","vertexType":"NORMAL"},"legGeometry":{"points":"uhofHdmzpLBg@b@aBhGnJnAyBf@x@fAfBPTHWd@WRKh@pDh@fBz@rBbBbCj@x@hBjCj@j@BBfAbAlDhFlC`EpB~CxAxBf@t@n@~@NTaAtB","length":28},"rentedBike":false,"transitLeg":false,"duration":1105.0,"steps":[{"distance":56.23,"relativeDirection":"DEPART","streetName":"Rue Saint-Gabriel","absoluteDirection":"EAST","stayOn":false,"area":false,"bogusName":false,"lon":-71.08322406941733,"lat":48.4162784820319,"elevation":[]},{"distance":200.849,"relativeDirection":"RIGHT","streetName":"Rue Nio","absoluteDirection":"SOUTHWEST","stayOn":false,"area":false,"bogusName":false,"lon":-71.0825342,"lat":48.416075000000006,"elevation":[]},{"distance":63.19,"relativeDirection":"LEFT","streetName":"Rue Sainte-Thérèse","absoluteDirection":"SOUTHEAST","stayOn":false,"area":false,"bogusName":false,"lon":-71.0843761,"lat":48.4147453,"elevation":[]},{"distance":98.993,"relativeDirection":"RIGHT","streetName":"Rue Saint-Paul","absoluteDirection":"SOUTHWEST","stayOn":false,"area":false,"bogusName":false,"lon":-71.08376480000001,"lat":48.414347400000004,"elevation":[]},{"distance":44.901,"relativeDirection":"LEFT","streetName":"Rue Saint-Augustin","absoluteDirection":"SOUTHEAST","stayOn":false,"area":false,"bogusName":false,"lon":-71.0846811,"lat":48.413698000000004,"elevation":[]},{"distance":900.401,"relativeDirection":"RIGHT","streetName":"Boulevard Saint-Paul","absoluteDirection":"WEST","stayOn":false,"area":false,"bogusName":false,"lon":-71.0843859,"lat":48.413356300000004,"elevation":[]},{"distance":57.039,"relativeDirection":"RIGHT","streetName":"Rue Descartes","absoluteDirection":"NORTHWEST","stayOn":false,"area":false,"bogusName":false,"lon":-71.0928554,"lat":48.4076662,"elevation":[]}]}],"tooSloped":false},{"duration":501,"startTime":1522666143000,"endTime":1522666644000,"walkTime":212,"transitTime":287,"waitingTime":2,"walkDistance":265.06369172684873,"walkLimitExceeded":false,"elevationLost":0.0,"elevationGained":0.0,"transfers":0,"legs":[{"startTime":1522666143000,"endTime":1522666272000,"departureDelay":0,"arrivalDelay":0,"realTime":false,"distance":160.668,"pathway":false,"mode":"WALK","route":"","agencyTimeZoneOffset":-14400000,"interlineWithPreviousLeg":false,"from":{"name":"Origin","lon":-71.08319,"lat":48.416393,"departure":1522666143000,"orig":"","vertexType":"NORMAL"},"to":{"name":"Saint-Paul / Saint-Gabriel","stopId":"1:424","stopCode":"424","lon":-71.081457,"lat":48.416066,"arrival":1522666272000,"departure":1522666273000,"zoneId":"NA","stopIndex":11,"stopSequence":12,"vertexType":"TRANSIT"},"legGeometry":{"points":"uhofHdmzpLBg@b@aBx@aDc@s@IO","length":6},"rentedBike":false,"transitLeg":false,"duration":129.0,"steps":[{"distance":124.25200000000001,"relativeDirection":"DEPART","streetName":"Rue Saint-Gabriel","absoluteDirection":"EAST","stayOn":false,"area":false,"bogusName":false,"lon":-71.08322406941733,"lat":48.4162784820319,"elevation":[]},{"distance":36.416,"relativeDirection":"LEFT","streetName":"Rue Saint-Paul","absoluteDirection":"NORTHEAST","stayOn":false,"area":false,"bogusName":false,"lon":-71.08172470000001,"lat":48.415782500000006,"elevation":[]}]},{"startTime":1522666273000,"endTime":1522666560000,"departureDelay":0,"arrivalDelay":0,"realTime":false,"distance":1209.9872122264674,"pathway":false,"mode":"BUS","route":"11","agencyName":"Société de Transport du Saguenay","agencyUrl":"http://ville.saguenay.ca/fr/services-aux-citoyens/transport-sts","agencyTimeZoneOffset":-14400000,"routeColor":"FF0000","routeType":3,"routeId":"1:11","routeTextColor":"FFFFFF","interlineWithPreviousLeg":false,"tripBlockId":"34","headsign":"Boul.Royaume/St-Pierre","agencyId":"0","tripId":"1:218207","serviceDate":"20180402","from":{"name":"Saint-Paul / Saint-Gabriel","stopId":"1:424","stopCode":"424","lon":-71.081457,"lat":48.416066,"arrival":1522666272000,"departure":1522666273000,"zoneId":"NA","stopIndex":11,"stopSequence":12,"vertexType":"TRANSIT"},"to":{"name":"boul. St-Paul / Descartes","stopId":"1:467","stopCode":"467","lon":-71.092615,"lat":48.408095,"arrival":1522666560000,"departure":1522666561000,"zoneId":"NA","stopIndex":14,"stopSequence":15,"vertexType":"TRANSIT"},"legGeometry":{"points":"cgofHvazpLvJrOR\\bAfBLa@t@]LjAVvAVbAVv@^bAXj@b@t@xEtGh@r@n@x@FDjA|AlBpCnJ|NNT","length":21},"routeShortName":"11","routeLongName":"Chic/Faubourg via St-Paul","rentedBike":false,"transitLeg":true,"duration":287.0,"steps":[]},{"startTime":1522666561000,"endTime":1522666644000,"departureDelay":0,"arrivalDelay":0,"realTime":false,"distance":104.319,"pathway":false,"mode":"WALK","route":"","agencyTimeZoneOffset":-14400000,"interlineWithPreviousLeg":false,"from":{"name":"boul. St-Paul / Descartes","stopId":"1:467","stopCode":"467","lon":-71.092615,"lat":48.408095,"arrival":1522666560000,"departure":1522666561000,"zoneId":"NA","stopIndex":14,"stopSequence":15,"vertexType":"TRANSIT"},"to":{"name":"Destination","lon":-71.09321599,"lat":48.408178,"arrival":1522666644000,"orig":"","vertexType":"NORMAL"},"legGeometry":{"points":"{tmfHtf|pLn@~@NTaAtB","length":4},"rentedBike":false,"transitLeg":false,"duration":83.0,"steps":[{"distance":47.28,"relativeDirection":"DEPART","streetName":"Boulevard Saint-Paul","absoluteDirection":"SOUTHWEST","stayOn":false,"area":false,"bogusName":false,"lon":-71.09242610294163,"lat":48.40798176833643,"elevation":[]},{"distance":57.039,"relativeDirection":"RIGHT","streetName":"Rue Descartes","absoluteDirection":"NORTHWEST","stayOn":false,"area":false,"bogusName":false,"lon":-71.0928554,"lat":48.4076662,"elevation":[]}]}],"tooSloped":false},{"duration":501,"startTime":1522667943000,"endTime":1522668444000,"walkTime":212,"transitTime":287,"waitingTime":2,"walkDistance":265.06369172684873,"walkLimitExceeded":false,"elevationLost":0.0,"elevationGained":0.0,"transfers":0,"legs":[{"startTime":1522667943000,"endTime":1522668072000,"departureDelay":0,"arrivalDelay":0,"realTime":false,"distance":160.668,"pathway":false,"mode":"WALK","route":"","agencyTimeZoneOffset":-14400000,"interlineWithPreviousLeg":false,"from":{"name":"Origin","lon":-71.08319,"lat":48.416393,"departure":1522667943000,"orig":"","vertexType":"NORMAL"},"to":{"name":"Saint-Paul / Saint-Gabriel","stopId":"1:424","stopCode":"424","lon":-71.081457,"lat":48.416066,"arrival":1522668072000,"departure":1522668073000,"zoneId":"NA","stopIndex":11,"stopSequence":12,"vertexType":"TRANSIT"},"legGeometry":{"points":"uhofHdmzpLBg@b@aBx@aDc@s@IO","length":6},"rentedBike":false,"transitLeg":false,"duration":129.0,"steps":[{"distance":124.25200000000001,"relativeDirection":"DEPART","streetName":"Rue Saint-Gabriel","absoluteDirection":"EAST","stayOn":false,"area":false,"bogusName":false,"lon":-71.08322406941733,"lat":48.4162784820319,"elevation":[]},{"distance":36.416,"relativeDirection":"LEFT","streetName":"Rue Saint-Paul","absoluteDirection":"NORTHEAST","stayOn":false,"area":false,"bogusName":false,"lon":-71.08172470000001,"lat":48.415782500000006,"elevation":[]}]},{"startTime":1522668073000,"endTime":1522668360000,"departureDelay":0,"arrivalDelay":0,"realTime":false,"distance":1209.9872122264674,"pathway":false,"mode":"BUS","route":"11","agencyName":"Société de Transport du Saguenay","agencyUrl":"http://ville.saguenay.ca/fr/services-aux-citoyens/transport-sts","agencyTimeZoneOffset":-14400000,"routeColor":"FF0000","routeType":3,"routeId":"1:11","routeTextColor":"FFFFFF","interlineWithPreviousLeg":false,"tripBlockId":"36","headsign":"Boul.Royaume/St-Pierre","agencyId":"0","tripId":"1:218278","serviceDate":"20180402","from":{"name":"Saint-Paul / Saint-Gabriel","stopId":"1:424","stopCode":"424","lon":-71.081457,"lat":48.416066,"arrival":1522668072000,"departure":1522668073000,"zoneId":"NA","stopIndex":11,"stopSequence":12,"vertexType":"TRANSIT"},"to":{"name":"boul. St-Paul / Descartes","stopId":"1:467","stopCode":"467","lon":-71.092615,"lat":48.408095,"arrival":1522668360000,"departure":1522668361000,"zoneId":"NA","stopIndex":14,"stopSequence":15,"vertexType":"TRANSIT"},"legGeometry":{"points":"cgofHvazpLvJrOR\\bAfBLa@t@]LjAVvAVbAVv@^bAXj@b@t@xEtGh@r@n@x@FDjA|AlBpCnJ|NNT","length":21},"routeShortName":"11","routeLongName":"Chic/Faubourg via St-Paul","rentedBike":false,"transitLeg":true,"duration":287.0,"steps":[]},{"startTime":1522668361000,"endTime":1522668444000,"departureDelay":0,"arrivalDelay":0,"realTime":false,"distance":104.319,"pathway":false,"mode":"WALK","route":"","agencyTimeZoneOffset":-14400000,"interlineWithPreviousLeg":false,"from":{"name":"boul. St-Paul / Descartes","stopId":"1:467","stopCode":"467","lon":-71.092615,"lat":48.408095,"arrival":1522668360000,"departure":1522668361000,"zoneId":"NA","stopIndex":14,"stopSequence":15,"vertexType":"TRANSIT"},"to":{"name":"Destination","lon":-71.09321599,"lat":48.408178,"arrival":1522668444000,"orig":"","vertexType":"NORMAL"},"legGeometry":{"points":"{tmfHtf|pLn@~@NTaAtB","length":4},"rentedBike":false,"transitLeg":false,"duration":83.0,"steps":[{"distance":47.28,"relativeDirection":"DEPART","streetName":"Boulevard Saint-Paul","absoluteDirection":"SOUTHWEST","stayOn":false,"area":false,"bogusName":false,"lon":-71.09242610294163,"lat":48.40798176833643,"elevation":[]},{"distance":57.039,"relativeDirection":"RIGHT","streetName":"Rue Descartes","absoluteDirection":"NORTHWEST","stayOn":false,"area":false,"bogusName":false,"lon":-71.0928554,"lat":48.4076662,"elevation":[]}]}],"tooSloped":false}]},"debugOutput":{"precalculationTime":22,"pathCalculationTime":16,"pathTimes":[6,8,2],"renderingTime":0,"totalTime":38,"timedOut":false},"elevationMetadata":{"ellipsoidToGeoidDifference":-28.885904201182168,"geoidElevation":false}}