{"requestParameters":{"date":"2018/04/02","walkSpeed":"1.33","walkReluctance":"2.0","fromPlace":"48.430562,-71.052058","maxWalkDistance":"3000","waitReluctance":"1.0","carSpeed":"33","numItineraries":"3","waitAtBeginningFactor":"0.4","mode":"TRANSIT,WALK","ignoreRealtimeUpdates":"false","stairsReluctance":"2.0","toPlace":"48.401894,-71.090426","time":"21:35:00"},"plan":{"date":1522719300000,"from":{"name":"Origin","lon":-71.052058,"lat":48.430562,"orig":"","vertexType":"NORMAL"},"to":{"name":"Destination","lon":-71.090426,"lat":48.401894,"orig":"","vertexType":"NORMAL"},"itineraries":[{"duration":1931,"startTime":1522719357000,"endTime":1522721288000,"walkTime":789,"transitTime":900,"waitingTime":242,"walkDistance":1024.0267293203485,"walkLimitExceeded":false,"elevationLost":0.0,"elevationGained":0.0,"transfers":1,"legs":[{"startTime":1522719357000,"endTime":1522719542000,"departureDelay":0,"arrivalDelay":0,"realTime":false,"distance":242.327,"pathway":false,"mode":"WALK","route":"","agencyTimeZoneOffset":-14400000,"interlineWithPreviousLeg":false,"from":{"name":"Origin","lon":-71.052058,"lat":48.430562,"departure":1522719357000,"orig":"","vertexType":"NORMAL"},"to":{"name":"Réserve Navale (boul. Saguenay)","stopId":"1:1584","stopCode":"1584","lon":-71.055268,"lat":48.429877,"arrival":1522719542000,"departure":1522719543000,"zoneId":"NA","stopIndex":31,"stopSequence":32,"vertexType":"TRANSIT"},"legGeometry":{"points":"c`rfHpjtpLG|DDrAFf@PpBJr@p@tC","length":7},"rentedBike":false,"transitLeg":false,"duration":185.0,"steps":[{"distance":242.327,"relativeDirection":"DEPART","streetName":"bike path","absoluteDirection":"WEST","stayOn":false,"area":false,"bogusName":false,"lon":-71.052083957082,"lat":48.430263579579425,"elevation":[]}]},{"startTime":1522719543000,"endTime":1522719660000,"departureDelay":0,"arrivalDelay":0,"realTime":false,"distance":815.4239941708515,"pathway":false,"mode":"BUS","route":"12","agencyName":"Société de Transport du Saguenay","agencyUrl":"http://ville.saguenay.ca/fr/services-aux-citoyens/transport-sts","agencyTimeZoneOffset":-14400000,"routeColor":"556B2F","routeType":3,"routeId":"1:12","routeTextColor":"FFFFFF","interlineWithPreviousLeg":false,"tripBlockId":"26","headsign":"Terminus Chicoutimi","agencyId":"0","tripId":"1:217993","serviceDate":"20180402","from":{"name":"Réserve Navale (boul. Saguenay)","stopId":"1:1584","stopCode":"1584","lon":-71.055268,"lat":48.429877,"arrival":1522719542000,"departure":1522719543000,"zoneId":"NA","stopIndex":31,"stopSequence":32,"vertexType":"TRANSIT"},"to":{"name":"Terminus Chicoutimi","stopId":"1:1289","stopCode":"1289","lon":-71.066163,"lat":48.428677,"arrival":1522719660000,"departure":1522719900000,"zoneId":"NA","stopIndex":33,"stopSequence":34,"vertexType":"TRANSIT"},"legGeometry":{"points":"m|qfHv}tpLj@nDDl]BvZdCXJhC","length":6},"routeShortName":"12","routeLongName":"Rivière du Moulin","rentedBike":false,"transitLeg":true,"duration":117.0,"steps":[]},{"startTime":1522719900000,"endTime":1522720683000,"departureDelay":0,"arrivalDelay":0,"realTime":false,"distance":3835.2324963508963,"pathway":false,"mode":"BUS","route":"11","agencyName":"Société de Transport du Saguenay","agencyUrl":"http://ville.saguenay.ca/fr/services-aux-citoyens/transport-sts","agencyTimeZoneOffset":-14400000,"routeColor":"FF0000","routeType":3,"routeId":"1:11","routeTextColor":"FFFFFF","interlineWithPreviousLeg":false,"tripBlockId":"35","headsign":"Boul.Royaume/St-Pierre","agencyId":"0","tripId":"1:218272","serviceDate":"20180402","from":{"name":"Terminus Chicoutimi","stopId":"1:1289","stopCode":"1289","lon":-71.066163,"lat":48.428677,"arrival":1522719660000,"departure":1522719900000,"zoneId":"NA","stopIndex":0,"stopSequence":1,"vertexType":"TRANSIT"},"to":{"name":"boul. Barrette / Estacade","stopId":"1:465","stopCode":"465","lon":-71.098983,"lat":48.40478,"arrival":1522720683000,"departure":1522720684000,"zoneId":"NA","stopIndex":15,"stopSequence":16,"vertexType":"TRANSIT"},"legGeometry":{"points":"evqfHzcwpLk@?UhKfIh@dKp@GnDIfDOtEE~@Ff@x@rEF~@CbAALO~ADRNJXBr@DfGRPBPJLN@@FPFTBX?TE`BhBR@?J@NELKFOlAiDL[bA`AfIjIbGdGzDzD`A~An@`ApApBpClEvJrOR\\bAfBLa@t@]LjAVvAVbAVv@^bAXj@b@t@xEtGh@r@n@x@FDjA|AlBpCnJ|NNTX`@V`@eCtHpFjH{FhPcB|Ft@|CEAdCnEdHKrBz@lGiQ","length":77},"routeShortName":"11","routeLongName":"Chic/Faubourg via St-Paul","rentedBike":false,"transitLeg":true,"duration":783.0,"steps":[]},{"startTime":1522720684000,"endTime":1522721288000,"departureDelay":0,"arrivalDelay":0,"realTime":false,"distance":781.608,"pathway":false,"mode":"WALK","route":"","agencyTimeZoneOffset":-14400000,"interlineWithPreviousLeg":false,"from":{"name":"boul. Barrette / Estacade","stopId":"1:465","stopCode":"465","lon":-71.098983,"lat":48.40478,"arrival":1522720683000,"departure":1522720684000,"zoneId":"NA","stopIndex":15,"stopSequence":16,"vertexType":"TRANSIT"},"to":{"name":"Destination","lon":-71.090426,"lat":48.401894,"arrival":1522721288000,"orig":"","vertexType":"NORMAL"},"legGeometry":{"points":"u`mfHzo}pLL]f@cBjBuEAc@rCsHFQx@uBzEwM@?`@kAqB{B`AqCRk@","length":14},"rentedBike":false,"transitLeg":false,"duration":604.0,"steps":[{"distance":168.596,"relativeDirection":"DEPART","streetName":"bike path","absoluteDirection":"SOUTHEAST","stayOn":false,"area":false,"bogusName":true,"lon":-71.09901282754062,"lat":48.40475012061133,"elevation":[]},{"distance":449.30899999999997,"relativeDirection":"SLIGHTLY_RIGHT","streetName":"Boulevard Barrette","absoluteDirection":"SOUTHEAST","stayOn":false,"area":false,"bogusName":false,"lon":-71.0971116,"lat":48.4039529,"elevation":[]},{"distance":78.789,"relativeDirection":"LEFT","streetName":"Rue Malraux","absoluteDirection":"NORTHEAST","stayOn":false,"area":false,"bogusName":false,"lon":-71.0921587,"lat":48.401604500000005,"elevation":[]},{"distance":84.914,"relativeDirection":"RIGHT","streetName":"Rue Verlaine","absoluteDirection":"SOUTHEAST","stayOn":false,"area":false,"bogusName":false,"lon":-71.0915317,"lat":48.402177900000005,"elevation":[]}]}],"tooSloped":false},{"duration":1942,"startTime":1522719559000,"endTime":1522721501000,"walkTime":732,"transitTime":1208,"waitingTime":2,"walkDistance":917.7359398423337,"walkLimitExceeded":false,"elevationLost":0.0,"elevationGained":0.0,"transfers":0,"legs":[{"startTime":1522719559000,"endTime":1522720136000,"departureDelay":0,"arrivalDelay":0,"realTime":false,"distance":725.399,"pathway":false,"mode":"WALK","route":"","agencyTimeZoneOffset":-14400000,"interlineWithPreviousLeg":false,"from":{"name":"Origin","lon":-71.052058,"lat":48.430562,"departure":1522719559000,"orig":"","vertexType":"NORMAL"},"to":{"name":"Bégin / Jacques-Cartier","stopId":"1:67","stopCode":"67","lon":-71.055431,"lat":48.425501,"arrival":1522720136000,"departure":1522720137000,"zoneId":"NA","stopIndex":4,"stopSequence":5,"vertexType":"TRANSIT"},"legGeometry":{"points":"c`rfHpjtpLG|DDrAFf@DCB?\\IDAfB[zC]Dn@jAGvBKd@CJBxAtABB`A|@h@`@ZVz@r@p@p@`@`@b@b@KZ","length":25},"rentedBike":false,"transitLeg":false,"duration":577.0,"steps":[{"distance":116.504,"relativeDirection":"DEPART","streetName":"bike path","absoluteDirection":"WEST","stayOn":false,"area":false,"bogusName":false,"lon":-71.052083957082,"lat":48.430263579579425,"elevation":[]},{"distance":6.262,"relativeDirection":"LEFT","streetName":"path","absoluteDirection":"SOUTH","stayOn":false,"area":false,"bogusName":true,"lon":-71.0536536,"lat":48.4302398,"elevation":[]},{"distance":166.236,"relativeDirection":"CONTINUE","streetName":"Rue Salaberry","absoluteDirection":"SOUTH","stayOn":false,"area":false,"bogusName":false,"lon":-71.053634,"lat":48.430185,"elevation":[]},{"distance":18.475,"relativeDirection":"RIGHT","streetName":"Rue Racine Est","absoluteDirection":"WEST","stayOn":false,"area":false,"bogusName":false,"lon":-71.0532845,"lat":48.428708900000004,"elevation":[]},{"distance":405.877,"relativeDirection":"LEFT","streetName":"Rue Bégin","absoluteDirection":"SOUTH","stayOn":false,"area":false,"bogusName":false,"lon":-71.0535297,"lat":48.4286752,"elevation":[]},{"distance":12.045,"relativeDirection":"RIGHT","streetName":"Rue Gaudreault","absoluteDirection":"NORTHWEST","stayOn":false,"area":false,"bogusName":false,"lon":-71.0553392,"lat":48.4253936,"elevation":[]}]},{"startTime":1522720137000,"endTime":1522721345000,"departureDelay":0,"arrivalDelay":0,"realTime":false,"distance":6778.155861953378,"pathway":false,"mode":"BUS","route":"14","agencyName":"Société de Transport du Saguenay","agencyUrl":"http://ville.saguenay.ca/fr/services-aux-citoyens/transport-sts","agencyTimeZoneOffset":-14400000,"routeColor":"C0C000","routeType":3,"routeId":"1:14","routeTextColor":"000000","interlineWithPreviousLeg":false,"tripBlockId":"30","headsign":"Talbot / Barrette","agencyId":"0","tripId":"1:218117","serviceDate":"20180402","from":{"name":"Bégin / Jacques-Cartier","stopId":"1:67","stopCode":"67","lon":-71.055431,"lat":48.425501,"arrival":1522720136000,"departure":1522720137000,"zoneId":"NA","stopIndex":4,"stopSequence":5,"vertexType":"TRANSIT"},"to":{"name":"boul. Barrette / passerelle rue Balzac","stopId":"1:44","stopCode":"44","lon":-71.089717,"lat":48.400646,"arrival":1522721345000,"departure":1522721346000,"zoneId":"NA","stopIndex":30,"stopSequence":31,"vertexType":"TRANSIT"},"legGeometry":{"points":"_bqfHr~tpLvIrIn@n@\\iATg@v@_ATg@LmABg@Is@c@iEAm@bAcDTcAtA{DJI|AxAvAvAQv@~@z@dA`ATq@`E~DL`@E`Ex@hDd@`B}FtFaAzAm@xAe@jCa@nDiAbm@SpKM`H]vBhDVzCTcAvCO^bEbEzK`LfBeEtK`KhAdAnCbCvBpCNR~BxAxBf@z@h@vAz@z@{DrCoITTlElEtAnB`@l@pFrD@?fDr@XgAjFuR\\yADm@b@gFd@_B`A}@tEvJBDvC`FtJ|LLNlClC|@^hCYVExCjCb@d@vE`F`BhB?pHaBhRqAbLK~@qBxFqB|FcC~GyC\\aDkDcFsF~CgO","length":92},"routeShortName":"14","routeLongName":"Coopérative","rentedBike":false,"transitLeg":true,"duration":1208.0,"steps":[]},{"startTime":1522721346000,"endTime":1522721501000,"departureDelay":0,"arrivalDelay":0,"realTime":false,"distance":192.111,"pathway":false,"mode":"WALK","route":"","agencyTimeZoneOffset":-14400000,"interlineWithPreviousLeg":false,"from":{"name":"boul. Barrette / passerelle rue Balzac","stopId":"1:44","stopCode":"44","lon":-71.089717,"lat":48.400646,"arrival":1522721345000,"departure":1522721346000,"zoneId":"NA","stopIndex":30,"stopSequence":31,"vertexType":"TRANSIT"},"to":{"name":"Destination","lon":-71.090426,"lat":48.401894,"arrival":1522721501000,"orig":"","vertexType":"NORMAL"},"legGeometry":{"points":"cglfHtu{pLBKSMSOCAmAm@o@zCq@lB","length":8},"rentedBike":false,"transitLeg":false,"duration":155.0,"steps":[{"distance":5.074,"relativeDirection":"DEPART","streetName":"bike path","absoluteDirection":"SOUTHEAST","stayOn":false,"area":false,"bogusName":true,"lon":-71.08970662899452,"lat":48.400660438764696,"elevation":[]},{"distance":74.275,"relativeDirection":"LEFT","streetName":"path","absoluteDirection":"NORTHEAST","stayOn":true,"area":false,"bogusName":true,"lon":-71.0896446,"lat":48.400640800000005,"elevation":[]},{"distance":112.762,"relativeDirection":"LEFT","streetName":"Rue Verlaine","absoluteDirection":"NORTHWEST","stayOn":false,"area":false,"bogusName":false,"lon":-71.08925380000001,"lat":48.4012559,"elevation":[]}]}],"tooSloped":false},{"duration":1942,"startTime":1522723159000,"endTime":1522725101000,"walkTime":732,"transitTime":1208,"waitingTime":2,"walkDistance":917.7359398423337,"walkLimitExceeded":false,"elevationLost":0.0,"elevationGained":0.0,"transfers":0,"legs":[{"startTime":1522723159000,"endTime":1522723736000,"departureDelay":0,"arrivalDelay":0,"realTime":false,"distance":725.399,"pathway":false,"mode":"WALK","route":"","agencyTimeZoneOffset":-14400000,"interlineWithPreviousLeg":false,"from":{"name":"Origin","lon":-71.052058,"lat":48.430562,"departure":1522723159000,"orig":"","vertexType":"NORMAL"},"to":{"name":"Bégin / Jacques-Cartier","stopId":"1:67","stopCode":"67","lon":-71.055431,"lat":48.425501,"arrival":1522723736000,"departure":1522723737000,"zoneId":"NA","stopIndex":4,"stopSequence":5,"vertexType":"TRANSIT"},"legGeometry":{"points":"c`rfHpjtpLG|DDrAFf@DCB?\\IDAfB[zC]Dn@jAGvBKd@CJBxAtABB`A|@h@`@ZVz@r@p@p@`@`@b@b@KZ","length":25},"rentedBike":false,"transitLeg":false,"duration":577.0,"steps":[{"distance":116.504,"relativeDirection":"DEPART","streetName":"bike path","absoluteDirection":"WEST","stayOn":false,"area":false,"bogusName":false,"lon":-71.052083957082,"lat":48.430263579579425,"elevation":[]},{"distance":6.262,"relativeDirection":"LEFT","streetName":"path","absoluteDirection":"SOUTH","stayOn":false,"area":false,"bogusName":true,"lon":-71.0536536,"lat":48.4302398,"elevation":[]},{"distance":166.236,"relativeDirection":"CONTINUE","streetName":"Rue Salaberry","absoluteDirection":"SOUTH","stayOn":false,"area":false,"bogusName":false,"lon":-71.053634,"lat":48.430185,"elevation":[]},{"distance":18.475,"relativeDirection":"RIGHT","streetName":"Rue Racine Est","absoluteDirection":"WEST","stayOn":false,"area":false,"bogusName":false,"lon":-71.0532845,"lat":48.428708900000004,"elevation":[]},{"distance":405.877,"relativeDirection":"LEFT","streetName":"Rue Bégin","absoluteDirection":"SOUTH","stayOn":false,"area":false,"bogusName":false,"lon":-71.0535297,"lat":48.4286752,"elevation":[]},{"distance":12.045,"relativeDirection":"RIGHT","streetName":"Rue Gaudreault","absoluteDirection":"NORTHWEST","stayOn":false,"area":false,"bogusName":false,"lon":-71.0553392,"lat":48.4253936,"elevation":[]}]},{"startTime":1522723737000,"endTime":1522724945000,"departureDelay":0,"arrivalDelay":0,"realTime":false,"distance":6778.155861953378,"pathway":false,"mode":"BUS","route":"14","agencyName":"Société de Transport du Saguenay","agencyUrl":"http://ville.saguenay.ca/fr/services-aux-citoyens/transport-sts","agencyTimeZoneOffset":-14400000,"routeColor":"C0C000","routeType":3,"routeId":"1:14","routeTextColor":"000000","interlineWithPreviousLeg":false,"tripBlockId":"30","headsign":"Talbot / Barrette","agencyId":"0","tripId":"1:218119","serviceDate":"20180402","from":{"name":"Bégin / Jacques-Cartier","stopId":"1:67","stopCode":"67","lon":-71.055431,"lat":48.425501,"arrival":1522723736000,"departure":1522723737000,"zoneId":"NA","stopIndex":4,"stopSequence":5,"vertexType":"TRANSIT"},"to":{"name":"boul. Barrette / passerelle rue Balzac","stopId":"1:44","stopCode":"44","lon":-71.089717,"lat":48.400646,"arrival":1522724945000,"departure":1522724946000,"zoneId":"NA","stopIndex":30,"stopSequence":31,"vertexType":"TRANSIT"},"legGeometry":{"points":"_bqfHr~tpLvIrIn@n@\\iATg@v@_ATg@LmABg@Is@c@iEAm@bAcDTcAtA{DJI|AxAvAvAQv@~@z@dA`ATq@`E~DL`@E`Ex@hDd@`B}FtFaAzAm@xAe@jCa@nDiAbm@SpKM`H]vBhDVzCTcAvCO^bEbEzK`LfBeEtK`KhAdAnCbCvBpCNR~BxAxBf@z@h@vAz@z@{DrCoITTlElEtAnB`@l@pFrD@?fDr@XgAjFuR\\yADm@b@gFd@_B`A}@tEvJBDvC`FtJ|LLNlClC|@^hCYVExCjCb@d@vE`F`BhB?pHaBhRqAbLK~@qBxFqB|FcC~GyC\\aDkDcFsF~CgO","length":92},"routeShortName":"14","routeLongName":"Coopérative","rentedBike":false,"transitLeg":true,"duration":1208.0,"steps":[]},{"startTime":1522724946000,"endTime":1522725101000,"departureDelay":0,"arrivalDelay":0,"realTime":false,"distance":192.111,"pathway":false,"mode":"WALK","route":"","agencyTimeZoneOffset":-14400000,"interlineWithPreviousLeg":false,"from":{"name":"boul. Barrette / passerelle rue Balzac","stopId":"1:44","stopCode":"44","lon":-71.089717,"lat":48.400646,"arrival":1522724945000,"departure":1522724946000,"zoneId":"NA","stopIndex":30,"stopSequence":31,"vertexType":"TRANSIT"},"to":{"name":"Destination","lon":-71.090426,"lat":48.401894,"arrival":1522725101000,"orig":"","vertexType":"NORMAL"},"legGeometry":{"points":"cglfHtu{pLBKSMSOCAmAm@o@zCq@lB","length":8},"rentedBike":false,"transitLeg":false,"duration":155.0,"steps":[{"distance":5.074,"relativeDirection":"DEPART","streetName":"bike path","absoluteDirection":"SOUTHEAST","stayOn":false,"area":false,"bogusName":true,"lon":-71.08970662899452,"lat":48.400660438764696,"elevation":[]},{"distance":74.275,"relativeDirection":"LEFT","streetName":"path","absoluteDirection":"NORTHEAST","stayOn":true,"area":false,"bogusName":true,"lon":-71.0896446,"lat":48.400640800000005,"elevation":[]},{"distance":112.762,"relativeDirection":"LEFT","streetName":"Rue Verlaine","absoluteDirection":"NORTHWEST","stayOn":false,"area":false,"bogusName":false,"lon":-71.08925380000001,"lat":48.4012559,"elevation":[]}]}],"tooSloped":false}]},"debugOutput":{"precalculationTime":29,"pathCalculationTime":46,"pathTimes":[20,11,15],"renderingTime":1,"totalTime":76,"timedOut":false},"elevationMetadata":{"ellipsoidToGeoidDifference":-28.885904201182168,"geoidElevation":false}}