{"requestParameters":{"date":"2018/04/02","walkSpeed":"1.33","walkReluctance":"2.0","fromPlace":"48.421124,-71.06697599","maxWalkDistance":"3000","waitReluctance":"1.0","carSpeed":"33","numItineraries":"3","waitAtBeginningFactor":"0.4","mode":"TRANSIT,WALK","ignoreRealtimeUpdates":"false","stairsReluctance":"2.0","toPlace":"48.406623,-71.088914","time":"15:30:00"},"plan":{"date":1522697400000,"from":{"name":"Origin","lon":-71.06697599,"lat":48.421124,"orig":"","vertexType":"NORMAL"},"to":{"name":"Destination","lon":-71.088914,"lat":48.406623,"orig":"","vertexType":"NORMAL"},"itineraries":[{"duration":1200,"startTime":1522698054000,"endTime":1522699254000,"walkTime":785,"transitTime":413,"waitingTime":2,"walkDistance":1013.2631954845855,"walkLimitExceeded":false,"elevationLost":0.0,"elevationGained":0.0,"transfers":0,"legs":[{"startTime":1522698054000,"endTime":1522698546000,"departureDelay":0,"arrivalDelay":0,"realTime":false,"distance":637.864,"pathway":false,"mode":"WALK","route":"","agencyTimeZoneOffset":-14400000,"interlineWithPreviousLeg":false,"from":{"name":"Origin","lon":-71.06697599,"lat":48.421124,"departure":1522698054000,"orig":"","vertexType":"NORMAL"},"to":{"name":"Saint-Paul / Dubuc","stopId":"1:420","stopCode":"420","lon":-71.075186,"lat":48.421664,"arrival":1522698546000,"departure":1522698547000,"zoneId":"NA","stopIndex":7,"stopSequence":8,"vertexType":"TRANSIT"},"legGeometry":{"points":"ihpfHngwpLCvAEfBMbGA`@QpJKjBO~@WbAy@dCG`@?d@@n@D|@Bd@XbAFb@|@~@","length":18},"rentedBike":false,"transitLeg":false,"duration":492.0,"steps":[{"distance":483.70000000000005,"relativeDirection":"DEPART","streetName":"Boulevard de l'Université","absoluteDirection":"WEST","stayOn":false,"area":false,"bogusName":false,"lon":-71.0669500144914,"lat":48.421332470307455,"elevation":[]},{"distance":154.164,"relativeDirection":"SLIGHTLY_LEFT","streetName":"Rue Saint-Paul","absoluteDirection":"WEST","stayOn":false,"area":false,"bogusName":false,"lon":-71.0732783,"lat":48.4221458,"elevation":[]}]},{"startTime":1522698547000,"endTime":1522698960000,"departureDelay":0,"arrivalDelay":0,"realTime":false,"distance":1987.8101991973444,"pathway":false,"mode":"BUS","route":"11","agencyName":"Société de Transport du Saguenay","agencyUrl":"http://ville.saguenay.ca/fr/services-aux-citoyens/transport-sts","agencyTimeZoneOffset":-14400000,"routeColor":"FF0000","routeType":3,"routeId":"1:11","routeTextColor":"FFFFFF","interlineWithPreviousLeg":false,"tripBlockId":"35","headsign":"Boul.Royaume/St-Pierre","agencyId":"0","tripId":"1:218260","serviceDate":"20180402","from":{"name":"Saint-Paul / Dubuc","stopId":"1:420","stopCode":"420","lon":-71.075186,"lat":48.421664,"arrival":1522698546000,"departure":1522698547000,"zoneId":"NA","stopIndex":7,"stopSequence":8,"vertexType":"TRANSIT"},"to":{"name":"boul. St-Paul / Descartes","stopId":"1:467","stopCode":"467","lon":-71.092615,"lat":48.408095,"arrival":1522698960000,"departure":1522698961000,"zoneId":"NA","stopIndex":14,"stopSequence":15,"vertexType":"TRANSIT"},"legGeometry":{"points":"ajpfHfzxpLfIjIbGdGzDzD`A~An@`ApApBpClEvJrOR\\bAfBLa@t@]LjAVvAVbAVv@^bAXj@b@t@xEtGh@r@n@x@FDjA|AlBpCnJ|NNT","length":28},"routeShortName":"11","routeLongName":"Chic/Faubourg via St-Paul","rentedBike":false,"transitLeg":true,"duration":413.0,"steps":[]},{"startTime":1522698961000,"endTime":1522699254000,"departureDelay":0,"arrivalDelay":0,"realTime":false,"distance":375.271,"pathway":false,"mode":"WALK","route":"","agencyTimeZoneOffset":-14400000,"interlineWithPreviousLeg":false,"from":{"name":"boul. St-Paul / Descartes","stopId":"1:467","stopCode":"467","lon":-71.092615,"lat":48.408095,"arrival":1522698960000,"departure":1522698961000,"zoneId":"NA","stopIndex":14,"stopSequence":15,"vertexType":"TRANSIT"},"to":{"name":"Destination","lon":-71.088914,"lat":48.406623,"arrival":1522699254000,"orig":"","vertexType":"NORMAL"},"legGeometry":{"points":"{tmfHtf|pLn@~@NTxAuDjAwCNu@VgBBmA]_Db@O","length":10},"rentedBike":false,"transitLeg":false,"duration":293.0,"steps":[{"distance":47.28,"relativeDirection":"DEPART","streetName":"Boulevard Saint-Paul","absoluteDirection":"SOUTHWEST","stayOn":false,"area":false,"bogusName":false,"lon":-71.09242610294163,"lat":48.40798176833643,"elevation":[]},{"distance":306.632,"relativeDirection":"LEFT","streetName":"Rue Descartes","absoluteDirection":"SOUTHEAST","stayOn":false,"area":false,"bogusName":false,"lon":-71.0928554,"lat":48.4076662,"elevation":[]},{"distance":21.359,"relativeDirection":"RIGHT","streetName":"Rue Grimm","absoluteDirection":"SOUTH","stayOn":false,"area":false,"bogusName":false,"lon":-71.0892082,"lat":48.4067652,"elevation":[]}]}],"tooSloped":false},{"duration":1449,"startTime":1522698701000,"endTime":1522700150000,"walkTime":1016,"transitTime":431,"waitingTime":2,"walkDistance":1303.8821654065591,"walkLimitExceeded":false,"elevationLost":0.0,"elevationGained":0.0,"transfers":0,"legs":[{"startTime":1522698701000,"endTime":1522699063000,"departureDelay":0,"arrivalDelay":0,"realTime":false,"distance":465.50700000000006,"pathway":false,"mode":"WALK","route":"","agencyTimeZoneOffset":-14400000,"interlineWithPreviousLeg":false,"from":{"name":"Origin","lon":-71.06697599,"lat":48.421124,"departure":1522698701000,"orig":"","vertexType":"NORMAL"},"to":{"name":"Audet / Saint-Charles","stopId":"1:521","stopCode":"521","lon":-71.072343,"lat":48.420999,"arrival":1522699063000,"departure":1522699064000,"zoneId":"NA","stopIndex":9,"stopSequence":10,"vertexType":"TRANSIT"},"legGeometry":{"points":"ihpfHngwpLCvAEfBMbGA`@QpJKjBO~@f@BD?jADAb@","length":12},"rentedBike":false,"transitLeg":false,"duration":362.0,"steps":[{"distance":383.23400000000004,"relativeDirection":"DEPART","streetName":"Boulevard de l'Université","absoluteDirection":"WEST","stayOn":false,"area":false,"bogusName":false,"lon":-71.0669500144914,"lat":48.421332470307455,"elevation":[]},{"distance":68.384,"relativeDirection":"LEFT","streetName":"Rue Audet","absoluteDirection":"SOUTH","stayOn":false,"area":false,"bogusName":false,"lon":-71.07209830000001,"lat":48.421699100000005,"elevation":[]},{"distance":13.889,"relativeDirection":"RIGHT","streetName":"Rue Saint-Charles","absoluteDirection":"WEST","stayOn":false,"area":false,"bogusName":false,"lon":-71.0721424,"lat":48.4210848,"elevation":[]}]},{"startTime":1522699064000,"endTime":1522699495000,"departureDelay":0,"arrivalDelay":0,"realTime":false,"distance":1939.186219986441,"pathway":false,"mode":"BUS","route":"14","agencyName":"Société de Transport du Saguenay","agencyUrl":"http://ville.saguenay.ca/fr/services-aux-citoyens/transport-sts","agencyTimeZoneOffset":-14400000,"routeColor":"C0C000","routeType":3,"routeId":"1:14","routeTextColor":"000000","interlineWithPreviousLeg":false,"tripBlockId":"30","headsign":"Talbot / Barrette","agencyId":"0","tripId":"1:218105","serviceDate":"20180402","from":{"name":"Audet / Saint-Charles","stopId":"1:521","stopCode":"521","lon":-71.072343,"lat":48.420999,"arrival":1522699063000,"departure":1522699064000,"zoneId":"NA","stopIndex":9,"stopSequence":10,"vertexType":"TRANSIT"},"to":{"name":"Ballantyne / Jolliet","stopId":"1:159","stopCode":"159","lon":-71.08039,"lat":48.406229,"arrival":1522699495000,"departure":1522699496000,"zoneId":"NA","stopIndex":19,"stopSequence":20,"vertexType":"TRANSIT"},"legGeometry":{"points":"cfpfHbhxpLzCTcAvCO^bEbEzK`LfBeEtK`KhAdAnCbCvBpCNR~BxAxBf@z@h@vAz@z@{DrCoITTlElEtAnB`@l@pFrD@?fDr@XgA","length":26},"routeShortName":"14","routeLongName":"Coopérative","rentedBike":false,"transitLeg":true,"duration":431.0,"steps":[]},{"startTime":1522699496000,"endTime":1522700150000,"departureDelay":0,"arrivalDelay":0,"realTime":false,"distance":838.159,"pathway":false,"mode":"WALK","route":"","agencyTimeZoneOffset":-14400000,"interlineWithPreviousLeg":false,"from":{"name":"Ballantyne / Jolliet","stopId":"1:159","stopCode":"159","lon":-71.08039,"lat":48.406229,"arrival":1522699495000,"departure":1522699496000,"zoneId":"NA","stopIndex":19,"stopSequence":20,"vertexType":"TRANSIT"},"to":{"name":"Destination","lon":-71.088914,"lat":48.406623,"arrival":1522700150000,"orig":"","vertexType":"NORMAL"},"legGeometry":{"points":"ijmfHb{ypLYdAv@t@VpA^dDNbA??v@tD`@jC@^TjE}Av@oA|Ao@hBITyAdAo@TEdAJnALfAf@vDb@O","length":22},"rentedBike":false,"transitLeg":false,"duration":654.0,"steps":[{"distance":29.885,"relativeDirection":"DEPART","streetName":"Rue Ballantyne","absoluteDirection":"NORTHWEST","stayOn":false,"area":false,"bogusName":false,"lon":-71.0803339734197,"lat":48.40629640444966,"elevation":[]},{"distance":377.609,"relativeDirection":"LEFT","streetName":"Rue Jolliet","absoluteDirection":"SOUTHWEST","stayOn":false,"area":false,"bogusName":false,"lon":-71.08068800000001,"lat":48.406426800000006,"elevation":[]},{"distance":253.84,"relativeDirection":"RIGHT","streetName":"Rue Victor-Guimond","absoluteDirection":"NORTH","stayOn":false,"area":false,"bogusName":false,"lon":-71.08532290000001,"lat":48.405216,"elevation":[]},{"distance":155.466,"relativeDirection":"LEFT","streetName":"Rue Descartes","absoluteDirection":"WEST","stayOn":false,"area":false,"bogusName":false,"lon":-71.0871764,"lat":48.4070606,"elevation":[]},{"distance":21.359,"relativeDirection":"LEFT","streetName":"Rue Grimm","absoluteDirection":"SOUTH","stayOn":false,"area":false,"bogusName":false,"lon":-71.0892082,"lat":48.4067652,"elevation":[]}]}],"tooSloped":false},{"duration":1200,"startTime":1522699854000,"endTime":1522701054000,"walkTime":785,"transitTime":413,"waitingTime":2,"walkDistance":1013.2631954845855,"walkLimitExceeded":false,"elevationLost":0.0,"elevationGained":0.0,"transfers":0,"legs":[{"startTime":1522699854000,"endTime":1522700346000,"departureDelay":0,"arrivalDelay":0,"realTime":false,"distance":637.864,"pathway":false,"mode":"WALK","route":"","agencyTimeZoneOffset":-14400000,"interlineWithPreviousLeg":false,"from":{"name":"Origin","lon":-71.06697599,"lat":48.421124,"departure":1522699854000,"orig":"","vertexType":"NORMAL"},"to":{"name":"Saint-Paul / Dubuc","stopId":"1:420","stopCode":"420","lon":-71.075186,"lat":48.421664,"arrival":1522700346000,"departure":1522700347000,"zoneId":"NA","stopIndex":7,"stopSequence":8,"vertexType":"TRANSIT"},"legGeometry":{"points":"ihpfHngwpLCvAEfBMbGA`@QpJKjBO~@WbAy@dCG`@?d@@n@D|@Bd@XbAFb@|@~@","length":18},"rentedBike":false,"transitLeg":false,"duration":492.0,"steps":[{"distance":483.70000000000005,"relativeDirection":"DEPART","streetName":"Boulevard de l'Université","absoluteDirection":"WEST","stayOn":false,"area":false,"bogusName":false,"lon":-71.0669500144914,"lat":48.421332470307455,"elevation":[]},{"distance":154.164,"relativeDirection":"SLIGHTLY_LEFT","streetName":"Rue Saint-Paul","absoluteDirection":"WEST","stayOn":false,"area":false,"bogusName":false,"lon":-71.0732783,"lat":48.4221458,"elevation":[]}]},{"startTime":1522700347000,"endTime":1522700760000,"departureDelay":0,"arrivalDelay":0,"realTime":false,"distance":1987.8101991973444,"pathway":false,"mode":"BUS","route":"11","agencyName":"Société de Transport du Saguenay","agencyUrl":"http://ville.saguenay.ca/fr/services-aux-citoyens/transport-sts","agencyTimeZoneOffset":-14400000,"routeColor":"FF0000","routeType":3,"routeId":"1:11","routeTextColor":"FFFFFF","interlineWithPreviousLeg":false,"tripBlockId":"37","headsign":"Boul.Royaume/St-Pierre","agencyId":"0","tripId":"1:218322","serviceDate":"20180402","from":{"name":"Saint-Paul / Dubuc","stopId":"1:420","stopCode":"420","lon":-71.075186,"lat":48.421664,"arrival":1522700346000,"departure":1522700347000,"zoneId":"NA","stopIndex":7,"stopSequence":8,"vertexType":"TRANSIT"},"to":{"name":"boul. St-Paul / Descartes","stopId":"1:467","stopCode":"467","lon":-71.092615,"lat":48.408095,"arrival":1522700760000,"departure":1522700761000,"zoneId":"NA","stopIndex":14,"stopSequence":15,"vertexType":"TRANSIT"},"legGeometry":{"points":"ajpfHfzxpLfIjIbGdGzDzD`A~An@`ApApBpClEvJrOR\\bAfBLa@t@]LjAVvAVbAVv@^bAXj@b@t@xEtGh@r@n@x@FDjA|AlBpCnJ|NNT","length":28},"routeShortName":"11","routeLongName":"Chic/Faubourg via St-Paul","rentedBike":false,"transitLeg":true,"duration":413.0,"steps":[]},{"startTime":1522700761000,"endTime":1522701054000,"departureDelay":0,"arrivalDelay":0,"realTime":false,"distance":375.271,"pathway":false,"mode":"WALK","route":"","agencyTimeZoneOffset":-14400000,"interlineWithPreviousLeg":false,"from":{"name":"boul. St-Paul / Descartes","stopId":"1:467","stopCode":"467","lon":-71.092615,"lat":48.408095,"arrival":1522700760000,"departure":1522700761000,"zoneId":"NA","stopIndex":14,"stopSequence":15,"vertexType":"TRANSIT"},"to":{"name":"Destination","lon":-71.088914,"lat":48.406623,"arrival":1522701054000,"orig":"","vertexType":"NORMAL"},"legGeometry":{"points":"{tmfHtf|pLn@~@NTxAuDjAwCNu@VgBBmA]_Db@O","length":10},"rentedBike":false,"transitLeg":false,"duration":293.0,"steps":[{"distance":47.28,"relativeDirection":"DEPART","streetName":"Boulevard Saint-Paul","absoluteDirection":"SOUTHWEST","stayOn":false,"area":false,"bogusName":false,"lon":-71.09242610294163,"lat":48.40798176833643,"elevation":[]},{"distance":306.632,"relativeDirection":"LEFT","streetName":"Rue Descartes","absoluteDirection":"SOUTHEAST","stayOn":false,"area":false,"bogusName":false,"lon":-71.0928554,"lat":48.4076662,"elevation":[]},{"distance":21.359,"relativeDirection":"RIGHT","streetName":"Rue Grimm","absoluteDirection":"SOUTH","stayOn":false,"area":false,"bogusName":false,"lon":-71.0892082,"lat":48.4067652,"elevation":[]}]}],"tooSloped":false}]},"debugOutput":{"precalculationTime":39,"pathCalculationTime":47,"pathTimes":[22,12,13],"renderingTime":0,"totalTime":86,"timedOut":false},"elevationMetadata":{"ellipsoidToGeoidDifference":-28.885904201182168,"geoidElevation":false}}