{"requestParameters":{"date":"2018/04/02","walkSpeed":"1.33","walkReluctance":"2.0","fromPlace":"48.403558,-71.092161","maxWalkDistance":"3000","waitReluctance":"1.0","carSpeed":"33","numItineraries":"3","waitAtBeginningFactor":"0.4","mode":"TRANSIT,WALK","ignoreRealtimeUpdates":"false","stairsReluctance":"2.0","toPlace":"48.442106,-71.059971","time":"18:0:00"},"plan":{"date":1522706400000,"from":{"name":"Origin","lon":-71.092161,"lat":48.403558,"orig":"","vertexType":"NORMAL"},"to":{"name":"Destination","lon":-71.059971,"lat":48.442106,"orig":"","vertexType":"NORMAL"},"itineraries":[{"duration":3182,"startTime":1522706897000,"endTime":1522710079000,"walkTime":486,"transitTime":2274,"waitingTime":422,"walkDistance":620.9717593951483,"walkLimitExceeded":false,"elevationLost":0.0,"elevationGained":0.0,"transfers":1,"legs":[{"startTime":1522706897000,"endTime":1522707265000,"departureDelay":0,"arrivalDelay":0,"realTime":false,"distance":470.89099999999996,"pathway":false,"mode":"WALK","route":"","agencyTimeZoneOffset":-14400000,"interlineWithPreviousLeg":false,"from":{"name":"Origin","lon":-71.092161,"lat":48.403558,"departure":1522706897000,"orig":"","vertexType":"NORMAL"},"to":{"name":"Malraux / Pagnol","stopId":"1:441","stopCode":"441","lon":-71.09356,"lat":48.400447,"arrival":1522707265000,"departure":1522707266000,"zoneId":"NA","stopIndex":6,"stopSequence":7,"vertexType":"TRANSIT"},"legGeometry":{"points":"sylfHze|pLdChCxAgD|@sBBEpBzBjFzFDD","length":8},"rentedBike":false,"transitLeg":false,"duration":368.0,"steps":[{"distance":89.922,"relativeDirection":"DEPART","streetName":"Rue Hémingway","absoluteDirection":"SOUTHWEST","stayOn":false,"area":false,"bogusName":false,"lon":-71.09229991431948,"lat":48.40362048652453,"elevation":[]},{"distance":137.37300000000002,"relativeDirection":"LEFT","streetName":"Rue Verlaine","absoluteDirection":"SOUTHEAST","stayOn":false,"area":false,"bogusName":false,"lon":-71.0929832,"lat":48.402951,"elevation":[]},{"distance":243.59599999999998,"relativeDirection":"RIGHT","streetName":"Rue Malraux","absoluteDirection":"SOUTHWEST","stayOn":false,"area":false,"bogusName":false,"lon":-71.0915317,"lat":48.402177900000005,"elevation":[]}]},{"startTime":1522707266000,"endTime":1522708680000,"departureDelay":0,"arrivalDelay":0,"realTime":false,"distance":7619.113334279732,"pathway":false,"mode":"BUS","route":"14","agencyName":"Société de Transport du Saguenay","agencyUrl":"http://ville.saguenay.ca/fr/services-aux-citoyens/transport-sts","agencyTimeZoneOffset":-14400000,"routeColor":"C0C000","routeType":3,"routeId":"1:14","routeTextColor":"000000","interlineWithPreviousLeg":false,"tripBlockId":"31","headsign":"Terminus Chicoutimi","agencyId":"0","tripId":"1:218145","serviceDate":"20180402","from":{"name":"Malraux / Pagnol","stopId":"1:441","stopCode":"441","lon":-71.09356,"lat":48.400447,"arrival":1522707265000,"departure":1522707266000,"zoneId":"NA","stopIndex":6,"stopSequence":7,"vertexType":"TRANSIT"},"to":{"name":"Terminus Chicoutimi","stopId":"1:1289","stopCode":"1289","lon":-71.066163,"lat":48.428677,"arrival":1522708680000,"departure":1522709100000,"zoneId":"NA","stopIndex":37,"stopSequence":38,"vertexType":"TRANSIT"},"legGeometry":{"points":"melfHbm|pLhCtCdDY|F_On@aB`B_GNoBvAyT|@sNuAyAuF}F}AaB_BkAC@qC\\gAWiBwBiKgMiCwEgEyHCGy@uB}@rAa@nAc@lFEf@mGvUYfAqCs@ICMCqFmDc@s@mAkBuEoESUgAhDiAfD}@zDyAcA_@Um@U{AWgB_Au@s@EEsBkCqFgF{IiI][aBhE}@}@oBmBwE{EwE{Ej@mBZeAa@SyEQg@CPcALuCx@{b@t@{[XoDd@sBl@iB~@gA`G{F{A{D_@sBFqDOq@iG{FGIoCkCgBgBsDpLHzBBT`@~COnBQf@gAjAg@bBuDmDmFgFa@_@w@s@CfAOrBEtAGbA?jBQtC?|@ExKMdIG~EUnLEhC}CKkBOkCOYbC","length":105},"routeShortName":"14","routeLongName":"Coopérative","rentedBike":false,"transitLeg":true,"duration":1414.0,"steps":[]},{"startTime":1522709100000,"endTime":1522709960000,"departureDelay":0,"arrivalDelay":0,"realTime":false,"distance":6208.286971651185,"pathway":false,"mode":"BUS","route":"23","agencyName":"Société de Transport du Saguenay","agencyUrl":"http://ville.saguenay.ca/fr/services-aux-citoyens/transport-sts","agencyTimeZoneOffset":-14400000,"routeColor":"FF00FF","routeType":3,"routeId":"1:23","routeTextColor":"FFFFFF","interlineWithPreviousLeg":false,"tripBlockId":"5","headsign":"Terminus Chicoutimi","agencyId":"0","tripId":"1:217274","serviceDate":"20180402","from":{"name":"Terminus Chicoutimi","stopId":"1:1289","stopCode":"1289","lon":-71.066163,"lat":48.428677,"arrival":1522708680000,"departure":1522709100000,"zoneId":"NA","stopIndex":0,"stopSequence":1,"vertexType":"TRANSIT"},"to":{"name":"Église St-Luc (boul. Tadoussac)","stopId":"1:830","stopCode":"830","lon":-71.059501,"lat":48.441464,"arrival":1522709960000,"departure":1522709961000,"zoneId":"NA","stopIndex":20,"stopSequence":21,"vertexType":"TRANSIT"},"legGeometry":{"points":"kwqfHjbwpLF_CkAOYCm@rRO\\WjGOfGCRK^KJMHQB_AMg@Gw`@eR}@g@u@Su@Ia@Ck@Dm@HwAf@c@VeAx@iAlAU^[d@eLtTsAvB_CvEuAnCmBlE}@|B_BvFoC`JCD}@hCo@~Aq@pAs@fA{BlCqH|Iq@Bq@Im@UGCUi@Wm@ScA_@gGSaE@_@@_@@ERoBFe@No@`@gAbCyFNe@Ha@He@Fg@Du@Dg@Hc@Pa@RW\\S`@QZEm@eHM}B?GGi@Is@Ou@Qw@Mo@Kw@ImAGoBAk@aALa@?YEUKc@Yc@_@KOIUGUEWAW?YBqAH_AXeC@IdB_Mh@_EJk@d@kDhAqI`AgHz@oGBU?UAWCWUwAWD]B]AUEoAc@kE}AOIq@g@g@u@]w@b@s@T[~CkFf@s@\\e@x@}@jAeAXQZStBaAh@]`@]`@i@l@kDF_@R{AFWFMPIPC`@BT@V?TAVKLENCLCJ@J@xAb@x@Zz@\\CP?R@N@NFLFF`GtBx@Xw@pG@l@B\\DXL\\RZDFXPf@N@v@Bp@Dr@l@~HNlAH\\","length":178},"routeShortName":"23","routeLongName":"Côte Verdun via Aréna du Plateau","rentedBike":false,"transitLeg":true,"duration":860.0,"steps":[]},{"startTime":1522709961000,"endTime":1522710079000,"departureDelay":0,"arrivalDelay":0,"realTime":false,"distance":149.97699999999998,"pathway":false,"mode":"WALK","route":"","agencyTimeZoneOffset":-14400000,"interlineWithPreviousLeg":false,"from":{"name":"Église St-Luc (boul. Tadoussac)","stopId":"1:830","stopCode":"830","lon":-71.059501,"lat":48.441464,"arrival":1522709960000,"departure":1522709961000,"zoneId":"NA","stopIndex":20,"stopSequence":21,"vertexType":"TRANSIT"},"to":{"name":"Destination","lon":-71.059971,"lat":48.442106,"arrival":1522710079000,"orig":"","vertexType":"NORMAL"},"legGeometry":{"points":"yetfHrxupLL`@BJQRQRKLGNI\\QbAuAe@","length":10},"rentedBike":false,"transitLeg":false,"duration":118.0,"steps":[{"distance":19.773,"relativeDirection":"DEPART","streetName":"Boulevard de Tadoussac","absoluteDirection":"SOUTHWEST","stayOn":false,"area":false,"bogusName":false,"lon":-71.05945543369864,"lat":48.44141337892131,"elevation":[]},{"distance":80.529,"relativeDirection":"RIGHT","streetName":"Rue Talon","absoluteDirection":"NORTHWEST","stayOn":false,"area":false,"bogusName":false,"lon":-71.0596842,"lat":48.441320700000006,"elevation":[]},{"distance":49.675,"relativeDirection":"RIGHT","streetName":"Rue du Régent","absoluteDirection":"NORTH","stayOn":false,"area":false,"bogusName":false,"lon":-71.0605235,"lat":48.441746900000005,"elevation":[]}]}],"tooSloped":false},{"duration":3562,"startTime":1522706555000,"endTime":1522710117000,"walkTime":1860,"transitTime":1700,"waitingTime":2,"walkDistance":2410.2331804439586,"walkLimitExceeded":false,"elevationLost":0.0,"elevationGained":0.0,"transfers":0,"legs":[{"startTime":1522706555000,"endTime":1522706919000,"departureDelay":0,"arrivalDelay":0,"realTime":false,"distance":466.385,"pathway":false,"mode":"WALK","route":"","agencyTimeZoneOffset":-14400000,"interlineWithPreviousLeg":false,"from":{"name":"Origin","lon":-71.092161,"lat":48.403558,"departure":1522706555000,"orig":"","vertexType":"NORMAL"},"to":{"name":"Malraux / Pagnol","stopId":"1:1978","stopCode":"1978","lon":-71.093388,"lat":48.400416,"arrival":1522706919000,"departure":1522706920000,"zoneId":"NA","stopIndex":29,"stopSequence":30,"vertexType":"TRANSIT"},"legGeometry":{"points":"sylfHze|pLdChCxAgD|@sBBEpBzBjFzF","length":7},"rentedBike":false,"transitLeg":false,"duration":364.0,"steps":[{"distance":89.922,"relativeDirection":"DEPART","streetName":"Rue Hémingway","absoluteDirection":"SOUTHWEST","stayOn":false,"area":false,"bogusName":false,"lon":-71.09229991431948,"lat":48.40362048652453,"elevation":[]},{"distance":137.37300000000002,"relativeDirection":"LEFT","streetName":"Rue Verlaine","absoluteDirection":"SOUTHEAST","stayOn":false,"area":false,"bogusName":false,"lon":-71.0929832,"lat":48.402951,"elevation":[]},{"distance":239.08999999999997,"relativeDirection":"RIGHT","streetName":"Rue Malraux","absoluteDirection":"SOUTHWEST","stayOn":false,"area":false,"bogusName":false,"lon":-71.0915317,"lat":48.402177900000005,"elevation":[]}]},{"startTime":1522706920000,"endTime":1522707060000,"departureDelay":0,"arrivalDelay":0,"realTime":false,"distance":1970.4615229267838,"pathway":false,"mode":"BUS","route":"14","agencyName":"Société de Transport du Saguenay","agencyUrl":"http://ville.saguenay.ca/fr/services-aux-citoyens/transport-sts","agencyTimeZoneOffset":-14400000,"routeColor":"C0C000","routeType":3,"routeId":"1:14","routeTextColor":"000000","interlineWithPreviousLeg":false,"tripBlockId":"30","headsign":"Talbot / Barrette","agencyId":"0","tripId":"1:218109","serviceDate":"20180402","from":{"name":"Malraux / Pagnol","stopId":"1:1978","stopCode":"1978","lon":-71.093388,"lat":48.400416,"arrival":1522706919000,"departure":1522706920000,"zoneId":"NA","stopIndex":29,"stopSequence":30,"vertexType":"TRANSIT"},"to":{"name":"Roitelets / Sapins","stopId":"1:1543","stopCode":"1543","lon":-71.069553,"lat":48.393375,"arrival":1522707060000,"departure":1522707060000,"zoneId":"NA","stopIndex":35,"stopSequence":36,"vertexType":"TRANSIT"},"legGeometry":{"points":"welfH`m|pLcFsF~CgOtGm[j@oCvEoSl@_CxCmLjAeFpCeKrByHfAqCvH_SLa@","length":14},"routeShortName":"14","routeLongName":"Coopérative","rentedBike":false,"transitLeg":true,"duration":140.0,"steps":[]},{"startTime":1522707060000,"endTime":1522708620000,"departureDelay":0,"arrivalDelay":0,"realTime":false,"distance":8950.042524689545,"pathway":false,"mode":"BUS","route":"15","agencyName":"Société de Transport du Saguenay","agencyUrl":"http://ville.saguenay.ca/fr/services-aux-citoyens/transport-sts","agencyTimeZoneOffset":-14400000,"routeColor":"FF00FF","routeType":3,"routeId":"1:15","routeTextColor":"FFFFFF","interlineWithPreviousLeg":true,"tripBlockId":"30","headsign":"Terminus Chicoutimi","agencyId":"0","tripId":"1:218110","serviceDate":"20180402","from":{"name":"Roitelets / Sapins","stopId":"1:1543","stopCode":"1543","lon":-71.069553,"lat":48.393375,"arrival":1522707060000,"departure":1522707060000,"zoneId":"NA","stopIndex":0,"stopSequence":1,"vertexType":"TRANSIT"},"to":{"name":"Sainte-Anne / Racine","stopId":"1:558","stopCode":"558","lon":-71.068444,"lat":48.427369,"arrival":1522708620000,"departure":1522708621000,"zoneId":"NA","stopIndex":38,"stopSequence":39,"vertexType":"TRANSIT"},"legGeometry":{"points":"_zjfHfwwpLx@}BHa@NaADq@@y@Cy@I{@Ka@O[Sg@c@mAWwAMyA?EC]?wABuABmFB{@BmDFuH@i@F[FsC@c@TuGEGVsHPuDLuBXsFDoA?W@]Cu@GcAKu@Q_ASo@a@y@a@o@MOUUeCqBiDsDqE{EiAcAcB_AqBgA_AQaBSaBG_@Bu@FG?h@fNKnDpCfBkAzDgA}@y@q@sDy@GAeGT~@~KKrKyAnL[hBUxAm@nCcAlDeCvGmA|CUr@}@~A_@\\_DvCEZcA|@UP_@d@Yl@oBdFeCxG_CfGYVQXS\\dK|HlFZbC\\p@zA\\rB@hBiArG{BNw@FiG}@iDwAECcCcBo@y@sEeGe@o@qAa@m@MoB?C@}BZwAc@oA_Bs@gDCKZ{Di@QECc@_@sAkAoBwB_EcE{A_BoAmAk@o@cCaCkIkIaJaJUUwBaCj@wCjAsCzGoG_CoHL{D_@kAqD{CQr@iAcAy@w@L{@wAuA_B_B_EpLDh@NbBVvCIxBg@`Am@l@Sb@a@rAqDqDmEkE]a@kAqAU|@WnKG|DGxDOdPKvJU|F?XQlJC~@ChAIzEcCO","length":168},"routeShortName":"15","routeLongName":"Term. Chic / Costco","rentedBike":false,"transitLeg":true,"duration":1560.0,"steps":[]},{"startTime":1522708621000,"endTime":1522710117000,"departureDelay":0,"arrivalDelay":0,"realTime":false,"distance":1943.626,"pathway":false,"mode":"WALK","route":"","agencyTimeZoneOffset":-14400000,"interlineWithPreviousLeg":false,"from":{"name":"Sainte-Anne / Racine","stopId":"1:558","stopCode":"558","lon":-71.068444,"lat":48.427369,"arrival":1522708620000,"departure":1522708621000,"zoneId":"NA","stopIndex":38,"stopSequence":39,"vertexType":"TRANSIT"},"to":{"name":"Destination","lon":-71.059971,"lat":48.442106,"arrival":1522710117000,"orig":"","vertexType":"NORMAL"},"legGeometry":{"points":"anqfHhqwpLGAg@C}AKsAE[AeAGiAGSASCIKQ?kACE?e]uBQuBMBwAcLy@eGgA_CyB}BiAi@cFcBoDmAiA_@CAeC{@{Ao@Mj@AFEDGBKCcD_AuAe@","length":35},"alerts":[{"alertHeaderText":"Unpaved surface"}],"rentedBike":false,"transitLeg":false,"duration":1496.0,"steps":[{"distance":244.913,"relativeDirection":"DEPART","streetName":"Rue Sainte-Anne","absoluteDirection":"NORTH","stayOn":false,"area":false,"bogusName":false,"lon":-71.06852127104082,"lat":48.427371387668245,"elevation":[]},{"distance":59.134,"relativeDirection":"CONTINUE","streetName":"path","absoluteDirection":"NORTH","stayOn":false,"area":false,"bogusName":true,"lon":-71.06828730000001,"lat":48.4295678,"elevation":[]},{"distance":542.29,"relativeDirection":"CONTINUE","streetName":"Pont de Sainte-Anne","absoluteDirection":"NORTH","stayOn":false,"area":false,"bogusName":false,"lon":-71.06820450000001,"lat":48.430080800000006,"elevation":[]},{"distance":52.638,"relativeDirection":"RIGHT","streetName":"bike path","absoluteDirection":"EAST","stayOn":false,"area":false,"bogusName":true,"lon":-71.0676151,"lat":48.434942,"elevation":[]},{"distance":863.8989999999999,"relativeDirection":"RIGHT","streetName":"Boulevard de Tadoussac","absoluteDirection":"EAST","stayOn":false,"area":false,"bogusName":false,"lon":-71.0670497,"lat":48.4351063,"elevation":[]},{"distance":180.752,"relativeDirection":"LEFT","streetName":"Rue du Régent","absoluteDirection":"NORTHWEST","stayOn":false,"area":false,"bogusName":false,"lon":-71.06055090000001,"lat":48.4407152,"elevation":[],"alerts":[{"alertHeaderText":"Unpaved surface"}]}]}],"tooSloped":false},{"duration":2876,"startTime":1522707513000,"endTime":1522710389000,"walkTime":2230,"transitTime":644,"waitingTime":2,"walkDistance":2889.414721793582,"walkLimitExceeded":false,"elevationLost":0.0,"elevationGained":0.0,"transfers":0,"legs":[{"startTime":1522707513000,"endTime":1522708215000,"departureDelay":0,"arrivalDelay":0,"realTime":false,"distance":912.688,"pathway":false,"mode":"WALK","route":"","agencyTimeZoneOffset":-14400000,"interlineWithPreviousLeg":false,"from":{"name":"Origin","lon":-71.092161,"lat":48.403558,"departure":1522707513000,"orig":"","vertexType":"NORMAL"},"to":{"name":"boul. Saint-Paul (no. 1323)","stopId":"1:1887","stopCode":"1887","lon":-71.092041,"lat":48.408118,"arrival":1522708215000,"departure":1522708216000,"zoneId":"NA","stopIndex":16,"stopSequence":17,"vertexType":"TRANSIT"},"legGeometry":{"points":"sylfHze|pLi@i@m@YcANm@YcAy@a@Ya@c@s@a@iA}AZuA?uAa@eBC}Ay@`@_Bh@\\~CClAWfBOt@kAvCyAtDOUo@_Ag@u@","length":25},"rentedBike":false,"transitLeg":false,"duration":702.0,"steps":[{"distance":438.563,"relativeDirection":"DEPART","streetName":"Rue Hémingway","absoluteDirection":"NORTHEAST","stayOn":false,"area":false,"bogusName":false,"lon":-71.09229991431948,"lat":48.40362048652453,"elevation":[]},{"distance":89.92,"relativeDirection":"LEFT","streetName":"Rue Grimm","absoluteDirection":"NORTH","stayOn":false,"area":false,"bogusName":false,"lon":-71.088829,"lat":48.4059972,"elevation":[]},{"distance":306.632,"relativeDirection":"LEFT","streetName":"Rue Descartes","absoluteDirection":"WEST","stayOn":false,"area":false,"bogusName":false,"lon":-71.0892082,"lat":48.4067652,"elevation":[]},{"distance":77.57300000000001,"relativeDirection":"RIGHT","streetName":"Boulevard Saint-Paul","absoluteDirection":"NORTHEAST","stayOn":false,"area":false,"bogusName":false,"lon":-71.0928554,"lat":48.4076662,"elevation":[]}]},{"startTime":1522708216000,"endTime":1522708860000,"departureDelay":0,"arrivalDelay":0,"realTime":false,"distance":3490.946474826793,"pathway":false,"mode":"BUS","route":"11","agencyName":"Société de Transport du Saguenay","agencyUrl":"http://ville.saguenay.ca/fr/services-aux-citoyens/transport-sts","agencyTimeZoneOffset":-14400000,"routeColor":"FF0000","routeType":3,"routeId":"1:11","routeTextColor":"FFFFFF","interlineWithPreviousLeg":false,"tripBlockId":"35","headsign":"Terminus Chicoutimi","agencyId":"0","tripId":"1:218265","serviceDate":"20180402","from":{"name":"boul. Saint-Paul (no. 1323)","stopId":"1:1887","stopCode":"1887","lon":-71.092041,"lat":48.408118,"arrival":1522708215000,"departure":1522708216000,"zoneId":"NA","stopIndex":16,"stopSequence":17,"vertexType":"TRANSIT"},"to":{"name":"Terminus Chicoutimi","stopId":"1:1289","stopCode":"1289","lon":-71.066163,"lat":48.428677,"arrival":1522708860000,"departure":1522708861000,"zoneId":"NA","stopIndex":30,"stopSequence":31,"vertexType":"TRANSIT"},"legGeometry":{"points":"avmfHxd|pLyI{MmBqC{@wAQUw@gAsDiF_B_CQYa@cA[_AUy@YcBOgAYHu@\\M`@cAiBuAyBkHgL{C{E}AcCc@o@q@gAOWwCyCyGyG_IaIs@rBEHwAtDmBvEOd@[bBK~AIf@YHE@Q@O?OCI_@GMEKI_AB_A?Yo@IKCIEIIKOEKCKe@}BKs@CQAUE_A@yCFcDVsLDaCD_@kBKW?e@Q_BQNuEDuBXmNLgHmKm@}BW{AMCn@o@G??","length":78},"routeShortName":"11","routeLongName":"Chic/Faubourg via St-Paul","rentedBike":false,"transitLeg":true,"duration":644.0,"steps":[]},{"startTime":1522708861000,"endTime":1522710389000,"departureDelay":0,"arrivalDelay":0,"realTime":false,"distance":1976.388,"pathway":false,"mode":"WALK","route":"","agencyTimeZoneOffset":-14400000,"interlineWithPreviousLeg":false,"from":{"name":"Terminus Chicoutimi","stopId":"1:1289","stopCode":"1289","lon":-71.066163,"lat":48.428677,"arrival":1522708860000,"departure":1522708861000,"zoneId":"NA","stopIndex":30,"stopSequence":31,"vertexType":"TRANSIT"},"to":{"name":"Destination","lon":-71.059971,"lat":48.442106,"arrival":1522710389000,"orig":"","vertexType":"NORMAL"},"legGeometry":{"points":"{uqfHb~vpL_BMOAa@CILKJ[TaAn@@FDX?\\CTEb@GHCb@C|@ALEDCBCr@DBBBElBEp@e]uBQuBMBwAcLy@eGgA_CyB}BiAi@cFcBoDmAiA_@CAeC{@{Ao@Mj@AFEDGBKCcD_AuAe@","length":45},"alerts":[{"alertHeaderText":"Unpaved surface"}],"rentedBike":false,"transitLeg":false,"duration":1528.0,"steps":[{"distance":81.079,"relativeDirection":"DEPART","streetName":"Rue Morin","absoluteDirection":"NORTH","stayOn":false,"area":false,"bogusName":false,"lon":-71.0654590096484,"lat":48.428628638946556,"elevation":[]},{"distance":259.336,"relativeDirection":"LEFT","streetName":"path","absoluteDirection":"NORTHWEST","stayOn":false,"area":false,"bogusName":true,"lon":-71.0653539,"lat":48.4293544,"elevation":[]},{"distance":538.684,"relativeDirection":"RIGHT","streetName":"Pont de Sainte-Anne","absoluteDirection":"NORTH","stayOn":false,"area":false,"bogusName":false,"lon":-71.0682024,"lat":48.4301132,"elevation":[]},{"distance":52.638,"relativeDirection":"RIGHT","streetName":"bike path","absoluteDirection":"EAST","stayOn":false,"area":false,"bogusName":true,"lon":-71.0676151,"lat":48.434942,"elevation":[]},{"distance":863.8989999999999,"relativeDirection":"RIGHT","streetName":"Boulevard de Tadoussac","absoluteDirection":"EAST","stayOn":false,"area":false,"bogusName":false,"lon":-71.0670497,"lat":48.4351063,"elevation":[]},{"distance":180.752,"relativeDirection":"LEFT","streetName":"Rue du Régent","absoluteDirection":"NORTHWEST","stayOn":false,"area":false,"bogusName":false,"lon":-71.06055090000001,"lat":48.4407152,"elevation":[],"alerts":[{"alertHeaderText":"Unpaved surface"}]}]}],"tooSloped":false}]},"debugOutput":{"precalculationTime":16,"pathCalculationTime":38,"pathTimes":[20,10,8],"renderingTime":0,"totalTime":54,"timedOut":false},"elevationMetadata":{"ellipsoidToGeoidDifference":-28.885904201182168,"geoidElevation":false}}