{"requestParameters":{"date":"2018/04/02","walkSpeed":"1.33","walkReluctance":"2.0","fromPlace":"48.404079,-71.092221","maxWalkDistance":"3000","waitReluctance":"1.0","carSpeed":"33","numItineraries":"3","waitAtBeginningFactor":"0.4","mode":"TRANSIT,WALK","ignoreRealtimeUpdates":"false","stairsReluctance":"2.0","toPlace":"48.427526,-71.04871199","time":"7:0:00"},"plan":{"date":1522666800000,"from":{"name":"Origin","lon":-71.092221,"lat":48.404079,"orig":"","vertexType":"NORMAL"},"to":{"name":"Destination","lon":-71.04871199,"lat":48.427526,"orig":"","vertexType":"NORMAL"},"itineraries":[{"duration":1889,"startTime":1522666934000,"endTime":1522668823000,"walkTime":698,"transitTime":1189,"waitingTime":2,"walkDistance":886.1191428520723,"walkLimitExceeded":false,"elevationLost":0.0,"elevationGained":0.0,"transfers":0,"legs":[{"startTime":1522666934000,"endTime":1522667244000,"departureDelay":0,"arrivalDelay":0,"realTime":false,"distance":390.421,"pathway":false,"mode":"WALK","route":"","agencyTimeZoneOffset":-14400000,"interlineWithPreviousLeg":false,"from":{"name":"Origin","lon":-71.092221,"lat":48.404079,"departure":1522666934000,"orig":"","vertexType":"NORMAL"},"to":{"name":"boul. Barrette / Malraux","stopId":"1:43","stopCode":"43","lon":-71.092598,"lat":48.401718,"arrival":1522667244000,"departure":1522667245000,"zoneId":"NA","stopIndex":1,"stopSequence":2,"vertexType":"TRANSIT"},"legGeometry":{"points":"a|lfHzc|pLb@TnDrDxAgD|@sBBEpBzBa@jA","length":8},"rentedBike":false,"transitLeg":false,"duration":310.0,"steps":[{"distance":140.496,"relativeDirection":"DEPART","streetName":"Rue Hémingway","absoluteDirection":"SOUTH","stayOn":false,"area":false,"bogusName":false,"lon":-71.09197770654596,"lat":48.40401833261645,"elevation":[]},{"distance":137.37300000000002,"relativeDirection":"LEFT","streetName":"Rue Verlaine","absoluteDirection":"SOUTHEAST","stayOn":false,"area":false,"bogusName":false,"lon":-71.0929832,"lat":48.402951,"elevation":[]},{"distance":78.789,"relativeDirection":"RIGHT","streetName":"Rue Malraux","absoluteDirection":"SOUTHWEST","stayOn":false,"area":false,"bogusName":false,"lon":-71.0915317,"lat":48.402177900000005,"elevation":[]},{"distance":33.763,"relativeDirection":"RIGHT","streetName":"Boulevard Barrette","absoluteDirection":"NORTHWEST","stayOn":false,"area":false,"bogusName":false,"lon":-71.0921587,"lat":48.401604500000005,"elevation":[]}]},{"startTime":1522667245000,"endTime":1522668434000,"departureDelay":0,"arrivalDelay":0,"realTime":false,"distance":9234.264331366308,"pathway":false,"mode":"BUS","route":"105S","agencyName":"Société de Transport du Saguenay","agencyUrl":"http://ville.saguenay.ca/fr/services-aux-citoyens/transport-sts","agencyTimeZoneOffset":-14400000,"routeColor":"8B0000","routeType":3,"routeId":"1:105S","routeTextColor":"FFFFFF","interlineWithPreviousLeg":false,"tripBlockId":"39","headsign":"Terminus Chicoutimi","agencyId":"0","tripId":"1:218335","serviceDate":"20180402","from":{"name":"boul. Barrette / Malraux","stopId":"1:43","stopCode":"43","lon":-71.092598,"lat":48.401718,"arrival":1522667244000,"departure":1522667245000,"zoneId":"NA","stopIndex":1,"stopSequence":2,"vertexType":"TRANSIT"},"to":{"name":"Bégin / Jacques-Cartier","stopId":"1:561","stopCode":"561","lon":-71.05511,"lat":48.425555,"arrival":1522668434000,"departure":1522668435000,"zoneId":"NA","stopIndex":42,"stopSequence":43,"vertexType":"TRANSIT"},"legGeometry":{"points":"anlfHjg|pLZ{@`@aAr@mCjAkGLk@lFyWb@uB|B}KtD}N`DgMtEqQpBwHfAuCbCoG~BgGv@sBHUBGHm@\\_A^kCF{BKcAcBsFU}B?IG_EJaN@cAVmN@c@\\kJNaEPuDFaADs@XsFDoA?W@]Cu@GcAKu@Q_ASo@a@y@a@o@MOUUeCqBiDsDqE{EiAcAcB_AqBgA_AQaBSaBG_@Bu@FgAPo@NUFw@XkEfBoEjBzAfKDXXtCVGxA[zAGd@@TBn@H`ATv@^x@f@@@fAdAhBpBnBpB@@fCnCV\\Vb@^l@W\\Ul@_AfCwC`ISf@YhAUp@CHkCvGg@lAgBuBmAkAo@s@[c@_@o@Wk@KWS[e@g@c@]e@We@KSEi@bDUxAm@nCcAlDeCvGmA|CUr@}@~A_@\\_DvCEZcA|@UP_@d@Yl@oBdFeCxG_CfGo@h@CBIDQHY@S@SLuBH_DDe@Eq@Sk@][YMIUOe@Uu@Q_@C{BEw@Ge@Uc@_@sAkAoBwB_EcE{A_BoAmAk@o@cCaCkIkIaJaJUUiCwCw@q@aD_D}MyMmEkE]a@","length":167},"routeShortName":"105S","routeLongName":"Terminus Chicoutimi via Bégin","rentedBike":false,"transitLeg":true,"duration":1189.0,"steps":[]},{"startTime":1522668435000,"endTime":1522668823000,"departureDelay":0,"arrivalDelay":0,"realTime":false,"distance":495.54100000000005,"pathway":false,"mode":"WALK","route":"","agencyTimeZoneOffset":-14400000,"interlineWithPreviousLeg":false,"from":{"name":"Bégin / Jacques-Cartier","stopId":"1:561","stopCode":"561","lon":-71.05511,"lat":48.425555,"arrival":1522668434000,"departure":1522668435000,"zoneId":"NA","stopIndex":42,"stopSequence":43,"vertexType":"TRANSIT"},"to":{"name":"Destination","lon":-71.04871199,"lat":48.427526,"arrival":1522668823000,"orig":"","vertexType":"NORMAL"},"legGeometry":{"points":"ybqfHv}tpLa@a@q@q@{@s@[Wi@a@aA}@CCyAuAAkBEsF@sA@wEBKHC","length":15},"rentedBike":false,"transitLeg":false,"duration":388.0,"steps":[{"distance":244.06799999999998,"relativeDirection":"DEPART","streetName":"Rue Bégin","absoluteDirection":"NORTHEAST","stayOn":false,"area":false,"bogusName":false,"lon":-71.05515571766598,"lat":48.425575326522214,"elevation":[]},{"distance":245.608,"relativeDirection":"RIGHT","streetName":"Rue de l'Hôtel-Dieu","absoluteDirection":"EAST","stayOn":false,"area":false,"bogusName":false,"lon":-71.0534231,"lat":48.4274435,"elevation":[]},{"distance":5.865,"relativeDirection":"RIGHT","streetName":"Rue Saint-Vallier","absoluteDirection":"SOUTH","stayOn":false,"area":false,"bogusName":false,"lon":-71.0501002,"lat":48.4274445,"elevation":[]}]}],"tooSloped":false},{"duration":2292,"startTime":1522666917000,"endTime":1522669209000,"walkTime":790,"transitTime":1500,"waitingTime":2,"walkDistance":1012.6240601463728,"walkLimitExceeded":false,"elevationLost":0.0,"elevationGained":0.0,"transfers":0,"legs":[{"startTime":1522666917000,"endTime":1522667319000,"departureDelay":0,"arrivalDelay":0,"realTime":false,"distance":516.9590000000001,"pathway":false,"mode":"WALK","route":"","agencyTimeZoneOffset":-14400000,"interlineWithPreviousLeg":false,"from":{"name":"Origin","lon":-71.092221,"lat":48.404079,"departure":1522666917000,"orig":"","vertexType":"NORMAL"},"to":{"name":"Malraux / Pagnol","stopId":"1:1978","stopCode":"1978","lon":-71.093388,"lat":48.400416,"arrival":1522667319000,"departure":1522667320000,"zoneId":"NA","stopIndex":29,"stopSequence":30,"vertexType":"TRANSIT"},"legGeometry":{"points":"a|lfHzc|pLb@TnDrDxAgD|@sBBEpBzBjFzF","length":8},"rentedBike":false,"transitLeg":false,"duration":402.0,"steps":[{"distance":140.496,"relativeDirection":"DEPART","streetName":"Rue Hémingway","absoluteDirection":"SOUTH","stayOn":false,"area":false,"bogusName":false,"lon":-71.09197770654596,"lat":48.40401833261645,"elevation":[]},{"distance":137.37300000000002,"relativeDirection":"LEFT","streetName":"Rue Verlaine","absoluteDirection":"SOUTHEAST","stayOn":false,"area":false,"bogusName":false,"lon":-71.0929832,"lat":48.402951,"elevation":[]},{"distance":239.08999999999997,"relativeDirection":"RIGHT","streetName":"Rue Malraux","absoluteDirection":"SOUTHWEST","stayOn":false,"area":false,"bogusName":false,"lon":-71.0915317,"lat":48.402177900000005,"elevation":[]}]},{"startTime":1522667320000,"endTime":1522667460000,"departureDelay":0,"arrivalDelay":0,"realTime":false,"distance":1970.4615229267838,"pathway":false,"mode":"BUS","route":"14","agencyName":"Société de Transport du Saguenay","agencyUrl":"http://ville.saguenay.ca/fr/services-aux-citoyens/transport-sts","agencyTimeZoneOffset":-14400000,"routeColor":"C0C000","routeType":3,"routeId":"1:14","routeTextColor":"000000","interlineWithPreviousLeg":false,"tripBlockId":"30","headsign":"Talbot / Barrette","agencyId":"0","tripId":"1:218087","serviceDate":"20180402","from":{"name":"Malraux / Pagnol","stopId":"1:1978","stopCode":"1978","lon":-71.093388,"lat":48.400416,"arrival":1522667319000,"departure":1522667320000,"zoneId":"NA","stopIndex":29,"stopSequence":30,"vertexType":"TRANSIT"},"to":{"name":"Roitelets / Sapins","stopId":"1:1543","stopCode":"1543","lon":-71.069553,"lat":48.393375,"arrival":1522667460000,"departure":1522667460000,"zoneId":"NA","stopIndex":35,"stopSequence":36,"vertexType":"TRANSIT"},"legGeometry":{"points":"welfH`m|pLcFsF~CgOtGm[j@oCvEoSl@_CxCmLjAeFpCeKrByHfAqCvH_SLa@","length":14},"routeShortName":"14","routeLongName":"Coopérative","rentedBike":false,"transitLeg":true,"duration":140.0,"steps":[]},{"startTime":1522667460000,"endTime":1522668820000,"departureDelay":0,"arrivalDelay":0,"realTime":false,"distance":7918.851495586589,"pathway":false,"mode":"BUS","route":"15","agencyName":"Société de Transport du Saguenay","agencyUrl":"http://ville.saguenay.ca/fr/services-aux-citoyens/transport-sts","agencyTimeZoneOffset":-14400000,"routeColor":"FF00FF","routeType":3,"routeId":"1:15","routeTextColor":"FFFFFF","interlineWithPreviousLeg":true,"tripBlockId":"30","headsign":"Terminus Chicoutimi","agencyId":"0","tripId":"1:218088","serviceDate":"20180402","from":{"name":"Roitelets / Sapins","stopId":"1:1543","stopCode":"1543","lon":-71.069553,"lat":48.393375,"arrival":1522667460000,"departure":1522667460000,"zoneId":"NA","stopIndex":0,"stopSequence":1,"vertexType":"TRANSIT"},"to":{"name":"Bégin / Jacques-Cartier","stopId":"1:561","stopCode":"561","lon":-71.05511,"lat":48.425555,"arrival":1522668820000,"departure":1522668821000,"zoneId":"NA","stopIndex":33,"stopSequence":34,"vertexType":"TRANSIT"},"legGeometry":{"points":"_zjfHfwwpLx@}BHa@NaADq@@y@Cy@I{@Ka@O[Sg@c@mAWwAMyA?EC]?wABuABmFB{@BmDFuH@i@F[FsC@c@TuGEGVsHPuDLuBXsFDoA?W@]Cu@GcAKu@Q_ASo@a@y@a@o@MOUUeCqBiDsDqE{EiAcAcB_AqBgA_AQaBSaBG_@Bu@FG?h@fNKnDpCfBkAzDgA}@y@q@sDy@GAeGT~@~KKrKyAnL[hBUxAm@nCcAlDeCvGmA|CUr@}@~A_@\\_DvCEZcA|@UP_@d@Yl@oBdFeCxG_CfGYVQXS\\dK|HlFZbC\\p@zA\\rB@hBiArG{BNw@FiG}@iDwAECcCcBo@y@sEeGe@o@qAa@m@MoB?C@}BZwAc@oA_Bs@gDCKZ{Di@QECc@_@sAkAoBwB_EcE{A_BoAmAk@o@cCaCkIkIaJaJUUwBaCj@wCjAsCzGoG_CoHL{D_@kAqD{CQr@iAcAy@w@L{@wAuA_B_B_EpLDh@NbBVvCIxBg@`Am@l@Sb@a@rAqDqDmEkE]a@","length":154},"routeShortName":"15","routeLongName":"Term. Chic / Costco","rentedBike":false,"transitLeg":true,"duration":1360.0,"steps":[]},{"startTime":1522668821000,"endTime":1522669209000,"departureDelay":0,"arrivalDelay":0,"realTime":false,"distance":495.54100000000005,"pathway":false,"mode":"WALK","route":"","agencyTimeZoneOffset":-14400000,"interlineWithPreviousLeg":false,"from":{"name":"Bégin / Jacques-Cartier","stopId":"1:561","stopCode":"561","lon":-71.05511,"lat":48.425555,"arrival":1522668820000,"departure":1522668821000,"zoneId":"NA","stopIndex":33,"stopSequence":34,"vertexType":"TRANSIT"},"to":{"name":"Destination","lon":-71.04871199,"lat":48.427526,"arrival":1522669209000,"orig":"","vertexType":"NORMAL"},"legGeometry":{"points":"ybqfHv}tpLa@a@q@q@{@s@[Wi@a@aA}@CCyAuAAkBEsF@sA@wEBKHC","length":15},"rentedBike":false,"transitLeg":false,"duration":388.0,"steps":[{"distance":244.06799999999998,"relativeDirection":"DEPART","streetName":"Rue Bégin","absoluteDirection":"NORTHEAST","stayOn":false,"area":false,"bogusName":false,"lon":-71.05515571766598,"lat":48.425575326522214,"elevation":[]},{"distance":245.608,"relativeDirection":"RIGHT","streetName":"Rue de l'Hôtel-Dieu","absoluteDirection":"EAST","stayOn":false,"area":false,"bogusName":false,"lon":-71.0534231,"lat":48.4274435,"elevation":[]},{"distance":5.865,"relativeDirection":"RIGHT","streetName":"Rue Saint-Vallier","absoluteDirection":"SOUTH","stayOn":false,"area":false,"bogusName":false,"lon":-71.0501002,"lat":48.4274445,"elevation":[]}]}],"tooSloped":false},{"duration":1975,"startTime":1522667259000,"endTime":1522669234000,"walkTime":794,"transitTime":1179,"waitingTime":2,"walkDistance":1017.1300601463728,"walkLimitExceeded":false,"elevationLost":0.0,"elevationGained":0.0,"transfers":0,"legs":[{"startTime":1522667259000,"endTime":1522667665000,"departureDelay":0,"arrivalDelay":0,"realTime":false,"distance":521.465,"pathway":false,"mode":"WALK","route":"","agencyTimeZoneOffset":-14400000,"interlineWithPreviousLeg":false,"from":{"name":"Origin","lon":-71.092221,"lat":48.404079,"departure":1522667259000,"orig":"","vertexType":"NORMAL"},"to":{"name":"Malraux / Pagnol","stopId":"1:441","stopCode":"441","lon":-71.09356,"lat":48.400447,"arrival":1522667665000,"departure":1522667666000,"zoneId":"NA","stopIndex":6,"stopSequence":7,"vertexType":"TRANSIT"},"legGeometry":{"points":"a|lfHzc|pLb@TnDrDxAgD|@sBBEpBzBjFzFDD","length":9},"rentedBike":false,"transitLeg":false,"duration":406.0,"steps":[{"distance":140.496,"relativeDirection":"DEPART","streetName":"Rue Hémingway","absoluteDirection":"SOUTH","stayOn":false,"area":false,"bogusName":false,"lon":-71.09197770654596,"lat":48.40401833261645,"elevation":[]},{"distance":137.37300000000002,"relativeDirection":"LEFT","streetName":"Rue Verlaine","absoluteDirection":"SOUTHEAST","stayOn":false,"area":false,"bogusName":false,"lon":-71.0929832,"lat":48.402951,"elevation":[]},{"distance":243.59599999999998,"relativeDirection":"RIGHT","streetName":"Rue Malraux","absoluteDirection":"SOUTHWEST","stayOn":false,"area":false,"bogusName":false,"lon":-71.0915317,"lat":48.402177900000005,"elevation":[]}]},{"startTime":1522667666000,"endTime":1522668845000,"departureDelay":0,"arrivalDelay":0,"realTime":false,"distance":6626.2888426434265,"pathway":false,"mode":"BUS","route":"14","agencyName":"Société de Transport du Saguenay","agencyUrl":"http://ville.saguenay.ca/fr/services-aux-citoyens/transport-sts","agencyTimeZoneOffset":-14400000,"routeColor":"C0C000","routeType":3,"routeId":"1:14","routeTextColor":"000000","interlineWithPreviousLeg":false,"tripBlockId":"31","headsign":"Terminus Chicoutimi","agencyId":"0","tripId":"1:218123","serviceDate":"20180402","from":{"name":"Malraux / Pagnol","stopId":"1:441","stopCode":"441","lon":-71.09356,"lat":48.400447,"arrival":1522667665000,"departure":1522667666000,"zoneId":"NA","stopIndex":6,"stopSequence":7,"vertexType":"TRANSIT"},"to":{"name":"Bégin / Jacques-Cartier","stopId":"1:561","stopCode":"561","lon":-71.05511,"lat":48.425555,"arrival":1522668845000,"departure":1522668846000,"zoneId":"NA","stopIndex":33,"stopSequence":34,"vertexType":"TRANSIT"},"legGeometry":{"points":"melfHbm|pLhCtCdDY|F_On@aB`B_GNoBvAyT|@sNuAyAuF}F}AaB_BkAC@qC\\gAWiBwBiKgMiCwEgEyHCGy@uB}@rAa@nAc@lFEf@mGvUYfAqCs@ICMCqFmDc@s@mAkBuEoESUgAhDiAfD}@zDyAcA_@Um@U{AWgB_Au@s@EEsBkCqFgF{IiI][aBhE}@}@oBmBwE{EwE{Ej@mBZeAa@SyEQg@CPcALuCx@{b@t@{[XoDd@sBl@iB~@gA`G{F{A{D_@sBFqDOq@iG{FGIoCkCgBgBsDpLHzBBT`@~COnBQf@gAjAg@bBuDmDmFgF","length":87},"routeShortName":"14","routeLongName":"Coopérative","rentedBike":false,"transitLeg":true,"duration":1179.0,"steps":[]},{"startTime":1522668846000,"endTime":1522669234000,"departureDelay":0,"arrivalDelay":0,"realTime":false,"distance":495.54100000000005,"pathway":false,"mode":"WALK","route":"","agencyTimeZoneOffset":-14400000,"interlineWithPreviousLeg":false,"from":{"name":"Bégin / Jacques-Cartier","stopId":"1:561","stopCode":"561","lon":-71.05511,"lat":48.425555,"arrival":1522668845000,"departure":1522668846000,"zoneId":"NA","stopIndex":33,"stopSequence":34,"vertexType":"TRANSIT"},"to":{"name":"Destination","lon":-71.04871199,"lat":48.427526,"arrival":1522669234000,"orig":"","vertexType":"NORMAL"},"legGeometry":{"points":"ybqfHv}tpLa@a@q@q@{@s@[Wi@a@aA}@CCyAuAAkBEsF@sA@wEBKHC","length":15},"rentedBike":false,"transitLeg":false,"duration":388.0,"steps":[{"distance":244.06799999999998,"relativeDirection":"DEPART","streetName":"Rue Bégin","absoluteDirection":"NORTHEAST","stayOn":false,"area":false,"bogusName":false,"lon":-71.05515571766598,"lat":48.425575326522214,"elevation":[]},{"distance":245.608,"relativeDirection":"RIGHT","streetName":"Rue de l'Hôtel-Dieu","absoluteDirection":"EAST","stayOn":false,"area":false,"bogusName":false,"lon":-71.0534231,"lat":48.4274435,"elevation":[]},{"distance":5.865,"relativeDirection":"RIGHT","streetName":"Rue Saint-Vallier","absoluteDirection":"SOUTH","stayOn":false,"area":false,"bogusName":false,"lon":-71.0501002,"lat":48.4274445,"elevation":[]}]}],"tooSloped":false}]},"debugOutput":{"precalculationTime":24,"pathCalculationTime":21,"pathTimes":[15,3,3],"renderingTime":1,"totalTime":46,"timedOut":false},"elevationMetadata":{"ellipsoidToGeoidDifference":-28.885904201182168,"geoidElevation":false}}