{"requestParameters":{"date":"2018/04/02","walkSpeed":"1.33","walkReluctance":"2.0","fromPlace":"48.398934,-71.11803899","maxWalkDistance":"3000","waitReluctance":"1.0","carSpeed":"33","numItineraries":"3","waitAtBeginningFactor":"0.4","mode":"TRANSIT,WALK","ignoreRealtimeUpdates":"false","stairsReluctance":"2.0","toPlace":"48.401284,-71.090109","time":"12:0:00"},"plan":{"date":1522684800000,"from":{"name":"Origin","lon":-71.11803899,"lat":48.398934,"orig":"","vertexType":"NORMAL"},"to":{"name":"Destination","lon":-71.090109,"lat":48.401284,"orig":"","vertexType":"NORMAL"},"itineraries":[{"duration":1878,"startTime":1522684836000,"endTime":1522686714000,"walkTime":1786,"transitTime":90,"waitingTime":2,"walkDistance":2318.050939845561,"walkLimitExceeded":false,"elevationLost":0.0,"elevationGained":0.0,"transfers":0,"legs":[{"startTime":1522684836000,"endTime":1522685041000,"departureDelay":0,"arrivalDelay":0,"realTime":false,"distance":271.335,"pathway":false,"mode":"WALK","route":"","agencyTimeZoneOffset":-14400000,"interlineWithPreviousLeg":false,"from":{"name":"Origin","lon":-71.11803899,"lat":48.398934,"departure":1522684836000,"orig":"","vertexType":"NORMAL"},"to":{"name":"Bersimis / Grande","stopId":"1:482","stopCode":"482","lon":-71.122184,"lat":48.39885,"arrival":1522685041000,"departure":1522685042000,"zoneId":"NA","stopIndex":23,"stopSequence":24,"vertexType":"TRANSIT"},"legGeometry":{"points":"sukfHrkaqLuEtS","length":2},"rentedBike":false,"transitLeg":false,"duration":205.0,"steps":[{"distance":271.335,"relativeDirection":"DEPART","streetName":"Rue Bersimis","absoluteDirection":"NORTHWEST","stayOn":false,"area":false,"bogusName":false,"lon":-71.11881614731773,"lat":48.39786875656839,"elevation":[]}]},{"startTime":1522685042000,"endTime":1522685132000,"departureDelay":0,"arrivalDelay":0,"realTime":false,"distance":1113.53055963762,"pathway":false,"mode":"BUS","route":"11","agencyName":"Société de Transport du Saguenay","agencyUrl":"http://ville.saguenay.ca/fr/services-aux-citoyens/transport-sts","agencyTimeZoneOffset":-14400000,"routeColor":"FF0000","routeType":3,"routeId":"1:11","routeTextColor":"FFFFFF","interlineWithPreviousLeg":false,"tripBlockId":"35","headsign":"Boul.Royaume/St-Pierre","agencyId":"0","tripId":"1:218252","serviceDate":"20180402","from":{"name":"Bersimis / Grande","stopId":"1:482","stopCode":"482","lon":-71.122184,"lat":48.39885,"arrival":1522685041000,"departure":1522685042000,"zoneId":"NA","stopIndex":23,"stopSequence":24,"vertexType":"TRANSIT"},"to":{"name":"Bersimis / boul. St-Paul","stopId":"1:1625","stopCode":"1625","lon":-71.108501,"lat":48.39464,"arrival":1522685132000,"departure":1522685133000,"zoneId":"NA","stopIndex":25,"stopSequence":26,"vertexType":"TRANSIT"},"legGeometry":{"points":"k|kfH~_bqL@CnNco@vE}Sh@kCb@oCXyBTuAFS","length":9},"routeShortName":"11","routeLongName":"Chic/Faubourg via St-Paul","rentedBike":false,"transitLeg":true,"duration":90.0,"steps":[]},{"startTime":1522685133000,"endTime":1522686714000,"departureDelay":0,"arrivalDelay":0,"realTime":false,"distance":2046.59,"pathway":false,"mode":"WALK","route":"","agencyTimeZoneOffset":-14400000,"interlineWithPreviousLeg":false,"from":{"name":"Bersimis / boul. St-Paul","stopId":"1:1625","stopCode":"1625","lon":-71.108501,"lat":48.39464,"arrival":1522685132000,"departure":1522685133000,"zoneId":"NA","stopIndex":25,"stopSequence":26,"vertexType":"TRANSIT"},"to":{"name":"Destination","lon":-71.090109,"lat":48.401284,"arrival":1522686714000,"orig":"","vertexType":"NORMAL"},"legGeometry":{"points":"wakfH|j_qLl@oBDSQSwEiFOe@}CoD{@cAaCiC_@a@w@_ACECCkBsBIKSWgFaGCEQSOQe@i@GGyAeBwAcBiAoAg@m@MOwAaBIKg@k@_AeA{@eAg@i@cAkAqA_BrCsHFQx@uBzEwM@?`@kAqB{B`AqCdAyCBI","length":45},"rentedBike":false,"transitLeg":false,"duration":1581.0,"steps":[{"distance":56.607,"relativeDirection":"DEPART","streetName":"Rue Bersimis","absoluteDirection":"SOUTHEAST","stayOn":false,"area":false,"bogusName":false,"lon":-71.10846343735429,"lat":48.394681680442105,"elevation":[]},{"distance":1323.056,"relativeDirection":"LEFT","streetName":"Boulevard Saint-Paul","absoluteDirection":"NORTHEAST","stayOn":false,"area":false,"bogusName":false,"lon":-71.1078057,"lat":48.394420100000005,"elevation":[]},{"distance":449.30899999999997,"relativeDirection":"RIGHT","streetName":"Boulevard Barrette","absoluteDirection":"SOUTHEAST","stayOn":false,"area":false,"bogusName":false,"lon":-71.0971116,"lat":48.4039529,"elevation":[]},{"distance":78.789,"relativeDirection":"LEFT","streetName":"Rue Malraux","absoluteDirection":"NORTHEAST","stayOn":false,"area":false,"bogusName":false,"lon":-71.0921587,"lat":48.401604500000005,"elevation":[]},{"distance":138.829,"relativeDirection":"RIGHT","streetName":"Rue Verlaine","absoluteDirection":"SOUTHEAST","stayOn":false,"area":false,"bogusName":false,"lon":-71.0915317,"lat":48.402177900000005,"elevation":[]}]}],"tooSloped":false},{"duration":1397,"startTime":1522685680000,"endTime":1522687077000,"walkTime":804,"transitTime":591,"waitingTime":2,"walkDistance":1050.2715413512362,"walkLimitExceeded":false,"elevationLost":0.0,"elevationGained":0.0,"transfers":0,"legs":[{"startTime":1522685680000,"endTime":1522685893000,"departureDelay":0,"arrivalDelay":0,"realTime":false,"distance":282.936,"pathway":false,"mode":"WALK","route":"","agencyTimeZoneOffset":-14400000,"interlineWithPreviousLeg":false,"from":{"name":"Origin","lon":-71.11803899,"lat":48.398934,"departure":1522685680000,"orig":"","vertexType":"NORMAL"},"to":{"name":"Bersimis / Outardes","stopId":"1:98","stopCode":"98","lon":-71.115315,"lat":48.396831,"arrival":1522685893000,"departure":1522685894000,"zoneId":"NA","stopIndex":8,"stopSequence":9,"vertexType":"TRANSIT"},"legGeometry":{"points":"sukfHrkaqL|EqT","length":2},"rentedBike":false,"transitLeg":false,"duration":213.0,"steps":[{"distance":282.936,"relativeDirection":"DEPART","streetName":"Rue Bersimis","absoluteDirection":"SOUTHEAST","stayOn":false,"area":false,"bogusName":false,"lon":-71.11881614731773,"lat":48.39786875656839,"elevation":[]}]},{"startTime":1522685894000,"endTime":1522686485000,"departureDelay":0,"arrivalDelay":0,"realTime":false,"distance":1796.5024024418076,"pathway":false,"mode":"BUS","route":"11","agencyName":"Société de Transport du Saguenay","agencyUrl":"http://ville.saguenay.ca/fr/services-aux-citoyens/transport-sts","agencyTimeZoneOffset":-14400000,"routeColor":"FF0000","routeType":3,"routeId":"1:11","routeTextColor":"FFFFFF","interlineWithPreviousLeg":false,"tripBlockId":"35","headsign":"Terminus Chicoutimi","agencyId":"0","tripId":"1:218253","serviceDate":"20180402","from":{"name":"Bersimis / Outardes","stopId":"1:98","stopCode":"98","lon":-71.115315,"lat":48.396831,"arrival":1522685893000,"departure":1522685894000,"zoneId":"NA","stopIndex":8,"stopSequence":9,"vertexType":"TRANSIT"},"to":{"name":"boul. Barrette / Estacade","stopId":"1:478","stopCode":"478","lon":-71.098119,"lat":48.404568,"arrival":1522686485000,"departure":1522686486000,"zoneId":"NA","stopIndex":12,"stopSequence":13,"vertexType":"TRANSIT"},"legGeometry":{"points":"wnkfH`v`qLoLxh@GLIHI@KAgN{IhHu[p@aCjDyJfQie@`AmCJ[kXi[gKsLqMgOmAbDAVSl@","length":19},"routeShortName":"11","routeLongName":"Chic/Faubourg via St-Paul","rentedBike":false,"transitLeg":true,"duration":591.0,"steps":[]},{"startTime":1522686486000,"endTime":1522687077000,"departureDelay":0,"arrivalDelay":0,"realTime":false,"distance":767.269,"pathway":false,"mode":"WALK","route":"","agencyTimeZoneOffset":-14400000,"interlineWithPreviousLeg":false,"from":{"name":"boul. Barrette / Estacade","stopId":"1:478","stopCode":"478","lon":-71.098119,"lat":48.404568,"arrival":1522686485000,"departure":1522686486000,"zoneId":"NA","stopIndex":12,"stopSequence":13,"vertexType":"TRANSIT"},"to":{"name":"Destination","lon":-71.090109,"lat":48.401284,"arrival":1522687077000,"orig":"","vertexType":"NORMAL"},"legGeometry":{"points":"__mfHzj}pLhB{ErCsHFQx@uBzEwM@?`@kAqB{B`AqCdAyCBI","length":12},"rentedBike":false,"transitLeg":false,"duration":591.0,"steps":[{"distance":549.651,"relativeDirection":"DEPART","streetName":"Boulevard Barrette","absoluteDirection":"SOUTHEAST","stayOn":false,"area":false,"bogusName":false,"lon":-71.09821286252294,"lat":48.40448187965961,"elevation":[]},{"distance":78.789,"relativeDirection":"LEFT","streetName":"Rue Malraux","absoluteDirection":"NORTHEAST","stayOn":false,"area":false,"bogusName":false,"lon":-71.0921587,"lat":48.401604500000005,"elevation":[]},{"distance":138.829,"relativeDirection":"RIGHT","streetName":"Rue Verlaine","absoluteDirection":"SOUTHEAST","stayOn":false,"area":false,"bogusName":false,"lon":-71.0915317,"lat":48.402177900000005,"elevation":[]}]}],"tooSloped":false},{"duration":1397,"startTime":1522687480000,"endTime":1522688877000,"walkTime":804,"transitTime":591,"waitingTime":2,"walkDistance":1050.2715413512362,"walkLimitExceeded":false,"elevationLost":0.0,"elevationGained":0.0,"transfers":0,"legs":[{"startTime":1522687480000,"endTime":1522687693000,"departureDelay":0,"arrivalDelay":0,"realTime":false,"distance":282.936,"pathway":false,"mode":"WALK","route":"","agencyTimeZoneOffset":-14400000,"interlineWithPreviousLeg":false,"from":{"name":"Origin","lon":-71.11803899,"lat":48.398934,"departure":1522687480000,"orig":"","vertexType":"NORMAL"},"to":{"name":"Bersimis / Outardes","stopId":"1:98","stopCode":"98","lon":-71.115315,"lat":48.396831,"arrival":1522687693000,"departure":1522687694000,"zoneId":"NA","stopIndex":8,"stopSequence":9,"vertexType":"TRANSIT"},"legGeometry":{"points":"sukfHrkaqL|EqT","length":2},"rentedBike":false,"transitLeg":false,"duration":213.0,"steps":[{"distance":282.936,"relativeDirection":"DEPART","streetName":"Rue Bersimis","absoluteDirection":"SOUTHEAST","stayOn":false,"area":false,"bogusName":false,"lon":-71.11881614731773,"lat":48.39786875656839,"elevation":[]}]},{"startTime":1522687694000,"endTime":1522688285000,"departureDelay":0,"arrivalDelay":0,"realTime":false,"distance":1796.5024024418076,"pathway":false,"mode":"BUS","route":"11","agencyName":"Société de Transport du Saguenay","agencyUrl":"http://ville.saguenay.ca/fr/services-aux-citoyens/transport-sts","agencyTimeZoneOffset":-14400000,"routeColor":"FF0000","routeType":3,"routeId":"1:11","routeTextColor":"FFFFFF","interlineWithPreviousLeg":false,"tripBlockId":"37","headsign":"Terminus Chicoutimi","agencyId":"0","tripId":"1:218315","serviceDate":"20180402","from":{"name":"Bersimis / Outardes","stopId":"1:98","stopCode":"98","lon":-71.115315,"lat":48.396831,"arrival":1522687693000,"departure":1522687694000,"zoneId":"NA","stopIndex":8,"stopSequence":9,"vertexType":"TRANSIT"},"to":{"name":"boul. Barrette / Estacade","stopId":"1:478","stopCode":"478","lon":-71.098119,"lat":48.404568,"arrival":1522688285000,"departure":1522688286000,"zoneId":"NA","stopIndex":12,"stopSequence":13,"vertexType":"TRANSIT"},"legGeometry":{"points":"wnkfH`v`qLoLxh@GLIHI@KAgN{IhHu[p@aCjDyJfQie@`AmCJ[kXi[gKsLqMgOmAbDAVSl@","length":19},"routeShortName":"11","routeLongName":"Chic/Faubourg via St-Paul","rentedBike":false,"transitLeg":true,"duration":591.0,"steps":[]},{"startTime":1522688286000,"endTime":1522688877000,"departureDelay":0,"arrivalDelay":0,"realTime":false,"distance":767.269,"pathway":false,"mode":"WALK","route":"","agencyTimeZoneOffset":-14400000,"interlineWithPreviousLeg":false,"from":{"name":"boul. Barrette / Estacade","stopId":"1:478","stopCode":"478","lon":-71.098119,"lat":48.404568,"arrival":1522688285000,"departure":1522688286000,"zoneId":"NA","stopIndex":12,"stopSequence":13,"vertexType":"TRANSIT"},"to":{"name":"Destination","lon":-71.090109,"lat":48.401284,"arrival":1522688877000,"orig":"","vertexType":"NORMAL"},"legGeometry":{"points":"__mfHzj}pLhB{ErCsHFQx@uBzEwM@?`@kAqB{B`AqCdAyCBI","length":12},"rentedBike":false,"transitLeg":false,"duration":591.0,"steps":[{"distance":549.651,"relativeDirection":"DEPART","streetName":"Boulevard Barrette","absoluteDirection":"SOUTHEAST","stayOn":false,"area":false,"bogusName":false,"lon":-71.09821286252294,"lat":48.40448187965961,"elevation":[]},{"distance":78.789,"relativeDirection":"LEFT","streetName":"Rue Malraux","absoluteDirection":"NORTHEAST","stayOn":false,"area":false,"bogusName":false,"lon":-71.0921587,"lat":48.401604500000005,"elevation":[]},{"distance":138.829,"relativeDirection":"RIGHT","streetName":"Rue Verlaine","absoluteDirection":"SOUTHEAST","stayOn":false,"area":false,"bogusName":false,"lon":-71.0915317,"lat":48.402177900000005,"elevation":[]}]}],"tooSloped":false}]},"debugOutput":{"precalculationTime":11,"pathCalculationTime":14,"pathTimes":[4,7,3],"renderingTime":0,"totalTime":25,"timedOut":false},"elevationMetadata":{"ellipsoidToGeoidDifference":-28.885904201182168,"geoidElevation":false}}