{"requestParameters":{"date":"2018/04/02","walkSpeed":"1.33","walkReluctance":"2.0","fromPlace":"48.405891,-71.08424999","maxWalkDistance":"3000","waitReluctance":"1.0","carSpeed":"33","numItineraries":"3","waitAtBeginningFactor":"0.4","mode":"TRANSIT,WALK","ignoreRealtimeUpdates":"false","stairsReluctance":"2.0","toPlace":"48.401284,-71.090109","time":"16:5:00"},"plan":{"date":1522699500000,"from":{"name":"Origin","lon":-71.08424999,"lat":48.405891,"orig":"","vertexType":"NORMAL"},"to":{"name":"Destination","lon":-71.090109,"lat":48.401284,"orig":"","vertexType":"NORMAL"},"itineraries":[{"duration":614,"startTime":1522699500000,"endTime":1522700114000,"walkTime":614,"transitTime":0,"waitingTime":0,"walkDistance":792.7496090195358,"walkLimitExceeded":false,"elevationLost":0.0,"elevationGained":0.0,"transfers":0,"legs":[{"startTime":1522699500000,"endTime":1522700114000,"departureDelay":0,"arrivalDelay":0,"realTime":false,"distance":792.6560000000001,"pathway":false,"mode":"WALK","route":"","agencyTimeZoneOffset":-14400000,"interlineWithPreviousLeg":false,"from":{"name":"Origin","lon":-71.08424999,"lat":48.405891,"departure":1522699500000,"orig":"","vertexType":"NORMAL"},"to":{"name":"Destination","lon":-71.090109,"lat":48.401284,"arrival":1522700114000,"orig":"","vertexType":"NORMAL"},"legGeometry":{"points":"kgmfHpszpL@LLRb@Kn@ITjEdA\\x@XdI`FjAt@fAp@v@f@~@j@pBnBAr@i@vCk@pC","length":17},"rentedBike":false,"transitLeg":false,"duration":614.0,"steps":[{"distance":64.509,"relativeDirection":"DEPART","streetName":"Rue Perreault","absoluteDirection":"SOUTHWEST","stayOn":false,"area":false,"bogusName":false,"lon":-71.08424166754668,"lat":48.4058227813147,"elevation":[]},{"distance":75.875,"relativeDirection":"RIGHT","streetName":"Rue Jolliet","absoluteDirection":"WEST","stayOn":false,"area":false,"bogusName":false,"lon":-71.08430750000001,"lat":48.405322000000005,"elevation":[]},{"distance":513.361,"relativeDirection":"LEFT","streetName":"Rue Victor-Guimond","absoluteDirection":"SOUTH","stayOn":false,"area":false,"bogusName":false,"lon":-71.08532290000001,"lat":48.405216,"elevation":[]},{"distance":138.911,"relativeDirection":"RIGHT","streetName":"Rue Verlaine","absoluteDirection":"WEST","stayOn":false,"area":false,"bogusName":false,"lon":-71.08823190000001,"lat":48.4010387,"elevation":[]}]}],"tooSloped":false},{"duration":631,"startTime":1522701030000,"endTime":1522701661000,"walkTime":379,"transitTime":250,"waitingTime":2,"walkDistance":477.0086917252353,"walkLimitExceeded":false,"elevationLost":0.0,"elevationGained":0.0,"transfers":0,"legs":[{"startTime":1522701030000,"endTime":1522701294000,"departureDelay":0,"arrivalDelay":0,"realTime":false,"distance":338.68600000000004,"pathway":false,"mode":"WALK","route":"","agencyTimeZoneOffset":-14400000,"interlineWithPreviousLeg":false,"from":{"name":"Origin","lon":-71.08424999,"lat":48.405891,"departure":1522701030000,"orig":"","vertexType":"NORMAL"},"to":{"name":"Ballantyne / Jolliet","stopId":"1:159","stopCode":"159","lon":-71.08039,"lat":48.406229,"arrival":1522701294000,"departure":1522701295000,"zoneId":"NA","stopIndex":19,"stopSequence":20,"vertexType":"TRANSIT"},"legGeometry":{"points":"kgmfHpszpLAi@Lo@Pa@`@c@w@uD??OcA_@eDWqAw@u@XeA","length":12},"rentedBike":false,"transitLeg":false,"duration":264.0,"steps":[{"distance":74.313,"relativeDirection":"DEPART","streetName":"Rue Perreault","absoluteDirection":"EAST","stayOn":false,"area":false,"bogusName":false,"lon":-71.08424166754668,"lat":48.4058227813147,"elevation":[]},{"distance":234.488,"relativeDirection":"LEFT","streetName":"Rue Jolliet","absoluteDirection":"NORTHEAST","stayOn":false,"area":false,"bogusName":false,"lon":-71.0834423,"lat":48.4055,"elevation":[]},{"distance":29.885,"relativeDirection":"RIGHT","streetName":"Rue Ballantyne","absoluteDirection":"SOUTHEAST","stayOn":false,"area":false,"bogusName":false,"lon":-71.08068800000001,"lat":48.406426800000006,"elevation":[]}]},{"startTime":1522701295000,"endTime":1522701545000,"departureDelay":0,"arrivalDelay":0,"realTime":false,"distance":2678.6844532194177,"pathway":false,"mode":"BUS","route":"14","agencyName":"Société de Transport du Saguenay","agencyUrl":"http://ville.saguenay.ca/fr/services-aux-citoyens/transport-sts","agencyTimeZoneOffset":-14400000,"routeColor":"C0C000","routeType":3,"routeId":"1:14","routeTextColor":"000000","interlineWithPreviousLeg":false,"tripBlockId":"32","headsign":"Talbot / Barrette","agencyId":"0","tripId":"1:218166","serviceDate":"20180402","from":{"name":"Ballantyne / Jolliet","stopId":"1:159","stopCode":"159","lon":-71.08039,"lat":48.406229,"arrival":1522701294000,"departure":1522701295000,"zoneId":"NA","stopIndex":19,"stopSequence":20,"vertexType":"TRANSIT"},"to":{"name":"boul. Barrette / passerelle rue Balzac","stopId":"1:44","stopCode":"44","lon":-71.089717,"lat":48.400646,"arrival":1522701545000,"departure":1522701546000,"zoneId":"NA","stopIndex":30,"stopSequence":31,"vertexType":"TRANSIT"},"legGeometry":{"points":"kjmfH`{ypLjFuR\\yADm@b@gFd@_B`A}@tEvJBDvC`FtJ|LLNlClC|@^hCYVExCjCb@d@vE`F`BhB?pHaBhRqAbLK~@qBxFqB|FcC~GyC\\aDkDcFsF~CgO","length":31},"routeShortName":"14","routeLongName":"Coopérative","rentedBike":false,"transitLeg":true,"duration":250.0,"steps":[]},{"startTime":1522701546000,"endTime":1522701661000,"departureDelay":0,"arrivalDelay":0,"realTime":false,"distance":138.196,"pathway":false,"mode":"WALK","route":"","agencyTimeZoneOffset":-14400000,"interlineWithPreviousLeg":false,"from":{"name":"boul. Barrette / passerelle rue Balzac","stopId":"1:44","stopCode":"44","lon":-71.089717,"lat":48.400646,"arrival":1522701545000,"departure":1522701546000,"zoneId":"NA","stopIndex":30,"stopSequence":31,"vertexType":"TRANSIT"},"to":{"name":"Destination","lon":-71.090109,"lat":48.401284,"arrival":1522701661000,"orig":"","vertexType":"NORMAL"},"legGeometry":{"points":"cglfHtu{pLBKSMSOCAmAm@k@pC","length":7},"rentedBike":false,"transitLeg":false,"duration":115.0,"steps":[{"distance":5.074,"relativeDirection":"DEPART","streetName":"bike path","absoluteDirection":"SOUTHEAST","stayOn":false,"area":false,"bogusName":true,"lon":-71.08970662899452,"lat":48.400660438764696,"elevation":[]},{"distance":74.275,"relativeDirection":"LEFT","streetName":"path","absoluteDirection":"NORTHEAST","stayOn":true,"area":false,"bogusName":true,"lon":-71.0896446,"lat":48.400640800000005,"elevation":[]},{"distance":58.847,"relativeDirection":"LEFT","streetName":"Rue Verlaine","absoluteDirection":"NORTHWEST","stayOn":false,"area":false,"bogusName":false,"lon":-71.08925380000001,"lat":48.4012559,"elevation":[]}]}],"tooSloped":false}]},"debugOutput":{"precalculationTime":24,"pathCalculationTime":16,"pathTimes":[2,11,3],"renderingTime":0,"totalTime":40,"timedOut":false},"elevationMetadata":{"ellipsoidToGeoidDifference":-28.885904201182168,"geoidElevation":false}}