{"requestParameters":{"date":"2018/04/02","walkSpeed":"1.33","walkReluctance":"2.0","fromPlace":"48.401079,-71.093159","maxWalkDistance":"3000","waitReluctance":"1.0","carSpeed":"33","numItineraries":"3","waitAtBeginningFactor":"0.4","mode":"TRANSIT,WALK","ignoreRealtimeUpdates":"false","stairsReluctance":"2.0","toPlace":"48.394631,-71.073569","time":"9:0:00"},"plan":{"date":1522674000000,"from":{"name":"Origin","lon":-71.093159,"lat":48.401079,"orig":"","vertexType":"NORMAL"},"to":{"name":"Destination","lon":-71.073569,"lat":48.394631,"orig":"","vertexType":"NORMAL"},"itineraries":[{"duration":186,"startTime":1522674466000,"endTime":1522674652000,"walkTime":65,"transitTime":119,"waitingTime":2,"walkDistance":85.531,"walkLimitExceeded":false,"elevationLost":0.0,"elevationGained":0.0,"transfers":0,"legs":[{"startTime":1522674466000,"endTime":1522674519000,"departureDelay":0,"arrivalDelay":0,"realTime":false,"distance":69.98,"pathway":false,"mode":"WALK","route":"","agencyTimeZoneOffset":-14400000,"interlineWithPreviousLeg":false,"from":{"name":"Origin","lon":-71.093159,"lat":48.401079,"departure":1522674466000,"orig":"","vertexType":"NORMAL"},"to":{"name":"Malraux / Pagnol","stopId":"1:1978","stopCode":"1978","lon":-71.093388,"lat":48.400416,"arrival":1522674519000,"departure":1522674520000,"zoneId":"NA","stopIndex":29,"stopSequence":30,"vertexType":"TRANSIT"},"legGeometry":{"points":"{hlfHli|pLfBlB","length":2},"rentedBike":false,"transitLeg":false,"duration":53.0,"steps":[{"distance":69.98,"relativeDirection":"DEPART","streetName":"Rue Malraux","absoluteDirection":"SOUTHWEST","stayOn":false,"area":false,"bogusName":false,"lon":-71.09286419020384,"lat":48.40094085944745,"elevation":[]}]},{"startTime":1522674520000,"endTime":1522674639000,"departureDelay":0,"arrivalDelay":0,"realTime":false,"distance":1661.9374219225506,"pathway":false,"mode":"BUS","route":"14","agencyName":"Société de Transport du Saguenay","agencyUrl":"http://ville.saguenay.ca/fr/services-aux-citoyens/transport-sts","agencyTimeZoneOffset":-14400000,"routeColor":"C0C000","routeType":3,"routeId":"1:14","routeTextColor":"000000","interlineWithPreviousLeg":false,"tripBlockId":"30","headsign":"Talbot / Barrette","agencyId":"0","tripId":"1:218091","serviceDate":"20180402","from":{"name":"Malraux / Pagnol","stopId":"1:1978","stopCode":"1978","lon":-71.093388,"lat":48.400416,"arrival":1522674519000,"departure":1522674520000,"zoneId":"NA","stopIndex":29,"stopSequence":30,"vertexType":"TRANSIT"},"to":{"name":"Maxi - boulevard Barrette","stopId":"1:88","stopCode":"88","lon":-71.07294,"lat":48.395,"arrival":1522674639000,"departure":1522674640000,"zoneId":"NA","stopIndex":34,"stopSequence":35,"vertexType":"TRANSIT"},"legGeometry":{"points":"welfH`m|pLcFsF~CgOtGm[j@oCvEoSl@_CxCmLjAeFpCeKrByHfAqC","length":12},"routeShortName":"14","routeLongName":"Coopérative","rentedBike":false,"transitLeg":true,"duration":119.0,"steps":[]},{"startTime":1522674640000,"endTime":1522674652000,"departureDelay":0,"arrivalDelay":0,"realTime":false,"distance":15.551,"pathway":false,"mode":"WALK","route":"","agencyTimeZoneOffset":-14400000,"interlineWithPreviousLeg":false,"from":{"name":"Maxi - boulevard Barrette","stopId":"1:88","stopCode":"88","lon":-71.07294,"lat":48.395,"arrival":1522674639000,"departure":1522674640000,"zoneId":"NA","stopIndex":34,"stopSequence":35,"vertexType":"TRANSIT"},"to":{"name":"Destination","lon":-71.073569,"lat":48.394631,"arrival":1522674652000,"orig":"","vertexType":"NORMAL"},"legGeometry":{"points":"sckfH~lxpLOb@","length":2},"rentedBike":false,"transitLeg":false,"duration":12.0,"steps":[{"distance":15.551,"relativeDirection":"DEPART","streetName":"bike path","absoluteDirection":"NORTHWEST","stayOn":false,"area":false,"bogusName":false,"lon":-71.072956176549,"lat":48.39498407908756,"elevation":[]}]}],"tooSloped":false},{"duration":697,"startTime":1522674808000,"endTime":1522675505000,"walkTime":603,"transitTime":92,"waitingTime":2,"walkDistance":793.0549548861868,"walkLimitExceeded":false,"elevationLost":0.0,"elevationGained":0.0,"transfers":0,"legs":[{"startTime":1522674808000,"endTime":1522674865000,"departureDelay":0,"arrivalDelay":0,"realTime":false,"distance":74.486,"pathway":false,"mode":"WALK","route":"","agencyTimeZoneOffset":-14400000,"interlineWithPreviousLeg":false,"from":{"name":"Origin","lon":-71.093159,"lat":48.401079,"departure":1522674808000,"orig":"","vertexType":"NORMAL"},"to":{"name":"Malraux / Pagnol","stopId":"1:441","stopCode":"441","lon":-71.09356,"lat":48.400447,"arrival":1522674865000,"departure":1522674866000,"zoneId":"NA","stopIndex":6,"stopSequence":7,"vertexType":"TRANSIT"},"legGeometry":{"points":"{hlfHli|pLfBlBDD","length":3},"rentedBike":false,"transitLeg":false,"duration":57.0,"steps":[{"distance":74.486,"relativeDirection":"DEPART","streetName":"Rue Malraux","absoluteDirection":"SOUTHWEST","stayOn":false,"area":false,"bogusName":false,"lon":-71.09286419020384,"lat":48.40094085944745,"elevation":[]}]},{"startTime":1522674866000,"endTime":1522674958000,"departureDelay":0,"arrivalDelay":0,"realTime":false,"distance":1209.4220863194996,"pathway":false,"mode":"BUS","route":"14","agencyName":"Société de Transport du Saguenay","agencyUrl":"http://ville.saguenay.ca/fr/services-aux-citoyens/transport-sts","agencyTimeZoneOffset":-14400000,"routeColor":"C0C000","routeType":3,"routeId":"1:14","routeTextColor":"000000","interlineWithPreviousLeg":false,"tripBlockId":"31","headsign":"Terminus Chicoutimi","agencyId":"0","tripId":"1:218127","serviceDate":"20180402","from":{"name":"Malraux / Pagnol","stopId":"1:441","stopCode":"441","lon":-71.09356,"lat":48.400447,"arrival":1522674865000,"departure":1522674866000,"zoneId":"NA","stopIndex":6,"stopSequence":7,"vertexType":"TRANSIT"},"to":{"name":"Malraux / boul. Barrette","stopId":"1:1879","stopCode":"1879","lon":-71.081369,"lat":48.397654,"arrival":1522674958000,"departure":1522674959000,"zoneId":"NA","stopIndex":11,"stopSequence":12,"vertexType":"TRANSIT"},"legGeometry":{"points":"melfHbm|pLhCtCdDY|F_On@aB`B_GNoBvAyT|@sNuAyAuF}F","length":11},"routeShortName":"14","routeLongName":"Coopérative","rentedBike":false,"transitLeg":true,"duration":92.0,"steps":[]},{"startTime":1522674959000,"endTime":1522675505000,"departureDelay":0,"arrivalDelay":0,"realTime":false,"distance":718.537,"pathway":false,"mode":"WALK","route":"","agencyTimeZoneOffset":-14400000,"interlineWithPreviousLeg":false,"from":{"name":"Malraux / boul. Barrette","stopId":"1:1879","stopCode":"1879","lon":-71.081369,"lat":48.397654,"arrival":1522674958000,"departure":1522674959000,"zoneId":"NA","stopIndex":11,"stopSequence":12,"vertexType":"TRANSIT"},"to":{"name":"Destination","lon":-71.073569,"lat":48.394631,"arrival":1522675505000,"orig":"","vertexType":"NORMAL"},"legGeometry":{"points":"qtkfHbbzpL}@_Aj@_C`GsUf@kBlAyEnA_Fj@eBj@_B","length":9},"rentedBike":false,"transitLeg":false,"duration":546.0,"steps":[{"distance":42.535,"relativeDirection":"DEPART","streetName":"Rue Malraux","absoluteDirection":"NORTHEAST","stayOn":false,"area":false,"bogusName":false,"lon":-71.08145354995072,"lat":48.39769148827104,"elevation":[]},{"distance":676.002,"relativeDirection":"RIGHT","streetName":"bike path","absoluteDirection":"SOUTHEAST","stayOn":false,"area":false,"bogusName":true,"lon":-71.0811336,"lat":48.3980096,"elevation":[]}]}],"tooSloped":false},{"duration":186,"startTime":1522676266000,"endTime":1522676452000,"walkTime":65,"transitTime":119,"waitingTime":2,"walkDistance":85.531,"walkLimitExceeded":false,"elevationLost":0.0,"elevationGained":0.0,"transfers":0,"legs":[{"startTime":1522676266000,"endTime":1522676319000,"departureDelay":0,"arrivalDelay":0,"realTime":false,"distance":69.98,"pathway":false,"mode":"WALK","route":"","agencyTimeZoneOffset":-14400000,"interlineWithPreviousLeg":false,"from":{"name":"Origin","lon":-71.093159,"lat":48.401079,"departure":1522676266000,"orig":"","vertexType":"NORMAL"},"to":{"name":"Malraux / Pagnol","stopId":"1:1978","stopCode":"1978","lon":-71.093388,"lat":48.400416,"arrival":1522676319000,"departure":1522676320000,"zoneId":"NA","stopIndex":29,"stopSequence":30,"vertexType":"TRANSIT"},"legGeometry":{"points":"{hlfHli|pLfBlB","length":2},"rentedBike":false,"transitLeg":false,"duration":53.0,"steps":[{"distance":69.98,"relativeDirection":"DEPART","streetName":"Rue Malraux","absoluteDirection":"SOUTHWEST","stayOn":false,"area":false,"bogusName":false,"lon":-71.09286419020384,"lat":48.40094085944745,"elevation":[]}]},{"startTime":1522676320000,"endTime":1522676439000,"departureDelay":0,"arrivalDelay":0,"realTime":false,"distance":1661.9374219225506,"pathway":false,"mode":"BUS","route":"14","agencyName":"Société de Transport du Saguenay","agencyUrl":"http://ville.saguenay.ca/fr/services-aux-citoyens/transport-sts","agencyTimeZoneOffset":-14400000,"routeColor":"C0C000","routeType":3,"routeId":"1:14","routeTextColor":"000000","interlineWithPreviousLeg":false,"tripBlockId":"32","headsign":"Talbot / Barrette","agencyId":"0","tripId":"1:218152","serviceDate":"20180402","from":{"name":"Malraux / Pagnol","stopId":"1:1978","stopCode":"1978","lon":-71.093388,"lat":48.400416,"arrival":1522676319000,"departure":1522676320000,"zoneId":"NA","stopIndex":29,"stopSequence":30,"vertexType":"TRANSIT"},"to":{"name":"Maxi - boulevard Barrette","stopId":"1:88","stopCode":"88","lon":-71.07294,"lat":48.395,"arrival":1522676439000,"departure":1522676440000,"zoneId":"NA","stopIndex":34,"stopSequence":35,"vertexType":"TRANSIT"},"legGeometry":{"points":"welfH`m|pLcFsF~CgOtGm[j@oCvEoSl@_CxCmLjAeFpCeKrByHfAqC","length":12},"routeShortName":"14","routeLongName":"Coopérative","rentedBike":false,"transitLeg":true,"duration":119.0,"steps":[]},{"startTime":1522676440000,"endTime":1522676452000,"departureDelay":0,"arrivalDelay":0,"realTime":false,"distance":15.551,"pathway":false,"mode":"WALK","route":"","agencyTimeZoneOffset":-14400000,"interlineWithPreviousLeg":false,"from":{"name":"Maxi - boulevard Barrette","stopId":"1:88","stopCode":"88","lon":-71.07294,"lat":48.395,"arrival":1522676439000,"departure":1522676440000,"zoneId":"NA","stopIndex":34,"stopSequence":35,"vertexType":"TRANSIT"},"to":{"name":"Destination","lon":-71.073569,"lat":48.394631,"arrival":1522676452000,"orig":"","vertexType":"NORMAL"},"legGeometry":{"points":"sckfH~lxpLOb@","length":2},"rentedBike":false,"transitLeg":false,"duration":12.0,"steps":[{"distance":15.551,"relativeDirection":"DEPART","streetName":"bike path","absoluteDirection":"NORTHWEST","stayOn":false,"area":false,"bogusName":false,"lon":-71.072956176549,"lat":48.39498407908756,"elevation":[]}]}],"tooSloped":false}]},"debugOutput":{"precalculationTime":23,"pathCalculationTime":16,"pathTimes":[6,8,2],"renderingTime":0,"totalTime":39,"timedOut":false},"elevationMetadata":{"ellipsoidToGeoidDifference":-28.885904201182168,"geoidElevation":false}}