{"requestParameters":{"date":"2018/04/02","walkSpeed":"1.33","walkReluctance":"2.0","fromPlace":"48.413921,-71.04819799","maxWalkDistance":"3000","waitReluctance":"1.0","carSpeed":"33","numItineraries":"3","waitAtBeginningFactor":"0.4","mode":"TRANSIT,WALK","ignoreRealtimeUpdates":"false","stairsReluctance":"2.0","toPlace":"48.400296,-71.093285","time":"15:45:00"},"plan":{"date":1522698300000,"from":{"name":"Origin","lon":-71.04819799,"lat":48.413921,"orig":"","vertexType":"NORMAL"},"to":{"name":"Destination","lon":-71.093285,"lat":48.400296,"orig":"","vertexType":"NORMAL"},"itineraries":[{"duration":1289,"startTime":1522698780000,"endTime":1522700069000,"walkTime":304,"transitTime":683,"waitingTime":302,"walkDistance":382.87281202766115,"walkLimitExceeded":false,"elevationLost":0.0,"elevationGained":0.0,"transfers":1,"legs":[{"startTime":1522698780000,"endTime":1522699082000,"departureDelay":0,"arrivalDelay":0,"realTime":false,"distance":380.7869999999999,"pathway":false,"mode":"WALK","route":"","agencyTimeZoneOffset":-14400000,"interlineWithPreviousLeg":false,"from":{"name":"Origin","lon":-71.04819799,"lat":48.413921,"departure":1522698780000,"orig":"","vertexType":"NORMAL"},"to":{"name":"boul. Université / Murdock","stopId":"1:80","stopCode":"80","lon":-71.050111,"lat":48.411498,"arrival":1522699082000,"departure":1522699083000,"zoneId":"NA","stopIndex":14,"stopSequence":15,"vertexType":"TRANSIT"},"legGeometry":{"points":"gznfH~qspLJ]Rm@Tq@PRdBlBdEbEnBrBVPUn@","length":10},"rentedBike":false,"transitLeg":false,"duration":302.0,"steps":[{"distance":55.416,"relativeDirection":"DEPART","streetName":"service road","absoluteDirection":"SOUTHEAST","stayOn":false,"area":false,"bogusName":false,"lon":-71.04815166788231,"lat":48.41396762318747,"elevation":[]},{"distance":303.769,"relativeDirection":"RIGHT","streetName":"Rue Murdock","absoluteDirection":"SOUTHWEST","stayOn":false,"area":false,"bogusName":false,"lon":-71.0475249,"lat":48.413693200000004,"elevation":[]},{"distance":21.602,"relativeDirection":"RIGHT","streetName":"Boulevard de l'Université","absoluteDirection":"NORTHWEST","stayOn":false,"area":false,"bogusName":false,"lon":-71.0498268,"lat":48.4114298,"elevation":[]}]},{"startTime":1522699083000,"endTime":1522699320000,"departureDelay":0,"arrivalDelay":0,"realTime":false,"distance":1625.1572422718677,"pathway":false,"mode":"BUS","route":"175","agencyName":"Société de Transport du Saguenay","agencyUrl":"http://ville.saguenay.ca/fr/services-aux-citoyens/transport-sts","agencyTimeZoneOffset":-14400000,"routeColor":"FF00FF","routeType":3,"routeId":"1:175","routeTextColor":"FFFFFF","interlineWithPreviousLeg":false,"tripBlockId":"6","headsign":"Costco","agencyId":"0","tripId":"1:217303","serviceDate":"20180402","from":{"name":"boul. Université / Murdock","stopId":"1:80","stopCode":"80","lon":-71.050111,"lat":48.411498,"arrival":1522699082000,"departure":1522699083000,"zoneId":"NA","stopIndex":14,"stopSequence":15,"vertexType":"TRANSIT"},"to":{"name":"Place du Royaume (Saguenéens)","stopId":"1:1294","stopCode":"1294","lon":-71.057691,"lat":48.402355,"arrival":1522699320000,"departure":1522699620000,"zoneId":"NA","stopIndex":20,"stopSequence":21,"vertexType":"TRANSIT"},"legGeometry":{"points":"aknfH~}spLr@sBhCsKz@dAjB|@dM`GzCvAXrCr@~Gx@]PEr@ObACn@FrBb@|@Ch@Kx@U~HsB^KZ|DJpII~Fa@rFUzBi@bD","length":26},"routeShortName":"175","routeLongName":"Term. Chic / Costco","rentedBike":false,"transitLeg":true,"duration":237.0,"steps":[]},{"startTime":1522699620000,"endTime":1522699920000,"departureDelay":0,"arrivalDelay":0,"realTime":false,"distance":3143.631018514618,"pathway":false,"mode":"BUS","route":"15","agencyName":"Société de Transport du Saguenay","agencyUrl":"http://ville.saguenay.ca/fr/services-aux-citoyens/transport-sts","agencyTimeZoneOffset":-14400000,"routeColor":"FF00FF","routeType":3,"routeId":"1:15","routeTextColor":"FFFFFF","interlineWithPreviousLeg":false,"tripBlockId":"31","headsign":"Talbot / Barrette","agencyId":"0","tripId":"1:218140","serviceDate":"20180402","from":{"name":"Place du Royaume (Saguenéens)","stopId":"1:1294","stopCode":"1294","lon":-71.057691,"lat":48.402355,"arrival":1522699320000,"departure":1522699620000,"zoneId":"NA","stopIndex":24,"stopSequence":25,"vertexType":"TRANSIT"},"to":{"name":"Roitelets / Sapins","stopId":"1:1543","stopCode":"1543","lon":-71.069553,"lat":48.393375,"arrival":1522699920000,"departure":1522699920000,"zoneId":"NA","stopIndex":35,"stopSequence":36,"vertexType":"TRANSIT"},"legGeometry":{"points":"_rlfHjmupLbCaO?qLa@uJzF`ApF~@~@PzAgEeDcBf@qAWcKUqEx@Ef@ExDVjDxAFBrBvAfGjG@BjCzC~DxC@@zA~Cb@fCJlC?BsBre@?DWbOAn@?nEGnM@H\\hCzA~ELvAAlAi@jDo@nB","length":40},"routeShortName":"15","routeLongName":"Term. Chic / Costco","rentedBike":false,"transitLeg":true,"duration":300.0,"steps":[]},{"startTime":1522699920000,"endTime":1522700066000,"departureDelay":0,"arrivalDelay":0,"realTime":false,"distance":2001.932967403964,"pathway":false,"mode":"BUS","route":"14","agencyName":"Société de Transport du Saguenay","agencyUrl":"http://ville.saguenay.ca/fr/services-aux-citoyens/transport-sts","agencyTimeZoneOffset":-14400000,"routeColor":"C0C000","routeType":3,"routeId":"1:14","routeTextColor":"000000","interlineWithPreviousLeg":true,"tripBlockId":"31","headsign":"Terminus Chicoutimi","agencyId":"0","tripId":"1:218141","serviceDate":"20180402","from":{"name":"Roitelets / Sapins","stopId":"1:1513","stopCode":"1513","lon":-71.069396,"lat":48.393523,"arrival":1522699920000,"departure":1522699920000,"zoneId":"NA","stopIndex":0,"stopSequence":1,"vertexType":"TRANSIT"},"to":{"name":"Malraux / Pagnol","stopId":"1:441","stopCode":"441","lon":-71.09356,"lat":48.400447,"arrival":1522700066000,"departure":1522700067000,"zoneId":"NA","stopIndex":6,"stopSequence":7,"vertexType":"TRANSIT"},"legGeometry":{"points":"azjfHfwwpLiEfLuBzFsAnDgGzSWfAcD`Mi@dCgChLmCzMwGd\\aDxOdFtF","length":13},"routeShortName":"14","routeLongName":"Coopérative","rentedBike":false,"transitLeg":true,"duration":146.0,"steps":[]},{"startTime":1522700067000,"endTime":1522700069000,"departureDelay":0,"arrivalDelay":0,"realTime":false,"distance":2.011,"pathway":false,"mode":"WALK","route":"","agencyTimeZoneOffset":-14400000,"interlineWithPreviousLeg":false,"from":{"name":"Malraux / Pagnol","stopId":"1:441","stopCode":"441","lon":-71.09356,"lat":48.400447,"arrival":1522700066000,"departure":1522700067000,"zoneId":"NA","stopIndex":6,"stopSequence":7,"vertexType":"TRANSIT"},"to":{"name":"Destination","lon":-71.093285,"lat":48.400296,"arrival":1522700069000,"orig":"","vertexType":"NORMAL"},"legGeometry":{"points":"melfH`m|pLBB","length":2},"rentedBike":false,"transitLeg":false,"duration":2.0,"steps":[{"distance":2.011,"relativeDirection":"DEPART","streetName":"Rue Malraux","absoluteDirection":"SOUTHWEST","stayOn":false,"area":false,"bogusName":false,"lon":-71.0934459868607,"lat":48.400393574945504,"elevation":[]}]}],"tooSloped":false},{"duration":1312,"startTime":1522699749000,"endTime":1522701061000,"walkTime":227,"transitTime":1083,"waitingTime":2,"walkDistance":285.5695413512364,"walkLimitExceeded":false,"elevationLost":0.0,"elevationGained":0.0,"transfers":0,"legs":[{"startTime":1522699749000,"endTime":1522699818000,"departureDelay":0,"arrivalDelay":0,"realTime":false,"distance":84.295,"pathway":false,"mode":"WALK","route":"","agencyTimeZoneOffset":-14400000,"interlineWithPreviousLeg":false,"from":{"name":"Origin","lon":-71.04819799,"lat":48.413921,"departure":1522699749000,"orig":"","vertexType":"NORMAL"},"to":{"name":"Murdock / Baillargeon","stopId":"1:3562","stopCode":"3562","lon":-71.047409,"lat":48.413956,"arrival":1522699818000,"departure":1522699819000,"zoneId":"NA","stopIndex":10,"stopSequence":11,"vertexType":"TRANSIT"},"legGeometry":{"points":"gznfH~qspLJ]Rm@Tq@i@k@","length":5},"rentedBike":false,"transitLeg":false,"duration":69.0,"steps":[{"distance":55.416,"relativeDirection":"DEPART","streetName":"service road","absoluteDirection":"SOUTHEAST","stayOn":false,"area":false,"bogusName":false,"lon":-71.04815166788231,"lat":48.41396762318747,"elevation":[]},{"distance":28.879,"relativeDirection":"LEFT","streetName":"Rue Murdock","absoluteDirection":"NORTHEAST","stayOn":false,"area":false,"bogusName":false,"lon":-71.0475249,"lat":48.413693200000004,"elevation":[]}]},{"startTime":1522699819000,"endTime":1522700902000,"departureDelay":0,"arrivalDelay":0,"realTime":false,"distance":6593.623297728897,"pathway":false,"mode":"BUS","route":"214S","agencyName":"Société de Transport du Saguenay","agencyUrl":"http://ville.saguenay.ca/fr/services-aux-citoyens/transport-sts","agencyTimeZoneOffset":-14400000,"routeColor":"8B0000","routeType":3,"routeId":"1:214S","routeTextColor":"FFFFFF","interlineWithPreviousLeg":false,"headsign":"Carcajous / Martres","agencyId":"0","tripId":"1:218520","serviceDate":"20180402","from":{"name":"Murdock / Baillargeon","stopId":"1:3562","stopCode":"3562","lon":-71.047409,"lat":48.413956,"arrival":1522699818000,"departure":1522699819000,"zoneId":"NA","stopIndex":10,"stopSequence":11,"vertexType":"TRANSIT"},"to":{"name":"boul. Barrette / Malraux","stopId":"1:1923","stopCode":"1923","lon":-71.092488,"lat":48.401831,"arrival":1522700902000,"departure":1522700903000,"zoneId":"NA","stopIndex":28,"stopSequence":29,"vertexType":"TRANSIT"},"legGeometry":{"points":"{ynfHtlspLBB`DlDvHvHRNvBeHLi@Zc@ZQb@IjB|@BBzDjB|FpCFDHDbAb@pAb@tGuA~VwIJCxCqA~Ae@LElB]vFBtEfBPFzHpHx@v@XZdBjBz@t@hChB`@|@@Bv@`Bb@bCBjDpCg@fAIr@B@}DJ[NGjAD~@WjA_Ab@y@XeAL{@DaBfAqHx@}D~@mDiC_C{EuDq@jC@j@VRvHrGy@`E_@nC_@xCCNGrAMz@WbAc@v@mAfA{@RiAESDKZC|Do@CiAJkCb@IbBEn@GfAYbGu@zPKjD?NMzEMxLExKBnC\\zC~AlFHhAEnAO|ASbAo@nBADcI`TSj@}@bCeGzS_IqI|@oC~@mDQcDGcAEo@\\vG}@fD_ArC|HzIU~@mE|PCHcHxZABsGb\\aBlIk@bCOx@c@rA","length":121},"routeShortName":"214S","routeLongName":"Séminaire - Chicoutimi Sud","rentedBike":false,"transitLeg":true,"duration":1083.0,"steps":[]},{"startTime":1522700903000,"endTime":1522701061000,"departureDelay":0,"arrivalDelay":0,"realTime":false,"distance":201.20799999999997,"pathway":false,"mode":"WALK","route":"","agencyTimeZoneOffset":-14400000,"interlineWithPreviousLeg":false,"from":{"name":"boul. Barrette / Malraux","stopId":"1:1923","stopCode":"1923","lon":-71.092488,"lat":48.401831,"arrival":1522700902000,"departure":1522700903000,"zoneId":"NA","stopIndex":28,"stopSequence":29,"vertexType":"TRANSIT"},"to":{"name":"Destination","lon":-71.093285,"lat":48.400296,"arrival":1522701061000,"orig":"","vertexType":"NORMAL"},"legGeometry":{"points":"cnlfHjg|pL@?`@kAjFzFDDBB","length":6},"rentedBike":false,"transitLeg":false,"duration":158.0,"steps":[{"distance":34.39,"relativeDirection":"DEPART","streetName":"Boulevard Barrette","absoluteDirection":"SOUTHEAST","stayOn":false,"area":false,"bogusName":false,"lon":-71.09253901104675,"lat":48.40178313094621,"elevation":[]},{"distance":166.81799999999998,"relativeDirection":"RIGHT","streetName":"Rue Malraux","absoluteDirection":"SOUTHWEST","stayOn":false,"area":false,"bogusName":false,"lon":-71.0921587,"lat":48.401604500000005,"elevation":[]}]}],"tooSloped":false},{"duration":1910,"startTime":1522699617000,"endTime":1522701527000,"walkTime":908,"transitTime":1000,"waitingTime":2,"walkDistance":1156.3739022504476,"walkLimitExceeded":false,"elevationLost":0.0,"elevationGained":0.0,"transfers":0,"legs":[{"startTime":1522699617000,"endTime":1522700519000,"departureDelay":0,"arrivalDelay":0,"realTime":false,"distance":1149.6960000000001,"pathway":false,"mode":"WALK","route":"","agencyTimeZoneOffset":-14400000,"interlineWithPreviousLeg":false,"from":{"name":"Origin","lon":-71.04819799,"lat":48.413921,"departure":1522699617000,"orig":"","vertexType":"NORMAL"},"to":{"name":"Terminus UQAC","stopId":"1:1670","stopCode":"1670","lon":-71.053369,"lat":48.420903,"arrival":1522700519000,"departure":1522700520000,"zoneId":"NA","stopIndex":8,"stopSequence":9,"vertexType":"TRANSIT"},"legGeometry":{"points":"gznfH~qspLGPMZ_@a@s@w@a@c@ENEPMDQDQBy@{@aBeBUWOb@O`@wAtDmArDqChI{@hCWt@qAlDKXi@k@yAyAaAcAUHq@XYz@Ur@e@vAg@vAUp@cAaA","length":34},"rentedBike":false,"transitLeg":false,"duration":902.0,"steps":[{"distance":143.878,"relativeDirection":"DEPART","streetName":"service road","absoluteDirection":"NORTHWEST","stayOn":false,"area":false,"bogusName":false,"lon":-71.04815166788231,"lat":48.41396762318747,"elevation":[]},{"distance":121.064,"relativeDirection":"RIGHT","streetName":"Boulevard Talbot","absoluteDirection":"NORTHEAST","stayOn":false,"area":false,"bogusName":false,"lon":-71.0480081,"lat":48.414971200000004,"elevation":[]},{"distance":515.112,"relativeDirection":"LEFT","streetName":"Rue Chabanel","absoluteDirection":"NORTHWEST","stayOn":false,"area":false,"bogusName":false,"lon":-71.0470797,"lat":48.415868800000005,"elevation":[]},{"distance":133.06900000000002,"relativeDirection":"RIGHT","streetName":"Rue de la Fondation","absoluteDirection":"NORTHEAST","stayOn":false,"area":false,"bogusName":false,"lon":-71.05284470000001,"lat":48.4184787,"elevation":[]},{"distance":236.573,"relativeDirection":"LEFT","streetName":"path","absoluteDirection":"NORTH","stayOn":false,"area":false,"bogusName":true,"lon":-71.0518321,"lat":48.419468900000005,"elevation":[]}]},{"startTime":1522700520000,"endTime":1522701520000,"departureDelay":0,"arrivalDelay":0,"realTime":false,"distance":5745.882336472293,"pathway":false,"mode":"BUS","route":"14","agencyName":"Société de Transport du Saguenay","agencyUrl":"http://ville.saguenay.ca/fr/services-aux-citoyens/transport-sts","agencyTimeZoneOffset":-14400000,"routeColor":"C0C000","routeType":3,"routeId":"1:14","routeTextColor":"000000","interlineWithPreviousLeg":false,"tripBlockId":"32","headsign":"Talbot / Barrette","agencyId":"0","tripId":"1:218166","serviceDate":"20180402","from":{"name":"Terminus UQAC","stopId":"1:1670","stopCode":"1670","lon":-71.053369,"lat":48.420903,"arrival":1522700519000,"departure":1522700520000,"zoneId":"NA","stopIndex":8,"stopSequence":9,"vertexType":"TRANSIT"},"to":{"name":"Malraux / Pagnol","stopId":"1:1978","stopCode":"1978","lon":-71.093388,"lat":48.400416,"arrival":1522701520000,"departure":1522701521000,"zoneId":"NA","stopIndex":29,"stopSequence":30,"vertexType":"TRANSIT"},"legGeometry":{"points":"sepfHrrtpLdA`ATq@`E~DL`@E`Ex@hDd@`B}FtFaAzAm@xAe@jCa@nDiAbm@SpKM`H]vBhDVzCTcAvCO^bEbEzK`LfBeEtK`KhAdAnCbCvBpCNR~BxAxBf@z@h@vAz@z@{DrCoITTlElEtAnB`@l@pFrD@?fDr@XgAjFuR\\yADm@b@gFd@_B`A}@tEvJBDvC`FtJ|LLNlClC|@^hCYVExCjCb@d@vE`F`BhB?pHaBhRqAbLK~@qBxFqB|FcC~GyC\\aDkD","length":71},"routeShortName":"14","routeLongName":"Coopérative","rentedBike":false,"transitLeg":true,"duration":1000.0,"steps":[]},{"startTime":1522701521000,"endTime":1522701527000,"departureDelay":0,"arrivalDelay":0,"realTime":false,"distance":6.517,"pathway":false,"mode":"WALK","route":"","agencyTimeZoneOffset":-14400000,"interlineWithPreviousLeg":false,"from":{"name":"Malraux / Pagnol","stopId":"1:1978","stopCode":"1978","lon":-71.093388,"lat":48.400416,"arrival":1522701520000,"departure":1522701521000,"zoneId":"NA","stopIndex":29,"stopSequence":30,"vertexType":"TRANSIT"},"to":{"name":"Destination","lon":-71.093285,"lat":48.400296,"arrival":1522701527000,"orig":"","vertexType":"NORMAL"},"legGeometry":{"points":"selfHzl|pLDDBB","length":3},"rentedBike":false,"transitLeg":false,"duration":6.0,"steps":[{"distance":6.517,"relativeDirection":"DEPART","streetName":"Rue Malraux","absoluteDirection":"SOUTHWEST","stayOn":false,"area":false,"bogusName":false,"lon":-71.09341079342245,"lat":48.40042668071038,"elevation":[]}]}],"tooSloped":false}]},"debugOutput":{"precalculationTime":33,"pathCalculationTime":49,"pathTimes":[23,10,16],"renderingTime":0,"totalTime":82,"timedOut":false},"elevationMetadata":{"ellipsoidToGeoidDifference":-28.885904201182168,"geoidElevation":false}}