{"requestParameters":{"date":"2018/04/02","walkSpeed":"1.33","walkReluctance":"2.0","fromPlace":"48.399673,-71.092048","maxWalkDistance":"3000","waitReluctance":"1.0","carSpeed":"33","numItineraries":"3","waitAtBeginningFactor":"0.4","mode":"TRANSIT,WALK","ignoreRealtimeUpdates":"false","stairsReluctance":"2.0","toPlace":"48.394631,-71.073569","time":"14:0:00"},"plan":{"date":1522692000000,"from":{"name":"Origin","lon":-71.092048,"lat":48.399673,"orig":"","vertexType":"NORMAL"},"to":{"name":"Destination","lon":-71.073569,"lat":48.394631,"orig":"","vertexType":"NORMAL"},"itineraries":[{"duration":303,"startTime":1522692349000,"endTime":1522692652000,"walkTime":161,"transitTime":140,"waitingTime":2,"walkDistance":197.1553684179108,"walkLimitExceeded":false,"elevationLost":0.0,"elevationGained":0.0,"transfers":0,"legs":[{"startTime":1522692349000,"endTime":1522692498000,"departureDelay":0,"arrivalDelay":0,"realTime":false,"distance":181.507,"pathway":false,"mode":"WALK","route":"","agencyTimeZoneOffset":-14400000,"interlineWithPreviousLeg":false,"from":{"name":"Origin","lon":-71.092048,"lat":48.399673,"departure":1522692349000,"orig":"","vertexType":"NORMAL"},"to":{"name":"Malraux / Paul Morand","stopId":"1:92","stopCode":"92","lon":-71.092693,"lat":48.398228,"arrival":1522692498000,"departure":1522692499000,"zoneId":"NA","stopIndex":28,"stopSequence":29,"vertexType":"TRANSIT"},"legGeometry":{"points":"c`lfHrb|pLzB~BVq@jBvB","length":4},"rentedBike":false,"transitLeg":false,"duration":149.0,"steps":[{"distance":84.356,"relativeDirection":"DEPART","streetName":"Rue George Sand","absoluteDirection":"SOUTHWEST","stayOn":false,"area":false,"bogusName":false,"lon":-71.0917725852733,"lat":48.39954953375836,"elevation":[]},{"distance":22.478,"relativeDirection":"LEFT","streetName":"Rue De Musset","absoluteDirection":"SOUTHEAST","stayOn":false,"area":false,"bogusName":false,"lon":-71.09241200000001,"lat":48.398920800000006,"elevation":[]},{"distance":74.673,"relativeDirection":"RIGHT","streetName":"path","absoluteDirection":"SOUTHWEST","stayOn":false,"area":false,"bogusName":true,"lon":-71.0921637,"lat":48.3988038,"elevation":[]}]},{"startTime":1522692499000,"endTime":1522692639000,"departureDelay":0,"arrivalDelay":0,"realTime":false,"distance":1910.5838440594339,"pathway":false,"mode":"BUS","route":"14","agencyName":"Société de Transport du Saguenay","agencyUrl":"http://ville.saguenay.ca/fr/services-aux-citoyens/transport-sts","agencyTimeZoneOffset":-14400000,"routeColor":"C0C000","routeType":3,"routeId":"1:14","routeTextColor":"000000","interlineWithPreviousLeg":false,"tripBlockId":"30","headsign":"Talbot / Barrette","agencyId":"0","tripId":"1:218101","serviceDate":"20180402","from":{"name":"Malraux / Paul Morand","stopId":"1:92","stopCode":"92","lon":-71.092693,"lat":48.398228,"arrival":1522692498000,"departure":1522692499000,"zoneId":"NA","stopIndex":28,"stopSequence":29,"vertexType":"TRANSIT"},"to":{"name":"Maxi - boulevard Barrette","stopId":"1:88","stopCode":"88","lon":-71.07294,"lat":48.395,"arrival":1522692639000,"departure":1522692640000,"zoneId":"NA","stopIndex":34,"stopSequence":35,"vertexType":"TRANSIT"},"legGeometry":{"points":"wwkfHnh|pLcC~GyC\\aDkDcFsF~CgOtGm[j@oCvEoSl@_CxCmLjAeFpCeKrByHfAqC","length":15},"routeShortName":"14","routeLongName":"Coopérative","rentedBike":false,"transitLeg":true,"duration":140.0,"steps":[]},{"startTime":1522692640000,"endTime":1522692652000,"departureDelay":0,"arrivalDelay":0,"realTime":false,"distance":15.551,"pathway":false,"mode":"WALK","route":"","agencyTimeZoneOffset":-14400000,"interlineWithPreviousLeg":false,"from":{"name":"Maxi - boulevard Barrette","stopId":"1:88","stopCode":"88","lon":-71.07294,"lat":48.395,"arrival":1522692639000,"departure":1522692640000,"zoneId":"NA","stopIndex":34,"stopSequence":35,"vertexType":"TRANSIT"},"to":{"name":"Destination","lon":-71.073569,"lat":48.394631,"arrival":1522692652000,"orig":"","vertexType":"NORMAL"},"legGeometry":{"points":"sckfH~lxpLOb@","length":2},"rentedBike":false,"transitLeg":false,"duration":12.0,"steps":[{"distance":15.551,"relativeDirection":"DEPART","streetName":"bike path","absoluteDirection":"NORTHWEST","stayOn":false,"area":false,"bogusName":false,"lon":-71.072956176549,"lat":48.39498407908756,"elevation":[]}]}],"tooSloped":false},{"duration":1211,"startTime":1522692000000,"endTime":1522693211000,"walkTime":1211,"transitTime":0,"waitingTime":0,"walkDistance":1593.9601202991992,"walkLimitExceeded":false,"elevationLost":0.0,"elevationGained":0.0,"transfers":0,"legs":[{"startTime":1522692000000,"endTime":1522693211000,"departureDelay":0,"arrivalDelay":0,"realTime":false,"distance":1593.912,"pathway":false,"mode":"WALK","route":"","agencyTimeZoneOffset":-14400000,"interlineWithPreviousLeg":false,"from":{"name":"Origin","lon":-71.092048,"lat":48.399673,"departure":1522692000000,"orig":"","vertexType":"NORMAL"},"to":{"name":"Destination","lon":-71.073569,"lat":48.394631,"arrival":1522693211000,"orig":"","vertexType":"NORMAL"},"legGeometry":{"points":"c`lfHrb|pLq@q@KSG]?_@Fk@Li@aByCiAu@b@mB|AyIlA}Fz@_EBKbBoI^}Az@mDJe@r@qCj@_C`GsUf@kBlAyEnA_Fj@eBj@_B","length":26},"rentedBike":false,"transitLeg":false,"duration":1211.0,"steps":[{"distance":100.541,"relativeDirection":"DEPART","streetName":"Rue George Sand","absoluteDirection":"NORTHEAST","stayOn":false,"area":false,"bogusName":false,"lon":-71.0917725852733,"lat":48.39954953375836,"elevation":[]},{"distance":123.946,"relativeDirection":"LEFT","streetName":"path","absoluteDirection":"NORTHEAST","stayOn":false,"area":false,"bogusName":true,"lon":-71.09068880000001,"lat":48.3997886,"elevation":[]},{"distance":1369.425,"relativeDirection":"RIGHT","streetName":"bike path","absoluteDirection":"SOUTHEAST","stayOn":true,"area":false,"bogusName":true,"lon":-71.0896446,"lat":48.400640800000005,"elevation":[]}]}],"tooSloped":false},{"duration":303,"startTime":1522694149000,"endTime":1522694452000,"walkTime":161,"transitTime":140,"waitingTime":2,"walkDistance":197.1553684179108,"walkLimitExceeded":false,"elevationLost":0.0,"elevationGained":0.0,"transfers":0,"legs":[{"startTime":1522694149000,"endTime":1522694298000,"departureDelay":0,"arrivalDelay":0,"realTime":false,"distance":181.507,"pathway":false,"mode":"WALK","route":"","agencyTimeZoneOffset":-14400000,"interlineWithPreviousLeg":false,"from":{"name":"Origin","lon":-71.092048,"lat":48.399673,"departure":1522694149000,"orig":"","vertexType":"NORMAL"},"to":{"name":"Malraux / Paul Morand","stopId":"1:92","stopCode":"92","lon":-71.092693,"lat":48.398228,"arrival":1522694298000,"departure":1522694299000,"zoneId":"NA","stopIndex":28,"stopSequence":29,"vertexType":"TRANSIT"},"legGeometry":{"points":"c`lfHrb|pLzB~BVq@jBvB","length":4},"rentedBike":false,"transitLeg":false,"duration":149.0,"steps":[{"distance":84.356,"relativeDirection":"DEPART","streetName":"Rue George Sand","absoluteDirection":"SOUTHWEST","stayOn":false,"area":false,"bogusName":false,"lon":-71.0917725852733,"lat":48.39954953375836,"elevation":[]},{"distance":22.478,"relativeDirection":"LEFT","streetName":"Rue De Musset","absoluteDirection":"SOUTHEAST","stayOn":false,"area":false,"bogusName":false,"lon":-71.09241200000001,"lat":48.398920800000006,"elevation":[]},{"distance":74.673,"relativeDirection":"RIGHT","streetName":"path","absoluteDirection":"SOUTHWEST","stayOn":false,"area":false,"bogusName":true,"lon":-71.0921637,"lat":48.3988038,"elevation":[]}]},{"startTime":1522694299000,"endTime":1522694439000,"departureDelay":0,"arrivalDelay":0,"realTime":false,"distance":1910.5838440594339,"pathway":false,"mode":"BUS","route":"14","agencyName":"Société de Transport du Saguenay","agencyUrl":"http://ville.saguenay.ca/fr/services-aux-citoyens/transport-sts","agencyTimeZoneOffset":-14400000,"routeColor":"C0C000","routeType":3,"routeId":"1:14","routeTextColor":"000000","interlineWithPreviousLeg":false,"tripBlockId":"32","headsign":"Talbot / Barrette","agencyId":"0","tripId":"1:218162","serviceDate":"20180402","from":{"name":"Malraux / Paul Morand","stopId":"1:92","stopCode":"92","lon":-71.092693,"lat":48.398228,"arrival":1522694298000,"departure":1522694299000,"zoneId":"NA","stopIndex":28,"stopSequence":29,"vertexType":"TRANSIT"},"to":{"name":"Maxi - boulevard Barrette","stopId":"1:88","stopCode":"88","lon":-71.07294,"lat":48.395,"arrival":1522694439000,"departure":1522694440000,"zoneId":"NA","stopIndex":34,"stopSequence":35,"vertexType":"TRANSIT"},"legGeometry":{"points":"wwkfHnh|pLcC~GyC\\aDkDcFsF~CgOtGm[j@oCvEoSl@_CxCmLjAeFpCeKrByHfAqC","length":15},"routeShortName":"14","routeLongName":"Coopérative","rentedBike":false,"transitLeg":true,"duration":140.0,"steps":[]},{"startTime":1522694440000,"endTime":1522694452000,"departureDelay":0,"arrivalDelay":0,"realTime":false,"distance":15.551,"pathway":false,"mode":"WALK","route":"","agencyTimeZoneOffset":-14400000,"interlineWithPreviousLeg":false,"from":{"name":"Maxi - boulevard Barrette","stopId":"1:88","stopCode":"88","lon":-71.07294,"lat":48.395,"arrival":1522694439000,"departure":1522694440000,"zoneId":"NA","stopIndex":34,"stopSequence":35,"vertexType":"TRANSIT"},"to":{"name":"Destination","lon":-71.073569,"lat":48.394631,"arrival":1522694452000,"orig":"","vertexType":"NORMAL"},"legGeometry":{"points":"sckfH~lxpLOb@","length":2},"rentedBike":false,"transitLeg":false,"duration":12.0,"steps":[{"distance":15.551,"relativeDirection":"DEPART","streetName":"bike path","absoluteDirection":"NORTHWEST","stayOn":false,"area":false,"bogusName":false,"lon":-71.072956176549,"lat":48.39498407908756,"elevation":[]}]}],"tooSloped":false}]},"debugOutput":{"precalculationTime":21,"pathCalculationTime":15,"pathTimes":[5,6,4],"renderingTime":0,"totalTime":36,"timedOut":false},"elevationMetadata":{"ellipsoidToGeoidDifference":-28.885904201182168,"geoidElevation":false}}