{"requestParameters":{"date":"2018/04/02","walkSpeed":"1.33","walkReluctance":"2.0","fromPlace":"48.389264,-71.07493999","maxWalkDistance":"3000","waitReluctance":"1.0","carSpeed":"33","numItineraries":"3","waitAtBeginningFactor":"0.4","mode":"TRANSIT,WALK","ignoreRealtimeUpdates":"false","stairsReluctance":"2.0","toPlace":"48.400038,-71.090958","time":"7:40:00"},"plan":{"date":1522669200000,"from":{"name":"Origin","lon":-71.07493999,"lat":48.389264,"orig":"","vertexType":"NORMAL"},"to":{"name":"Destination","lon":-71.090958,"lat":48.400038,"orig":"","vertexType":"NORMAL"},"itineraries":[{"duration":1442,"startTime":1522669833000,"endTime":1522671275000,"walkTime":1108,"transitTime":332,"waitingTime":2,"walkDistance":1443.497872175648,"walkLimitExceeded":false,"elevationLost":0.0,"elevationGained":0.0,"transfers":0,"legs":[{"startTime":1522669833000,"endTime":1522670740000,"departureDelay":0,"arrivalDelay":0,"realTime":false,"distance":1188.286,"pathway":false,"mode":"WALK","route":"","agencyTimeZoneOffset":-14400000,"interlineWithPreviousLeg":false,"from":{"name":"Origin","lon":-71.07493999,"lat":48.389264,"departure":1522669833000,"orig":"","vertexType":"NORMAL"},"to":{"name":"Jacques-Ferron / Flaubert","stopId":"1:45","stopCode":"45","lon":-71.075906,"lat":48.394877,"arrival":1522670740000,"departure":1522670741000,"zoneId":"NA","stopIndex":10,"stopSequence":11,"vertexType":"TRANSIT"},"legGeometry":{"points":"cajfH|{xpLQS{EyFcAkAkGkHmAyAsEkFKMQb@GLAFaHzQW`As@rCi@vBhA~@\\WxAZd@F","length":19},"rentedBike":false,"transitLeg":false,"duration":907.0,"steps":[{"distance":607.802,"relativeDirection":"DEPART","streetName":"Boulevard Talbot","absoluteDirection":"NORTHEAST","stayOn":false,"area":false,"bogusName":false,"lon":-71.07534745359905,"lat":48.389468830998204,"elevation":[]},{"distance":441.378,"relativeDirection":"LEFT","streetName":"Boulevard Barrette","absoluteDirection":"NORTHWEST","stayOn":false,"area":false,"bogusName":false,"lon":-71.07041720000001,"lat":48.393846,"elevation":[]},{"distance":139.106,"relativeDirection":"LEFT","streetName":"Rue Jacques-Ferron","absoluteDirection":"SOUTHWEST","stayOn":false,"area":false,"bogusName":false,"lon":-71.0753974,"lat":48.396028400000006,"elevation":[]}]},{"startTime":1522670741000,"endTime":1522671073000,"departureDelay":0,"arrivalDelay":0,"realTime":false,"distance":1301.0585352107523,"pathway":false,"mode":"BUS","route":"205S","agencyName":"Société de Transport du Saguenay","agencyUrl":"http://ville.saguenay.ca/fr/services-aux-citoyens/transport-sts","agencyTimeZoneOffset":-14400000,"routeColor":"8B0000","routeType":3,"routeId":"1:205S","routeTextColor":"FFFFFF","interlineWithPreviousLeg":false,"tripBlockId":"49","headsign":"Séminaire","agencyId":"0","tripId":"1:218411","serviceDate":"20180402","from":{"name":"Jacques-Ferron / Flaubert","stopId":"1:45","stopCode":"45","lon":-71.075906,"lat":48.394877,"arrival":1522670740000,"departure":1522670741000,"zoneId":"NA","stopIndex":10,"stopSequence":11,"vertexType":"TRANSIT"},"to":{"name":"Malraux / Paul Morand","stopId":"1:92","stopCode":"92","lon":-71.092693,"lat":48.398228,"arrival":1522671073000,"departure":1522671074000,"zoneId":"NA","stopIndex":13,"stopSequence":14,"vertexType":"TRANSIT"},"legGeometry":{"points":"{bkfHt~xpL^FdB|AV^u@xHsCzH}G`RRRh@~@BBT`@Ld@Dl@Ch@u@|IUdCkCs@cB]?NcD|OSf@s@tAUj@Qh@PPRVJPDHNZV`@tDtEyBzF","length":32},"routeShortName":"205S","routeLongName":"Séminaire - Bégin/Malraux","rentedBike":false,"transitLeg":true,"duration":332.0,"steps":[]},{"startTime":1522671074000,"endTime":1522671275000,"departureDelay":0,"arrivalDelay":0,"realTime":false,"distance":255.06300000000002,"pathway":false,"mode":"WALK","route":"","agencyTimeZoneOffset":-14400000,"interlineWithPreviousLeg":false,"from":{"name":"Malraux / Paul Morand","stopId":"1:92","stopCode":"92","lon":-71.092693,"lat":48.398228,"arrival":1522671073000,"departure":1522671074000,"zoneId":"NA","stopIndex":13,"stopSequence":14,"vertexType":"TRANSIT"},"to":{"name":"Destination","lon":-71.090958,"lat":48.400038,"arrival":1522671275000,"orig":"","vertexType":"NORMAL"},"legGeometry":{"points":"cxkfHxh|pLkBwBWp@mDqDKSG]?_@BQ","length":8},"rentedBike":false,"transitLeg":false,"duration":201.0,"steps":[{"distance":74.673,"relativeDirection":"DEPART","streetName":"path","absoluteDirection":"NORTHEAST","stayOn":false,"area":false,"bogusName":true,"lon":-71.09276985880696,"lat":48.39826620258713,"elevation":[]},{"distance":22.478,"relativeDirection":"LEFT","streetName":"Rue De Musset","absoluteDirection":"NORTHWEST","stayOn":false,"area":false,"bogusName":false,"lon":-71.0921637,"lat":48.3988038,"elevation":[]},{"distance":157.912,"relativeDirection":"RIGHT","streetName":"Rue George Sand","absoluteDirection":"NORTHEAST","stayOn":false,"area":false,"bogusName":false,"lon":-71.09241200000001,"lat":48.398920800000006,"elevation":[]}]}],"tooSloped":false},{"duration":798,"startTime":1522670585000,"endTime":1522671383000,"walkTime":677,"transitTime":119,"waitingTime":2,"walkDistance":879.2395488699365,"walkLimitExceeded":false,"elevationLost":0.0,"elevationGained":0.0,"transfers":0,"legs":[{"startTime":1522670585000,"endTime":1522671119000,"departureDelay":0,"arrivalDelay":0,"realTime":false,"distance":700.471,"pathway":false,"mode":"WALK","route":"","agencyTimeZoneOffset":-14400000,"interlineWithPreviousLeg":false,"from":{"name":"Origin","lon":-71.07493999,"lat":48.389264,"departure":1522670585000,"orig":"","vertexType":"NORMAL"},"to":{"name":"Roitelets / Sapins","stopId":"1:1513","stopCode":"1513","lon":-71.069396,"lat":48.393523,"arrival":1522671119000,"departure":1522671120000,"zoneId":"NA","stopIndex":0,"stopSequence":1,"vertexType":"TRANSIT"},"legGeometry":{"points":"cajfH|{xpLQS{EyFcAkAkGkHmAyAsEkFKMOOFQ@CnA{C","length":12},"rentedBike":false,"transitLeg":false,"duration":534.0,"steps":[{"distance":618.5070000000001,"relativeDirection":"DEPART","streetName":"Boulevard Talbot","absoluteDirection":"NORTHEAST","stayOn":false,"area":false,"bogusName":false,"lon":-71.07534745359905,"lat":48.389468830998204,"elevation":[]},{"distance":81.964,"relativeDirection":"RIGHT","streetName":"Rue Des Roitelets","absoluteDirection":"SOUTHEAST","stayOn":false,"area":false,"bogusName":false,"lon":-71.0703318,"lat":48.3939238,"elevation":[]}]},{"startTime":1522671120000,"endTime":1522671239000,"departureDelay":0,"arrivalDelay":0,"realTime":false,"distance":1695.4406253889206,"pathway":false,"mode":"BUS","route":"14","agencyName":"Société de Transport du Saguenay","agencyUrl":"http://ville.saguenay.ca/fr/services-aux-citoyens/transport-sts","agencyTimeZoneOffset":-14400000,"routeColor":"C0C000","routeType":3,"routeId":"1:14","routeTextColor":"000000","interlineWithPreviousLeg":false,"tripBlockId":"31","headsign":"Terminus Chicoutimi","agencyId":"0","tripId":"1:218125","serviceDate":"20180402","from":{"name":"Roitelets / Sapins","stopId":"1:1513","stopCode":"1513","lon":-71.069396,"lat":48.393523,"arrival":1522671119000,"departure":1522671120000,"zoneId":"NA","stopIndex":0,"stopSequence":1,"vertexType":"TRANSIT"},"to":{"name":"boul. Barrette passerelle Verlaine","stopId":"1:1899","stopCode":"1899","lon":-71.089455,"lat":48.400859,"arrival":1522671239000,"departure":1522671240000,"zoneId":"NA","stopIndex":5,"stopSequence":6,"vertexType":"TRANSIT"},"legGeometry":{"points":"azjfHfwwpLiEfLuBzFsAnDgGzSWfAcD`Mi@dCgChLmCzMwGd\\","length":11},"routeShortName":"14","routeLongName":"Coopérative","rentedBike":false,"transitLeg":true,"duration":119.0,"steps":[]},{"startTime":1522671240000,"endTime":1522671383000,"departureDelay":0,"arrivalDelay":0,"realTime":false,"distance":178.69899999999998,"pathway":false,"mode":"WALK","route":"","agencyTimeZoneOffset":-14400000,"interlineWithPreviousLeg":false,"from":{"name":"boul. Barrette passerelle Verlaine","stopId":"1:1899","stopCode":"1899","lon":-71.089455,"lat":48.400859,"arrival":1522671239000,"departure":1522671240000,"zoneId":"NA","stopIndex":5,"stopSequence":6,"vertexType":"TRANSIT"},"to":{"name":"Destination","lon":-71.090958,"lat":48.400038,"arrival":1522671383000,"orig":"","vertexType":"NORMAL"},"legGeometry":{"points":"khlfHht{pLB@RNRLhAt@`BxCMh@CX","length":8},"rentedBike":false,"transitLeg":false,"duration":143.0,"steps":[{"distance":151.713,"relativeDirection":"DEPART","streetName":"path","absoluteDirection":"SOUTH","stayOn":false,"area":false,"bogusName":true,"lon":-71.08948426356135,"lat":48.40086663679363,"elevation":[]},{"distance":26.986,"relativeDirection":"RIGHT","streetName":"Rue George Sand","absoluteDirection":"NORTHWEST","stayOn":false,"area":false,"bogusName":false,"lon":-71.09068880000001,"lat":48.3997886,"elevation":[]}]}],"tooSloped":false},{"duration":798,"startTime":1522672385000,"endTime":1522673183000,"walkTime":677,"transitTime":119,"waitingTime":2,"walkDistance":879.2395488699365,"walkLimitExceeded":false,"elevationLost":0.0,"elevationGained":0.0,"transfers":0,"legs":[{"startTime":1522672385000,"endTime":1522672919000,"departureDelay":0,"arrivalDelay":0,"realTime":false,"distance":700.471,"pathway":false,"mode":"WALK","route":"","agencyTimeZoneOffset":-14400000,"interlineWithPreviousLeg":false,"from":{"name":"Origin","lon":-71.07493999,"lat":48.389264,"departure":1522672385000,"orig":"","vertexType":"NORMAL"},"to":{"name":"Roitelets / Sapins","stopId":"1:1513","stopCode":"1513","lon":-71.069396,"lat":48.393523,"arrival":1522672919000,"departure":1522672920000,"zoneId":"NA","stopIndex":0,"stopSequence":1,"vertexType":"TRANSIT"},"legGeometry":{"points":"cajfH|{xpLQS{EyFcAkAkGkHmAyAsEkFKMOOFQ@CnA{C","length":12},"rentedBike":false,"transitLeg":false,"duration":534.0,"steps":[{"distance":618.5070000000001,"relativeDirection":"DEPART","streetName":"Boulevard Talbot","absoluteDirection":"NORTHEAST","stayOn":false,"area":false,"bogusName":false,"lon":-71.07534745359905,"lat":48.389468830998204,"elevation":[]},{"distance":81.964,"relativeDirection":"RIGHT","streetName":"Rue Des Roitelets","absoluteDirection":"SOUTHEAST","stayOn":false,"area":false,"bogusName":false,"lon":-71.0703318,"lat":48.3939238,"elevation":[]}]},{"startTime":1522672920000,"endTime":1522673039000,"departureDelay":0,"arrivalDelay":0,"realTime":false,"distance":1695.4406253889206,"pathway":false,"mode":"BUS","route":"14","agencyName":"Société de Transport du Saguenay","agencyUrl":"http://ville.saguenay.ca/fr/services-aux-citoyens/transport-sts","agencyTimeZoneOffset":-14400000,"routeColor":"C0C000","routeType":3,"routeId":"1:14","routeTextColor":"000000","interlineWithPreviousLeg":false,"tripBlockId":"33","headsign":"Terminus Chicoutimi","agencyId":"0","tripId":"1:218176","serviceDate":"20180402","from":{"name":"Roitelets / Sapins","stopId":"1:1513","stopCode":"1513","lon":-71.069396,"lat":48.393523,"arrival":1522672919000,"departure":1522672920000,"zoneId":"NA","stopIndex":0,"stopSequence":1,"vertexType":"TRANSIT"},"to":{"name":"boul. Barrette passerelle Verlaine","stopId":"1:1899","stopCode":"1899","lon":-71.089455,"lat":48.400859,"arrival":1522673039000,"departure":1522673040000,"zoneId":"NA","stopIndex":5,"stopSequence":6,"vertexType":"TRANSIT"},"legGeometry":{"points":"azjfHfwwpLiEfLuBzFsAnDgGzSWfAcD`Mi@dCgChLmCzMwGd\\","length":11},"routeShortName":"14","routeLongName":"Coopérative","rentedBike":false,"transitLeg":true,"duration":119.0,"steps":[]},{"startTime":1522673040000,"endTime":1522673183000,"departureDelay":0,"arrivalDelay":0,"realTime":false,"distance":178.69899999999998,"pathway":false,"mode":"WALK","route":"","agencyTimeZoneOffset":-14400000,"interlineWithPreviousLeg":false,"from":{"name":"boul. Barrette passerelle Verlaine","stopId":"1:1899","stopCode":"1899","lon":-71.089455,"lat":48.400859,"arrival":1522673039000,"departure":1522673040000,"zoneId":"NA","stopIndex":5,"stopSequence":6,"vertexType":"TRANSIT"},"to":{"name":"Destination","lon":-71.090958,"lat":48.400038,"arrival":1522673183000,"orig":"","vertexType":"NORMAL"},"legGeometry":{"points":"khlfHht{pLB@RNRLhAt@`BxCMh@CX","length":8},"rentedBike":false,"transitLeg":false,"duration":143.0,"steps":[{"distance":151.713,"relativeDirection":"DEPART","streetName":"path","absoluteDirection":"SOUTH","stayOn":false,"area":false,"bogusName":true,"lon":-71.08948426356135,"lat":48.40086663679363,"elevation":[]},{"distance":26.986,"relativeDirection":"RIGHT","streetName":"Rue George Sand","absoluteDirection":"NORTHWEST","stayOn":false,"area":false,"bogusName":false,"lon":-71.09068880000001,"lat":48.3997886,"elevation":[]}]}],"tooSloped":false}]},"debugOutput":{"precalculationTime":20,"pathCalculationTime":22,"pathTimes":[13,4,5],"renderingTime":0,"totalTime":42,"timedOut":false},"elevationMetadata":{"ellipsoidToGeoidDifference":-28.885904201182168,"geoidElevation":false}}