{"requestParameters":{"date":"2018/04/02","walkSpeed":"1.33","walkReluctance":"2.0","fromPlace":"48.443972,-71.093894","maxWalkDistance":"3000","waitReluctance":"1.0","carSpeed":"33","numItineraries":"3","waitAtBeginningFactor":"0.4","mode":"TRANSIT,WALK","ignoreRealtimeUpdates":"false","stairsReluctance":"2.0","toPlace":"48.400249,-71.091933","time":"19:45:00"},"plan":{"date":1522712700000,"from":{"name":"Origin","lon":-71.093894,"lat":48.443972,"orig":"","vertexType":"NORMAL"},"to":{"name":"Destination","lon":-71.091933,"lat":48.400249,"orig":"","vertexType":"NORMAL"},"itineraries":[{"duration":3347,"startTime":1522713096000,"endTime":1522716443000,"walkTime":389,"transitTime":2656,"waitingTime":302,"walkDistance":493.0354135301104,"walkLimitExceeded":false,"elevationLost":0.0,"elevationGained":0.0,"transfers":1,"legs":[{"startTime":1522713096000,"endTime":1522713309000,"departureDelay":0,"arrivalDelay":0,"realTime":false,"distance":271.55500000000006,"pathway":false,"mode":"WALK","route":"","agencyTimeZoneOffset":-14400000,"interlineWithPreviousLeg":false,"from":{"name":"Origin","lon":-71.093894,"lat":48.443972,"departure":1522713096000,"orig":"","vertexType":"NORMAL"},"to":{"name":"St-Armand / Solange","stopId":"1:685","stopCode":"685","lon":-71.09082,"lat":48.445299,"arrival":1522713309000,"departure":1522713310000,"zoneId":"NA","stopIndex":9,"stopSequence":10,"vertexType":"TRANSIT"},"legGeometry":{"points":"{utfHzo|pLWeCAEAECIGOc@mAsAmDaBsCJ]","length":10},"rentedBike":false,"transitLeg":false,"duration":213.0,"steps":[{"distance":259.49100000000004,"relativeDirection":"DEPART","streetName":"Rue Solange","absoluteDirection":"EAST","stayOn":false,"area":false,"bogusName":false,"lon":-71.09389851943742,"lat":48.44398280059189,"elevation":[]},{"distance":12.064,"relativeDirection":"RIGHT","streetName":"Rue Saint-Armand","absoluteDirection":"SOUTHEAST","stayOn":false,"area":false,"bogusName":false,"lon":-71.0910302,"lat":48.4452702,"elevation":[]}]},{"startTime":1522713310000,"endTime":1522714200000,"departureDelay":0,"arrivalDelay":0,"realTime":false,"distance":5960.116702935813,"pathway":false,"mode":"BUS","route":"20","agencyName":"Société de Transport du Saguenay","agencyUrl":"http://ville.saguenay.ca/fr/services-aux-citoyens/transport-sts","agencyTimeZoneOffset":-14400000,"routeColor":"0000FF","routeType":3,"routeId":"1:20","routeTextColor":"FFFFFF","interlineWithPreviousLeg":false,"tripBlockId":"3","headsign":"Terminus Chicoutimi","agencyId":"0","tripId":"1:217213","serviceDate":"20180402","from":{"name":"St-Armand / Solange","stopId":"1:685","stopCode":"685","lon":-71.09082,"lat":48.445299,"arrival":1522713309000,"departure":1522713310000,"zoneId":"NA","stopIndex":9,"stopSequence":10,"vertexType":"TRANSIT"},"to":{"name":"Terminus Chicoutimi","stopId":"1:1289","stopCode":"1289","lon":-71.066163,"lat":48.428677,"arrival":1522714200000,"departure":1522714500000,"zoneId":"NA","stopIndex":31,"stopSequence":32,"vertexType":"TRANSIT"},"legGeometry":{"points":"q}tfH||{pLCRCFGLKJQNSHaAZa@Pk@\\a@XZrAHp@@FDj@Bp@?~I@fHAd@C`@ERELA@GHMHi@PSBy@BW?YDMDC?OHULWVOXQXSb@~@~BJXF`@Fj@?VAvACv@e@hNGx@MdAQr@ILQ\\a@d@w@aCCQAO@ODOHQDSDWLoDRgGBMFMHIHAfBNDuA@wA?WGk@Ga@KY_A_CRc@PYNYUk@Q[O]KYC]_AaQYwF?W?Y?UBc@D_@d@{DNaAB]@O@]?}BbA?hA?A}I?iEEcEjBCzBEd@Cf@Gj@MZMb@S`Ag@DClAk@f@Qv@Ov@IlBCnBa@TCTBjBPH@LiCDe@Lw@|@cELo@D[Dk@@[@uC@SBUDQFSt@yAHIr@eAjAaB`AqA^i@p@kAVc@\\cAr@eBv@aB|B_CJSDKLe@NeAJaAHeBBi@F{AaFe@c@IcDeAWtBOfAERGLIHIFMBa@NOQSOUGOCW?UFMHa@XUHQ?QIQOIM[g@rCmFhHqN~@eBr@cAt@_Av@}@RQPMz@k@tAe@REZG^Af@@X@VF`@Jn@XbClAr@Xt\\`PrAb@pA^hBTjAFj@Pb@JPHLLJNJRFXDT?X?ZEVEVKTMNMHMFOB}DWSGOSYcAN}FFkAF}DJyDPwGj@_QjAN~ALIpBGVITe@@","length":235},"routeShortName":"20","routeLongName":"Sainte-Claire","rentedBike":false,"transitLeg":true,"duration":890.0,"steps":[]},{"startTime":1522714500000,"endTime":1522716120000,"departureDelay":0,"arrivalDelay":0,"realTime":false,"distance":8780.793308460485,"pathway":false,"mode":"BUS","route":"15","agencyName":"Société de Transport du Saguenay","agencyUrl":"http://ville.saguenay.ca/fr/services-aux-citoyens/transport-sts","agencyTimeZoneOffset":-14400000,"routeColor":"FF00FF","routeType":3,"routeId":"1:15","routeTextColor":"FFFFFF","interlineWithPreviousLeg":false,"tripBlockId":"33","headsign":"Talbot / Barrette","agencyId":"0","tripId":"1:218199","serviceDate":"20180402","from":{"name":"Terminus Chicoutimi","stopId":"1:1289","stopCode":"1289","lon":-71.066163,"lat":48.428677,"arrival":1522714200000,"departure":1522714500000,"zoneId":"NA","stopIndex":0,"stopSequence":1,"vertexType":"TRANSIT"},"to":{"name":"Roitelets / Sapins","stopId":"1:1543","stopCode":"1543","lon":-71.069553,"lat":48.393375,"arrival":1522716120000,"departure":1522716120000,"zoneId":"NA","stopIndex":35,"stopSequence":36,"vertexType":"TRANSIT"},"legGeometry":{"points":"evqfHpbwpLPiCjKx@HiEZkS\\aSN_K^eIrBpBvIpIr@r@\\mBfAaA`@gBOkB_@uF|DyL|DpDQ|@|@z@bA`ATw@dD~Ch@fA@`E~AjGuH`Iy@bBi@dCbEdEjJlJ`HbHlJpJ|J~JdAfALzDNzDrAdBrEKvBEbCv@d@TvFlC|DlBpMlGrB`AM}@hAwEC{B]oBiBmBsH_@_K{H`EgIvCaGfEoItDsH~DeItC{FnBoLbCaO?qLa@uJzF`ApF~@~@PzAgEeDcBf@qAWcKUqEx@Ef@ExDVjDxAFBrBvAfGjG@BjCzC~DxC@@zA~Cb@fCJlC?BsBre@?DWbOAn@?nEGnM@H\\hCzA~ELvAAlAi@jDo@nB","length":99},"routeShortName":"15","routeLongName":"Term. Chic / Costco","rentedBike":false,"transitLeg":true,"duration":1620.0,"steps":[]},{"startTime":1522716120000,"endTime":1522716266000,"departureDelay":0,"arrivalDelay":0,"realTime":false,"distance":2001.932967403964,"pathway":false,"mode":"BUS","route":"14","agencyName":"Société de Transport du Saguenay","agencyUrl":"http://ville.saguenay.ca/fr/services-aux-citoyens/transport-sts","agencyTimeZoneOffset":-14400000,"routeColor":"C0C000","routeType":3,"routeId":"1:14","routeTextColor":"000000","interlineWithPreviousLeg":true,"tripBlockId":"33","headsign":"Terminus Chicoutimi","agencyId":"0","tripId":"1:218200","serviceDate":"20180402","from":{"name":"Roitelets / Sapins","stopId":"1:1513","stopCode":"1513","lon":-71.069396,"lat":48.393523,"arrival":1522716120000,"departure":1522716120000,"zoneId":"NA","stopIndex":0,"stopSequence":1,"vertexType":"TRANSIT"},"to":{"name":"Malraux / Pagnol","stopId":"1:441","stopCode":"441","lon":-71.09356,"lat":48.400447,"arrival":1522716266000,"departure":1522716267000,"zoneId":"NA","stopIndex":6,"stopSequence":7,"vertexType":"TRANSIT"},"legGeometry":{"points":"azjfHfwwpLiEfLuBzFsAnDgGzSWfAcD`Mi@dCgChLmCzMwGd\\aDxOdFtF","length":13},"routeShortName":"14","routeLongName":"Coopérative","rentedBike":false,"transitLeg":true,"duration":146.0,"steps":[]},{"startTime":1522716267000,"endTime":1522716443000,"departureDelay":0,"arrivalDelay":0,"realTime":false,"distance":221.365,"pathway":false,"mode":"WALK","route":"","agencyTimeZoneOffset":-14400000,"interlineWithPreviousLeg":false,"from":{"name":"Malraux / Pagnol","stopId":"1:441","stopCode":"441","lon":-71.09356,"lat":48.400447,"arrival":1522716266000,"departure":1522716267000,"zoneId":"NA","stopIndex":6,"stopSequence":7,"vertexType":"TRANSIT"},"to":{"name":"Destination","lon":-71.091933,"lat":48.400249,"arrival":1522716443000,"orig":"","vertexType":"NORMAL"},"legGeometry":{"points":"melfH`m|pL`AdApAcDgCqD","length":4},"rentedBike":false,"transitLeg":false,"duration":176.0,"steps":[{"distance":44.543,"relativeDirection":"DEPART","streetName":"Rue Malraux","absoluteDirection":"SOUTHWEST","stayOn":false,"area":false,"bogusName":false,"lon":-71.0934459868607,"lat":48.400393574945504,"elevation":[]},{"distance":75.917,"relativeDirection":"LEFT","streetName":"Rue Pagnol","absoluteDirection":"SOUTHEAST","stayOn":false,"area":false,"bogusName":false,"lon":-71.09379390000001,"lat":48.400066300000006,"elevation":[]},{"distance":100.905,"relativeDirection":"LEFT","streetName":"Rue Balzac","absoluteDirection":"NORTHEAST","stayOn":false,"area":false,"bogusName":false,"lon":-71.0929785,"lat":48.399650300000005,"elevation":[]}]}],"tooSloped":false},{"duration":3021,"startTime":1522714880000,"endTime":1522717901000,"walkTime":990,"transitTime":1729,"waitingTime":302,"walkDistance":1251.3442556293446,"walkLimitExceeded":false,"elevationLost":0.0,"elevationGained":0.0,"transfers":1,"legs":[{"startTime":1522714880000,"endTime":1522715690000,"departureDelay":0,"arrivalDelay":0,"realTime":false,"distance":1025.171,"pathway":false,"mode":"WALK","route":"","agencyTimeZoneOffset":-14400000,"interlineWithPreviousLeg":false,"from":{"name":"Origin","lon":-71.093894,"lat":48.443972,"departure":1522714880000,"orig":"","vertexType":"NORMAL"},"to":{"name":"boul. Ste-Geneviève / Dieppe","stopId":"1:2010","stopCode":"2010","lon":-71.083056,"lat":48.446404,"arrival":1522715690000,"departure":1522715691000,"zoneId":"NA","stopIndex":30,"stopSequence":31,"vertexType":"TRANSIT"},"legGeometry":{"points":"{utfHzo|pLWeCAEAECIGOc@mAsAmDaBsCJ]BK?Az@oHAe@?gDAS?IQs@S[A?e@u@AICqDEyFNIA{A?YUSmAD{BFAkAMiAa@uBj@s@","length":34},"alerts":[{"alertHeaderText":"Unpaved surface"}],"rentedBike":false,"transitLeg":false,"duration":810.0,"steps":[{"distance":259.49100000000004,"relativeDirection":"DEPART","streetName":"Rue Solange","absoluteDirection":"EAST","stayOn":false,"area":false,"bogusName":false,"lon":-71.09389851943742,"lat":48.44398280059189,"elevation":[]},{"distance":217.997,"relativeDirection":"RIGHT","streetName":"Rue Saint-Armand","absoluteDirection":"SOUTHEAST","stayOn":false,"area":false,"bogusName":false,"lon":-71.0910302,"lat":48.4452702,"elevation":[]},{"distance":70.658,"relativeDirection":"SLIGHTLY_LEFT","streetName":"Rue Saint-Denis","absoluteDirection":"NORTHEAST","stayOn":false,"area":false,"bogusName":false,"lon":-71.08816850000001,"lat":48.4449102,"elevation":[]},{"distance":161.772,"relativeDirection":"RIGHT","streetName":"Rue Saint-Armand","absoluteDirection":"EAST","stayOn":false,"area":false,"bogusName":false,"lon":-71.0874465,"lat":48.445303900000006,"elevation":[]},{"distance":9.852,"relativeDirection":"RIGHT","streetName":"Rue Sainte-Marie Sud","absoluteDirection":"SOUTHEAST","stayOn":false,"area":false,"bogusName":false,"lon":-71.0852564,"lat":48.4453605,"elevation":[],"alerts":[{"alertHeaderText":"Unpaved surface"}]},{"distance":42.909,"relativeDirection":"LEFT","streetName":"Rue Sauvé","absoluteDirection":"EAST","stayOn":false,"area":false,"bogusName":false,"lon":-71.08520060000001,"lat":48.445280000000004,"elevation":[]},{"distance":126.56799999999998,"relativeDirection":"LEFT","streetName":"Rue Pasteur Sud","absoluteDirection":"NORTHEAST","stayOn":false,"area":false,"bogusName":false,"lon":-71.0846193,"lat":48.4452944,"elevation":[]},{"distance":104.537,"relativeDirection":"RIGHT","streetName":"Rue de Dieppe","absoluteDirection":"EAST","stayOn":false,"area":false,"bogusName":false,"lon":-71.0845888,"lat":48.4464106,"elevation":[]},{"distance":31.387,"relativeDirection":"RIGHT","streetName":"Boulevard Sainte-Geneviève","absoluteDirection":"SOUTHEAST","stayOn":false,"area":false,"bogusName":false,"lon":-71.083242,"lat":48.446665800000005,"elevation":[]}]},{"startTime":1522715691000,"endTime":1522716000000,"departureDelay":0,"arrivalDelay":0,"realTime":false,"distance":2506.8372204845045,"pathway":false,"mode":"BUS","route":"21","agencyName":"Société de Transport du Saguenay","agencyUrl":"http://ville.saguenay.ca/fr/services-aux-citoyens/transport-sts","agencyTimeZoneOffset":-14400000,"routeColor":"556B2F","routeType":3,"routeId":"1:21","routeTextColor":"FFFFFF","interlineWithPreviousLeg":false,"tripBlockId":"2","headsign":"Terminus Chicoutimi","agencyId":"0","tripId":"1:217181","serviceDate":"20180402","from":{"name":"boul. Ste-Geneviève / Dieppe","stopId":"1:2010","stopCode":"2010","lon":-71.083056,"lat":48.446404,"arrival":1522715690000,"departure":1522715691000,"zoneId":"NA","stopIndex":30,"stopSequence":31,"vertexType":"TRANSIT"},"to":{"name":"Terminus Chicoutimi","stopId":"1:1289","stopCode":"1289","lon":-71.066163,"lat":48.428677,"arrival":1522716000000,"departure":1522716300000,"zoneId":"NA","stopIndex":34,"stopSequence":35,"vertexType":"TRANSIT"},"legGeometry":{"points":"geufHtkzpLdBwBt@cAbAmBx@eBj@eB`CoHpCyJbAmCtAuCZg@|@gBxAsCrCmFhHqN~@eBr@cAt@_Av@}@RQPMz@k@tAe@REZG^Af@@X@VF`@Jn@XbClAr@Xt\\`PrAb@pA^hBTjAFj@Pb@JPHLLJNJRFXDT?X?ZEVEVKTMNMHMFOB}DWSGOSYcAN}FFkAF}DJyDPwGvAHVyL","length":66},"routeShortName":"21","routeLongName":"Boul. Ste-Geneviève/Élie","rentedBike":false,"transitLeg":true,"duration":309.0,"steps":[]},{"startTime":1522716300000,"endTime":1522717720000,"departureDelay":0,"arrivalDelay":0,"realTime":false,"distance":7475.559574856033,"pathway":false,"mode":"BUS","route":"14","agencyName":"Société de Transport du Saguenay","agencyUrl":"http://ville.saguenay.ca/fr/services-aux-citoyens/transport-sts","agencyTimeZoneOffset":-14400000,"routeColor":"C0C000","routeType":3,"routeId":"1:14","routeTextColor":"000000","interlineWithPreviousLeg":false,"tripBlockId":"30","headsign":"Talbot / Barrette","agencyId":"0","tripId":"1:218115","serviceDate":"20180402","from":{"name":"Terminus Chicoutimi","stopId":"1:1289","stopCode":"1289","lon":-71.066163,"lat":48.428677,"arrival":1522716000000,"departure":1522716300000,"zoneId":"NA","stopIndex":0,"stopSequence":1,"vertexType":"TRANSIT"},"to":{"name":"Malraux / Pagnol","stopId":"1:1978","stopCode":"1978","lon":-71.093388,"lat":48.400416,"arrival":1522717720000,"departure":1522717721000,"zoneId":"NA","stopIndex":29,"stopSequence":30,"vertexType":"TRANSIT"},"legGeometry":{"points":"qvqfHnbwpLJkClLh@DsDTmSHwFB{I@m@@eBH_AF}A@w@Dq@@i@B}B@Y@e@D]F_@@SHQCKnBnBvIrIn@n@\\iATg@v@_ATg@LmABg@Is@c@iEAm@bAcDTcAtA{DJI|AxAvAvAQv@~@z@dA`ATq@`E~DL`@E`Ex@hDd@`B}FtFaAzAm@xAe@jCa@nDiAbm@SpKM`H]vBhDVzCTcAvCO^bEbEzK`LfBeEtK`KhAdAnCbCvBpCNR~BxAxBf@z@h@vAz@z@{DrCoITTlElEtAnB`@l@pFrD@?fDr@XgAjFuR\\yADm@b@gFd@_B`A}@tEvJBDvC`FtJ|LLNlClC|@^hCYVExCjCb@d@vE`F`BhB?pHaBhRqAbLK~@qBxFqB|FcC~GyC\\aDkD","length":112},"routeShortName":"14","routeLongName":"Coopérative","rentedBike":false,"transitLeg":true,"duration":1420.0,"steps":[]},{"startTime":1522717721000,"endTime":1522717901000,"departureDelay":0,"arrivalDelay":0,"realTime":false,"distance":225.871,"pathway":false,"mode":"WALK","route":"","agencyTimeZoneOffset":-14400000,"interlineWithPreviousLeg":false,"from":{"name":"Malraux / Pagnol","stopId":"1:1978","stopCode":"1978","lon":-71.093388,"lat":48.400416,"arrival":1522717720000,"departure":1522717721000,"zoneId":"NA","stopIndex":29,"stopSequence":30,"vertexType":"TRANSIT"},"to":{"name":"Destination","lon":-71.091933,"lat":48.400249,"arrival":1522717901000,"orig":"","vertexType":"NORMAL"},"legGeometry":{"points":"selfHzl|pLDD`AdApAcDgCqD","length":5},"rentedBike":false,"transitLeg":false,"duration":180.0,"steps":[{"distance":49.049,"relativeDirection":"DEPART","streetName":"Rue Malraux","absoluteDirection":"SOUTHWEST","stayOn":false,"area":false,"bogusName":false,"lon":-71.09341079342245,"lat":48.40042668071038,"elevation":[]},{"distance":75.917,"relativeDirection":"LEFT","streetName":"Rue Pagnol","absoluteDirection":"SOUTHEAST","stayOn":false,"area":false,"bogusName":false,"lon":-71.09379390000001,"lat":48.400066300000006,"elevation":[]},{"distance":100.905,"relativeDirection":"LEFT","streetName":"Rue Balzac","absoluteDirection":"NORTHEAST","stayOn":false,"area":false,"bogusName":false,"lon":-71.0929785,"lat":48.399650300000005,"elevation":[]}]}],"tooSloped":false},{"duration":3347,"startTime":1522716696000,"endTime":1522720043000,"walkTime":389,"transitTime":2656,"waitingTime":302,"walkDistance":493.0354135301104,"walkLimitExceeded":false,"elevationLost":0.0,"elevationGained":0.0,"transfers":1,"legs":[{"startTime":1522716696000,"endTime":1522716909000,"departureDelay":0,"arrivalDelay":0,"realTime":false,"distance":271.55500000000006,"pathway":false,"mode":"WALK","route":"","agencyTimeZoneOffset":-14400000,"interlineWithPreviousLeg":false,"from":{"name":"Origin","lon":-71.093894,"lat":48.443972,"departure":1522716696000,"orig":"","vertexType":"NORMAL"},"to":{"name":"St-Armand / Solange","stopId":"1:685","stopCode":"685","lon":-71.09082,"lat":48.445299,"arrival":1522716909000,"departure":1522716910000,"zoneId":"NA","stopIndex":9,"stopSequence":10,"vertexType":"TRANSIT"},"legGeometry":{"points":"{utfHzo|pLWeCAEAECIGOc@mAsAmDaBsCJ]","length":10},"rentedBike":false,"transitLeg":false,"duration":213.0,"steps":[{"distance":259.49100000000004,"relativeDirection":"DEPART","streetName":"Rue Solange","absoluteDirection":"EAST","stayOn":false,"area":false,"bogusName":false,"lon":-71.09389851943742,"lat":48.44398280059189,"elevation":[]},{"distance":12.064,"relativeDirection":"RIGHT","streetName":"Rue Saint-Armand","absoluteDirection":"SOUTHEAST","stayOn":false,"area":false,"bogusName":false,"lon":-71.0910302,"lat":48.4452702,"elevation":[]}]},{"startTime":1522716910000,"endTime":1522717800000,"departureDelay":0,"arrivalDelay":0,"realTime":false,"distance":5960.116702935813,"pathway":false,"mode":"BUS","route":"20","agencyName":"Société de Transport du Saguenay","agencyUrl":"http://ville.saguenay.ca/fr/services-aux-citoyens/transport-sts","agencyTimeZoneOffset":-14400000,"routeColor":"0000FF","routeType":3,"routeId":"1:20","routeTextColor":"FFFFFF","interlineWithPreviousLeg":false,"tripBlockId":"3","headsign":"Terminus Chicoutimi","agencyId":"0","tripId":"1:217215","serviceDate":"20180402","from":{"name":"St-Armand / Solange","stopId":"1:685","stopCode":"685","lon":-71.09082,"lat":48.445299,"arrival":1522716909000,"departure":1522716910000,"zoneId":"NA","stopIndex":9,"stopSequence":10,"vertexType":"TRANSIT"},"to":{"name":"Terminus Chicoutimi","stopId":"1:1289","stopCode":"1289","lon":-71.066163,"lat":48.428677,"arrival":1522717800000,"departure":1522718100000,"zoneId":"NA","stopIndex":31,"stopSequence":32,"vertexType":"TRANSIT"},"legGeometry":{"points":"q}tfH||{pLCRCFGLKJQNSHaAZa@Pk@\\a@XZrAHp@@FDj@Bp@?~I@fHAd@C`@ERELA@GHMHi@PSBy@BW?YDMDC?OHULWVOXQXSb@~@~BJXF`@Fj@?VAvACv@e@hNGx@MdAQr@ILQ\\a@d@w@aCCQAO@ODOHQDSDWLoDRgGBMFMHIHAfBNDuA@wA?WGk@Ga@KY_A_CRc@PYNYUk@Q[O]KYC]_AaQYwF?W?Y?UBc@D_@d@{DNaAB]@O@]?}BbA?hA?A}I?iEEcEjBCzBEd@Cf@Gj@MZMb@S`Ag@DClAk@f@Qv@Ov@IlBCnBa@TCTBjBPH@LiCDe@Lw@|@cELo@D[Dk@@[@uC@SBUDQFSt@yAHIr@eAjAaB`AqA^i@p@kAVc@\\cAr@eBv@aB|B_CJSDKLe@NeAJaAHeBBi@F{AaFe@c@IcDeAWtBOfAERGLIHIFMBa@NOQSOUGOCW?UFMHa@XUHQ?QIQOIM[g@rCmFhHqN~@eBr@cAt@_Av@}@RQPMz@k@tAe@REZG^Af@@X@VF`@Jn@XbClAr@Xt\\`PrAb@pA^hBTjAFj@Pb@JPHLLJNJRFXDT?X?ZEVEVKTMNMHMFOB}DWSGOSYcAN}FFkAF}DJyDPwGj@_QjAN~ALIpBGVITe@@","length":235},"routeShortName":"20","routeLongName":"Sainte-Claire","rentedBike":false,"transitLeg":true,"duration":890.0,"steps":[]},{"startTime":1522718100000,"endTime":1522719720000,"departureDelay":0,"arrivalDelay":0,"realTime":false,"distance":8780.793308460485,"pathway":false,"mode":"BUS","route":"15","agencyName":"Société de Transport du Saguenay","agencyUrl":"http://ville.saguenay.ca/fr/services-aux-citoyens/transport-sts","agencyTimeZoneOffset":-14400000,"routeColor":"FF00FF","routeType":3,"routeId":"1:15","routeTextColor":"FFFFFF","interlineWithPreviousLeg":false,"tripBlockId":"33","headsign":"Talbot / Barrette","agencyId":"0","tripId":"1:218201","serviceDate":"20180402","from":{"name":"Terminus Chicoutimi","stopId":"1:1289","stopCode":"1289","lon":-71.066163,"lat":48.428677,"arrival":1522717800000,"departure":1522718100000,"zoneId":"NA","stopIndex":0,"stopSequence":1,"vertexType":"TRANSIT"},"to":{"name":"Roitelets / Sapins","stopId":"1:1543","stopCode":"1543","lon":-71.069553,"lat":48.393375,"arrival":1522719720000,"departure":1522719720000,"zoneId":"NA","stopIndex":35,"stopSequence":36,"vertexType":"TRANSIT"},"legGeometry":{"points":"evqfHpbwpLPiCjKx@HiEZkS\\aSN_K^eIrBpBvIpIr@r@\\mBfAaA`@gBOkB_@uF|DyL|DpDQ|@|@z@bA`ATw@dD~Ch@fA@`E~AjGuH`Iy@bBi@dCbEdEjJlJ`HbHlJpJ|J~JdAfALzDNzDrAdBrEKvBEbCv@d@TvFlC|DlBpMlGrB`AM}@hAwEC{B]oBiBmBsH_@_K{H`EgIvCaGfEoItDsH~DeItC{FnBoLbCaO?qLa@uJzF`ApF~@~@PzAgEeDcBf@qAWcKUqEx@Ef@ExDVjDxAFBrBvAfGjG@BjCzC~DxC@@zA~Cb@fCJlC?BsBre@?DWbOAn@?nEGnM@H\\hCzA~ELvAAlAi@jDo@nB","length":99},"routeShortName":"15","routeLongName":"Term. Chic / Costco","rentedBike":false,"transitLeg":true,"duration":1620.0,"steps":[]},{"startTime":1522719720000,"endTime":1522719866000,"departureDelay":0,"arrivalDelay":0,"realTime":false,"distance":2001.932967403964,"pathway":false,"mode":"BUS","route":"14","agencyName":"Société de Transport du Saguenay","agencyUrl":"http://ville.saguenay.ca/fr/services-aux-citoyens/transport-sts","agencyTimeZoneOffset":-14400000,"routeColor":"C0C000","routeType":3,"routeId":"1:14","routeTextColor":"000000","interlineWithPreviousLeg":true,"tripBlockId":"33","headsign":"Terminus Chicoutimi","agencyId":"0","tripId":"1:218202","serviceDate":"20180402","from":{"name":"Roitelets / Sapins","stopId":"1:1513","stopCode":"1513","lon":-71.069396,"lat":48.393523,"arrival":1522719720000,"departure":1522719720000,"zoneId":"NA","stopIndex":0,"stopSequence":1,"vertexType":"TRANSIT"},"to":{"name":"Malraux / Pagnol","stopId":"1:441","stopCode":"441","lon":-71.09356,"lat":48.400447,"arrival":1522719866000,"departure":1522719867000,"zoneId":"NA","stopIndex":6,"stopSequence":7,"vertexType":"TRANSIT"},"legGeometry":{"points":"azjfHfwwpLiEfLuBzFsAnDgGzSWfAcD`Mi@dCgChLmCzMwGd\\aDxOdFtF","length":13},"routeShortName":"14","routeLongName":"Coopérative","rentedBike":false,"transitLeg":true,"duration":146.0,"steps":[]},{"startTime":1522719867000,"endTime":1522720043000,"departureDelay":0,"arrivalDelay":0,"realTime":false,"distance":221.365,"pathway":false,"mode":"WALK","route":"","agencyTimeZoneOffset":-14400000,"interlineWithPreviousLeg":false,"from":{"name":"Malraux / Pagnol","stopId":"1:441","stopCode":"441","lon":-71.09356,"lat":48.400447,"arrival":1522719866000,"departure":1522719867000,"zoneId":"NA","stopIndex":6,"stopSequence":7,"vertexType":"TRANSIT"},"to":{"name":"Destination","lon":-71.091933,"lat":48.400249,"arrival":1522720043000,"orig":"","vertexType":"NORMAL"},"legGeometry":{"points":"melfH`m|pL`AdApAcDgCqD","length":4},"rentedBike":false,"transitLeg":false,"duration":176.0,"steps":[{"distance":44.543,"relativeDirection":"DEPART","streetName":"Rue Malraux","absoluteDirection":"SOUTHWEST","stayOn":false,"area":false,"bogusName":false,"lon":-71.0934459868607,"lat":48.400393574945504,"elevation":[]},{"distance":75.917,"relativeDirection":"LEFT","streetName":"Rue Pagnol","absoluteDirection":"SOUTHEAST","stayOn":false,"area":false,"bogusName":false,"lon":-71.09379390000001,"lat":48.400066300000006,"elevation":[]},{"distance":100.905,"relativeDirection":"LEFT","streetName":"Rue Balzac","absoluteDirection":"NORTHEAST","stayOn":false,"area":false,"bogusName":false,"lon":-71.0929785,"lat":48.399650300000005,"elevation":[]}]}],"tooSloped":false}]},"debugOutput":{"precalculationTime":11,"pathCalculationTime":20,"pathTimes":[15,3,2],"renderingTime":1,"totalTime":32,"timedOut":false},"elevationMetadata":{"ellipsoidToGeoidDifference":-28.885904201182168,"geoidElevation":false}}