{"requestParameters":{"date":"2018/04/02","walkSpeed":"1.33","walkReluctance":"2.0","fromPlace":"48.402818,-71.125414","maxWalkDistance":"3000","waitReluctance":"1.0","carSpeed":"33","numItineraries":"3","waitAtBeginningFactor":"0.4","mode":"TRANSIT,WALK","ignoreRealtimeUpdates":"false","stairsReluctance":"2.0","toPlace":"48.400018,-71.089608","time":"17:5:00"},"plan":{"date":1522703100000,"from":{"name":"Origin","lon":-71.125414,"lat":48.402818,"orig":"","vertexType":"NORMAL"},"to":{"name":"Destination","lon":-71.089608,"lat":48.400018,"orig":"","vertexType":"NORMAL"},"itineraries":[{"duration":2480,"startTime":1522704459000,"endTime":1522706939000,"walkTime":1005,"transitTime":1473,"waitingTime":2,"walkDistance":1303.4853533788978,"walkLimitExceeded":false,"elevationLost":0.0,"elevationGained":0.0,"transfers":0,"legs":[{"startTime":1522704459000,"endTime":1522704811000,"departureDelay":0,"arrivalDelay":0,"realTime":false,"distance":455.43,"pathway":false,"mode":"WALK","route":"","agencyTimeZoneOffset":-14400000,"interlineWithPreviousLeg":false,"from":{"name":"Origin","lon":-71.125414,"lat":48.402818,"departure":1522704459000,"orig":"","vertexType":"NORMAL"},"to":{"name":"Manic / Grande","stopId":"1:481","stopCode":"481","lon":-71.120188,"lat":48.401528,"arrival":1522704811000,"departure":1522704812000,"zoneId":"NA","stopIndex":22,"stopSequence":23,"vertexType":"TRANSIT"},"legGeometry":{"points":"qslfHlrbqLmAkAO}AKuATKzA}@p@oAdD_OJe@","length":9},"rentedBike":false,"transitLeg":false,"duration":352.0,"steps":[{"distance":52.294,"relativeDirection":"DEPART","streetName":"Rue de Laforge","absoluteDirection":"NORTHEAST","stayOn":false,"area":false,"bogusName":false,"lon":-71.12502457238179,"lat":48.402651796820216,"elevation":[]},{"distance":67.762,"relativeDirection":"RIGHT","streetName":"Rue Mitis","absoluteDirection":"EAST","stayOn":false,"area":false,"bogusName":false,"lon":-71.12464150000001,"lat":48.403047400000005,"elevation":[]},{"distance":335.374,"relativeDirection":"RIGHT","streetName":"Rue de la Manic","absoluteDirection":"SOUTH","stayOn":false,"area":false,"bogusName":false,"lon":-71.1237462,"lat":48.403181700000005,"elevation":[]}]},{"startTime":1522704812000,"endTime":1522705080000,"departureDelay":0,"arrivalDelay":0,"realTime":false,"distance":3402.055316191198,"pathway":false,"mode":"BUS","route":"11","agencyName":"Société de Transport du Saguenay","agencyUrl":"http://ville.saguenay.ca/fr/services-aux-citoyens/transport-sts","agencyTimeZoneOffset":-14400000,"routeColor":"FF0000","routeType":3,"routeId":"1:11","routeTextColor":"FFFFFF","interlineWithPreviousLeg":false,"tripBlockId":"36","headsign":"Boul.Royaume/St-Pierre","agencyId":"0","tripId":"1:218298","serviceDate":"20180402","from":{"name":"Manic / Grande","stopId":"1:481","stopCode":"481","lon":-71.120188,"lat":48.401528,"arrival":1522704811000,"departure":1522704812000,"zoneId":"NA","stopIndex":22,"stopSequence":23,"vertexType":"TRANSIT"},"to":{"name":"boul. Royaume / St-Pierre","stopId":"1:1922","stopCode":"1922","lon":-71.129819,"lat":48.391404,"arrival":1522705080000,"departure":1522705080000,"zoneId":"NA","stopIndex":31,"stopSequence":32,"vertexType":"TRANSIT"},"legGeometry":{"points":"illfHhtaqLOl@fNzIJ@HAHIDI@CnNco@vE}Sh@kCb@oCXyBTuAFSBMl@iBlHjJxEtGPRbBdBp@r@xDpDrL`LlAtAiBdFOd@oCrH}JnXY~@GRU~@[fB_@hCIv@KnAIpAGlAAPA~A?lBJzDRxEB~@DzB","length":45},"routeShortName":"11","routeLongName":"Chic/Faubourg via St-Paul","rentedBike":false,"transitLeg":true,"duration":268.0,"steps":[]},{"startTime":1522705080000,"endTime":1522706285000,"departureDelay":0,"arrivalDelay":0,"realTime":false,"distance":4492.251912119251,"pathway":false,"mode":"BUS","route":"11","agencyName":"Société de Transport du Saguenay","agencyUrl":"http://ville.saguenay.ca/fr/services-aux-citoyens/transport-sts","agencyTimeZoneOffset":-14400000,"routeColor":"FF0000","routeType":3,"routeId":"1:11","routeTextColor":"FFFFFF","interlineWithPreviousLeg":true,"tripBlockId":"36","headsign":"Terminus Chicoutimi","agencyId":"0","tripId":"1:218299","serviceDate":"20180402","from":{"name":"boul. Royaume / St-Pierre","stopId":"1:34","stopCode":"34","lon":-71.13054,"lat":48.391059,"arrival":1522705080000,"departure":1522705080000,"zoneId":"NA","stopIndex":0,"stopSequence":1,"vertexType":"TRANSIT"},"to":{"name":"boul. Barrette / Estacade","stopId":"1:478","stopCode":"478","lon":-71.098119,"lat":48.404568,"arrival":1522706285000,"departure":1522706286000,"zoneId":"NA","stopIndex":12,"stopSequence":13,"vertexType":"TRANSIT"},"legGeometry":{"points":"ykjfHztcqL?{@[eF_@{IE_B?yBBuA@]LkCHaAf@}D\\mB\\mA@CVaAxBkGzFmOnDmJzByFO[Q]yBsBiMqLKIsFyFMQ}AuBuCgEmGaISV[|@Qj@K`@AFSlAYvBc@nCi@lCyE`T}@dEoLxh@GLIHI@KAgN{IhHu[p@aCjDyJfQie@`AmCJ[kXi[gKsLqMgOmAbDAVSl@","length":58},"routeShortName":"11","routeLongName":"Chic/Faubourg via St-Paul","rentedBike":false,"transitLeg":true,"duration":1205.0,"steps":[]},{"startTime":1522706286000,"endTime":1522706939000,"departureDelay":0,"arrivalDelay":0,"realTime":false,"distance":847.914,"pathway":false,"mode":"WALK","route":"","agencyTimeZoneOffset":-14400000,"interlineWithPreviousLeg":false,"from":{"name":"boul. Barrette / Estacade","stopId":"1:478","stopCode":"478","lon":-71.098119,"lat":48.404568,"arrival":1522706285000,"departure":1522706286000,"zoneId":"NA","stopIndex":12,"stopSequence":13,"vertexType":"TRANSIT"},"to":{"name":"Destination","lon":-71.089608,"lat":48.400018,"arrival":1522706939000,"orig":"","vertexType":"NORMAL"},"legGeometry":{"points":"__mfHzj}pLhB{ErCsHFQx@uBzEwM@?`@kAh@YvAuGx@yDBKhAt@VoA","length":14},"rentedBike":false,"transitLeg":false,"duration":653.0,"steps":[{"distance":549.651,"relativeDirection":"DEPART","streetName":"Boulevard Barrette","absoluteDirection":"SOUTHEAST","stayOn":false,"area":false,"bogusName":false,"lon":-71.09821286252294,"lat":48.40448187965961,"elevation":[]},{"distance":219.983,"relativeDirection":"SLIGHTLY_RIGHT","streetName":"bike path","absoluteDirection":"SOUTHEAST","stayOn":false,"area":false,"bogusName":true,"lon":-71.0921587,"lat":48.401604500000005,"elevation":[]},{"distance":45.643,"relativeDirection":"RIGHT","streetName":"path","absoluteDirection":"SOUTHWEST","stayOn":true,"area":false,"bogusName":true,"lon":-71.0896446,"lat":48.400640800000005,"elevation":[]},{"distance":32.637,"relativeDirection":"LEFT","streetName":"Rue Balzac","absoluteDirection":"SOUTHEAST","stayOn":false,"area":false,"bogusName":false,"lon":-71.0899188,"lat":48.400272900000004,"elevation":[]}]}],"tooSloped":false},{"duration":2480,"startTime":1522706259000,"endTime":1522708739000,"walkTime":1005,"transitTime":1473,"waitingTime":2,"walkDistance":1303.4853533788978,"walkLimitExceeded":false,"elevationLost":0.0,"elevationGained":0.0,"transfers":0,"legs":[{"startTime":1522706259000,"endTime":1522706611000,"departureDelay":0,"arrivalDelay":0,"realTime":false,"distance":455.43,"pathway":false,"mode":"WALK","route":"","agencyTimeZoneOffset":-14400000,"interlineWithPreviousLeg":false,"from":{"name":"Origin","lon":-71.125414,"lat":48.402818,"departure":1522706259000,"orig":"","vertexType":"NORMAL"},"to":{"name":"Manic / Grande","stopId":"1:481","stopCode":"481","lon":-71.120188,"lat":48.401528,"arrival":1522706611000,"departure":1522706612000,"zoneId":"NA","stopIndex":22,"stopSequence":23,"vertexType":"TRANSIT"},"legGeometry":{"points":"qslfHlrbqLmAkAO}AKuATKzA}@p@oAdD_OJe@","length":9},"rentedBike":false,"transitLeg":false,"duration":352.0,"steps":[{"distance":52.294,"relativeDirection":"DEPART","streetName":"Rue de Laforge","absoluteDirection":"NORTHEAST","stayOn":false,"area":false,"bogusName":false,"lon":-71.12502457238179,"lat":48.402651796820216,"elevation":[]},{"distance":67.762,"relativeDirection":"RIGHT","streetName":"Rue Mitis","absoluteDirection":"EAST","stayOn":false,"area":false,"bogusName":false,"lon":-71.12464150000001,"lat":48.403047400000005,"elevation":[]},{"distance":335.374,"relativeDirection":"RIGHT","streetName":"Rue de la Manic","absoluteDirection":"SOUTH","stayOn":false,"area":false,"bogusName":false,"lon":-71.1237462,"lat":48.403181700000005,"elevation":[]}]},{"startTime":1522706612000,"endTime":1522706880000,"departureDelay":0,"arrivalDelay":0,"realTime":false,"distance":3402.055316191198,"pathway":false,"mode":"BUS","route":"11","agencyName":"Société de Transport du Saguenay","agencyUrl":"http://ville.saguenay.ca/fr/services-aux-citoyens/transport-sts","agencyTimeZoneOffset":-14400000,"routeColor":"FF0000","routeType":3,"routeId":"1:11","routeTextColor":"FFFFFF","interlineWithPreviousLeg":false,"tripBlockId":"35","headsign":"Boul.Royaume/St-Pierre","agencyId":"0","tripId":"1:218264","serviceDate":"20180402","from":{"name":"Manic / Grande","stopId":"1:481","stopCode":"481","lon":-71.120188,"lat":48.401528,"arrival":1522706611000,"departure":1522706612000,"zoneId":"NA","stopIndex":22,"stopSequence":23,"vertexType":"TRANSIT"},"to":{"name":"boul. Royaume / St-Pierre","stopId":"1:1922","stopCode":"1922","lon":-71.129819,"lat":48.391404,"arrival":1522706880000,"departure":1522706880000,"zoneId":"NA","stopIndex":31,"stopSequence":32,"vertexType":"TRANSIT"},"legGeometry":{"points":"illfHhtaqLOl@fNzIJ@HAHIDI@CnNco@vE}Sh@kCb@oCXyBTuAFSBMl@iBlHjJxEtGPRbBdBp@r@xDpDrL`LlAtAiBdFOd@oCrH}JnXY~@GRU~@[fB_@hCIv@KnAIpAGlAAPA~A?lBJzDRxEB~@DzB","length":45},"routeShortName":"11","routeLongName":"Chic/Faubourg via St-Paul","rentedBike":false,"transitLeg":true,"duration":268.0,"steps":[]},{"startTime":1522706880000,"endTime":1522708085000,"departureDelay":0,"arrivalDelay":0,"realTime":false,"distance":4492.251912119251,"pathway":false,"mode":"BUS","route":"11","agencyName":"Société de Transport du Saguenay","agencyUrl":"http://ville.saguenay.ca/fr/services-aux-citoyens/transport-sts","agencyTimeZoneOffset":-14400000,"routeColor":"FF0000","routeType":3,"routeId":"1:11","routeTextColor":"FFFFFF","interlineWithPreviousLeg":true,"tripBlockId":"35","headsign":"Terminus Chicoutimi","agencyId":"0","tripId":"1:218265","serviceDate":"20180402","from":{"name":"boul. Royaume / St-Pierre","stopId":"1:34","stopCode":"34","lon":-71.13054,"lat":48.391059,"arrival":1522706880000,"departure":1522706880000,"zoneId":"NA","stopIndex":0,"stopSequence":1,"vertexType":"TRANSIT"},"to":{"name":"boul. Barrette / Estacade","stopId":"1:478","stopCode":"478","lon":-71.098119,"lat":48.404568,"arrival":1522708085000,"departure":1522708086000,"zoneId":"NA","stopIndex":12,"stopSequence":13,"vertexType":"TRANSIT"},"legGeometry":{"points":"ykjfHztcqL?{@[eF_@{IE_B?yBBuA@]LkCHaAf@}D\\mB\\mA@CVaAxBkGzFmOnDmJzByFO[Q]yBsBiMqLKIsFyFMQ}AuBuCgEmGaISV[|@Qj@K`@AFSlAYvBc@nCi@lCyE`T}@dEoLxh@GLIHI@KAgN{IhHu[p@aCjDyJfQie@`AmCJ[kXi[gKsLqMgOmAbDAVSl@","length":58},"routeShortName":"11","routeLongName":"Chic/Faubourg via St-Paul","rentedBike":false,"transitLeg":true,"duration":1205.0,"steps":[]},{"startTime":1522708086000,"endTime":1522708739000,"departureDelay":0,"arrivalDelay":0,"realTime":false,"distance":847.914,"pathway":false,"mode":"WALK","route":"","agencyTimeZoneOffset":-14400000,"interlineWithPreviousLeg":false,"from":{"name":"boul. Barrette / Estacade","stopId":"1:478","stopCode":"478","lon":-71.098119,"lat":48.404568,"arrival":1522708085000,"departure":1522708086000,"zoneId":"NA","stopIndex":12,"stopSequence":13,"vertexType":"TRANSIT"},"to":{"name":"Destination","lon":-71.089608,"lat":48.400018,"arrival":1522708739000,"orig":"","vertexType":"NORMAL"},"legGeometry":{"points":"__mfHzj}pLhB{ErCsHFQx@uBzEwM@?`@kAh@YvAuGx@yDBKhAt@VoA","length":14},"rentedBike":false,"transitLeg":false,"duration":653.0,"steps":[{"distance":549.651,"relativeDirection":"DEPART","streetName":"Boulevard Barrette","absoluteDirection":"SOUTHEAST","stayOn":false,"area":false,"bogusName":false,"lon":-71.09821286252294,"lat":48.40448187965961,"elevation":[]},{"distance":219.983,"relativeDirection":"SLIGHTLY_RIGHT","streetName":"bike path","absoluteDirection":"SOUTHEAST","stayOn":false,"area":false,"bogusName":true,"lon":-71.0921587,"lat":48.401604500000005,"elevation":[]},{"distance":45.643,"relativeDirection":"RIGHT","streetName":"path","absoluteDirection":"SOUTHWEST","stayOn":true,"area":false,"bogusName":true,"lon":-71.0896446,"lat":48.400640800000005,"elevation":[]},{"distance":32.637,"relativeDirection":"LEFT","streetName":"Rue Balzac","absoluteDirection":"SOUTHEAST","stayOn":false,"area":false,"bogusName":false,"lon":-71.0899188,"lat":48.400272900000004,"elevation":[]}]}],"tooSloped":false},{"duration":2480,"startTime":1522708059000,"endTime":1522710539000,"walkTime":1005,"transitTime":1473,"waitingTime":2,"walkDistance":1303.4853533788978,"walkLimitExceeded":false,"elevationLost":0.0,"elevationGained":0.0,"transfers":0,"legs":[{"startTime":1522708059000,"endTime":1522708411000,"departureDelay":0,"arrivalDelay":0,"realTime":false,"distance":455.43,"pathway":false,"mode":"WALK","route":"","agencyTimeZoneOffset":-14400000,"interlineWithPreviousLeg":false,"from":{"name":"Origin","lon":-71.125414,"lat":48.402818,"departure":1522708059000,"orig":"","vertexType":"NORMAL"},"to":{"name":"Manic / Grande","stopId":"1:481","stopCode":"481","lon":-71.120188,"lat":48.401528,"arrival":1522708411000,"departure":1522708412000,"zoneId":"NA","stopIndex":22,"stopSequence":23,"vertexType":"TRANSIT"},"legGeometry":{"points":"qslfHlrbqLmAkAO}AKuATKzA}@p@oAdD_OJe@","length":9},"rentedBike":false,"transitLeg":false,"duration":352.0,"steps":[{"distance":52.294,"relativeDirection":"DEPART","streetName":"Rue de Laforge","absoluteDirection":"NORTHEAST","stayOn":false,"area":false,"bogusName":false,"lon":-71.12502457238179,"lat":48.402651796820216,"elevation":[]},{"distance":67.762,"relativeDirection":"RIGHT","streetName":"Rue Mitis","absoluteDirection":"EAST","stayOn":false,"area":false,"bogusName":false,"lon":-71.12464150000001,"lat":48.403047400000005,"elevation":[]},{"distance":335.374,"relativeDirection":"RIGHT","streetName":"Rue de la Manic","absoluteDirection":"SOUTH","stayOn":false,"area":false,"bogusName":false,"lon":-71.1237462,"lat":48.403181700000005,"elevation":[]}]},{"startTime":1522708412000,"endTime":1522708680000,"departureDelay":0,"arrivalDelay":0,"realTime":false,"distance":3402.055316191198,"pathway":false,"mode":"BUS","route":"11","agencyName":"Société de Transport du Saguenay","agencyUrl":"http://ville.saguenay.ca/fr/services-aux-citoyens/transport-sts","agencyTimeZoneOffset":-14400000,"routeColor":"FF0000","routeType":3,"routeId":"1:11","routeTextColor":"FFFFFF","interlineWithPreviousLeg":false,"tripBlockId":"37","headsign":"Boul.Royaume/St-Pierre","agencyId":"0","tripId":"1:218326","serviceDate":"20180402","from":{"name":"Manic / Grande","stopId":"1:481","stopCode":"481","lon":-71.120188,"lat":48.401528,"arrival":1522708411000,"departure":1522708412000,"zoneId":"NA","stopIndex":22,"stopSequence":23,"vertexType":"TRANSIT"},"to":{"name":"boul. Royaume / St-Pierre","stopId":"1:1922","stopCode":"1922","lon":-71.129819,"lat":48.391404,"arrival":1522708680000,"departure":1522708680000,"zoneId":"NA","stopIndex":31,"stopSequence":32,"vertexType":"TRANSIT"},"legGeometry":{"points":"illfHhtaqLOl@fNzIJ@HAHIDI@CnNco@vE}Sh@kCb@oCXyBTuAFSBMl@iBlHjJxEtGPRbBdBp@r@xDpDrL`LlAtAiBdFOd@oCrH}JnXY~@GRU~@[fB_@hCIv@KnAIpAGlAAPA~A?lBJzDRxEB~@DzB","length":45},"routeShortName":"11","routeLongName":"Chic/Faubourg via St-Paul","rentedBike":false,"transitLeg":true,"duration":268.0,"steps":[]},{"startTime":1522708680000,"endTime":1522709885000,"departureDelay":0,"arrivalDelay":0,"realTime":false,"distance":4492.251912119251,"pathway":false,"mode":"BUS","route":"11","agencyName":"Société de Transport du Saguenay","agencyUrl":"http://ville.saguenay.ca/fr/services-aux-citoyens/transport-sts","agencyTimeZoneOffset":-14400000,"routeColor":"FF0000","routeType":3,"routeId":"1:11","routeTextColor":"FFFFFF","interlineWithPreviousLeg":true,"tripBlockId":"37","headsign":"Terminus Chicoutimi","agencyId":"0","tripId":"1:218327","serviceDate":"20180402","from":{"name":"boul. Royaume / St-Pierre","stopId":"1:34","stopCode":"34","lon":-71.13054,"lat":48.391059,"arrival":1522708680000,"departure":1522708680000,"zoneId":"NA","stopIndex":0,"stopSequence":1,"vertexType":"TRANSIT"},"to":{"name":"boul. Barrette / Estacade","stopId":"1:478","stopCode":"478","lon":-71.098119,"lat":48.404568,"arrival":1522709885000,"departure":1522709886000,"zoneId":"NA","stopIndex":12,"stopSequence":13,"vertexType":"TRANSIT"},"legGeometry":{"points":"ykjfHztcqL?{@[eF_@{IE_B?yBBuA@]LkCHaAf@}D\\mB\\mA@CVaAxBkGzFmOnDmJzByFO[Q]yBsBiMqLKIsFyFMQ}AuBuCgEmGaISV[|@Qj@K`@AFSlAYvBc@nCi@lCyE`T}@dEoLxh@GLIHI@KAgN{IhHu[p@aCjDyJfQie@`AmCJ[kXi[gKsLqMgOmAbDAVSl@","length":58},"routeShortName":"11","routeLongName":"Chic/Faubourg via St-Paul","rentedBike":false,"transitLeg":true,"duration":1205.0,"steps":[]},{"startTime":1522709886000,"endTime":1522710539000,"departureDelay":0,"arrivalDelay":0,"realTime":false,"distance":847.914,"pathway":false,"mode":"WALK","route":"","agencyTimeZoneOffset":-14400000,"interlineWithPreviousLeg":false,"from":{"name":"boul. Barrette / Estacade","stopId":"1:478","stopCode":"478","lon":-71.098119,"lat":48.404568,"arrival":1522709885000,"departure":1522709886000,"zoneId":"NA","stopIndex":12,"stopSequence":13,"vertexType":"TRANSIT"},"to":{"name":"Destination","lon":-71.089608,"lat":48.400018,"arrival":1522710539000,"orig":"","vertexType":"NORMAL"},"legGeometry":{"points":"__mfHzj}pLhB{ErCsHFQx@uBzEwM@?`@kAh@YvAuGx@yDBKhAt@VoA","length":14},"rentedBike":false,"transitLeg":false,"duration":653.0,"steps":[{"distance":549.651,"relativeDirection":"DEPART","streetName":"Boulevard Barrette","absoluteDirection":"SOUTHEAST","stayOn":false,"area":false,"bogusName":false,"lon":-71.09821286252294,"lat":48.40448187965961,"elevation":[]},{"distance":219.983,"relativeDirection":"SLIGHTLY_RIGHT","streetName":"bike path","absoluteDirection":"SOUTHEAST","stayOn":false,"area":false,"bogusName":true,"lon":-71.0921587,"lat":48.401604500000005,"elevation":[]},{"distance":45.643,"relativeDirection":"RIGHT","streetName":"path","absoluteDirection":"SOUTHWEST","stayOn":true,"area":false,"bogusName":true,"lon":-71.0896446,"lat":48.400640800000005,"elevation":[]},{"distance":32.637,"relativeDirection":"LEFT","streetName":"Rue Balzac","absoluteDirection":"SOUTHEAST","stayOn":false,"area":false,"bogusName":false,"lon":-71.0899188,"lat":48.400272900000004,"elevation":[]}]}],"tooSloped":false}]},"debugOutput":{"precalculationTime":10,"pathCalculationTime":14,"pathTimes":[5,6,3],"renderingTime":1,"totalTime":25,"timedOut":false},"elevationMetadata":{"ellipsoidToGeoidDifference":-28.885904201182168,"geoidElevation":false}}