{"requestParameters":{"date":"2018/04/02","walkSpeed":"1.33","walkReluctance":"2.0","fromPlace":"48.39945,-71.091614","maxWalkDistance":"3000","waitReluctance":"1.0","carSpeed":"33","numItineraries":"3","waitAtBeginningFactor":"0.4","mode":"TRANSIT,WALK","ignoreRealtimeUpdates":"false","stairsReluctance":"2.0","toPlace":"48.433351,-71.086719","time":"7:0:00"},"plan":{"date":1522666800000,"from":{"name":"Origin","lon":-71.091614,"lat":48.39945,"orig":"","vertexType":"NORMAL"},"to":{"name":"Destination","lon":-71.086719,"lat":48.433351,"orig":"","vertexType":"NORMAL"},"itineraries":[{"duration":2643,"startTime":1522667085000,"endTime":1522669728000,"walkTime":468,"transitTime":1513,"waitingTime":662,"walkDistance":597.2959172894605,"walkLimitExceeded":false,"elevationLost":0.0,"elevationGained":0.0,"transfers":1,"legs":[{"startTime":1522667085000,"endTime":1522667267000,"departureDelay":0,"arrivalDelay":0,"realTime":false,"distance":232.18200000000002,"pathway":false,"mode":"WALK","route":"","agencyTimeZoneOffset":-14400000,"interlineWithPreviousLeg":false,"from":{"name":"Origin","lon":-71.091614,"lat":48.39945,"departure":1522667085000,"orig":"","vertexType":"NORMAL"},"to":{"name":"boul. Barrette / passerelle rue Balzac","stopId":"1:44","stopCode":"44","lon":-71.089717,"lat":48.400646,"arrival":1522667267000,"departure":1522667268000,"zoneId":"NA","stopIndex":2,"stopSequence":3,"vertexType":"TRANSIT"},"legGeometry":{"points":"_`lfHvb|pLu@u@KSG]?_@Fk@Li@aByCiAu@CJ","length":10},"rentedBike":false,"transitLeg":false,"duration":182.0,"steps":[{"distance":103.162,"relativeDirection":"DEPART","streetName":"Rue George Sand","absoluteDirection":"NORTHEAST","stayOn":false,"area":false,"bogusName":false,"lon":-71.0917924517003,"lat":48.399529999185894,"elevation":[]},{"distance":123.946,"relativeDirection":"LEFT","streetName":"path","absoluteDirection":"NORTHEAST","stayOn":false,"area":false,"bogusName":true,"lon":-71.09068880000001,"lat":48.3997886,"elevation":[]},{"distance":5.074,"relativeDirection":"LEFT","streetName":"bike path","absoluteDirection":"NORTHWEST","stayOn":true,"area":false,"bogusName":true,"lon":-71.0896446,"lat":48.400640800000005,"elevation":[]}]},{"startTime":1522667268000,"endTime":1522668600000,"departureDelay":0,"arrivalDelay":0,"realTime":false,"distance":10244.08358027133,"pathway":false,"mode":"BUS","route":"105S","agencyName":"Société de Transport du Saguenay","agencyUrl":"http://ville.saguenay.ca/fr/services-aux-citoyens/transport-sts","agencyTimeZoneOffset":-14400000,"routeColor":"8B0000","routeType":3,"routeId":"1:105S","routeTextColor":"FFFFFF","interlineWithPreviousLeg":false,"tripBlockId":"39","headsign":"Terminus Chicoutimi","agencyId":"0","tripId":"1:218335","serviceDate":"20180402","from":{"name":"boul. Barrette / passerelle rue Balzac","stopId":"1:44","stopCode":"44","lon":-71.089717,"lat":48.400646,"arrival":1522667267000,"departure":1522667268000,"zoneId":"NA","stopIndex":2,"stopSequence":3,"vertexType":"TRANSIT"},"to":{"name":"Terminus Chicoutimi","stopId":"1:1289","stopCode":"1289","lon":-71.066163,"lat":48.428677,"arrival":1522668600000,"departure":1522669260000,"zoneId":"NA","stopIndex":48,"stopSequence":49,"vertexType":"TRANSIT"},"legGeometry":{"points":"uglfHfu{pLlFyWb@uB|B}KtD}N`DgMtEqQpBwHfAuCbCoG~BgGv@sBHUBGHm@\\_A^kCF{BKcAcBsFU}B?IG_EJaN@cAVmN@c@\\kJNaEPuDFaADs@XsFDoA?W@]Cu@GcAKu@Q_ASo@a@y@a@o@MOUUeCqBiDsDqE{EiAcAcB_AqBgA_AQaBSaBG_@Bu@FgAPo@NUFw@XkEfBoEjBzAfKDXXtCVGxA[zAGd@@TBn@H`ATv@^x@f@@@fAdAhBpBnBpB@@fCnCV\\Vb@^l@W\\Ul@_AfCwC`ISf@YhAUp@CHkCvGg@lAgBuBmAkAo@s@[c@_@o@Wk@KWS[e@g@c@]e@We@KSEi@bDUxAm@nCcAlDeCvGmA|CUr@}@~A_@\\_DvCEZcA|@UP_@d@Yl@oBdFeCxG_CfGo@h@CBIDQHY@S@SLuBH_DDe@Eq@Sk@][YMIUOe@Uu@Q_@C{BEw@Ge@Uc@_@sAkAoBwB_EcE{A_BoAmAk@o@cCaCkIkIaJaJUUiCwCw@q@aD_D}MyMmEkE]a@kAqAU|@WnKG|DGxDOdPKvJU|F?XQlJC~@ChAIzEcCOaIi@P}HD{B","length":179},"routeShortName":"105S","routeLongName":"Terminus Chicoutimi via Bégin","rentedBike":false,"transitLeg":true,"duration":1332.0,"steps":[]},{"startTime":1522669260000,"endTime":1522669441000,"departureDelay":0,"arrivalDelay":0,"realTime":false,"distance":1960.480925293295,"pathway":false,"mode":"BUS","route":"3","agencyName":"Société de Transport du Saguenay","agencyUrl":"http://ville.saguenay.ca/fr/services-aux-citoyens/transport-sts","agencyTimeZoneOffset":-14400000,"routeColor":"FF0000","routeType":3,"routeId":"1:3","routeTextColor":"FFFFFF","interlineWithPreviousLeg":false,"tripBlockId":"63","headsign":"Terminus Jonquière","agencyId":"0","tripId":"1:218562","serviceDate":"20180402","from":{"name":"Terminus Chicoutimi","stopId":"1:1289","stopCode":"1289","lon":-71.066163,"lat":48.428677,"arrival":1522668600000,"departure":1522669260000,"zoneId":"NA","stopIndex":0,"stopSequence":1,"vertexType":"TRANSIT"},"to":{"name":"boul. Saguenay (no. 760)","stopId":"1:162","stopCode":"162","lon":-71.091291,"lat":48.434375,"arrival":1522669441000,"departure":1522669442000,"zoneId":"NA","stopIndex":2,"stopSequence":3,"vertexType":"TRANSIT"},"legGeometry":{"points":"evqfHzcwpLi@?UhKoBKcBts@OjC]fCg@~BsId[{DrNqB|HSl@YnAMfAOnAo@nMCp@","length":17},"routeShortName":"3","routeLongName":"Chic/Jonq via Boul. Saguenay","rentedBike":false,"transitLeg":true,"duration":181.0,"steps":[]},{"startTime":1522669442000,"endTime":1522669728000,"departureDelay":0,"arrivalDelay":0,"realTime":false,"distance":364.997,"pathway":false,"mode":"WALK","route":"","agencyTimeZoneOffset":-14400000,"interlineWithPreviousLeg":false,"from":{"name":"boul. Saguenay (no. 760)","stopId":"1:162","stopCode":"162","lon":-71.091291,"lat":48.434375,"arrival":1522669441000,"departure":1522669442000,"zoneId":"NA","stopIndex":2,"stopSequence":3,"vertexType":"TRANSIT"},"to":{"name":"Destination","lon":-71.086719,"lat":48.433351,"arrival":1522669728000,"orig":"","vertexType":"NORMAL"},"legGeometry":{"points":"myrfHt_|pLNqFH?JcBVoEFq@ReA`@}ABKx@sC","length":10},"rentedBike":false,"transitLeg":false,"duration":286.0,"steps":[{"distance":364.997,"relativeDirection":"DEPART","streetName":"Boulevard du Saguenay Ouest","absoluteDirection":"EAST","stayOn":false,"area":false,"bogusName":false,"lon":-71.09130000382352,"lat":48.43431445509596,"elevation":[]}]}],"tooSloped":false},{"duration":2364,"startTime":1522667440000,"endTime":1522669804000,"walkTime":484,"transitTime":1638,"waitingTime":242,"walkDistance":619.9562105235987,"walkLimitExceeded":false,"elevationLost":0.0,"elevationGained":0.0,"transfers":1,"legs":[{"startTime":1522667440000,"endTime":1522667638000,"departureDelay":0,"arrivalDelay":0,"realTime":false,"distance":254.875,"pathway":false,"mode":"WALK","route":"","agencyTimeZoneOffset":-14400000,"interlineWithPreviousLeg":false,"from":{"name":"Origin","lon":-71.091614,"lat":48.39945,"departure":1522667440000,"orig":"","vertexType":"NORMAL"},"to":{"name":"boul. Barrette passerelle Verlaine","stopId":"1:1899","stopCode":"1899","lon":-71.089455,"lat":48.400859,"arrival":1522667638000,"departure":1522667639000,"zoneId":"NA","stopIndex":5,"stopSequence":6,"vertexType":"TRANSIT"},"legGeometry":{"points":"_`lfHvb|pLu@u@KSG]?_@Fk@Li@aByCiAu@SMSOCA","length":12},"rentedBike":false,"transitLeg":false,"duration":198.0,"steps":[{"distance":103.162,"relativeDirection":"DEPART","streetName":"Rue George Sand","absoluteDirection":"NORTHEAST","stayOn":false,"area":false,"bogusName":false,"lon":-71.0917924517003,"lat":48.399529999185894,"elevation":[]},{"distance":151.713,"relativeDirection":"LEFT","streetName":"path","absoluteDirection":"NORTHEAST","stayOn":false,"area":false,"bogusName":true,"lon":-71.09068880000001,"lat":48.3997886,"elevation":[]}]},{"startTime":1522667639000,"endTime":1522669080000,"departureDelay":0,"arrivalDelay":0,"realTime":false,"distance":7925.605676294775,"pathway":false,"mode":"BUS","route":"14","agencyName":"Société de Transport du Saguenay","agencyUrl":"http://ville.saguenay.ca/fr/services-aux-citoyens/transport-sts","agencyTimeZoneOffset":-14400000,"routeColor":"C0C000","routeType":3,"routeId":"1:14","routeTextColor":"000000","interlineWithPreviousLeg":false,"tripBlockId":"31","headsign":"Terminus Chicoutimi","agencyId":"0","tripId":"1:218123","serviceDate":"20180402","from":{"name":"boul. Barrette passerelle Verlaine","stopId":"1:1899","stopCode":"1899","lon":-71.089455,"lat":48.400859,"arrival":1522667638000,"departure":1522667639000,"zoneId":"NA","stopIndex":5,"stopSequence":6,"vertexType":"TRANSIT"},"to":{"name":"Terminus Chicoutimi","stopId":"1:1289","stopCode":"1289","lon":-71.066163,"lat":48.428677,"arrival":1522669080000,"departure":1522669320000,"zoneId":"NA","stopIndex":37,"stopSequence":38,"vertexType":"TRANSIT"},"legGeometry":{"points":"qglfHrt{pLaDxOdFtFhCtCdDY|F_On@aB`B_GNoBvAyT|@sNuAyAuF}F}AaB_BkAC@qC\\gAWiBwBiKgMiCwEgEyHCGy@uB}@rAa@nAc@lFEf@mGvUYfAqCs@ICMCqFmDc@s@mAkBuEoESUgAhDiAfD}@zDyAcA_@Um@U{AWgB_Au@s@EEsBkCqFgF{IiI][aBhE}@}@oBmBwE{EwE{Ej@mBZeAa@SyEQg@CPcALuCx@{b@t@{[XoDd@sBl@iB~@gA`G{F{A{D_@sBFqDOq@iG{FGIoCkCgBgBsDpLHzBBT`@~COnBQf@gAjAg@bBuDmDmFgFa@_@w@s@CfAOrBEtAGbA?jBQtC?|@ExKMdIG~EUnLEhC}CKkBOkCOYbC","length":107},"routeShortName":"14","routeLongName":"Coopérative","rentedBike":false,"transitLeg":true,"duration":1441.0,"steps":[]},{"startTime":1522669320000,"endTime":1522669517000,"departureDelay":0,"arrivalDelay":0,"realTime":false,"distance":1960.480925293295,"pathway":false,"mode":"BUS","route":"28S","agencyName":"Société de Transport du Saguenay","agencyUrl":"http://ville.saguenay.ca/fr/services-aux-citoyens/transport-sts","agencyTimeZoneOffset":-14400000,"routeColor":"8B0000","routeType":3,"routeId":"1:28S","routeTextColor":"FFFFFF","interlineWithPreviousLeg":false,"headsign":"Cégep Jonq (Panet)","agencyId":"0","tripId":"1:218404","serviceDate":"20180402","from":{"name":"Terminus Chicoutimi","stopId":"1:1289","stopCode":"1289","lon":-71.066163,"lat":48.428677,"arrival":1522669080000,"departure":1522669320000,"zoneId":"NA","stopIndex":0,"stopSequence":1,"vertexType":"TRANSIT"},"to":{"name":"boul. Saguenay (no. 760)","stopId":"1:162","stopCode":"162","lon":-71.091291,"lat":48.434375,"arrival":1522669517000,"departure":1522669518000,"zoneId":"NA","stopIndex":2,"stopSequence":3,"vertexType":"TRANSIT"},"legGeometry":{"points":"otqfHp`wpLIcAsD_@QbFm@nOYxQe@xU]nIgBhIqHxXcElOwCvKU`BU~DSbGG~B","length":16},"routeShortName":"28S","routeLongName":"Chic/Jonq via Boul. Saguenay","rentedBike":false,"transitLeg":true,"duration":197.0,"steps":[]},{"startTime":1522669518000,"endTime":1522669804000,"departureDelay":0,"arrivalDelay":0,"realTime":false,"distance":364.997,"pathway":false,"mode":"WALK","route":"","agencyTimeZoneOffset":-14400000,"interlineWithPreviousLeg":false,"from":{"name":"boul. Saguenay (no. 760)","stopId":"1:162","stopCode":"162","lon":-71.091291,"lat":48.434375,"arrival":1522669517000,"departure":1522669518000,"zoneId":"NA","stopIndex":2,"stopSequence":3,"vertexType":"TRANSIT"},"to":{"name":"Destination","lon":-71.086719,"lat":48.433351,"arrival":1522669804000,"orig":"","vertexType":"NORMAL"},"legGeometry":{"points":"myrfHt_|pLNqFH?JcBVoEFq@ReA`@}ABKx@sC","length":10},"rentedBike":false,"transitLeg":false,"duration":286.0,"steps":[{"distance":364.997,"relativeDirection":"DEPART","streetName":"Boulevard du Saguenay Ouest","absoluteDirection":"EAST","stayOn":false,"area":false,"bogusName":false,"lon":-71.09130000382352,"lat":48.43431445509596,"elevation":[]}]}],"tooSloped":false},{"duration":2817,"startTime":1522667151000,"endTime":1522669968000,"walkTime":433,"transitTime":1962,"waitingTime":422,"walkDistance":544.0502932276847,"walkLimitExceeded":false,"elevationLost":0.0,"elevationGained":0.0,"transfers":1,"legs":[{"startTime":1522667151000,"endTime":1522667298000,"departureDelay":0,"arrivalDelay":0,"realTime":false,"distance":178.886,"pathway":false,"mode":"WALK","route":"","agencyTimeZoneOffset":-14400000,"interlineWithPreviousLeg":false,"from":{"name":"Origin","lon":-71.091614,"lat":48.39945,"departure":1522667151000,"orig":"","vertexType":"NORMAL"},"to":{"name":"Malraux / Paul Morand","stopId":"1:92","stopCode":"92","lon":-71.092693,"lat":48.398228,"arrival":1522667298000,"departure":1522667299000,"zoneId":"NA","stopIndex":28,"stopSequence":29,"vertexType":"TRANSIT"},"legGeometry":{"points":"_`lfHvb|pLvBzBVq@jBvB","length":4},"rentedBike":false,"transitLeg":false,"duration":147.0,"steps":[{"distance":81.735,"relativeDirection":"DEPART","streetName":"Rue George Sand","absoluteDirection":"SOUTHWEST","stayOn":false,"area":false,"bogusName":false,"lon":-71.0917924517003,"lat":48.399529999185894,"elevation":[]},{"distance":22.478,"relativeDirection":"LEFT","streetName":"Rue De Musset","absoluteDirection":"SOUTHEAST","stayOn":false,"area":false,"bogusName":false,"lon":-71.09241200000001,"lat":48.398920800000006,"elevation":[]},{"distance":74.673,"relativeDirection":"RIGHT","streetName":"path","absoluteDirection":"SOUTHWEST","stayOn":false,"area":false,"bogusName":true,"lon":-71.0921637,"lat":48.3988038,"elevation":[]}]},{"startTime":1522667299000,"endTime":1522667460000,"departureDelay":0,"arrivalDelay":0,"realTime":false,"distance":2219.107945063667,"pathway":false,"mode":"BUS","route":"14","agencyName":"Société de Transport du Saguenay","agencyUrl":"http://ville.saguenay.ca/fr/services-aux-citoyens/transport-sts","agencyTimeZoneOffset":-14400000,"routeColor":"C0C000","routeType":3,"routeId":"1:14","routeTextColor":"000000","interlineWithPreviousLeg":false,"tripBlockId":"30","headsign":"Talbot / Barrette","agencyId":"0","tripId":"1:218087","serviceDate":"20180402","from":{"name":"Malraux / Paul Morand","stopId":"1:92","stopCode":"92","lon":-71.092693,"lat":48.398228,"arrival":1522667298000,"departure":1522667299000,"zoneId":"NA","stopIndex":28,"stopSequence":29,"vertexType":"TRANSIT"},"to":{"name":"Roitelets / Sapins","stopId":"1:1543","stopCode":"1543","lon":-71.069553,"lat":48.393375,"arrival":1522667460000,"departure":1522667460000,"zoneId":"NA","stopIndex":35,"stopSequence":36,"vertexType":"TRANSIT"},"legGeometry":{"points":"wwkfHnh|pLcC~GyC\\aDkDcFsF~CgOtGm[j@oCvEoSl@_CxCmLjAeFpCeKrByHfAqCvH_SLa@","length":17},"routeShortName":"14","routeLongName":"Coopérative","rentedBike":false,"transitLeg":true,"duration":161.0,"steps":[]},{"startTime":1522667460000,"endTime":1522669080000,"departureDelay":0,"arrivalDelay":0,"realTime":false,"distance":9172.482542384352,"pathway":false,"mode":"BUS","route":"15","agencyName":"Société de Transport du Saguenay","agencyUrl":"http://ville.saguenay.ca/fr/services-aux-citoyens/transport-sts","agencyTimeZoneOffset":-14400000,"routeColor":"FF00FF","routeType":3,"routeId":"1:15","routeTextColor":"FFFFFF","interlineWithPreviousLeg":true,"tripBlockId":"30","headsign":"Terminus Chicoutimi","agencyId":"0","tripId":"1:218088","serviceDate":"20180402","from":{"name":"Roitelets / Sapins","stopId":"1:1543","stopCode":"1543","lon":-71.069553,"lat":48.393375,"arrival":1522667460000,"departure":1522667460000,"zoneId":"NA","stopIndex":0,"stopSequence":1,"vertexType":"TRANSIT"},"to":{"name":"Terminus Chicoutimi","stopId":"1:1289","stopCode":"1289","lon":-71.066163,"lat":48.428677,"arrival":1522669080000,"departure":1522669500000,"zoneId":"NA","stopIndex":39,"stopSequence":40,"vertexType":"TRANSIT"},"legGeometry":{"points":"_zjfHfwwpLx@}BHa@NaADq@@y@Cy@I{@Ka@O[Sg@c@mAWwAMyA?EC]?wABuABmFB{@BmDFuH@i@F[FsC@c@TuGEGVsHPuDLuBXsFDoA?W@]Cu@GcAKu@Q_ASo@a@y@a@o@MOUUeCqBiDsDqE{EiAcAcB_AqBgA_AQaBSaBG_@Bu@FG?h@fNKnDpCfBkAzDgA}@y@q@sDy@GAeGT~@~KKrKyAnL[hBUxAm@nCcAlDeCvGmA|CUr@}@~A_@\\_DvCEZcA|@UP_@d@Yl@oBdFeCxG_CfGYVQXS\\dK|HlFZbC\\p@zA\\rB@hBiArG{BNw@FiG}@iDwAECcCcBo@y@sEeGe@o@qAa@m@MoB?C@}BZwAc@oA_Bs@gDCKZ{Di@QECc@_@sAkAoBwB_EcE{A_BoAmAk@o@cCaCkIkIaJaJUUwBaCj@wCjAsCzGoG_CoHL{D_@kAqD{CQr@iAcAy@w@L{@wAuA_B_B_EpLDh@NbBVvCIxBg@`Am@l@Sb@a@rAqDqDmEkE]a@kAqAU|@WnKG|DGxDOdPKvJU|F?XQlJC~@ChAIzEcCOaIi@VwL","length":170},"routeShortName":"15","routeLongName":"Term. Chic / Costco","rentedBike":false,"transitLeg":true,"duration":1620.0,"steps":[]},{"startTime":1522669500000,"endTime":1522669681000,"departureDelay":0,"arrivalDelay":0,"realTime":false,"distance":1960.480925293295,"pathway":false,"mode":"BUS","route":"3","agencyName":"Société de Transport du Saguenay","agencyUrl":"http://ville.saguenay.ca/fr/services-aux-citoyens/transport-sts","agencyTimeZoneOffset":-14400000,"routeColor":"FF0000","routeType":3,"routeId":"1:3","routeTextColor":"FFFFFF","interlineWithPreviousLeg":false,"tripBlockId":"9","headsign":"Terminus Jonquière","agencyId":"0","tripId":"1:217394","serviceDate":"20180402","from":{"name":"Terminus Chicoutimi","stopId":"1:1289","stopCode":"1289","lon":-71.066163,"lat":48.428677,"arrival":1522669080000,"departure":1522669500000,"zoneId":"NA","stopIndex":0,"stopSequence":1,"vertexType":"TRANSIT"},"to":{"name":"boul. Saguenay (no. 760)","stopId":"1:162","stopCode":"162","lon":-71.091291,"lat":48.434375,"arrival":1522669681000,"departure":1522669682000,"zoneId":"NA","stopIndex":2,"stopSequence":3,"vertexType":"TRANSIT"},"legGeometry":{"points":"evqfHzcwpLi@?UhKoBKcBts@OjC]fCg@~BsId[{DrNqB|HSl@YnAMfAOnAo@nMCp@","length":17},"routeShortName":"3","routeLongName":"Chic/Jonq via Boul. Saguenay","rentedBike":false,"transitLeg":true,"duration":181.0,"steps":[]},{"startTime":1522669682000,"endTime":1522669968000,"departureDelay":0,"arrivalDelay":0,"realTime":false,"distance":364.997,"pathway":false,"mode":"WALK","route":"","agencyTimeZoneOffset":-14400000,"interlineWithPreviousLeg":false,"from":{"name":"boul. Saguenay (no. 760)","stopId":"1:162","stopCode":"162","lon":-71.091291,"lat":48.434375,"arrival":1522669681000,"departure":1522669682000,"zoneId":"NA","stopIndex":2,"stopSequence":3,"vertexType":"TRANSIT"},"to":{"name":"Destination","lon":-71.086719,"lat":48.433351,"arrival":1522669968000,"orig":"","vertexType":"NORMAL"},"legGeometry":{"points":"myrfHt_|pLNqFH?JcBVoEFq@ReA`@}ABKx@sC","length":10},"rentedBike":false,"transitLeg":false,"duration":286.0,"steps":[{"distance":364.997,"relativeDirection":"DEPART","streetName":"Boulevard du Saguenay Ouest","absoluteDirection":"EAST","stayOn":false,"area":false,"bogusName":false,"lon":-71.09130000382352,"lat":48.43431445509596,"elevation":[]}]}],"tooSloped":false}]},"debugOutput":{"precalculationTime":16,"pathCalculationTime":40,"pathTimes":[24,9,7],"renderingTime":0,"totalTime":56,"timedOut":false},"elevationMetadata":{"ellipsoidToGeoidDifference":-28.885904201182168,"geoidElevation":false}}