{"requestParameters":{"date":"2018/04/02","walkSpeed":"1.33","walkReluctance":"2.0","fromPlace":"48.398389,-71.091682","maxWalkDistance":"3000","waitReluctance":"1.0","carSpeed":"33","numItineraries":"3","waitAtBeginningFactor":"0.4","mode":"TRANSIT,WALK","ignoreRealtimeUpdates":"false","stairsReluctance":"2.0","toPlace":"48.394631,-71.073569","time":"13:30:00"},"plan":{"date":1522690200000,"from":{"name":"Origin","lon":-71.091682,"lat":48.398389,"orig":"","vertexType":"NORMAL"},"to":{"name":"Destination","lon":-71.073569,"lat":48.394631,"orig":"","vertexType":"NORMAL"},"itineraries":[{"duration":250,"startTime":1522690602000,"endTime":1522690852000,"walkTime":108,"transitTime":140,"waitingTime":2,"walkDistance":139.97512781951247,"walkLimitExceeded":false,"elevationLost":0.0,"elevationGained":0.0,"transfers":0,"legs":[{"startTime":1522690602000,"endTime":1522690698000,"departureDelay":0,"arrivalDelay":0,"realTime":false,"distance":124.423,"pathway":false,"mode":"WALK","route":"","agencyTimeZoneOffset":-14400000,"interlineWithPreviousLeg":false,"from":{"name":"Origin","lon":-71.091682,"lat":48.398389,"departure":1522690602000,"orig":"","vertexType":"NORMAL"},"to":{"name":"Malraux / Paul Morand","stopId":"1:92","stopCode":"92","lon":-71.092693,"lat":48.398228,"arrival":1522690698000,"departure":1522690699000,"zoneId":"NA","stopIndex":28,"stopSequence":29,"vertexType":"TRANSIT"},"legGeometry":{"points":"{ykfHra|pLs@lBjBvB","length":3},"rentedBike":false,"transitLeg":false,"duration":96.0,"steps":[{"distance":49.75,"relativeDirection":"DEPART","streetName":"Rue De Musset","absoluteDirection":"NORTHWEST","stayOn":false,"area":false,"bogusName":false,"lon":-71.091614,"lat":48.398545,"elevation":[]},{"distance":74.673,"relativeDirection":"LEFT","streetName":"path","absoluteDirection":"SOUTHWEST","stayOn":false,"area":false,"bogusName":true,"lon":-71.0921637,"lat":48.3988038,"elevation":[]}]},{"startTime":1522690699000,"endTime":1522690839000,"departureDelay":0,"arrivalDelay":0,"realTime":false,"distance":1910.5838440594339,"pathway":false,"mode":"BUS","route":"14","agencyName":"Société de Transport du Saguenay","agencyUrl":"http://ville.saguenay.ca/fr/services-aux-citoyens/transport-sts","agencyTimeZoneOffset":-14400000,"routeColor":"C0C000","routeType":3,"routeId":"1:14","routeTextColor":"000000","interlineWithPreviousLeg":false,"tripBlockId":"32","headsign":"Talbot / Barrette","agencyId":"0","tripId":"1:218160","serviceDate":"20180402","from":{"name":"Malraux / Paul Morand","stopId":"1:92","stopCode":"92","lon":-71.092693,"lat":48.398228,"arrival":1522690698000,"departure":1522690699000,"zoneId":"NA","stopIndex":28,"stopSequence":29,"vertexType":"TRANSIT"},"to":{"name":"Maxi - boulevard Barrette","stopId":"1:88","stopCode":"88","lon":-71.07294,"lat":48.395,"arrival":1522690839000,"departure":1522690840000,"zoneId":"NA","stopIndex":34,"stopSequence":35,"vertexType":"TRANSIT"},"legGeometry":{"points":"wwkfHnh|pLcC~GyC\\aDkDcFsF~CgOtGm[j@oCvEoSl@_CxCmLjAeFpCeKrByHfAqC","length":15},"routeShortName":"14","routeLongName":"Coopérative","rentedBike":false,"transitLeg":true,"duration":140.0,"steps":[]},{"startTime":1522690840000,"endTime":1522690852000,"departureDelay":0,"arrivalDelay":0,"realTime":false,"distance":15.551,"pathway":false,"mode":"WALK","route":"","agencyTimeZoneOffset":-14400000,"interlineWithPreviousLeg":false,"from":{"name":"Maxi - boulevard Barrette","stopId":"1:88","stopCode":"88","lon":-71.07294,"lat":48.395,"arrival":1522690839000,"departure":1522690840000,"zoneId":"NA","stopIndex":34,"stopSequence":35,"vertexType":"TRANSIT"},"to":{"name":"Destination","lon":-71.073569,"lat":48.394631,"arrival":1522690852000,"orig":"","vertexType":"NORMAL"},"legGeometry":{"points":"sckfH~lxpLOb@","length":2},"rentedBike":false,"transitLeg":false,"duration":12.0,"steps":[{"distance":15.551,"relativeDirection":"DEPART","streetName":"bike path","absoluteDirection":"NORTHWEST","stayOn":false,"area":false,"bogusName":false,"lon":-71.072956176549,"lat":48.39498407908756,"elevation":[]}]}],"tooSloped":false},{"duration":810,"startTime":1522690895000,"endTime":1522691705000,"walkTime":746,"transitTime":62,"waitingTime":2,"walkDistance":972.5156691707489,"walkLimitExceeded":false,"elevationLost":0.0,"elevationGained":0.0,"transfers":0,"legs":[{"startTime":1522690895000,"endTime":1522691095000,"departureDelay":0,"arrivalDelay":0,"realTime":false,"distance":253.911,"pathway":false,"mode":"WALK","route":"","agencyTimeZoneOffset":-14400000,"interlineWithPreviousLeg":false,"from":{"name":"Origin","lon":-71.091682,"lat":48.398389,"departure":1522690895000,"orig":"","vertexType":"NORMAL"},"to":{"name":"Malraux / Colette","stopId":"1:1591","stopCode":"1591","lon":-71.091599,"lat":48.397534,"arrival":1522691095000,"departure":1522691096000,"zoneId":"NA","stopIndex":7,"stopSequence":8,"vertexType":"TRANSIT"},"legGeometry":{"points":"{ykfHra|pLs@lBjBvBNRDKpB{F","length":6},"rentedBike":false,"transitLeg":false,"duration":200.0,"steps":[{"distance":49.75,"relativeDirection":"DEPART","streetName":"Rue De Musset","absoluteDirection":"NORTHWEST","stayOn":false,"area":false,"bogusName":false,"lon":-71.091614,"lat":48.398545,"elevation":[]},{"distance":86.369,"relativeDirection":"LEFT","streetName":"path","absoluteDirection":"SOUTHWEST","stayOn":false,"area":false,"bogusName":true,"lon":-71.0921637,"lat":48.3988038,"elevation":[]},{"distance":117.792,"relativeDirection":"LEFT","streetName":"Rue Malraux","absoluteDirection":"SOUTHEAST","stayOn":false,"area":false,"bogusName":false,"lon":-71.0928648,"lat":48.398182000000006,"elevation":[]}]},{"startTime":1522691096000,"endTime":1522691158000,"departureDelay":0,"arrivalDelay":0,"realTime":false,"distance":854.6289528837231,"pathway":false,"mode":"BUS","route":"14","agencyName":"Société de Transport du Saguenay","agencyUrl":"http://ville.saguenay.ca/fr/services-aux-citoyens/transport-sts","agencyTimeZoneOffset":-14400000,"routeColor":"C0C000","routeType":3,"routeId":"1:14","routeTextColor":"000000","interlineWithPreviousLeg":false,"tripBlockId":"33","headsign":"Terminus Chicoutimi","agencyId":"0","tripId":"1:218186","serviceDate":"20180402","from":{"name":"Malraux / Colette","stopId":"1:1591","stopCode":"1591","lon":-71.091599,"lat":48.397534,"arrival":1522691095000,"departure":1522691096000,"zoneId":"NA","stopIndex":7,"stopSequence":8,"vertexType":"TRANSIT"},"to":{"name":"Malraux / boul. Barrette","stopId":"1:1879","stopCode":"1879","lon":-71.081369,"lat":48.397654,"arrival":1522691158000,"departure":1522691159000,"zoneId":"NA","stopIndex":11,"stopSequence":12,"vertexType":"TRANSIT"},"legGeometry":{"points":"_tkfH~`|pLn@aB`B_GNoBvAyT|@sNuAyAuF}F","length":8},"routeShortName":"14","routeLongName":"Coopérative","rentedBike":false,"transitLeg":true,"duration":62.0,"steps":[]},{"startTime":1522691159000,"endTime":1522691705000,"departureDelay":0,"arrivalDelay":0,"realTime":false,"distance":718.537,"pathway":false,"mode":"WALK","route":"","agencyTimeZoneOffset":-14400000,"interlineWithPreviousLeg":false,"from":{"name":"Malraux / boul. Barrette","stopId":"1:1879","stopCode":"1879","lon":-71.081369,"lat":48.397654,"arrival":1522691158000,"departure":1522691159000,"zoneId":"NA","stopIndex":11,"stopSequence":12,"vertexType":"TRANSIT"},"to":{"name":"Destination","lon":-71.073569,"lat":48.394631,"arrival":1522691705000,"orig":"","vertexType":"NORMAL"},"legGeometry":{"points":"qtkfHbbzpL}@_Aj@_C`GsUf@kBlAyEnA_Fj@eBj@_B","length":9},"rentedBike":false,"transitLeg":false,"duration":546.0,"steps":[{"distance":42.535,"relativeDirection":"DEPART","streetName":"Rue Malraux","absoluteDirection":"NORTHEAST","stayOn":false,"area":false,"bogusName":false,"lon":-71.08145354995072,"lat":48.39769148827104,"elevation":[]},{"distance":676.002,"relativeDirection":"RIGHT","streetName":"bike path","absoluteDirection":"SOUTHEAST","stayOn":false,"area":false,"bogusName":true,"lon":-71.0811336,"lat":48.3980096,"elevation":[]}]}],"tooSloped":false},{"duration":250,"startTime":1522692402000,"endTime":1522692652000,"walkTime":108,"transitTime":140,"waitingTime":2,"walkDistance":139.97512781951247,"walkLimitExceeded":false,"elevationLost":0.0,"elevationGained":0.0,"transfers":0,"legs":[{"startTime":1522692402000,"endTime":1522692498000,"departureDelay":0,"arrivalDelay":0,"realTime":false,"distance":124.423,"pathway":false,"mode":"WALK","route":"","agencyTimeZoneOffset":-14400000,"interlineWithPreviousLeg":false,"from":{"name":"Origin","lon":-71.091682,"lat":48.398389,"departure":1522692402000,"orig":"","vertexType":"NORMAL"},"to":{"name":"Malraux / Paul Morand","stopId":"1:92","stopCode":"92","lon":-71.092693,"lat":48.398228,"arrival":1522692498000,"departure":1522692499000,"zoneId":"NA","stopIndex":28,"stopSequence":29,"vertexType":"TRANSIT"},"legGeometry":{"points":"{ykfHra|pLs@lBjBvB","length":3},"rentedBike":false,"transitLeg":false,"duration":96.0,"steps":[{"distance":49.75,"relativeDirection":"DEPART","streetName":"Rue De Musset","absoluteDirection":"NORTHWEST","stayOn":false,"area":false,"bogusName":false,"lon":-71.091614,"lat":48.398545,"elevation":[]},{"distance":74.673,"relativeDirection":"LEFT","streetName":"path","absoluteDirection":"SOUTHWEST","stayOn":false,"area":false,"bogusName":true,"lon":-71.0921637,"lat":48.3988038,"elevation":[]}]},{"startTime":1522692499000,"endTime":1522692639000,"departureDelay":0,"arrivalDelay":0,"realTime":false,"distance":1910.5838440594339,"pathway":false,"mode":"BUS","route":"14","agencyName":"Société de Transport du Saguenay","agencyUrl":"http://ville.saguenay.ca/fr/services-aux-citoyens/transport-sts","agencyTimeZoneOffset":-14400000,"routeColor":"C0C000","routeType":3,"routeId":"1:14","routeTextColor":"000000","interlineWithPreviousLeg":false,"tripBlockId":"30","headsign":"Talbot / Barrette","agencyId":"0","tripId":"1:218101","serviceDate":"20180402","from":{"name":"Malraux / Paul Morand","stopId":"1:92","stopCode":"92","lon":-71.092693,"lat":48.398228,"arrival":1522692498000,"departure":1522692499000,"zoneId":"NA","stopIndex":28,"stopSequence":29,"vertexType":"TRANSIT"},"to":{"name":"Maxi - boulevard Barrette","stopId":"1:88","stopCode":"88","lon":-71.07294,"lat":48.395,"arrival":1522692639000,"departure":1522692640000,"zoneId":"NA","stopIndex":34,"stopSequence":35,"vertexType":"TRANSIT"},"legGeometry":{"points":"wwkfHnh|pLcC~GyC\\aDkDcFsF~CgOtGm[j@oCvEoSl@_CxCmLjAeFpCeKrByHfAqC","length":15},"routeShortName":"14","routeLongName":"Coopérative","rentedBike":false,"transitLeg":true,"duration":140.0,"steps":[]},{"startTime":1522692640000,"endTime":1522692652000,"departureDelay":0,"arrivalDelay":0,"realTime":false,"distance":15.551,"pathway":false,"mode":"WALK","route":"","agencyTimeZoneOffset":-14400000,"interlineWithPreviousLeg":false,"from":{"name":"Maxi - boulevard Barrette","stopId":"1:88","stopCode":"88","lon":-71.07294,"lat":48.395,"arrival":1522692639000,"departure":1522692640000,"zoneId":"NA","stopIndex":34,"stopSequence":35,"vertexType":"TRANSIT"},"to":{"name":"Destination","lon":-71.073569,"lat":48.394631,"arrival":1522692652000,"orig":"","vertexType":"NORMAL"},"legGeometry":{"points":"sckfH~lxpLOb@","length":2},"rentedBike":false,"transitLeg":false,"duration":12.0,"steps":[{"distance":15.551,"relativeDirection":"DEPART","streetName":"bike path","absoluteDirection":"NORTHWEST","stayOn":false,"area":false,"bogusName":false,"lon":-71.072956176549,"lat":48.39498407908756,"elevation":[]}]}],"tooSloped":false}]},"debugOutput":{"precalculationTime":19,"pathCalculationTime":15,"pathTimes":[6,6,3],"renderingTime":0,"totalTime":34,"timedOut":false},"elevationMetadata":{"ellipsoidToGeoidDifference":-28.885904201182168,"geoidElevation":false}}