{"requestParameters":{"date":"2018/04/02","walkSpeed":"1.33","walkReluctance":"2.0","fromPlace":"48.399339,-71.094084","maxWalkDistance":"3000","waitReluctance":"1.0","carSpeed":"33","numItineraries":"3","waitAtBeginningFactor":"0.4","mode":"TRANSIT,WALK","ignoreRealtimeUpdates":"false","stairsReluctance":"2.0","toPlace":"48.418436,-71.035021","time":"13:30:00"},"plan":{"date":1522690200000,"from":{"name":"Origin","lon":-71.094084,"lat":48.399339,"orig":"","vertexType":"NORMAL"},"to":{"name":"Destination","lon":-71.035021,"lat":48.418436,"orig":"","vertexType":"NORMAL"},"itineraries":[{"duration":2843,"startTime":1522690607000,"endTime":1522693450000,"walkTime":1481,"transitTime":1360,"waitingTime":2,"walkDistance":1905.0719624000471,"walkLimitExceeded":false,"elevationLost":0.0,"elevationGained":0.0,"transfers":0,"legs":[{"startTime":1522690607000,"endTime":1522690719000,"departureDelay":0,"arrivalDelay":0,"realTime":false,"distance":141.46,"pathway":false,"mode":"WALK","route":"","agencyTimeZoneOffset":-14400000,"interlineWithPreviousLeg":false,"from":{"name":"Origin","lon":-71.094084,"lat":48.399339,"departure":1522690607000,"orig":"","vertexType":"NORMAL"},"to":{"name":"Malraux / Pagnol","stopId":"1:1978","stopCode":"1978","lon":-71.093388,"lat":48.400416,"arrival":1522690719000,"departure":1522690720000,"zoneId":"NA","stopIndex":29,"stopSequence":30,"vertexType":"TRANSIT"},"legGeometry":{"points":"y~kfHdr|pLo@@c@S}@kAaAeAEE","length":6},"rentedBike":false,"transitLeg":false,"duration":112.0,"steps":[{"distance":141.46,"relativeDirection":"DEPART","streetName":"Rue Malraux","absoluteDirection":"NORTH","stayOn":false,"area":false,"bogusName":false,"lon":-71.09426357952785,"lat":48.399335497329346,"elevation":[]}]},{"startTime":1522690720000,"endTime":1522690860000,"departureDelay":0,"arrivalDelay":0,"realTime":false,"distance":1970.4615229267838,"pathway":false,"mode":"BUS","route":"14","agencyName":"Société de Transport du Saguenay","agencyUrl":"http://ville.saguenay.ca/fr/services-aux-citoyens/transport-sts","agencyTimeZoneOffset":-14400000,"routeColor":"C0C000","routeType":3,"routeId":"1:14","routeTextColor":"000000","interlineWithPreviousLeg":false,"tripBlockId":"32","headsign":"Talbot / Barrette","agencyId":"0","tripId":"1:218160","serviceDate":"20180402","from":{"name":"Malraux / Pagnol","stopId":"1:1978","stopCode":"1978","lon":-71.093388,"lat":48.400416,"arrival":1522690719000,"departure":1522690720000,"zoneId":"NA","stopIndex":29,"stopSequence":30,"vertexType":"TRANSIT"},"to":{"name":"Roitelets / Sapins","stopId":"1:1543","stopCode":"1543","lon":-71.069553,"lat":48.393375,"arrival":1522690860000,"departure":1522690860000,"zoneId":"NA","stopIndex":35,"stopSequence":36,"vertexType":"TRANSIT"},"legGeometry":{"points":"welfH`m|pLcFsF~CgOtGm[j@oCvEoSl@_CxCmLjAeFpCeKrByHfAqCvH_SLa@","length":14},"routeShortName":"14","routeLongName":"Coopérative","rentedBike":false,"transitLeg":true,"duration":140.0,"steps":[]},{"startTime":1522690860000,"endTime":1522692080000,"departureDelay":0,"arrivalDelay":0,"realTime":false,"distance":7324.442027921428,"pathway":false,"mode":"BUS","route":"15","agencyName":"Société de Transport du Saguenay","agencyUrl":"http://ville.saguenay.ca/fr/services-aux-citoyens/transport-sts","agencyTimeZoneOffset":-14400000,"routeColor":"FF00FF","routeType":3,"routeId":"1:15","routeTextColor":"FFFFFF","interlineWithPreviousLeg":true,"tripBlockId":"32","headsign":"Terminus Chicoutimi","agencyId":"0","tripId":"1:218161","serviceDate":"20180402","from":{"name":"Roitelets / Sapins","stopId":"1:1543","stopCode":"1543","lon":-71.069553,"lat":48.393375,"arrival":1522690860000,"departure":1522690860000,"zoneId":"NA","stopIndex":0,"stopSequence":1,"vertexType":"TRANSIT"},"to":{"name":"Résidence de l' UQAC","stopId":"1:1928","stopCode":"1928","lon":-71.052293,"lat":48.421532,"arrival":1522692080000,"departure":1522692081000,"zoneId":"NA","stopIndex":30,"stopSequence":31,"vertexType":"TRANSIT"},"legGeometry":{"points":"_zjfHfwwpLx@}BHa@NaADq@@y@Cy@I{@Ka@O[Sg@c@mAWwAMyA?EC]?wABuABmFB{@BmDFuH@i@F[FsC@c@TuGEGVsHPuDLuBXsFDoA?W@]Cu@GcAKu@Q_ASo@a@y@a@o@MOUUeCqBiDsDqE{EiAcAcB_AqBgA_AQaBSaBG_@Bu@FG?h@fNKnDpCfBkAzDgA}@y@q@sDy@GAeGT~@~KKrKyAnL[hBUxAm@nCcAlDeCvGmA|CUr@}@~A_@\\_DvCEZcA|@UP_@d@Yl@oBdFeCxG_CfGYVQXS\\dK|HlFZbC\\p@zA\\rB@hBiArG{BNw@FiG}@iDwAECcCcBo@y@sEeGe@o@qAa@m@MoB?C@}BZwAc@oA_Bs@gDCKZ{Di@QECc@_@sAkAoBwB_EcE{A_BoAmAk@o@cCaCkIkIaJaJUUwBaCj@wCjAsCzGoG_CoHL{D_@kAqD{CQr@iAcAy@w@L{@wAuA","length":141},"routeShortName":"15","routeLongName":"Term. Chic / Costco","rentedBike":false,"transitLeg":true,"duration":1220.0,"steps":[]},{"startTime":1522692081000,"endTime":1522693450000,"departureDelay":0,"arrivalDelay":0,"realTime":false,"distance":1763.4270000000001,"pathway":false,"mode":"WALK","route":"","agencyTimeZoneOffset":-14400000,"interlineWithPreviousLeg":false,"from":{"name":"Résidence de l' UQAC","stopId":"1:1928","stopCode":"1928","lon":-71.052293,"lat":48.421532,"arrival":1522692080000,"departure":1522692081000,"zoneId":"NA","stopIndex":30,"stopSequence":31,"vertexType":"TRANSIT"},"to":{"name":"Destination","lon":-71.035021,"lat":48.418436,"arrival":1522693450000,"orig":"","vertexType":"NORMAL"},"legGeometry":{"points":"uipfHdltpLAAUUMKUSc@_@SQWQoAmAc@a@[Wi@m@W_@YOKGe@[KIBg@Ha@Ry@r@E|@Yh@g@FE`A_A\\a@n@wAl@eBn@cBRk@nBoFnAgDFSNa@nAoDJ[L_@HYnAkDVu@t@uBhAmDzCiJ{@{@??{@{@c@e@MMGOe@cAg@gBPOHGR_@LSRo@H{@Co@GgBC_ABe@Dg@","length":62},"rentedBike":false,"transitLeg":false,"duration":1369.0,"steps":[{"distance":62.393,"relativeDirection":"DEPART","streetName":"Chemin Saint Thomas","absoluteDirection":"NORTHEAST","stayOn":false,"area":false,"bogusName":false,"lon":-71.05234990075473,"lat":48.421558735228686,"elevation":[]},{"distance":223.10899999999998,"relativeDirection":"CONTINUE","streetName":"road","absoluteDirection":"NORTHEAST","stayOn":false,"area":false,"bogusName":true,"lon":-71.051902,"lat":48.4220343,"elevation":[]},{"distance":52.897,"relativeDirection":"RIGHT","streetName":"path","absoluteDirection":"EAST","stayOn":true,"area":false,"bogusName":true,"lon":-71.0503491,"lat":48.423747000000006,"elevation":[]},{"distance":1029.27,"relativeDirection":"RIGHT","streetName":"Chemin Sydenham","absoluteDirection":"SOUTH","stayOn":false,"area":false,"bogusName":false,"lon":-71.0496871,"lat":48.42357620000001,"elevation":[]},{"distance":197.794,"relativeDirection":"LEFT","streetName":"Rue Chabanel","absoluteDirection":"NORTHEAST","stayOn":false,"area":false,"bogusName":false,"lon":-71.03911190000001,"lat":48.417869,"elevation":[]},{"distance":197.964,"relativeDirection":"RIGHT","streetName":"service road","absoluteDirection":"SOUTHEAST","stayOn":false,"area":false,"bogusName":true,"lon":-71.0373165,"lat":48.419144200000005,"elevation":[]}]}],"tooSloped":false},{"duration":2855,"startTime":1522690957000,"endTime":1522693812000,"walkTime":290,"transitTime":2143,"waitingTime":422,"walkDistance":370.30892480977377,"walkLimitExceeded":false,"elevationLost":0.0,"elevationGained":0.0,"transfers":1,"legs":[{"startTime":1522690957000,"endTime":1522691065000,"departureDelay":0,"arrivalDelay":0,"realTime":false,"distance":136.954,"pathway":false,"mode":"WALK","route":"","agencyTimeZoneOffset":-14400000,"interlineWithPreviousLeg":false,"from":{"name":"Origin","lon":-71.094084,"lat":48.399339,"departure":1522690957000,"orig":"","vertexType":"NORMAL"},"to":{"name":"Malraux / Pagnol","stopId":"1:441","stopCode":"441","lon":-71.09356,"lat":48.400447,"arrival":1522691065000,"departure":1522691066000,"zoneId":"NA","stopIndex":6,"stopSequence":7,"vertexType":"TRANSIT"},"legGeometry":{"points":"y~kfHdr|pLo@@c@S}@kAaAeA","length":5},"rentedBike":false,"transitLeg":false,"duration":108.0,"steps":[{"distance":136.954,"relativeDirection":"DEPART","streetName":"Rue Malraux","absoluteDirection":"NORTH","stayOn":false,"area":false,"bogusName":false,"lon":-71.09426357952785,"lat":48.399335497329346,"elevation":[]}]},{"startTime":1522691066000,"endTime":1522692480000,"departureDelay":0,"arrivalDelay":0,"realTime":false,"distance":7619.113334279732,"pathway":false,"mode":"BUS","route":"14","agencyName":"Société de Transport du Saguenay","agencyUrl":"http://ville.saguenay.ca/fr/services-aux-citoyens/transport-sts","agencyTimeZoneOffset":-14400000,"routeColor":"C0C000","routeType":3,"routeId":"1:14","routeTextColor":"000000","interlineWithPreviousLeg":false,"tripBlockId":"33","headsign":"Terminus Chicoutimi","agencyId":"0","tripId":"1:218186","serviceDate":"20180402","from":{"name":"Malraux / Pagnol","stopId":"1:441","stopCode":"441","lon":-71.09356,"lat":48.400447,"arrival":1522691065000,"departure":1522691066000,"zoneId":"NA","stopIndex":6,"stopSequence":7,"vertexType":"TRANSIT"},"to":{"name":"Terminus Chicoutimi","stopId":"1:1289","stopCode":"1289","lon":-71.066163,"lat":48.428677,"arrival":1522692480000,"departure":1522692900000,"zoneId":"NA","stopIndex":37,"stopSequence":38,"vertexType":"TRANSIT"},"legGeometry":{"points":"melfHbm|pLhCtCdDY|F_On@aB`B_GNoBvAyT|@sNuAyAuF}F}AaB_BkAC@qC\\gAWiBwBiKgMiCwEgEyHCGy@uB}@rAa@nAc@lFEf@mGvUYfAqCs@ICMCqFmDc@s@mAkBuEoESUgAhDiAfD}@zDyAcA_@Um@U{AWgB_Au@s@EEsBkCqFgF{IiI][aBhE}@}@oBmBwE{EwE{Ej@mBZeAa@SyEQg@CPcALuCx@{b@t@{[XoDd@sBl@iB~@gA`G{F{A{D_@sBFqDOq@iG{FGIoCkCgBgBsDpLHzBBT`@~COnBQf@gAjAg@bBuDmDmFgFa@_@w@s@CfAOrBEtAGbA?jBQtC?|@ExKMdIG~EUnLEhC}CKkBOkCOYbC","length":105},"routeShortName":"14","routeLongName":"Coopérative","rentedBike":false,"transitLeg":true,"duration":1414.0,"steps":[]},{"startTime":1522692900000,"endTime":1522693629000,"departureDelay":0,"arrivalDelay":0,"realTime":false,"distance":3458.8732059868325,"pathway":false,"mode":"BUS","route":"10","agencyName":"Société de Transport du Saguenay","agencyUrl":"http://ville.saguenay.ca/fr/services-aux-citoyens/transport-sts","agencyTimeZoneOffset":-14400000,"routeColor":"0000FF","routeType":3,"routeId":"1:10","routeTextColor":"FFFFFF","interlineWithPreviousLeg":false,"tripBlockId":"29","headsign":"Terminus UQAC","agencyId":"0","tripId":"1:218067","serviceDate":"20180402","from":{"name":"Terminus Chicoutimi","stopId":"1:1289","stopCode":"1289","lon":-71.066163,"lat":48.428677,"arrival":1522692480000,"departure":1522692900000,"zoneId":"NA","stopIndex":0,"stopSequence":1,"vertexType":"TRANSIT"},"to":{"name":"Chabanel (no. 616)","stopId":"1:1640","stopCode":"1640","lon":-71.037069,"lat":48.419408,"arrival":1522693629000,"departure":1522693630000,"zoneId":"NA","stopIndex":14,"stopSequence":15,"vertexType":"TRANSIT"},"legGeometry":{"points":"svqfHnbwpLDmCdDZ\\kO`@mQBuCD}DQ_ECk@^Cd@QWkL?m@IuF@gA?eH?cAEuEDO^AjD`@B@rEf@T_FjBXpDd@hCObDaCfCaHbFqN`CwG_J_CwMiDGe@T}C\\yELaCJeAJcAXw@Fk@M_@xBwVr@^LJ|@z@HdAlBbD`Av@b@\\v@d@`@BpBAzAXl@t@","length":55},"routeShortName":"10","routeLongName":"Notre-Dame du Saguenay","rentedBike":false,"transitLeg":true,"duration":729.0,"steps":[]},{"startTime":1522693630000,"endTime":1522693812000,"departureDelay":0,"arrivalDelay":0,"realTime":false,"distance":233.28499999999997,"pathway":false,"mode":"WALK","route":"","agencyTimeZoneOffset":-14400000,"interlineWithPreviousLeg":false,"from":{"name":"Chabanel (no. 616)","stopId":"1:1640","stopCode":"1640","lon":-71.037069,"lat":48.419408,"arrival":1522693629000,"departure":1522693630000,"zoneId":"NA","stopIndex":14,"stopSequence":15,"vertexType":"TRANSIT"},"to":{"name":"Destination","lon":-71.035021,"lat":48.418436,"arrival":1522693812000,"orig":"","vertexType":"NORMAL"},"legGeometry":{"points":"{{ofH`lqpL?@VZHTDPPOHGR_@LSRo@H{@Co@GgBC_ABe@Dg@","length":16},"rentedBike":false,"transitLeg":false,"duration":182.0,"steps":[{"distance":35.321,"relativeDirection":"DEPART","streetName":"Rue Chabanel","absoluteDirection":"SOUTHWEST","stayOn":false,"area":false,"bogusName":false,"lon":-71.03696057111584,"lat":48.41934895529792,"elevation":[]},{"distance":197.964,"relativeDirection":"LEFT","streetName":"service road","absoluteDirection":"SOUTHEAST","stayOn":false,"area":false,"bogusName":true,"lon":-71.0373165,"lat":48.419144200000005,"elevation":[]}]}],"tooSloped":false},{"duration":2493,"startTime":1522692757000,"endTime":1522695250000,"walkTime":1477,"transitTime":1014,"waitingTime":2,"walkDistance":1900.5659624000468,"walkLimitExceeded":false,"elevationLost":0.0,"elevationGained":0.0,"transfers":0,"legs":[{"startTime":1522692757000,"endTime":1522692865000,"departureDelay":0,"arrivalDelay":0,"realTime":false,"distance":136.954,"pathway":false,"mode":"WALK","route":"","agencyTimeZoneOffset":-14400000,"interlineWithPreviousLeg":false,"from":{"name":"Origin","lon":-71.094084,"lat":48.399339,"departure":1522692757000,"orig":"","vertexType":"NORMAL"},"to":{"name":"Malraux / Pagnol","stopId":"1:441","stopCode":"441","lon":-71.09356,"lat":48.400447,"arrival":1522692865000,"departure":1522692866000,"zoneId":"NA","stopIndex":6,"stopSequence":7,"vertexType":"TRANSIT"},"legGeometry":{"points":"y~kfHdr|pLo@@c@S}@kAaAeA","length":5},"rentedBike":false,"transitLeg":false,"duration":108.0,"steps":[{"distance":136.954,"relativeDirection":"DEPART","streetName":"Rue Malraux","absoluteDirection":"NORTH","stayOn":false,"area":false,"bogusName":false,"lon":-71.09426357952785,"lat":48.399335497329346,"elevation":[]}]},{"startTime":1522692866000,"endTime":1522693880000,"departureDelay":0,"arrivalDelay":0,"realTime":false,"distance":6031.879374978265,"pathway":false,"mode":"BUS","route":"14","agencyName":"Société de Transport du Saguenay","agencyUrl":"http://ville.saguenay.ca/fr/services-aux-citoyens/transport-sts","agencyTimeZoneOffset":-14400000,"routeColor":"C0C000","routeType":3,"routeId":"1:14","routeTextColor":"000000","interlineWithPreviousLeg":false,"tripBlockId":"31","headsign":"Terminus Chicoutimi","agencyId":"0","tripId":"1:218137","serviceDate":"20180402","from":{"name":"Malraux / Pagnol","stopId":"1:441","stopCode":"441","lon":-71.09356,"lat":48.400447,"arrival":1522692865000,"departure":1522692866000,"zoneId":"NA","stopIndex":6,"stopSequence":7,"vertexType":"TRANSIT"},"to":{"name":"Résidence de l' UQAC","stopId":"1:1928","stopCode":"1928","lon":-71.052293,"lat":48.421532,"arrival":1522693880000,"departure":1522693881000,"zoneId":"NA","stopIndex":30,"stopSequence":31,"vertexType":"TRANSIT"},"legGeometry":{"points":"melfHbm|pLhCtCdDY|F_On@aB`B_GNoBvAyT|@sNuAyAuF}F}AaB_BkAC@qC\\gAWiBwBiKgMiCwEgEyHCGy@uB}@rAa@nAc@lFEf@mGvUYfAqCs@ICMCqFmDc@s@mAkBuEoESUgAhDiAfD}@zDyAcA_@Um@U{AWgB_Au@s@EEsBkCqFgF{IiI][aBhE}@}@oBmBwE{EwE{Ej@mBZeAa@SyEQg@CPcALuCx@{b@t@{[XoDd@sBl@iB~@gA`G{F{A{D_@sBFqDOq@iG{FGIoCkC","length":76},"routeShortName":"14","routeLongName":"Coopérative","rentedBike":false,"transitLeg":true,"duration":1014.0,"steps":[]},{"startTime":1522693881000,"endTime":1522695250000,"departureDelay":0,"arrivalDelay":0,"realTime":false,"distance":1763.4270000000001,"pathway":false,"mode":"WALK","route":"","agencyTimeZoneOffset":-14400000,"interlineWithPreviousLeg":false,"from":{"name":"Résidence de l' UQAC","stopId":"1:1928","stopCode":"1928","lon":-71.052293,"lat":48.421532,"arrival":1522693880000,"departure":1522693881000,"zoneId":"NA","stopIndex":30,"stopSequence":31,"vertexType":"TRANSIT"},"to":{"name":"Destination","lon":-71.035021,"lat":48.418436,"arrival":1522695250000,"orig":"","vertexType":"NORMAL"},"legGeometry":{"points":"uipfHdltpLAAUUMKUSc@_@SQWQoAmAc@a@[Wi@m@W_@YOKGe@[KIBg@Ha@Ry@r@E|@Yh@g@FE`A_A\\a@n@wAl@eBn@cBRk@nBoFnAgDFSNa@nAoDJ[L_@HYnAkDVu@t@uBhAmDzCiJ{@{@??{@{@c@e@MMGOe@cAg@gBPOHGR_@LSRo@H{@Co@GgBC_ABe@Dg@","length":62},"rentedBike":false,"transitLeg":false,"duration":1369.0,"steps":[{"distance":62.393,"relativeDirection":"DEPART","streetName":"Chemin Saint Thomas","absoluteDirection":"NORTHEAST","stayOn":false,"area":false,"bogusName":false,"lon":-71.05234990075473,"lat":48.421558735228686,"elevation":[]},{"distance":223.10899999999998,"relativeDirection":"CONTINUE","streetName":"road","absoluteDirection":"NORTHEAST","stayOn":false,"area":false,"bogusName":true,"lon":-71.051902,"lat":48.4220343,"elevation":[]},{"distance":52.897,"relativeDirection":"RIGHT","streetName":"path","absoluteDirection":"EAST","stayOn":true,"area":false,"bogusName":true,"lon":-71.0503491,"lat":48.423747000000006,"elevation":[]},{"distance":1029.27,"relativeDirection":"RIGHT","streetName":"Chemin Sydenham","absoluteDirection":"SOUTH","stayOn":false,"area":false,"bogusName":false,"lon":-71.0496871,"lat":48.42357620000001,"elevation":[]},{"distance":197.794,"relativeDirection":"LEFT","streetName":"Rue Chabanel","absoluteDirection":"NORTHEAST","stayOn":false,"area":false,"bogusName":false,"lon":-71.03911190000001,"lat":48.417869,"elevation":[]},{"distance":197.964,"relativeDirection":"RIGHT","streetName":"service road","absoluteDirection":"SOUTHEAST","stayOn":false,"area":false,"bogusName":true,"lon":-71.0373165,"lat":48.419144200000005,"elevation":[]}]}],"tooSloped":false}]},"debugOutput":{"precalculationTime":22,"pathCalculationTime":36,"pathTimes":[20,8,8],"renderingTime":0,"totalTime":58,"timedOut":false},"elevationMetadata":{"ellipsoidToGeoidDifference":-28.885904201182168,"geoidElevation":false}}