{"requestParameters":{"date":"2018/04/02","walkSpeed":"1.33","walkReluctance":"2.0","fromPlace":"48.402256,-71.061188","maxWalkDistance":"3000","waitReluctance":"1.0","carSpeed":"33","numItineraries":"3","waitAtBeginningFactor":"0.4","mode":"TRANSIT,WALK","ignoreRealtimeUpdates":"false","stairsReluctance":"2.0","toPlace":"48.414694,-71.054287","time":"14:40:00"},"plan":{"date":1522694400000,"from":{"name":"Origin","lon":-71.061188,"lat":48.402256,"orig":"","vertexType":"NORMAL"},"to":{"name":"Destination","lon":-71.054287,"lat":48.414694,"orig":"","vertexType":"NORMAL"},"itineraries":[{"duration":885,"startTime":1522694813000,"endTime":1522695698000,"walkTime":533,"transitTime":350,"waitingTime":2,"walkDistance":675.516714281335,"walkLimitExceeded":false,"elevationLost":0.0,"elevationGained":0.0,"transfers":0,"legs":[{"startTime":1522694813000,"endTime":1522695158000,"departureDelay":0,"arrivalDelay":0,"realTime":false,"distance":440.827,"pathway":false,"mode":"WALK","route":"","agencyTimeZoneOffset":-14400000,"interlineWithPreviousLeg":false,"from":{"name":"Origin","lon":-71.061188,"lat":48.402256,"departure":1522694813000,"orig":"","vertexType":"NORMAL"},"to":{"name":"boul. Talbot / Laurentides","stopId":"1:51","stopCode":"51","lon":-71.063914,"lat":48.398861,"arrival":1522695158000,"departure":1522695159000,"zoneId":"NA","stopIndex":9,"stopSequence":10,"vertexType":"TRANSIT"},"legGeometry":{"points":"aplfHdavpLBBjAhAvBtBbC`Cn@v@t@`AhCfDLNPc@V\\FH","length":12},"rentedBike":false,"transitLeg":false,"duration":345.0,"steps":[{"distance":440.827,"relativeDirection":"DEPART","streetName":"Boulevard Talbot","absoluteDirection":"SOUTHWEST","stayOn":false,"area":false,"bogusName":false,"lon":-71.06082411017789,"lat":48.40209902509987,"elevation":[]}]},{"startTime":1522695159000,"endTime":1522695509000,"departureDelay":0,"arrivalDelay":0,"realTime":false,"distance":2158.7459758685013,"pathway":false,"mode":"BUS","route":"175","agencyName":"Société de Transport du Saguenay","agencyUrl":"http://ville.saguenay.ca/fr/services-aux-citoyens/transport-sts","agencyTimeZoneOffset":-14400000,"routeColor":"FF00FF","routeType":3,"routeId":"1:175","routeTextColor":"FFFFFF","interlineWithPreviousLeg":false,"tripBlockId":"9","headsign":"Terminus Chicoutimi","agencyId":"0","tripId":"1:217408","serviceDate":"20180402","from":{"name":"boul. Talbot / Laurentides","stopId":"1:51","stopCode":"51","lon":-71.063914,"lat":48.398861,"arrival":1522695158000,"departure":1522695159000,"zoneId":"NA","stopIndex":9,"stopSequence":10,"vertexType":"TRANSIT"},"to":{"name":"Polyclinique du Saguenay (boul. Université)","stopId":"1:61","stopCode":"61","lon":-71.053728,"lat":48.415424,"arrival":1522695509000,"departure":1522695510000,"zoneId":"NA","stopIndex":13,"stopSequence":14,"vertexType":"TRANSIT"},"legGeometry":{"points":"q|kfHtuvpL}FkImPkOuO{N_U_TcNgNcBcB{E`Jc@x@qG~@{BlA","length":11},"routeShortName":"175","routeLongName":"Term. Chic / Costco","rentedBike":false,"transitLeg":true,"duration":350.0,"steps":[]},{"startTime":1522695510000,"endTime":1522695698000,"departureDelay":0,"arrivalDelay":0,"realTime":false,"distance":234.554,"pathway":false,"mode":"WALK","route":"","agencyTimeZoneOffset":-14400000,"interlineWithPreviousLeg":false,"from":{"name":"Polyclinique du Saguenay (boul. Université)","stopId":"1:61","stopCode":"61","lon":-71.053728,"lat":48.415424,"arrival":1522695509000,"departure":1522695510000,"zoneId":"NA","stopIndex":13,"stopSequence":14,"vertexType":"TRANSIT"},"to":{"name":"Destination","lon":-71.054287,"lat":48.414694,"arrival":1522695698000,"orig":"","vertexType":"NORMAL"},"legGeometry":{"points":"gcofHbutpLaBvAKHPh@FVVp@Rr@pAeAl@ETN","length":10},"rentedBike":false,"transitLeg":false,"duration":188.0,"steps":[{"distance":71.131,"relativeDirection":"DEPART","streetName":"Boulevard de l'Université","absoluteDirection":"NORTHWEST","stayOn":false,"area":false,"bogusName":false,"lon":-71.05377815383544,"lat":48.415404134793874,"elevation":[]},{"distance":72.972,"relativeDirection":"LEFT","streetName":"Rue Nobel","absoluteDirection":"SOUTHWEST","stayOn":false,"area":false,"bogusName":false,"lon":-71.0542688,"lat":48.4159547,"elevation":[]},{"distance":90.451,"relativeDirection":"LEFT","streetName":"Rue Thomas-Edison","absoluteDirection":"SOUTHEAST","stayOn":false,"area":false,"bogusName":false,"lon":-71.05510070000001,"lat":48.415600100000006,"elevation":[]}]}],"tooSloped":false},{"duration":1370,"startTime":1522694400000,"endTime":1522695770000,"walkTime":1370,"transitTime":0,"waitingTime":0,"walkDistance":1747.6452857025308,"walkLimitExceeded":false,"elevationLost":0.0,"elevationGained":0.0,"transfers":0,"legs":[{"startTime":1522694400000,"endTime":1522695770000,"departureDelay":0,"arrivalDelay":0,"realTime":false,"distance":1747.2809999999997,"pathway":false,"mode":"WALK","route":"","agencyTimeZoneOffset":-14400000,"interlineWithPreviousLeg":false,"from":{"name":"Origin","lon":-71.061188,"lat":48.402256,"departure":1522694400000,"orig":"","vertexType":"NORMAL"},"to":{"name":"Destination","lon":-71.054287,"lat":48.414694,"arrival":1522695770000,"orig":"","vertexType":"NORMAL"},"legGeometry":{"points":"aplfHdavpLcD_DWUQQkF_FuEkEuAmAKIqD}CaA_Aw@jC]UCAi@[gAe@u@a@]]O`@M\\e@`AmCbH{AuA{@@gETyAFGHcAuACHgBiCAUI?ICGe@}@}@GRuB_CGN{B{BcA_AKI","length":40},"rentedBike":false,"transitLeg":false,"duration":1370.0,"steps":[{"distance":653.7460000000001,"relativeDirection":"DEPART","streetName":"Boulevard Talbot","absoluteDirection":"NORTHEAST","stayOn":false,"area":false,"bogusName":false,"lon":-71.06082411017789,"lat":48.40209902509987,"elevation":[]},{"distance":200.471,"relativeDirection":"LEFT","streetName":"parking aisle","absoluteDirection":"NORTHWEST","stayOn":false,"area":false,"bogusName":true,"lon":-71.0561383,"lat":48.40708720000001,"elevation":[]},{"distance":194.993,"relativeDirection":"LEFT","streetName":"Rue des Champs-Élysées","absoluteDirection":"NORTHWEST","stayOn":false,"area":false,"bogusName":false,"lon":-71.0560683,"lat":48.4085206,"elevation":[]},{"distance":205.04399999999998,"relativeDirection":"RIGHT","streetName":"Rue Chopin","absoluteDirection":"NORTHEAST","stayOn":false,"area":false,"bogusName":false,"lon":-71.0581732,"lat":48.4095789,"elevation":[]},{"distance":193.648,"relativeDirection":"CONTINUE","streetName":"path","absoluteDirection":"NORTH","stayOn":false,"area":false,"bogusName":true,"lon":-71.0578622,"lat":48.411338,"elevation":[]},{"distance":68.05,"relativeDirection":"SLIGHTLY_LEFT","streetName":"Rue Marie-Curie","absoluteDirection":"NORTH","stayOn":false,"area":false,"bogusName":false,"lon":-71.05677630000001,"lat":48.412711,"elevation":[]},{"distance":8.317,"relativeDirection":"LEFT","streetName":"Rue Maria-Chapdelaine","absoluteDirection":"NORTHWEST","stayOn":false,"area":false,"bogusName":false,"lon":-71.0562598,"lat":48.4131647,"elevation":[]},{"distance":80.413,"relativeDirection":"RIGHT","streetName":"path","absoluteDirection":"NORTHEAST","stayOn":false,"area":false,"bogusName":true,"lon":-71.05635190000001,"lat":48.4132078,"elevation":[]},{"distance":6.974,"relativeDirection":"LEFT","streetName":"Rue Marguerite-Tellier","absoluteDirection":"NORTHWEST","stayOn":false,"area":false,"bogusName":false,"lon":-71.0557168,"lat":48.413795400000005,"elevation":[]},{"distance":135.625,"relativeDirection":"RIGHT","streetName":"Rue Thomas-Edison","absoluteDirection":"NORTHEAST","stayOn":false,"area":false,"bogusName":false,"lon":-71.05579440000001,"lat":48.413831200000004,"elevation":[]}]}],"tooSloped":false},{"duration":885,"startTime":1522696613000,"endTime":1522697498000,"walkTime":533,"transitTime":350,"waitingTime":2,"walkDistance":675.516714281335,"walkLimitExceeded":false,"elevationLost":0.0,"elevationGained":0.0,"transfers":0,"legs":[{"startTime":1522696613000,"endTime":1522696958000,"departureDelay":0,"arrivalDelay":0,"realTime":false,"distance":440.827,"pathway":false,"mode":"WALK","route":"","agencyTimeZoneOffset":-14400000,"interlineWithPreviousLeg":false,"from":{"name":"Origin","lon":-71.061188,"lat":48.402256,"departure":1522696613000,"orig":"","vertexType":"NORMAL"},"to":{"name":"boul. Talbot / Laurentides","stopId":"1:51","stopCode":"51","lon":-71.063914,"lat":48.398861,"arrival":1522696958000,"departure":1522696959000,"zoneId":"NA","stopIndex":9,"stopSequence":10,"vertexType":"TRANSIT"},"legGeometry":{"points":"aplfHdavpLBBjAhAvBtBbC`Cn@v@t@`AhCfDLNPc@V\\FH","length":12},"rentedBike":false,"transitLeg":false,"duration":345.0,"steps":[{"distance":440.827,"relativeDirection":"DEPART","streetName":"Boulevard Talbot","absoluteDirection":"SOUTHWEST","stayOn":false,"area":false,"bogusName":false,"lon":-71.06082411017789,"lat":48.40209902509987,"elevation":[]}]},{"startTime":1522696959000,"endTime":1522697309000,"departureDelay":0,"arrivalDelay":0,"realTime":false,"distance":2158.7459758685013,"pathway":false,"mode":"BUS","route":"175","agencyName":"Société de Transport du Saguenay","agencyUrl":"http://ville.saguenay.ca/fr/services-aux-citoyens/transport-sts","agencyTimeZoneOffset":-14400000,"routeColor":"FF00FF","routeType":3,"routeId":"1:175","routeTextColor":"FFFFFF","interlineWithPreviousLeg":false,"tripBlockId":"11","headsign":"Terminus Chicoutimi","agencyId":"0","tripId":"1:217479","serviceDate":"20180402","from":{"name":"boul. Talbot / Laurentides","stopId":"1:51","stopCode":"51","lon":-71.063914,"lat":48.398861,"arrival":1522696958000,"departure":1522696959000,"zoneId":"NA","stopIndex":9,"stopSequence":10,"vertexType":"TRANSIT"},"to":{"name":"Polyclinique du Saguenay (boul. Université)","stopId":"1:61","stopCode":"61","lon":-71.053728,"lat":48.415424,"arrival":1522697309000,"departure":1522697310000,"zoneId":"NA","stopIndex":13,"stopSequence":14,"vertexType":"TRANSIT"},"legGeometry":{"points":"q|kfHtuvpL}FkImPkOuO{N_U_TcNgNcBcB{E`Jc@x@qG~@{BlA","length":11},"routeShortName":"175","routeLongName":"Term. Chic / Costco","rentedBike":false,"transitLeg":true,"duration":350.0,"steps":[]},{"startTime":1522697310000,"endTime":1522697498000,"departureDelay":0,"arrivalDelay":0,"realTime":false,"distance":234.554,"pathway":false,"mode":"WALK","route":"","agencyTimeZoneOffset":-14400000,"interlineWithPreviousLeg":false,"from":{"name":"Polyclinique du Saguenay (boul. Université)","stopId":"1:61","stopCode":"61","lon":-71.053728,"lat":48.415424,"arrival":1522697309000,"departure":1522697310000,"zoneId":"NA","stopIndex":13,"stopSequence":14,"vertexType":"TRANSIT"},"to":{"name":"Destination","lon":-71.054287,"lat":48.414694,"arrival":1522697498000,"orig":"","vertexType":"NORMAL"},"legGeometry":{"points":"gcofHbutpLaBvAKHPh@FVVp@Rr@pAeAl@ETN","length":10},"rentedBike":false,"transitLeg":false,"duration":188.0,"steps":[{"distance":71.131,"relativeDirection":"DEPART","streetName":"Boulevard de l'Université","absoluteDirection":"NORTHWEST","stayOn":false,"area":false,"bogusName":false,"lon":-71.05377815383544,"lat":48.415404134793874,"elevation":[]},{"distance":72.972,"relativeDirection":"LEFT","streetName":"Rue Nobel","absoluteDirection":"SOUTHWEST","stayOn":false,"area":false,"bogusName":false,"lon":-71.0542688,"lat":48.4159547,"elevation":[]},{"distance":90.451,"relativeDirection":"LEFT","streetName":"Rue Thomas-Edison","absoluteDirection":"SOUTHEAST","stayOn":false,"area":false,"bogusName":false,"lon":-71.05510070000001,"lat":48.415600100000006,"elevation":[]}]}],"tooSloped":false}]},"debugOutput":{"precalculationTime":72,"pathCalculationTime":44,"pathTimes":[25,10,9],"renderingTime":1,"totalTime":117,"timedOut":false},"elevationMetadata":{"ellipsoidToGeoidDifference":-28.885904201182168,"geoidElevation":false}}