{"requestParameters":{"date":"2018/04/02","walkSpeed":"1.33","walkReluctance":"2.0","fromPlace":"48.407239,-71.046429","maxWalkDistance":"3000","waitReluctance":"1.0","carSpeed":"33","numItineraries":"3","waitAtBeginningFactor":"0.4","mode":"TRANSIT,WALK","ignoreRealtimeUpdates":"false","stairsReluctance":"2.0","toPlace":"48.412522,-71.05130499","time":"13:30:00"},"plan":{"date":1522690200000,"from":{"name":"Origin","lon":-71.046429,"lat":48.407239,"orig":"","vertexType":"NORMAL"},"to":{"name":"Destination","lon":-71.05130499,"lat":48.412522,"orig":"","vertexType":"NORMAL"},"itineraries":[{"duration":672,"startTime":1522690200000,"endTime":1522690872000,"walkTime":672,"transitTime":0,"waitingTime":0,"walkDistance":850.1620225496464,"walkLimitExceeded":false,"elevationLost":0.0,"elevationGained":0.0,"transfers":0,"legs":[{"startTime":1522690200000,"endTime":1522690872000,"departureDelay":0,"arrivalDelay":0,"realTime":false,"distance":849.9530000000001,"pathway":false,"mode":"WALK","route":"","agencyTimeZoneOffset":-14400000,"interlineWithPreviousLeg":false,"from":{"name":"Origin","lon":-71.046429,"lat":48.407239,"departure":1522690200000,"orig":"","vertexType":"NORMAL"},"to":{"name":"Destination","lon":-71.05130499,"lat":48.412522,"arrival":1522690872000,"orig":"","vertexType":"NORMAL"},"legGeometry":{"points":"uomfHvgspLeAzCoA~CsDmBu@dEqAq@GCk@Y_Bw@KEe@JYLa@n@G^yBdHWQ[|@oAhDELOb@_@`A","length":21},"rentedBike":false,"transitLeg":false,"duration":672.0,"steps":[{"distance":143.429,"relativeDirection":"DEPART","streetName":"Rue Adélard-Plourde","absoluteDirection":"NORTHWEST","stayOn":false,"area":false,"bogusName":false,"lon":-71.04651397185745,"lat":48.40715571036573,"elevation":[]},{"distance":107.983,"relativeDirection":"RIGHT","streetName":"Rue Joseph-Dandurand","absoluteDirection":"NORTH","stayOn":false,"area":false,"bogusName":false,"lon":-71.0480905,"lat":48.4079089,"elevation":[]},{"distance":78.536,"relativeDirection":"LEFT","streetName":"Rue Gaudiose-Brassard","absoluteDirection":"WEST","stayOn":false,"area":false,"bogusName":false,"lon":-71.0475432,"lat":48.408809500000004,"elevation":[]},{"distance":144.314,"relativeDirection":"RIGHT","streetName":"Rue Des Roitelets","absoluteDirection":"NORTH","stayOn":false,"area":false,"bogusName":false,"lon":-71.0485302,"lat":48.4090733,"elevation":[]},{"distance":62.949,"relativeDirection":"SLIGHTLY_LEFT","streetName":"link","absoluteDirection":"NORTH","stayOn":false,"area":false,"bogusName":true,"lon":-71.0478246,"lat":48.4102837,"elevation":[]},{"distance":312.74199999999996,"relativeDirection":"SLIGHTLY_LEFT","streetName":"Boulevard de l'Université","absoluteDirection":"NORTHWEST","stayOn":false,"area":false,"bogusName":false,"lon":-71.04819570000001,"lat":48.410774100000005,"elevation":[]}]}],"tooSloped":false}]},"debugOutput":{"precalculationTime":51,"pathCalculationTime":24,"pathTimes":[6,13,5],"renderingTime":0,"totalTime":75,"timedOut":false},"elevationMetadata":{"ellipsoidToGeoidDifference":-28.885904201182168,"geoidElevation":false}}