{"requestParameters":{"date":"2018/04/02","walkSpeed":"1.33","walkReluctance":"2.0","fromPlace":"48.398469,-71.088307","maxWalkDistance":"3000","waitReluctance":"1.0","carSpeed":"33","numItineraries":"3","waitAtBeginningFactor":"0.4","mode":"TRANSIT,WALK","ignoreRealtimeUpdates":"false","stairsReluctance":"2.0","toPlace":"48.399217,-71.11759899","time":"7:45:00"},"plan":{"date":1522669500000,"from":{"name":"Origin","lon":-71.088307,"lat":48.398469,"orig":"","vertexType":"NORMAL"},"to":{"name":"Destination","lon":-71.11759899,"lat":48.399217,"orig":"","vertexType":"NORMAL"},"itineraries":[{"duration":1450,"startTime":1522671150000,"endTime":1522672600000,"walkTime":1173,"transitTime":275,"waitingTime":2,"walkDistance":1513.8998045057347,"walkLimitExceeded":false,"elevationLost":0.0,"elevationGained":0.0,"transfers":0,"legs":[{"startTime":1522671150000,"endTime":1522672082000,"departureDelay":0,"arrivalDelay":0,"realTime":false,"distance":1203.013,"pathway":false,"mode":"WALK","route":"","agencyTimeZoneOffset":-14400000,"interlineWithPreviousLeg":false,"from":{"name":"Origin","lon":-71.088307,"lat":48.398469,"departure":1522671150000,"orig":"","vertexType":"NORMAL"},"to":{"name":"boul. Barrette / Estacade","stopId":"1:465","stopCode":"465","lon":-71.098983,"lat":48.40478,"arrival":1522672082000,"departure":1522672083000,"zoneId":"NA","stopIndex":15,"stopSequence":16,"vertexType":"TRANSIT"},"legGeometry":{"points":"gxkfHvm{pLS~@S^q@vAc@jAeEeCQBMXi@jCiAu@CJy@xDwAtGi@Xa@jAA?{EvMy@tBGPsCrH@b@kBtEg@bBM\\","length":24},"rentedBike":false,"transitLeg":false,"duration":932.0,"steps":[{"distance":119.542,"relativeDirection":"DEPART","streetName":"Rue Malherbe","absoluteDirection":"NORTHWEST","stayOn":false,"area":false,"bogusName":false,"lon":-71.08843621807283,"lat":48.398284753220906,"elevation":[]},{"distance":130.474,"relativeDirection":"RIGHT","streetName":"Rue Colette","absoluteDirection":"NORTHEAST","stayOn":false,"area":false,"bogusName":false,"lon":-71.0897341,"lat":48.3989151,"elevation":[]},{"distance":69.466,"relativeDirection":"LEFT","streetName":"Rue Balzac","absoluteDirection":"NORTHWEST","stayOn":false,"area":false,"bogusName":false,"lon":-71.0890818,"lat":48.3999922,"elevation":[]},{"distance":45.643,"relativeDirection":"RIGHT","streetName":"path","absoluteDirection":"NORTHEAST","stayOn":false,"area":false,"bogusName":true,"lon":-71.0899188,"lat":48.400272900000004,"elevation":[]},{"distance":219.983,"relativeDirection":"LEFT","streetName":"bike path","absoluteDirection":"NORTHWEST","stayOn":true,"area":false,"bogusName":true,"lon":-71.0896446,"lat":48.400640800000005,"elevation":[]},{"distance":449.30899999999997,"relativeDirection":"SLIGHTLY_LEFT","streetName":"Boulevard Barrette","absoluteDirection":"NORTHWEST","stayOn":false,"area":false,"bogusName":false,"lon":-71.0921587,"lat":48.401604500000005,"elevation":[]},{"distance":168.596,"relativeDirection":"SLIGHTLY_LEFT","streetName":"bike path","absoluteDirection":"WEST","stayOn":false,"area":false,"bogusName":true,"lon":-71.0971116,"lat":48.4039529,"elevation":[]}]},{"startTime":1522672083000,"endTime":1522672358000,"departureDelay":0,"arrivalDelay":0,"realTime":false,"distance":2218.178451020747,"pathway":false,"mode":"BUS","route":"11","agencyName":"Société de Transport du Saguenay","agencyUrl":"http://ville.saguenay.ca/fr/services-aux-citoyens/transport-sts","agencyTimeZoneOffset":-14400000,"routeColor":"FF0000","routeType":3,"routeId":"1:11","routeTextColor":"FFFFFF","interlineWithPreviousLeg":false,"tripBlockId":"37","headsign":"Boul.Royaume/St-Pierre","agencyId":"0","tripId":"1:218306","serviceDate":"20180402","from":{"name":"boul. Barrette / Estacade","stopId":"1:465","stopCode":"465","lon":-71.098983,"lat":48.40478,"arrival":1522672082000,"departure":1522672083000,"zoneId":"NA","stopIndex":15,"stopSequence":16,"vertexType":"TRANSIT"},"to":{"name":"Manic / Outardes","stopId":"1:474","stopCode":"474","lon":-71.113129,"lat":48.39895,"arrival":1522672358000,"departure":1522672359000,"zoneId":"NA","stopIndex":21,"stopSequence":22,"vertexType":"TRANSIT"},"legGeometry":{"points":"i`mfHdp}pL|CyI~IrJtAzAmKrWsE`LzJjL|P}d@Ri@hCpEpBdCHJzPrR_AhC}Ppd@","length":15},"routeShortName":"11","routeLongName":"Chic/Faubourg via St-Paul","rentedBike":false,"transitLeg":true,"duration":275.0,"steps":[]},{"startTime":1522672359000,"endTime":1522672600000,"departureDelay":0,"arrivalDelay":0,"realTime":false,"distance":310.71500000000003,"pathway":false,"mode":"WALK","route":"","agencyTimeZoneOffset":-14400000,"interlineWithPreviousLeg":false,"from":{"name":"Manic / Outardes","stopId":"1:474","stopCode":"474","lon":-71.113129,"lat":48.39895,"arrival":1522672358000,"departure":1522672359000,"zoneId":"NA","stopIndex":21,"stopSequence":22,"vertexType":"TRANSIT"},"to":{"name":"Destination","lon":-71.11759899,"lat":48.399217,"arrival":1522672600000,"orig":"","vertexType":"NORMAL"},"legGeometry":{"points":"u|kfHth`qLJNqCtHkAjEa@zA[tA","length":6},"rentedBike":false,"transitLeg":false,"duration":241.0,"steps":[{"distance":9.505,"relativeDirection":"DEPART","streetName":"Rue de la Manouane","absoluteDirection":"SOUTHWEST","stayOn":false,"area":false,"bogusName":false,"lon":-71.11322643182017,"lat":48.398999027375844,"elevation":[]},{"distance":301.21000000000004,"relativeDirection":"RIGHT","streetName":"Rue de la Manic","absoluteDirection":"NORTHWEST","stayOn":false,"area":false,"bogusName":false,"lon":-71.1133042,"lat":48.3989309,"elevation":[]}]}],"tooSloped":false},{"duration":1450,"startTime":1522672950000,"endTime":1522674400000,"walkTime":1173,"transitTime":275,"waitingTime":2,"walkDistance":1513.8998045057347,"walkLimitExceeded":false,"elevationLost":0.0,"elevationGained":0.0,"transfers":0,"legs":[{"startTime":1522672950000,"endTime":1522673882000,"departureDelay":0,"arrivalDelay":0,"realTime":false,"distance":1203.013,"pathway":false,"mode":"WALK","route":"","agencyTimeZoneOffset":-14400000,"interlineWithPreviousLeg":false,"from":{"name":"Origin","lon":-71.088307,"lat":48.398469,"departure":1522672950000,"orig":"","vertexType":"NORMAL"},"to":{"name":"boul. Barrette / Estacade","stopId":"1:465","stopCode":"465","lon":-71.098983,"lat":48.40478,"arrival":1522673882000,"departure":1522673883000,"zoneId":"NA","stopIndex":15,"stopSequence":16,"vertexType":"TRANSIT"},"legGeometry":{"points":"gxkfHvm{pLS~@S^q@vAc@jAeEeCQBMXi@jCiAu@CJy@xDwAtGi@Xa@jAA?{EvMy@tBGPsCrH@b@kBtEg@bBM\\","length":24},"rentedBike":false,"transitLeg":false,"duration":932.0,"steps":[{"distance":119.542,"relativeDirection":"DEPART","streetName":"Rue Malherbe","absoluteDirection":"NORTHWEST","stayOn":false,"area":false,"bogusName":false,"lon":-71.08843621807283,"lat":48.398284753220906,"elevation":[]},{"distance":130.474,"relativeDirection":"RIGHT","streetName":"Rue Colette","absoluteDirection":"NORTHEAST","stayOn":false,"area":false,"bogusName":false,"lon":-71.0897341,"lat":48.3989151,"elevation":[]},{"distance":69.466,"relativeDirection":"LEFT","streetName":"Rue Balzac","absoluteDirection":"NORTHWEST","stayOn":false,"area":false,"bogusName":false,"lon":-71.0890818,"lat":48.3999922,"elevation":[]},{"distance":45.643,"relativeDirection":"RIGHT","streetName":"path","absoluteDirection":"NORTHEAST","stayOn":false,"area":false,"bogusName":true,"lon":-71.0899188,"lat":48.400272900000004,"elevation":[]},{"distance":219.983,"relativeDirection":"LEFT","streetName":"bike path","absoluteDirection":"NORTHWEST","stayOn":true,"area":false,"bogusName":true,"lon":-71.0896446,"lat":48.400640800000005,"elevation":[]},{"distance":449.30899999999997,"relativeDirection":"SLIGHTLY_LEFT","streetName":"Boulevard Barrette","absoluteDirection":"NORTHWEST","stayOn":false,"area":false,"bogusName":false,"lon":-71.0921587,"lat":48.401604500000005,"elevation":[]},{"distance":168.596,"relativeDirection":"SLIGHTLY_LEFT","streetName":"bike path","absoluteDirection":"WEST","stayOn":false,"area":false,"bogusName":true,"lon":-71.0971116,"lat":48.4039529,"elevation":[]}]},{"startTime":1522673883000,"endTime":1522674158000,"departureDelay":0,"arrivalDelay":0,"realTime":false,"distance":2218.178451020747,"pathway":false,"mode":"BUS","route":"11","agencyName":"Société de Transport du Saguenay","agencyUrl":"http://ville.saguenay.ca/fr/services-aux-citoyens/transport-sts","agencyTimeZoneOffset":-14400000,"routeColor":"FF0000","routeType":3,"routeId":"1:11","routeTextColor":"FFFFFF","interlineWithPreviousLeg":false,"tripBlockId":"34","headsign":"Boul.Royaume/St-Pierre","agencyId":"0","tripId":"1:218211","serviceDate":"20180402","from":{"name":"boul. Barrette / Estacade","stopId":"1:465","stopCode":"465","lon":-71.098983,"lat":48.40478,"arrival":1522673882000,"departure":1522673883000,"zoneId":"NA","stopIndex":15,"stopSequence":16,"vertexType":"TRANSIT"},"to":{"name":"Manic / Outardes","stopId":"1:474","stopCode":"474","lon":-71.113129,"lat":48.39895,"arrival":1522674158000,"departure":1522674159000,"zoneId":"NA","stopIndex":21,"stopSequence":22,"vertexType":"TRANSIT"},"legGeometry":{"points":"i`mfHdp}pL|CyI~IrJtAzAmKrWsE`LzJjL|P}d@Ri@hCpEpBdCHJzPrR_AhC}Ppd@","length":15},"routeShortName":"11","routeLongName":"Chic/Faubourg via St-Paul","rentedBike":false,"transitLeg":true,"duration":275.0,"steps":[]},{"startTime":1522674159000,"endTime":1522674400000,"departureDelay":0,"arrivalDelay":0,"realTime":false,"distance":310.71500000000003,"pathway":false,"mode":"WALK","route":"","agencyTimeZoneOffset":-14400000,"interlineWithPreviousLeg":false,"from":{"name":"Manic / Outardes","stopId":"1:474","stopCode":"474","lon":-71.113129,"lat":48.39895,"arrival":1522674158000,"departure":1522674159000,"zoneId":"NA","stopIndex":21,"stopSequence":22,"vertexType":"TRANSIT"},"to":{"name":"Destination","lon":-71.11759899,"lat":48.399217,"arrival":1522674400000,"orig":"","vertexType":"NORMAL"},"legGeometry":{"points":"u|kfHth`qLJNqCtHkAjEa@zA[tA","length":6},"rentedBike":false,"transitLeg":false,"duration":241.0,"steps":[{"distance":9.505,"relativeDirection":"DEPART","streetName":"Rue de la Manouane","absoluteDirection":"SOUTHWEST","stayOn":false,"area":false,"bogusName":false,"lon":-71.11322643182017,"lat":48.398999027375844,"elevation":[]},{"distance":301.21000000000004,"relativeDirection":"RIGHT","streetName":"Rue de la Manic","absoluteDirection":"NORTHWEST","stayOn":false,"area":false,"bogusName":false,"lon":-71.1133042,"lat":48.3989309,"elevation":[]}]}],"tooSloped":false},{"duration":1450,"startTime":1522674750000,"endTime":1522676200000,"walkTime":1173,"transitTime":275,"waitingTime":2,"walkDistance":1513.8998045057347,"walkLimitExceeded":false,"elevationLost":0.0,"elevationGained":0.0,"transfers":0,"legs":[{"startTime":1522674750000,"endTime":1522675682000,"departureDelay":0,"arrivalDelay":0,"realTime":false,"distance":1203.013,"pathway":false,"mode":"WALK","route":"","agencyTimeZoneOffset":-14400000,"interlineWithPreviousLeg":false,"from":{"name":"Origin","lon":-71.088307,"lat":48.398469,"departure":1522674750000,"orig":"","vertexType":"NORMAL"},"to":{"name":"boul. Barrette / Estacade","stopId":"1:465","stopCode":"465","lon":-71.098983,"lat":48.40478,"arrival":1522675682000,"departure":1522675683000,"zoneId":"NA","stopIndex":15,"stopSequence":16,"vertexType":"TRANSIT"},"legGeometry":{"points":"gxkfHvm{pLS~@S^q@vAc@jAeEeCQBMXi@jCiAu@CJy@xDwAtGi@Xa@jAA?{EvMy@tBGPsCrH@b@kBtEg@bBM\\","length":24},"rentedBike":false,"transitLeg":false,"duration":932.0,"steps":[{"distance":119.542,"relativeDirection":"DEPART","streetName":"Rue Malherbe","absoluteDirection":"NORTHWEST","stayOn":false,"area":false,"bogusName":false,"lon":-71.08843621807283,"lat":48.398284753220906,"elevation":[]},{"distance":130.474,"relativeDirection":"RIGHT","streetName":"Rue Colette","absoluteDirection":"NORTHEAST","stayOn":false,"area":false,"bogusName":false,"lon":-71.0897341,"lat":48.3989151,"elevation":[]},{"distance":69.466,"relativeDirection":"LEFT","streetName":"Rue Balzac","absoluteDirection":"NORTHWEST","stayOn":false,"area":false,"bogusName":false,"lon":-71.0890818,"lat":48.3999922,"elevation":[]},{"distance":45.643,"relativeDirection":"RIGHT","streetName":"path","absoluteDirection":"NORTHEAST","stayOn":false,"area":false,"bogusName":true,"lon":-71.0899188,"lat":48.400272900000004,"elevation":[]},{"distance":219.983,"relativeDirection":"LEFT","streetName":"bike path","absoluteDirection":"NORTHWEST","stayOn":true,"area":false,"bogusName":true,"lon":-71.0896446,"lat":48.400640800000005,"elevation":[]},{"distance":449.30899999999997,"relativeDirection":"SLIGHTLY_LEFT","streetName":"Boulevard Barrette","absoluteDirection":"NORTHWEST","stayOn":false,"area":false,"bogusName":false,"lon":-71.0921587,"lat":48.401604500000005,"elevation":[]},{"distance":168.596,"relativeDirection":"SLIGHTLY_LEFT","streetName":"bike path","absoluteDirection":"WEST","stayOn":false,"area":false,"bogusName":true,"lon":-71.0971116,"lat":48.4039529,"elevation":[]}]},{"startTime":1522675683000,"endTime":1522675958000,"departureDelay":0,"arrivalDelay":0,"realTime":false,"distance":2218.178451020747,"pathway":false,"mode":"BUS","route":"11","agencyName":"Société de Transport du Saguenay","agencyUrl":"http://ville.saguenay.ca/fr/services-aux-citoyens/transport-sts","agencyTimeZoneOffset":-14400000,"routeColor":"FF0000","routeType":3,"routeId":"1:11","routeTextColor":"FFFFFF","interlineWithPreviousLeg":false,"tripBlockId":"36","headsign":"Boul.Royaume/St-Pierre","agencyId":"0","tripId":"1:218282","serviceDate":"20180402","from":{"name":"boul. Barrette / Estacade","stopId":"1:465","stopCode":"465","lon":-71.098983,"lat":48.40478,"arrival":1522675682000,"departure":1522675683000,"zoneId":"NA","stopIndex":15,"stopSequence":16,"vertexType":"TRANSIT"},"to":{"name":"Manic / Outardes","stopId":"1:474","stopCode":"474","lon":-71.113129,"lat":48.39895,"arrival":1522675958000,"departure":1522675959000,"zoneId":"NA","stopIndex":21,"stopSequence":22,"vertexType":"TRANSIT"},"legGeometry":{"points":"i`mfHdp}pL|CyI~IrJtAzAmKrWsE`LzJjL|P}d@Ri@hCpEpBdCHJzPrR_AhC}Ppd@","length":15},"routeShortName":"11","routeLongName":"Chic/Faubourg via St-Paul","rentedBike":false,"transitLeg":true,"duration":275.0,"steps":[]},{"startTime":1522675959000,"endTime":1522676200000,"departureDelay":0,"arrivalDelay":0,"realTime":false,"distance":310.71500000000003,"pathway":false,"mode":"WALK","route":"","agencyTimeZoneOffset":-14400000,"interlineWithPreviousLeg":false,"from":{"name":"Manic / Outardes","stopId":"1:474","stopCode":"474","lon":-71.113129,"lat":48.39895,"arrival":1522675958000,"departure":1522675959000,"zoneId":"NA","stopIndex":21,"stopSequence":22,"vertexType":"TRANSIT"},"to":{"name":"Destination","lon":-71.11759899,"lat":48.399217,"arrival":1522676200000,"orig":"","vertexType":"NORMAL"},"legGeometry":{"points":"u|kfHth`qLJNqCtHkAjEa@zA[tA","length":6},"rentedBike":false,"transitLeg":false,"duration":241.0,"steps":[{"distance":9.505,"relativeDirection":"DEPART","streetName":"Rue de la Manouane","absoluteDirection":"SOUTHWEST","stayOn":false,"area":false,"bogusName":false,"lon":-71.11322643182017,"lat":48.398999027375844,"elevation":[]},{"distance":301.21000000000004,"relativeDirection":"RIGHT","streetName":"Rue de la Manic","absoluteDirection":"NORTHWEST","stayOn":false,"area":false,"bogusName":false,"lon":-71.1133042,"lat":48.3989309,"elevation":[]}]}],"tooSloped":false}]},"debugOutput":{"precalculationTime":15,"pathCalculationTime":45,"pathTimes":[20,12,13],"renderingTime":1,"totalTime":61,"timedOut":false},"elevationMetadata":{"ellipsoidToGeoidDifference":-28.885904201182168,"geoidElevation":false}}