{"requestParameters":{"date":"2018/04/02","walkSpeed":"1.33","walkReluctance":"2.0","fromPlace":"48.399039,-71.087624","maxWalkDistance":"3000","waitReluctance":"1.0","carSpeed":"33","numItineraries":"3","waitAtBeginningFactor":"0.4","mode":"TRANSIT,WALK","ignoreRealtimeUpdates":"false","stairsReluctance":"2.0","toPlace":"48.439349,-71.05737999","time":"15:35:00"},"plan":{"date":1522697700000,"from":{"name":"Origin","lon":-71.087624,"lat":48.399039,"orig":"","vertexType":"NORMAL"},"to":{"name":"Destination","lon":-71.05737999,"lat":48.439349,"orig":"","vertexType":"NORMAL"},"itineraries":[{"duration":2506,"startTime":1522697955000,"endTime":1522700461000,"walkTime":281,"transitTime":1803,"waitingTime":422,"walkDistance":348.29384210084766,"walkLimitExceeded":false,"elevationLost":0.0,"elevationGained":0.0,"transfers":1,"legs":[{"startTime":1522697955000,"endTime":1522698212000,"departureDelay":0,"arrivalDelay":0,"realTime":false,"distance":316.72900000000004,"pathway":false,"mode":"WALK","route":"","agencyTimeZoneOffset":-14400000,"interlineWithPreviousLeg":false,"from":{"name":"Origin","lon":-71.087624,"lat":48.399039,"departure":1522697955000,"orig":"","vertexType":"NORMAL"},"to":{"name":"boul. Barrette passerelle J.Paul Sartre","stopId":"1:1898","stopCode":"1898","lon":-71.084773,"lat":48.399467,"arrival":1522698212000,"departure":1522698213000,"zoneId":"NA","stopIndex":4,"stopSequence":5,"vertexType":"TRANSIT"},"legGeometry":{"points":"}{kfHli{pLtB{Je@]e@]w@WDQiAs@MOSSDQ","length":10},"rentedBike":false,"transitLeg":false,"duration":257.0,"steps":[{"distance":153.935,"relativeDirection":"DEPART","streetName":"Rue Montaigne","absoluteDirection":"SOUTHEAST","stayOn":false,"area":false,"bogusName":false,"lon":-71.08774142602172,"lat":48.398870704326406,"elevation":[]},{"distance":155.08499999999998,"relativeDirection":"LEFT","streetName":"path","absoluteDirection":"NORTHEAST","stayOn":false,"area":false,"bogusName":true,"lon":-71.08584950000001,"lat":48.3982888,"elevation":[]},{"distance":7.709,"relativeDirection":"RIGHT","streetName":"Boulevard Barrette","absoluteDirection":"SOUTHEAST","stayOn":false,"area":false,"bogusName":false,"lon":-71.0848982,"lat":48.3994511,"elevation":[]}]},{"startTime":1522698213000,"endTime":1522699680000,"departureDelay":0,"arrivalDelay":0,"realTime":false,"distance":8304.328911157947,"pathway":false,"mode":"BUS","route":"14","agencyName":"Société de Transport du Saguenay","agencyUrl":"http://ville.saguenay.ca/fr/services-aux-citoyens/transport-sts","agencyTimeZoneOffset":-14400000,"routeColor":"C0C000","routeType":3,"routeId":"1:14","routeTextColor":"000000","interlineWithPreviousLeg":false,"tripBlockId":"33","headsign":"Terminus Chicoutimi","agencyId":"0","tripId":"1:218190","serviceDate":"20180402","from":{"name":"boul. Barrette passerelle J.Paul Sartre","stopId":"1:1898","stopCode":"1898","lon":-71.084773,"lat":48.399467,"arrival":1522698212000,"departure":1522698213000,"zoneId":"NA","stopIndex":4,"stopSequence":5,"vertexType":"TRANSIT"},"to":{"name":"Terminus Chicoutimi","stopId":"1:1289","stopCode":"1289","lon":-71.066163,"lat":48.428677,"arrival":1522699680000,"departure":1522700100000,"zoneId":"NA","stopIndex":37,"stopSequence":38,"vertexType":"TRANSIT"},"legGeometry":{"points":"y~kfHlwzpLwGd\\aDxOdFtFhCtCdDY|F_On@aB`B_GNoBvAyT|@sNuAyAuF}F}AaB_BkAC@qC\\gAWiBwBiKgMiCwEgEyHCGy@uB}@rAa@nAc@lFEf@mGvUYfAqCs@ICMCqFmDc@s@mAkBuEoESUgAhDiAfD}@zDyAcA_@Um@U{AWgB_Au@s@EEsBkCqFgF{IiI][aBhE}@}@oBmBwE{EwE{Ej@mBZeAa@SyEQg@CPcALuCx@{b@t@{[XoDd@sBl@iB~@gA`G{F{A{D_@sBFqDOq@iG{FGIoCkCgBgBsDpLHzBBT`@~COnBQf@gAjAg@bBuDmDmFgFa@_@w@s@CfAOrBEtAGbA?jBQtC?|@ExKMdIG~EUnLEhC}CKkBOkCOYbC","length":108},"routeShortName":"14","routeLongName":"Coopérative","rentedBike":false,"transitLeg":true,"duration":1467.0,"steps":[]},{"startTime":1522700100000,"endTime":1522700436000,"departureDelay":0,"arrivalDelay":0,"realTime":false,"distance":1655.7582002786908,"pathway":false,"mode":"BUS","route":"24","agencyName":"Société de Transport du Saguenay","agencyUrl":"http://ville.saguenay.ca/fr/services-aux-citoyens/transport-sts","agencyTimeZoneOffset":-14400000,"routeColor":"00FF00","routeType":3,"routeId":"1:24","routeTextColor":"000000","interlineWithPreviousLeg":false,"tripBlockId":"5","headsign":"Terminus Chicoutimi","agencyId":"0","tripId":"1:217269","serviceDate":"20180402","from":{"name":"Terminus Chicoutimi","stopId":"1:1289","stopCode":"1289","lon":-71.066163,"lat":48.428677,"arrival":1522699680000,"departure":1522700100000,"zoneId":"NA","stopIndex":0,"stopSequence":1,"vertexType":"TRANSIT"},"to":{"name":"École le Roseau (Bienville)","stopId":"1:806","stopCode":"806","lon":-71.057164,"lat":48.439798,"arrival":1522700436000,"departure":1522700437000,"zoneId":"NA","stopIndex":4,"stopSequence":5,"vertexType":"TRANSIT"},"legGeometry":{"points":"evqfHzcwpLg@?EhBO~GoBKCp@O\\WjGOfGCRK^KJMHQB_AMg@Gm\\wO]i@wAyA_@WUKMEwEm@Js@Da@??@@??@?@???@???@?@??A@???@A@??A@??A@A??@A?A??@A?A?A?A@A?A???A?A?A???A?A?A?A???A?AAA?A???AAA?A??AA?AA??AA??A??AA??A??AA?A???A????q@C{AAaB?mAEcAGs@OoAa@sB[kAYcASq@Ok@Qq@Ku@MoBKmAa@eHi@FKC_@I??iE}Ah@}DH}@?c@Ea@[_B","length":116},"routeShortName":"24","routeLongName":"Saint-Luc","rentedBike":false,"transitLeg":true,"duration":336.0,"steps":[]},{"startTime":1522700437000,"endTime":1522700461000,"departureDelay":0,"arrivalDelay":0,"realTime":false,"distance":31.428,"pathway":false,"mode":"WALK","route":"","agencyTimeZoneOffset":-14400000,"interlineWithPreviousLeg":false,"from":{"name":"École le Roseau (Bienville)","stopId":"1:806","stopCode":"806","lon":-71.057164,"lat":48.439798,"arrival":1522700436000,"departure":1522700437000,"zoneId":"NA","stopIndex":4,"stopSequence":5,"vertexType":"TRANSIT"},"to":{"name":"Destination","lon":-71.05737999,"lat":48.439349,"arrival":1522700461000,"orig":"","vertexType":"NORMAL"},"legGeometry":{"points":"g|sfHxjupLHTJn@@F","length":4},"rentedBike":false,"transitLeg":false,"duration":24.0,"steps":[{"distance":31.428,"relativeDirection":"DEPART","streetName":"Rue De Bienville","absoluteDirection":"SOUTHWEST","stayOn":false,"area":false,"bogusName":false,"lon":-71.05724442131621,"lat":48.439881180077734,"elevation":[]}]}],"tooSloped":false},{"duration":3506,"startTime":1522697732000,"endTime":1522701238000,"walkTime":514,"transitTime":2570,"waitingTime":422,"walkDistance":639.5766766846087,"walkLimitExceeded":false,"elevationLost":0.0,"elevationGained":0.0,"transfers":1,"legs":[{"startTime":1522697732000,"endTime":1522697969000,"departureDelay":0,"arrivalDelay":0,"realTime":false,"distance":291.462,"pathway":false,"mode":"WALK","route":"","agencyTimeZoneOffset":-14400000,"interlineWithPreviousLeg":false,"from":{"name":"Origin","lon":-71.087624,"lat":48.399039,"departure":1522697732000,"orig":"","vertexType":"NORMAL"},"to":{"name":"boul. Barrette / passerelle rue Marcel-Portal","stopId":"1:90","stopCode":"90","lon":-71.085149,"lat":48.399287,"arrival":1522697969000,"departure":1522697970000,"zoneId":"NA","stopIndex":31,"stopSequence":32,"vertexType":"TRANSIT"},"legGeometry":{"points":"}{kfHli{pLtB{Je@]e@]w@WDQiAs@CJ","length":8},"rentedBike":false,"transitLeg":false,"duration":237.0,"steps":[{"distance":153.935,"relativeDirection":"DEPART","streetName":"Rue Montaigne","absoluteDirection":"SOUTHEAST","stayOn":false,"area":false,"bogusName":false,"lon":-71.08774142602172,"lat":48.398870704326406,"elevation":[]},{"distance":132.589,"relativeDirection":"LEFT","streetName":"path","absoluteDirection":"NORTHEAST","stayOn":false,"area":false,"bogusName":true,"lon":-71.08584950000001,"lat":48.3982888,"elevation":[]},{"distance":4.938,"relativeDirection":"LEFT","streetName":"bike path","absoluteDirection":"NORTHWEST","stayOn":true,"area":false,"bogusName":true,"lon":-71.08507540000001,"lat":48.3992865,"elevation":[]}]},{"startTime":1522697970000,"endTime":1522698060000,"departureDelay":0,"arrivalDelay":0,"realTime":false,"distance":1328.7038023955338,"pathway":false,"mode":"BUS","route":"14","agencyName":"Société de Transport du Saguenay","agencyUrl":"http://ville.saguenay.ca/fr/services-aux-citoyens/transport-sts","agencyTimeZoneOffset":-14400000,"routeColor":"C0C000","routeType":3,"routeId":"1:14","routeTextColor":"000000","interlineWithPreviousLeg":false,"tripBlockId":"32","headsign":"Talbot / Barrette","agencyId":"0","tripId":"1:218164","serviceDate":"20180402","from":{"name":"boul. Barrette / passerelle rue Marcel-Portal","stopId":"1:90","stopCode":"90","lon":-71.085149,"lat":48.399287,"arrival":1522697969000,"departure":1522697970000,"zoneId":"NA","stopIndex":31,"stopSequence":32,"vertexType":"TRANSIT"},"to":{"name":"Roitelets / Sapins","stopId":"1:1543","stopCode":"1543","lon":-71.069553,"lat":48.393375,"arrival":1522698060000,"departure":1522698060000,"zoneId":"NA","stopIndex":35,"stopSequence":36,"vertexType":"TRANSIT"},"legGeometry":{"points":"e_lfHvxzpLj@oCvEoSl@_CxCmLjAeFpCeKrByHfAqCvH_SLa@","length":11},"routeShortName":"14","routeLongName":"Coopérative","rentedBike":false,"transitLeg":true,"duration":90.0,"steps":[]},{"startTime":1522698060000,"endTime":1522699680000,"departureDelay":0,"arrivalDelay":0,"realTime":false,"distance":9172.482542384352,"pathway":false,"mode":"BUS","route":"15","agencyName":"Société de Transport du Saguenay","agencyUrl":"http://ville.saguenay.ca/fr/services-aux-citoyens/transport-sts","agencyTimeZoneOffset":-14400000,"routeColor":"FF00FF","routeType":3,"routeId":"1:15","routeTextColor":"FFFFFF","interlineWithPreviousLeg":true,"tripBlockId":"32","headsign":"Terminus Chicoutimi","agencyId":"0","tripId":"1:218165","serviceDate":"20180402","from":{"name":"Roitelets / Sapins","stopId":"1:1543","stopCode":"1543","lon":-71.069553,"lat":48.393375,"arrival":1522698060000,"departure":1522698060000,"zoneId":"NA","stopIndex":0,"stopSequence":1,"vertexType":"TRANSIT"},"to":{"name":"Terminus Chicoutimi","stopId":"1:1289","stopCode":"1289","lon":-71.066163,"lat":48.428677,"arrival":1522699680000,"departure":1522700100000,"zoneId":"NA","stopIndex":39,"stopSequence":40,"vertexType":"TRANSIT"},"legGeometry":{"points":"_zjfHfwwpLx@}BHa@NaADq@@y@Cy@I{@Ka@O[Sg@c@mAWwAMyA?EC]?wABuABmFB{@BmDFuH@i@F[FsC@c@TuGEGVsHPuDLuBXsFDoA?W@]Cu@GcAKu@Q_ASo@a@y@a@o@MOUUeCqBiDsDqE{EiAcAcB_AqBgA_AQaBSaBG_@Bu@FG?h@fNKnDpCfBkAzDgA}@y@q@sDy@GAeGT~@~KKrKyAnL[hBUxAm@nCcAlDeCvGmA|CUr@}@~A_@\\_DvCEZcA|@UP_@d@Yl@oBdFeCxG_CfGYVQXS\\dK|HlFZbC\\p@zA\\rB@hBiArG{BNw@FiG}@iDwAECcCcBo@y@sEeGe@o@qAa@m@MoB?C@}BZwAc@oA_Bs@gDCKZ{Di@QECc@_@sAkAoBwB_EcE{A_BoAmAk@o@cCaCkIkIaJaJUUwBaCj@wCjAsCzGoG_CoHL{D_@kAqD{CQr@iAcAy@w@L{@wAuA_B_B_EpLDh@NbBVvCIxBg@`Am@l@Sb@a@rAqDqDmEkE]a@kAqAU|@WnKG|DGxDOdPKvJU|F?XQlJC~@ChAIzEcCOaIi@VwL","length":170},"routeShortName":"15","routeLongName":"Term. Chic / Costco","rentedBike":false,"transitLeg":true,"duration":1620.0,"steps":[]},{"startTime":1522700100000,"endTime":1522700960000,"departureDelay":0,"arrivalDelay":0,"realTime":false,"distance":6208.286971651185,"pathway":false,"mode":"BUS","route":"23","agencyName":"Société de Transport du Saguenay","agencyUrl":"http://ville.saguenay.ca/fr/services-aux-citoyens/transport-sts","agencyTimeZoneOffset":-14400000,"routeColor":"FF00FF","routeType":3,"routeId":"1:23","routeTextColor":"FFFFFF","interlineWithPreviousLeg":false,"tripBlockId":"4","headsign":"Terminus Chicoutimi","agencyId":"0","tripId":"1:217242","serviceDate":"20180402","from":{"name":"Terminus Chicoutimi","stopId":"1:1289","stopCode":"1289","lon":-71.066163,"lat":48.428677,"arrival":1522699680000,"departure":1522700100000,"zoneId":"NA","stopIndex":0,"stopSequence":1,"vertexType":"TRANSIT"},"to":{"name":"Église St-Luc (boul. Tadoussac)","stopId":"1:830","stopCode":"830","lon":-71.059501,"lat":48.441464,"arrival":1522700960000,"departure":1522700961000,"zoneId":"NA","stopIndex":20,"stopSequence":21,"vertexType":"TRANSIT"},"legGeometry":{"points":"kwqfHjbwpLF_CkAOYCm@rRO\\WjGOfGCRK^KJMHQB_AMg@Gw`@eR}@g@u@Su@Ia@Ck@Dm@HwAf@c@VeAx@iAlAU^[d@eLtTsAvB_CvEuAnCmBlE}@|B_BvFoC`JCD}@hCo@~Aq@pAs@fA{BlCqH|Iq@Bq@Im@UGCUi@Wm@ScA_@gGSaE@_@@_@@ERoBFe@No@`@gAbCyFNe@Ha@He@Fg@Du@Dg@Hc@Pa@RW\\S`@QZEm@eHM}B?GGi@Is@Ou@Qw@Mo@Kw@ImAGoBAk@aALa@?YEUKc@Yc@_@KOIUGUEWAW?YBqAH_AXeC@IdB_Mh@_EJk@d@kDhAqI`AgHz@oGBU?UAWCWUwAWD]B]AUEoAc@kE}AOIq@g@g@u@]w@b@s@T[~CkFf@s@\\e@x@}@jAeAXQZStBaAh@]`@]`@i@l@kDF_@R{AFWFMPIPC`@BT@V?TAVKLENCLCJ@J@xAb@x@Zz@\\CP?R@N@NFLFF`GtBx@Xw@pG@l@B\\DXL\\RZDFXPf@N@v@Bp@Dr@l@~HNlAH\\","length":178},"routeShortName":"23","routeLongName":"Côte Verdun via Aréna du Plateau","rentedBike":false,"transitLeg":true,"duration":860.0,"steps":[]},{"startTime":1522700961000,"endTime":1522701238000,"departureDelay":0,"arrivalDelay":0,"realTime":false,"distance":347.89399999999995,"pathway":false,"mode":"WALK","route":"","agencyTimeZoneOffset":-14400000,"interlineWithPreviousLeg":false,"from":{"name":"Église St-Luc (boul. Tadoussac)","stopId":"1:830","stopCode":"830","lon":-71.059501,"lat":48.441464,"arrival":1522700960000,"departure":1522700961000,"zoneId":"NA","stopIndex":20,"stopSequence":21,"vertexType":"TRANSIT"},"to":{"name":"Destination","lon":-71.05737999,"lat":48.439349,"arrival":1522701238000,"orig":"","vertexType":"NORMAL"},"legGeometry":{"points":"yetfHrxupLAGCMG]CQRETGHw@ZCbFlBf@}D@MBO@O?O@OAQAOE[","length":19},"rentedBike":false,"transitLeg":false,"duration":277.0,"steps":[{"distance":27.389,"relativeDirection":"DEPART","streetName":"Boulevard de Tadoussac","absoluteDirection":"NORTHEAST","stayOn":false,"area":false,"bogusName":false,"lon":-71.05945543369864,"lat":48.44141337892131,"elevation":[]},{"distance":61.104000000000006,"relativeDirection":"RIGHT","streetName":"path","absoluteDirection":"SOUTH","stayOn":false,"area":false,"bogusName":true,"lon":-71.0591098,"lat":48.4415014,"elevation":[]},{"distance":132.861,"relativeDirection":"SLIGHTLY_RIGHT","streetName":"Rue Napoléon","absoluteDirection":"SOUTH","stayOn":false,"area":false,"bogusName":false,"lon":-71.058738,"lat":48.4411019,"elevation":[]},{"distance":126.53999999999999,"relativeDirection":"LEFT","streetName":"Rue De Bienville","absoluteDirection":"EAST","stayOn":false,"area":false,"bogusName":false,"lon":-71.0592803,"lat":48.4399625,"elevation":[]}]}],"tooSloped":false},{"duration":2506,"startTime":1522699755000,"endTime":1522702261000,"walkTime":281,"transitTime":1803,"waitingTime":422,"walkDistance":348.29384210084766,"walkLimitExceeded":false,"elevationLost":0.0,"elevationGained":0.0,"transfers":1,"legs":[{"startTime":1522699755000,"endTime":1522700012000,"departureDelay":0,"arrivalDelay":0,"realTime":false,"distance":316.72900000000004,"pathway":false,"mode":"WALK","route":"","agencyTimeZoneOffset":-14400000,"interlineWithPreviousLeg":false,"from":{"name":"Origin","lon":-71.087624,"lat":48.399039,"departure":1522699755000,"orig":"","vertexType":"NORMAL"},"to":{"name":"boul. Barrette passerelle J.Paul Sartre","stopId":"1:1898","stopCode":"1898","lon":-71.084773,"lat":48.399467,"arrival":1522700012000,"departure":1522700013000,"zoneId":"NA","stopIndex":4,"stopSequence":5,"vertexType":"TRANSIT"},"legGeometry":{"points":"}{kfHli{pLtB{Je@]e@]w@WDQiAs@MOSSDQ","length":10},"rentedBike":false,"transitLeg":false,"duration":257.0,"steps":[{"distance":153.935,"relativeDirection":"DEPART","streetName":"Rue Montaigne","absoluteDirection":"SOUTHEAST","stayOn":false,"area":false,"bogusName":false,"lon":-71.08774142602172,"lat":48.398870704326406,"elevation":[]},{"distance":155.08499999999998,"relativeDirection":"LEFT","streetName":"path","absoluteDirection":"NORTHEAST","stayOn":false,"area":false,"bogusName":true,"lon":-71.08584950000001,"lat":48.3982888,"elevation":[]},{"distance":7.709,"relativeDirection":"RIGHT","streetName":"Boulevard Barrette","absoluteDirection":"SOUTHEAST","stayOn":false,"area":false,"bogusName":false,"lon":-71.0848982,"lat":48.3994511,"elevation":[]}]},{"startTime":1522700013000,"endTime":1522701480000,"departureDelay":0,"arrivalDelay":0,"realTime":false,"distance":8304.328911157947,"pathway":false,"mode":"BUS","route":"14","agencyName":"Société de Transport du Saguenay","agencyUrl":"http://ville.saguenay.ca/fr/services-aux-citoyens/transport-sts","agencyTimeZoneOffset":-14400000,"routeColor":"C0C000","routeType":3,"routeId":"1:14","routeTextColor":"000000","interlineWithPreviousLeg":false,"tripBlockId":"31","headsign":"Terminus Chicoutimi","agencyId":"0","tripId":"1:218141","serviceDate":"20180402","from":{"name":"boul. Barrette passerelle J.Paul Sartre","stopId":"1:1898","stopCode":"1898","lon":-71.084773,"lat":48.399467,"arrival":1522700012000,"departure":1522700013000,"zoneId":"NA","stopIndex":4,"stopSequence":5,"vertexType":"TRANSIT"},"to":{"name":"Terminus Chicoutimi","stopId":"1:1289","stopCode":"1289","lon":-71.066163,"lat":48.428677,"arrival":1522701480000,"departure":1522701900000,"zoneId":"NA","stopIndex":37,"stopSequence":38,"vertexType":"TRANSIT"},"legGeometry":{"points":"y~kfHlwzpLwGd\\aDxOdFtFhCtCdDY|F_On@aB`B_GNoBvAyT|@sNuAyAuF}F}AaB_BkAC@qC\\gAWiBwBiKgMiCwEgEyHCGy@uB}@rAa@nAc@lFEf@mGvUYfAqCs@ICMCqFmDc@s@mAkBuEoESUgAhDiAfD}@zDyAcA_@Um@U{AWgB_Au@s@EEsBkCqFgF{IiI][aBhE}@}@oBmBwE{EwE{Ej@mBZeAa@SyEQg@CPcALuCx@{b@t@{[XoDd@sBl@iB~@gA`G{F{A{D_@sBFqDOq@iG{FGIoCkCgBgBsDpLHzBBT`@~COnBQf@gAjAg@bBuDmDmFgFa@_@w@s@CfAOrBEtAGbA?jBQtC?|@ExKMdIG~EUnLEhC}CKkBOkCOYbC","length":108},"routeShortName":"14","routeLongName":"Coopérative","rentedBike":false,"transitLeg":true,"duration":1467.0,"steps":[]},{"startTime":1522701900000,"endTime":1522702236000,"departureDelay":0,"arrivalDelay":0,"realTime":false,"distance":1655.7582002786908,"pathway":false,"mode":"BUS","route":"24","agencyName":"Société de Transport du Saguenay","agencyUrl":"http://ville.saguenay.ca/fr/services-aux-citoyens/transport-sts","agencyTimeZoneOffset":-14400000,"routeColor":"00FF00","routeType":3,"routeId":"1:24","routeTextColor":"000000","interlineWithPreviousLeg":false,"tripBlockId":"4","headsign":"Terminus Chicoutimi","agencyId":"0","tripId":"1:217243","serviceDate":"20180402","from":{"name":"Terminus Chicoutimi","stopId":"1:1289","stopCode":"1289","lon":-71.066163,"lat":48.428677,"arrival":1522701480000,"departure":1522701900000,"zoneId":"NA","stopIndex":0,"stopSequence":1,"vertexType":"TRANSIT"},"to":{"name":"École le Roseau (Bienville)","stopId":"1:806","stopCode":"806","lon":-71.057164,"lat":48.439798,"arrival":1522702236000,"departure":1522702237000,"zoneId":"NA","stopIndex":4,"stopSequence":5,"vertexType":"TRANSIT"},"legGeometry":{"points":"evqfHzcwpLg@?EhBO~GoBKCp@O\\WjGOfGCRK^KJMHQB_AMg@Gm\\wO]i@wAyA_@WUKMEwEm@Js@Da@??@@??@?@???@???@?@??A@???@A@??A@??A@A??@A?A??@A?A?A?A@A?A???A?A?A???A?A?A?A???A?AAA?A???AAA?A??AA?AA??AA??A??AA??A??AA?A???A????q@C{AAaB?mAEcAGs@OoAa@sB[kAYcASq@Ok@Qq@Ku@MoBKmAa@eHi@FKC_@I??iE}Ah@}DH}@?c@Ea@[_B","length":116},"routeShortName":"24","routeLongName":"Saint-Luc","rentedBike":false,"transitLeg":true,"duration":336.0,"steps":[]},{"startTime":1522702237000,"endTime":1522702261000,"departureDelay":0,"arrivalDelay":0,"realTime":false,"distance":31.428,"pathway":false,"mode":"WALK","route":"","agencyTimeZoneOffset":-14400000,"interlineWithPreviousLeg":false,"from":{"name":"École le Roseau (Bienville)","stopId":"1:806","stopCode":"806","lon":-71.057164,"lat":48.439798,"arrival":1522702236000,"departure":1522702237000,"zoneId":"NA","stopIndex":4,"stopSequence":5,"vertexType":"TRANSIT"},"to":{"name":"Destination","lon":-71.05737999,"lat":48.439349,"arrival":1522702261000,"orig":"","vertexType":"NORMAL"},"legGeometry":{"points":"g|sfHxjupLHTJn@@F","length":4},"rentedBike":false,"transitLeg":false,"duration":24.0,"steps":[{"distance":31.428,"relativeDirection":"DEPART","streetName":"Rue De Bienville","absoluteDirection":"SOUTHWEST","stayOn":false,"area":false,"bogusName":false,"lon":-71.05724442131621,"lat":48.439881180077734,"elevation":[]}]}],"tooSloped":false}]},"debugOutput":{"precalculationTime":19,"pathCalculationTime":40,"pathTimes":[20,10,10],"renderingTime":0,"totalTime":59,"timedOut":false},"elevationMetadata":{"ellipsoidToGeoidDifference":-28.885904201182168,"geoidElevation":false}}