{"requestParameters":{"date":"2018/04/02","walkSpeed":"1.33","walkReluctance":"2.0","fromPlace":"48.394954,-71.07938199","maxWalkDistance":"3000","waitReluctance":"1.0","carSpeed":"33","numItineraries":"3","waitAtBeginningFactor":"0.4","mode":"TRANSIT,WALK","ignoreRealtimeUpdates":"false","stairsReluctance":"2.0","toPlace":"48.40367,-71.08788","time":"15:30:00"},"plan":{"date":1522697400000,"from":{"name":"Origin","lon":-71.07938199,"lat":48.394954,"orig":"","vertexType":"NORMAL"},"to":{"name":"Destination","lon":-71.08788,"lat":48.40367,"orig":"","vertexType":"NORMAL"},"itineraries":[{"duration":793,"startTime":1522697604000,"endTime":1522698397000,"walkTime":689,"transitTime":102,"waitingTime":2,"walkDistance":878.8111654081722,"walkLimitExceeded":false,"elevationLost":0.0,"elevationGained":0.0,"transfers":0,"legs":[{"startTime":1522697604000,"endTime":1522697842000,"departureDelay":0,"arrivalDelay":0,"realTime":false,"distance":306.84799999999996,"pathway":false,"mode":"WALK","route":"","agencyTimeZoneOffset":-14400000,"interlineWithPreviousLeg":false,"from":{"name":"Origin","lon":-71.07938199,"lat":48.394954,"departure":1522697604000,"orig":"","vertexType":"NORMAL"},"to":{"name":"Malraux / Mauriac","stopId":"1:1979","stopCode":"1979","lon":-71.082747,"lat":48.396652,"arrival":1522697842000,"departure":1522697843000,"zoneId":"NA","stopIndex":25,"stopSequence":26,"vertexType":"TRANSIT"},"legGeometry":{"points":"kckfHduypL]|@qEdLeAhDOO","length":5},"rentedBike":false,"transitLeg":false,"duration":238.0,"steps":[{"distance":296.542,"relativeDirection":"DEPART","streetName":"Rue Mauriac","absoluteDirection":"NORTHWEST","stayOn":false,"area":false,"bogusName":false,"lon":-71.07938745768412,"lat":48.394948844624025,"elevation":[]},{"distance":10.306,"relativeDirection":"RIGHT","streetName":"Rue Malraux","absoluteDirection":"NORTHEAST","stayOn":false,"area":false,"bogusName":false,"lon":-71.0826531,"lat":48.396498900000005,"elevation":[]}]},{"startTime":1522697843000,"endTime":1522697945000,"departureDelay":0,"arrivalDelay":0,"realTime":false,"distance":1297.6025289214153,"pathway":false,"mode":"BUS","route":"14","agencyName":"Société de Transport du Saguenay","agencyUrl":"http://ville.saguenay.ca/fr/services-aux-citoyens/transport-sts","agencyTimeZoneOffset":-14400000,"routeColor":"C0C000","routeType":3,"routeId":"1:14","routeTextColor":"000000","interlineWithPreviousLeg":false,"tripBlockId":"32","headsign":"Talbot / Barrette","agencyId":"0","tripId":"1:218164","serviceDate":"20180402","from":{"name":"Malraux / Mauriac","stopId":"1:1979","stopCode":"1979","lon":-71.082747,"lat":48.396652,"arrival":1522697842000,"departure":1522697843000,"zoneId":"NA","stopIndex":25,"stopSequence":26,"vertexType":"TRANSIT"},"to":{"name":"boul. Barrette / passerelle rue Balzac","stopId":"1:44","stopCode":"44","lon":-71.089717,"lat":48.400646,"arrival":1522697945000,"departure":1522697946000,"zoneId":"NA","stopIndex":30,"stopSequence":31,"vertexType":"TRANSIT"},"legGeometry":{"points":"umkfHlizpL`BhB?pHaBhRqAbLK~@qBxFqB|FcC~GyC\\aDkDcFsF~CgO","length":13},"routeShortName":"14","routeLongName":"Coopérative","rentedBike":false,"transitLeg":true,"duration":102.0,"steps":[]},{"startTime":1522697946000,"endTime":1522698397000,"departureDelay":0,"arrivalDelay":0,"realTime":false,"distance":571.797,"pathway":false,"mode":"WALK","route":"","agencyTimeZoneOffset":-14400000,"interlineWithPreviousLeg":false,"from":{"name":"boul. Barrette / passerelle rue Balzac","stopId":"1:44","stopCode":"44","lon":-71.089717,"lat":48.400646,"arrival":1522697945000,"departure":1522697946000,"zoneId":"NA","stopIndex":30,"stopSequence":31,"vertexType":"TRANSIT"},"to":{"name":"Destination","lon":-71.08788,"lat":48.40367,"arrival":1522698397000,"orig":"","vertexType":"NORMAL"},"legGeometry":{"points":"cglfHtu{pLBKSMSOCAmAm@h@wC@s@qBoB_Ak@w@g@gAq@kAu@yAxHYJMYNm@","length":17},"rentedBike":false,"transitLeg":false,"duration":451.0,"steps":[{"distance":5.074,"relativeDirection":"DEPART","streetName":"bike path","absoluteDirection":"SOUTHEAST","stayOn":false,"area":false,"bogusName":true,"lon":-71.08970662899452,"lat":48.400660438764696,"elevation":[]},{"distance":74.275,"relativeDirection":"LEFT","streetName":"path","absoluteDirection":"NORTHEAST","stayOn":true,"area":false,"bogusName":true,"lon":-71.0896446,"lat":48.400640800000005,"elevation":[]},{"distance":80.064,"relativeDirection":"RIGHT","streetName":"Rue Verlaine","absoluteDirection":"EAST","stayOn":false,"area":false,"bogusName":false,"lon":-71.08925380000001,"lat":48.4012559,"elevation":[]},{"distance":239.18900000000002,"relativeDirection":"LEFT","streetName":"Rue Victor-Guimond","absoluteDirection":"NORTHEAST","stayOn":false,"area":false,"bogusName":false,"lon":-71.08823190000001,"lat":48.4010387,"elevation":[]},{"distance":173.195,"relativeDirection":"LEFT","streetName":"Rue Jules -Verne","absoluteDirection":"NORTHWEST","stayOn":false,"area":false,"bogusName":false,"lon":-71.0867346,"lat":48.4029413,"elevation":[]}]}],"tooSloped":false},{"duration":1234,"startTime":1522697400000,"endTime":1522698634000,"walkTime":1234,"transitTime":0,"waitingTime":0,"walkDistance":1587.0785112699834,"walkLimitExceeded":false,"elevationLost":0.0,"elevationGained":0.0,"transfers":0,"legs":[{"startTime":1522697400000,"endTime":1522698634000,"departureDelay":0,"arrivalDelay":0,"realTime":false,"distance":1586.8239999999998,"pathway":false,"mode":"WALK","route":"","agencyTimeZoneOffset":-14400000,"interlineWithPreviousLeg":false,"from":{"name":"Origin","lon":-71.07938199,"lat":48.394954,"departure":1522697400000,"orig":"","vertexType":"NORMAL"},"to":{"name":"Destination","lon":-71.08788,"lat":48.40367,"arrival":1522698634000,"orig":"","vertexType":"NORMAL"},"legGeometry":{"points":"kckfHduypL]|@qEdLeAhDOO}C_D{@y@EE}@_AKIUSa@bBiBpHQp@{ArHEPS[w@m@UbAWlAYtAUp@]Dk@Wq@c@_@zAgBtH_Ak@w@g@gAq@kAu@yAxHYJMYNm@","length":35},"rentedBike":false,"transitLeg":false,"duration":1234.0,"steps":[{"distance":296.542,"relativeDirection":"DEPART","streetName":"Rue Mauriac","absoluteDirection":"NORTHWEST","stayOn":false,"area":false,"bogusName":false,"lon":-71.07938745768412,"lat":48.394948844624025,"elevation":[]},{"distance":223.05999999999997,"relativeDirection":"RIGHT","streetName":"Rue Malraux","absoluteDirection":"NORTHEAST","stayOn":false,"area":false,"bogusName":false,"lon":-71.0826531,"lat":48.396498900000005,"elevation":[]},{"distance":321.934,"relativeDirection":"LEFT","streetName":"Boulevard Barrette","absoluteDirection":"NORTHWEST","stayOn":false,"area":false,"bogusName":false,"lon":-71.080988,"lat":48.3981725,"elevation":[]},{"distance":50.8,"relativeDirection":"RIGHT","streetName":"path","absoluteDirection":"NORTHEAST","stayOn":false,"area":false,"bogusName":true,"lon":-71.0848982,"lat":48.3994511,"elevation":[]},{"distance":190.51,"relativeDirection":"LEFT","streetName":"Rue Jean-Paul Sartre","absoluteDirection":"NORTHWEST","stayOn":false,"area":false,"bogusName":false,"lon":-71.0845255,"lat":48.3998317,"elevation":[]},{"distance":166.515,"relativeDirection":"LEFT","streetName":"Rue Yves Thériault","absoluteDirection":"NORTHWEST","stayOn":false,"area":false,"bogusName":false,"lon":-71.08566710000001,"lat":48.4009258,"elevation":[]},{"distance":164.268,"relativeDirection":"RIGHT","streetName":"Rue Victor-Guimond","absoluteDirection":"NORTHEAST","stayOn":false,"area":false,"bogusName":false,"lon":-71.08767850000001,"lat":48.4016035,"elevation":[]},{"distance":173.195,"relativeDirection":"LEFT","streetName":"Rue Jules -Verne","absoluteDirection":"NORTHWEST","stayOn":false,"area":false,"bogusName":false,"lon":-71.0867346,"lat":48.4029413,"elevation":[]}]}],"tooSloped":false},{"duration":846,"startTime":1522697814000,"endTime":1522698660000,"walkTime":774,"transitTime":70,"waitingTime":2,"walkDistance":973.9857894651079,"walkLimitExceeded":false,"elevationLost":0.0,"elevationGained":0.0,"transfers":0,"legs":[{"startTime":1522697814000,"endTime":1522698168000,"departureDelay":0,"arrivalDelay":0,"realTime":false,"distance":434.764,"pathway":false,"mode":"WALK","route":"","agencyTimeZoneOffset":-14400000,"interlineWithPreviousLeg":false,"from":{"name":"Origin","lon":-71.07938199,"lat":48.394954,"departure":1522697814000,"orig":"","vertexType":"NORMAL"},"to":{"name":"boul. Barrette / Cent Associés","stopId":"1:1596","stopCode":"1596","lon":-71.07741,"lat":48.396946,"arrival":1522698168000,"departure":1522698169000,"zoneId":"NA","stopIndex":2,"stopSequence":3,"vertexType":"TRANSIT"},"legGeometry":{"points":"kckfHduypL]|@MQcBiBfAyCc@g@cBsBW[EMCO?M@OeAi@GIWS[fAWdA","length":17},"rentedBike":false,"transitLeg":false,"duration":354.0,"steps":[{"distance":27.492,"relativeDirection":"DEPART","streetName":"Rue Mauriac","absoluteDirection":"NORTHWEST","stayOn":false,"area":false,"bogusName":false,"lon":-71.07938745768412,"lat":48.394948844624025,"elevation":[]},{"distance":78.087,"relativeDirection":"RIGHT","streetName":"Rue Rimbaud","absoluteDirection":"NORTHEAST","stayOn":false,"area":false,"bogusName":false,"lon":-71.0796919,"lat":48.3950912,"elevation":[]},{"distance":69.755,"relativeDirection":"RIGHT","streetName":"Rue Flaubert","absoluteDirection":"SOUTHEAST","stayOn":false,"area":false,"bogusName":false,"lon":-71.0790798,"lat":48.3956639,"elevation":[]},{"distance":136.44799999999998,"relativeDirection":"LEFT","streetName":"Rue Jacques-Ferron","absoluteDirection":"NORTHEAST","stayOn":false,"area":false,"bogusName":false,"lon":-71.0783084,"lat":48.395301700000005,"elevation":[]},{"distance":62.658,"relativeDirection":"LEFT","streetName":"path","absoluteDirection":"NORTH","stayOn":false,"area":false,"bogusName":true,"lon":-71.0770823,"lat":48.3961436,"elevation":[]},{"distance":60.324,"relativeDirection":"LEFT","streetName":"Boulevard Barrette","absoluteDirection":"NORTHWEST","stayOn":false,"area":false,"bogusName":false,"lon":-71.07672170000001,"lat":48.396650900000004,"elevation":[]}]},{"startTime":1522698169000,"endTime":1522698239000,"departureDelay":0,"arrivalDelay":0,"realTime":false,"distance":990.3993657595477,"pathway":false,"mode":"BUS","route":"14","agencyName":"Société de Transport du Saguenay","agencyUrl":"http://ville.saguenay.ca/fr/services-aux-citoyens/transport-sts","agencyTimeZoneOffset":-14400000,"routeColor":"C0C000","routeType":3,"routeId":"1:14","routeTextColor":"000000","interlineWithPreviousLeg":false,"tripBlockId":"33","headsign":"Terminus Chicoutimi","agencyId":"0","tripId":"1:218190","serviceDate":"20180402","from":{"name":"boul. Barrette / Cent Associés","stopId":"1:1596","stopCode":"1596","lon":-71.07741,"lat":48.396946,"arrival":1522698168000,"departure":1522698169000,"zoneId":"NA","stopIndex":2,"stopSequence":3,"vertexType":"TRANSIT"},"to":{"name":"boul. Barrette passerelle Verlaine","stopId":"1:1899","stopCode":"1899","lon":-71.089455,"lat":48.400859,"arrival":1522698239000,"departure":1522698240000,"zoneId":"NA","stopIndex":5,"stopSequence":6,"vertexType":"TRANSIT"},"legGeometry":{"points":"uokfH~hypLcD`Mi@dCgChLmCzMwGd\\","length":6},"routeShortName":"14","routeLongName":"Coopérative","rentedBike":false,"transitLeg":true,"duration":70.0,"steps":[]},{"startTime":1522698240000,"endTime":1522698660000,"departureDelay":0,"arrivalDelay":0,"realTime":false,"distance":538.9559999999999,"pathway":false,"mode":"WALK","route":"","agencyTimeZoneOffset":-14400000,"interlineWithPreviousLeg":false,"from":{"name":"boul. Barrette passerelle Verlaine","stopId":"1:1899","stopCode":"1899","lon":-71.089455,"lat":48.400859,"arrival":1522698239000,"departure":1522698240000,"zoneId":"NA","stopIndex":5,"stopSequence":6,"vertexType":"TRANSIT"},"to":{"name":"Destination","lon":-71.08788,"lat":48.40367,"arrival":1522698660000,"orig":"","vertexType":"NORMAL"},"legGeometry":{"points":"khlfHht{pLmAm@h@wC@s@qBoB_Ak@w@g@gAq@kAu@yAxHYJMYNm@","length":13},"rentedBike":false,"transitLeg":false,"duration":420.0,"steps":[{"distance":46.508,"relativeDirection":"DEPART","streetName":"path","absoluteDirection":"NORTH","stayOn":false,"area":false,"bogusName":true,"lon":-71.08948426356135,"lat":48.40086663679363,"elevation":[]},{"distance":80.064,"relativeDirection":"RIGHT","streetName":"Rue Verlaine","absoluteDirection":"EAST","stayOn":false,"area":false,"bogusName":false,"lon":-71.08925380000001,"lat":48.4012559,"elevation":[]},{"distance":239.18900000000002,"relativeDirection":"LEFT","streetName":"Rue Victor-Guimond","absoluteDirection":"NORTHEAST","stayOn":false,"area":false,"bogusName":false,"lon":-71.08823190000001,"lat":48.4010387,"elevation":[]},{"distance":173.195,"relativeDirection":"LEFT","streetName":"Rue Jules -Verne","absoluteDirection":"NORTHWEST","stayOn":false,"area":false,"bogusName":false,"lon":-71.0867346,"lat":48.4029413,"elevation":[]}]}],"tooSloped":false}]},"debugOutput":{"precalculationTime":24,"pathCalculationTime":17,"pathTimes":[13,2,2],"renderingTime":1,"totalTime":42,"timedOut":false},"elevationMetadata":{"ellipsoidToGeoidDifference":-28.885904201182168,"geoidElevation":false}}