{"requestParameters":{"date":"2018/04/02","walkSpeed":"1.33","walkReluctance":"2.0","fromPlace":"48.396211,-71.086646","maxWalkDistance":"3000","waitReluctance":"1.0","carSpeed":"33","numItineraries":"3","waitAtBeginningFactor":"0.4","mode":"TRANSIT,WALK","ignoreRealtimeUpdates":"false","stairsReluctance":"2.0","toPlace":"48.405548,-71.085476","time":"13:0:00"},"plan":{"date":1522688400000,"from":{"name":"Origin","lon":-71.086646,"lat":48.396211,"orig":"","vertexType":"NORMAL"},"to":{"name":"Destination","lon":-71.085476,"lat":48.405548,"orig":"","vertexType":"NORMAL"},"itineraries":[{"duration":1019,"startTime":1522688400000,"endTime":1522689419000,"walkTime":1019,"transitTime":0,"waitingTime":0,"walkDistance":1296.305022548033,"walkLimitExceeded":false,"elevationLost":0.0,"elevationGained":0.0,"transfers":0,"legs":[{"startTime":1522688400000,"endTime":1522689419000,"departureDelay":0,"arrivalDelay":0,"realTime":false,"distance":1296.0460000000003,"pathway":false,"mode":"WALK","route":"","agencyTimeZoneOffset":-14400000,"interlineWithPreviousLeg":false,"from":{"name":"Origin","lon":-71.086646,"lat":48.396211,"departure":1522688400000,"orig":"","vertexType":"NORMAL"},"to":{"name":"Destination","lon":-71.085476,"lat":48.405548,"arrival":1522689419000,"orig":"","vertexType":"NORMAL"},"legGeometry":{"points":"ilkfHdb{pLHaAyCq@qA]oBe@UCQTCPe@]e@]w@WDQiAs@MOSSS[w@m@UbAWlAYtAUp@]Dk@Wq@c@_@zAgBtH_Ak@w@g@gAq@kAu@eIaFy@YeA]_Ad@","length":34},"rentedBike":false,"transitLeg":false,"duration":1019.0,"steps":[{"distance":25.2,"relativeDirection":"DEPART","streetName":"Rue Malraux","absoluteDirection":"EAST","stayOn":false,"area":false,"bogusName":false,"lon":-71.08658553206878,"lat":48.39637491749144,"elevation":[]},{"distance":231.00600000000003,"relativeDirection":"LEFT","streetName":"Rue Montaigne","absoluteDirection":"NORTH","stayOn":false,"area":false,"bogusName":false,"lon":-71.08625400000001,"lat":48.396321,"elevation":[]},{"distance":205.885,"relativeDirection":"RIGHT","streetName":"path","absoluteDirection":"NORTHEAST","stayOn":false,"area":false,"bogusName":true,"lon":-71.08584950000001,"lat":48.3982888,"elevation":[]},{"distance":190.51,"relativeDirection":"LEFT","streetName":"Rue Jean-Paul Sartre","absoluteDirection":"NORTHWEST","stayOn":false,"area":false,"bogusName":false,"lon":-71.0845255,"lat":48.3998317,"elevation":[]},{"distance":166.515,"relativeDirection":"LEFT","streetName":"Rue Yves Thériault","absoluteDirection":"NORTHWEST","stayOn":false,"area":false,"bogusName":false,"lon":-71.08566710000001,"lat":48.4009258,"elevation":[]},{"distance":476.93,"relativeDirection":"RIGHT","streetName":"Rue Victor-Guimond","absoluteDirection":"NORTHEAST","stayOn":false,"area":false,"bogusName":false,"lon":-71.08767850000001,"lat":48.4016035,"elevation":[]}]}],"tooSloped":false},{"duration":814,"startTime":1522688687000,"endTime":1522689501000,"walkTime":749,"transitTime":63,"waitingTime":2,"walkDistance":965.493789469948,"walkLimitExceeded":false,"elevationLost":0.0,"elevationGained":0.0,"transfers":0,"legs":[{"startTime":1522688687000,"endTime":1522688881000,"departureDelay":0,"arrivalDelay":0,"realTime":false,"distance":254.114,"pathway":false,"mode":"WALK","route":"","agencyTimeZoneOffset":-14400000,"interlineWithPreviousLeg":false,"from":{"name":"Origin","lon":-71.086646,"lat":48.396211,"departure":1522688687000,"orig":"","vertexType":"NORMAL"},"to":{"name":"Malraux / Antonin Artaud","stopId":"1:1602","stopCode":"1602","lon":-71.08988,"lat":48.396998,"arrival":1522688881000,"departure":1522688882000,"zoneId":"NA","stopIndex":26,"stopSequence":27,"vertexType":"TRANSIT"},"legGeometry":{"points":"ilkfHdb{pLsAdOUdCCN","length":4},"rentedBike":false,"transitLeg":false,"duration":194.0,"steps":[{"distance":254.114,"relativeDirection":"DEPART","streetName":"Rue Malraux","absoluteDirection":"WEST","stayOn":false,"area":false,"bogusName":false,"lon":-71.08658553206878,"lat":48.39637491749144,"elevation":[]}]},{"startTime":1522688882000,"endTime":1522688945000,"departureDelay":0,"arrivalDelay":0,"realTime":false,"distance":769.5700019618299,"pathway":false,"mode":"BUS","route":"14","agencyName":"Société de Transport du Saguenay","agencyUrl":"http://ville.saguenay.ca/fr/services-aux-citoyens/transport-sts","agencyTimeZoneOffset":-14400000,"routeColor":"C0C000","routeType":3,"routeId":"1:14","routeTextColor":"000000","interlineWithPreviousLeg":false,"tripBlockId":"30","headsign":"Talbot / Barrette","agencyId":"0","tripId":"1:218099","serviceDate":"20180402","from":{"name":"Malraux / Antonin Artaud","stopId":"1:1602","stopCode":"1602","lon":-71.08988,"lat":48.396998,"arrival":1522688881000,"departure":1522688882000,"zoneId":"NA","stopIndex":26,"stopSequence":27,"vertexType":"TRANSIT"},"to":{"name":"boul. Barrette / passerelle rue Balzac","stopId":"1:44","stopCode":"44","lon":-71.089717,"lat":48.400646,"arrival":1522688945000,"departure":1522688946000,"zoneId":"NA","stopIndex":30,"stopSequence":31,"vertexType":"TRANSIT"},"legGeometry":{"points":"gpkfHvv{pLK~@qBxFqB|FcC~GyC\\aDkDcFsF~CgO","length":9},"routeShortName":"14","routeLongName":"Coopérative","rentedBike":false,"transitLeg":true,"duration":63.0,"steps":[]},{"startTime":1522688946000,"endTime":1522689501000,"departureDelay":0,"arrivalDelay":0,"realTime":false,"distance":711.264,"pathway":false,"mode":"WALK","route":"","agencyTimeZoneOffset":-14400000,"interlineWithPreviousLeg":false,"from":{"name":"boul. Barrette / passerelle rue Balzac","stopId":"1:44","stopCode":"44","lon":-71.089717,"lat":48.400646,"arrival":1522688945000,"departure":1522688946000,"zoneId":"NA","stopIndex":30,"stopSequence":31,"vertexType":"TRANSIT"},"to":{"name":"Destination","lon":-71.085476,"lat":48.405548,"arrival":1522689501000,"orig":"","vertexType":"NORMAL"},"legGeometry":{"points":"cglfHtu{pLBKSMSOCAmAm@h@wC@s@qBoB_Ak@w@g@gAq@kAu@eIaFy@YeA]_Ad@","length":17},"rentedBike":false,"transitLeg":false,"duration":555.0,"steps":[{"distance":5.074,"relativeDirection":"DEPART","streetName":"bike path","absoluteDirection":"SOUTHEAST","stayOn":false,"area":false,"bogusName":true,"lon":-71.08970662899452,"lat":48.400660438764696,"elevation":[]},{"distance":74.275,"relativeDirection":"LEFT","streetName":"path","absoluteDirection":"NORTHEAST","stayOn":true,"area":false,"bogusName":true,"lon":-71.0896446,"lat":48.400640800000005,"elevation":[]},{"distance":80.064,"relativeDirection":"RIGHT","streetName":"Rue Verlaine","absoluteDirection":"EAST","stayOn":false,"area":false,"bogusName":false,"lon":-71.08925380000001,"lat":48.4012559,"elevation":[]},{"distance":551.851,"relativeDirection":"LEFT","streetName":"Rue Victor-Guimond","absoluteDirection":"NORTHEAST","stayOn":false,"area":false,"bogusName":false,"lon":-71.08823190000001,"lat":48.4010387,"elevation":[]}]}],"tooSloped":false},{"duration":597,"startTime":1522689276000,"endTime":1522689873000,"walkTime":399,"transitTime":196,"waitingTime":2,"walkDistance":511.3575563886362,"walkLimitExceeded":false,"elevationLost":0.0,"elevationGained":0.0,"transfers":0,"legs":[{"startTime":1522689276000,"endTime":1522689327000,"departureDelay":0,"arrivalDelay":0,"realTime":false,"distance":65.301,"pathway":false,"mode":"WALK","route":"","agencyTimeZoneOffset":-14400000,"interlineWithPreviousLeg":false,"from":{"name":"Origin","lon":-71.086646,"lat":48.396211,"departure":1522689276000,"orig":"","vertexType":"NORMAL"},"to":{"name":"Malraux / Rabelais","stopId":"1:1593","stopCode":"1593","lon":-71.08574,"lat":48.396187,"arrival":1522689327000,"departure":1522689328000,"zoneId":"NA","stopIndex":9,"stopSequence":10,"vertexType":"TRANSIT"},"legGeometry":{"points":"ilkfHdb{pLHaALiB","length":3},"rentedBike":false,"transitLeg":false,"duration":51.0,"steps":[{"distance":65.301,"relativeDirection":"DEPART","streetName":"Rue Malraux","absoluteDirection":"EAST","stayOn":false,"area":false,"bogusName":false,"lon":-71.08658553206878,"lat":48.39637491749144,"elevation":[]}]},{"startTime":1522689328000,"endTime":1522689524000,"departureDelay":0,"arrivalDelay":0,"realTime":false,"distance":1733.822074405798,"pathway":false,"mode":"BUS","route":"14","agencyName":"Société de Transport du Saguenay","agencyUrl":"http://ville.saguenay.ca/fr/services-aux-citoyens/transport-sts","agencyTimeZoneOffset":-14400000,"routeColor":"C0C000","routeType":3,"routeId":"1:14","routeTextColor":"000000","interlineWithPreviousLeg":false,"tripBlockId":"31","headsign":"Terminus Chicoutimi","agencyId":"0","tripId":"1:218135","serviceDate":"20180402","from":{"name":"Malraux / Rabelais","stopId":"1:1593","stopCode":"1593","lon":-71.08574,"lat":48.396187,"arrival":1522689327000,"departure":1522689328000,"zoneId":"NA","stopIndex":9,"stopSequence":10,"vertexType":"TRANSIT"},"to":{"name":"Ballantyne / Jolliet","stopId":"1:1558","stopCode":"1558","lon":-71.080285,"lat":48.406355,"arrival":1522689524000,"departure":1522689525000,"zoneId":"NA","stopIndex":17,"stopSequence":18,"vertexType":"TRANSIT"},"legGeometry":{"points":"elkfHr|zpL|@sNuAyAuF}F}AaB_BkAC@qC\\gAWiBwBiKgMiCwEgEyHCGy@uB}@rAa@nAc@lFEf@mGvU","length":20},"routeShortName":"14","routeLongName":"Coopérative","rentedBike":false,"transitLeg":true,"duration":196.0,"steps":[]},{"startTime":1522689525000,"endTime":1522689873000,"departureDelay":0,"arrivalDelay":0,"realTime":false,"distance":445.984,"pathway":false,"mode":"WALK","route":"","agencyTimeZoneOffset":-14400000,"interlineWithPreviousLeg":false,"from":{"name":"Ballantyne / Jolliet","stopId":"1:1558","stopCode":"1558","lon":-71.080285,"lat":48.406355,"arrival":1522689524000,"departure":1522689525000,"zoneId":"NA","stopIndex":17,"stopSequence":18,"vertexType":"TRANSIT"},"to":{"name":"Destination","lon":-71.085476,"lat":48.405548,"arrival":1522689873000,"orig":"","vertexType":"NORMAL"},"legGeometry":{"points":"ijmfHb{ypLYdAv@t@VpA^dDNbA??v@tD`@jC@^TjE_Ad@","length":12},"rentedBike":false,"transitLeg":false,"duration":348.0,"steps":[{"distance":29.885,"relativeDirection":"DEPART","streetName":"Rue Ballantyne","absoluteDirection":"NORTHWEST","stayOn":false,"area":false,"bogusName":false,"lon":-71.0803339734197,"lat":48.40629640444966,"elevation":[]},{"distance":377.609,"relativeDirection":"LEFT","streetName":"Rue Jolliet","absoluteDirection":"SOUTHWEST","stayOn":false,"area":false,"bogusName":false,"lon":-71.08068800000001,"lat":48.406426800000006,"elevation":[]},{"distance":38.49,"relativeDirection":"RIGHT","streetName":"Rue Victor-Guimond","absoluteDirection":"NORTH","stayOn":false,"area":false,"bogusName":false,"lon":-71.08532290000001,"lat":48.405216,"elevation":[]}]}],"tooSloped":false}]},"debugOutput":{"precalculationTime":31,"pathCalculationTime":21,"pathTimes":[13,5,3],"renderingTime":0,"totalTime":52,"timedOut":false},"elevationMetadata":{"ellipsoidToGeoidDifference":-28.885904201182168,"geoidElevation":false}}