{"requestParameters":{"date":"2018/04/02","walkSpeed":"1.33","walkReluctance":"2.0","fromPlace":"48.403183,-71.088145","maxWalkDistance":"3000","waitReluctance":"1.0","carSpeed":"33","numItineraries":"3","waitAtBeginningFactor":"0.4","mode":"TRANSIT,WALK","ignoreRealtimeUpdates":"false","stairsReluctance":"2.0","toPlace":"48.428605,-71.068976","time":"13:15:00"},"plan":{"date":1522689300000,"from":{"name":"Origin","lon":-71.088145,"lat":48.403183,"orig":"","vertexType":"NORMAL"},"to":{"name":"Destination","lon":-71.068976,"lat":48.428605,"orig":"","vertexType":"NORMAL"},"itineraries":[{"duration":1741,"startTime":1522689312000,"endTime":1522691053000,"walkTime":1247,"transitTime":492,"waitingTime":2,"walkDistance":1616.12353382931,"walkLimitExceeded":false,"elevationLost":0.0,"elevationGained":0.0,"transfers":0,"legs":[{"startTime":1522689312000,"endTime":1522690215000,"departureDelay":0,"arrivalDelay":0,"realTime":false,"distance":1173.826,"pathway":false,"mode":"WALK","route":"","agencyTimeZoneOffset":-14400000,"interlineWithPreviousLeg":false,"from":{"name":"Origin","lon":-71.088145,"lat":48.403183,"departure":1522689312000,"orig":"","vertexType":"NORMAL"},"to":{"name":"boul. Saint-Paul (no. 1323)","stopId":"1:1887","stopCode":"1887","lon":-71.092041,"lat":48.408118,"arrival":1522690215000,"departure":1522690216000,"zoneId":"NA","stopIndex":16,"stopSequence":17,"vertexType":"TRANSIT"},"legGeometry":{"points":"wwlfHjk{pLjAgGeIaFy@YeA]}Av@oA|Ao@hBITyAdAo@TEdAJnALfAf@vD\\~CClAWfBOt@kAvCyAtDOUo@_Ag@u@","length":24},"rentedBike":false,"transitLeg":false,"duration":903.0,"steps":[{"distance":106.143,"relativeDirection":"DEPART","streetName":"Rue Jules -Verne","absoluteDirection":"SOUTHEAST","stayOn":false,"area":false,"bogusName":false,"lon":-71.08805136452419,"lat":48.40332472665022,"elevation":[]},{"distance":528.0120000000001,"relativeDirection":"LEFT","streetName":"Rue Victor-Guimond","absoluteDirection":"NORTHEAST","stayOn":false,"area":false,"bogusName":false,"lon":-71.0867346,"lat":48.4029413,"elevation":[]},{"distance":462.09800000000007,"relativeDirection":"LEFT","streetName":"Rue Descartes","absoluteDirection":"WEST","stayOn":false,"area":false,"bogusName":false,"lon":-71.0871764,"lat":48.4070606,"elevation":[]},{"distance":77.57300000000001,"relativeDirection":"RIGHT","streetName":"Boulevard Saint-Paul","absoluteDirection":"NORTHEAST","stayOn":false,"area":false,"bogusName":false,"lon":-71.0928554,"lat":48.4076662,"elevation":[]}]},{"startTime":1522690216000,"endTime":1522690708000,"departureDelay":0,"arrivalDelay":0,"realTime":false,"distance":2921.691593774346,"pathway":false,"mode":"BUS","route":"11","agencyName":"Société de Transport du Saguenay","agencyUrl":"http://ville.saguenay.ca/fr/services-aux-citoyens/transport-sts","agencyTimeZoneOffset":-14400000,"routeColor":"FF0000","routeType":3,"routeId":"1:11","routeTextColor":"FFFFFF","interlineWithPreviousLeg":false,"tripBlockId":"34","headsign":"Terminus Chicoutimi","agencyId":"0","tripId":"1:218220","serviceDate":"20180402","from":{"name":"boul. Saint-Paul (no. 1323)","stopId":"1:1887","stopCode":"1887","lon":-71.092041,"lat":48.408118,"arrival":1522690215000,"departure":1522690216000,"zoneId":"NA","stopIndex":16,"stopSequence":17,"vertexType":"TRANSIT"},"to":{"name":"Price / Petit","stopId":"1:442","stopCode":"442","lon":-71.069949,"lat":48.42538,"arrival":1522690708000,"departure":1522690709000,"zoneId":"NA","stopIndex":28,"stopSequence":29,"vertexType":"TRANSIT"},"legGeometry":{"points":"avmfHxd|pLyI{MmBqC{@wAQUw@gAsDiF_B_CQYa@cA[_AUy@YcBOgAYHu@\\M`@cAiBuAyBkHgL{C{E}AcCc@o@q@gAOWwCyCyGyG_IaIs@rBEHwAtDmBvEOd@[bBK~AIf@YHE@Q@O?OCI_@GMEKI_AB_A?Yo@IKCIEIIKOEKCKe@}BKs@CQAUE_A@yCFcDVsLDaCD_@kBKW?e@Q_BQNuEDuB","length":70},"routeShortName":"11","routeLongName":"Chic/Faubourg via St-Paul","rentedBike":false,"transitLeg":true,"duration":492.0,"steps":[]},{"startTime":1522690709000,"endTime":1522691053000,"departureDelay":0,"arrivalDelay":0,"realTime":false,"distance":442.134,"pathway":false,"mode":"WALK","route":"","agencyTimeZoneOffset":-14400000,"interlineWithPreviousLeg":false,"from":{"name":"Price / Petit","stopId":"1:442","stopCode":"442","lon":-71.069949,"lat":48.42538,"arrival":1522690708000,"departure":1522690709000,"zoneId":"NA","stopIndex":28,"stopSequence":29,"vertexType":"TRANSIT"},"to":{"name":"Destination","lon":-71.068976,"lat":48.428605,"arrival":1522691053000,"orig":"","vertexType":"NORMAL"},"legGeometry":{"points":"ebqfHbzwpL@_@JmEaCO{@GiAISAq@Cy@CA?GAg@C}AKsAEOA","length":15},"rentedBike":false,"transitLeg":false,"duration":344.0,"steps":[{"distance":88.21300000000001,"relativeDirection":"DEPART","streetName":"Rue Price Ouest","absoluteDirection":"EAST","stayOn":false,"area":false,"bogusName":false,"lon":-71.06993762401986,"lat":48.42547428887004,"elevation":[]},{"distance":353.921,"relativeDirection":"LEFT","streetName":"Rue Sainte-Anne","absoluteDirection":"NORTH","stayOn":false,"area":false,"bogusName":false,"lon":-71.06874640000001,"lat":48.4254073,"elevation":[]}]}],"tooSloped":false},{"duration":2181,"startTime":1522690342000,"endTime":1522692523000,"walkTime":504,"transitTime":1675,"waitingTime":2,"walkDistance":639.7560075138598,"walkLimitExceeded":false,"elevationLost":0.0,"elevationGained":0.0,"transfers":0,"legs":[{"startTime":1522690342000,"endTime":1522690744000,"departureDelay":0,"arrivalDelay":0,"realTime":false,"distance":504.74499999999995,"pathway":false,"mode":"WALK","route":"","agencyTimeZoneOffset":-14400000,"interlineWithPreviousLeg":false,"from":{"name":"Origin","lon":-71.088145,"lat":48.403183,"departure":1522690342000,"orig":"","vertexType":"NORMAL"},"to":{"name":"boul. Barrette / passerelle rue Balzac","stopId":"1:44","stopCode":"44","lon":-71.089717,"lat":48.400646,"arrival":1522690744000,"departure":1522690745000,"zoneId":"NA","stopIndex":30,"stopSequence":31,"vertexType":"TRANSIT"},"legGeometry":{"points":"wwlfHjk{pLjAgGjAt@fAp@v@f@~@j@pBnBAr@i@vClAl@B@RNRLCJ","length":14},"rentedBike":false,"transitLeg":false,"duration":402.0,"steps":[{"distance":106.143,"relativeDirection":"DEPART","streetName":"Rue Jules -Verne","absoluteDirection":"SOUTHEAST","stayOn":false,"area":false,"bogusName":false,"lon":-71.08805136452419,"lat":48.40332472665022,"elevation":[]},{"distance":239.18900000000002,"relativeDirection":"RIGHT","streetName":"Rue Victor-Guimond","absoluteDirection":"SOUTHWEST","stayOn":false,"area":false,"bogusName":false,"lon":-71.0867346,"lat":48.4029413,"elevation":[]},{"distance":80.064,"relativeDirection":"RIGHT","streetName":"Rue Verlaine","absoluteDirection":"WEST","stayOn":false,"area":false,"bogusName":false,"lon":-71.08823190000001,"lat":48.4010387,"elevation":[]},{"distance":74.275,"relativeDirection":"LEFT","streetName":"path","absoluteDirection":"SOUTH","stayOn":false,"area":false,"bogusName":true,"lon":-71.08925380000001,"lat":48.4012559,"elevation":[]},{"distance":5.074,"relativeDirection":"RIGHT","streetName":"bike path","absoluteDirection":"NORTHWEST","stayOn":true,"area":false,"bogusName":true,"lon":-71.0896446,"lat":48.400640800000005,"elevation":[]}]},{"startTime":1522690745000,"endTime":1522690860000,"departureDelay":0,"arrivalDelay":0,"realTime":false,"distance":1698.2474604213025,"pathway":false,"mode":"BUS","route":"14","agencyName":"Société de Transport du Saguenay","agencyUrl":"http://ville.saguenay.ca/fr/services-aux-citoyens/transport-sts","agencyTimeZoneOffset":-14400000,"routeColor":"C0C000","routeType":3,"routeId":"1:14","routeTextColor":"000000","interlineWithPreviousLeg":false,"tripBlockId":"32","headsign":"Talbot / Barrette","agencyId":"0","tripId":"1:218160","serviceDate":"20180402","from":{"name":"boul. Barrette / passerelle rue Balzac","stopId":"1:44","stopCode":"44","lon":-71.089717,"lat":48.400646,"arrival":1522690744000,"departure":1522690745000,"zoneId":"NA","stopIndex":30,"stopSequence":31,"vertexType":"TRANSIT"},"to":{"name":"Roitelets / Sapins","stopId":"1:1543","stopCode":"1543","lon":-71.069553,"lat":48.393375,"arrival":1522690860000,"departure":1522690860000,"zoneId":"NA","stopIndex":35,"stopSequence":36,"vertexType":"TRANSIT"},"legGeometry":{"points":"{glfHdu{pLtGm[j@oCvEoSl@_CxCmLjAeFpCeKrByHfAqCvH_SLa@","length":12},"routeShortName":"14","routeLongName":"Coopérative","rentedBike":false,"transitLeg":true,"duration":115.0,"steps":[]},{"startTime":1522690860000,"endTime":1522692420000,"departureDelay":0,"arrivalDelay":0,"realTime":false,"distance":8950.042524689545,"pathway":false,"mode":"BUS","route":"15","agencyName":"Société de Transport du Saguenay","agencyUrl":"http://ville.saguenay.ca/fr/services-aux-citoyens/transport-sts","agencyTimeZoneOffset":-14400000,"routeColor":"FF00FF","routeType":3,"routeId":"1:15","routeTextColor":"FFFFFF","interlineWithPreviousLeg":true,"tripBlockId":"32","headsign":"Terminus Chicoutimi","agencyId":"0","tripId":"1:218161","serviceDate":"20180402","from":{"name":"Roitelets / Sapins","stopId":"1:1543","stopCode":"1543","lon":-71.069553,"lat":48.393375,"arrival":1522690860000,"departure":1522690860000,"zoneId":"NA","stopIndex":0,"stopSequence":1,"vertexType":"TRANSIT"},"to":{"name":"Sainte-Anne / Racine","stopId":"1:558","stopCode":"558","lon":-71.068444,"lat":48.427369,"arrival":1522692420000,"departure":1522692421000,"zoneId":"NA","stopIndex":38,"stopSequence":39,"vertexType":"TRANSIT"},"legGeometry":{"points":"_zjfHfwwpLx@}BHa@NaADq@@y@Cy@I{@Ka@O[Sg@c@mAWwAMyA?EC]?wABuABmFB{@BmDFuH@i@F[FsC@c@TuGEGVsHPuDLuBXsFDoA?W@]Cu@GcAKu@Q_ASo@a@y@a@o@MOUUeCqBiDsDqE{EiAcAcB_AqBgA_AQaBSaBG_@Bu@FG?h@fNKnDpCfBkAzDgA}@y@q@sDy@GAeGT~@~KKrKyAnL[hBUxAm@nCcAlDeCvGmA|CUr@}@~A_@\\_DvCEZcA|@UP_@d@Yl@oBdFeCxG_CfGYVQXS\\dK|HlFZbC\\p@zA\\rB@hBiArG{BNw@FiG}@iDwAECcCcBo@y@sEeGe@o@qAa@m@MoB?C@}BZwAc@oA_Bs@gDCKZ{Di@QECc@_@sAkAoBwB_EcE{A_BoAmAk@o@cCaCkIkIaJaJUUwBaCj@wCjAsCzGoG_CoHL{D_@kAqD{CQr@iAcAy@w@L{@wAuA_B_B_EpLDh@NbBVvCIxBg@`Am@l@Sb@a@rAqDqDmEkE]a@kAqAU|@WnKG|DGxDOdPKvJU|F?XQlJC~@ChAIzEcCO","length":168},"routeShortName":"15","routeLongName":"Term. Chic / Costco","rentedBike":false,"transitLeg":true,"duration":1560.0,"steps":[]},{"startTime":1522692421000,"endTime":1522692523000,"departureDelay":0,"arrivalDelay":0,"realTime":false,"distance":134.858,"pathway":false,"mode":"WALK","route":"","agencyTimeZoneOffset":-14400000,"interlineWithPreviousLeg":false,"from":{"name":"Sainte-Anne / Racine","stopId":"1:558","stopCode":"558","lon":-71.068444,"lat":48.427369,"arrival":1522692420000,"departure":1522692421000,"zoneId":"NA","stopIndex":38,"stopSequence":39,"vertexType":"TRANSIT"},"to":{"name":"Destination","lon":-71.068976,"lat":48.428605,"arrival":1522692523000,"orig":"","vertexType":"NORMAL"},"legGeometry":{"points":"anqfHhqwpLGAg@C}AKsAEOA","length":6},"rentedBike":false,"transitLeg":false,"duration":102.0,"steps":[{"distance":134.858,"relativeDirection":"DEPART","streetName":"Rue Sainte-Anne","absoluteDirection":"NORTH","stayOn":false,"area":false,"bogusName":false,"lon":-71.06852127104082,"lat":48.427371387668245,"elevation":[]}]}],"tooSloped":false},{"duration":2081,"startTime":1522690667000,"endTime":1522692748000,"walkTime":638,"transitTime":1441,"waitingTime":2,"walkDistance":812.2148420992341,"walkLimitExceeded":false,"elevationLost":0.0,"elevationGained":0.0,"transfers":0,"legs":[{"startTime":1522690667000,"endTime":1522691038000,"departureDelay":0,"arrivalDelay":0,"realTime":false,"distance":471.90399999999994,"pathway":false,"mode":"WALK","route":"","agencyTimeZoneOffset":-14400000,"interlineWithPreviousLeg":false,"from":{"name":"Origin","lon":-71.088145,"lat":48.403183,"departure":1522690667000,"orig":"","vertexType":"NORMAL"},"to":{"name":"boul. Barrette passerelle Verlaine","stopId":"1:1899","stopCode":"1899","lon":-71.089455,"lat":48.400859,"arrival":1522691038000,"departure":1522691039000,"zoneId":"NA","stopIndex":5,"stopSequence":6,"vertexType":"TRANSIT"},"legGeometry":{"points":"wwlfHjk{pLjAgGjAt@fAp@v@f@~@j@pBnBAr@i@vClAl@","length":10},"rentedBike":false,"transitLeg":false,"duration":371.0,"steps":[{"distance":106.143,"relativeDirection":"DEPART","streetName":"Rue Jules -Verne","absoluteDirection":"SOUTHEAST","stayOn":false,"area":false,"bogusName":false,"lon":-71.08805136452419,"lat":48.40332472665022,"elevation":[]},{"distance":239.18900000000002,"relativeDirection":"RIGHT","streetName":"Rue Victor-Guimond","absoluteDirection":"SOUTHWEST","stayOn":false,"area":false,"bogusName":false,"lon":-71.0867346,"lat":48.4029413,"elevation":[]},{"distance":80.064,"relativeDirection":"RIGHT","streetName":"Rue Verlaine","absoluteDirection":"WEST","stayOn":false,"area":false,"bogusName":false,"lon":-71.08823190000001,"lat":48.4010387,"elevation":[]},{"distance":46.508,"relativeDirection":"LEFT","streetName":"path","absoluteDirection":"SOUTH","stayOn":false,"area":false,"bogusName":true,"lon":-71.08925380000001,"lat":48.4012559,"elevation":[]}]},{"startTime":1522691039000,"endTime":1522692480000,"departureDelay":0,"arrivalDelay":0,"realTime":false,"distance":7925.605676294775,"pathway":false,"mode":"BUS","route":"14","agencyName":"Société de Transport du Saguenay","agencyUrl":"http://ville.saguenay.ca/fr/services-aux-citoyens/transport-sts","agencyTimeZoneOffset":-14400000,"routeColor":"C0C000","routeType":3,"routeId":"1:14","routeTextColor":"000000","interlineWithPreviousLeg":false,"tripBlockId":"33","headsign":"Terminus Chicoutimi","agencyId":"0","tripId":"1:218186","serviceDate":"20180402","from":{"name":"boul. Barrette passerelle Verlaine","stopId":"1:1899","stopCode":"1899","lon":-71.089455,"lat":48.400859,"arrival":1522691038000,"departure":1522691039000,"zoneId":"NA","stopIndex":5,"stopSequence":6,"vertexType":"TRANSIT"},"to":{"name":"Terminus Chicoutimi","stopId":"1:1289","stopCode":"1289","lon":-71.066163,"lat":48.428677,"arrival":1522692480000,"departure":1522692481000,"zoneId":"NA","stopIndex":37,"stopSequence":38,"vertexType":"TRANSIT"},"legGeometry":{"points":"qglfHrt{pLaDxOdFtFhCtCdDY|F_On@aB`B_GNoBvAyT|@sNuAyAuF}F}AaB_BkAC@qC\\gAWiBwBiKgMiCwEgEyHCGy@uB}@rAa@nAc@lFEf@mGvUYfAqCs@ICMCqFmDc@s@mAkBuEoESUgAhDiAfD}@zDyAcA_@Um@U{AWgB_Au@s@EEsBkCqFgF{IiI][aBhE}@}@oBmBwE{EwE{Ej@mBZeAa@SyEQg@CPcALuCx@{b@t@{[XoDd@sBl@iB~@gA`G{F{A{D_@sBFqDOq@iG{FGIoCkCgBgBsDpLHzBBT`@~COnBQf@gAjAg@bBuDmDmFgFa@_@w@s@CfAOrBEtAGbA?jBQtC?|@ExKMdIG~EUnLEhC}CKkBOkCOYbC","length":107},"routeShortName":"14","routeLongName":"Coopérative","rentedBike":false,"transitLeg":true,"duration":1441.0,"steps":[]},{"startTime":1522692481000,"endTime":1522692748000,"departureDelay":0,"arrivalDelay":0,"realTime":false,"distance":340.124,"pathway":false,"mode":"WALK","route":"","agencyTimeZoneOffset":-14400000,"interlineWithPreviousLeg":false,"from":{"name":"Terminus Chicoutimi","stopId":"1:1289","stopCode":"1289","lon":-71.066163,"lat":48.428677,"arrival":1522692480000,"departure":1522692481000,"zoneId":"NA","stopIndex":37,"stopSequence":38,"vertexType":"TRANSIT"},"to":{"name":"Destination","lon":-71.068976,"lat":48.428605,"arrival":1522692748000,"orig":"","vertexType":"NORMAL"},"legGeometry":{"points":"{uqfHb~vpLbAJR@JDb@LQtGAv@Aj@EvDsAEOA","length":11},"rentedBike":false,"transitLeg":false,"duration":267.0,"steps":[{"distance":77.207,"relativeDirection":"DEPART","streetName":"Rue Morin","absoluteDirection":"SOUTH","stayOn":false,"area":false,"bogusName":false,"lon":-71.0654590096484,"lat":48.428628638946556,"elevation":[]},{"distance":207.675,"relativeDirection":"RIGHT","streetName":"Rue Racine Est","absoluteDirection":"WEST","stayOn":false,"area":false,"bogusName":false,"lon":-71.0656238,"lat":48.4279449,"elevation":[]},{"distance":55.242,"relativeDirection":"RIGHT","streetName":"Rue Sainte-Anne","absoluteDirection":"NORTH","stayOn":false,"area":false,"bogusName":false,"lon":-71.06843,"lat":48.42808470000001,"elevation":[]}]}],"tooSloped":false}]},"debugOutput":{"precalculationTime":34,"pathCalculationTime":26,"pathTimes":[16,5,5],"renderingTime":0,"totalTime":60,"timedOut":false},"elevationMetadata":{"ellipsoidToGeoidDifference":-28.885904201182168,"geoidElevation":false}}