{"requestParameters":{"date":"2018/04/02","walkSpeed":"1.33","walkReluctance":"2.0","fromPlace":"48.396368,-71.087607","maxWalkDistance":"3000","waitReluctance":"1.0","carSpeed":"33","numItineraries":"3","waitAtBeginningFactor":"0.4","mode":"TRANSIT,WALK","ignoreRealtimeUpdates":"false","stairsReluctance":"2.0","toPlace":"48.443713,-71.068053","time":"7:45:00"},"plan":{"date":1522669500000,"from":{"name":"Origin","lon":-71.087607,"lat":48.396368,"orig":"","vertexType":"NORMAL"},"to":{"name":"Destination","lon":-71.068053,"lat":48.443713,"orig":"","vertexType":"NORMAL"},"itineraries":[{"duration":2265,"startTime":1522671215000,"endTime":1522673480000,"walkTime":196,"transitTime":1647,"waitingTime":422,"walkDistance":252.91008270569944,"walkLimitExceeded":false,"elevationLost":0.0,"elevationGained":0.0,"transfers":1,"legs":[{"startTime":1522671215000,"endTime":1522671309000,"departureDelay":0,"arrivalDelay":0,"realTime":false,"distance":123.92,"pathway":false,"mode":"WALK","route":"","agencyTimeZoneOffset":-14400000,"interlineWithPreviousLeg":false,"from":{"name":"Origin","lon":-71.087607,"lat":48.396368,"departure":1522671215000,"orig":"","vertexType":"NORMAL"},"to":{"name":"Malraux / Antonin Artaud","stopId":"1:1592","stopCode":"1592","lon":-71.089203,"lat":48.396726,"arrival":1522671309000,"departure":1522671310000,"zoneId":"NA","stopIndex":8,"stopSequence":9,"vertexType":"TRANSIT"},"legGeometry":{"points":"imkfHdh{pLs@dI","length":2},"rentedBike":false,"transitLeg":false,"duration":94.0,"steps":[{"distance":123.92,"relativeDirection":"DEPART","streetName":"Rue Malraux","absoluteDirection":"WEST","stayOn":false,"area":false,"bogusName":false,"lon":-71.08754677926756,"lat":48.396531246373314,"elevation":[]}]},{"startTime":1522671310000,"endTime":1522672680000,"departureDelay":0,"arrivalDelay":0,"realTime":false,"distance":7065.91592369521,"pathway":false,"mode":"BUS","route":"14","agencyName":"Société de Transport du Saguenay","agencyUrl":"http://ville.saguenay.ca/fr/services-aux-citoyens/transport-sts","agencyTimeZoneOffset":-14400000,"routeColor":"C0C000","routeType":3,"routeId":"1:14","routeTextColor":"000000","interlineWithPreviousLeg":false,"tripBlockId":"31","headsign":"Terminus Chicoutimi","agencyId":"0","tripId":"1:218125","serviceDate":"20180402","from":{"name":"Malraux / Antonin Artaud","stopId":"1:1592","stopCode":"1592","lon":-71.089203,"lat":48.396726,"arrival":1522671309000,"departure":1522671310000,"zoneId":"NA","stopIndex":8,"stopSequence":9,"vertexType":"TRANSIT"},"to":{"name":"Terminus Chicoutimi","stopId":"1:1289","stopCode":"1289","lon":-71.066163,"lat":48.428677,"arrival":1522672680000,"departure":1522673100000,"zoneId":"NA","stopIndex":37,"stopSequence":38,"vertexType":"TRANSIT"},"legGeometry":{"points":"}nkfHlr{pLvAyT|@sNuAyAuF}F}AaB_BkAC@qC\\gAWiBwBiKgMiCwEgEyHCGy@uB}@rAa@nAc@lFEf@mGvUYfAqCs@ICMCqFmDc@s@mAkBuEoESUgAhDiAfD}@zDyAcA_@Um@U{AWgB_Au@s@EEsBkCqFgF{IiI][aBhE}@}@oBmBwE{EwE{Ej@mBZeAa@SyEQg@CPcALuCx@{b@t@{[XoDd@sBl@iB~@gA`G{F{A{D_@sBFqDOq@iG{FGIoCkCgBgBsDpLHzBBT`@~COnBQf@gAjAg@bBuDmDmFgFa@_@w@s@CfAOrBEtAGbA?jBQtC?|@ExKMdIG~EUnLEhC}CKkBOkCOYbC","length":99},"routeShortName":"14","routeLongName":"Coopérative","rentedBike":false,"transitLeg":true,"duration":1370.0,"steps":[]},{"startTime":1522673100000,"endTime":1522673377000,"departureDelay":0,"arrivalDelay":0,"realTime":false,"distance":1866.894002566487,"pathway":false,"mode":"BUS","route":"22","agencyName":"Société de Transport du Saguenay","agencyUrl":"http://ville.saguenay.ca/fr/services-aux-citoyens/transport-sts","agencyTimeZoneOffset":-14400000,"routeColor":"C0C000","routeType":3,"routeId":"1:22","routeTextColor":"000000","interlineWithPreviousLeg":false,"tripBlockId":"1","headsign":"Terminus Chicoutimi","agencyId":"0","tripId":"1:217134","serviceDate":"20180402","from":{"name":"Terminus Chicoutimi","stopId":"1:1289","stopCode":"1289","lon":-71.066163,"lat":48.428677,"arrival":1522672680000,"departure":1522673100000,"zoneId":"NA","stopIndex":0,"stopSequence":1,"vertexType":"TRANSIT"},"to":{"name":"Delisle / Pépin","stopId":"1:100","stopCode":"100","lon":-71.069702,"lat":48.443741,"arrival":1522673377000,"departure":1522673378000,"zoneId":"NA","stopIndex":2,"stopSequence":3,"vertexType":"TRANSIT"},"legGeometry":{"points":"evqfHzcwpLg@?UhKxDVOhHMrH~CYhBBInAKXSNg@L{JHgBMoA[s@Usb@gS}@g@u@Su@Ia@Ck@Dm@HwAf@c@VeAx@iAlAU^[d@eLtTsAvBMJYF[EMIQ]y@wB[y@[{@_B{D{@uBe@gAO}AGw@","length":44},"routeShortName":"22","routeLongName":"Vanier","rentedBike":false,"transitLeg":true,"duration":277.0,"steps":[]},{"startTime":1522673378000,"endTime":1522673480000,"departureDelay":0,"arrivalDelay":0,"realTime":false,"distance":128.957,"pathway":false,"mode":"WALK","route":"","agencyTimeZoneOffset":-14400000,"interlineWithPreviousLeg":false,"from":{"name":"Delisle / Pépin","stopId":"1:100","stopCode":"100","lon":-71.069702,"lat":48.443741,"arrival":1522673377000,"departure":1522673378000,"zoneId":"NA","stopIndex":2,"stopSequence":3,"vertexType":"TRANSIT"},"to":{"name":"Destination","lon":-71.068053,"lat":48.443713,"arrival":1522673480000,"orig":"","vertexType":"NORMAL"},"legGeometry":{"points":"{ttfHxxwpLO{BQoBbAY","length":4},"rentedBike":false,"transitLeg":false,"duration":102.0,"steps":[{"distance":89.437,"relativeDirection":"DEPART","streetName":"Rue Delisle","absoluteDirection":"EAST","stayOn":false,"area":false,"bogusName":false,"lon":-71.06972755596824,"lat":48.44382094111548,"elevation":[]},{"distance":39.52,"relativeDirection":"RIGHT","streetName":"path","absoluteDirection":"SOUTH","stayOn":false,"area":false,"bogusName":false,"lon":-71.0685442,"lat":48.4439961,"elevation":[]}]}],"tooSloped":false},{"duration":3055,"startTime":1522670742000,"endTime":1522673797000,"walkTime":595,"transitTime":2038,"waitingTime":422,"walkDistance":761.3323984943241,"walkLimitExceeded":false,"elevationLost":0.0,"elevationGained":0.0,"transfers":1,"legs":[{"startTime":1522670742000,"endTime":1522670881000,"departureDelay":0,"arrivalDelay":0,"realTime":false,"distance":181.047,"pathway":false,"mode":"WALK","route":"","agencyTimeZoneOffset":-14400000,"interlineWithPreviousLeg":false,"from":{"name":"Origin","lon":-71.087607,"lat":48.396368,"departure":1522670742000,"orig":"","vertexType":"NORMAL"},"to":{"name":"Malraux / Antonin Artaud","stopId":"1:1602","stopCode":"1602","lon":-71.08988,"lat":48.396998,"arrival":1522670881000,"departure":1522670882000,"zoneId":"NA","stopIndex":26,"stopSequence":27,"vertexType":"TRANSIT"},"legGeometry":{"points":"imkfHdh{pLs@dIUdCCN","length":4},"rentedBike":false,"transitLeg":false,"duration":139.0,"steps":[{"distance":181.047,"relativeDirection":"DEPART","streetName":"Rue Malraux","absoluteDirection":"WEST","stayOn":false,"area":false,"bogusName":false,"lon":-71.08754677926756,"lat":48.396531246373314,"elevation":[]}]},{"startTime":1522670882000,"endTime":1522671060000,"departureDelay":0,"arrivalDelay":0,"realTime":false,"distance":2467.817462383132,"pathway":false,"mode":"BUS","route":"14","agencyName":"Société de Transport du Saguenay","agencyUrl":"http://ville.saguenay.ca/fr/services-aux-citoyens/transport-sts","agencyTimeZoneOffset":-14400000,"routeColor":"C0C000","routeType":3,"routeId":"1:14","routeTextColor":"000000","interlineWithPreviousLeg":false,"tripBlockId":"30","headsign":"Talbot / Barrette","agencyId":"0","tripId":"1:218089","serviceDate":"20180402","from":{"name":"Malraux / Antonin Artaud","stopId":"1:1602","stopCode":"1602","lon":-71.08988,"lat":48.396998,"arrival":1522670881000,"departure":1522670882000,"zoneId":"NA","stopIndex":26,"stopSequence":27,"vertexType":"TRANSIT"},"to":{"name":"Roitelets / Sapins","stopId":"1:1543","stopCode":"1543","lon":-71.069553,"lat":48.393375,"arrival":1522671060000,"departure":1522671060000,"zoneId":"NA","stopIndex":35,"stopSequence":36,"vertexType":"TRANSIT"},"legGeometry":{"points":"gpkfHvv{pLK~@qBxFqB|FcC~GyC\\aDkDcFsF~CgOtGm[j@oCvEoSl@_CxCmLjAeFpCeKrByHfAqCvH_SLa@","length":20},"routeShortName":"14","routeLongName":"Coopérative","rentedBike":false,"transitLeg":true,"duration":178.0,"steps":[]},{"startTime":1522671060000,"endTime":1522672680000,"departureDelay":0,"arrivalDelay":0,"realTime":false,"distance":9172.482542384352,"pathway":false,"mode":"BUS","route":"15","agencyName":"Société de Transport du Saguenay","agencyUrl":"http://ville.saguenay.ca/fr/services-aux-citoyens/transport-sts","agencyTimeZoneOffset":-14400000,"routeColor":"FF00FF","routeType":3,"routeId":"1:15","routeTextColor":"FFFFFF","interlineWithPreviousLeg":true,"tripBlockId":"30","headsign":"Terminus Chicoutimi","agencyId":"0","tripId":"1:218090","serviceDate":"20180402","from":{"name":"Roitelets / Sapins","stopId":"1:1543","stopCode":"1543","lon":-71.069553,"lat":48.393375,"arrival":1522671060000,"departure":1522671060000,"zoneId":"NA","stopIndex":0,"stopSequence":1,"vertexType":"TRANSIT"},"to":{"name":"Terminus Chicoutimi","stopId":"1:1289","stopCode":"1289","lon":-71.066163,"lat":48.428677,"arrival":1522672680000,"departure":1522673100000,"zoneId":"NA","stopIndex":39,"stopSequence":40,"vertexType":"TRANSIT"},"legGeometry":{"points":"_zjfHfwwpLx@}BHa@NaADq@@y@Cy@I{@Ka@O[Sg@c@mAWwAMyA?EC]?wABuABmFB{@BmDFuH@i@F[FsC@c@TuGEGVsHPuDLuBXsFDoA?W@]Cu@GcAKu@Q_ASo@a@y@a@o@MOUUeCqBiDsDqE{EiAcAcB_AqBgA_AQaBSaBG_@Bu@FG?h@fNKnDpCfBkAzDgA}@y@q@sDy@GAeGT~@~KKrKyAnL[hBUxAm@nCcAlDeCvGmA|CUr@}@~A_@\\_DvCEZcA|@UP_@d@Yl@oBdFeCxG_CfGYVQXS\\dK|HlFZbC\\p@zA\\rB@hBiArG{BNw@FiG}@iDwAECcCcBo@y@sEeGe@o@qAa@m@MoB?C@}BZwAc@oA_Bs@gDCKZ{Di@QECc@_@sAkAoBwB_EcE{A_BoAmAk@o@cCaCkIkIaJaJUUwBaCj@wCjAsCzGoG_CoHL{D_@kAqD{CQr@iAcAy@w@L{@wAuA_B_B_EpLDh@NbBVvCIxBg@`Am@l@Sb@a@rAqDqDmEkE]a@kAqAU|@WnKG|DGxDOdPKvJU|F?XQlJC~@ChAIzEcCOaIi@VwL","length":170},"routeShortName":"15","routeLongName":"Term. Chic / Costco","rentedBike":false,"transitLeg":true,"duration":1620.0,"steps":[]},{"startTime":1522673100000,"endTime":1522673340000,"departureDelay":0,"arrivalDelay":0,"realTime":false,"distance":1551.778432484001,"pathway":false,"mode":"BUS","route":"20","agencyName":"Société de Transport du Saguenay","agencyUrl":"http://ville.saguenay.ca/fr/services-aux-citoyens/transport-sts","agencyTimeZoneOffset":-14400000,"routeColor":"0000FF","routeType":3,"routeId":"1:20","routeTextColor":"FFFFFF","interlineWithPreviousLeg":false,"tripBlockId":"3","headsign":"Terminus Chicoutimi","agencyId":"0","tripId":"1:217191","serviceDate":"20180402","from":{"name":"Terminus Chicoutimi","stopId":"1:1289","stopCode":"1289","lon":-71.066163,"lat":48.428677,"arrival":1522672680000,"departure":1522673100000,"zoneId":"NA","stopIndex":0,"stopSequence":1,"vertexType":"TRANSIT"},"to":{"name":"Des Champs / boul. Ste-Geneviève","stopId":"1:676","stopCode":"676","lon":-71.074674,"lat":48.441439,"arrival":1522673340000,"departure":1522673341000,"zoneId":"NA","stopIndex":1,"stopSequence":2,"vertexType":"TRANSIT"},"legGeometry":{"points":"evqfHzcwpLg@?UhKwAIWACp@O\\WjGOfGCRK^KJMHQB_AMg@Gw`@eR}@g@u@Su@Ia@Ck@Dm@HwAf@c@VeAx@iAlAU^[d@eLtTsAvBg@bAPVd@t@PNNF","length":36},"routeShortName":"20","routeLongName":"Sainte-Claire","rentedBike":false,"transitLeg":true,"duration":240.0,"steps":[]},{"startTime":1522673341000,"endTime":1522673797000,"departureDelay":0,"arrivalDelay":0,"realTime":false,"distance":580.226,"pathway":false,"mode":"WALK","route":"","agencyTimeZoneOffset":-14400000,"interlineWithPreviousLeg":false,"from":{"name":"Des Champs / boul. Ste-Geneviève","stopId":"1:676","stopCode":"676","lon":-71.074674,"lat":48.441439,"arrival":1522673340000,"departure":1522673341000,"zoneId":"NA","stopIndex":1,"stopSequence":2,"vertexType":"TRANSIT"},"to":{"name":"Destination","lon":-71.068053,"lat":48.443713,"arrival":1522673797000,"orig":"","vertexType":"NORMAL"},"legGeometry":{"points":"{etfHxvxpL[MMO_@c@SSu@mBsAkD?A]{@_B}Du@oB?AO]M]KYKs@Ea@Gu@O{BQoBbAY","length":21},"rentedBike":false,"transitLeg":false,"duration":456.0,"steps":[{"distance":417.939,"relativeDirection":"DEPART","streetName":"Rue des Champs","absoluteDirection":"NORTH","stayOn":false,"area":false,"bogusName":false,"lon":-71.074529,"lat":48.441429,"elevation":[]},{"distance":122.767,"relativeDirection":"CONTINUE","streetName":"Rue Delisle","absoluteDirection":"EAST","stayOn":false,"area":false,"bogusName":false,"lon":-71.0701683,"lat":48.443755,"elevation":[]},{"distance":39.52,"relativeDirection":"RIGHT","streetName":"path","absoluteDirection":"SOUTH","stayOn":false,"area":false,"bogusName":false,"lon":-71.0685442,"lat":48.4439961,"elevation":[]}]}],"tooSloped":false},{"duration":2265,"startTime":1522673015000,"endTime":1522675280000,"walkTime":196,"transitTime":1647,"waitingTime":422,"walkDistance":252.91008270569944,"walkLimitExceeded":false,"elevationLost":0.0,"elevationGained":0.0,"transfers":1,"legs":[{"startTime":1522673015000,"endTime":1522673109000,"departureDelay":0,"arrivalDelay":0,"realTime":false,"distance":123.92,"pathway":false,"mode":"WALK","route":"","agencyTimeZoneOffset":-14400000,"interlineWithPreviousLeg":false,"from":{"name":"Origin","lon":-71.087607,"lat":48.396368,"departure":1522673015000,"orig":"","vertexType":"NORMAL"},"to":{"name":"Malraux / Antonin Artaud","stopId":"1:1592","stopCode":"1592","lon":-71.089203,"lat":48.396726,"arrival":1522673109000,"departure":1522673110000,"zoneId":"NA","stopIndex":8,"stopSequence":9,"vertexType":"TRANSIT"},"legGeometry":{"points":"imkfHdh{pLs@dI","length":2},"rentedBike":false,"transitLeg":false,"duration":94.0,"steps":[{"distance":123.92,"relativeDirection":"DEPART","streetName":"Rue Malraux","absoluteDirection":"WEST","stayOn":false,"area":false,"bogusName":false,"lon":-71.08754677926756,"lat":48.396531246373314,"elevation":[]}]},{"startTime":1522673110000,"endTime":1522674480000,"departureDelay":0,"arrivalDelay":0,"realTime":false,"distance":7065.91592369521,"pathway":false,"mode":"BUS","route":"14","agencyName":"Société de Transport du Saguenay","agencyUrl":"http://ville.saguenay.ca/fr/services-aux-citoyens/transport-sts","agencyTimeZoneOffset":-14400000,"routeColor":"C0C000","routeType":3,"routeId":"1:14","routeTextColor":"000000","interlineWithPreviousLeg":false,"tripBlockId":"33","headsign":"Terminus Chicoutimi","agencyId":"0","tripId":"1:218176","serviceDate":"20180402","from":{"name":"Malraux / Antonin Artaud","stopId":"1:1592","stopCode":"1592","lon":-71.089203,"lat":48.396726,"arrival":1522673109000,"departure":1522673110000,"zoneId":"NA","stopIndex":8,"stopSequence":9,"vertexType":"TRANSIT"},"to":{"name":"Terminus Chicoutimi","stopId":"1:1289","stopCode":"1289","lon":-71.066163,"lat":48.428677,"arrival":1522674480000,"departure":1522674900000,"zoneId":"NA","stopIndex":37,"stopSequence":38,"vertexType":"TRANSIT"},"legGeometry":{"points":"}nkfHlr{pLvAyT|@sNuAyAuF}F}AaB_BkAC@qC\\gAWiBwBiKgMiCwEgEyHCGy@uB}@rAa@nAc@lFEf@mGvUYfAqCs@ICMCqFmDc@s@mAkBuEoESUgAhDiAfD}@zDyAcA_@Um@U{AWgB_Au@s@EEsBkCqFgF{IiI][aBhE}@}@oBmBwE{EwE{Ej@mBZeAa@SyEQg@CPcALuCx@{b@t@{[XoDd@sBl@iB~@gA`G{F{A{D_@sBFqDOq@iG{FGIoCkCgBgBsDpLHzBBT`@~COnBQf@gAjAg@bBuDmDmFgFa@_@w@s@CfAOrBEtAGbA?jBQtC?|@ExKMdIG~EUnLEhC}CKkBOkCOYbC","length":99},"routeShortName":"14","routeLongName":"Coopérative","rentedBike":false,"transitLeg":true,"duration":1370.0,"steps":[]},{"startTime":1522674900000,"endTime":1522675177000,"departureDelay":0,"arrivalDelay":0,"realTime":false,"distance":1866.894002566487,"pathway":false,"mode":"BUS","route":"22","agencyName":"Société de Transport du Saguenay","agencyUrl":"http://ville.saguenay.ca/fr/services-aux-citoyens/transport-sts","agencyTimeZoneOffset":-14400000,"routeColor":"C0C000","routeType":3,"routeId":"1:22","routeTextColor":"000000","interlineWithPreviousLeg":false,"tripBlockId":"3","headsign":"Terminus Chicoutimi","agencyId":"0","tripId":"1:217192","serviceDate":"20180402","from":{"name":"Terminus Chicoutimi","stopId":"1:1289","stopCode":"1289","lon":-71.066163,"lat":48.428677,"arrival":1522674480000,"departure":1522674900000,"zoneId":"NA","stopIndex":0,"stopSequence":1,"vertexType":"TRANSIT"},"to":{"name":"Delisle / Pépin","stopId":"1:100","stopCode":"100","lon":-71.069702,"lat":48.443741,"arrival":1522675177000,"departure":1522675178000,"zoneId":"NA","stopIndex":2,"stopSequence":3,"vertexType":"TRANSIT"},"legGeometry":{"points":"evqfHzcwpLg@?UhKxDVOhHMrH~CYhBBInAKXSNg@L{JHgBMoA[s@Usb@gS}@g@u@Su@Ia@Ck@Dm@HwAf@c@VeAx@iAlAU^[d@eLtTsAvBMJYF[EMIQ]y@wB[y@[{@_B{D{@uBe@gAO}AGw@","length":44},"routeShortName":"22","routeLongName":"Vanier","rentedBike":false,"transitLeg":true,"duration":277.0,"steps":[]},{"startTime":1522675178000,"endTime":1522675280000,"departureDelay":0,"arrivalDelay":0,"realTime":false,"distance":128.957,"pathway":false,"mode":"WALK","route":"","agencyTimeZoneOffset":-14400000,"interlineWithPreviousLeg":false,"from":{"name":"Delisle / Pépin","stopId":"1:100","stopCode":"100","lon":-71.069702,"lat":48.443741,"arrival":1522675177000,"departure":1522675178000,"zoneId":"NA","stopIndex":2,"stopSequence":3,"vertexType":"TRANSIT"},"to":{"name":"Destination","lon":-71.068053,"lat":48.443713,"arrival":1522675280000,"orig":"","vertexType":"NORMAL"},"legGeometry":{"points":"{ttfHxxwpLO{BQoBbAY","length":4},"rentedBike":false,"transitLeg":false,"duration":102.0,"steps":[{"distance":89.437,"relativeDirection":"DEPART","streetName":"Rue Delisle","absoluteDirection":"EAST","stayOn":false,"area":false,"bogusName":false,"lon":-71.06972755596824,"lat":48.44382094111548,"elevation":[]},{"distance":39.52,"relativeDirection":"RIGHT","streetName":"path","absoluteDirection":"SOUTH","stayOn":false,"area":false,"bogusName":false,"lon":-71.0685442,"lat":48.4439961,"elevation":[]}]}],"tooSloped":false}]},"debugOutput":{"precalculationTime":20,"pathCalculationTime":42,"pathTimes":[21,11,10],"renderingTime":0,"totalTime":62,"timedOut":false},"elevationMetadata":{"ellipsoidToGeoidDifference":-28.885904201182168,"geoidElevation":false}}