{"requestParameters":{"date":"2018/04/02","walkSpeed":"1.33","walkReluctance":"2.0","fromPlace":"48.396633,-71.086867","maxWalkDistance":"3000","waitReluctance":"1.0","carSpeed":"33","numItineraries":"3","waitAtBeginningFactor":"0.4","mode":"TRANSIT,WALK","ignoreRealtimeUpdates":"false","stairsReluctance":"2.0","toPlace":"48.401445,-71.104144","time":"12:50:00"},"plan":{"date":1522687800000,"from":{"name":"Origin","lon":-71.086867,"lat":48.396633,"orig":"","vertexType":"NORMAL"},"to":{"name":"Destination","lon":-71.104144,"lat":48.401445,"orig":"","vertexType":"NORMAL"},"itineraries":[{"duration":1719,"startTime":1522687800000,"endTime":1522689519000,"walkTime":1719,"transitTime":0,"waitingTime":0,"walkDistance":2229.9711954829727,"walkLimitExceeded":false,"elevationLost":0.0,"elevationGained":0.0,"transfers":0,"legs":[{"startTime":1522687800000,"endTime":1522689519000,"departureDelay":0,"arrivalDelay":0,"realTime":false,"distance":2229.793,"pathway":false,"mode":"WALK","route":"","agencyTimeZoneOffset":-14400000,"interlineWithPreviousLeg":false,"from":{"name":"Origin","lon":-71.086867,"lat":48.396633,"departure":1522687800000,"orig":"","vertexType":"NORMAL"},"to":{"name":"Destination","lon":-71.104144,"lat":48.401445,"arrival":1522689519000,"orig":"","vertexType":"NORMAL"},"legGeometry":{"points":"ulkfHld{pLgA|LUdCCNMl@eBrFMZADqBzFEJiCdGYLqBDc@S}@kAaAeAEEkF{Fa@jAA?{EvMy@tBGPsCrHpA~AbAjAf@h@z@dA~@dAf@j@HJvA`BLNf@l@hAnAvAbBxAdBFFd@h@NPeGbP","length":41},"rentedBike":false,"transitLeg":false,"duration":1719.0,"steps":[{"distance":963.241,"relativeDirection":"DEPART","streetName":"Rue Malraux","absoluteDirection":"WEST","stayOn":false,"area":false,"bogusName":false,"lon":-71.08694088695354,"lat":48.39643270931843,"elevation":[]},{"distance":449.30899999999997,"relativeDirection":"LEFT","streetName":"Boulevard Barrette","absoluteDirection":"NORTHWEST","stayOn":false,"area":false,"bogusName":false,"lon":-71.0921587,"lat":48.401604500000005,"elevation":[]},{"distance":568.2439999999999,"relativeDirection":"LEFT","streetName":"Boulevard Saint-Paul","absoluteDirection":"SOUTHWEST","stayOn":false,"area":false,"bogusName":false,"lon":-71.0971116,"lat":48.4039529,"elevation":[]},{"distance":248.999,"relativeDirection":"RIGHT","streetName":"Rue des Actionnaires","absoluteDirection":"NORTHWEST","stayOn":false,"area":false,"bogusName":false,"lon":-71.1017111,"lat":48.3998554,"elevation":[]}]}],"tooSloped":false},{"duration":1312,"startTime":1522688708000,"endTime":1522690020000,"walkTime":1272,"transitTime":38,"waitingTime":2,"walkDistance":1654.059887214661,"walkLimitExceeded":false,"elevationLost":0.0,"elevationGained":0.0,"transfers":0,"legs":[{"startTime":1522688708000,"endTime":1522688881000,"departureDelay":0,"arrivalDelay":0,"realTime":false,"distance":227.102,"pathway":false,"mode":"WALK","route":"","agencyTimeZoneOffset":-14400000,"interlineWithPreviousLeg":false,"from":{"name":"Origin","lon":-71.086867,"lat":48.396633,"departure":1522688708000,"orig":"","vertexType":"NORMAL"},"to":{"name":"Malraux / Antonin Artaud","stopId":"1:1602","stopCode":"1602","lon":-71.08988,"lat":48.396998,"arrival":1522688881000,"departure":1522688882000,"zoneId":"NA","stopIndex":26,"stopSequence":27,"vertexType":"TRANSIT"},"legGeometry":{"points":"ulkfHld{pLgA|LUdCCN","length":4},"rentedBike":false,"transitLeg":false,"duration":173.0,"steps":[{"distance":227.102,"relativeDirection":"DEPART","streetName":"Rue Malraux","absoluteDirection":"WEST","stayOn":false,"area":false,"bogusName":false,"lon":-71.08694088695354,"lat":48.39643270931843,"elevation":[]}]},{"startTime":1522688882000,"endTime":1522688920000,"departureDelay":0,"arrivalDelay":0,"realTime":false,"distance":497.3559394563484,"pathway":false,"mode":"BUS","route":"14","agencyName":"Société de Transport du Saguenay","agencyUrl":"http://ville.saguenay.ca/fr/services-aux-citoyens/transport-sts","agencyTimeZoneOffset":-14400000,"routeColor":"C0C000","routeType":3,"routeId":"1:14","routeTextColor":"000000","interlineWithPreviousLeg":false,"tripBlockId":"30","headsign":"Talbot / Barrette","agencyId":"0","tripId":"1:218099","serviceDate":"20180402","from":{"name":"Malraux / Antonin Artaud","stopId":"1:1602","stopCode":"1602","lon":-71.08988,"lat":48.396998,"arrival":1522688881000,"departure":1522688882000,"zoneId":"NA","stopIndex":26,"stopSequence":27,"vertexType":"TRANSIT"},"to":{"name":"Malraux / Pagnol","stopId":"1:1978","stopCode":"1978","lon":-71.093388,"lat":48.400416,"arrival":1522688920000,"departure":1522688921000,"zoneId":"NA","stopIndex":29,"stopSequence":30,"vertexType":"TRANSIT"},"legGeometry":{"points":"gpkfHvv{pLK~@qBxFqB|FcC~GyC\\aDkD","length":7},"routeShortName":"14","routeLongName":"Coopérative","rentedBike":false,"transitLeg":true,"duration":38.0,"steps":[]},{"startTime":1522688921000,"endTime":1522690020000,"departureDelay":0,"arrivalDelay":0,"realTime":false,"distance":1426.8530000000003,"pathway":false,"mode":"WALK","route":"","agencyTimeZoneOffset":-14400000,"interlineWithPreviousLeg":false,"from":{"name":"Malraux / Pagnol","stopId":"1:1978","stopCode":"1978","lon":-71.093388,"lat":48.400416,"arrival":1522688920000,"departure":1522688921000,"zoneId":"NA","stopIndex":29,"stopSequence":30,"vertexType":"TRANSIT"},"to":{"name":"Destination","lon":-71.104144,"lat":48.401445,"arrival":1522690020000,"orig":"","vertexType":"NORMAL"},"legGeometry":{"points":"selfHzl|pLkF{Fa@jAA?{EvMy@tBGPsCrHpA~AbAjAf@h@z@dA~@dAf@j@HJvA`BLNf@l@hAnAvAbBxAdBFFd@h@NPeGbP","length":25},"rentedBike":false,"transitLeg":false,"duration":1099.0,"steps":[{"distance":160.301,"relativeDirection":"DEPART","streetName":"Rue Malraux","absoluteDirection":"NORTHEAST","stayOn":false,"area":false,"bogusName":false,"lon":-71.09341079342245,"lat":48.40042668071038,"elevation":[]},{"distance":449.30899999999997,"relativeDirection":"LEFT","streetName":"Boulevard Barrette","absoluteDirection":"NORTHWEST","stayOn":false,"area":false,"bogusName":false,"lon":-71.0921587,"lat":48.401604500000005,"elevation":[]},{"distance":568.2439999999999,"relativeDirection":"LEFT","streetName":"Boulevard Saint-Paul","absoluteDirection":"SOUTHWEST","stayOn":false,"area":false,"bogusName":false,"lon":-71.0971116,"lat":48.4039529,"elevation":[]},{"distance":248.999,"relativeDirection":"RIGHT","streetName":"Rue des Actionnaires","absoluteDirection":"NORTHWEST","stayOn":false,"area":false,"bogusName":false,"lon":-71.1017111,"lat":48.3998554,"elevation":[]}]}],"tooSloped":false},{"duration":1381,"startTime":1522688865000,"endTime":1522690246000,"walkTime":1305,"transitTime":74,"waitingTime":2,"walkDistance":1698.201563905723,"walkLimitExceeded":false,"elevationLost":0.0,"elevationGained":0.0,"transfers":0,"legs":[{"startTime":1522688865000,"endTime":1522690082000,"departureDelay":0,"arrivalDelay":0,"realTime":false,"distance":1581.146,"pathway":false,"mode":"WALK","route":"","agencyTimeZoneOffset":-14400000,"interlineWithPreviousLeg":false,"from":{"name":"Origin","lon":-71.086867,"lat":48.396633,"departure":1522688865000,"orig":"","vertexType":"NORMAL"},"to":{"name":"boul. Barrette / Estacade","stopId":"1:465","stopCode":"465","lon":-71.098983,"lat":48.40478,"arrival":1522690082000,"departure":1522690083000,"zoneId":"NA","stopIndex":15,"stopSequence":16,"vertexType":"TRANSIT"},"legGeometry":{"points":"ulkfHld{pLgA|LUdCCNMl@eBrFMZADqBzFEJiCdGYLqBDc@S}@kAaAeAEEkF{Fa@jAA?{EvMy@tBGPsCrH@b@kBtEg@bBM\\","length":28},"rentedBike":false,"transitLeg":false,"duration":1217.0,"steps":[{"distance":963.241,"relativeDirection":"DEPART","streetName":"Rue Malraux","absoluteDirection":"WEST","stayOn":false,"area":false,"bogusName":false,"lon":-71.08694088695354,"lat":48.39643270931843,"elevation":[]},{"distance":449.30899999999997,"relativeDirection":"LEFT","streetName":"Boulevard Barrette","absoluteDirection":"NORTHWEST","stayOn":false,"area":false,"bogusName":false,"lon":-71.0921587,"lat":48.401604500000005,"elevation":[]},{"distance":168.596,"relativeDirection":"SLIGHTLY_LEFT","streetName":"bike path","absoluteDirection":"WEST","stayOn":false,"area":false,"bogusName":true,"lon":-71.0971116,"lat":48.4039529,"elevation":[]}]},{"startTime":1522690083000,"endTime":1522690157000,"departureDelay":0,"arrivalDelay":0,"realTime":false,"distance":682.8966167959068,"pathway":false,"mode":"BUS","route":"11","agencyName":"Société de Transport du Saguenay","agencyUrl":"http://ville.saguenay.ca/fr/services-aux-citoyens/transport-sts","agencyTimeZoneOffset":-14400000,"routeColor":"FF0000","routeType":3,"routeId":"1:11","routeTextColor":"FFFFFF","interlineWithPreviousLeg":false,"tripBlockId":"36","headsign":"Boul.Royaume/St-Pierre","agencyId":"0","tripId":"1:218290","serviceDate":"20180402","from":{"name":"boul. Barrette / Estacade","stopId":"1:465","stopCode":"465","lon":-71.098983,"lat":48.40478,"arrival":1522690082000,"departure":1522690083000,"zoneId":"NA","stopIndex":15,"stopSequence":16,"vertexType":"TRANSIT"},"to":{"name":"nouveau","stopId":"1:2308","stopCode":"2308","lon":-71.104524,"lat":48.402896,"arrival":1522690157000,"departure":1522690158000,"zoneId":"NA","stopIndex":17,"stopSequence":18,"vertexType":"TRANSIT"},"legGeometry":{"points":"i`mfHdp}pL|CyI~IrJtAzAmKrW","length":5},"routeShortName":"11","routeLongName":"Chic/Faubourg via St-Paul","rentedBike":false,"transitLeg":true,"duration":74.0,"steps":[]},{"startTime":1522690158000,"endTime":1522690246000,"departureDelay":0,"arrivalDelay":0,"realTime":false,"distance":116.93,"pathway":false,"mode":"WALK","route":"","agencyTimeZoneOffset":-14400000,"interlineWithPreviousLeg":false,"from":{"name":"nouveau","stopId":"1:2308","stopCode":"2308","lon":-71.104524,"lat":48.402896,"arrival":1522690157000,"departure":1522690158000,"zoneId":"NA","stopIndex":17,"stopSequence":18,"vertexType":"TRANSIT"},"to":{"name":"Destination","lon":-71.104144,"lat":48.401445,"arrival":1522690246000,"orig":"","vertexType":"NORMAL"},"legGeometry":{"points":"anlfHzy~pLxB_G","length":2},"rentedBike":false,"transitLeg":false,"duration":88.0,"steps":[{"distance":116.93,"relativeDirection":"DEPART","streetName":"Rue des Actionnaires","absoluteDirection":"SOUTHEAST","stayOn":false,"area":false,"bogusName":false,"lon":-71.10573658025407,"lat":48.4017756073907,"elevation":[]}]}],"tooSloped":false}]},"debugOutput":{"precalculationTime":16,"pathCalculationTime":26,"pathTimes":[17,5,4],"renderingTime":0,"totalTime":42,"timedOut":false},"elevationMetadata":{"ellipsoidToGeoidDifference":-28.885904201182168,"geoidElevation":false}}