{"requestParameters":{"date":"2018/04/02","walkSpeed":"1.33","walkReluctance":"2.0","fromPlace":"48.396633,-71.086867","maxWalkDistance":"3000","waitReluctance":"1.0","carSpeed":"33","numItineraries":"3","waitAtBeginningFactor":"0.4","mode":"TRANSIT,WALK","ignoreRealtimeUpdates":"false","stairsReluctance":"2.0","toPlace":"48.410863,-71.067079","time":"7:40:00"},"plan":{"date":1522669200000,"from":{"name":"Origin","lon":-71.086867,"lat":48.396633,"orig":"","vertexType":"NORMAL"},"to":{"name":"Destination","lon":-71.067079,"lat":48.410863,"orig":"","vertexType":"NORMAL"},"itineraries":[{"duration":1121,"startTime":1522669455000,"endTime":1522670576000,"walkTime":1027,"transitTime":92,"waitingTime":2,"walkDistance":1311.2330676634595,"walkLimitExceeded":false,"elevationLost":0.0,"elevationGained":0.0,"transfers":0,"legs":[{"startTime":1522669455000,"endTime":1522669527000,"departureDelay":0,"arrivalDelay":0,"realTime":false,"distance":92.313,"pathway":false,"mode":"WALK","route":"","agencyTimeZoneOffset":-14400000,"interlineWithPreviousLeg":false,"from":{"name":"Origin","lon":-71.086867,"lat":48.396633,"departure":1522669455000,"orig":"","vertexType":"NORMAL"},"to":{"name":"Malraux / Rabelais","stopId":"1:1593","stopCode":"1593","lon":-71.08574,"lat":48.396187,"arrival":1522669527000,"departure":1522669528000,"zoneId":"NA","stopIndex":9,"stopSequence":10,"vertexType":"TRANSIT"},"legGeometry":{"points":"ulkfHld{pLTiCLiB","length":3},"rentedBike":false,"transitLeg":false,"duration":72.0,"steps":[{"distance":92.313,"relativeDirection":"DEPART","streetName":"Rue Malraux","absoluteDirection":"EAST","stayOn":false,"area":false,"bogusName":false,"lon":-71.08694088695354,"lat":48.39643270931843,"elevation":[]}]},{"startTime":1522669528000,"endTime":1522669620000,"departureDelay":0,"arrivalDelay":0,"realTime":false,"distance":1251.762922711788,"pathway":false,"mode":"BUS","route":"14","agencyName":"Société de Transport du Saguenay","agencyUrl":"http://ville.saguenay.ca/fr/services-aux-citoyens/transport-sts","agencyTimeZoneOffset":-14400000,"routeColor":"C0C000","routeType":3,"routeId":"1:14","routeTextColor":"000000","interlineWithPreviousLeg":false,"tripBlockId":"33","headsign":"Terminus Chicoutimi","agencyId":"0","tripId":"1:218174","serviceDate":"20180402","from":{"name":"Malraux / Rabelais","stopId":"1:1593","stopCode":"1593","lon":-71.08574,"lat":48.396187,"arrival":1522669527000,"departure":1522669528000,"zoneId":"NA","stopIndex":9,"stopSequence":10,"vertexType":"TRANSIT"},"to":{"name":"Bégin / Ballantyne","stopId":"1:451","stopCode":"451","lon":-71.07501,"lat":48.403916,"arrival":1522669620000,"departure":1522669621000,"zoneId":"NA","stopIndex":15,"stopSequence":16,"vertexType":"TRANSIT"},"legGeometry":{"points":"elkfHr|zpL|@sNuAyAuF}F}AaB_BkAC@qC\\gAWiBwBiKgMiCwEgEyHCG","length":14},"routeShortName":"14","routeLongName":"Coopérative","rentedBike":false,"transitLeg":true,"duration":92.0,"steps":[]},{"startTime":1522669621000,"endTime":1522670576000,"departureDelay":0,"arrivalDelay":0,"realTime":false,"distance":1218.7430000000002,"pathway":false,"mode":"WALK","route":"","agencyTimeZoneOffset":-14400000,"interlineWithPreviousLeg":false,"from":{"name":"Bégin / Ballantyne","stopId":"1:451","stopCode":"451","lon":-71.07501,"lat":48.403916,"arrival":1522669620000,"departure":1522669621000,"zoneId":"NA","stopIndex":15,"stopSequence":16,"vertexType":"TRANSIT"},"to":{"name":"Destination","lon":-71.067079,"lat":48.410863,"arrival":1522670576000,"orig":"","vertexType":"NORMAL"},"legGeometry":{"points":"s{lfH`zxpL_AmBIUYs@CqAyBBQ@s@Hk@G_BWkB[_Bm@qAg@GCCAu@a@cAy@w@cA?AeB{BuA}AYc@AAk@w@k@OmA]c@?BgB@[@YLsCR@h@qB`AyDYa@q@W[Ia@YQ_@","length":39},"rentedBike":false,"transitLeg":false,"duration":955.0,"steps":[{"distance":118.184,"relativeDirection":"DEPART","streetName":"Rue Bégin","absoluteDirection":"NORTHEAST","stayOn":false,"area":false,"bogusName":false,"lon":-71.07504767716766,"lat":48.40394489025268,"elevation":[]},{"distance":749.5730000000001,"relativeDirection":"LEFT","streetName":"Rue d'Angoulème","absoluteDirection":"NORTH","stayOn":false,"area":false,"bogusName":false,"lon":-71.0737143,"lat":48.404464100000006,"elevation":[]},{"distance":113.584,"relativeDirection":"RIGHT","streetName":"path","absoluteDirection":"EAST","stayOn":false,"area":false,"bogusName":true,"lon":-71.0704312,"lat":48.4105992,"elevation":[]},{"distance":10.326,"relativeDirection":"RIGHT","streetName":"Rue Bégin","absoluteDirection":"SOUTH","stayOn":false,"area":false,"bogusName":false,"lon":-71.0689037,"lat":48.4104819,"elevation":[]},{"distance":126.486,"relativeDirection":"LEFT","streetName":"Rue Don Bosco","absoluteDirection":"SOUTHEAST","stayOn":false,"area":false,"bogusName":false,"lon":-71.06891440000001,"lat":48.410389300000006,"elevation":[]},{"distance":100.59,"relativeDirection":"LEFT","streetName":"service road","absoluteDirection":"NORTHEAST","stayOn":false,"area":false,"bogusName":false,"lon":-71.0674104,"lat":48.4098446,"elevation":[]}]}],"tooSloped":false},{"duration":1245,"startTime":1522670344000,"endTime":1522671589000,"walkTime":849,"transitTime":394,"waitingTime":2,"walkDistance":1085.1271052585726,"walkLimitExceeded":false,"elevationLost":0.0,"elevationGained":0.0,"transfers":0,"legs":[{"startTime":1522670344000,"endTime":1522670843000,"departureDelay":0,"arrivalDelay":0,"realTime":false,"distance":638.652,"pathway":false,"mode":"WALK","route":"","agencyTimeZoneOffset":-14400000,"interlineWithPreviousLeg":false,"from":{"name":"Origin","lon":-71.086867,"lat":48.396633,"departure":1522670344000,"orig":"","vertexType":"NORMAL"},"to":{"name":"Bégin / Domaine-du-Roi","stopId":"1:1980","stopCode":"1980","lon":-71.080477,"lat":48.398688,"arrival":1522670843000,"departure":1522670844000,"zoneId":"NA","stopIndex":1,"stopSequence":2,"vertexType":"TRANSIT"},"legGeometry":{"points":"ulkfHld{pLTiCLiB@M@O^uEJcAJaCMs@uAmBGIOO}C_D{@y@EE}@_AKIUSKIaAu@IC@]","length":22},"rentedBike":false,"transitLeg":false,"duration":499.0,"steps":[{"distance":571.7760000000001,"relativeDirection":"DEPART","streetName":"Rue Malraux","absoluteDirection":"EAST","stayOn":false,"area":false,"bogusName":false,"lon":-71.08694088695354,"lat":48.39643270931843,"elevation":[]},{"distance":55.427,"relativeDirection":"CONTINUE","streetName":"Rue Bégin","absoluteDirection":"NORTHEAST","stayOn":false,"area":false,"bogusName":false,"lon":-71.080988,"lat":48.3981725,"elevation":[]},{"distance":11.449,"relativeDirection":"RIGHT","streetName":"Rue du Domaine du Roy","absoluteDirection":"EAST","stayOn":false,"area":false,"bogusName":false,"lon":-71.0806481,"lat":48.398616000000004,"elevation":[]}]},{"startTime":1522670844000,"endTime":1522671238000,"departureDelay":0,"arrivalDelay":0,"realTime":false,"distance":1701.144042333942,"pathway":false,"mode":"BUS","route":"204S","agencyName":"Société de Transport du Saguenay","agencyUrl":"http://ville.saguenay.ca/fr/services-aux-citoyens/transport-sts","agencyTimeZoneOffset":-14400000,"routeColor":"8B0000","routeType":3,"routeId":"1:204S","routeTextColor":"FFFFFF","interlineWithPreviousLeg":false,"tripBlockId":"103","headsign":"Séminaire","agencyId":"0","tripId":"1:218793","serviceDate":"20180402","from":{"name":"Bégin / Domaine-du-Roi","stopId":"1:1980","stopCode":"1980","lon":-71.080477,"lat":48.398688,"arrival":1522670843000,"departure":1522670844000,"zoneId":"NA","stopIndex":1,"stopSequence":2,"vertexType":"TRANSIT"},"to":{"name":"Saguenéens (no. 116)","stopId":"1:577","stopCode":"577","lon":-71.067204,"lat":48.40734,"arrival":1522671238000,"departure":1522671239000,"zoneId":"NA","stopIndex":8,"stopSequence":9,"vertexType":"TRANSIT"},"legGeometry":{"points":"izkfHb|ypLEj@YEU?SBODMFQDQB[?OCUGSKUQyAmBa@e@jEkLbCcHqAwAm@k@SQc@O}@Q{A_@]AmBJOEKEEEi@k@s@g@m@bB]x@o@fBSf@U\\k@x@ORc@s@iD{GkA{BAEGQGSG[Ee@Ag@@_@F{@T_AL_@Li@?ELs@fAPdA[Rk@?WVSJUJUIc@SQ]EEa@a@gAc@s@i@w@S[uAqAk@hBSbBICOEi@Ei@?eCEUAUCi@Qo@_@uCcCyCgCh@_B`CmG","length":85},"routeShortName":"204S","routeLongName":"Séminaire - Domaine du Royaume","rentedBike":false,"transitLeg":true,"duration":394.0,"steps":[]},{"startTime":1522671239000,"endTime":1522671589000,"departureDelay":0,"arrivalDelay":0,"realTime":false,"distance":446.33299999999997,"pathway":false,"mode":"WALK","route":"","agencyTimeZoneOffset":-14400000,"interlineWithPreviousLeg":false,"from":{"name":"Saguenéens (no. 116)","stopId":"1:577","stopCode":"577","lon":-71.067204,"lat":48.40734,"arrival":1522671238000,"departure":1522671239000,"zoneId":"NA","stopIndex":8,"stopSequence":9,"vertexType":"TRANSIT"},"to":{"name":"Destination","lon":-71.067079,"lat":48.410863,"arrival":1522671589000,"orig":"","vertexType":"NORMAL"},"legGeometry":{"points":"gqmfHphwpLPa@qB{BiAnCeHXWl@Ya@q@W[Ia@YQ_@","length":11},"rentedBike":false,"transitLeg":false,"duration":350.0,"steps":[{"distance":16.212,"relativeDirection":"DEPART","streetName":"Rue des Saguenéens","absoluteDirection":"SOUTHEAST","stayOn":false,"area":false,"bogusName":false,"lon":-71.06712694989164,"lat":48.40740751123809,"elevation":[]},{"distance":77.658,"relativeDirection":"LEFT","streetName":"path","absoluteDirection":"NORTHEAST","stayOn":false,"area":false,"bogusName":true,"lon":-71.0669515,"lat":48.4073198,"elevation":[]},{"distance":230.146,"relativeDirection":"LEFT","streetName":"Rue Duhaime","absoluteDirection":"NORTHWEST","stayOn":false,"area":false,"bogusName":false,"lon":-71.0663385,"lat":48.4078874,"elevation":[]},{"distance":21.727,"relativeDirection":"LEFT","streetName":"Rue Don Bosco","absoluteDirection":"NORTHWEST","stayOn":false,"area":false,"bogusName":false,"lon":-71.0671829,"lat":48.4097206,"elevation":[]},{"distance":100.59,"relativeDirection":"RIGHT","streetName":"service road","absoluteDirection":"NORTHEAST","stayOn":false,"area":false,"bogusName":false,"lon":-71.0674104,"lat":48.4098446,"elevation":[]}]}],"tooSloped":false},{"duration":1322,"startTime":1522670708000,"endTime":1522672030000,"walkTime":523,"transitTime":797,"waitingTime":2,"walkDistance":673.521842102461,"walkLimitExceeded":false,"elevationLost":0.0,"elevationGained":0.0,"transfers":0,"legs":[{"startTime":1522670708000,"endTime":1522670881000,"departureDelay":0,"arrivalDelay":0,"realTime":false,"distance":227.102,"pathway":false,"mode":"WALK","route":"","agencyTimeZoneOffset":-14400000,"interlineWithPreviousLeg":false,"from":{"name":"Origin","lon":-71.086867,"lat":48.396633,"departure":1522670708000,"orig":"","vertexType":"NORMAL"},"to":{"name":"Malraux / Antonin Artaud","stopId":"1:1602","stopCode":"1602","lon":-71.08988,"lat":48.396998,"arrival":1522670881000,"departure":1522670882000,"zoneId":"NA","stopIndex":26,"stopSequence":27,"vertexType":"TRANSIT"},"legGeometry":{"points":"ulkfHld{pLgA|LUdCCN","length":4},"rentedBike":false,"transitLeg":false,"duration":173.0,"steps":[{"distance":227.102,"relativeDirection":"DEPART","streetName":"Rue Malraux","absoluteDirection":"WEST","stayOn":false,"area":false,"bogusName":false,"lon":-71.08694088695354,"lat":48.39643270931843,"elevation":[]}]},{"startTime":1522670882000,"endTime":1522671060000,"departureDelay":0,"arrivalDelay":0,"realTime":false,"distance":2467.817462383132,"pathway":false,"mode":"BUS","route":"14","agencyName":"Société de Transport du Saguenay","agencyUrl":"http://ville.saguenay.ca/fr/services-aux-citoyens/transport-sts","agencyTimeZoneOffset":-14400000,"routeColor":"C0C000","routeType":3,"routeId":"1:14","routeTextColor":"000000","interlineWithPreviousLeg":false,"tripBlockId":"30","headsign":"Talbot / Barrette","agencyId":"0","tripId":"1:218089","serviceDate":"20180402","from":{"name":"Malraux / Antonin Artaud","stopId":"1:1602","stopCode":"1602","lon":-71.08988,"lat":48.396998,"arrival":1522670881000,"departure":1522670882000,"zoneId":"NA","stopIndex":26,"stopSequence":27,"vertexType":"TRANSIT"},"to":{"name":"Roitelets / Sapins","stopId":"1:1543","stopCode":"1543","lon":-71.069553,"lat":48.393375,"arrival":1522671060000,"departure":1522671060000,"zoneId":"NA","stopIndex":35,"stopSequence":36,"vertexType":"TRANSIT"},"legGeometry":{"points":"gpkfHvv{pLK~@qBxFqB|FcC~GyC\\aDkDcFsF~CgOtGm[j@oCvEoSl@_CxCmLjAeFpCeKrByHfAqCvH_SLa@","length":20},"routeShortName":"14","routeLongName":"Coopérative","rentedBike":false,"transitLeg":true,"duration":178.0,"steps":[]},{"startTime":1522671060000,"endTime":1522671679000,"departureDelay":0,"arrivalDelay":0,"realTime":false,"distance":4049.8671865477427,"pathway":false,"mode":"BUS","route":"15","agencyName":"Société de Transport du Saguenay","agencyUrl":"http://ville.saguenay.ca/fr/services-aux-citoyens/transport-sts","agencyTimeZoneOffset":-14400000,"routeColor":"FF00FF","routeType":3,"routeId":"1:15","routeTextColor":"FFFFFF","interlineWithPreviousLeg":true,"tripBlockId":"30","headsign":"Terminus Chicoutimi","agencyId":"0","tripId":"1:218090","serviceDate":"20180402","from":{"name":"Roitelets / Sapins","stopId":"1:1543","stopCode":"1543","lon":-71.069553,"lat":48.393375,"arrival":1522671060000,"departure":1522671060000,"zoneId":"NA","stopIndex":0,"stopSequence":1,"vertexType":"TRANSIT"},"to":{"name":"Saguenéens (no. 129)","stopId":"1:2000","stopCode":"2000","lon":-71.067064,"lat":48.407463,"arrival":1522671679000,"departure":1522671680000,"zoneId":"NA","stopIndex":16,"stopSequence":17,"vertexType":"TRANSIT"},"legGeometry":{"points":"_zjfHfwwpLx@}BHa@NaADq@@y@Cy@I{@Ka@O[Sg@c@mAWwAMyA?EC]?wABuABmFB{@BmDFuH@i@F[FsC@c@TuGEGVsHPuDLuBXsFDoA?W@]Cu@GcAKu@Q_ASo@a@y@a@o@MOUUeCqBiDsDqE{EiAcAcB_AqBgA_AQaBSaBG_@Bu@FG?h@fNKnDpCfBkAzDgA}@y@q@sDy@GAeGT~@~KKrKyAnL[hBUxAm@nCcAlDeCvGmA|CUr@}@~A_@\\_DvCEZcA|@UP_@d@Yl@oBdFeCxG","length":85},"routeShortName":"15","routeLongName":"Term. Chic / Costco","rentedBike":false,"transitLeg":true,"duration":619.0,"steps":[]},{"startTime":1522671680000,"endTime":1522672030000,"departureDelay":0,"arrivalDelay":0,"realTime":false,"distance":446.33299999999997,"pathway":false,"mode":"WALK","route":"","agencyTimeZoneOffset":-14400000,"interlineWithPreviousLeg":false,"from":{"name":"Saguenéens (no. 129)","stopId":"1:2000","stopCode":"2000","lon":-71.067064,"lat":48.407463,"arrival":1522671679000,"departure":1522671680000,"zoneId":"NA","stopIndex":16,"stopSequence":17,"vertexType":"TRANSIT"},"to":{"name":"Destination","lon":-71.067079,"lat":48.410863,"arrival":1522672030000,"orig":"","vertexType":"NORMAL"},"legGeometry":{"points":"gqmfHphwpLPa@qB{BiAnCeHXWl@Ya@q@W[Ia@YQ_@","length":11},"rentedBike":false,"transitLeg":false,"duration":350.0,"steps":[{"distance":16.212,"relativeDirection":"DEPART","streetName":"Rue des Saguenéens","absoluteDirection":"SOUTHEAST","stayOn":false,"area":false,"bogusName":false,"lon":-71.06712694989164,"lat":48.40740751123809,"elevation":[]},{"distance":77.658,"relativeDirection":"LEFT","streetName":"path","absoluteDirection":"NORTHEAST","stayOn":false,"area":false,"bogusName":true,"lon":-71.0669515,"lat":48.4073198,"elevation":[]},{"distance":230.146,"relativeDirection":"LEFT","streetName":"Rue Duhaime","absoluteDirection":"NORTHWEST","stayOn":false,"area":false,"bogusName":false,"lon":-71.0663385,"lat":48.4078874,"elevation":[]},{"distance":21.727,"relativeDirection":"LEFT","streetName":"Rue Don Bosco","absoluteDirection":"NORTHWEST","stayOn":false,"area":false,"bogusName":false,"lon":-71.0671829,"lat":48.4097206,"elevation":[]},{"distance":100.59,"relativeDirection":"RIGHT","streetName":"service road","absoluteDirection":"NORTHEAST","stayOn":false,"area":false,"bogusName":false,"lon":-71.0674104,"lat":48.4098446,"elevation":[]}]}],"tooSloped":false}]},"debugOutput":{"precalculationTime":40,"pathCalculationTime":25,"pathTimes":[19,3,3],"renderingTime":0,"totalTime":65,"timedOut":false},"elevationMetadata":{"ellipsoidToGeoidDifference":-28.885904201182168,"geoidElevation":false}}