{"requestParameters":{"date":"2018/04/02","walkSpeed":"1.33","walkReluctance":"2.0","fromPlace":"48.393977,-71.067824","maxWalkDistance":"3000","waitReluctance":"1.0","carSpeed":"33","numItineraries":"3","waitAtBeginningFactor":"0.4","mode":"TRANSIT,WALK","ignoreRealtimeUpdates":"false","stairsReluctance":"2.0","toPlace":"48.404782,-71.085492","time":"17:30:00"},"plan":{"date":1522704600000,"from":{"name":"Origin","lon":-71.067824,"lat":48.393977,"orig":"","vertexType":"NORMAL"},"to":{"name":"Destination","lon":-71.085492,"lat":48.404782,"orig":"","vertexType":"NORMAL"},"itineraries":[{"duration":687,"startTime":1522705207000,"endTime":1522705894000,"walkTime":566,"transitTime":119,"waitingTime":2,"walkDistance":733.3261127788859,"walkLimitExceeded":false,"elevationLost":0.0,"elevationGained":0.0,"transfers":0,"legs":[{"startTime":1522705207000,"endTime":1522705319000,"departureDelay":0,"arrivalDelay":0,"realTime":false,"distance":143.127,"pathway":false,"mode":"WALK","route":"","agencyTimeZoneOffset":-14400000,"interlineWithPreviousLeg":false,"from":{"name":"Origin","lon":-71.067824,"lat":48.393977,"departure":1522705207000,"orig":"","vertexType":"NORMAL"},"to":{"name":"Roitelets / Sapins","stopId":"1:1513","stopCode":"1513","lon":-71.069396,"lat":48.393523,"arrival":1522705319000,"departure":1522705320000,"zoneId":"NA","stopIndex":0,"stopSequence":1,"vertexType":"TRANSIT"},"legGeometry":{"points":"q~jfH`owpLdDxEW^AD","length":4},"rentedBike":false,"transitLeg":false,"duration":112.0,"steps":[{"distance":122.249,"relativeDirection":"DEPART","streetName":"Rue des Sapins","absoluteDirection":"SOUTHWEST","stayOn":false,"area":false,"bogusName":false,"lon":-71.0681632772002,"lat":48.3941730467653,"elevation":[]},{"distance":20.878,"relativeDirection":"RIGHT","streetName":"Rue Des Roitelets","absoluteDirection":"NORTHWEST","stayOn":false,"area":false,"bogusName":false,"lon":-71.0692502,"lat":48.3933437,"elevation":[]}]},{"startTime":1522705320000,"endTime":1522705439000,"departureDelay":0,"arrivalDelay":0,"realTime":false,"distance":1695.4406253889206,"pathway":false,"mode":"BUS","route":"14","agencyName":"Société de Transport du Saguenay","agencyUrl":"http://ville.saguenay.ca/fr/services-aux-citoyens/transport-sts","agencyTimeZoneOffset":-14400000,"routeColor":"C0C000","routeType":3,"routeId":"1:14","routeTextColor":"000000","interlineWithPreviousLeg":false,"tripBlockId":"33","headsign":"Terminus Chicoutimi","agencyId":"0","tripId":"1:218194","serviceDate":"20180402","from":{"name":"Roitelets / Sapins","stopId":"1:1513","stopCode":"1513","lon":-71.069396,"lat":48.393523,"arrival":1522705319000,"departure":1522705320000,"zoneId":"NA","stopIndex":0,"stopSequence":1,"vertexType":"TRANSIT"},"to":{"name":"boul. Barrette passerelle Verlaine","stopId":"1:1899","stopCode":"1899","lon":-71.089455,"lat":48.400859,"arrival":1522705439000,"departure":1522705440000,"zoneId":"NA","stopIndex":5,"stopSequence":6,"vertexType":"TRANSIT"},"legGeometry":{"points":"azjfHfwwpLiEfLuBzFsAnDgGzSWfAcD`Mi@dCgChLmCzMwGd\\","length":11},"routeShortName":"14","routeLongName":"Coopérative","rentedBike":false,"transitLeg":true,"duration":119.0,"steps":[]},{"startTime":1522705440000,"endTime":1522705894000,"departureDelay":0,"arrivalDelay":0,"realTime":false,"distance":590.1039999999999,"pathway":false,"mode":"WALK","route":"","agencyTimeZoneOffset":-14400000,"interlineWithPreviousLeg":false,"from":{"name":"boul. Barrette passerelle Verlaine","stopId":"1:1899","stopCode":"1899","lon":-71.089455,"lat":48.400859,"arrival":1522705439000,"departure":1522705440000,"zoneId":"NA","stopIndex":5,"stopSequence":6,"vertexType":"TRANSIT"},"to":{"name":"Destination","lon":-71.085492,"lat":48.404782,"arrival":1522705894000,"orig":"","vertexType":"NORMAL"},"legGeometry":{"points":"khlfHht{pLmAm@h@wC@s@qBoB_Ak@w@g@gAq@kAu@eIaFi@Q","length":11},"rentedBike":false,"transitLeg":false,"duration":454.0,"steps":[{"distance":46.508,"relativeDirection":"DEPART","streetName":"path","absoluteDirection":"NORTH","stayOn":false,"area":false,"bogusName":true,"lon":-71.08948426356135,"lat":48.40086663679363,"elevation":[]},{"distance":80.064,"relativeDirection":"RIGHT","streetName":"Rue Verlaine","absoluteDirection":"EAST","stayOn":false,"area":false,"bogusName":false,"lon":-71.08925380000001,"lat":48.4012559,"elevation":[]},{"distance":463.53200000000004,"relativeDirection":"LEFT","streetName":"Rue Victor-Guimond","absoluteDirection":"NORTHEAST","stayOn":false,"area":false,"bogusName":false,"lon":-71.08823190000001,"lat":48.4010387,"elevation":[]}]}],"tooSloped":false},{"duration":1738,"startTime":1522704600000,"endTime":1522706338000,"walkTime":1738,"transitTime":0,"waitingTime":0,"walkDistance":2263.2798420992344,"walkLimitExceeded":false,"elevationLost":0.0,"elevationGained":0.0,"transfers":0,"legs":[{"startTime":1522704600000,"endTime":1522706338000,"departureDelay":0,"arrivalDelay":0,"realTime":false,"distance":2263.093,"pathway":false,"mode":"WALK","route":"","agencyTimeZoneOffset":-14400000,"interlineWithPreviousLeg":false,"from":{"name":"Origin","lon":-71.067824,"lat":48.393977,"departure":1522704600000,"orig":"","vertexType":"NORMAL"},"to":{"name":"Destination","lon":-71.085492,"lat":48.404782,"arrival":1522706338000,"orig":"","vertexType":"NORMAL"},"legGeometry":{"points":"q~jfH`owpLdDxEW^ADoAzCABGPQb@}EfMy@xBWl@e@dBGRiArEgBzG[fAWdAo@bC_DdMc@dBGTa@bBiBpHQp@{ArHEPS[w@m@UbAWlAYtAUp@]Dk@Wq@c@_@zAgBtH_Ak@w@g@gAq@kAu@eIaFi@Q","length":43},"rentedBike":false,"transitLeg":false,"duration":1738.0,"steps":[{"distance":122.249,"relativeDirection":"DEPART","streetName":"Rue des Sapins","absoluteDirection":"SOUTHWEST","stayOn":false,"area":false,"bogusName":false,"lon":-71.0681632772002,"lat":48.3941730467653,"elevation":[]},{"distance":102.842,"relativeDirection":"RIGHT","streetName":"Rue Des Roitelets","absoluteDirection":"NORTHWEST","stayOn":false,"area":false,"bogusName":false,"lon":-71.0692502,"lat":48.3933437,"elevation":[]},{"distance":1241.566,"relativeDirection":"CONTINUE","streetName":"Boulevard Barrette","absoluteDirection":"NORTHWEST","stayOn":false,"area":false,"bogusName":false,"lon":-71.0703318,"lat":48.3939238,"elevation":[]},{"distance":50.8,"relativeDirection":"RIGHT","streetName":"path","absoluteDirection":"NORTHEAST","stayOn":false,"area":false,"bogusName":true,"lon":-71.0848982,"lat":48.3994511,"elevation":[]},{"distance":190.51,"relativeDirection":"LEFT","streetName":"Rue Jean-Paul Sartre","absoluteDirection":"NORTHWEST","stayOn":false,"area":false,"bogusName":false,"lon":-71.0845255,"lat":48.3998317,"elevation":[]},{"distance":166.515,"relativeDirection":"LEFT","streetName":"Rue Yves Thériault","absoluteDirection":"NORTHWEST","stayOn":false,"area":false,"bogusName":false,"lon":-71.08566710000001,"lat":48.4009258,"elevation":[]},{"distance":388.611,"relativeDirection":"RIGHT","streetName":"Rue Victor-Guimond","absoluteDirection":"NORTHEAST","stayOn":false,"area":false,"bogusName":false,"lon":-71.08767850000001,"lat":48.4016035,"elevation":[]}]}],"tooSloped":false},{"duration":687,"startTime":1522707007000,"endTime":1522707694000,"walkTime":566,"transitTime":119,"waitingTime":2,"walkDistance":733.3261127788859,"walkLimitExceeded":false,"elevationLost":0.0,"elevationGained":0.0,"transfers":0,"legs":[{"startTime":1522707007000,"endTime":1522707119000,"departureDelay":0,"arrivalDelay":0,"realTime":false,"distance":143.127,"pathway":false,"mode":"WALK","route":"","agencyTimeZoneOffset":-14400000,"interlineWithPreviousLeg":false,"from":{"name":"Origin","lon":-71.067824,"lat":48.393977,"departure":1522707007000,"orig":"","vertexType":"NORMAL"},"to":{"name":"Roitelets / Sapins","stopId":"1:1513","stopCode":"1513","lon":-71.069396,"lat":48.393523,"arrival":1522707119000,"departure":1522707120000,"zoneId":"NA","stopIndex":0,"stopSequence":1,"vertexType":"TRANSIT"},"legGeometry":{"points":"q~jfH`owpLdDxEW^AD","length":4},"rentedBike":false,"transitLeg":false,"duration":112.0,"steps":[{"distance":122.249,"relativeDirection":"DEPART","streetName":"Rue des Sapins","absoluteDirection":"SOUTHWEST","stayOn":false,"area":false,"bogusName":false,"lon":-71.0681632772002,"lat":48.3941730467653,"elevation":[]},{"distance":20.878,"relativeDirection":"RIGHT","streetName":"Rue Des Roitelets","absoluteDirection":"NORTHWEST","stayOn":false,"area":false,"bogusName":false,"lon":-71.0692502,"lat":48.3933437,"elevation":[]}]},{"startTime":1522707120000,"endTime":1522707239000,"departureDelay":0,"arrivalDelay":0,"realTime":false,"distance":1695.4406253889206,"pathway":false,"mode":"BUS","route":"14","agencyName":"Société de Transport du Saguenay","agencyUrl":"http://ville.saguenay.ca/fr/services-aux-citoyens/transport-sts","agencyTimeZoneOffset":-14400000,"routeColor":"C0C000","routeType":3,"routeId":"1:14","routeTextColor":"000000","interlineWithPreviousLeg":false,"tripBlockId":"31","headsign":"Terminus Chicoutimi","agencyId":"0","tripId":"1:218145","serviceDate":"20180402","from":{"name":"Roitelets / Sapins","stopId":"1:1513","stopCode":"1513","lon":-71.069396,"lat":48.393523,"arrival":1522707119000,"departure":1522707120000,"zoneId":"NA","stopIndex":0,"stopSequence":1,"vertexType":"TRANSIT"},"to":{"name":"boul. Barrette passerelle Verlaine","stopId":"1:1899","stopCode":"1899","lon":-71.089455,"lat":48.400859,"arrival":1522707239000,"departure":1522707240000,"zoneId":"NA","stopIndex":5,"stopSequence":6,"vertexType":"TRANSIT"},"legGeometry":{"points":"azjfHfwwpLiEfLuBzFsAnDgGzSWfAcD`Mi@dCgChLmCzMwGd\\","length":11},"routeShortName":"14","routeLongName":"Coopérative","rentedBike":false,"transitLeg":true,"duration":119.0,"steps":[]},{"startTime":1522707240000,"endTime":1522707694000,"departureDelay":0,"arrivalDelay":0,"realTime":false,"distance":590.1039999999999,"pathway":false,"mode":"WALK","route":"","agencyTimeZoneOffset":-14400000,"interlineWithPreviousLeg":false,"from":{"name":"boul. Barrette passerelle Verlaine","stopId":"1:1899","stopCode":"1899","lon":-71.089455,"lat":48.400859,"arrival":1522707239000,"departure":1522707240000,"zoneId":"NA","stopIndex":5,"stopSequence":6,"vertexType":"TRANSIT"},"to":{"name":"Destination","lon":-71.085492,"lat":48.404782,"arrival":1522707694000,"orig":"","vertexType":"NORMAL"},"legGeometry":{"points":"khlfHht{pLmAm@h@wC@s@qBoB_Ak@w@g@gAq@kAu@eIaFi@Q","length":11},"rentedBike":false,"transitLeg":false,"duration":454.0,"steps":[{"distance":46.508,"relativeDirection":"DEPART","streetName":"path","absoluteDirection":"NORTH","stayOn":false,"area":false,"bogusName":true,"lon":-71.08948426356135,"lat":48.40086663679363,"elevation":[]},{"distance":80.064,"relativeDirection":"RIGHT","streetName":"Rue Verlaine","absoluteDirection":"EAST","stayOn":false,"area":false,"bogusName":false,"lon":-71.08925380000001,"lat":48.4012559,"elevation":[]},{"distance":463.53200000000004,"relativeDirection":"LEFT","streetName":"Rue Victor-Guimond","absoluteDirection":"NORTHEAST","stayOn":false,"area":false,"bogusName":false,"lon":-71.08823190000001,"lat":48.4010387,"elevation":[]}]}],"tooSloped":false}]},"debugOutput":{"precalculationTime":33,"pathCalculationTime":27,"pathTimes":[16,4,7],"renderingTime":0,"totalTime":60,"timedOut":false},"elevationMetadata":{"ellipsoidToGeoidDifference":-28.885904201182168,"geoidElevation":false}}