{"requestParameters":{"date":"2018/04/02","walkSpeed":"1.33","walkReluctance":"2.0","fromPlace":"48.40368,-71.09861999","maxWalkDistance":"3000","waitReluctance":"1.0","carSpeed":"33","numItineraries":"3","waitAtBeginningFactor":"0.4","mode":"TRANSIT,WALK","ignoreRealtimeUpdates":"false","stairsReluctance":"2.0","toPlace":"48.40988,-71.093977","time":"11:0:00"},"plan":{"date":1522681200000,"from":{"name":"Origin","lon":-71.09861999,"lat":48.40368,"orig":"","vertexType":"NORMAL"},"to":{"name":"Destination","lon":-71.093977,"lat":48.40988,"orig":"","vertexType":"NORMAL"},"itineraries":[{"duration":717,"startTime":1522681200000,"endTime":1522681917000,"walkTime":717,"transitTime":0,"waitingTime":0,"walkDistance":912.114616538236,"walkLimitExceeded":false,"elevationLost":0.0,"elevationGained":0.0,"transfers":0,"legs":[{"startTime":1522681200000,"endTime":1522681917000,"departureDelay":0,"arrivalDelay":0,"realTime":false,"distance":912.0180000000001,"pathway":false,"mode":"WALK","route":"","agencyTimeZoneOffset":-14400000,"interlineWithPreviousLeg":false,"from":{"name":"Origin","lon":-71.09861999,"lat":48.40368,"departure":1522681200000,"orig":"","vertexType":"NORMAL"},"to":{"name":"Destination","lon":-71.093977,"lat":48.40988,"arrival":1522681917000,"orig":"","vertexType":"NORMAL"},"legGeometry":{"points":"swlfHrh}pLo@s@qA_BOQoAyAQUgAkAi@o@a@e@k@o@_AcAm@u@}@eAmB}BoAaB_AoAIO}AfDsAtCq@_@q@[iA}@s@rA","length":23},"rentedBike":false,"transitLeg":false,"duration":717.0,"steps":[{"distance":609.8280000000001,"relativeDirection":"DEPART","streetName":"Boulevard Saint-Paul","absoluteDirection":"NORTHEAST","stayOn":false,"area":false,"bogusName":false,"lon":-71.09785974823009,"lat":48.403304723710114,"elevation":[]},{"distance":153.429,"relativeDirection":"LEFT","streetName":"Rue Descartes","absoluteDirection":"NORTHWEST","stayOn":false,"area":false,"bogusName":false,"lon":-71.0928554,"lat":48.4076662,"elevation":[]},{"distance":106.305,"relativeDirection":"RIGHT","streetName":"Rue de l'Estacade","absoluteDirection":"NORTH","stayOn":false,"area":false,"bogusName":false,"lon":-71.0944442,"lat":48.4085559,"elevation":[]},{"distance":42.456,"relativeDirection":"LEFT","streetName":"Rue des Presses","absoluteDirection":"NORTHWEST","stayOn":false,"area":false,"bogusName":false,"lon":-71.09383670000001,"lat":48.409420000000004,"elevation":[]}]}],"tooSloped":false},{"duration":441,"startTime":1522682734000,"endTime":1522683175000,"walkTime":324,"transitTime":115,"waitingTime":2,"walkDistance":412.044353380511,"walkLimitExceeded":false,"elevationLost":0.0,"elevationGained":0.0,"transfers":0,"legs":[{"startTime":1522682734000,"endTime":1522682884000,"departureDelay":0,"arrivalDelay":0,"realTime":false,"distance":191.147,"pathway":false,"mode":"WALK","route":"","agencyTimeZoneOffset":-14400000,"interlineWithPreviousLeg":false,"from":{"name":"Origin","lon":-71.09861999,"lat":48.40368,"departure":1522682734000,"orig":"","vertexType":"NORMAL"},"to":{"name":"boul. Barrette / Estacade","stopId":"1:478","stopCode":"478","lon":-71.098119,"lat":48.404568,"arrival":1522682884000,"departure":1522682885000,"zoneId":"NA","stopIndex":12,"stopSequence":13,"vertexType":"TRANSIT"},"legGeometry":{"points":"swlfHrh}pLo@s@qA_BiBzE","length":4},"rentedBike":false,"transitLeg":false,"duration":150.0,"steps":[{"distance":90.805,"relativeDirection":"DEPART","streetName":"Boulevard Saint-Paul","absoluteDirection":"NORTHEAST","stayOn":false,"area":false,"bogusName":false,"lon":-71.09785974823009,"lat":48.403304723710114,"elevation":[]},{"distance":100.342,"relativeDirection":"LEFT","streetName":"Boulevard Barrette","absoluteDirection":"NORTHWEST","stayOn":false,"area":false,"bogusName":false,"lon":-71.0971116,"lat":48.4039529,"elevation":[]}]},{"startTime":1522682885000,"endTime":1522683000000,"departureDelay":0,"arrivalDelay":0,"realTime":false,"distance":524.2431688036148,"pathway":false,"mode":"BUS","route":"11","agencyName":"Société de Transport du Saguenay","agencyUrl":"http://ville.saguenay.ca/fr/services-aux-citoyens/transport-sts","agencyTimeZoneOffset":-14400000,"routeColor":"FF0000","routeType":3,"routeId":"1:11","routeTextColor":"FFFFFF","interlineWithPreviousLeg":false,"tripBlockId":"34","headsign":"Terminus Chicoutimi","agencyId":"0","tripId":"1:218216","serviceDate":"20180402","from":{"name":"boul. Barrette / Estacade","stopId":"1:478","stopCode":"478","lon":-71.098119,"lat":48.404568,"arrival":1522682884000,"departure":1522682885000,"zoneId":"NA","stopIndex":12,"stopSequence":13,"vertexType":"TRANSIT"},"to":{"name":"Descartes / Estacade","stopId":"1:1889","stopCode":"1889","lon":-71.093786,"lat":48.408069,"arrival":1522683000000,"departure":1522683001000,"zoneId":"NA","stopIndex":15,"stopSequence":16,"vertexType":"TRANSIT"},"legGeometry":{"points":"c_mfHtj}pLy@vBeCuCoCaDkDuE_@g@{FwGOMnA}C","length":9},"routeShortName":"11","routeLongName":"Chic/Faubourg via St-Paul","rentedBike":false,"transitLeg":true,"duration":115.0,"steps":[]},{"startTime":1522683001000,"endTime":1522683175000,"departureDelay":0,"arrivalDelay":0,"realTime":false,"distance":220.80600000000004,"pathway":false,"mode":"WALK","route":"","agencyTimeZoneOffset":-14400000,"interlineWithPreviousLeg":false,"from":{"name":"Descartes / Estacade","stopId":"1:1889","stopCode":"1889","lon":-71.093786,"lat":48.408069,"arrival":1522683000000,"departure":1522683001000,"zoneId":"NA","stopIndex":15,"stopSequence":16,"vertexType":"TRANSIT"},"to":{"name":"Destination","lon":-71.093977,"lat":48.40988,"arrival":1522683175000,"orig":"","vertexType":"NORMAL"},"legGeometry":{"points":"yumfHrn|pLsAtCq@_@q@[iA}@s@rA","length":6},"rentedBike":false,"transitLeg":false,"duration":174.0,"steps":[{"distance":72.045,"relativeDirection":"DEPART","streetName":"Rue Descartes","absoluteDirection":"NORTHWEST","stayOn":false,"area":false,"bogusName":false,"lon":-71.09369815391963,"lat":48.40813812734284,"elevation":[]},{"distance":106.305,"relativeDirection":"RIGHT","streetName":"Rue de l'Estacade","absoluteDirection":"NORTH","stayOn":false,"area":false,"bogusName":false,"lon":-71.0944442,"lat":48.4085559,"elevation":[]},{"distance":42.456,"relativeDirection":"LEFT","streetName":"Rue des Presses","absoluteDirection":"NORTHWEST","stayOn":false,"area":false,"bogusName":false,"lon":-71.09383670000001,"lat":48.409420000000004,"elevation":[]}]}],"tooSloped":false},{"duration":441,"startTime":1522684534000,"endTime":1522684975000,"walkTime":324,"transitTime":115,"waitingTime":2,"walkDistance":412.044353380511,"walkLimitExceeded":false,"elevationLost":0.0,"elevationGained":0.0,"transfers":0,"legs":[{"startTime":1522684534000,"endTime":1522684684000,"departureDelay":0,"arrivalDelay":0,"realTime":false,"distance":191.147,"pathway":false,"mode":"WALK","route":"","agencyTimeZoneOffset":-14400000,"interlineWithPreviousLeg":false,"from":{"name":"Origin","lon":-71.09861999,"lat":48.40368,"departure":1522684534000,"orig":"","vertexType":"NORMAL"},"to":{"name":"boul. Barrette / Estacade","stopId":"1:478","stopCode":"478","lon":-71.098119,"lat":48.404568,"arrival":1522684684000,"departure":1522684685000,"zoneId":"NA","stopIndex":12,"stopSequence":13,"vertexType":"TRANSIT"},"legGeometry":{"points":"swlfHrh}pLo@s@qA_BiBzE","length":4},"rentedBike":false,"transitLeg":false,"duration":150.0,"steps":[{"distance":90.805,"relativeDirection":"DEPART","streetName":"Boulevard Saint-Paul","absoluteDirection":"NORTHEAST","stayOn":false,"area":false,"bogusName":false,"lon":-71.09785974823009,"lat":48.403304723710114,"elevation":[]},{"distance":100.342,"relativeDirection":"LEFT","streetName":"Boulevard Barrette","absoluteDirection":"NORTHWEST","stayOn":false,"area":false,"bogusName":false,"lon":-71.0971116,"lat":48.4039529,"elevation":[]}]},{"startTime":1522684685000,"endTime":1522684800000,"departureDelay":0,"arrivalDelay":0,"realTime":false,"distance":524.2431688036148,"pathway":false,"mode":"BUS","route":"11","agencyName":"Société de Transport du Saguenay","agencyUrl":"http://ville.saguenay.ca/fr/services-aux-citoyens/transport-sts","agencyTimeZoneOffset":-14400000,"routeColor":"FF0000","routeType":3,"routeId":"1:11","routeTextColor":"FFFFFF","interlineWithPreviousLeg":false,"tripBlockId":"36","headsign":"Terminus Chicoutimi","agencyId":"0","tripId":"1:218287","serviceDate":"20180402","from":{"name":"boul. Barrette / Estacade","stopId":"1:478","stopCode":"478","lon":-71.098119,"lat":48.404568,"arrival":1522684684000,"departure":1522684685000,"zoneId":"NA","stopIndex":12,"stopSequence":13,"vertexType":"TRANSIT"},"to":{"name":"Descartes / Estacade","stopId":"1:1889","stopCode":"1889","lon":-71.093786,"lat":48.408069,"arrival":1522684800000,"departure":1522684801000,"zoneId":"NA","stopIndex":15,"stopSequence":16,"vertexType":"TRANSIT"},"legGeometry":{"points":"c_mfHtj}pLy@vBeCuCoCaDkDuE_@g@{FwGOMnA}C","length":9},"routeShortName":"11","routeLongName":"Chic/Faubourg via St-Paul","rentedBike":false,"transitLeg":true,"duration":115.0,"steps":[]},{"startTime":1522684801000,"endTime":1522684975000,"departureDelay":0,"arrivalDelay":0,"realTime":false,"distance":220.80600000000004,"pathway":false,"mode":"WALK","route":"","agencyTimeZoneOffset":-14400000,"interlineWithPreviousLeg":false,"from":{"name":"Descartes / Estacade","stopId":"1:1889","stopCode":"1889","lon":-71.093786,"lat":48.408069,"arrival":1522684800000,"departure":1522684801000,"zoneId":"NA","stopIndex":15,"stopSequence":16,"vertexType":"TRANSIT"},"to":{"name":"Destination","lon":-71.093977,"lat":48.40988,"arrival":1522684975000,"orig":"","vertexType":"NORMAL"},"legGeometry":{"points":"yumfHrn|pLsAtCq@_@q@[iA}@s@rA","length":6},"rentedBike":false,"transitLeg":false,"duration":174.0,"steps":[{"distance":72.045,"relativeDirection":"DEPART","streetName":"Rue Descartes","absoluteDirection":"NORTHWEST","stayOn":false,"area":false,"bogusName":false,"lon":-71.09369815391963,"lat":48.40813812734284,"elevation":[]},{"distance":106.305,"relativeDirection":"RIGHT","streetName":"Rue de l'Estacade","absoluteDirection":"NORTH","stayOn":false,"area":false,"bogusName":false,"lon":-71.0944442,"lat":48.4085559,"elevation":[]},{"distance":42.456,"relativeDirection":"LEFT","streetName":"Rue des Presses","absoluteDirection":"NORTHWEST","stayOn":false,"area":false,"bogusName":false,"lon":-71.09383670000001,"lat":48.409420000000004,"elevation":[]}]}],"tooSloped":false}]},"debugOutput":{"precalculationTime":19,"pathCalculationTime":26,"pathTimes":[12,12,2],"renderingTime":0,"totalTime":45,"timedOut":false},"elevationMetadata":{"ellipsoidToGeoidDifference":-28.885904201182168,"geoidElevation":false}}