{"requestParameters":{"date":"2018/04/02","walkSpeed":"1.33","walkReluctance":"2.0","fromPlace":"48.411318,-71.092454","maxWalkDistance":"3000","waitReluctance":"1.0","carSpeed":"33","numItineraries":"3","waitAtBeginningFactor":"0.4","mode":"TRANSIT,WALK","ignoreRealtimeUpdates":"false","stairsReluctance":"2.0","toPlace":"48.415766,-71.06686399","time":"7:30:00"},"plan":{"date":1522668600000,"from":{"name":"Origin","lon":-71.092454,"lat":48.411318,"orig":"","vertexType":"NORMAL"},"to":{"name":"Destination","lon":-71.06686399,"lat":48.415766,"orig":"","vertexType":"NORMAL"},"itineraries":[{"duration":2054,"startTime":1522668600000,"endTime":1522670654000,"walkTime":2054,"transitTime":0,"waitingTime":0,"walkDistance":2650.994097733419,"walkLimitExceeded":false,"elevationLost":0.0,"elevationGained":0.0,"transfers":0,"legs":[{"startTime":1522668600000,"endTime":1522670654000,"departureDelay":0,"arrivalDelay":0,"realTime":false,"distance":2650.6549999999997,"pathway":false,"mode":"WALK","route":"","agencyTimeZoneOffset":-14400000,"interlineWithPreviousLeg":false,"from":{"name":"Origin","lon":-71.092454,"lat":48.411318,"departure":1522668600000,"orig":"","vertexType":"NORMAL"},"to":{"name":"Destination","lon":-71.06686399,"lat":48.415766,"arrival":1522670654000,"orig":"","vertexType":"NORMAL"},"legGeometry":{"points":"qinfH`e|pLu@IoBX[eEMoCG}Bn@wCJ?PIXY|A{DiBkCk@y@cBcC{@sBi@gBi@qDZQHCnAi@f@YnAoBz@gDXaDV{Bz@wDfA{DlCmIeCyBi@g@kBkBQyBa@sF_@kFASkEoIuBeE{BuEb@kAh@yA|AiEHQ_BwBa@|@sCjAe@SMc@?o@","length":48},"rentedBike":false,"transitLeg":false,"duration":2054.0,"steps":[{"distance":93.605,"relativeDirection":"DEPART","streetName":"Rue de l'Estacade","absoluteDirection":"NORTH","stayOn":false,"area":false,"bogusName":false,"lon":-71.0921648247175,"lat":48.411295041453315,"elevation":[]},{"distance":128.58499999999998,"relativeDirection":"RIGHT","streetName":"Rue du Canal","absoluteDirection":"EAST","stayOn":false,"area":false,"bogusName":false,"lon":-71.09224640000001,"lat":48.412128300000006,"elevation":[]},{"distance":108.55099999999999,"relativeDirection":"CONTINUE","streetName":"path","absoluteDirection":"EAST","stayOn":false,"area":false,"bogusName":true,"lon":-71.09053370000001,"lat":48.412339100000004,"elevation":[]},{"distance":121.414,"relativeDirection":"RIGHT","streetName":"Rue Martin-Bouvard","absoluteDirection":"SOUTH","stayOn":false,"area":false,"bogusName":false,"lon":-71.08914440000001,"lat":48.4121377,"elevation":[]},{"distance":353.491,"relativeDirection":"LEFT","streetName":"Boulevard Saint-Paul","absoluteDirection":"NORTHEAST","stayOn":false,"area":false,"bogusName":false,"lon":-71.088029,"lat":48.4113872,"elevation":[]},{"distance":22.995,"relativeDirection":"RIGHT","streetName":"Rue Saint-Augustin","absoluteDirection":"SOUTH","stayOn":false,"area":false,"bogusName":false,"lon":-71.0843859,"lat":48.413356300000004,"elevation":[]},{"distance":613.328,"relativeDirection":"CONTINUE","streetName":"Rue Garnier","absoluteDirection":"SOUTH","stayOn":false,"area":false,"bogusName":false,"lon":-71.0842714,"lat":48.413164,"elevation":[]},{"distance":792.597,"relativeDirection":"LEFT","streetName":"Rue Jolliet","absoluteDirection":"NORTHEAST","stayOn":false,"area":false,"bogusName":false,"lon":-71.0775766,"lat":48.4102442,"elevation":[]},{"distance":174.902,"relativeDirection":"RIGHT","streetName":"Rue Des Oblats Est","absoluteDirection":"SOUTHEAST","stayOn":false,"area":false,"bogusName":false,"lon":-71.0693767,"lat":48.414325600000005,"elevation":[]},{"distance":69.564,"relativeDirection":"LEFT","streetName":"Rue Bégin","absoluteDirection":"NORTHEAST","stayOn":false,"area":false,"bogusName":false,"lon":-71.06744280000001,"lat":48.413416500000004,"elevation":[]},{"distance":171.623,"relativeDirection":"LEFT","streetName":"Rue D'Youville","absoluteDirection":"NORTHWEST","stayOn":false,"area":false,"bogusName":false,"lon":-71.0668443,"lat":48.4138998,"elevation":[]}]}],"tooSloped":false},{"duration":1401,"startTime":1522670256000,"endTime":1522671657000,"walkTime":1231,"transitTime":168,"waitingTime":2,"walkDistance":1579.613082699246,"walkLimitExceeded":false,"elevationLost":0.0,"elevationGained":0.0,"transfers":0,"legs":[{"startTime":1522670256000,"endTime":1522671389000,"departureDelay":0,"arrivalDelay":0,"realTime":false,"distance":1456.934,"pathway":false,"mode":"WALK","route":"","agencyTimeZoneOffset":-14400000,"interlineWithPreviousLeg":false,"from":{"name":"Origin","lon":-71.092454,"lat":48.411318,"departure":1522670256000,"orig":"","vertexType":"NORMAL"},"to":{"name":"Jolliet / Garnier","stopId":"1:429","stopCode":"429","lon":-71.077656,"lat":48.410118,"arrival":1522671389000,"departure":1522671390000,"zoneId":"NA","stopIndex":17,"stopSequence":18,"vertexType":"TRANSIT"},"legGeometry":{"points":"qinfH`e|pLu@IoBX[eEMoCG}Bn@wCJ?PIXY|A{DiBkCk@y@cBcC{@sBi@gBi@qDZQHCnAi@f@YnAoBz@gDXaDV{Bz@wDfA{DlCmITT","length":29},"rentedBike":false,"transitLeg":false,"duration":1133.0,"steps":[{"distance":93.605,"relativeDirection":"DEPART","streetName":"Rue de l'Estacade","absoluteDirection":"NORTH","stayOn":false,"area":false,"bogusName":false,"lon":-71.0921648247175,"lat":48.411295041453315,"elevation":[]},{"distance":128.58499999999998,"relativeDirection":"RIGHT","streetName":"Rue du Canal","absoluteDirection":"EAST","stayOn":false,"area":false,"bogusName":false,"lon":-71.09224640000001,"lat":48.412128300000006,"elevation":[]},{"distance":108.55099999999999,"relativeDirection":"CONTINUE","streetName":"path","absoluteDirection":"EAST","stayOn":false,"area":false,"bogusName":true,"lon":-71.09053370000001,"lat":48.412339100000004,"elevation":[]},{"distance":121.414,"relativeDirection":"RIGHT","streetName":"Rue Martin-Bouvard","absoluteDirection":"SOUTH","stayOn":false,"area":false,"bogusName":false,"lon":-71.08914440000001,"lat":48.4121377,"elevation":[]},{"distance":353.491,"relativeDirection":"LEFT","streetName":"Boulevard Saint-Paul","absoluteDirection":"NORTHEAST","stayOn":false,"area":false,"bogusName":false,"lon":-71.088029,"lat":48.4113872,"elevation":[]},{"distance":22.995,"relativeDirection":"RIGHT","streetName":"Rue Saint-Augustin","absoluteDirection":"SOUTH","stayOn":false,"area":false,"bogusName":false,"lon":-71.0843859,"lat":48.413356300000004,"elevation":[]},{"distance":613.328,"relativeDirection":"CONTINUE","streetName":"Rue Garnier","absoluteDirection":"SOUTH","stayOn":false,"area":false,"bogusName":false,"lon":-71.0842714,"lat":48.413164,"elevation":[]},{"distance":14.965,"relativeDirection":"RIGHT","streetName":"Rue Jolliet","absoluteDirection":"SOUTHWEST","stayOn":false,"area":false,"bogusName":false,"lon":-71.0775766,"lat":48.4102442,"elevation":[]}]},{"startTime":1522671390000,"endTime":1522671558000,"departureDelay":0,"arrivalDelay":0,"realTime":false,"distance":1027.9128495554132,"pathway":false,"mode":"BUS","route":"205S","agencyName":"Société de Transport du Saguenay","agencyUrl":"http://ville.saguenay.ca/fr/services-aux-citoyens/transport-sts","agencyTimeZoneOffset":-14400000,"routeColor":"8B0000","routeType":3,"routeId":"1:205S","routeTextColor":"FFFFFF","interlineWithPreviousLeg":false,"tripBlockId":"49","headsign":"Séminaire","agencyId":"0","tripId":"1:218411","serviceDate":"20180402","from":{"name":"Jolliet / Garnier","stopId":"1:429","stopCode":"429","lon":-71.077656,"lat":48.410118,"arrival":1522671389000,"departure":1522671390000,"zoneId":"NA","stopIndex":17,"stopSequence":18,"vertexType":"TRANSIT"},"to":{"name":"Bégin / Youville","stopId":"1:581","stopCode":"581","lon":-71.065739,"lat":48.414902,"arrival":1522671558000,"departure":1522671559000,"zoneId":"NA","stopIndex":18,"stopSequence":19,"vertexType":"TRANSIT"},"legGeometry":{"points":"kbnfHzjypL[[eCsBoBmB]q@WeBy@wMIUwB{D{AcDsEmKUCrDoKoByB}DcE","length":15},"routeShortName":"205S","routeLongName":"Séminaire - Bégin/Malraux","rentedBike":false,"transitLeg":true,"duration":168.0,"steps":[]},{"startTime":1522671559000,"endTime":1522671657000,"departureDelay":0,"arrivalDelay":0,"realTime":false,"distance":122.446,"pathway":false,"mode":"WALK","route":"","agencyTimeZoneOffset":-14400000,"interlineWithPreviousLeg":false,"from":{"name":"Bégin / Youville","stopId":"1:581","stopCode":"581","lon":-71.065739,"lat":48.414902,"arrival":1522671558000,"departure":1522671559000,"zoneId":"NA","stopIndex":18,"stopSequence":19,"vertexType":"TRANSIT"},"to":{"name":"Destination","lon":-71.06686399,"lat":48.415766,"arrival":1522671657000,"orig":"","vertexType":"NORMAL"},"legGeometry":{"points":"i`ofHj`wpLBBv@v@k@lAi@dB","length":5},"rentedBike":false,"transitLeg":false,"duration":98.0,"steps":[{"distance":39.976,"relativeDirection":"DEPART","streetName":"Rue Bégin","absoluteDirection":"SOUTHWEST","stayOn":false,"area":false,"bogusName":false,"lon":-71.06581464642983,"lat":48.41493511820995,"elevation":[]},{"distance":82.47,"relativeDirection":"RIGHT","streetName":"Rue D'Youville","absoluteDirection":"NORTHWEST","stayOn":false,"area":false,"bogusName":false,"lon":-71.06611290000001,"lat":48.414635000000004,"elevation":[]}]}],"tooSloped":false},{"duration":1601,"startTime":1522670063000,"endTime":1522671664000,"walkTime":1359,"transitTime":240,"waitingTime":2,"walkDistance":1744.9610375870466,"walkLimitExceeded":false,"elevationLost":0.0,"elevationGained":0.0,"transfers":0,"legs":[{"startTime":1522670063000,"endTime":1522670399000,"departureDelay":0,"arrivalDelay":0,"realTime":false,"distance":435.112,"pathway":false,"mode":"WALK","route":"","agencyTimeZoneOffset":-14400000,"interlineWithPreviousLeg":false,"from":{"name":"Origin","lon":-71.092454,"lat":48.411318,"departure":1522670063000,"orig":"","vertexType":"NORMAL"},"to":{"name":"Descartes / Estacade","stopId":"1:1889","stopCode":"1889","lon":-71.093786,"lat":48.408069,"arrival":1522670399000,"departure":1522670400000,"zoneId":"NA","stopIndex":15,"stopSequence":16,"vertexType":"TRANSIT"},"legGeometry":{"points":"qinfH`e|pLzANf@Fz@Td@^dAzBhAbChA|@p@Zp@^rAuC","length":11},"rentedBike":false,"transitLeg":false,"duration":336.0,"steps":[{"distance":363.067,"relativeDirection":"DEPART","streetName":"Rue de l'Estacade","absoluteDirection":"SOUTH","stayOn":false,"area":false,"bogusName":false,"lon":-71.0921648247175,"lat":48.411295041453315,"elevation":[]},{"distance":72.045,"relativeDirection":"LEFT","streetName":"Rue Descartes","absoluteDirection":"SOUTHEAST","stayOn":false,"area":false,"bogusName":false,"lon":-71.0944442,"lat":48.4085559,"elevation":[]}]},{"startTime":1522670400000,"endTime":1522670640000,"departureDelay":0,"arrivalDelay":0,"realTime":false,"distance":2089.840332010751,"pathway":false,"mode":"BUS","route":"11","agencyName":"Société de Transport du Saguenay","agencyUrl":"http://ville.saguenay.ca/fr/services-aux-citoyens/transport-sts","agencyTimeZoneOffset":-14400000,"routeColor":"FF0000","routeType":3,"routeId":"1:11","routeTextColor":"FFFFFF","interlineWithPreviousLeg":false,"tripBlockId":"36","headsign":"Terminus Chicoutimi","agencyId":"0","tripId":"1:218279","serviceDate":"20180402","from":{"name":"Descartes / Estacade","stopId":"1:1889","stopCode":"1889","lon":-71.093786,"lat":48.408069,"arrival":1522670399000,"departure":1522670400000,"zoneId":"NA","stopIndex":15,"stopSequence":16,"vertexType":"TRANSIT"},"to":{"name":"Dubuc / Lapointe","stopId":"1:1578","stopCode":"1578","lon":-71.075709,"lat":48.421825,"arrival":1522670640000,"departure":1522670641000,"zoneId":"NA","stopIndex":23,"stopSequence":24,"vertexType":"TRANSIT"},"legGeometry":{"points":"{umfHrn|pLnA_DJWu@iAW[S[yI{MmBqC{@wAQUw@gAsDiF_B_CQYa@cA[_AUy@YcBOgAYHu@\\M`@cAiBuAyBkHgL{C{E}AcCc@o@q@gAOWwCyCyGyG_IaIs@rB","length":34},"routeShortName":"11","routeLongName":"Chic/Faubourg via St-Paul","rentedBike":false,"transitLeg":true,"duration":240.0,"steps":[]},{"startTime":1522670641000,"endTime":1522671664000,"departureDelay":0,"arrivalDelay":0,"realTime":false,"distance":1309.6340000000002,"pathway":false,"mode":"WALK","route":"","agencyTimeZoneOffset":-14400000,"interlineWithPreviousLeg":false,"from":{"name":"Dubuc / Lapointe","stopId":"1:1578","stopCode":"1578","lon":-71.075709,"lat":48.421825,"arrival":1522670640000,"departure":1522670641000,"zoneId":"NA","stopIndex":23,"stopSequence":24,"vertexType":"TRANSIT"},"to":{"name":"Destination","lon":-71.06686399,"lat":48.415766,"arrival":1522671664000,"orig":"","vertexType":"NORMAL"},"legGeometry":{"points":"ckpfHn~xpLx@uBf@}AXq@Pa@FEFCDCBG@I@K?MESfA_CNc@`@mAZ}@bAkCn@}AfBwEZi@PSVa@V[FE\\Y^Y^Kn@MXy@d@oBn@oB\\y@dAUt@yBdAwCFSjAeDLNrCpCFFBBv@v@k@lAi@dB","length":45},"rentedBike":false,"transitLeg":false,"duration":1023.0,"steps":[{"distance":95.247,"relativeDirection":"DEPART","streetName":"Rue Dubuc","absoluteDirection":"SOUTHEAST","stayOn":false,"area":false,"bogusName":false,"lon":-71.07575486184759,"lat":48.42178360403269,"elevation":[]},{"distance":78.343,"relativeDirection":"CONTINUE","streetName":"path","absoluteDirection":"SOUTHEAST","stayOn":false,"area":false,"bogusName":true,"lon":-71.07469880000001,"lat":48.4212916,"elevation":[]},{"distance":505.5630000000001,"relativeDirection":"RIGHT","streetName":"Rue Jolliet","absoluteDirection":"SOUTHEAST","stayOn":false,"area":false,"bogusName":false,"lon":-71.07388590000001,"lat":48.420954200000004,"elevation":[]},{"distance":188.869,"relativeDirection":"LEFT","streetName":"path","absoluteDirection":"SOUTHEAST","stayOn":false,"area":false,"bogusName":true,"lon":-71.069079,"lat":48.417887500000006,"elevation":[]},{"distance":205.419,"relativeDirection":"LEFT","streetName":"Rue Dubé","absoluteDirection":"SOUTHEAST","stayOn":false,"area":false,"bogusName":false,"lon":-71.0672681,"lat":48.416826400000005,"elevation":[]},{"distance":153.72299999999998,"relativeDirection":"RIGHT","streetName":"Rue Bégin","absoluteDirection":"SOUTHWEST","stayOn":false,"area":false,"bogusName":false,"lon":-71.06496530000001,"lat":48.4157887,"elevation":[]},{"distance":82.47,"relativeDirection":"RIGHT","streetName":"Rue D'Youville","absoluteDirection":"NORTHWEST","stayOn":false,"area":false,"bogusName":false,"lon":-71.06611290000001,"lat":48.414635000000004,"elevation":[]}]}],"tooSloped":false}]},"debugOutput":{"precalculationTime":46,"pathCalculationTime":27,"pathTimes":[18,4,5],"renderingTime":1,"totalTime":74,"timedOut":false},"elevationMetadata":{"ellipsoidToGeoidDifference":-28.885904201182168,"geoidElevation":false}}