{"requestParameters":{"date":"2018/04/02","walkSpeed":"1.33","walkReluctance":"2.0","fromPlace":"48.38109,-71.079092","maxWalkDistance":"3000","waitReluctance":"1.0","carSpeed":"33","numItineraries":"3","waitAtBeginningFactor":"0.4","mode":"TRANSIT,WALK","ignoreRealtimeUpdates":"false","stairsReluctance":"2.0","toPlace":"48.411146,-71.090979","time":"17:30:00"},"plan":{"date":1522704600000,"from":{"name":"Origin","lon":-71.079092,"lat":48.38109,"orig":"","vertexType":"NORMAL"},"to":{"name":"Destination","lon":-71.090979,"lat":48.411146,"orig":"","vertexType":"NORMAL"},"itineraries":[{"duration":2844,"startTime":1522705345000,"endTime":1522708189000,"walkTime":588,"transitTime":1954,"waitingTime":302,"walkDistance":761.0509172910738,"walkLimitExceeded":false,"elevationLost":0.0,"elevationGained":0.0,"transfers":1,"legs":[{"startTime":1522705345000,"endTime":1522705589000,"departureDelay":0,"arrivalDelay":0,"realTime":false,"distance":321.96299999999997,"pathway":false,"mode":"WALK","route":"","agencyTimeZoneOffset":-14400000,"interlineWithPreviousLeg":false,"from":{"name":"Origin","lon":-71.079092,"lat":48.38109,"departure":1522705345000,"orig":"","vertexType":"NORMAL"},"to":{"name":"boul. Talbot (no. 2395)","stopId":"1:8","stopCode":"8","lon":-71.08056,"lat":48.384607,"arrival":1522705589000,"departure":1522705590000,"zoneId":"NA","stopIndex":2,"stopSequence":3,"vertexType":"TRANSIT"},"legGeometry":{"points":"kqhfHbnypL_C~FyErLAD","length":4},"rentedBike":false,"transitLeg":false,"duration":244.0,"steps":[{"distance":321.96299999999997,"relativeDirection":"DEPART","streetName":"Rue des Routiers","absoluteDirection":"NORTHWEST","stayOn":false,"area":false,"bogusName":false,"lon":-71.07825956378271,"lat":48.381823742842485,"elevation":[]}]},{"startTime":1522705590000,"endTime":1522707000000,"departureDelay":0,"arrivalDelay":0,"realTime":false,"distance":7243.221287135649,"pathway":false,"mode":"BUS","route":"175","agencyName":"Société de Transport du Saguenay","agencyUrl":"http://ville.saguenay.ca/fr/services-aux-citoyens/transport-sts","agencyTimeZoneOffset":-14400000,"routeColor":"FF00FF","routeType":3,"routeId":"1:175","routeTextColor":"FFFFFF","interlineWithPreviousLeg":false,"tripBlockId":"9","headsign":"Terminus Chicoutimi","agencyId":"0","tripId":"1:217414","serviceDate":"20180402","from":{"name":"boul. Talbot (no. 2395)","stopId":"1:8","stopCode":"8","lon":-71.08056,"lat":48.384607,"arrival":1522705589000,"departure":1522705590000,"zoneId":"NA","stopIndex":2,"stopSequence":3,"vertexType":"TRANSIT"},"to":{"name":"Terminus Chicoutimi","stopId":"1:1289","stopCode":"1289","lon":-71.066163,"lat":48.428677,"arrival":1522707000000,"departure":1522707300000,"zoneId":"NA","stopIndex":27,"stopSequence":28,"vertexType":"TRANSIT"},"legGeometry":{"points":"ccifHd}ypLoEiFUWSUqCwC]a@{ByC{@cAkJuKoAwA_CeCeExJ~AlB`@mAu@k@}@q@|C}Iw@}@aO_QkEsEiAoAgEsFkFsHqJ_N}FkImPkOuO{N_U_TcNgNcBcB{E`Jc@x@qG~@{BlAk@XgSrQqB_GAeFiEeEOt@gAeA_A_ATm@yAwAgBeBqDnL@nBF`@f@|C[dCuAfB]xAs@OmCmCmEkE]a@g@i@ZiGTmEl@oLaEe@cFk@?pH?tJDvBPjMB~Bo@PQDRbFKdGMhIOvIK|EQpHoCQEdC","length":77},"routeShortName":"175","routeLongName":"Term. Chic / Costco","rentedBike":false,"transitLeg":true,"duration":1410.0,"steps":[]},{"startTime":1522707300000,"endTime":1522707844000,"departureDelay":0,"arrivalDelay":0,"realTime":false,"distance":2772.726546543816,"pathway":false,"mode":"BUS","route":"11","agencyName":"Société de Transport du Saguenay","agencyUrl":"http://ville.saguenay.ca/fr/services-aux-citoyens/transport-sts","agencyTimeZoneOffset":-14400000,"routeColor":"FF0000","routeType":3,"routeId":"1:11","routeTextColor":"FFFFFF","interlineWithPreviousLeg":false,"tripBlockId":"37","headsign":"Boul.Royaume/St-Pierre","agencyId":"0","tripId":"1:218326","serviceDate":"20180402","from":{"name":"Terminus Chicoutimi","stopId":"1:1289","stopCode":"1289","lon":-71.066163,"lat":48.428677,"arrival":1522707000000,"departure":1522707300000,"zoneId":"NA","stopIndex":0,"stopSequence":1,"vertexType":"TRANSIT"},"to":{"name":"boul. Saint-Paul / Martin Bouvard","stopId":"1:427","stopCode":"427","lon":-71.088402,"lat":48.411206,"arrival":1522707844000,"departure":1522707845000,"zoneId":"NA","stopIndex":13,"stopSequence":14,"vertexType":"TRANSIT"},"legGeometry":{"points":"evqfHzcwpLk@?UhKfIh@dKp@GnDIfDOtEE~@Ff@x@rEF~@CbAALO~ADRNJXBr@DfGRPBPJLN@@FPFTBX?TE`BhBR@?J@NELKFOlAiDL[bA`AfIjIbGdGzDzD`A~An@`ApApBpClEvJrOR\\bAfBLa@t@]LjAVvAVbAVv@^bAXj@b@t@xEtGh@r@","length":59},"routeShortName":"11","routeLongName":"Chic/Faubourg via St-Paul","rentedBike":false,"transitLeg":true,"duration":544.0,"steps":[]},{"startTime":1522707845000,"endTime":1522708189000,"departureDelay":0,"arrivalDelay":0,"realTime":false,"distance":439.02099999999996,"pathway":false,"mode":"WALK","route":"","agencyTimeZoneOffset":-14400000,"interlineWithPreviousLeg":false,"from":{"name":"boul. Saint-Paul / Martin Bouvard","stopId":"1:427","stopCode":"427","lon":-71.088402,"lat":48.411206,"arrival":1522707844000,"departure":1522707845000,"zoneId":"NA","stopIndex":13,"stopSequence":14,"vertexType":"TRANSIT"},"to":{"name":"Destination","lon":-71.090979,"lat":48.411146,"arrival":1522708189000,"orig":"","vertexType":"NORMAL"},"legGeometry":{"points":"shnfHtl{pLCCk@k@}AzDYXQHK?o@vCF|BLnCrBShBH","length":12},"rentedBike":false,"transitLeg":false,"duration":344.0,"steps":[{"distance":31.826999999999998,"relativeDirection":"DEPART","streetName":"Boulevard Saint-Paul","absoluteDirection":"NORTHEAST","stayOn":false,"area":false,"bogusName":false,"lon":-71.08826195247585,"lat":48.41114632424416,"elevation":[]},{"distance":121.414,"relativeDirection":"LEFT","streetName":"Rue Martin-Bouvard","absoluteDirection":"NORTHWEST","stayOn":false,"area":false,"bogusName":false,"lon":-71.088029,"lat":48.4113872,"elevation":[]},{"distance":108.55099999999999,"relativeDirection":"LEFT","streetName":"path","absoluteDirection":"NORTHWEST","stayOn":false,"area":false,"bogusName":true,"lon":-71.08914440000001,"lat":48.4121377,"elevation":[]},{"distance":53.762,"relativeDirection":"CONTINUE","streetName":"Rue du Canal","absoluteDirection":"WEST","stayOn":false,"area":false,"bogusName":false,"lon":-71.09053370000001,"lat":48.412339100000004,"elevation":[]},{"distance":123.467,"relativeDirection":"LEFT","streetName":"Rue des Vannes","absoluteDirection":"SOUTH","stayOn":false,"area":false,"bogusName":false,"lon":-71.0912526,"lat":48.4122612,"elevation":[]}]}],"tooSloped":false},{"duration":3648,"startTime":1522704957000,"endTime":1522708605000,"walkTime":612,"transitTime":1954,"waitingTime":1082,"walkDistance":791.1829172910739,"walkLimitExceeded":false,"elevationLost":0.0,"elevationGained":0.0,"transfers":1,"legs":[{"startTime":1522704957000,"endTime":1522705227000,"departureDelay":0,"arrivalDelay":0,"realTime":false,"distance":354.53099999999995,"pathway":false,"mode":"WALK","route":"","agencyTimeZoneOffset":-14400000,"interlineWithPreviousLeg":false,"from":{"name":"Origin","lon":-71.079092,"lat":48.38109,"departure":1522704957000,"orig":"","vertexType":"NORMAL"},"to":{"name":"boul. Talbot (no. 2406)","stopId":"1:76","stopCode":"76","lon":-71.081157,"lat":48.38457,"arrival":1522705227000,"departure":1522705228000,"zoneId":"NA","stopIndex":29,"stopSequence":30,"vertexType":"TRANSIT"},"legGeometry":{"points":"kqhfHbnypL_C~FyErLADKVKVKT","length":7},"rentedBike":false,"transitLeg":false,"duration":270.0,"steps":[{"distance":354.53099999999995,"relativeDirection":"DEPART","streetName":"Rue des Routiers","absoluteDirection":"NORTHWEST","stayOn":false,"area":false,"bogusName":false,"lon":-71.07825956378271,"lat":48.381823742842485,"elevation":[]}]},{"startTime":1522705228000,"endTime":1522705320000,"departureDelay":0,"arrivalDelay":0,"realTime":false,"distance":421.63545622949624,"pathway":false,"mode":"BUS","route":"175","agencyName":"Société de Transport du Saguenay","agencyUrl":"http://ville.saguenay.ca/fr/services-aux-citoyens/transport-sts","agencyTimeZoneOffset":-14400000,"routeColor":"FF00FF","routeType":3,"routeId":"1:175","routeTextColor":"FFFFFF","interlineWithPreviousLeg":false,"tripBlockId":"6","headsign":"Costco","agencyId":"0","tripId":"1:217306","serviceDate":"20180402","from":{"name":"boul. Talbot (no. 2406)","stopId":"1:76","stopCode":"76","lon":-71.081157,"lat":48.38457,"arrival":1522705227000,"departure":1522705228000,"zoneId":"NA","stopIndex":29,"stopSequence":30,"vertexType":"TRANSIT"},"to":{"name":"COSTCO","stopId":"1:1710","stopCode":"1710","lon":-71.085767,"lat":48.382333,"arrival":1522705320000,"departure":1522705500000,"zoneId":"NA","stopIndex":30,"stopSequence":31,"vertexType":"TRANSIT"},"legGeometry":{"points":"gbifHt_zpLpLbNpG|GyCtHwBcC","length":5},"routeShortName":"175","routeLongName":"Term. Chic / Costco","rentedBike":false,"transitLeg":true,"duration":92.0,"steps":[]},{"startTime":1522705500000,"endTime":1522705779000,"departureDelay":0,"arrivalDelay":0,"realTime":false,"distance":3182.359527915202,"pathway":false,"mode":"BUS","route":"2","agencyName":"Société de Transport du Saguenay","agencyUrl":"http://ville.saguenay.ca/fr/services-aux-citoyens/transport-sts","agencyTimeZoneOffset":-14400000,"routeColor":"FF0000","routeType":3,"routeId":"1:2","routeTextColor":"FFFFFF","interlineWithPreviousLeg":true,"tripBlockId":"6","headsign":"Terminus Jonquière","agencyId":"0","tripId":"1:217307","serviceDate":"20180402","from":{"name":"COSTCO","stopId":"1:1710","stopCode":"1710","lon":-71.085767,"lat":48.382333,"arrival":1522705320000,"departure":1522705500000,"zoneId":"NA","stopIndex":0,"stopSequence":1,"vertexType":"TRANSIT"},"to":{"name":"boul. Royaume (no. 1731)","stopId":"1:1628","stopCode":"1628","lon":-71.12571,"lat":48.391585,"arrival":1522705779000,"departure":1522706859000,"zoneId":"NA","stopIndex":6,"stopSequence":7,"vertexType":"TRANSIT"},"legGeometry":{"points":"wthfHn}zpLeLkMxCaIbPzPkL|[eB~GwBlIa@bXIbQO`^aBhTiBlNUfBiI~ZeHzQeFxMqDtKAJ}ApJM~E","length":20},"routeShortName":"2","routeLongName":"Chic/Jonq via Boul. Royaume","rentedBike":false,"transitLeg":true,"duration":279.0,"steps":[]},{"startTime":1522706859000,"endTime":1522706880000,"departureDelay":0,"arrivalDelay":0,"realTime":false,"distance":304.06586689627636,"pathway":false,"mode":"BUS","route":"11","agencyName":"Société de Transport du Saguenay","agencyUrl":"http://ville.saguenay.ca/fr/services-aux-citoyens/transport-sts","agencyTimeZoneOffset":-14400000,"routeColor":"FF0000","routeType":3,"routeId":"1:11","routeTextColor":"FFFFFF","interlineWithPreviousLeg":false,"tripBlockId":"35","headsign":"Boul.Royaume/St-Pierre","agencyId":"0","tripId":"1:218264","serviceDate":"20180402","from":{"name":"boul. Royaume (no. 1731)","stopId":"1:1628","stopCode":"1628","lon":-71.12571,"lat":48.391585,"arrival":1522705779000,"departure":1522706859000,"zoneId":"NA","stopIndex":30,"stopSequence":31,"vertexType":"TRANSIT"},"to":{"name":"boul. Royaume / St-Pierre","stopId":"1:1922","stopCode":"1922","lon":-71.129819,"lat":48.391404,"arrival":1522706880000,"departure":1522706880000,"zoneId":"NA","stopIndex":31,"stopSequence":32,"vertexType":"TRANSIT"},"legGeometry":{"points":"anjfHxvbqLAPA~A?lBJzDRxEB~@DzB","length":8},"routeShortName":"11","routeLongName":"Chic/Faubourg via St-Paul","rentedBike":false,"transitLeg":true,"duration":21.0,"steps":[]},{"startTime":1522706880000,"endTime":1522708262000,"departureDelay":0,"arrivalDelay":0,"realTime":false,"distance":5588.030412171694,"pathway":false,"mode":"BUS","route":"11","agencyName":"Société de Transport du Saguenay","agencyUrl":"http://ville.saguenay.ca/fr/services-aux-citoyens/transport-sts","agencyTimeZoneOffset":-14400000,"routeColor":"FF0000","routeType":3,"routeId":"1:11","routeTextColor":"FFFFFF","interlineWithPreviousLeg":true,"tripBlockId":"35","headsign":"Terminus Chicoutimi","agencyId":"0","tripId":"1:218265","serviceDate":"20180402","from":{"name":"boul. Royaume / St-Pierre","stopId":"1:34","stopCode":"34","lon":-71.13054,"lat":48.391059,"arrival":1522706880000,"departure":1522706880000,"zoneId":"NA","stopIndex":0,"stopSequence":1,"vertexType":"TRANSIT"},"to":{"name":"boul. Saint-Paul (no. 1177)","stopId":"1:428","stopCode":"428","lon":-71.08801,"lat":48.411065,"arrival":1522708262000,"departure":1522708263000,"zoneId":"NA","stopIndex":17,"stopSequence":18,"vertexType":"TRANSIT"},"legGeometry":{"points":"ykjfHztcqL?{@[eF_@{IE_B?yBBuA@]LkCHaAf@}D\\mB\\mA@CVaAxBkGzFmOnDmJzByFO[Q]yBsBiMqLKIsFyFMQ}AuBuCgEmGaISV[|@Qj@K`@AFSlAYvBc@nCi@lCyE`T}@dEoLxh@GLIHI@KAgN{IhHu[p@aCjDyJfQie@`AmCJ[kXi[gKsLqMgOmAbDAVSl@y@vBeCuCoCaDkDuE_@g@{FwGOMnA}CnA_DJWu@iAW[S[yI{MmBqC{@wAQUw@gA","length":76},"routeShortName":"11","routeLongName":"Chic/Faubourg via St-Paul","rentedBike":false,"transitLeg":true,"duration":1382.0,"steps":[]},{"startTime":1522708263000,"endTime":1522708605000,"departureDelay":0,"arrivalDelay":0,"realTime":false,"distance":436.585,"pathway":false,"mode":"WALK","route":"","agencyTimeZoneOffset":-14400000,"interlineWithPreviousLeg":false,"from":{"name":"boul. Saint-Paul (no. 1177)","stopId":"1:428","stopCode":"428","lon":-71.08801,"lat":48.411065,"arrival":1522708262000,"departure":1522708263000,"zoneId":"NA","stopIndex":17,"stopSequence":18,"vertexType":"TRANSIT"},"to":{"name":"Destination","lon":-71.090979,"lat":48.411146,"arrival":1522708605000,"orig":"","vertexType":"NORMAL"},"legGeometry":{"points":"whnfHpl{pLk@k@}AzDYXQHK?o@vCF|BLnCrBShBH","length":11},"rentedBike":false,"transitLeg":false,"duration":342.0,"steps":[{"distance":29.391,"relativeDirection":"DEPART","streetName":"Boulevard Saint-Paul","absoluteDirection":"NORTHEAST","stayOn":false,"area":false,"bogusName":false,"lon":-71.08824412112547,"lat":48.41116476208211,"elevation":[]},{"distance":121.414,"relativeDirection":"LEFT","streetName":"Rue Martin-Bouvard","absoluteDirection":"NORTHWEST","stayOn":false,"area":false,"bogusName":false,"lon":-71.088029,"lat":48.4113872,"elevation":[]},{"distance":108.55099999999999,"relativeDirection":"LEFT","streetName":"path","absoluteDirection":"NORTHWEST","stayOn":false,"area":false,"bogusName":true,"lon":-71.08914440000001,"lat":48.4121377,"elevation":[]},{"distance":53.762,"relativeDirection":"CONTINUE","streetName":"Rue du Canal","absoluteDirection":"WEST","stayOn":false,"area":false,"bogusName":false,"lon":-71.09053370000001,"lat":48.412339100000004,"elevation":[]},{"distance":123.467,"relativeDirection":"LEFT","streetName":"Rue des Vannes","absoluteDirection":"SOUTH","stayOn":false,"area":false,"bogusName":false,"lon":-71.0912526,"lat":48.4122612,"elevation":[]}]}],"tooSloped":false},{"duration":2844,"startTime":1522707145000,"endTime":1522709989000,"walkTime":588,"transitTime":1954,"waitingTime":302,"walkDistance":761.0509172910738,"walkLimitExceeded":false,"elevationLost":0.0,"elevationGained":0.0,"transfers":1,"legs":[{"startTime":1522707145000,"endTime":1522707389000,"departureDelay":0,"arrivalDelay":0,"realTime":false,"distance":321.96299999999997,"pathway":false,"mode":"WALK","route":"","agencyTimeZoneOffset":-14400000,"interlineWithPreviousLeg":false,"from":{"name":"Origin","lon":-71.079092,"lat":48.38109,"departure":1522707145000,"orig":"","vertexType":"NORMAL"},"to":{"name":"boul. Talbot (no. 2395)","stopId":"1:8","stopCode":"8","lon":-71.08056,"lat":48.384607,"arrival":1522707389000,"departure":1522707390000,"zoneId":"NA","stopIndex":2,"stopSequence":3,"vertexType":"TRANSIT"},"legGeometry":{"points":"kqhfHbnypL_C~FyErLAD","length":4},"rentedBike":false,"transitLeg":false,"duration":244.0,"steps":[{"distance":321.96299999999997,"relativeDirection":"DEPART","streetName":"Rue des Routiers","absoluteDirection":"NORTHWEST","stayOn":false,"area":false,"bogusName":false,"lon":-71.07825956378271,"lat":48.381823742842485,"elevation":[]}]},{"startTime":1522707390000,"endTime":1522708800000,"departureDelay":0,"arrivalDelay":0,"realTime":false,"distance":7243.221287135649,"pathway":false,"mode":"BUS","route":"175","agencyName":"Société de Transport du Saguenay","agencyUrl":"http://ville.saguenay.ca/fr/services-aux-citoyens/transport-sts","agencyTimeZoneOffset":-14400000,"routeColor":"FF00FF","routeType":3,"routeId":"1:175","routeTextColor":"FFFFFF","interlineWithPreviousLeg":false,"tripBlockId":"11","headsign":"Terminus Chicoutimi","agencyId":"0","tripId":"1:217485","serviceDate":"20180402","from":{"name":"boul. Talbot (no. 2395)","stopId":"1:8","stopCode":"8","lon":-71.08056,"lat":48.384607,"arrival":1522707389000,"departure":1522707390000,"zoneId":"NA","stopIndex":2,"stopSequence":3,"vertexType":"TRANSIT"},"to":{"name":"Terminus Chicoutimi","stopId":"1:1289","stopCode":"1289","lon":-71.066163,"lat":48.428677,"arrival":1522708800000,"departure":1522709100000,"zoneId":"NA","stopIndex":27,"stopSequence":28,"vertexType":"TRANSIT"},"legGeometry":{"points":"ccifHd}ypLoEiFUWSUqCwC]a@{ByC{@cAkJuKoAwA_CeCeExJ~AlB`@mAu@k@}@q@|C}Iw@}@aO_QkEsEiAoAgEsFkFsHqJ_N}FkImPkOuO{N_U_TcNgNcBcB{E`Jc@x@qG~@{BlAk@XgSrQqB_GAeFiEeEOt@gAeA_A_ATm@yAwAgBeBqDnL@nBF`@f@|C[dCuAfB]xAs@OmCmCmEkE]a@g@i@ZiGTmEl@oLaEe@cFk@?pH?tJDvBPjMB~Bo@PQDRbFKdGMhIOvIK|EQpHoCQEdC","length":77},"routeShortName":"175","routeLongName":"Term. Chic / Costco","rentedBike":false,"transitLeg":true,"duration":1410.0,"steps":[]},{"startTime":1522709100000,"endTime":1522709644000,"departureDelay":0,"arrivalDelay":0,"realTime":false,"distance":2772.726546543816,"pathway":false,"mode":"BUS","route":"11","agencyName":"Société de Transport du Saguenay","agencyUrl":"http://ville.saguenay.ca/fr/services-aux-citoyens/transport-sts","agencyTimeZoneOffset":-14400000,"routeColor":"FF0000","routeType":3,"routeId":"1:11","routeTextColor":"FFFFFF","interlineWithPreviousLeg":false,"tripBlockId":"34","headsign":"Boul.Royaume/St-Pierre","agencyId":"0","tripId":"1:218231","serviceDate":"20180402","from":{"name":"Terminus Chicoutimi","stopId":"1:1289","stopCode":"1289","lon":-71.066163,"lat":48.428677,"arrival":1522708800000,"departure":1522709100000,"zoneId":"NA","stopIndex":0,"stopSequence":1,"vertexType":"TRANSIT"},"to":{"name":"boul. Saint-Paul / Martin Bouvard","stopId":"1:427","stopCode":"427","lon":-71.088402,"lat":48.411206,"arrival":1522709644000,"departure":1522709645000,"zoneId":"NA","stopIndex":13,"stopSequence":14,"vertexType":"TRANSIT"},"legGeometry":{"points":"evqfHzcwpLk@?UhKfIh@dKp@GnDIfDOtEE~@Ff@x@rEF~@CbAALO~ADRNJXBr@DfGRPBPJLN@@FPFTBX?TE`BhBR@?J@NELKFOlAiDL[bA`AfIjIbGdGzDzD`A~An@`ApApBpClEvJrOR\\bAfBLa@t@]LjAVvAVbAVv@^bAXj@b@t@xEtGh@r@","length":59},"routeShortName":"11","routeLongName":"Chic/Faubourg via St-Paul","rentedBike":false,"transitLeg":true,"duration":544.0,"steps":[]},{"startTime":1522709645000,"endTime":1522709989000,"departureDelay":0,"arrivalDelay":0,"realTime":false,"distance":439.02099999999996,"pathway":false,"mode":"WALK","route":"","agencyTimeZoneOffset":-14400000,"interlineWithPreviousLeg":false,"from":{"name":"boul. Saint-Paul / Martin Bouvard","stopId":"1:427","stopCode":"427","lon":-71.088402,"lat":48.411206,"arrival":1522709644000,"departure":1522709645000,"zoneId":"NA","stopIndex":13,"stopSequence":14,"vertexType":"TRANSIT"},"to":{"name":"Destination","lon":-71.090979,"lat":48.411146,"arrival":1522709989000,"orig":"","vertexType":"NORMAL"},"legGeometry":{"points":"shnfHtl{pLCCk@k@}AzDYXQHK?o@vCF|BLnCrBShBH","length":12},"rentedBike":false,"transitLeg":false,"duration":344.0,"steps":[{"distance":31.826999999999998,"relativeDirection":"DEPART","streetName":"Boulevard Saint-Paul","absoluteDirection":"NORTHEAST","stayOn":false,"area":false,"bogusName":false,"lon":-71.08826195247585,"lat":48.41114632424416,"elevation":[]},{"distance":121.414,"relativeDirection":"LEFT","streetName":"Rue Martin-Bouvard","absoluteDirection":"NORTHWEST","stayOn":false,"area":false,"bogusName":false,"lon":-71.088029,"lat":48.4113872,"elevation":[]},{"distance":108.55099999999999,"relativeDirection":"LEFT","streetName":"path","absoluteDirection":"NORTHWEST","stayOn":false,"area":false,"bogusName":true,"lon":-71.08914440000001,"lat":48.4121377,"elevation":[]},{"distance":53.762,"relativeDirection":"CONTINUE","streetName":"Rue du Canal","absoluteDirection":"WEST","stayOn":false,"area":false,"bogusName":false,"lon":-71.09053370000001,"lat":48.412339100000004,"elevation":[]},{"distance":123.467,"relativeDirection":"LEFT","streetName":"Rue des Vannes","absoluteDirection":"SOUTH","stayOn":false,"area":false,"bogusName":false,"lon":-71.0912526,"lat":48.4122612,"elevation":[]}]}],"tooSloped":false}]},"debugOutput":{"precalculationTime":12,"pathCalculationTime":17,"pathTimes":[9,6,2],"renderingTime":0,"totalTime":29,"timedOut":false},"elevationMetadata":{"ellipsoidToGeoidDifference":-28.885904201182168,"geoidElevation":false}}