{"requestParameters":{"date":"2018/04/02","walkSpeed":"1.33","walkReluctance":"2.0","fromPlace":"48.410179,-71.08874","maxWalkDistance":"3000","waitReluctance":"1.0","carSpeed":"33","numItineraries":"3","waitAtBeginningFactor":"0.4","mode":"TRANSIT,WALK","ignoreRealtimeUpdates":"false","stairsReluctance":"2.0","toPlace":"48.407391,-71.102188","time":"18:0:00"},"plan":{"date":1522706400000,"from":{"name":"Origin","lon":-71.08874,"lat":48.410179,"orig":"","vertexType":"NORMAL"},"to":{"name":"Destination","lon":-71.102188,"lat":48.407391,"orig":"","vertexType":"NORMAL"},"itineraries":[{"duration":1040,"startTime":1522706400000,"endTime":1522707440000,"walkTime":1040,"transitTime":0,"waitingTime":0,"walkDistance":1339.5124887154966,"walkLimitExceeded":false,"elevationLost":0.0,"elevationGained":0.0,"transfers":0,"legs":[{"startTime":1522706400000,"endTime":1522707440000,"departureDelay":0,"arrivalDelay":0,"realTime":false,"distance":1339.317,"pathway":false,"mode":"WALK","route":"","agencyTimeZoneOffset":-14400000,"interlineWithPreviousLeg":false,"from":{"name":"Origin","lon":-71.08874,"lat":48.410179,"departure":1522706400000,"orig":"","vertexType":"NORMAL"},"to":{"name":"Destination","lon":-71.102188,"lat":48.407391,"arrival":1522707440000,"orig":"","vertexType":"NORMAL"},"legGeometry":{"points":"_dnfH`r{pL`B`ClC`EpB~CxAxBf@t@n@~@NT}AfDsAtCRTe@vA[|ANV_DnIbBjCkAxCfBpBMr@Mz@Ab@@x@Nt@Nh@Rb@b@h@j@n@^\\RJPBVB~AA","length":32},"rentedBike":false,"transitLeg":false,"duration":1040.0,"steps":[{"distance":410.749,"relativeDirection":"DEPART","streetName":"Boulevard Saint-Paul","absoluteDirection":"SOUTHWEST","stayOn":false,"area":false,"bogusName":false,"lon":-71.0891226370154,"lat":48.4104056852691,"elevation":[]},{"distance":153.429,"relativeDirection":"RIGHT","streetName":"Rue Descartes","absoluteDirection":"NORTHWEST","stayOn":false,"area":false,"bogusName":false,"lon":-71.0928554,"lat":48.4076662,"elevation":[]},{"distance":13.63,"relativeDirection":"LEFT","streetName":"Rue de l'Estacade","absoluteDirection":"SOUTHWEST","stayOn":false,"area":false,"bogusName":false,"lon":-71.0944442,"lat":48.4085559,"elevation":[]},{"distance":76.935,"relativeDirection":"RIGHT","streetName":"path","absoluteDirection":"NORTHWEST","stayOn":false,"area":false,"bogusName":true,"lon":-71.0945535,"lat":48.4084571,"elevation":[]},{"distance":165.624,"relativeDirection":"LEFT","streetName":"Rue des Draveurs","absoluteDirection":"SOUTHWEST","stayOn":false,"area":false,"bogusName":false,"lon":-71.0954658,"lat":48.4087873,"elevation":[]},{"distance":76.295,"relativeDirection":"LEFT","streetName":"Rue de la Pulpe","absoluteDirection":"SOUTHWEST","stayOn":false,"area":false,"bogusName":false,"lon":-71.0972696,"lat":48.4095078,"elevation":[]},{"distance":70.97,"relativeDirection":"RIGHT","streetName":"Rue du Séchoir","absoluteDirection":"NORTHWEST","stayOn":false,"area":false,"bogusName":false,"lon":-71.0979659,"lat":48.4090007,"elevation":[]},{"distance":70.759,"relativeDirection":"LEFT","streetName":"Rue du Canal","absoluteDirection":"SOUTHWEST","stayOn":false,"area":false,"bogusName":false,"lon":-71.09873730000001,"lat":48.409381700000004,"elevation":[]},{"distance":300.926,"relativeDirection":"RIGHT","streetName":"Rue des Défibreurs","absoluteDirection":"WEST","stayOn":false,"area":false,"bogusName":false,"lon":-71.0993035,"lat":48.4088682,"elevation":[]}]}],"tooSloped":false},{"duration":659,"startTime":1522707763000,"endTime":1522708422000,"walkTime":418,"transitTime":239,"waitingTime":2,"walkDistance":539.3735263138365,"walkLimitExceeded":false,"elevationLost":0.0,"elevationGained":0.0,"transfers":0,"legs":[{"startTime":1522707763000,"endTime":1522707843000,"departureDelay":0,"arrivalDelay":0,"realTime":false,"distance":104.332,"pathway":false,"mode":"WALK","route":"","agencyTimeZoneOffset":-14400000,"interlineWithPreviousLeg":false,"from":{"name":"Origin","lon":-71.08874,"lat":48.410179,"departure":1522707763000,"orig":"","vertexType":"NORMAL"},"to":{"name":"boul. Saint-Paul / Martin Bouvard","stopId":"1:427","stopCode":"427","lon":-71.088402,"lat":48.411206,"arrival":1522707843000,"departure":1522707844000,"zoneId":"NA","stopIndex":13,"stopSequence":14,"vertexType":"TRANSIT"},"legGeometry":{"points":"_dnfH`r{pLkAgBgAcA","length":3},"rentedBike":false,"transitLeg":false,"duration":80.0,"steps":[{"distance":104.332,"relativeDirection":"DEPART","streetName":"Boulevard Saint-Paul","absoluteDirection":"NORTHEAST","stayOn":false,"area":false,"bogusName":false,"lon":-71.0891226370154,"lat":48.4104056852691,"elevation":[]}]},{"startTime":1522707844000,"endTime":1522708083000,"departureDelay":0,"arrivalDelay":0,"realTime":false,"distance":1062.5059498070805,"pathway":false,"mode":"BUS","route":"11","agencyName":"Société de Transport du Saguenay","agencyUrl":"http://ville.saguenay.ca/fr/services-aux-citoyens/transport-sts","agencyTimeZoneOffset":-14400000,"routeColor":"FF0000","routeType":3,"routeId":"1:11","routeTextColor":"FFFFFF","interlineWithPreviousLeg":false,"tripBlockId":"37","headsign":"Boul.Royaume/St-Pierre","agencyId":"0","tripId":"1:218326","serviceDate":"20180402","from":{"name":"boul. Saint-Paul / Martin Bouvard","stopId":"1:427","stopCode":"427","lon":-71.088402,"lat":48.411206,"arrival":1522707843000,"departure":1522707844000,"zoneId":"NA","stopIndex":13,"stopSequence":14,"vertexType":"TRANSIT"},"to":{"name":"boul. Barrette / Estacade","stopId":"1:465","stopCode":"465","lon":-71.098983,"lat":48.40478,"arrival":1522708083000,"departure":1522708084000,"zoneId":"NA","stopIndex":15,"stopSequence":16,"vertexType":"TRANSIT"},"legGeometry":{"points":"whnfH`m{pLn@x@FDjA|AlBpCnJ|NNTX`@V`@eCtHpFjH{FhPcB|Ft@|CEAdCnEdHKrBz@lGiQ","length":19},"routeShortName":"11","routeLongName":"Chic/Faubourg via St-Paul","rentedBike":false,"transitLeg":true,"duration":239.0,"steps":[]},{"startTime":1522708084000,"endTime":1522708422000,"departureDelay":0,"arrivalDelay":0,"realTime":false,"distance":434.98100000000005,"pathway":false,"mode":"WALK","route":"","agencyTimeZoneOffset":-14400000,"interlineWithPreviousLeg":false,"from":{"name":"boul. Barrette / Estacade","stopId":"1:465","stopCode":"465","lon":-71.098983,"lat":48.40478,"arrival":1522708083000,"departure":1522708084000,"zoneId":"NA","stopIndex":15,"stopSequence":16,"vertexType":"TRANSIT"},"to":{"name":"Destination","lon":-71.102188,"lat":48.407391,"arrival":1522708422000,"orig":"","vertexType":"NORMAL"},"legGeometry":{"points":"u`mfHzo}pL_ApCqAhEk@zBo@vCQQgAq@UOe@Gm@Cm@Bo@@","length":12},"rentedBike":false,"transitLeg":false,"duration":338.0,"steps":[{"distance":266.242,"relativeDirection":"DEPART","streetName":"bike path","absoluteDirection":"NORTHWEST","stayOn":false,"area":false,"bogusName":true,"lon":-71.09901282754062,"lat":48.40475012061133,"elevation":[]},{"distance":12.048,"relativeDirection":"RIGHT","streetName":"path","absoluteDirection":"NORTHEAST","stayOn":true,"area":false,"bogusName":true,"lon":-71.1021327,"lat":48.4059454,"elevation":[]},{"distance":156.691,"relativeDirection":"CONTINUE","streetName":"Rue des Défibreurs","absoluteDirection":"NORTHEAST","stayOn":false,"area":false,"bogusName":false,"lon":-71.1020482,"lat":48.4060381,"elevation":[]}]}],"tooSloped":false},{"duration":659,"startTime":1522709563000,"endTime":1522710222000,"walkTime":418,"transitTime":239,"waitingTime":2,"walkDistance":539.3735263138365,"walkLimitExceeded":false,"elevationLost":0.0,"elevationGained":0.0,"transfers":0,"legs":[{"startTime":1522709563000,"endTime":1522709643000,"departureDelay":0,"arrivalDelay":0,"realTime":false,"distance":104.332,"pathway":false,"mode":"WALK","route":"","agencyTimeZoneOffset":-14400000,"interlineWithPreviousLeg":false,"from":{"name":"Origin","lon":-71.08874,"lat":48.410179,"departure":1522709563000,"orig":"","vertexType":"NORMAL"},"to":{"name":"boul. Saint-Paul / Martin Bouvard","stopId":"1:427","stopCode":"427","lon":-71.088402,"lat":48.411206,"arrival":1522709643000,"departure":1522709644000,"zoneId":"NA","stopIndex":13,"stopSequence":14,"vertexType":"TRANSIT"},"legGeometry":{"points":"_dnfH`r{pLkAgBgAcA","length":3},"rentedBike":false,"transitLeg":false,"duration":80.0,"steps":[{"distance":104.332,"relativeDirection":"DEPART","streetName":"Boulevard Saint-Paul","absoluteDirection":"NORTHEAST","stayOn":false,"area":false,"bogusName":false,"lon":-71.0891226370154,"lat":48.4104056852691,"elevation":[]}]},{"startTime":1522709644000,"endTime":1522709883000,"departureDelay":0,"arrivalDelay":0,"realTime":false,"distance":1062.5059498070805,"pathway":false,"mode":"BUS","route":"11","agencyName":"Société de Transport du Saguenay","agencyUrl":"http://ville.saguenay.ca/fr/services-aux-citoyens/transport-sts","agencyTimeZoneOffset":-14400000,"routeColor":"FF0000","routeType":3,"routeId":"1:11","routeTextColor":"FFFFFF","interlineWithPreviousLeg":false,"tripBlockId":"34","headsign":"Boul.Royaume/St-Pierre","agencyId":"0","tripId":"1:218231","serviceDate":"20180402","from":{"name":"boul. Saint-Paul / Martin Bouvard","stopId":"1:427","stopCode":"427","lon":-71.088402,"lat":48.411206,"arrival":1522709643000,"departure":1522709644000,"zoneId":"NA","stopIndex":13,"stopSequence":14,"vertexType":"TRANSIT"},"to":{"name":"boul. Barrette / Estacade","stopId":"1:465","stopCode":"465","lon":-71.098983,"lat":48.40478,"arrival":1522709883000,"departure":1522709884000,"zoneId":"NA","stopIndex":15,"stopSequence":16,"vertexType":"TRANSIT"},"legGeometry":{"points":"whnfH`m{pLn@x@FDjA|AlBpCnJ|NNTX`@V`@eCtHpFjH{FhPcB|Ft@|CEAdCnEdHKrBz@lGiQ","length":19},"routeShortName":"11","routeLongName":"Chic/Faubourg via St-Paul","rentedBike":false,"transitLeg":true,"duration":239.0,"steps":[]},{"startTime":1522709884000,"endTime":1522710222000,"departureDelay":0,"arrivalDelay":0,"realTime":false,"distance":434.98100000000005,"pathway":false,"mode":"WALK","route":"","agencyTimeZoneOffset":-14400000,"interlineWithPreviousLeg":false,"from":{"name":"boul. Barrette / Estacade","stopId":"1:465","stopCode":"465","lon":-71.098983,"lat":48.40478,"arrival":1522709883000,"departure":1522709884000,"zoneId":"NA","stopIndex":15,"stopSequence":16,"vertexType":"TRANSIT"},"to":{"name":"Destination","lon":-71.102188,"lat":48.407391,"arrival":1522710222000,"orig":"","vertexType":"NORMAL"},"legGeometry":{"points":"u`mfHzo}pL_ApCqAhEk@zBo@vCQQgAq@UOe@Gm@Cm@Bo@@","length":12},"rentedBike":false,"transitLeg":false,"duration":338.0,"steps":[{"distance":266.242,"relativeDirection":"DEPART","streetName":"bike path","absoluteDirection":"NORTHWEST","stayOn":false,"area":false,"bogusName":true,"lon":-71.09901282754062,"lat":48.40475012061133,"elevation":[]},{"distance":12.048,"relativeDirection":"RIGHT","streetName":"path","absoluteDirection":"NORTHEAST","stayOn":true,"area":false,"bogusName":true,"lon":-71.1021327,"lat":48.4059454,"elevation":[]},{"distance":156.691,"relativeDirection":"CONTINUE","streetName":"Rue des Défibreurs","absoluteDirection":"NORTHEAST","stayOn":false,"area":false,"bogusName":false,"lon":-71.1020482,"lat":48.4060381,"elevation":[]}]}],"tooSloped":false}]},"debugOutput":{"precalculationTime":24,"pathCalculationTime":19,"pathTimes":[8,9,2],"renderingTime":0,"totalTime":43,"timedOut":false},"elevationMetadata":{"ellipsoidToGeoidDifference":-28.885904201182168,"geoidElevation":false}}