{"requestParameters":{"date":"2018/04/02","walkSpeed":"1.33","walkReluctance":"2.0","fromPlace":"48.423959,-71.042238","maxWalkDistance":"3000","waitReluctance":"1.0","carSpeed":"33","numItineraries":"3","waitAtBeginningFactor":"0.4","mode":"TRANSIT,WALK","ignoreRealtimeUpdates":"false","stairsReluctance":"2.0","toPlace":"48.426308,-71.057231","time":"9:0:00"},"plan":{"date":1522674000000,"from":{"name":"Origin","lon":-71.042238,"lat":48.423959,"orig":"","vertexType":"NORMAL"},"to":{"name":"Destination","lon":-71.057231,"lat":48.426308,"orig":"","vertexType":"NORMAL"},"itineraries":[{"duration":890,"startTime":1522674000000,"endTime":1522674890000,"walkTime":890,"transitTime":0,"waitingTime":0,"walkDistance":1145.4274436065239,"walkLimitExceeded":false,"elevationLost":0.0,"elevationGained":0.0,"transfers":0,"legs":[{"startTime":1522674000000,"endTime":1522674890000,"departureDelay":0,"arrivalDelay":0,"realTime":false,"distance":1145.3500000000001,"pathway":false,"mode":"WALK","route":"","agencyTimeZoneOffset":-14400000,"interlineWithPreviousLeg":false,"from":{"name":"Origin","lon":-71.042238,"lat":48.423959,"departure":1522674000000,"orig":"","vertexType":"NORMAL"},"to":{"name":"Destination","lon":-71.057231,"lat":48.426308,"arrival":1522674890000,"orig":"","vertexType":"NORMAL"},"legGeometry":{"points":"oxpfHbmrpL?@CFCDG@M\\GP_@fDObBQrBIv@YvC_AfLAFOtBCVC^YvCUxDEt@YnHItBGxAAf@OfBAFKb@]hACHSv@ERQxAAb@OzHAf@","length":35},"rentedBike":false,"transitLeg":false,"duration":890.0,"steps":[{"distance":7.305,"relativeDirection":"DEPART","streetName":"road","absoluteDirection":"NORTHWEST","stayOn":false,"area":false,"bogusName":false,"lon":-71.04225730300877,"lat":48.42392414707531,"elevation":[]},{"distance":3.922,"relativeDirection":"CIRCLE_COUNTERCLOCKWISE","streetName":"road","absoluteDirection":"NORTH","exit":"1","stayOn":false,"area":false,"bogusName":true,"lon":-71.04233,"lat":48.423967100000006,"elevation":[]},{"distance":1134.123,"relativeDirection":"SLIGHTLY_LEFT","streetName":"Rue Jacques-Cartier Est","absoluteDirection":"NORTHWEST","stayOn":false,"area":false,"bogusName":false,"lon":-71.0423488,"lat":48.4240001,"elevation":[]}]}],"tooSloped":false},{"duration":914,"startTime":1522674598000,"endTime":1522675512000,"walkTime":825,"transitTime":87,"waitingTime":2,"walkDistance":1030.2378496147078,"walkLimitExceeded":false,"elevationLost":0.0,"elevationGained":0.0,"transfers":0,"legs":[{"startTime":1522674598000,"endTime":1522675199000,"departureDelay":0,"arrivalDelay":0,"realTime":false,"distance":750.1230000000003,"pathway":false,"mode":"WALK","route":"","agencyTimeZoneOffset":-14400000,"interlineWithPreviousLeg":false,"from":{"name":"Origin","lon":-71.042238,"lat":48.423959,"departure":1522674598000,"orig":"","vertexType":"NORMAL"},"to":{"name":"Hôpital de Chicoutimi (Saint-Vallier)","stopId":"1:342","stopCode":"342","lon":-71.050416,"lat":48.426429,"arrival":1522675199000,"departure":1522675200000,"zoneId":"NA","stopIndex":6,"stopSequence":7,"vertexType":"TRANSIT"},"legGeometry":{"points":"oxpfHbmrpL?@CFCDG@M\\GP_@fDObBQrBIv@YvC_AfLAFOtBCVC^YvCc@EEx@CnACf@GNQ?iB[_@EG?K^G?","length":29},"rentedBike":false,"transitLeg":false,"duration":601.0,"steps":[{"distance":7.305,"relativeDirection":"DEPART","streetName":"road","absoluteDirection":"NORTHWEST","stayOn":false,"area":false,"bogusName":false,"lon":-71.04225730300877,"lat":48.42392414707531,"elevation":[]},{"distance":3.922,"relativeDirection":"CIRCLE_COUNTERCLOCKWISE","streetName":"road","absoluteDirection":"NORTH","exit":"1","stayOn":false,"area":false,"bogusName":true,"lon":-71.04233,"lat":48.423967100000006,"elevation":[]},{"distance":534.418,"relativeDirection":"SLIGHTLY_LEFT","streetName":"Rue Jacques-Cartier Est","absoluteDirection":"NORTHWEST","stayOn":false,"area":false,"bogusName":false,"lon":-71.0423488,"lat":48.4240001,"elevation":[]},{"distance":19.537,"relativeDirection":"RIGHT","streetName":"path","absoluteDirection":"NORTH","stayOn":false,"area":false,"bogusName":true,"lon":-71.04933630000001,"lat":48.425208100000006,"elevation":[]},{"distance":66.589,"relativeDirection":"LEFT","streetName":"service road","absoluteDirection":"WEST","stayOn":true,"area":false,"bogusName":true,"lon":-71.0493017,"lat":48.4253823,"elevation":[]},{"distance":99.413,"relativeDirection":"RIGHT","streetName":"service road","absoluteDirection":"NORTH","stayOn":true,"area":false,"bogusName":true,"lon":-71.05019700000001,"lat":48.425456700000005,"elevation":[]},{"distance":13.926,"relativeDirection":"LEFT","streetName":"path","absoluteDirection":"NORTHWEST","stayOn":true,"area":false,"bogusName":true,"lon":-71.0501005,"lat":48.426314600000005,"elevation":[]},{"distance":5.013,"relativeDirection":"RIGHT","streetName":"Rue Saint-Vallier","absoluteDirection":"NORTH","stayOn":false,"area":false,"bogusName":false,"lon":-71.05026840000001,"lat":48.426371800000005,"elevation":[]}]},{"startTime":1522675200000,"endTime":1522675287000,"departureDelay":0,"arrivalDelay":0,"realTime":false,"distance":384.1631692311125,"pathway":false,"mode":"BUS","route":"175","agencyName":"Société de Transport du Saguenay","agencyUrl":"http://ville.saguenay.ca/fr/services-aux-citoyens/transport-sts","agencyTimeZoneOffset":-14400000,"routeColor":"FF00FF","routeType":3,"routeId":"1:175","routeTextColor":"FFFFFF","interlineWithPreviousLeg":false,"tripBlockId":"8","headsign":"Costco","agencyId":"0","tripId":"1:217362","serviceDate":"20180402","from":{"name":"Hôpital de Chicoutimi (Saint-Vallier)","stopId":"1:342","stopCode":"342","lon":-71.050416,"lat":48.426429,"arrival":1522675199000,"departure":1522675200000,"zoneId":"NA","stopIndex":6,"stopSequence":7,"vertexType":"TRANSIT"},"to":{"name":"Bégin / Jacques-Cartier","stopId":"1:67","stopCode":"67","lon":-71.055431,"lat":48.425501,"arrival":1522675287000,"departure":1522675288000,"zoneId":"NA","stopIndex":7,"stopSequence":8,"vertexType":"TRANSIT"},"legGeometry":{"points":"ahqfHf_tpLxEj@iCtYp@r@z@`A","length":5},"routeShortName":"175","routeLongName":"Term. Chic / Costco","rentedBike":false,"transitLeg":true,"duration":87.0,"steps":[]},{"startTime":1522675288000,"endTime":1522675512000,"departureDelay":0,"arrivalDelay":0,"realTime":false,"distance":279.82500000000005,"pathway":false,"mode":"WALK","route":"","agencyTimeZoneOffset":-14400000,"interlineWithPreviousLeg":false,"from":{"name":"Bégin / Jacques-Cartier","stopId":"1:67","stopCode":"67","lon":-71.055431,"lat":48.425501,"arrival":1522675287000,"departure":1522675288000,"zoneId":"NA","stopIndex":7,"stopSequence":8,"vertexType":"TRANSIT"},"to":{"name":"Destination","lon":-71.057231,"lat":48.426308,"arrival":1522675512000,"orig":"","vertexType":"NORMAL"},"legGeometry":{"points":"abqfHv_upLJ[c@c@a@a@q@q@ERQxAAb@OzHAf@","length":10},"rentedBike":false,"transitLeg":false,"duration":224.0,"steps":[{"distance":12.045,"relativeDirection":"DEPART","streetName":"Rue Gaudreault","absoluteDirection":"SOUTHEAST","stayOn":false,"area":false,"bogusName":false,"lon":-71.055478000161,"lat":48.42545061207084,"elevation":[]},{"distance":80.02199999999999,"relativeDirection":"LEFT","streetName":"Rue Bégin","absoluteDirection":"NORTHEAST","stayOn":false,"area":false,"bogusName":false,"lon":-71.0553392,"lat":48.4253936,"elevation":[]},{"distance":187.758,"relativeDirection":"LEFT","streetName":"Rue Jacques-Cartier Est","absoluteDirection":"WEST","stayOn":false,"area":false,"bogusName":false,"lon":-71.0547356,"lat":48.4259915,"elevation":[]}]}],"tooSloped":false},{"duration":694,"startTime":1522675673000,"endTime":1522676367000,"walkTime":278,"transitTime":414,"waitingTime":2,"walkDistance":345.4984661626235,"walkLimitExceeded":false,"elevationLost":0.0,"elevationGained":0.0,"transfers":0,"legs":[{"startTime":1522675673000,"endTime":1522675822000,"departureDelay":0,"arrivalDelay":0,"realTime":false,"distance":183.524,"pathway":false,"mode":"WALK","route":"","agencyTimeZoneOffset":-14400000,"interlineWithPreviousLeg":false,"from":{"name":"Origin","lon":-71.042238,"lat":48.423959,"departure":1522675673000,"orig":"","vertexType":"NORMAL"},"to":{"name":"École Apostolique","stopId":"1:251","stopCode":"251","lon":-71.039839,"lat":48.42374,"arrival":1522675822000,"departure":1522675823000,"zoneId":"NA","stopIndex":10,"stopSequence":11,"vertexType":"TRANSIT"},"legGeometry":{"points":"oxpfHbmrpL@E?GAKCGIi@@cAPuB`@sE@G","length":10},"rentedBike":false,"transitLeg":false,"duration":149.0,"steps":[{"distance":10.175,"relativeDirection":"DEPART","streetName":"road","absoluteDirection":"EAST","stayOn":false,"area":false,"bogusName":false,"lon":-71.04225730300877,"lat":48.42392414707531,"elevation":[]},{"distance":3.504,"relativeDirection":"CIRCLE_CLOCKWISE","streetName":"road","absoluteDirection":"NORTHEAST","exit":"1","stayOn":false,"area":false,"bogusName":true,"lon":-71.0421232,"lat":48.4239235,"elevation":[]},{"distance":16.538,"relativeDirection":"CONTINUE","streetName":"Rue Jacques-Cartier Est","absoluteDirection":"NORTHEAST","stayOn":false,"area":false,"bogusName":false,"lon":-71.04208340000001,"lat":48.4239407,"elevation":[]},{"distance":153.30700000000002,"relativeDirection":"SLIGHTLY_RIGHT","streetName":"Rue Jacques Cartier","absoluteDirection":"EAST","stayOn":false,"area":false,"bogusName":false,"lon":-71.0418774,"lat":48.423999300000006,"elevation":[]}]},{"startTime":1522675823000,"endTime":1522676237000,"departureDelay":0,"arrivalDelay":0,"realTime":false,"distance":1812.2442566567968,"pathway":false,"mode":"BUS","route":"10","agencyName":"Société de Transport du Saguenay","agencyUrl":"http://ville.saguenay.ca/fr/services-aux-citoyens/transport-sts","agencyTimeZoneOffset":-14400000,"routeColor":"0000FF","routeType":3,"routeId":"1:10","routeTextColor":"FFFFFF","interlineWithPreviousLeg":false,"tripBlockId":"27","headsign":"Terminus Chicoutimi","agencyId":"0","tripId":"1:218005","serviceDate":"20180402","from":{"name":"École Apostolique","stopId":"1:251","stopCode":"251","lon":-71.039839,"lat":48.42374,"arrival":1522675822000,"departure":1522675823000,"zoneId":"NA","stopIndex":10,"stopSequence":11,"vertexType":"TRANSIT"},"to":{"name":"Labrecque / Racine","stopId":"1:336","stopCode":"336","lon":-71.057034,"lat":48.427529,"arrival":1522676237000,"departure":1522676238000,"zoneId":"NA","stopIndex":17,"stopSequence":18,"vertexType":"TRANSIT"},"legGeometry":{"points":"ewpfH`~qpLKdAi@pGAr@GXMRG^Bb@`CV~IxB~ElAhChAsBtFaEvK_BhE}AfD{BdByBh@iC]oDq@YbF_Ea@AAuEg@MDENF|GAjJDzBDdDLdHFbCo@R","length":33},"routeShortName":"10","routeLongName":"Notre-Dame du Saguenay","rentedBike":false,"transitLeg":true,"duration":414.0,"steps":[]},{"startTime":1522676238000,"endTime":1522676367000,"departureDelay":0,"arrivalDelay":0,"realTime":false,"distance":161.888,"pathway":false,"mode":"WALK","route":"","agencyTimeZoneOffset":-14400000,"interlineWithPreviousLeg":false,"from":{"name":"Labrecque / Racine","stopId":"1:336","stopCode":"336","lon":-71.057034,"lat":48.427529,"arrival":1522676237000,"departure":1522676238000,"zoneId":"NA","stopIndex":17,"stopSequence":18,"vertexType":"TRANSIT"},"to":{"name":"Destination","lon":-71.057231,"lat":48.426308,"arrival":1522676367000,"orig":"","vertexType":"NORMAL"},"legGeometry":{"points":"}nqfH~iupLn@OPERC^?nCJAf@","length":7},"rentedBike":false,"transitLeg":false,"duration":129.0,"steps":[{"distance":147.273,"relativeDirection":"DEPART","streetName":"Rue Labrecque","absoluteDirection":"SOUTH","stayOn":false,"area":false,"bogusName":false,"lon":-71.05711000873124,"lat":48.42751863891179,"elevation":[]},{"distance":14.615,"relativeDirection":"RIGHT","streetName":"Rue Jacques-Cartier Est","absoluteDirection":"WEST","stayOn":false,"area":false,"bogusName":false,"lon":-71.05704440000001,"lat":48.4262037,"elevation":[]}]}],"tooSloped":false}]},"debugOutput":{"precalculationTime":48,"pathCalculationTime":23,"pathTimes":[13,3,7],"renderingTime":0,"totalTime":71,"timedOut":false},"elevationMetadata":{"ellipsoidToGeoidDifference":-28.885904201182168,"geoidElevation":false}}