{"requestParameters":{"date":"2018/04/02","walkSpeed":"1.33","walkReluctance":"2.0","fromPlace":"48.426308,-71.057231","maxWalkDistance":"3000","waitReluctance":"1.0","carSpeed":"33","numItineraries":"3","waitAtBeginningFactor":"0.4","mode":"TRANSIT,WALK","ignoreRealtimeUpdates":"false","stairsReluctance":"2.0","toPlace":"48.415824,-71.047097","time":"17:0:00"},"plan":{"date":1522702800000,"from":{"name":"Origin","lon":-71.057231,"lat":48.426308,"orig":"","vertexType":"NORMAL"},"to":{"name":"Destination","lon":-71.047097,"lat":48.415824,"orig":"","vertexType":"NORMAL"},"itineraries":[{"duration":836,"startTime":1522703493000,"endTime":1522704329000,"walkTime":567,"transitTime":267,"waitingTime":2,"walkDistance":720.3731879658853,"walkLimitExceeded":false,"elevationLost":0.0,"elevationGained":0.0,"transfers":0,"legs":[{"startTime":1522703493000,"endTime":1522703552000,"departureDelay":0,"arrivalDelay":0,"realTime":false,"distance":77.381,"pathway":false,"mode":"WALK","route":"","agencyTimeZoneOffset":-14400000,"interlineWithPreviousLeg":false,"from":{"name":"Origin","lon":-71.057231,"lat":48.426308,"departure":1522703493000,"orig":"","vertexType":"NORMAL"},"to":{"name":"Jacques-Cartier / Labrecque","stopId":"1:1929","stopCode":"1929","lon":-71.058294,"lat":48.426189,"arrival":1522703552000,"departure":1522703553000,"zoneId":"NA","stopIndex":3,"stopSequence":4,"vertexType":"TRANSIT"},"legGeometry":{"points":"yfqfHxjupLGtC?J?VAT","length":5},"rentedBike":false,"transitLeg":false,"duration":59.0,"steps":[{"distance":77.381,"relativeDirection":"DEPART","streetName":"Rue Jacques-Cartier Est","absoluteDirection":"WEST","stayOn":false,"area":false,"bogusName":false,"lon":-71.05724189751464,"lat":48.42621375600881,"elevation":[]}]},{"startTime":1522703553000,"endTime":1522703820000,"departureDelay":0,"arrivalDelay":0,"realTime":false,"distance":1041.99846328547,"pathway":false,"mode":"BUS","route":"21S","agencyName":"Société de Transport du Saguenay","agencyUrl":"http://ville.saguenay.ca/fr/services-aux-citoyens/transport-sts","agencyTimeZoneOffset":-14400000,"routeColor":"8B0000","routeType":3,"routeId":"1:21S","routeTextColor":"FFFFFF","interlineWithPreviousLeg":false,"tripBlockId":"53","headsign":"Costco","agencyId":"0","tripId":"1:218475","serviceDate":"20180402","from":{"name":"Jacques-Cartier / Labrecque","stopId":"1:1929","stopCode":"1929","lon":-71.058294,"lat":48.426189,"arrival":1522703552000,"departure":1522703553000,"zoneId":"NA","stopIndex":3,"stopSequence":4,"vertexType":"TRANSIT"},"to":{"name":"Université du Québec à Chicoutimi","stopId":"1:1927","stopCode":"1927","lon":-71.052171,"lat":48.419234,"arrival":1522703820000,"departure":1522703821000,"zoneId":"NA","stopIndex":7,"stopSequence":8,"vertexType":"TRANSIT"},"legGeometry":{"points":"cgqfHhqupLHkFVoKT}@fBnB@BbK|Jl@_Bt@cATm@N}@?i@AgAAIG{@ScBCg@@i@rCmJf@wA`BbBxA|AtCsIFIHAtErE","length":26},"routeShortName":"21S","routeLongName":"Term. Chic -> Cégep / UQAC -> Costco","rentedBike":false,"transitLeg":true,"duration":267.0,"steps":[]},{"startTime":1522703821000,"endTime":1522704329000,"departureDelay":0,"arrivalDelay":0,"realTime":false,"distance":642.8670000000001,"pathway":false,"mode":"WALK","route":"","agencyTimeZoneOffset":-14400000,"interlineWithPreviousLeg":false,"from":{"name":"Université du Québec à Chicoutimi","stopId":"1:1927","stopCode":"1927","lon":-71.052171,"lat":48.419234,"arrival":1522703820000,"departure":1522703821000,"zoneId":"NA","stopIndex":7,"stopSequence":8,"vertexType":"TRANSIT"},"to":{"name":"Destination","lon":-71.047097,"lat":48.415824,"arrival":1522704329000,"orig":"","vertexType":"NORMAL"},"legGeometry":{"points":"i{ofHjktpLB@|C|CDGKYJYpAmDVu@z@iCpCiIlAsDvAuDNa@Nc@DF","length":15},"rentedBike":false,"transitLeg":false,"duration":508.0,"steps":[{"distance":111.531,"relativeDirection":"DEPART","streetName":"path","absoluteDirection":"SOUTHWEST","stayOn":false,"area":false,"bogusName":true,"lon":-71.05221121256777,"lat":48.419251445558785,"elevation":[]},{"distance":11.392,"relativeDirection":"HARD_LEFT","streetName":"Rue de la Fondation","absoluteDirection":"NORTHEAST","stayOn":false,"area":false,"bogusName":false,"lon":-71.05297080000001,"lat":48.4184196,"elevation":[]},{"distance":515.112,"relativeDirection":"RIGHT","streetName":"Rue Chabanel","absoluteDirection":"SOUTHEAST","stayOn":false,"area":false,"bogusName":false,"lon":-71.05284470000001,"lat":48.4184787,"elevation":[]},{"distance":4.832,"relativeDirection":"RIGHT","streetName":"Boulevard Talbot","absoluteDirection":"SOUTHWEST","stayOn":false,"area":false,"bogusName":false,"lon":-71.0470797,"lat":48.415868800000005,"elevation":[]}]}],"tooSloped":false},{"duration":832,"startTime":1522703797000,"endTime":1522704629000,"walkTime":567,"transitTime":263,"waitingTime":2,"walkDistance":720.3731879658853,"walkLimitExceeded":false,"elevationLost":0.0,"elevationGained":0.0,"transfers":0,"legs":[{"startTime":1522703797000,"endTime":1522703856000,"departureDelay":0,"arrivalDelay":0,"realTime":false,"distance":77.381,"pathway":false,"mode":"WALK","route":"","agencyTimeZoneOffset":-14400000,"interlineWithPreviousLeg":false,"from":{"name":"Origin","lon":-71.057231,"lat":48.426308,"departure":1522703797000,"orig":"","vertexType":"NORMAL"},"to":{"name":"Jacques-Cartier / Labrecque","stopId":"1:1929","stopCode":"1929","lon":-71.058294,"lat":48.426189,"arrival":1522703856000,"departure":1522703857000,"zoneId":"NA","stopIndex":3,"stopSequence":4,"vertexType":"TRANSIT"},"legGeometry":{"points":"yfqfHxjupLGtC?J?VAT","length":5},"rentedBike":false,"transitLeg":false,"duration":59.0,"steps":[{"distance":77.381,"relativeDirection":"DEPART","streetName":"Rue Jacques-Cartier Est","absoluteDirection":"WEST","stayOn":false,"area":false,"bogusName":false,"lon":-71.05724189751464,"lat":48.42621375600881,"elevation":[]}]},{"startTime":1522703857000,"endTime":1522704120000,"departureDelay":0,"arrivalDelay":0,"realTime":false,"distance":1142.5512154018602,"pathway":false,"mode":"BUS","route":"27","agencyName":"Société de Transport du Saguenay","agencyUrl":"http://ville.saguenay.ca/fr/services-aux-citoyens/transport-sts","agencyTimeZoneOffset":-14400000,"routeColor":"00FFFF","routeType":3,"routeId":"1:27","routeTextColor":"000000","interlineWithPreviousLeg":false,"tripBlockId":"100","headsign":"Terminus Chicoutimi","agencyId":"0","tripId":"1:218761","serviceDate":"20180402","from":{"name":"Jacques-Cartier / Labrecque","stopId":"1:1929","stopCode":"1929","lon":-71.058294,"lat":48.426189,"arrival":1522703856000,"departure":1522703857000,"zoneId":"NA","stopIndex":3,"stopSequence":4,"vertexType":"TRANSIT"},"to":{"name":"Université du Québec à Chicoutimi","stopId":"1:1927","stopCode":"1927","lon":-71.052171,"lat":48.419234,"arrival":1522704120000,"departure":1522704121000,"zoneId":"NA","stopIndex":8,"stopSequence":9,"vertexType":"TRANSIT"},"legGeometry":{"points":"agqfHhqupLHkFVoKT}@dBnBBBpIlIp@n@l@_Bt@cATm@N}@?i@AgAAIG{@ScBCg@@i@rCmJf@wA~AbBzA|AtCsIFIHAtEpE","length":27},"routeShortName":"27","routeLongName":"St-Honoré","rentedBike":false,"transitLeg":true,"duration":263.0,"steps":[]},{"startTime":1522704121000,"endTime":1522704629000,"departureDelay":0,"arrivalDelay":0,"realTime":false,"distance":642.8670000000001,"pathway":false,"mode":"WALK","route":"","agencyTimeZoneOffset":-14400000,"interlineWithPreviousLeg":false,"from":{"name":"Université du Québec à Chicoutimi","stopId":"1:1927","stopCode":"1927","lon":-71.052171,"lat":48.419234,"arrival":1522704120000,"departure":1522704121000,"zoneId":"NA","stopIndex":8,"stopSequence":9,"vertexType":"TRANSIT"},"to":{"name":"Destination","lon":-71.047097,"lat":48.415824,"arrival":1522704629000,"orig":"","vertexType":"NORMAL"},"legGeometry":{"points":"i{ofHjktpLB@|C|CDGKYJYpAmDVu@z@iCpCiIlAsDvAuDNa@Nc@DF","length":15},"rentedBike":false,"transitLeg":false,"duration":508.0,"steps":[{"distance":111.531,"relativeDirection":"DEPART","streetName":"path","absoluteDirection":"SOUTHWEST","stayOn":false,"area":false,"bogusName":true,"lon":-71.05221121256777,"lat":48.419251445558785,"elevation":[]},{"distance":11.392,"relativeDirection":"HARD_LEFT","streetName":"Rue de la Fondation","absoluteDirection":"NORTHEAST","stayOn":false,"area":false,"bogusName":false,"lon":-71.05297080000001,"lat":48.4184196,"elevation":[]},{"distance":515.112,"relativeDirection":"RIGHT","streetName":"Rue Chabanel","absoluteDirection":"SOUTHEAST","stayOn":false,"area":false,"bogusName":false,"lon":-71.05284470000001,"lat":48.4184787,"elevation":[]},{"distance":4.832,"relativeDirection":"RIGHT","streetName":"Boulevard Talbot","absoluteDirection":"SOUTHWEST","stayOn":false,"area":false,"bogusName":false,"lon":-71.0470797,"lat":48.415868800000005,"elevation":[]}]}],"tooSloped":false},{"duration":1044,"startTime":1522703697000,"endTime":1522704741000,"walkTime":309,"transitTime":733,"waitingTime":2,"walkDistance":382.04450375450995,"walkLimitExceeded":false,"elevationLost":0.0,"elevationGained":0.0,"transfers":0,"legs":[{"startTime":1522703697000,"endTime":1522703856000,"departureDelay":0,"arrivalDelay":0,"realTime":false,"distance":195.48199999999997,"pathway":false,"mode":"WALK","route":"","agencyTimeZoneOffset":-14400000,"interlineWithPreviousLeg":false,"from":{"name":"Origin","lon":-71.057231,"lat":48.426308,"departure":1522703697000,"orig":"","vertexType":"NORMAL"},"to":{"name":"Racine / Labrecque","stopId":"1:515","stopCode":"515","lon":-71.057333,"lat":48.427512,"arrival":1522703856000,"departure":1522703857000,"zoneId":"NA","stopIndex":2,"stopSequence":3,"vertexType":"TRANSIT"},"legGeometry":{"points":"yfqfHxjupL@g@oCK_@?SBQDo@N]FFj@","length":9},"rentedBike":false,"transitLeg":false,"duration":159.0,"steps":[{"distance":14.615,"relativeDirection":"DEPART","streetName":"Rue Jacques-Cartier Est","absoluteDirection":"EAST","stayOn":false,"area":false,"bogusName":false,"lon":-71.05724189751464,"lat":48.42621375600881,"elevation":[]},{"distance":163.66,"relativeDirection":"LEFT","streetName":"Rue Labrecque","absoluteDirection":"NORTH","stayOn":false,"area":false,"bogusName":false,"lon":-71.05704440000001,"lat":48.4262037,"elevation":[]},{"distance":17.207,"relativeDirection":"LEFT","streetName":"Rue Racine Est","absoluteDirection":"WEST","stayOn":false,"area":false,"bogusName":false,"lon":-71.0571547,"lat":48.427663,"elevation":[]}]},{"startTime":1522703857000,"endTime":1522704590000,"departureDelay":0,"arrivalDelay":0,"realTime":false,"distance":3689.0857856885023,"pathway":false,"mode":"BUS","route":"10","agencyName":"Société de Transport du Saguenay","agencyUrl":"http://ville.saguenay.ca/fr/services-aux-citoyens/transport-sts","agencyTimeZoneOffset":-14400000,"routeColor":"0000FF","routeType":3,"routeId":"1:10","routeTextColor":"FFFFFF","interlineWithPreviousLeg":false,"tripBlockId":"29","headsign":"Terminus UQAC","agencyId":"0","tripId":"1:218073","serviceDate":"20180402","from":{"name":"Racine / Labrecque","stopId":"1:515","stopCode":"515","lon":-71.057333,"lat":48.427512,"arrival":1522703856000,"departure":1522703857000,"zoneId":"NA","stopIndex":2,"stopSequence":3,"vertexType":"TRANSIT"},"to":{"name":"Murdock / Chabanel","stopId":"1:3552","stopCode":"3552","lon":-71.046063,"lat":48.414978,"arrival":1522704590000,"departure":1522704591000,"zoneId":"NA","stopIndex":19,"stopSequence":20,"vertexType":"TRANSIT"},"legGeometry":{"points":"ooqfHnkupLCk@^Cd@QWkL?m@IuF@gA?eH?cAEuEDO^AjD`@B@rEf@T_FjBXpDd@hCObDaCfCaHbFqN`CwG_J_CwMiDGe@T}C\\yELaCJeAJcAXw@Fk@M_@xBwVr@^LJ|@z@HdAlBbD`Av@b@\\v@d@`@BpBAzAXl@t@XZt@lCl@tAnBpB~@~@lDjDr@r@zDrDnAlAjBrBl@pBPlBCj@KrAAHSpAe@jB_A|Bz@xA","length":67},"routeShortName":"10","routeLongName":"Notre-Dame du Saguenay","rentedBike":false,"transitLeg":true,"duration":733.0,"steps":[]},{"startTime":1522704591000,"endTime":1522704741000,"departureDelay":0,"arrivalDelay":0,"realTime":false,"distance":186.411,"pathway":false,"mode":"WALK","route":"","agencyTimeZoneOffset":-14400000,"interlineWithPreviousLeg":false,"from":{"name":"Murdock / Chabanel","stopId":"1:3552","stopCode":"3552","lon":-71.046063,"lat":48.414978,"arrival":1522704590000,"departure":1522704591000,"zoneId":"NA","stopIndex":19,"stopSequence":20,"vertexType":"TRANSIT"},"to":{"name":"Destination","lon":-71.047097,"lat":48.415824,"arrival":1522704741000,"orig":"","vertexType":"NORMAL"},"legGeometry":{"points":"a`ofH`dspLCEu@iA}AzE_@`AIVDF","length":7},"rentedBike":false,"transitLeg":false,"duration":150.0,"steps":[{"distance":43.876,"relativeDirection":"DEPART","streetName":"Rue Murdock","absoluteDirection":"NORTHEAST","stayOn":false,"area":false,"bogusName":false,"lon":-71.04592117414738,"lat":48.414893172371364,"elevation":[]},{"distance":137.703,"relativeDirection":"LEFT","streetName":"Rue Chabanel","absoluteDirection":"NORTHWEST","stayOn":false,"area":false,"bogusName":false,"lon":-71.0455232,"lat":48.4151863,"elevation":[]},{"distance":4.832,"relativeDirection":"LEFT","streetName":"Boulevard Talbot","absoluteDirection":"SOUTHWEST","stayOn":false,"area":false,"bogusName":false,"lon":-71.0470797,"lat":48.415868800000005,"elevation":[]}]}],"tooSloped":false}]},"debugOutput":{"precalculationTime":54,"pathCalculationTime":30,"pathTimes":[20,5,5],"renderingTime":1,"totalTime":85,"timedOut":false},"elevationMetadata":{"ellipsoidToGeoidDifference":-28.885904201182168,"geoidElevation":false}}