{"requestParameters":{"date":"2018/04/02","walkSpeed":"1.33","walkReluctance":"2.0","fromPlace":"48.41413,-71.04804","maxWalkDistance":"3000","waitReluctance":"1.0","carSpeed":"33","numItineraries":"3","waitAtBeginningFactor":"0.4","mode":"TRANSIT,WALK","ignoreRealtimeUpdates":"false","stairsReluctance":"2.0","toPlace":"48.412031,-71.093745","time":"22:0:00"},"plan":{"date":1522720800000,"from":{"name":"Origin","lon":-71.04804,"lat":48.41413,"orig":"","vertexType":"NORMAL"},"to":{"name":"Destination","lon":-71.093745,"lat":48.412031,"orig":"","vertexType":"NORMAL"},"itineraries":[{"duration":3088,"startTime":1522721250000,"endTime":1522724338000,"walkTime":2786,"transitTime":300,"waitingTime":2,"walkDistance":3587.2105563773443,"walkLimitExceeded":false,"elevationLost":0.0,"elevationGained":0.0,"transfers":0,"legs":[{"startTime":1522721250000,"endTime":1522722119000,"departureDelay":0,"arrivalDelay":0,"realTime":false,"distance":1108.718,"pathway":false,"mode":"WALK","route":"","agencyTimeZoneOffset":-14400000,"interlineWithPreviousLeg":false,"from":{"name":"Origin","lon":-71.04804,"lat":48.41413,"departure":1522721250000,"orig":"","vertexType":"NORMAL"},"to":{"name":"Terminus UQAC","stopId":"1:1670","stopCode":"1670","lon":-71.053369,"lat":48.420903,"arrival":1522722119000,"departure":1522722120000,"zoneId":"NA","stopIndex":7,"stopSequence":8,"vertexType":"TRANSIT"},"legGeometry":{"points":"y{nfHlrspLCAs@w@a@c@ENEPMDQDQBy@{@aBeBUWOb@O`@wAtDmArDqChI{@hCWt@qAlDKXi@k@yAyAaAcAUHq@XYz@Ur@e@vAg@vAUp@cAaA","length":32},"rentedBike":false,"transitLeg":false,"duration":869.0,"steps":[{"distance":102.9,"relativeDirection":"DEPART","streetName":"service road","absoluteDirection":"NORTHEAST","stayOn":false,"area":false,"bogusName":false,"lon":-71.0482291617135,"lat":48.41421891517668,"elevation":[]},{"distance":121.064,"relativeDirection":"RIGHT","streetName":"Boulevard Talbot","absoluteDirection":"NORTHEAST","stayOn":false,"area":false,"bogusName":false,"lon":-71.0480081,"lat":48.414971200000004,"elevation":[]},{"distance":515.112,"relativeDirection":"LEFT","streetName":"Rue Chabanel","absoluteDirection":"NORTHWEST","stayOn":false,"area":false,"bogusName":false,"lon":-71.0470797,"lat":48.415868800000005,"elevation":[]},{"distance":133.06900000000002,"relativeDirection":"RIGHT","streetName":"Rue de la Fondation","absoluteDirection":"NORTHEAST","stayOn":false,"area":false,"bogusName":false,"lon":-71.05284470000001,"lat":48.4184787,"elevation":[]},{"distance":236.573,"relativeDirection":"LEFT","streetName":"path","absoluteDirection":"NORTH","stayOn":false,"area":false,"bogusName":true,"lon":-71.0518321,"lat":48.419468900000005,"elevation":[]}]},{"startTime":1522722120000,"endTime":1522722420000,"departureDelay":0,"arrivalDelay":0,"realTime":false,"distance":1501.339261541782,"pathway":false,"mode":"BUS","route":"15","agencyName":"Société de Transport du Saguenay","agencyUrl":"http://ville.saguenay.ca/fr/services-aux-citoyens/transport-sts","agencyTimeZoneOffset":-14400000,"routeColor":"FF00FF","routeType":3,"routeId":"1:15","routeTextColor":"FFFFFF","interlineWithPreviousLeg":false,"tripBlockId":"33","headsign":"Talbot / Barrette","agencyId":"0","tripId":"1:218203","serviceDate":"20180402","from":{"name":"Terminus UQAC","stopId":"1:1670","stopCode":"1670","lon":-71.053369,"lat":48.420903,"arrival":1522722119000,"departure":1522722120000,"zoneId":"NA","stopIndex":7,"stopSequence":8,"vertexType":"TRANSIT"},"to":{"name":"École secondaire de l'Odyssé Dominique-Racine","stopId":"1:580","stopCode":"580","lon":-71.067703,"lat":48.412977,"arrival":1522722420000,"departure":1522722421000,"zoneId":"NA","stopIndex":12,"stopSequence":13,"vertexType":"TRANSIT"},"legGeometry":{"points":"sepfHrrtpLbA`ATw@dD~Ch@fA@`E~AjGuH`Iy@bBi@dCbEdEjJlJ`HbHlJpJ|J~J","length":15},"routeShortName":"15","routeLongName":"Term. Chic / Costco","rentedBike":false,"transitLeg":true,"duration":300.0,"steps":[]},{"startTime":1522722421000,"endTime":1522724338000,"departureDelay":0,"arrivalDelay":0,"realTime":false,"distance":2478.07,"pathway":false,"mode":"WALK","route":"","agencyTimeZoneOffset":-14400000,"interlineWithPreviousLeg":false,"from":{"name":"École secondaire de l'Odyssé Dominique-Racine","stopId":"1:580","stopCode":"580","lon":-71.067703,"lat":48.412977,"arrival":1522722420000,"departure":1522722421000,"zoneId":"NA","stopIndex":12,"stopSequence":13,"vertexType":"TRANSIT"},"to":{"name":"Destination","lon":-71.093745,"lat":48.412031,"arrival":1522724338000,"orig":"","vertexType":"NORMAL"},"legGeometry":{"points":"gtnfHplwpL{@u@UIIP}AhEi@xAc@jAzBtEtBdEjEnI@R^jF`@rFPxBjBjBh@f@dCxBmClIgAzD{@vDWzBY`D{@fDoAnBg@XoAh@IB[Ph@pDh@fBz@rBbBbCj@x@hBjC}AzDYXQHK?o@vCF|BLnCZdEl@`H","length":43},"rentedBike":false,"transitLeg":false,"duration":1917.0,"steps":[{"distance":52.222,"relativeDirection":"DEPART","streetName":"Rue Bégin","absoluteDirection":"NORTHEAST","stayOn":false,"area":false,"bogusName":false,"lon":-71.06776357747735,"lat":48.41300064951352,"elevation":[]},{"distance":174.902,"relativeDirection":"LEFT","streetName":"Rue Des Oblats Est","absoluteDirection":"NORTHWEST","stayOn":false,"area":false,"bogusName":false,"lon":-71.06744280000001,"lat":48.413416500000004,"elevation":[]},{"distance":792.597,"relativeDirection":"LEFT","streetName":"Rue Jolliet","absoluteDirection":"SOUTHWEST","stayOn":false,"area":false,"bogusName":false,"lon":-71.0693767,"lat":48.414325600000005,"elevation":[]},{"distance":613.328,"relativeDirection":"RIGHT","streetName":"Rue Garnier","absoluteDirection":"NORTHWEST","stayOn":false,"area":false,"bogusName":false,"lon":-71.0775766,"lat":48.4102442,"elevation":[]},{"distance":22.995,"relativeDirection":"CONTINUE","streetName":"Rue Saint-Augustin","absoluteDirection":"NORTH","stayOn":false,"area":false,"bogusName":false,"lon":-71.0842714,"lat":48.413164,"elevation":[]},{"distance":353.491,"relativeDirection":"LEFT","streetName":"Boulevard Saint-Paul","absoluteDirection":"WEST","stayOn":false,"area":false,"bogusName":false,"lon":-71.0843859,"lat":48.413356300000004,"elevation":[]},{"distance":121.414,"relativeDirection":"RIGHT","streetName":"Rue Martin-Bouvard","absoluteDirection":"NORTHWEST","stayOn":false,"area":false,"bogusName":false,"lon":-71.088029,"lat":48.4113872,"elevation":[]},{"distance":108.55099999999999,"relativeDirection":"LEFT","streetName":"path","absoluteDirection":"NORTHWEST","stayOn":false,"area":false,"bogusName":true,"lon":-71.08914440000001,"lat":48.4121377,"elevation":[]},{"distance":238.57,"relativeDirection":"CONTINUE","streetName":"Rue du Canal","absoluteDirection":"WEST","stayOn":false,"area":false,"bogusName":false,"lon":-71.09053370000001,"lat":48.412339100000004,"elevation":[]}]}],"tooSloped":false},{"duration":2331,"startTime":1522722103000,"endTime":1522724434000,"walkTime":705,"transitTime":1324,"waitingTime":302,"walkDistance":902.5703082666979,"walkLimitExceeded":false,"elevationLost":0.0,"elevationGained":0.0,"transfers":1,"legs":[{"startTime":1522722103000,"endTime":1522722419000,"departureDelay":0,"arrivalDelay":0,"realTime":false,"distance":402.0849999999999,"pathway":false,"mode":"WALK","route":"","agencyTimeZoneOffset":-14400000,"interlineWithPreviousLeg":false,"from":{"name":"Origin","lon":-71.04804,"lat":48.41413,"departure":1522722103000,"orig":"","vertexType":"NORMAL"},"to":{"name":"missingStopName","stopId":"1:1812","stopCode":"1812","lon":-71.051352,"lat":48.411592,"arrival":1522722419000,"departure":1522722420000,"zoneId":"NA","stopIndex":11,"stopSequence":12,"vertexType":"TRANSIT"},"legGeometry":{"points":"y{nfHlrspLZ^ENKXId@nArArI~ITXLJx@|@","length":10},"rentedBike":false,"transitLeg":false,"duration":316.0,"steps":[{"distance":54.196,"relativeDirection":"DEPART","streetName":"service road","absoluteDirection":"SOUTHWEST","stayOn":false,"area":false,"bogusName":false,"lon":-71.0482291617135,"lat":48.41421891517668,"elevation":[]},{"distance":347.88899999999995,"relativeDirection":"LEFT","streetName":"Boulevard Talbot","absoluteDirection":"SOUTHWEST","stayOn":false,"area":false,"bogusName":false,"lon":-71.04878880000001,"lat":48.414218500000004,"elevation":[]}]},{"startTime":1522722420000,"endTime":1522723200000,"departureDelay":0,"arrivalDelay":0,"realTime":false,"distance":3400.2803451917603,"pathway":false,"mode":"BUS","route":"175","agencyName":"Société de Transport du Saguenay","agencyUrl":"http://ville.saguenay.ca/fr/services-aux-citoyens/transport-sts","agencyTimeZoneOffset":-14400000,"routeColor":"FF00FF","routeType":3,"routeId":"1:175","routeTextColor":"FFFFFF","interlineWithPreviousLeg":false,"tripBlockId":"9","headsign":"Terminus Chicoutimi","agencyId":"0","tripId":"1:217423","serviceDate":"20180402","from":{"name":"missingStopName","stopId":"1:1812","stopCode":"1812","lon":-71.051352,"lat":48.411592,"arrival":1522722419000,"departure":1522722420000,"zoneId":"NA","stopIndex":11,"stopSequence":12,"vertexType":"TRANSIT"},"to":{"name":"Terminus Chicoutimi","stopId":"1:1289","stopCode":"1289","lon":-71.066163,"lat":48.428677,"arrival":1522723200000,"departure":1522723500000,"zoneId":"NA","stopIndex":27,"stopSequence":28,"vertexType":"TRANSIT"},"legGeometry":{"points":"wknfHxftpLcBcB{E`Jc@x@qG~@{BlAk@XgSrQqB_GAeFiEeEOt@gAeA_A_ATm@yAwAgBeBqDnL@nBF`@f@|C[dCuAfB]xAs@OmCmCmEkE]a@g@i@ZiGTmEl@oLaEe@cFk@?pH?tJDvBPjMB~Bo@PQDRbFKdGMhIOvIK|EQpHoCQEdC","length":49},"routeShortName":"175","routeLongName":"Term. Chic / Costco","rentedBike":false,"transitLeg":true,"duration":780.0,"steps":[]},{"startTime":1522723500000,"endTime":1522724044000,"departureDelay":0,"arrivalDelay":0,"realTime":false,"distance":2772.726546543816,"pathway":false,"mode":"BUS","route":"11","agencyName":"Société de Transport du Saguenay","agencyUrl":"http://ville.saguenay.ca/fr/services-aux-citoyens/transport-sts","agencyTimeZoneOffset":-14400000,"routeColor":"FF0000","routeType":3,"routeId":"1:11","routeTextColor":"FFFFFF","interlineWithPreviousLeg":false,"tripBlockId":"34","headsign":"Boul.Royaume/St-Pierre","agencyId":"0","tripId":"1:218239","serviceDate":"20180402","from":{"name":"Terminus Chicoutimi","stopId":"1:1289","stopCode":"1289","lon":-71.066163,"lat":48.428677,"arrival":1522723200000,"departure":1522723500000,"zoneId":"NA","stopIndex":0,"stopSequence":1,"vertexType":"TRANSIT"},"to":{"name":"boul. Saint-Paul / Martin Bouvard","stopId":"1:427","stopCode":"427","lon":-71.088402,"lat":48.411206,"arrival":1522724044000,"departure":1522724045000,"zoneId":"NA","stopIndex":13,"stopSequence":14,"vertexType":"TRANSIT"},"legGeometry":{"points":"evqfHzcwpLk@?UhKfIh@dKp@GnDIfDOtEE~@Ff@x@rEF~@CbAALO~ADRNJXBr@DfGRPBPJLN@@FPFTBX?TE`BhBR@?J@NELKFOlAiDL[bA`AfIjIbGdGzDzD`A~An@`ApApBpClEvJrOR\\bAfBLa@t@]LjAVvAVbAVv@^bAXj@b@t@xEtGh@r@","length":59},"routeShortName":"11","routeLongName":"Chic/Faubourg via St-Paul","rentedBike":false,"transitLeg":true,"duration":544.0,"steps":[]},{"startTime":1522724045000,"endTime":1522724434000,"departureDelay":0,"arrivalDelay":0,"realTime":false,"distance":500.36199999999997,"pathway":false,"mode":"WALK","route":"","agencyTimeZoneOffset":-14400000,"interlineWithPreviousLeg":false,"from":{"name":"boul. Saint-Paul / Martin Bouvard","stopId":"1:427","stopCode":"427","lon":-71.088402,"lat":48.411206,"arrival":1522724044000,"departure":1522724045000,"zoneId":"NA","stopIndex":13,"stopSequence":14,"vertexType":"TRANSIT"},"to":{"name":"Destination","lon":-71.093745,"lat":48.412031,"arrival":1522724434000,"orig":"","vertexType":"NORMAL"},"legGeometry":{"points":"shnfHtl{pLCCk@k@}AzDYXQHK?o@vCF|BLnCZdEl@`H","length":12},"rentedBike":false,"transitLeg":false,"duration":389.0,"steps":[{"distance":31.826999999999998,"relativeDirection":"DEPART","streetName":"Boulevard Saint-Paul","absoluteDirection":"NORTHEAST","stayOn":false,"area":false,"bogusName":false,"lon":-71.08826195247585,"lat":48.41114632424416,"elevation":[]},{"distance":121.414,"relativeDirection":"LEFT","streetName":"Rue Martin-Bouvard","absoluteDirection":"NORTHWEST","stayOn":false,"area":false,"bogusName":false,"lon":-71.088029,"lat":48.4113872,"elevation":[]},{"distance":108.55099999999999,"relativeDirection":"LEFT","streetName":"path","absoluteDirection":"NORTHWEST","stayOn":false,"area":false,"bogusName":true,"lon":-71.08914440000001,"lat":48.4121377,"elevation":[]},{"distance":238.57,"relativeDirection":"CONTINUE","streetName":"Rue du Canal","absoluteDirection":"WEST","stayOn":false,"area":false,"bogusName":false,"lon":-71.09053370000001,"lat":48.412339100000004,"elevation":[]}]}],"tooSloped":false},{"duration":2484,"startTime":1522723050000,"endTime":1522725534000,"walkTime":1866,"transitTime":616,"waitingTime":2,"walkDistance":2390.4758872082075,"walkLimitExceeded":false,"elevationLost":0.0,"elevationGained":0.0,"transfers":0,"legs":[{"startTime":1522723050000,"endTime":1522723919000,"departureDelay":0,"arrivalDelay":0,"realTime":false,"distance":1108.718,"pathway":false,"mode":"WALK","route":"","agencyTimeZoneOffset":-14400000,"interlineWithPreviousLeg":false,"from":{"name":"Origin","lon":-71.04804,"lat":48.41413,"departure":1522723050000,"orig":"","vertexType":"NORMAL"},"to":{"name":"Terminus UQAC","stopId":"1:1670","stopCode":"1670","lon":-71.053369,"lat":48.420903,"arrival":1522723919000,"departure":1522723920000,"zoneId":"NA","stopIndex":8,"stopSequence":9,"vertexType":"TRANSIT"},"legGeometry":{"points":"y{nfHlrspLCAs@w@a@c@ENEPMDQDQBy@{@aBeBUWOb@O`@wAtDmArDqChI{@hCWt@qAlDKXi@k@yAyAaAcAUHq@XYz@Ur@e@vAg@vAUp@cAaA","length":32},"rentedBike":false,"transitLeg":false,"duration":869.0,"steps":[{"distance":102.9,"relativeDirection":"DEPART","streetName":"service road","absoluteDirection":"NORTHEAST","stayOn":false,"area":false,"bogusName":false,"lon":-71.0482291617135,"lat":48.41421891517668,"elevation":[]},{"distance":121.064,"relativeDirection":"RIGHT","streetName":"Boulevard Talbot","absoluteDirection":"NORTHEAST","stayOn":false,"area":false,"bogusName":false,"lon":-71.0480081,"lat":48.414971200000004,"elevation":[]},{"distance":515.112,"relativeDirection":"LEFT","streetName":"Rue Chabanel","absoluteDirection":"NORTHWEST","stayOn":false,"area":false,"bogusName":false,"lon":-71.0470797,"lat":48.415868800000005,"elevation":[]},{"distance":133.06900000000002,"relativeDirection":"RIGHT","streetName":"Rue de la Fondation","absoluteDirection":"NORTHEAST","stayOn":false,"area":false,"bogusName":false,"lon":-71.05284470000001,"lat":48.4184787,"elevation":[]},{"distance":236.573,"relativeDirection":"LEFT","streetName":"path","absoluteDirection":"NORTH","stayOn":false,"area":false,"bogusName":true,"lon":-71.0518321,"lat":48.419468900000005,"elevation":[]}]},{"startTime":1522723920000,"endTime":1522724536000,"departureDelay":0,"arrivalDelay":0,"realTime":false,"distance":2597.9243463077123,"pathway":false,"mode":"BUS","route":"14","agencyName":"Société de Transport du Saguenay","agencyUrl":"http://ville.saguenay.ca/fr/services-aux-citoyens/transport-sts","agencyTimeZoneOffset":-14400000,"routeColor":"C0C000","routeType":3,"routeId":"1:14","routeTextColor":"000000","interlineWithPreviousLeg":false,"tripBlockId":"30","headsign":"Talbot / Barrette","agencyId":"0","tripId":"1:218119","serviceDate":"20180402","from":{"name":"Terminus UQAC","stopId":"1:1670","stopCode":"1670","lon":-71.053369,"lat":48.420903,"arrival":1522723919000,"departure":1522723920000,"zoneId":"NA","stopIndex":8,"stopSequence":9,"vertexType":"TRANSIT"},"to":{"name":"Boily / Garnier","stopId":"1:1567","stopCode":"1567","lon":-71.080057,"lat":48.411756,"arrival":1522724536000,"departure":1522724537000,"zoneId":"NA","stopIndex":15,"stopSequence":16,"vertexType":"TRANSIT"},"legGeometry":{"points":"sepfHrrtpLdA`ATq@`E~DL`@E`Ex@hDd@`B}FtFaAzAm@xAe@jCa@nDiAbm@SpKM`H]vBhDVzCTcAvCO^bEbEzK`LfBeEtK`KhAdAnCbCvBpCNR~BxAxBf@z@h@","length":32},"routeShortName":"14","routeLongName":"Coopérative","rentedBike":false,"transitLeg":true,"duration":616.0,"steps":[]},{"startTime":1522724537000,"endTime":1522725534000,"departureDelay":0,"arrivalDelay":0,"realTime":false,"distance":1281.453,"pathway":false,"mode":"WALK","route":"","agencyTimeZoneOffset":-14400000,"interlineWithPreviousLeg":false,"from":{"name":"Boily / Garnier","stopId":"1:1567","stopCode":"1567","lon":-71.080057,"lat":48.411756,"arrival":1522724536000,"departure":1522724537000,"zoneId":"NA","stopIndex":15,"stopSequence":16,"vertexType":"TRANSIT"},"to":{"name":"Destination","lon":-71.093745,"lat":48.412031,"arrival":1522725534000,"orig":"","vertexType":"NORMAL"},"legGeometry":{"points":"elnfHpxypLnAr@{@vDWzBY`D{@fDoAnBg@XoAh@IB[Ph@pDh@fBz@rBbBbCj@x@hBjC}AzDYXQHK?o@vCF|BLnCZdEl@`H","length":26},"rentedBike":false,"transitLeg":false,"duration":997.0,"steps":[{"distance":49.36,"relativeDirection":"DEPART","streetName":"Rue Boily","absoluteDirection":"SOUTHWEST","stayOn":false,"area":false,"bogusName":false,"lon":-71.07992373269299,"lat":48.41171817126571,"elevation":[]},{"distance":387.072,"relativeDirection":"RIGHT","streetName":"Rue Garnier","absoluteDirection":"NORTHWEST","stayOn":false,"area":false,"bogusName":false,"lon":-71.0801867,"lat":48.41131,"elevation":[]},{"distance":22.995,"relativeDirection":"CONTINUE","streetName":"Rue Saint-Augustin","absoluteDirection":"NORTH","stayOn":false,"area":false,"bogusName":false,"lon":-71.0842714,"lat":48.413164,"elevation":[]},{"distance":353.491,"relativeDirection":"LEFT","streetName":"Boulevard Saint-Paul","absoluteDirection":"WEST","stayOn":false,"area":false,"bogusName":false,"lon":-71.0843859,"lat":48.413356300000004,"elevation":[]},{"distance":121.414,"relativeDirection":"RIGHT","streetName":"Rue Martin-Bouvard","absoluteDirection":"NORTHWEST","stayOn":false,"area":false,"bogusName":false,"lon":-71.088029,"lat":48.4113872,"elevation":[]},{"distance":108.55099999999999,"relativeDirection":"LEFT","streetName":"path","absoluteDirection":"NORTHWEST","stayOn":false,"area":false,"bogusName":true,"lon":-71.08914440000001,"lat":48.4121377,"elevation":[]},{"distance":238.57,"relativeDirection":"CONTINUE","streetName":"Rue du Canal","absoluteDirection":"WEST","stayOn":false,"area":false,"bogusName":false,"lon":-71.09053370000001,"lat":48.412339100000004,"elevation":[]}]}],"tooSloped":false}]},"debugOutput":{"precalculationTime":32,"pathCalculationTime":70,"pathTimes":[29,19,22],"renderingTime":1,"totalTime":103,"timedOut":false},"elevationMetadata":{"ellipsoidToGeoidDifference":-28.885904201182168,"geoidElevation":false}}