{"requestParameters":{"date":"2018/04/02","walkSpeed":"1.33","walkReluctance":"2.0","fromPlace":"48.400778,-71.085142","maxWalkDistance":"3000","waitReluctance":"1.0","carSpeed":"33","numItineraries":"3","waitAtBeginningFactor":"0.4","mode":"TRANSIT,WALK","ignoreRealtimeUpdates":"false","stairsReluctance":"2.0","toPlace":"48.412539,-71.049711","time":"11:37:00"},"plan":{"date":1522683420000,"from":{"name":"Origin","lon":-71.085142,"lat":48.400778,"orig":"","vertexType":"NORMAL"},"to":{"name":"Destination","lon":-71.049711,"lat":48.412539,"orig":"","vertexType":"NORMAL"},"itineraries":[{"duration":1675,"startTime":1522683965000,"endTime":1522685640000,"walkTime":1313,"transitTime":360,"waitingTime":2,"walkDistance":1703.5050526260598,"walkLimitExceeded":false,"elevationLost":0.0,"elevationGained":0.0,"transfers":0,"legs":[{"startTime":1522683965000,"endTime":1522685159000,"departureDelay":0,"arrivalDelay":0,"realTime":false,"distance":1547.8620000000003,"pathway":false,"mode":"WALK","route":"","agencyTimeZoneOffset":-14400000,"interlineWithPreviousLeg":false,"from":{"name":"Origin","lon":-71.085142,"lat":48.400778,"departure":1522683965000,"orig":"","vertexType":"NORMAL"},"to":{"name":"boul. Talbot / boul. Barrette","stopId":"1:49","stopCode":"49","lon":-71.069502,"lat":48.394497,"arrival":1522685159000,"departure":1522685160000,"zoneId":"NA","stopIndex":7,"stopSequence":8,"vertexType":"TRANSIT"},"legGeometry":{"points":"}glfHbyzpLD[?wA~@Ct@^l@`@TcAv@l@RZDQzAsHPq@hBqH`@cBFUb@eB~CeMn@cCVeAZgAfB{GhAsEFSd@eBVm@x@yB|EgMPc@}BmC","length":29},"rentedBike":false,"transitLeg":false,"duration":1194.0,"steps":[{"distance":43.029,"relativeDirection":"DEPART","streetName":"Rue Yves Thériault","absoluteDirection":"EAST","stayOn":false,"area":false,"bogusName":false,"lon":-71.08513512072626,"lat":48.40079257259556,"elevation":[]},{"distance":96.725,"relativeDirection":"RIGHT","streetName":"Rue Boris Vian","absoluteDirection":"SOUTH","stayOn":false,"area":false,"bogusName":false,"lon":-71.0845591,"lat":48.4007658,"elevation":[]},{"distance":28.015,"relativeDirection":"LEFT","streetName":"Rue Jean-Paul Sartre","absoluteDirection":"SOUTHEAST","stayOn":false,"area":false,"bogusName":false,"lon":-71.0848672,"lat":48.3999413,"elevation":[]},{"distance":50.8,"relativeDirection":"RIGHT","streetName":"path","absoluteDirection":"SOUTHWEST","stayOn":false,"area":false,"bogusName":true,"lon":-71.0845255,"lat":48.3998317,"elevation":[]},{"distance":1241.566,"relativeDirection":"LEFT","streetName":"Boulevard Barrette","absoluteDirection":"SOUTHEAST","stayOn":false,"area":false,"bogusName":false,"lon":-71.0848982,"lat":48.3994511,"elevation":[]},{"distance":87.727,"relativeDirection":"LEFT","streetName":"Boulevard Talbot","absoluteDirection":"NORTHEAST","stayOn":false,"area":false,"bogusName":false,"lon":-71.0703318,"lat":48.3939238,"elevation":[]}]},{"startTime":1522685160000,"endTime":1522685520000,"departureDelay":0,"arrivalDelay":0,"realTime":false,"distance":2329.629756777378,"pathway":false,"mode":"BUS","route":"175","agencyName":"Société de Transport du Saguenay","agencyUrl":"http://ville.saguenay.ca/fr/services-aux-citoyens/transport-sts","agencyTimeZoneOffset":-14400000,"routeColor":"FF00FF","routeType":3,"routeId":"1:175","routeTextColor":"FFFFFF","interlineWithPreviousLeg":false,"tripBlockId":"81","headsign":"Terminus Chicoutimi","agencyId":"0","tripId":"1:218659","serviceDate":"20180402","from":{"name":"boul. Talbot / boul. Barrette","stopId":"1:49","stopCode":"49","lon":-71.069502,"lat":48.394497,"arrival":1522685159000,"departure":1522685160000,"zoneId":"NA","stopIndex":7,"stopSequence":8,"vertexType":"TRANSIT"},"to":{"name":"missingStopName","stopId":"1:1812","stopCode":"1812","lon":-71.051352,"lat":48.411592,"arrival":1522685520000,"departure":1522685521000,"zoneId":"NA","stopIndex":11,"stopSequence":12,"vertexType":"TRANSIT"},"legGeometry":{"points":"aakfHlxwpLiAoAgEsFkFsHqJ_N}FkImPkOuO{N_U_TcNgN","length":10},"routeShortName":"175","routeLongName":"Term. Chic / Costco","rentedBike":false,"transitLeg":true,"duration":360.0,"steps":[]},{"startTime":1522685521000,"endTime":1522685640000,"departureDelay":0,"arrivalDelay":0,"realTime":false,"distance":155.472,"pathway":false,"mode":"WALK","route":"","agencyTimeZoneOffset":-14400000,"interlineWithPreviousLeg":false,"from":{"name":"missingStopName","stopId":"1:1812","stopCode":"1812","lon":-71.051352,"lat":48.411592,"arrival":1522685520000,"departure":1522685521000,"zoneId":"NA","stopIndex":11,"stopSequence":12,"vertexType":"TRANSIT"},"to":{"name":"Destination","lon":-71.049711,"lat":48.412539,"arrival":1522685640000,"orig":"","vertexType":"NORMAL"},"legGeometry":{"points":"wknfHtftpLy@}@MKUYgCkC","length":5},"rentedBike":false,"transitLeg":false,"duration":119.0,"steps":[{"distance":155.472,"relativeDirection":"DEPART","streetName":"Boulevard Talbot","absoluteDirection":"NORTHEAST","stayOn":false,"area":false,"bogusName":false,"lon":-71.05146038442705,"lat":48.41164093434771,"elevation":[]}]}],"tooSloped":false},{"duration":2114,"startTime":1522683624000,"endTime":1522685738000,"walkTime":342,"transitTime":1290,"waitingTime":482,"walkDistance":424.65854134800963,"walkLimitExceeded":false,"elevationLost":0.0,"elevationGained":0.0,"transfers":1,"legs":[{"startTime":1522683624000,"endTime":1522683812000,"departureDelay":0,"arrivalDelay":0,"realTime":false,"distance":226.27800000000002,"pathway":false,"mode":"WALK","route":"","agencyTimeZoneOffset":-14400000,"interlineWithPreviousLeg":false,"from":{"name":"Origin","lon":-71.085142,"lat":48.400778,"departure":1522683624000,"orig":"","vertexType":"NORMAL"},"to":{"name":"boul. Barrette passerelle J.Paul Sartre","stopId":"1:1898","stopCode":"1898","lon":-71.084773,"lat":48.399467,"arrival":1522683812000,"departure":1522683813000,"zoneId":"NA","stopIndex":4,"stopSequence":5,"vertexType":"TRANSIT"},"legGeometry":{"points":"}glfHbyzpLD[?wA~@Ct@^l@`@TcAv@l@RZDQ","length":10},"rentedBike":false,"transitLeg":false,"duration":188.0,"steps":[{"distance":43.029,"relativeDirection":"DEPART","streetName":"Rue Yves Thériault","absoluteDirection":"EAST","stayOn":false,"area":false,"bogusName":false,"lon":-71.08513512072626,"lat":48.40079257259556,"elevation":[]},{"distance":96.725,"relativeDirection":"RIGHT","streetName":"Rue Boris Vian","absoluteDirection":"SOUTH","stayOn":false,"area":false,"bogusName":false,"lon":-71.0845591,"lat":48.4007658,"elevation":[]},{"distance":28.015,"relativeDirection":"LEFT","streetName":"Rue Jean-Paul Sartre","absoluteDirection":"SOUTHEAST","stayOn":false,"area":false,"bogusName":false,"lon":-71.0848672,"lat":48.3999413,"elevation":[]},{"distance":50.8,"relativeDirection":"RIGHT","streetName":"path","absoluteDirection":"SOUTHWEST","stayOn":false,"area":false,"bogusName":true,"lon":-71.0845255,"lat":48.3998317,"elevation":[]},{"distance":7.709,"relativeDirection":"LEFT","streetName":"Boulevard Barrette","absoluteDirection":"SOUTHEAST","stayOn":false,"area":false,"bogusName":false,"lon":-71.0848982,"lat":48.3994511,"elevation":[]}]},{"startTime":1522683813000,"endTime":1522684860000,"departureDelay":0,"arrivalDelay":0,"realTime":false,"distance":6611.2806362991705,"pathway":false,"mode":"BUS","route":"14","agencyName":"Société de Transport du Saguenay","agencyUrl":"http://ville.saguenay.ca/fr/services-aux-citoyens/transport-sts","agencyTimeZoneOffset":-14400000,"routeColor":"C0C000","routeType":3,"routeId":"1:14","routeTextColor":"000000","interlineWithPreviousLeg":false,"tripBlockId":"33","headsign":"Terminus Chicoutimi","agencyId":"0","tripId":"1:218182","serviceDate":"20180402","from":{"name":"boul. Barrette passerelle J.Paul Sartre","stopId":"1:1898","stopCode":"1898","lon":-71.084773,"lat":48.399467,"arrival":1522683812000,"departure":1522683813000,"zoneId":"NA","stopIndex":4,"stopSequence":5,"vertexType":"TRANSIT"},"to":{"name":"Terminus UQAC","stopId":"1:1670","stopCode":"1670","lon":-71.053369,"lat":48.420903,"arrival":1522684860000,"departure":1522685340000,"zoneId":"NA","stopIndex":29,"stopSequence":30,"vertexType":"TRANSIT"},"legGeometry":{"points":"y~kfHlwzpLwGd\\aDxOdFtFhCtCdDY|F_On@aB`B_GNoBvAyT|@sNuAyAuF}F}AaB_BkAC@qC\\gAWiBwBiKgMiCwEgEyHCGy@uB}@rAa@nAc@lFEf@mGvUYfAqCs@ICMCqFmDc@s@mAkBuEoESUgAhDiAfD}@zDyAcA_@Um@U{AWgB_Au@s@EEsBkCqFgF{IiI][aBhE}@}@oBmBwE{EwE{Ej@mBZeAa@SyEQg@CPcALuCx@{b@t@{[XoDd@sBl@iB~@gA`G{F{A{D_@sBFqDOq@iG{F","length":77},"routeShortName":"14","routeLongName":"Coopérative","rentedBike":false,"transitLeg":true,"duration":1047.0,"steps":[]},{"startTime":1522685340000,"endTime":1522685583000,"departureDelay":0,"arrivalDelay":0,"realTime":false,"distance":1155.3685626166505,"pathway":false,"mode":"BUS","route":"175","agencyName":"Société de Transport du Saguenay","agencyUrl":"http://ville.saguenay.ca/fr/services-aux-citoyens/transport-sts","agencyTimeZoneOffset":-14400000,"routeColor":"FF00FF","routeType":3,"routeId":"1:175","routeTextColor":"FFFFFF","interlineWithPreviousLeg":false,"tripBlockId":"78","headsign":"Costco","agencyId":"0","tripId":"1:218643","serviceDate":"20180402","from":{"name":"Terminus UQAC","stopId":"1:1670","stopCode":"1670","lon":-71.053369,"lat":48.420903,"arrival":1522684860000,"departure":1522685340000,"zoneId":"NA","stopIndex":11,"stopSequence":12,"vertexType":"TRANSIT"},"to":{"name":"boul. Université / Murdock","stopId":"1:80","stopCode":"80","lon":-71.050111,"lat":48.411498,"arrival":1522685583000,"departure":1522685584000,"zoneId":"NA","stopIndex":14,"stopSequence":15,"vertexType":"TRANSIT"},"legGeometry":{"points":"sepfHtrtpL`A~@Xw@~D~DPxFZtA~ApE`N{LpFmEb@[ROl@[vDQXKfA[|@q@fAsBlEmM","length":18},"routeShortName":"175","routeLongName":"Term. Chic / Costco","rentedBike":false,"transitLeg":true,"duration":243.0,"steps":[]},{"startTime":1522685584000,"endTime":1522685738000,"departureDelay":0,"arrivalDelay":0,"realTime":false,"distance":198.214,"pathway":false,"mode":"WALK","route":"","agencyTimeZoneOffset":-14400000,"interlineWithPreviousLeg":false,"from":{"name":"boul. Université / Murdock","stopId":"1:80","stopCode":"80","lon":-71.050111,"lat":48.411498,"arrival":1522685583000,"departure":1522685584000,"zoneId":"NA","stopIndex":14,"stopSequence":15,"vertexType":"TRANSIT"},"to":{"name":"Destination","lon":-71.049711,"lat":48.412539,"arrival":1522685738000,"orig":"","vertexType":"NORMAL"},"legGeometry":{"points":"aknfH|}spL}AlEUYgCkC","length":4},"rentedBike":false,"transitLeg":false,"duration":154.0,"steps":[{"distance":91.298,"relativeDirection":"DEPART","streetName":"Boulevard de l'Université","absoluteDirection":"NORTHWEST","stayOn":false,"area":false,"bogusName":false,"lon":-71.05006857152243,"lat":48.41153928216614,"elevation":[]},{"distance":106.91600000000001,"relativeDirection":"RIGHT","streetName":"Boulevard Talbot","absoluteDirection":"NORTHEAST","stayOn":false,"area":false,"bogusName":false,"lon":-71.0510904,"lat":48.412002,"elevation":[]}]}],"tooSloped":false},{"duration":1376,"startTime":1522685164000,"endTime":1522686540000,"walkTime":464,"transitTime":450,"waitingTime":462,"walkDistance":584.0506992439351,"walkLimitExceeded":false,"elevationLost":0.0,"elevationGained":0.0,"transfers":1,"legs":[{"startTime":1522685164000,"endTime":1522685369000,"departureDelay":0,"arrivalDelay":0,"realTime":false,"distance":246.003,"pathway":false,"mode":"WALK","route":"","agencyTimeZoneOffset":-14400000,"interlineWithPreviousLeg":false,"from":{"name":"Origin","lon":-71.085142,"lat":48.400778,"departure":1522685164000,"orig":"","vertexType":"NORMAL"},"to":{"name":"boul. Barrette / passerelle rue Marcel-Portal","stopId":"1:90","stopCode":"90","lon":-71.085149,"lat":48.399287,"arrival":1522685369000,"departure":1522685370000,"zoneId":"NA","stopIndex":31,"stopSequence":32,"vertexType":"TRANSIT"},"legGeometry":{"points":"}glfHbyzpLD[?wA~@Ct@^l@`@TcAv@l@RZRRLNCJ","length":12},"rentedBike":false,"transitLeg":false,"duration":205.0,"steps":[{"distance":43.029,"relativeDirection":"DEPART","streetName":"Rue Yves Thériault","absoluteDirection":"EAST","stayOn":false,"area":false,"bogusName":false,"lon":-71.08513512072626,"lat":48.40079257259556,"elevation":[]},{"distance":96.725,"relativeDirection":"RIGHT","streetName":"Rue Boris Vian","absoluteDirection":"SOUTH","stayOn":false,"area":false,"bogusName":false,"lon":-71.0845591,"lat":48.4007658,"elevation":[]},{"distance":28.015,"relativeDirection":"LEFT","streetName":"Rue Jean-Paul Sartre","absoluteDirection":"SOUTHEAST","stayOn":false,"area":false,"bogusName":false,"lon":-71.0848672,"lat":48.3999413,"elevation":[]},{"distance":73.29599999999999,"relativeDirection":"RIGHT","streetName":"path","absoluteDirection":"SOUTHWEST","stayOn":false,"area":false,"bogusName":true,"lon":-71.0845255,"lat":48.3998317,"elevation":[]},{"distance":4.938,"relativeDirection":"RIGHT","streetName":"bike path","absoluteDirection":"NORTHWEST","stayOn":true,"area":false,"bogusName":true,"lon":-71.08507540000001,"lat":48.3992865,"elevation":[]}]},{"startTime":1522685370000,"endTime":1522685460000,"departureDelay":0,"arrivalDelay":0,"realTime":false,"distance":1328.7038023955338,"pathway":false,"mode":"BUS","route":"14","agencyName":"Société de Transport du Saguenay","agencyUrl":"http://ville.saguenay.ca/fr/services-aux-citoyens/transport-sts","agencyTimeZoneOffset":-14400000,"routeColor":"C0C000","routeType":3,"routeId":"1:14","routeTextColor":"000000","interlineWithPreviousLeg":false,"tripBlockId":"30","headsign":"Talbot / Barrette","agencyId":"0","tripId":"1:218097","serviceDate":"20180402","from":{"name":"boul. Barrette / passerelle rue Marcel-Portal","stopId":"1:90","stopCode":"90","lon":-71.085149,"lat":48.399287,"arrival":1522685369000,"departure":1522685370000,"zoneId":"NA","stopIndex":31,"stopSequence":32,"vertexType":"TRANSIT"},"to":{"name":"Roitelets / Sapins","stopId":"1:1543","stopCode":"1543","lon":-71.069553,"lat":48.393375,"arrival":1522685460000,"departure":1522685460000,"zoneId":"NA","stopIndex":35,"stopSequence":36,"vertexType":"TRANSIT"},"legGeometry":{"points":"e_lfHvxzpLj@oCvEoSl@_CxCmLjAeFpCeKrByHfAqCvH_SLa@","length":11},"routeShortName":"14","routeLongName":"Coopérative","rentedBike":false,"transitLeg":true,"duration":90.0,"steps":[]},{"startTime":1522685460000,"endTime":1522685600000,"departureDelay":0,"arrivalDelay":0,"realTime":false,"distance":182.446,"pathway":false,"mode":"WALK","route":"","agencyTimeZoneOffset":-14400000,"interlineWithPreviousLeg":false,"from":{"name":"Roitelets / Sapins","stopId":"1:1543","stopCode":"1543","lon":-71.069553,"lat":48.393375,"arrival":1522685460000,"departure":1522685460000,"zoneId":"NA","stopIndex":35,"stopSequence":36,"vertexType":"TRANSIT"},"to":{"name":"boul. Talbot / boul. Barrette","stopId":"1:49","stopCode":"49","lon":-71.069502,"lat":48.394497,"arrival":1522685600000,"departure":1522686060000,"zoneId":"NA","stopIndex":7,"stopSequence":8,"vertexType":"TRANSIT"},"legGeometry":{"points":"oyjfHxwwpL?@mAzCMHC@OO}BmC","length":7},"rentedBike":false,"transitLeg":false,"duration":140.0,"steps":[{"distance":84.014,"relativeDirection":"DEPART","streetName":"bike path","absoluteDirection":"NORTHWEST","stayOn":false,"area":false,"bogusName":true,"lon":-71.0695674967601,"lat":48.39336056343373,"elevation":[]},{"distance":98.432,"relativeDirection":"RIGHT","streetName":"Boulevard Talbot","absoluteDirection":"NORTHEAST","stayOn":false,"area":false,"bogusName":false,"lon":-71.07041720000001,"lat":48.393846,"elevation":[]}]},{"startTime":1522686060000,"endTime":1522686420000,"departureDelay":0,"arrivalDelay":0,"realTime":false,"distance":2329.629756777378,"pathway":false,"mode":"BUS","route":"175","agencyName":"Société de Transport du Saguenay","agencyUrl":"http://ville.saguenay.ca/fr/services-aux-citoyens/transport-sts","agencyTimeZoneOffset":-14400000,"routeColor":"FF00FF","routeType":3,"routeId":"1:175","routeTextColor":"FFFFFF","interlineWithPreviousLeg":false,"tripBlockId":"11","headsign":"Terminus Chicoutimi","agencyId":"0","tripId":"1:217473","serviceDate":"20180402","from":{"name":"boul. Talbot / boul. Barrette","stopId":"1:49","stopCode":"49","lon":-71.069502,"lat":48.394497,"arrival":1522685600000,"departure":1522686060000,"zoneId":"NA","stopIndex":7,"stopSequence":8,"vertexType":"TRANSIT"},"to":{"name":"missingStopName","stopId":"1:1812","stopCode":"1812","lon":-71.051352,"lat":48.411592,"arrival":1522686420000,"departure":1522686421000,"zoneId":"NA","stopIndex":11,"stopSequence":12,"vertexType":"TRANSIT"},"legGeometry":{"points":"aakfHlxwpLiAoAgEsFkFsHqJ_N}FkImPkOuO{N_U_TcNgN","length":10},"routeShortName":"175","routeLongName":"Term. Chic / Costco","rentedBike":false,"transitLeg":true,"duration":360.0,"steps":[]},{"startTime":1522686421000,"endTime":1522686540000,"departureDelay":0,"arrivalDelay":0,"realTime":false,"distance":155.472,"pathway":false,"mode":"WALK","route":"","agencyTimeZoneOffset":-14400000,"interlineWithPreviousLeg":false,"from":{"name":"missingStopName","stopId":"1:1812","stopCode":"1812","lon":-71.051352,"lat":48.411592,"arrival":1522686420000,"departure":1522686421000,"zoneId":"NA","stopIndex":11,"stopSequence":12,"vertexType":"TRANSIT"},"to":{"name":"Destination","lon":-71.049711,"lat":48.412539,"arrival":1522686540000,"orig":"","vertexType":"NORMAL"},"legGeometry":{"points":"wknfHtftpLy@}@MKUYgCkC","length":5},"rentedBike":false,"transitLeg":false,"duration":119.0,"steps":[{"distance":155.472,"relativeDirection":"DEPART","streetName":"Boulevard Talbot","absoluteDirection":"NORTHEAST","stayOn":false,"area":false,"bogusName":false,"lon":-71.05146038442705,"lat":48.41164093434771,"elevation":[]}]}],"tooSloped":false}]},"debugOutput":{"precalculationTime":36,"pathCalculationTime":36,"pathTimes":[23,7,6],"renderingTime":0,"totalTime":72,"timedOut":false},"elevationMetadata":{"ellipsoidToGeoidDifference":-28.885904201182168,"geoidElevation":false}}