{"requestParameters":{"date":"2018/04/02","walkSpeed":"1.33","walkReluctance":"2.0","fromPlace":"48.397418,-71.095142","maxWalkDistance":"3000","waitReluctance":"1.0","carSpeed":"33","numItineraries":"3","waitAtBeginningFactor":"0.4","mode":"TRANSIT,WALK","ignoreRealtimeUpdates":"false","stairsReluctance":"2.0","toPlace":"48.417529,-71.06634099","time":"18:20:00"},"plan":{"date":1522707600000,"from":{"name":"Origin","lon":-71.095142,"lat":48.397418,"orig":"","vertexType":"NORMAL"},"to":{"name":"Destination","lon":-71.06634099,"lat":48.417529,"orig":"","vertexType":"NORMAL"},"itineraries":[{"duration":1397,"startTime":1522708825000,"endTime":1522710222000,"walkTime":778,"transitTime":617,"waitingTime":2,"walkDistance":985.584586458596,"walkLimitExceeded":false,"elevationLost":0.0,"elevationGained":0.0,"transfers":0,"legs":[{"startTime":1522708825000,"endTime":1522709095000,"departureDelay":0,"arrivalDelay":0,"realTime":false,"distance":339.79900000000004,"pathway":false,"mode":"WALK","route":"","agencyTimeZoneOffset":-14400000,"interlineWithPreviousLeg":false,"from":{"name":"Origin","lon":-71.095142,"lat":48.397418,"departure":1522708825000,"orig":"","vertexType":"NORMAL"},"to":{"name":"Malraux / Colette","stopId":"1:1591","stopCode":"1591","lon":-71.091599,"lat":48.397534,"arrival":1522709095000,"departure":1522709096000,"zoneId":"NA","stopIndex":7,"stopSequence":8,"vertexType":"TRANSIT"},"legGeometry":{"points":"irkfHxu|pLUMc@e@iAyAbAqCcBwBpB{F","length":7},"rentedBike":false,"transitLeg":false,"duration":270.0,"steps":[{"distance":90.415,"relativeDirection":"DEPART","streetName":"Rue Henri Troyat","absoluteDirection":"NORTHEAST","stayOn":false,"area":false,"bogusName":false,"lon":-71.09484592573395,"lat":48.39733604420149,"elevation":[]},{"distance":66.37,"relativeDirection":"RIGHT","streetName":"Croissant Rabelais","absoluteDirection":"SOUTHEAST","stayOn":false,"area":false,"bogusName":false,"lon":-71.09413950000001,"lat":48.3979955,"elevation":[]},{"distance":70.684,"relativeDirection":"LEFT","streetName":"Rue Paul Morand","absoluteDirection":"NORTHEAST","stayOn":false,"area":false,"bogusName":false,"lon":-71.0934024,"lat":48.3976538,"elevation":[]},{"distance":112.33,"relativeDirection":"RIGHT","streetName":"Rue Malraux","absoluteDirection":"SOUTHEAST","stayOn":false,"area":false,"bogusName":false,"lon":-71.0928068,"lat":48.398151500000004,"elevation":[]}]},{"startTime":1522709096000,"endTime":1522709713000,"departureDelay":0,"arrivalDelay":0,"realTime":false,"distance":4044.8152717890516,"pathway":false,"mode":"BUS","route":"14","agencyName":"Société de Transport du Saguenay","agencyUrl":"http://ville.saguenay.ca/fr/services-aux-citoyens/transport-sts","agencyTimeZoneOffset":-14400000,"routeColor":"C0C000","routeType":3,"routeId":"1:14","routeTextColor":"000000","interlineWithPreviousLeg":false,"tripBlockId":"33","headsign":"Terminus Chicoutimi","agencyId":"0","tripId":"1:218196","serviceDate":"20180402","from":{"name":"Malraux / Colette","stopId":"1:1591","stopCode":"1591","lon":-71.091599,"lat":48.397534,"arrival":1522709095000,"departure":1522709096000,"zoneId":"NA","stopIndex":7,"stopSequence":8,"vertexType":"TRANSIT"},"to":{"name":"Jolliet / Audet","stopId":"1:522","stopCode":"522","lon":-71.07278,"lat":48.420244,"arrival":1522709713000,"departure":1522709714000,"zoneId":"NA","stopIndex":27,"stopSequence":28,"vertexType":"TRANSIT"},"legGeometry":{"points":"_tkfH~`|pLn@aB`B_GNoBvAyT|@sNuAyAuF}F}AaB_BkAC@qC\\gAWiBwBiKgMiCwEgEyHCGy@uB}@rAa@nAc@lFEf@mGvUYfAqCs@ICMCqFmDc@s@mAkBuEoESUgAhDiAfD}@zDyAcA_@Um@U{AWgB_Au@s@EEsBkCqFgF{IiI][aBhE}@}@oBmBwE{EwE{Ej@mB","length":53},"routeShortName":"14","routeLongName":"Coopérative","rentedBike":false,"transitLeg":true,"duration":617.0,"steps":[]},{"startTime":1522709714000,"endTime":1522710222000,"departureDelay":0,"arrivalDelay":0,"realTime":false,"distance":645.551,"pathway":false,"mode":"WALK","route":"","agencyTimeZoneOffset":-14400000,"interlineWithPreviousLeg":false,"from":{"name":"Jolliet / Audet","stopId":"1:522","stopCode":"522","lon":-71.07278,"lat":48.420244,"arrival":1522709713000,"departure":1522709714000,"zoneId":"NA","stopIndex":27,"stopSequence":28,"vertexType":"TRANSIT"},"to":{"name":"Destination","lon":-71.06634099,"lat":48.417529,"arrival":1522710222000,"orig":"","vertexType":"NORMAL"},"legGeometry":{"points":"cbpfHfkxpLZ}@bAkCn@}AfBwEZi@PSVa@V[FE\\Y^Y^Kn@MXy@d@oBQEK]Mq@C_BQWQKUEP]Jg@?[?{@","length":27},"rentedBike":false,"transitLeg":false,"duration":508.0,"steps":[{"distance":393.50199999999995,"relativeDirection":"DEPART","streetName":"Rue Jolliet","absoluteDirection":"SOUTHEAST","stayOn":false,"area":false,"bogusName":false,"lon":-71.07267835560184,"lat":48.420345859294756,"elevation":[]},{"distance":252.049,"relativeDirection":"LEFT","streetName":"path","absoluteDirection":"SOUTHEAST","stayOn":false,"area":false,"bogusName":true,"lon":-71.069079,"lat":48.417887500000006,"elevation":[]}]}],"tooSloped":false},{"duration":2072,"startTime":1522708903000,"endTime":1522710975000,"walkTime":1715,"transitTime":355,"waitingTime":2,"walkDistance":2191.893187957819,"walkLimitExceeded":false,"elevationLost":0.0,"elevationGained":0.0,"transfers":0,"legs":[{"startTime":1522708903000,"endTime":1522709884000,"departureDelay":0,"arrivalDelay":0,"realTime":false,"distance":1260.316,"pathway":false,"mode":"WALK","route":"","agencyTimeZoneOffset":-14400000,"interlineWithPreviousLeg":false,"from":{"name":"Origin","lon":-71.095142,"lat":48.397418,"departure":1522708903000,"orig":"","vertexType":"NORMAL"},"to":{"name":"boul. Barrette / Estacade","stopId":"1:478","stopCode":"478","lon":-71.098119,"lat":48.404568,"arrival":1522709884000,"departure":1522709885000,"zoneId":"NA","stopIndex":12,"stopSequence":13,"vertexType":"TRANSIT"},"legGeometry":{"points":"irkfHxu|pLUMc@e@iAyAbAqCcBwBEJiCdGYLqBDc@S}@kAaAeAEEkF{Fa@jAA?{EvMy@tBGPsCrHiBzE","length":22},"rentedBike":false,"transitLeg":false,"duration":981.0,"steps":[{"distance":90.415,"relativeDirection":"DEPART","streetName":"Rue Henri Troyat","absoluteDirection":"NORTHEAST","stayOn":false,"area":false,"bogusName":false,"lon":-71.09484592573395,"lat":48.39733604420149,"elevation":[]},{"distance":66.37,"relativeDirection":"RIGHT","streetName":"Croissant Rabelais","absoluteDirection":"SOUTHEAST","stayOn":false,"area":false,"bogusName":false,"lon":-71.09413950000001,"lat":48.3979955,"elevation":[]},{"distance":70.684,"relativeDirection":"LEFT","streetName":"Rue Paul Morand","absoluteDirection":"NORTHEAST","stayOn":false,"area":false,"bogusName":false,"lon":-71.0934024,"lat":48.3976538,"elevation":[]},{"distance":483.19599999999997,"relativeDirection":"LEFT","streetName":"Rue Malraux","absoluteDirection":"NORTHWEST","stayOn":false,"area":false,"bogusName":false,"lon":-71.0928068,"lat":48.398151500000004,"elevation":[]},{"distance":549.651,"relativeDirection":"LEFT","streetName":"Boulevard Barrette","absoluteDirection":"NORTHWEST","stayOn":false,"area":false,"bogusName":false,"lon":-71.0921587,"lat":48.401604500000005,"elevation":[]}]},{"startTime":1522709885000,"endTime":1522710240000,"departureDelay":0,"arrivalDelay":0,"realTime":false,"distance":2614.083500814366,"pathway":false,"mode":"BUS","route":"11","agencyName":"Société de Transport du Saguenay","agencyUrl":"http://ville.saguenay.ca/fr/services-aux-citoyens/transport-sts","agencyTimeZoneOffset":-14400000,"routeColor":"FF0000","routeType":3,"routeId":"1:11","routeTextColor":"FFFFFF","interlineWithPreviousLeg":false,"tripBlockId":"37","headsign":"Terminus Chicoutimi","agencyId":"0","tripId":"1:218327","serviceDate":"20180402","from":{"name":"boul. Barrette / Estacade","stopId":"1:478","stopCode":"478","lon":-71.098119,"lat":48.404568,"arrival":1522709884000,"departure":1522709885000,"zoneId":"NA","stopIndex":12,"stopSequence":13,"vertexType":"TRANSIT"},"to":{"name":"Dubuc / Lapointe","stopId":"1:1578","stopCode":"1578","lon":-71.075709,"lat":48.421825,"arrival":1522710240000,"departure":1522710241000,"zoneId":"NA","stopIndex":23,"stopSequence":24,"vertexType":"TRANSIT"},"legGeometry":{"points":"c_mfHtj}pLy@vBeCuCoCaDkDuE_@g@{FwGOMnA}CnA_DJWu@iAW[S[yI{MmBqC{@wAQUw@gAsDiF_B_CQYa@cA[_AUy@YcBOgAYHu@\\M`@cAiBuAyBkHgL{C{E}AcCc@o@q@gAOWwCyCyGyG_IaIs@rB","length":42},"routeShortName":"11","routeLongName":"Chic/Faubourg via St-Paul","rentedBike":false,"transitLeg":true,"duration":355.0,"steps":[]},{"startTime":1522710241000,"endTime":1522710975000,"departureDelay":0,"arrivalDelay":0,"realTime":false,"distance":931.2020000000001,"pathway":false,"mode":"WALK","route":"","agencyTimeZoneOffset":-14400000,"interlineWithPreviousLeg":false,"from":{"name":"Dubuc / Lapointe","stopId":"1:1578","stopCode":"1578","lon":-71.075709,"lat":48.421825,"arrival":1522710240000,"departure":1522710241000,"zoneId":"NA","stopIndex":23,"stopSequence":24,"vertexType":"TRANSIT"},"to":{"name":"Destination","lon":-71.06634099,"lat":48.417529,"arrival":1522710975000,"orig":"","vertexType":"NORMAL"},"legGeometry":{"points":"ckpfHn~xpLx@uBf@}AXq@Pa@FEFCDCBG@I@K?MESfA_CNc@`@mAZ}@bAkCn@}AfBwEZi@PSVa@V[FE\\Y^Y^Kn@MXy@d@oBQEK]Mq@C_BQWQKUEP]Jg@?[?{@","length":42},"rentedBike":false,"transitLeg":false,"duration":734.0,"steps":[{"distance":95.247,"relativeDirection":"DEPART","streetName":"Rue Dubuc","absoluteDirection":"SOUTHEAST","stayOn":false,"area":false,"bogusName":false,"lon":-71.07575486184759,"lat":48.42178360403269,"elevation":[]},{"distance":78.343,"relativeDirection":"CONTINUE","streetName":"path","absoluteDirection":"SOUTHEAST","stayOn":false,"area":false,"bogusName":true,"lon":-71.07469880000001,"lat":48.4212916,"elevation":[]},{"distance":505.5630000000001,"relativeDirection":"RIGHT","streetName":"Rue Jolliet","absoluteDirection":"SOUTHEAST","stayOn":false,"area":false,"bogusName":false,"lon":-71.07388590000001,"lat":48.420954200000004,"elevation":[]},{"distance":252.049,"relativeDirection":"LEFT","streetName":"path","absoluteDirection":"SOUTHEAST","stayOn":false,"area":false,"bogusName":true,"lon":-71.069079,"lat":48.417887500000006,"elevation":[]}]}],"tooSloped":false},{"duration":1397,"startTime":1522712425000,"endTime":1522713822000,"walkTime":778,"transitTime":617,"waitingTime":2,"walkDistance":985.584586458596,"walkLimitExceeded":false,"elevationLost":0.0,"elevationGained":0.0,"transfers":0,"legs":[{"startTime":1522712425000,"endTime":1522712695000,"departureDelay":0,"arrivalDelay":0,"realTime":false,"distance":339.79900000000004,"pathway":false,"mode":"WALK","route":"","agencyTimeZoneOffset":-14400000,"interlineWithPreviousLeg":false,"from":{"name":"Origin","lon":-71.095142,"lat":48.397418,"departure":1522712425000,"orig":"","vertexType":"NORMAL"},"to":{"name":"Malraux / Colette","stopId":"1:1591","stopCode":"1591","lon":-71.091599,"lat":48.397534,"arrival":1522712695000,"departure":1522712696000,"zoneId":"NA","stopIndex":7,"stopSequence":8,"vertexType":"TRANSIT"},"legGeometry":{"points":"irkfHxu|pLUMc@e@iAyAbAqCcBwBpB{F","length":7},"rentedBike":false,"transitLeg":false,"duration":270.0,"steps":[{"distance":90.415,"relativeDirection":"DEPART","streetName":"Rue Henri Troyat","absoluteDirection":"NORTHEAST","stayOn":false,"area":false,"bogusName":false,"lon":-71.09484592573395,"lat":48.39733604420149,"elevation":[]},{"distance":66.37,"relativeDirection":"RIGHT","streetName":"Croissant Rabelais","absoluteDirection":"SOUTHEAST","stayOn":false,"area":false,"bogusName":false,"lon":-71.09413950000001,"lat":48.3979955,"elevation":[]},{"distance":70.684,"relativeDirection":"LEFT","streetName":"Rue Paul Morand","absoluteDirection":"NORTHEAST","stayOn":false,"area":false,"bogusName":false,"lon":-71.0934024,"lat":48.3976538,"elevation":[]},{"distance":112.33,"relativeDirection":"RIGHT","streetName":"Rue Malraux","absoluteDirection":"SOUTHEAST","stayOn":false,"area":false,"bogusName":false,"lon":-71.0928068,"lat":48.398151500000004,"elevation":[]}]},{"startTime":1522712696000,"endTime":1522713313000,"departureDelay":0,"arrivalDelay":0,"realTime":false,"distance":4044.8152717890516,"pathway":false,"mode":"BUS","route":"14","agencyName":"Société de Transport du Saguenay","agencyUrl":"http://ville.saguenay.ca/fr/services-aux-citoyens/transport-sts","agencyTimeZoneOffset":-14400000,"routeColor":"C0C000","routeType":3,"routeId":"1:14","routeTextColor":"000000","interlineWithPreviousLeg":false,"tripBlockId":"33","headsign":"Terminus Chicoutimi","agencyId":"0","tripId":"1:218198","serviceDate":"20180402","from":{"name":"Malraux / Colette","stopId":"1:1591","stopCode":"1591","lon":-71.091599,"lat":48.397534,"arrival":1522712695000,"departure":1522712696000,"zoneId":"NA","stopIndex":7,"stopSequence":8,"vertexType":"TRANSIT"},"to":{"name":"Jolliet / Audet","stopId":"1:522","stopCode":"522","lon":-71.07278,"lat":48.420244,"arrival":1522713313000,"departure":1522713314000,"zoneId":"NA","stopIndex":27,"stopSequence":28,"vertexType":"TRANSIT"},"legGeometry":{"points":"_tkfH~`|pLn@aB`B_GNoBvAyT|@sNuAyAuF}F}AaB_BkAC@qC\\gAWiBwBiKgMiCwEgEyHCGy@uB}@rAa@nAc@lFEf@mGvUYfAqCs@ICMCqFmDc@s@mAkBuEoESUgAhDiAfD}@zDyAcA_@Um@U{AWgB_Au@s@EEsBkCqFgF{IiI][aBhE}@}@oBmBwE{EwE{Ej@mB","length":53},"routeShortName":"14","routeLongName":"Coopérative","rentedBike":false,"transitLeg":true,"duration":617.0,"steps":[]},{"startTime":1522713314000,"endTime":1522713822000,"departureDelay":0,"arrivalDelay":0,"realTime":false,"distance":645.551,"pathway":false,"mode":"WALK","route":"","agencyTimeZoneOffset":-14400000,"interlineWithPreviousLeg":false,"from":{"name":"Jolliet / Audet","stopId":"1:522","stopCode":"522","lon":-71.07278,"lat":48.420244,"arrival":1522713313000,"departure":1522713314000,"zoneId":"NA","stopIndex":27,"stopSequence":28,"vertexType":"TRANSIT"},"to":{"name":"Destination","lon":-71.06634099,"lat":48.417529,"arrival":1522713822000,"orig":"","vertexType":"NORMAL"},"legGeometry":{"points":"cbpfHfkxpLZ}@bAkCn@}AfBwEZi@PSVa@V[FE\\Y^Y^Kn@MXy@d@oBQEK]Mq@C_BQWQKUEP]Jg@?[?{@","length":27},"rentedBike":false,"transitLeg":false,"duration":508.0,"steps":[{"distance":393.50199999999995,"relativeDirection":"DEPART","streetName":"Rue Jolliet","absoluteDirection":"SOUTHEAST","stayOn":false,"area":false,"bogusName":false,"lon":-71.07267835560184,"lat":48.420345859294756,"elevation":[]},{"distance":252.049,"relativeDirection":"LEFT","streetName":"path","absoluteDirection":"SOUTHEAST","stayOn":false,"area":false,"bogusName":true,"lon":-71.069079,"lat":48.417887500000006,"elevation":[]}]}],"tooSloped":false}]},"debugOutput":{"precalculationTime":31,"pathCalculationTime":29,"pathTimes":[19,5,5],"renderingTime":1,"totalTime":61,"timedOut":false},"elevationMetadata":{"ellipsoidToGeoidDifference":-28.885904201182168,"geoidElevation":false}}