{"requestParameters":{"date":"2018/04/02","walkSpeed":"1.33","walkReluctance":"2.0","fromPlace":"48.397707,-71.094835","maxWalkDistance":"3000","waitReluctance":"1.0","carSpeed":"33","numItineraries":"3","waitAtBeginningFactor":"0.4","mode":"TRANSIT,WALK","ignoreRealtimeUpdates":"false","stairsReluctance":"2.0","toPlace":"48.400778,-71.085142","time":"11:25:00"},"plan":{"date":1522682700000,"from":{"name":"Origin","lon":-71.094835,"lat":48.397707,"orig":"","vertexType":"NORMAL"},"to":{"name":"Destination","lon":-71.085142,"lat":48.400778,"orig":"","vertexType":"NORMAL"},"itineraries":[{"duration":845,"startTime":1522682700000,"endTime":1522683545000,"walkTime":845,"transitTime":0,"waitingTime":0,"walkDistance":1054.3471127708192,"walkLimitExceeded":false,"elevationLost":0.0,"elevationGained":0.0,"transfers":0,"legs":[{"startTime":1522682700000,"endTime":1522683545000,"departureDelay":0,"arrivalDelay":0,"realTime":false,"distance":1054.0020000000002,"pathway":false,"mode":"WALK","route":"","agencyTimeZoneOffset":-14400000,"interlineWithPreviousLeg":false,"from":{"name":"Origin","lon":-71.094835,"lat":48.397707,"departure":1522682700000,"orig":"","vertexType":"NORMAL"},"to":{"name":"Destination","lon":-71.085142,"lat":48.400778,"arrival":1522683545000,"orig":"","vertexType":"NORMAL"},"legGeometry":{"points":"_tkfHjt|pLCEiAyAbAqCcBwBEJOSkBwBWp@mDqDKSG]?_@Fk@Li@aByCiAu@SMSOCAmAm@h@wC@s@qBoBfBuH^{AJc@LeA","length":28},"rentedBike":false,"transitLeg":false,"duration":845.0,"steps":[{"distance":55.906,"relativeDirection":"DEPART","streetName":"Rue Henri Troyat","absoluteDirection":"NORTHEAST","stayOn":false,"area":false,"bogusName":false,"lon":-71.09461194825063,"lat":48.39760266133448,"elevation":[]},{"distance":66.37,"relativeDirection":"RIGHT","streetName":"Croissant Rabelais","absoluteDirection":"SOUTHEAST","stayOn":false,"area":false,"bogusName":false,"lon":-71.09413950000001,"lat":48.3979955,"elevation":[]},{"distance":70.684,"relativeDirection":"LEFT","streetName":"Rue Paul Morand","absoluteDirection":"NORTHEAST","stayOn":false,"area":false,"bogusName":false,"lon":-71.0934024,"lat":48.3976538,"elevation":[]},{"distance":5.462,"relativeDirection":"LEFT","streetName":"Rue Malraux","absoluteDirection":"NORTHWEST","stayOn":false,"area":false,"bogusName":false,"lon":-71.0928068,"lat":48.398151500000004,"elevation":[]},{"distance":86.369,"relativeDirection":"RIGHT","streetName":"path","absoluteDirection":"NORTHEAST","stayOn":false,"area":false,"bogusName":true,"lon":-71.0928648,"lat":48.398182000000006,"elevation":[]},{"distance":22.478,"relativeDirection":"LEFT","streetName":"Rue De Musset","absoluteDirection":"NORTHWEST","stayOn":false,"area":false,"bogusName":false,"lon":-71.0921637,"lat":48.3988038,"elevation":[]},{"distance":184.912,"relativeDirection":"RIGHT","streetName":"Rue George Sand","absoluteDirection":"NORTHEAST","stayOn":false,"area":false,"bogusName":false,"lon":-71.09241200000001,"lat":48.398920800000006,"elevation":[]},{"distance":198.221,"relativeDirection":"LEFT","streetName":"path","absoluteDirection":"NORTHEAST","stayOn":false,"area":false,"bogusName":true,"lon":-71.09068880000001,"lat":48.3997886,"elevation":[]},{"distance":80.064,"relativeDirection":"RIGHT","streetName":"Rue Verlaine","absoluteDirection":"EAST","stayOn":false,"area":false,"bogusName":false,"lon":-71.08925380000001,"lat":48.4012559,"elevation":[]},{"distance":74.921,"relativeDirection":"LEFT","streetName":"Rue Victor-Guimond","absoluteDirection":"NORTHEAST","stayOn":false,"area":false,"bogusName":false,"lon":-71.08823190000001,"lat":48.4010387,"elevation":[]},{"distance":208.61499999999998,"relativeDirection":"RIGHT","streetName":"Rue Yves Thériault","absoluteDirection":"SOUTHEAST","stayOn":false,"area":false,"bogusName":false,"lon":-71.08767850000001,"lat":48.4016035,"elevation":[]}]}],"tooSloped":false},{"duration":458,"startTime":1522683320000,"endTime":1522683778000,"walkTime":385,"transitTime":71,"waitingTime":2,"walkDistance":456.4048345773075,"walkLimitExceeded":false,"elevationLost":0.0,"elevationGained":0.0,"transfers":0,"legs":[{"startTime":1522683320000,"endTime":1522683498000,"departureDelay":0,"arrivalDelay":0,"realTime":false,"distance":210.118,"pathway":false,"mode":"WALK","route":"","agencyTimeZoneOffset":-14400000,"interlineWithPreviousLeg":false,"from":{"name":"Origin","lon":-71.094835,"lat":48.397707,"departure":1522683320000,"orig":"","vertexType":"NORMAL"},"to":{"name":"Malraux / Paul Morand","stopId":"1:92","stopCode":"92","lon":-71.092693,"lat":48.398228,"arrival":1522683498000,"departure":1522683499000,"zoneId":"NA","stopIndex":28,"stopSequence":29,"vertexType":"TRANSIT"},"legGeometry":{"points":"_tkfHjt|pLCEiAyAbAqCcBwBEJOS","length":7},"rentedBike":false,"transitLeg":false,"duration":178.0,"steps":[{"distance":55.906,"relativeDirection":"DEPART","streetName":"Rue Henri Troyat","absoluteDirection":"NORTHEAST","stayOn":false,"area":false,"bogusName":false,"lon":-71.09461194825063,"lat":48.39760266133448,"elevation":[]},{"distance":66.37,"relativeDirection":"RIGHT","streetName":"Croissant Rabelais","absoluteDirection":"SOUTHEAST","stayOn":false,"area":false,"bogusName":false,"lon":-71.09413950000001,"lat":48.3979955,"elevation":[]},{"distance":70.684,"relativeDirection":"LEFT","streetName":"Rue Paul Morand","absoluteDirection":"NORTHEAST","stayOn":false,"area":false,"bogusName":false,"lon":-71.0934024,"lat":48.3976538,"elevation":[]},{"distance":5.462,"relativeDirection":"LEFT","streetName":"Rue Malraux","absoluteDirection":"NORTHWEST","stayOn":false,"area":false,"bogusName":false,"lon":-71.0928068,"lat":48.398151500000004,"elevation":[]},{"distance":11.696,"relativeDirection":"RIGHT","streetName":"path","absoluteDirection":"NORTHEAST","stayOn":false,"area":false,"bogusName":true,"lon":-71.0928648,"lat":48.398182000000006,"elevation":[]}]},{"startTime":1522683499000,"endTime":1522683570000,"departureDelay":0,"arrivalDelay":0,"realTime":false,"distance":890.4041426681338,"pathway":false,"mode":"BUS","route":"14","agencyName":"Société de Transport du Saguenay","agencyUrl":"http://ville.saguenay.ca/fr/services-aux-citoyens/transport-sts","agencyTimeZoneOffset":-14400000,"routeColor":"C0C000","routeType":3,"routeId":"1:14","routeTextColor":"000000","interlineWithPreviousLeg":false,"tripBlockId":"32","headsign":"Talbot / Barrette","agencyId":"0","tripId":"1:218156","serviceDate":"20180402","from":{"name":"Malraux / Paul Morand","stopId":"1:92","stopCode":"92","lon":-71.092693,"lat":48.398228,"arrival":1522683498000,"departure":1522683499000,"zoneId":"NA","stopIndex":28,"stopSequence":29,"vertexType":"TRANSIT"},"to":{"name":"boul. Barrette / passerelle rue Marcel-Portal","stopId":"1:90","stopCode":"90","lon":-71.085149,"lat":48.399287,"arrival":1522683570000,"departure":1522683571000,"zoneId":"NA","stopIndex":31,"stopSequence":32,"vertexType":"TRANSIT"},"legGeometry":{"points":"wwkfHnh|pLcC~GyC\\aDkDcFsF~CgOtGm[","length":7},"routeShortName":"14","routeLongName":"Coopérative","rentedBike":false,"transitLeg":true,"duration":71.0,"steps":[]},{"startTime":1522683571000,"endTime":1522683778000,"departureDelay":0,"arrivalDelay":0,"realTime":false,"distance":246.003,"pathway":false,"mode":"WALK","route":"","agencyTimeZoneOffset":-14400000,"interlineWithPreviousLeg":false,"from":{"name":"boul. Barrette / passerelle rue Marcel-Portal","stopId":"1:90","stopCode":"90","lon":-71.085149,"lat":48.399287,"arrival":1522683570000,"departure":1522683571000,"zoneId":"NA","stopIndex":31,"stopSequence":32,"vertexType":"TRANSIT"},"to":{"name":"Destination","lon":-71.085142,"lat":48.400778,"arrival":1522683778000,"orig":"","vertexType":"NORMAL"},"legGeometry":{"points":"s~kfHbyzpLBKMOSSS[w@m@UbAm@a@u@_@_AB?vAEZ","length":12},"rentedBike":false,"transitLeg":false,"duration":207.0,"steps":[{"distance":4.938,"relativeDirection":"DEPART","streetName":"bike path","absoluteDirection":"SOUTHEAST","stayOn":false,"area":false,"bogusName":true,"lon":-71.0851358866462,"lat":48.399305450419845,"elevation":[]},{"distance":73.29599999999999,"relativeDirection":"LEFT","streetName":"path","absoluteDirection":"NORTHEAST","stayOn":true,"area":false,"bogusName":true,"lon":-71.08507540000001,"lat":48.3992865,"elevation":[]},{"distance":28.015,"relativeDirection":"LEFT","streetName":"Rue Jean-Paul Sartre","absoluteDirection":"NORTHWEST","stayOn":false,"area":false,"bogusName":false,"lon":-71.0845255,"lat":48.3998317,"elevation":[]},{"distance":96.725,"relativeDirection":"RIGHT","streetName":"Rue Boris Vian","absoluteDirection":"NORTHEAST","stayOn":false,"area":false,"bogusName":false,"lon":-71.0848672,"lat":48.3999413,"elevation":[]},{"distance":43.029,"relativeDirection":"LEFT","streetName":"Rue Yves Thériault","absoluteDirection":"WEST","stayOn":false,"area":false,"bogusName":false,"lon":-71.0845591,"lat":48.4007658,"elevation":[]}]}],"tooSloped":false},{"duration":458,"startTime":1522685120000,"endTime":1522685578000,"walkTime":385,"transitTime":71,"waitingTime":2,"walkDistance":456.4048345773075,"walkLimitExceeded":false,"elevationLost":0.0,"elevationGained":0.0,"transfers":0,"legs":[{"startTime":1522685120000,"endTime":1522685298000,"departureDelay":0,"arrivalDelay":0,"realTime":false,"distance":210.118,"pathway":false,"mode":"WALK","route":"","agencyTimeZoneOffset":-14400000,"interlineWithPreviousLeg":false,"from":{"name":"Origin","lon":-71.094835,"lat":48.397707,"departure":1522685120000,"orig":"","vertexType":"NORMAL"},"to":{"name":"Malraux / Paul Morand","stopId":"1:92","stopCode":"92","lon":-71.092693,"lat":48.398228,"arrival":1522685298000,"departure":1522685299000,"zoneId":"NA","stopIndex":28,"stopSequence":29,"vertexType":"TRANSIT"},"legGeometry":{"points":"_tkfHjt|pLCEiAyAbAqCcBwBEJOS","length":7},"rentedBike":false,"transitLeg":false,"duration":178.0,"steps":[{"distance":55.906,"relativeDirection":"DEPART","streetName":"Rue Henri Troyat","absoluteDirection":"NORTHEAST","stayOn":false,"area":false,"bogusName":false,"lon":-71.09461194825063,"lat":48.39760266133448,"elevation":[]},{"distance":66.37,"relativeDirection":"RIGHT","streetName":"Croissant Rabelais","absoluteDirection":"SOUTHEAST","stayOn":false,"area":false,"bogusName":false,"lon":-71.09413950000001,"lat":48.3979955,"elevation":[]},{"distance":70.684,"relativeDirection":"LEFT","streetName":"Rue Paul Morand","absoluteDirection":"NORTHEAST","stayOn":false,"area":false,"bogusName":false,"lon":-71.0934024,"lat":48.3976538,"elevation":[]},{"distance":5.462,"relativeDirection":"LEFT","streetName":"Rue Malraux","absoluteDirection":"NORTHWEST","stayOn":false,"area":false,"bogusName":false,"lon":-71.0928068,"lat":48.398151500000004,"elevation":[]},{"distance":11.696,"relativeDirection":"RIGHT","streetName":"path","absoluteDirection":"NORTHEAST","stayOn":false,"area":false,"bogusName":true,"lon":-71.0928648,"lat":48.398182000000006,"elevation":[]}]},{"startTime":1522685299000,"endTime":1522685370000,"departureDelay":0,"arrivalDelay":0,"realTime":false,"distance":890.4041426681338,"pathway":false,"mode":"BUS","route":"14","agencyName":"Société de Transport du Saguenay","agencyUrl":"http://ville.saguenay.ca/fr/services-aux-citoyens/transport-sts","agencyTimeZoneOffset":-14400000,"routeColor":"C0C000","routeType":3,"routeId":"1:14","routeTextColor":"000000","interlineWithPreviousLeg":false,"tripBlockId":"30","headsign":"Talbot / Barrette","agencyId":"0","tripId":"1:218097","serviceDate":"20180402","from":{"name":"Malraux / Paul Morand","stopId":"1:92","stopCode":"92","lon":-71.092693,"lat":48.398228,"arrival":1522685298000,"departure":1522685299000,"zoneId":"NA","stopIndex":28,"stopSequence":29,"vertexType":"TRANSIT"},"to":{"name":"boul. Barrette / passerelle rue Marcel-Portal","stopId":"1:90","stopCode":"90","lon":-71.085149,"lat":48.399287,"arrival":1522685370000,"departure":1522685371000,"zoneId":"NA","stopIndex":31,"stopSequence":32,"vertexType":"TRANSIT"},"legGeometry":{"points":"wwkfHnh|pLcC~GyC\\aDkDcFsF~CgOtGm[","length":7},"routeShortName":"14","routeLongName":"Coopérative","rentedBike":false,"transitLeg":true,"duration":71.0,"steps":[]},{"startTime":1522685371000,"endTime":1522685578000,"departureDelay":0,"arrivalDelay":0,"realTime":false,"distance":246.003,"pathway":false,"mode":"WALK","route":"","agencyTimeZoneOffset":-14400000,"interlineWithPreviousLeg":false,"from":{"name":"boul. Barrette / passerelle rue Marcel-Portal","stopId":"1:90","stopCode":"90","lon":-71.085149,"lat":48.399287,"arrival":1522685370000,"departure":1522685371000,"zoneId":"NA","stopIndex":31,"stopSequence":32,"vertexType":"TRANSIT"},"to":{"name":"Destination","lon":-71.085142,"lat":48.400778,"arrival":1522685578000,"orig":"","vertexType":"NORMAL"},"legGeometry":{"points":"s~kfHbyzpLBKMOSSS[w@m@UbAm@a@u@_@_AB?vAEZ","length":12},"rentedBike":false,"transitLeg":false,"duration":207.0,"steps":[{"distance":4.938,"relativeDirection":"DEPART","streetName":"bike path","absoluteDirection":"SOUTHEAST","stayOn":false,"area":false,"bogusName":true,"lon":-71.0851358866462,"lat":48.399305450419845,"elevation":[]},{"distance":73.29599999999999,"relativeDirection":"LEFT","streetName":"path","absoluteDirection":"NORTHEAST","stayOn":true,"area":false,"bogusName":true,"lon":-71.08507540000001,"lat":48.3992865,"elevation":[]},{"distance":28.015,"relativeDirection":"LEFT","streetName":"Rue Jean-Paul Sartre","absoluteDirection":"NORTHWEST","stayOn":false,"area":false,"bogusName":false,"lon":-71.0845255,"lat":48.3998317,"elevation":[]},{"distance":96.725,"relativeDirection":"RIGHT","streetName":"Rue Boris Vian","absoluteDirection":"NORTHEAST","stayOn":false,"area":false,"bogusName":false,"lon":-71.0848672,"lat":48.3999413,"elevation":[]},{"distance":43.029,"relativeDirection":"LEFT","streetName":"Rue Yves Thériault","absoluteDirection":"WEST","stayOn":false,"area":false,"bogusName":false,"lon":-71.0845591,"lat":48.4007658,"elevation":[]}]}],"tooSloped":false}]},"debugOutput":{"precalculationTime":18,"pathCalculationTime":14,"pathTimes":[5,5,4],"renderingTime":0,"totalTime":32,"timedOut":false},"elevationMetadata":{"ellipsoidToGeoidDifference":-28.885904201182168,"geoidElevation":false}}