{"requestParameters":{"date":"2018/04/02","walkSpeed":"1.33","walkReluctance":"2.0","fromPlace":"48.397178,-71.092803","maxWalkDistance":"3000","waitReluctance":"1.0","carSpeed":"33","numItineraries":"3","waitAtBeginningFactor":"0.4","mode":"TRANSIT,WALK","ignoreRealtimeUpdates":"false","stairsReluctance":"2.0","toPlace":"48.42036,-71.061801","time":"11:0:00"},"plan":{"date":1522681200000,"from":{"name":"Origin","lon":-71.092803,"lat":48.397178,"orig":"","vertexType":"NORMAL"},"to":{"name":"Destination","lon":-71.061801,"lat":48.42036,"orig":"","vertexType":"NORMAL"},"itineraries":[{"duration":1474,"startTime":1522681569000,"endTime":1522683043000,"walkTime":239,"transitTime":1233,"waitingTime":2,"walkDistance":292.8986691691355,"walkLimitExceeded":false,"elevationLost":0.0,"elevationGained":0.0,"transfers":0,"legs":[{"startTime":1522681569000,"endTime":1522681698000,"departureDelay":0,"arrivalDelay":0,"realTime":false,"distance":153.45399999999998,"pathway":false,"mode":"WALK","route":"","agencyTimeZoneOffset":-14400000,"interlineWithPreviousLeg":false,"from":{"name":"Origin","lon":-71.092803,"lat":48.397178,"departure":1522681569000,"orig":"","vertexType":"NORMAL"},"to":{"name":"Malraux / Paul Morand","stopId":"1:92","stopCode":"92","lon":-71.092693,"lat":48.398228,"arrival":1522681698000,"departure":1522681699000,"zoneId":"NA","stopIndex":28,"stopSequence":29,"vertexType":"TRANSIT"},"legGeometry":{"points":"krkfH`h|pL}@vCcBwBEJOS","length":5},"rentedBike":false,"transitLeg":false,"duration":129.0,"steps":[{"distance":65.612,"relativeDirection":"DEPART","streetName":"Rue Rabelais","absoluteDirection":"NORTHWEST","stayOn":false,"area":false,"bogusName":false,"lon":-71.09264978188195,"lat":48.397340003587786,"elevation":[]},{"distance":70.684,"relativeDirection":"RIGHT","streetName":"Rue Paul Morand","absoluteDirection":"NORTHEAST","stayOn":false,"area":false,"bogusName":false,"lon":-71.0934024,"lat":48.3976538,"elevation":[]},{"distance":5.462,"relativeDirection":"LEFT","streetName":"Rue Malraux","absoluteDirection":"NORTHWEST","stayOn":false,"area":false,"bogusName":false,"lon":-71.0928068,"lat":48.398151500000004,"elevation":[]},{"distance":11.696,"relativeDirection":"RIGHT","streetName":"path","absoluteDirection":"NORTHEAST","stayOn":false,"area":false,"bogusName":true,"lon":-71.0928648,"lat":48.398182000000006,"elevation":[]}]},{"startTime":1522681699000,"endTime":1522681860000,"departureDelay":0,"arrivalDelay":0,"realTime":false,"distance":2219.107945063667,"pathway":false,"mode":"BUS","route":"14","agencyName":"Société de Transport du Saguenay","agencyUrl":"http://ville.saguenay.ca/fr/services-aux-citoyens/transport-sts","agencyTimeZoneOffset":-14400000,"routeColor":"C0C000","routeType":3,"routeId":"1:14","routeTextColor":"000000","interlineWithPreviousLeg":false,"tripBlockId":"30","headsign":"Talbot / Barrette","agencyId":"0","tripId":"1:218095","serviceDate":"20180402","from":{"name":"Malraux / Paul Morand","stopId":"1:92","stopCode":"92","lon":-71.092693,"lat":48.398228,"arrival":1522681698000,"departure":1522681699000,"zoneId":"NA","stopIndex":28,"stopSequence":29,"vertexType":"TRANSIT"},"to":{"name":"Roitelets / Sapins","stopId":"1:1543","stopCode":"1543","lon":-71.069553,"lat":48.393375,"arrival":1522681860000,"departure":1522681860000,"zoneId":"NA","stopIndex":35,"stopSequence":36,"vertexType":"TRANSIT"},"legGeometry":{"points":"wwkfHnh|pLcC~GyC\\aDkDcFsF~CgOtGm[j@oCvEoSl@_CxCmLjAeFpCeKrByHfAqCvH_SLa@","length":17},"routeShortName":"14","routeLongName":"Coopérative","rentedBike":false,"transitLeg":true,"duration":161.0,"steps":[]},{"startTime":1522681860000,"endTime":1522682932000,"departureDelay":0,"arrivalDelay":0,"realTime":false,"distance":6677.593015986816,"pathway":false,"mode":"BUS","route":"15","agencyName":"Société de Transport du Saguenay","agencyUrl":"http://ville.saguenay.ca/fr/services-aux-citoyens/transport-sts","agencyTimeZoneOffset":-14400000,"routeColor":"FF00FF","routeType":3,"routeId":"1:15","routeTextColor":"FFFFFF","interlineWithPreviousLeg":true,"tripBlockId":"30","headsign":"Terminus Chicoutimi","agencyId":"0","tripId":"1:218096","serviceDate":"20180402","from":{"name":"Roitelets / Sapins","stopId":"1:1543","stopCode":"1543","lon":-71.069553,"lat":48.393375,"arrival":1522681860000,"departure":1522681860000,"zoneId":"NA","stopIndex":0,"stopSequence":1,"vertexType":"TRANSIT"},"to":{"name":"Centre George Vézina (Bégin)","stopId":"1:583","stopCode":"583","lon":-71.0606,"lat":48.4201,"arrival":1522682932000,"departure":1522682933000,"zoneId":"NA","stopIndex":28,"stopSequence":29,"vertexType":"TRANSIT"},"legGeometry":{"points":"_zjfHfwwpLx@}BHa@NaADq@@y@Cy@I{@Ka@O[Sg@c@mAWwAMyA?EC]?wABuABmFB{@BmDFuH@i@F[FsC@c@TuGEGVsHPuDLuBXsFDoA?W@]Cu@GcAKu@Q_ASo@a@y@a@o@MOUUeCqBiDsDqE{EiAcAcB_AqBgA_AQaBSaBG_@Bu@FG?h@fNKnDpCfBkAzDgA}@y@q@sDy@GAeGT~@~KKrKyAnL[hBUxAm@nCcAlDeCvGmA|CUr@}@~A_@\\_DvCEZcA|@UP_@d@Yl@oBdFeCxG_CfGYVQXS\\dK|HlFZbC\\p@zA\\rB@hBiArG{BNw@FiG}@iDwAECcCcBo@y@sEeGe@o@qAa@m@MoB?C@}BZwAc@oA_Bs@gDCKZ{Di@QECc@_@sAkAoBwB_EcE{A_BoAmAk@o@cCaCkIkIaJaJ","length":127},"routeShortName":"15","routeLongName":"Term. Chic / Costco","rentedBike":false,"transitLeg":true,"duration":1072.0,"steps":[]},{"startTime":1522682933000,"endTime":1522683043000,"departureDelay":0,"arrivalDelay":0,"realTime":false,"distance":139.327,"pathway":false,"mode":"WALK","route":"","agencyTimeZoneOffset":-14400000,"interlineWithPreviousLeg":false,"from":{"name":"Centre George Vézina (Bégin)","stopId":"1:583","stopCode":"583","lon":-71.0606,"lat":48.4201,"arrival":1522682932000,"departure":1522682933000,"zoneId":"NA","stopIndex":28,"stopSequence":29,"vertexType":"TRANSIT"},"to":{"name":"Destination","lon":-71.061801,"lat":48.42036,"arrival":1522683043000,"orig":"","vertexType":"NORMAL"},"legGeometry":{"points":"y`pfHf`vpLSSKVQHq@?ApAAx@A`A","length":8},"rentedBike":false,"transitLeg":false,"duration":110.0,"steps":[{"distance":13.986,"relativeDirection":"DEPART","streetName":"Rue Bégin","absoluteDirection":"NORTHEAST","stayOn":false,"area":false,"bogusName":false,"lon":-71.06067782404135,"lat":48.420134620151806,"elevation":[]},{"distance":49.063,"relativeDirection":"LEFT","streetName":"Rue LaFontaine","absoluteDirection":"NORTHWEST","stayOn":false,"area":false,"bogusName":false,"lon":-71.0605723,"lat":48.4202391,"elevation":[]},{"distance":76.278,"relativeDirection":"LEFT","streetName":"path","absoluteDirection":"WEST","stayOn":false,"area":false,"bogusName":false,"lon":-71.0607459,"lat":48.4206323,"elevation":[]}]}],"tooSloped":false},{"duration":1825,"startTime":1522681899000,"endTime":1522683724000,"walkTime":707,"transitTime":1116,"waitingTime":2,"walkDistance":893.5905714228095,"walkLimitExceeded":false,"elevationLost":0.0,"elevationGained":0.0,"transfers":0,"legs":[{"startTime":1522681899000,"endTime":1522682095000,"departureDelay":0,"arrivalDelay":0,"realTime":false,"distance":248.62599999999998,"pathway":false,"mode":"WALK","route":"","agencyTimeZoneOffset":-14400000,"interlineWithPreviousLeg":false,"from":{"name":"Origin","lon":-71.092803,"lat":48.397178,"departure":1522681899000,"orig":"","vertexType":"NORMAL"},"to":{"name":"Malraux / Colette","stopId":"1:1591","stopCode":"1591","lon":-71.091599,"lat":48.397534,"arrival":1522682095000,"departure":1522682096000,"zoneId":"NA","stopIndex":7,"stopSequence":8,"vertexType":"TRANSIT"},"legGeometry":{"points":"krkfH`h|pL}@vCcBwBpB{F","length":4},"rentedBike":false,"transitLeg":false,"duration":196.0,"steps":[{"distance":65.612,"relativeDirection":"DEPART","streetName":"Rue Rabelais","absoluteDirection":"NORTHWEST","stayOn":false,"area":false,"bogusName":false,"lon":-71.09264978188195,"lat":48.397340003587786,"elevation":[]},{"distance":70.684,"relativeDirection":"RIGHT","streetName":"Rue Paul Morand","absoluteDirection":"NORTHEAST","stayOn":false,"area":false,"bogusName":false,"lon":-71.0934024,"lat":48.3976538,"elevation":[]},{"distance":112.33,"relativeDirection":"RIGHT","streetName":"Rue Malraux","absoluteDirection":"SOUTHEAST","stayOn":false,"area":false,"bogusName":false,"lon":-71.0928068,"lat":48.398151500000004,"elevation":[]}]},{"startTime":1522682096000,"endTime":1522683212000,"departureDelay":0,"arrivalDelay":0,"realTime":false,"distance":6113.221495942931,"pathway":false,"mode":"BUS","route":"14","agencyName":"Société de Transport du Saguenay","agencyUrl":"http://ville.saguenay.ca/fr/services-aux-citoyens/transport-sts","agencyTimeZoneOffset":-14400000,"routeColor":"C0C000","routeType":3,"routeId":"1:14","routeTextColor":"000000","interlineWithPreviousLeg":false,"tripBlockId":"31","headsign":"Terminus Chicoutimi","agencyId":"0","tripId":"1:218131","serviceDate":"20180402","from":{"name":"Malraux / Colette","stopId":"1:1591","stopCode":"1591","lon":-71.091599,"lat":48.397534,"arrival":1522682095000,"departure":1522682096000,"zoneId":"NA","stopIndex":7,"stopSequence":8,"vertexType":"TRANSIT"},"to":{"name":"Cégep de Chicoutimi (Bégin)","stopId":"1:66","stopCode":"66","lon":-71.056314,"lat":48.424377,"arrival":1522683212000,"departure":1522683213000,"zoneId":"NA","stopIndex":32,"stopSequence":33,"vertexType":"TRANSIT"},"legGeometry":{"points":"_tkfH~`|pLn@aB`B_GNoBvAyT|@sNuAyAuF}F}AaB_BkAC@qC\\gAWiBwBiKgMiCwEgEyHCGy@uB}@rAa@nAc@lFEf@mGvUYfAqCs@ICMCqFmDc@s@mAkBuEoESUgAhDiAfD}@zDyAcA_@Um@U{AWgB_Au@s@EEsBkCqFgF{IiI][aBhE}@}@oBmBwE{EwE{Ej@mBZeAa@SyEQg@CPcALuCx@{b@t@{[XoDd@sBl@iB~@gA`G{F{A{D_@sBFqDOq@iG{FGIoCkCgBgBsDpLHzBBT`@~COnBQf@gAjAg@bBuDmD","length":83},"routeShortName":"14","routeLongName":"Coopérative","rentedBike":false,"transitLeg":true,"duration":1116.0,"steps":[]},{"startTime":1522683213000,"endTime":1522683724000,"departureDelay":0,"arrivalDelay":0,"realTime":false,"distance":644.7860000000001,"pathway":false,"mode":"WALK","route":"","agencyTimeZoneOffset":-14400000,"interlineWithPreviousLeg":false,"from":{"name":"Cégep de Chicoutimi (Bégin)","stopId":"1:66","stopCode":"66","lon":-71.056314,"lat":48.424377,"arrival":1522683212000,"departure":1522683213000,"zoneId":"NA","stopIndex":32,"stopSequence":33,"vertexType":"TRANSIT"},"to":{"name":"Destination","lon":-71.061801,"lat":48.42036,"arrival":1522683724000,"orig":"","vertexType":"NORMAL"},"legGeometry":{"points":"k{pfH`eupLJJ`A~@rAjAH^HHVVRN`AbAhAfAVXdAjAJHbAdAzBzBRPXXCh@KpBL@h@@ApAAx@A`A","length":24},"rentedBike":false,"transitLeg":false,"duration":511.0,"steps":[{"distance":119.033,"relativeDirection":"DEPART","streetName":"sidewalk","absoluteDirection":"SOUTHWEST","stayOn":false,"area":false,"bogusName":true,"lon":-71.0563254039123,"lat":48.42438196430904,"elevation":[]},{"distance":359.59799999999996,"relativeDirection":"SLIGHTLY_LEFT","streetName":"Rue Bégin","absoluteDirection":"SOUTHWEST","stayOn":false,"area":false,"bogusName":false,"lon":-71.0572466,"lat":48.423523700000004,"elevation":[]},{"distance":58.09,"relativeDirection":"RIGHT","streetName":"Boulevard de l'Université","absoluteDirection":"WEST","stayOn":false,"area":false,"bogusName":false,"lon":-71.0599459,"lat":48.4208319,"elevation":[]},{"distance":31.787,"relativeDirection":"LEFT","streetName":"Rue LaFontaine","absoluteDirection":"SOUTH","stayOn":false,"area":false,"bogusName":false,"lon":-71.0607224,"lat":48.420917700000004,"elevation":[]},{"distance":76.278,"relativeDirection":"RIGHT","streetName":"path","absoluteDirection":"WEST","stayOn":false,"area":false,"bogusName":false,"lon":-71.0607459,"lat":48.4206323,"elevation":[]}]}],"tooSloped":false},{"duration":1474,"startTime":1522683369000,"endTime":1522684843000,"walkTime":239,"transitTime":1233,"waitingTime":2,"walkDistance":292.8986691691355,"walkLimitExceeded":false,"elevationLost":0.0,"elevationGained":0.0,"transfers":0,"legs":[{"startTime":1522683369000,"endTime":1522683498000,"departureDelay":0,"arrivalDelay":0,"realTime":false,"distance":153.45399999999998,"pathway":false,"mode":"WALK","route":"","agencyTimeZoneOffset":-14400000,"interlineWithPreviousLeg":false,"from":{"name":"Origin","lon":-71.092803,"lat":48.397178,"departure":1522683369000,"orig":"","vertexType":"NORMAL"},"to":{"name":"Malraux / Paul Morand","stopId":"1:92","stopCode":"92","lon":-71.092693,"lat":48.398228,"arrival":1522683498000,"departure":1522683499000,"zoneId":"NA","stopIndex":28,"stopSequence":29,"vertexType":"TRANSIT"},"legGeometry":{"points":"krkfH`h|pL}@vCcBwBEJOS","length":5},"rentedBike":false,"transitLeg":false,"duration":129.0,"steps":[{"distance":65.612,"relativeDirection":"DEPART","streetName":"Rue Rabelais","absoluteDirection":"NORTHWEST","stayOn":false,"area":false,"bogusName":false,"lon":-71.09264978188195,"lat":48.397340003587786,"elevation":[]},{"distance":70.684,"relativeDirection":"RIGHT","streetName":"Rue Paul Morand","absoluteDirection":"NORTHEAST","stayOn":false,"area":false,"bogusName":false,"lon":-71.0934024,"lat":48.3976538,"elevation":[]},{"distance":5.462,"relativeDirection":"LEFT","streetName":"Rue Malraux","absoluteDirection":"NORTHWEST","stayOn":false,"area":false,"bogusName":false,"lon":-71.0928068,"lat":48.398151500000004,"elevation":[]},{"distance":11.696,"relativeDirection":"RIGHT","streetName":"path","absoluteDirection":"NORTHEAST","stayOn":false,"area":false,"bogusName":true,"lon":-71.0928648,"lat":48.398182000000006,"elevation":[]}]},{"startTime":1522683499000,"endTime":1522683660000,"departureDelay":0,"arrivalDelay":0,"realTime":false,"distance":2219.107945063667,"pathway":false,"mode":"BUS","route":"14","agencyName":"Société de Transport du Saguenay","agencyUrl":"http://ville.saguenay.ca/fr/services-aux-citoyens/transport-sts","agencyTimeZoneOffset":-14400000,"routeColor":"C0C000","routeType":3,"routeId":"1:14","routeTextColor":"000000","interlineWithPreviousLeg":false,"tripBlockId":"32","headsign":"Talbot / Barrette","agencyId":"0","tripId":"1:218156","serviceDate":"20180402","from":{"name":"Malraux / Paul Morand","stopId":"1:92","stopCode":"92","lon":-71.092693,"lat":48.398228,"arrival":1522683498000,"departure":1522683499000,"zoneId":"NA","stopIndex":28,"stopSequence":29,"vertexType":"TRANSIT"},"to":{"name":"Roitelets / Sapins","stopId":"1:1543","stopCode":"1543","lon":-71.069553,"lat":48.393375,"arrival":1522683660000,"departure":1522683660000,"zoneId":"NA","stopIndex":35,"stopSequence":36,"vertexType":"TRANSIT"},"legGeometry":{"points":"wwkfHnh|pLcC~GyC\\aDkDcFsF~CgOtGm[j@oCvEoSl@_CxCmLjAeFpCeKrByHfAqCvH_SLa@","length":17},"routeShortName":"14","routeLongName":"Coopérative","rentedBike":false,"transitLeg":true,"duration":161.0,"steps":[]},{"startTime":1522683660000,"endTime":1522684732000,"departureDelay":0,"arrivalDelay":0,"realTime":false,"distance":6677.593015986816,"pathway":false,"mode":"BUS","route":"15","agencyName":"Société de Transport du Saguenay","agencyUrl":"http://ville.saguenay.ca/fr/services-aux-citoyens/transport-sts","agencyTimeZoneOffset":-14400000,"routeColor":"FF00FF","routeType":3,"routeId":"1:15","routeTextColor":"FFFFFF","interlineWithPreviousLeg":true,"tripBlockId":"32","headsign":"Terminus Chicoutimi","agencyId":"0","tripId":"1:218157","serviceDate":"20180402","from":{"name":"Roitelets / Sapins","stopId":"1:1543","stopCode":"1543","lon":-71.069553,"lat":48.393375,"arrival":1522683660000,"departure":1522683660000,"zoneId":"NA","stopIndex":0,"stopSequence":1,"vertexType":"TRANSIT"},"to":{"name":"Centre George Vézina (Bégin)","stopId":"1:583","stopCode":"583","lon":-71.0606,"lat":48.4201,"arrival":1522684732000,"departure":1522684733000,"zoneId":"NA","stopIndex":28,"stopSequence":29,"vertexType":"TRANSIT"},"legGeometry":{"points":"_zjfHfwwpLx@}BHa@NaADq@@y@Cy@I{@Ka@O[Sg@c@mAWwAMyA?EC]?wABuABmFB{@BmDFuH@i@F[FsC@c@TuGEGVsHPuDLuBXsFDoA?W@]Cu@GcAKu@Q_ASo@a@y@a@o@MOUUeCqBiDsDqE{EiAcAcB_AqBgA_AQaBSaBG_@Bu@FG?h@fNKnDpCfBkAzDgA}@y@q@sDy@GAeGT~@~KKrKyAnL[hBUxAm@nCcAlDeCvGmA|CUr@}@~A_@\\_DvCEZcA|@UP_@d@Yl@oBdFeCxG_CfGYVQXS\\dK|HlFZbC\\p@zA\\rB@hBiArG{BNw@FiG}@iDwAECcCcBo@y@sEeGe@o@qAa@m@MoB?C@}BZwAc@oA_Bs@gDCKZ{Di@QECc@_@sAkAoBwB_EcE{A_BoAmAk@o@cCaCkIkIaJaJ","length":127},"routeShortName":"15","routeLongName":"Term. Chic / Costco","rentedBike":false,"transitLeg":true,"duration":1072.0,"steps":[]},{"startTime":1522684733000,"endTime":1522684843000,"departureDelay":0,"arrivalDelay":0,"realTime":false,"distance":139.327,"pathway":false,"mode":"WALK","route":"","agencyTimeZoneOffset":-14400000,"interlineWithPreviousLeg":false,"from":{"name":"Centre George Vézina (Bégin)","stopId":"1:583","stopCode":"583","lon":-71.0606,"lat":48.4201,"arrival":1522684732000,"departure":1522684733000,"zoneId":"NA","stopIndex":28,"stopSequence":29,"vertexType":"TRANSIT"},"to":{"name":"Destination","lon":-71.061801,"lat":48.42036,"arrival":1522684843000,"orig":"","vertexType":"NORMAL"},"legGeometry":{"points":"y`pfHf`vpLSSKVQHq@?ApAAx@A`A","length":8},"rentedBike":false,"transitLeg":false,"duration":110.0,"steps":[{"distance":13.986,"relativeDirection":"DEPART","streetName":"Rue Bégin","absoluteDirection":"NORTHEAST","stayOn":false,"area":false,"bogusName":false,"lon":-71.06067782404135,"lat":48.420134620151806,"elevation":[]},{"distance":49.063,"relativeDirection":"LEFT","streetName":"Rue LaFontaine","absoluteDirection":"NORTHWEST","stayOn":false,"area":false,"bogusName":false,"lon":-71.0605723,"lat":48.4202391,"elevation":[]},{"distance":76.278,"relativeDirection":"LEFT","streetName":"path","absoluteDirection":"WEST","stayOn":false,"area":false,"bogusName":false,"lon":-71.0607459,"lat":48.4206323,"elevation":[]}]}],"tooSloped":false}]},"debugOutput":{"precalculationTime":32,"pathCalculationTime":22,"pathTimes":[10,8,4],"renderingTime":0,"totalTime":54,"timedOut":false},"elevationMetadata":{"ellipsoidToGeoidDifference":-28.885904201182168,"geoidElevation":false}}