{"requestParameters":{"date":"2018/04/02","walkSpeed":"1.33","walkReluctance":"2.0","fromPlace":"48.396984,-71.09024499","maxWalkDistance":"3000","waitReluctance":"1.0","carSpeed":"33","numItineraries":"3","waitAtBeginningFactor":"0.4","mode":"TRANSIT,WALK","ignoreRealtimeUpdates":"false","stairsReluctance":"2.0","toPlace":"48.408798,-71.098044","time":"17:0:00"},"plan":{"date":1522702800000,"from":{"name":"Origin","lon":-71.09024499,"lat":48.396984,"orig":"","vertexType":"NORMAL"},"to":{"name":"Destination","lon":-71.098044,"lat":48.408798,"orig":"","vertexType":"NORMAL"},"itineraries":[{"duration":1510,"startTime":1522702800000,"endTime":1522704310000,"walkTime":1510,"transitTime":0,"waitingTime":0,"walkDistance":1953.2955338276968,"walkLimitExceeded":false,"elevationLost":0.0,"elevationGained":0.0,"transfers":0,"legs":[{"startTime":1522702800000,"endTime":1522704310000,"departureDelay":0,"arrivalDelay":0,"realTime":false,"distance":1953.0819999999999,"pathway":false,"mode":"WALK","route":"","agencyTimeZoneOffset":-14400000,"interlineWithPreviousLeg":false,"from":{"name":"Origin","lon":-71.09024499,"lat":48.396984,"departure":1522702800000,"orig":"","vertexType":"NORMAL"},"to":{"name":"Destination","lon":-71.098044,"lat":48.408798,"arrival":1522704310000,"orig":"","vertexType":"NORMAL"},"legGeometry":{"points":"ipkfHzx{pLaBfFMZADqBzFEJiCdGYLqBDc@S}@kAaAeAEEkF{Fa@jAA?{EvMy@tBGPsCrHiBzEs@lByAoBk@s@mCeDsDcEg@k@mA`DuAcBSFaD~H","length":31},"rentedBike":false,"transitLeg":false,"duration":1510.0,"steps":[{"distance":712.5149999999999,"relativeDirection":"DEPART","streetName":"Rue Malraux","absoluteDirection":"NORTHWEST","stayOn":false,"area":false,"bogusName":false,"lon":-71.09021397575344,"lat":48.39701626383657,"elevation":[]},{"distance":599.6949999999999,"relativeDirection":"LEFT","streetName":"Boulevard Barrette","absoluteDirection":"NORTHWEST","stayOn":false,"area":false,"bogusName":false,"lon":-71.0921587,"lat":48.401604500000005,"elevation":[]},{"distance":346.901,"relativeDirection":"RIGHT","streetName":"Rue de l'Estacade","absoluteDirection":"NORTHEAST","stayOn":false,"area":false,"bogusName":false,"lon":-71.0987621,"lat":48.40474570000001,"elevation":[]},{"distance":73.246,"relativeDirection":"LEFT","streetName":"Rue des Défibreurs","absoluteDirection":"NORTHWEST","stayOn":false,"area":false,"bogusName":false,"lon":-71.0959148,"lat":48.4072266,"elevation":[]},{"distance":220.725,"relativeDirection":"RIGHT","streetName":"Rue du Séchoir","absoluteDirection":"NORTHEAST","stayOn":false,"area":false,"bogusName":false,"lon":-71.09672160000001,"lat":48.40761010000001,"elevation":[]}]}],"tooSloped":false},{"duration":1139,"startTime":1522703263000,"endTime":1522704402000,"walkTime":1099,"transitTime":38,"waitingTime":2,"walkDistance":1424.6362255593851,"walkLimitExceeded":false,"elevationLost":0.0,"elevationGained":0.0,"transfers":0,"legs":[{"startTime":1522703263000,"endTime":1522703281000,"departureDelay":0,"arrivalDelay":0,"realTime":false,"distance":23.628,"pathway":false,"mode":"WALK","route":"","agencyTimeZoneOffset":-14400000,"interlineWithPreviousLeg":false,"from":{"name":"Origin","lon":-71.09024499,"lat":48.396984,"departure":1522703263000,"orig":"","vertexType":"NORMAL"},"to":{"name":"Malraux / Antonin Artaud","stopId":"1:1602","stopCode":"1602","lon":-71.08988,"lat":48.396998,"arrival":1522703281000,"departure":1522703282000,"zoneId":"NA","stopIndex":26,"stopSequence":27,"vertexType":"TRANSIT"},"legGeometry":{"points":"ipkfHzx{pLBKLm@","length":3},"rentedBike":false,"transitLeg":false,"duration":18.0,"steps":[{"distance":23.628,"relativeDirection":"DEPART","streetName":"Rue Malraux","absoluteDirection":"SOUTHEAST","stayOn":false,"area":false,"bogusName":false,"lon":-71.09021397575344,"lat":48.39701626383657,"elevation":[]}]},{"startTime":1522703282000,"endTime":1522703320000,"departureDelay":0,"arrivalDelay":0,"realTime":false,"distance":497.3559394563484,"pathway":false,"mode":"BUS","route":"14","agencyName":"Société de Transport du Saguenay","agencyUrl":"http://ville.saguenay.ca/fr/services-aux-citoyens/transport-sts","agencyTimeZoneOffset":-14400000,"routeColor":"C0C000","routeType":3,"routeId":"1:14","routeTextColor":"000000","interlineWithPreviousLeg":false,"tripBlockId":"30","headsign":"Talbot / Barrette","agencyId":"0","tripId":"1:218107","serviceDate":"20180402","from":{"name":"Malraux / Antonin Artaud","stopId":"1:1602","stopCode":"1602","lon":-71.08988,"lat":48.396998,"arrival":1522703281000,"departure":1522703282000,"zoneId":"NA","stopIndex":26,"stopSequence":27,"vertexType":"TRANSIT"},"to":{"name":"Malraux / Pagnol","stopId":"1:1978","stopCode":"1978","lon":-71.093388,"lat":48.400416,"arrival":1522703320000,"departure":1522703321000,"zoneId":"NA","stopIndex":29,"stopSequence":30,"vertexType":"TRANSIT"},"legGeometry":{"points":"gpkfHvv{pLK~@qBxFqB|FcC~GyC\\aDkD","length":7},"routeShortName":"14","routeLongName":"Coopérative","rentedBike":false,"transitLeg":true,"duration":38.0,"steps":[]},{"startTime":1522703321000,"endTime":1522704402000,"departureDelay":0,"arrivalDelay":0,"realTime":false,"distance":1400.868,"pathway":false,"mode":"WALK","route":"","agencyTimeZoneOffset":-14400000,"interlineWithPreviousLeg":false,"from":{"name":"Malraux / Pagnol","stopId":"1:1978","stopCode":"1978","lon":-71.093388,"lat":48.400416,"arrival":1522703320000,"departure":1522703321000,"zoneId":"NA","stopIndex":29,"stopSequence":30,"vertexType":"TRANSIT"},"to":{"name":"Destination","lon":-71.098044,"lat":48.408798,"arrival":1522704402000,"orig":"","vertexType":"NORMAL"},"legGeometry":{"points":"selfHzl|pLkF{Fa@jAA?{EvMy@tBGPsCrHiBzEs@lByAoBk@s@mCeDsDcEg@k@mA`DuAcBSFaD~H","length":19},"rentedBike":false,"transitLeg":false,"duration":1081.0,"steps":[{"distance":160.301,"relativeDirection":"DEPART","streetName":"Rue Malraux","absoluteDirection":"NORTHEAST","stayOn":false,"area":false,"bogusName":false,"lon":-71.09341079342245,"lat":48.40042668071038,"elevation":[]},{"distance":599.6949999999999,"relativeDirection":"LEFT","streetName":"Boulevard Barrette","absoluteDirection":"NORTHWEST","stayOn":false,"area":false,"bogusName":false,"lon":-71.0921587,"lat":48.401604500000005,"elevation":[]},{"distance":346.901,"relativeDirection":"RIGHT","streetName":"Rue de l'Estacade","absoluteDirection":"NORTHEAST","stayOn":false,"area":false,"bogusName":false,"lon":-71.0987621,"lat":48.40474570000001,"elevation":[]},{"distance":73.246,"relativeDirection":"LEFT","streetName":"Rue des Défibreurs","absoluteDirection":"NORTHWEST","stayOn":false,"area":false,"bogusName":false,"lon":-71.0959148,"lat":48.4072266,"elevation":[]},{"distance":220.725,"relativeDirection":"RIGHT","streetName":"Rue du Séchoir","absoluteDirection":"NORTHEAST","stayOn":false,"area":false,"bogusName":false,"lon":-71.09672160000001,"lat":48.40761010000001,"elevation":[]}]}],"tooSloped":false},{"duration":1290,"startTime":1522703512000,"endTime":1522704802000,"walkTime":1223,"transitTime":65,"waitingTime":2,"walkDistance":1583.4300676634598,"walkLimitExceeded":false,"elevationLost":0.0,"elevationGained":0.0,"transfers":0,"legs":[{"startTime":1522703512000,"endTime":1522704484000,"departureDelay":0,"arrivalDelay":0,"realTime":false,"distance":1262.166,"pathway":false,"mode":"WALK","route":"","agencyTimeZoneOffset":-14400000,"interlineWithPreviousLeg":false,"from":{"name":"Origin","lon":-71.09024499,"lat":48.396984,"departure":1522703512000,"orig":"","vertexType":"NORMAL"},"to":{"name":"boul. Barrette / Estacade","stopId":"1:478","stopCode":"478","lon":-71.098119,"lat":48.404568,"arrival":1522704484000,"departure":1522704485000,"zoneId":"NA","stopIndex":12,"stopSequence":13,"vertexType":"TRANSIT"},"legGeometry":{"points":"ipkfHzx{pLaBfFMZADqBzFEJiCdGYLqBDc@S}@kAaAeAEEkF{Fa@jAA?{EvMy@tBGPsCrHiBzE","length":21},"rentedBike":false,"transitLeg":false,"duration":972.0,"steps":[{"distance":712.5149999999999,"relativeDirection":"DEPART","streetName":"Rue Malraux","absoluteDirection":"NORTHWEST","stayOn":false,"area":false,"bogusName":false,"lon":-71.09021397575344,"lat":48.39701626383657,"elevation":[]},{"distance":549.651,"relativeDirection":"LEFT","streetName":"Boulevard Barrette","absoluteDirection":"NORTHWEST","stayOn":false,"area":false,"bogusName":false,"lon":-71.0921587,"lat":48.401604500000005,"elevation":[]}]},{"startTime":1522704485000,"endTime":1522704550000,"departureDelay":0,"arrivalDelay":0,"realTime":false,"distance":318.7970292304984,"pathway":false,"mode":"BUS","route":"11","agencyName":"Société de Transport du Saguenay","agencyUrl":"http://ville.saguenay.ca/fr/services-aux-citoyens/transport-sts","agencyTimeZoneOffset":-14400000,"routeColor":"FF0000","routeType":3,"routeId":"1:11","routeTextColor":"FFFFFF","interlineWithPreviousLeg":false,"tripBlockId":"34","headsign":"Terminus Chicoutimi","agencyId":"0","tripId":"1:218228","serviceDate":"20180402","from":{"name":"boul. Barrette / Estacade","stopId":"1:478","stopCode":"478","lon":-71.098119,"lat":48.404568,"arrival":1522704484000,"departure":1522704485000,"zoneId":"NA","stopIndex":12,"stopSequence":13,"vertexType":"TRANSIT"},"to":{"name":"Estacade / Défibreurs","stopId":"1:1888","stopCode":"1888","lon":-71.096041,"lat":48.406986,"arrival":1522704550000,"departure":1522704551000,"zoneId":"NA","stopIndex":14,"stopSequence":15,"vertexType":"TRANSIT"},"legGeometry":{"points":"c_mfHtj}pLy@vBeCuCoCaDkDuE","length":5},"routeShortName":"11","routeLongName":"Chic/Faubourg via St-Paul","rentedBike":false,"transitLeg":true,"duration":65.0,"steps":[]},{"startTime":1522704551000,"endTime":1522704802000,"departureDelay":0,"arrivalDelay":0,"realTime":false,"distance":321.087,"pathway":false,"mode":"WALK","route":"","agencyTimeZoneOffset":-14400000,"interlineWithPreviousLeg":false,"from":{"name":"Estacade / Défibreurs","stopId":"1:1888","stopCode":"1888","lon":-71.096041,"lat":48.406986,"arrival":1522704550000,"departure":1522704551000,"zoneId":"NA","stopIndex":14,"stopSequence":15,"vertexType":"TRANSIT"},"to":{"name":"Destination","lon":-71.098044,"lat":48.408798,"arrival":1522704802000,"orig":"","vertexType":"NORMAL"},"legGeometry":{"points":"{nmfHz}|pLg@k@mA`DuAcBSFaD~H","length":6},"rentedBike":false,"transitLeg":false,"duration":251.0,"steps":[{"distance":27.116,"relativeDirection":"DEPART","streetName":"Rue de l'Estacade","absoluteDirection":"NORTHEAST","stayOn":false,"area":false,"bogusName":false,"lon":-71.09613085077405,"lat":48.40702937455555,"elevation":[]},{"distance":73.246,"relativeDirection":"LEFT","streetName":"Rue des Défibreurs","absoluteDirection":"NORTHWEST","stayOn":false,"area":false,"bogusName":false,"lon":-71.0959148,"lat":48.4072266,"elevation":[]},{"distance":220.725,"relativeDirection":"RIGHT","streetName":"Rue du Séchoir","absoluteDirection":"NORTHEAST","stayOn":false,"area":false,"bogusName":false,"lon":-71.09672160000001,"lat":48.40761010000001,"elevation":[]}]}],"tooSloped":false}]},"debugOutput":{"precalculationTime":17,"pathCalculationTime":29,"pathTimes":[21,4,4],"renderingTime":0,"totalTime":46,"timedOut":false},"elevationMetadata":{"ellipsoidToGeoidDifference":-28.885904201182168,"geoidElevation":false}}