{"requestParameters":{"date":"2018/04/02","walkSpeed":"1.33","walkReluctance":"2.0","fromPlace":"48.427929,-71.06022699","maxWalkDistance":"3000","waitReluctance":"1.0","carSpeed":"33","numItineraries":"3","waitAtBeginningFactor":"0.4","mode":"TRANSIT,WALK","ignoreRealtimeUpdates":"false","stairsReluctance":"2.0","toPlace":"48.411084,-71.097639","time":"16:30:00"},"plan":{"date":1522701000000,"from":{"name":"Origin","lon":-71.06022699,"lat":48.427929,"orig":"","vertexType":"NORMAL"},"to":{"name":"Destination","lon":-71.097639,"lat":48.411084,"orig":"","vertexType":"NORMAL"},"itineraries":[{"duration":1634,"startTime":1522701490000,"endTime":1522703124000,"walkTime":972,"transitTime":660,"waitingTime":2,"walkDistance":1232.0365714195827,"walkLimitExceeded":false,"elevationLost":0.0,"elevationGained":0.0,"transfers":0,"legs":[{"startTime":1522701490000,"endTime":1522701899000,"departureDelay":0,"arrivalDelay":0,"realTime":false,"distance":523.894,"pathway":false,"mode":"WALK","route":"","agencyTimeZoneOffset":-14400000,"interlineWithPreviousLeg":false,"from":{"name":"Origin","lon":-71.06022699,"lat":48.427929,"departure":1522701490000,"orig":"","vertexType":"NORMAL"},"to":{"name":"Terminus Chicoutimi","stopId":"1:1289","stopCode":"1289","lon":-71.066163,"lat":48.428677,"arrival":1522701899000,"departure":1522701900000,"zoneId":"NA","stopIndex":0,"stopSequence":1,"vertexType":"TRANSIT"},"legGeometry":{"points":"kqqfHv{upLt@HKpFAl@?RCv@IxEAh@GpBAXAj@SzHc@MKESAcAK","length":16},"rentedBike":false,"transitLeg":false,"duration":409.0,"steps":[{"distance":30.813,"relativeDirection":"DEPART","streetName":"Rue La Fontaine","absoluteDirection":"SOUTH","stayOn":false,"area":false,"bogusName":false,"lon":-71.05995768712393,"lat":48.427907531333474,"elevation":[]},{"distance":415.874,"relativeDirection":"RIGHT","streetName":"Rue Racine Est","absoluteDirection":"WEST","stayOn":false,"area":false,"bogusName":false,"lon":-71.0600075,"lat":48.4276324,"elevation":[]},{"distance":77.207,"relativeDirection":"RIGHT","streetName":"Rue Morin","absoluteDirection":"NORTH","stayOn":false,"area":false,"bogusName":false,"lon":-71.0656238,"lat":48.4279449,"elevation":[]}]},{"startTime":1522701900000,"endTime":1522702560000,"departureDelay":0,"arrivalDelay":0,"realTime":false,"distance":3237.878915799595,"pathway":false,"mode":"BUS","route":"11","agencyName":"Société de Transport du Saguenay","agencyUrl":"http://ville.saguenay.ca/fr/services-aux-citoyens/transport-sts","agencyTimeZoneOffset":-14400000,"routeColor":"FF0000","routeType":3,"routeId":"1:11","routeTextColor":"FFFFFF","interlineWithPreviousLeg":false,"tripBlockId":"34","headsign":"Boul.Royaume/St-Pierre","agencyId":"0","tripId":"1:218227","serviceDate":"20180402","from":{"name":"Terminus Chicoutimi","stopId":"1:1289","stopCode":"1289","lon":-71.066163,"lat":48.428677,"arrival":1522701899000,"departure":1522701900000,"zoneId":"NA","stopIndex":0,"stopSequence":1,"vertexType":"TRANSIT"},"to":{"name":"boul. St-Paul / Descartes","stopId":"1:467","stopCode":"467","lon":-71.092615,"lat":48.408095,"arrival":1522702560000,"departure":1522702561000,"zoneId":"NA","stopIndex":14,"stopSequence":15,"vertexType":"TRANSIT"},"legGeometry":{"points":"evqfHzcwpLk@?UhKfIh@dKp@GnDIfDOtEE~@Ff@x@rEF~@CbAALO~ADRNJXBr@DfGRPBPJLN@@FPFTBX?TE`BhBR@?J@NELKFOlAiDL[bA`AfIjIbGdGzDzD`A~An@`ApApBpClEvJrOR\\bAfBLa@t@]LjAVvAVbAVv@^bAXj@b@t@xEtGh@r@n@x@FDjA|AlBpCnJ|NNT","length":65},"routeShortName":"11","routeLongName":"Chic/Faubourg via St-Paul","rentedBike":false,"transitLeg":true,"duration":660.0,"steps":[]},{"startTime":1522702561000,"endTime":1522703124000,"departureDelay":0,"arrivalDelay":0,"realTime":false,"distance":707.864,"pathway":false,"mode":"WALK","route":"","agencyTimeZoneOffset":-14400000,"interlineWithPreviousLeg":false,"from":{"name":"boul. St-Paul / Descartes","stopId":"1:467","stopCode":"467","lon":-71.092615,"lat":48.408095,"arrival":1522702560000,"departure":1522702561000,"zoneId":"NA","stopIndex":14,"stopSequence":15,"vertexType":"TRANSIT"},"to":{"name":"Destination","lon":-71.097639,"lat":48.411084,"arrival":1522703124000,"orig":"","vertexType":"NORMAL"},"legGeometry":{"points":"{tmfHtf|pLn@~@NT}AfDsAtCq@_@q@[iA}@aB|Cw@jCu@hEy@bAaAl@VdA\\z@o@|@CGEE","length":18},"rentedBike":false,"transitLeg":false,"duration":563.0,"steps":[{"distance":47.28,"relativeDirection":"DEPART","streetName":"Boulevard Saint-Paul","absoluteDirection":"SOUTHWEST","stayOn":false,"area":false,"bogusName":false,"lon":-71.09242610294163,"lat":48.40798176833643,"elevation":[]},{"distance":153.429,"relativeDirection":"RIGHT","streetName":"Rue Descartes","absoluteDirection":"NORTHWEST","stayOn":false,"area":false,"bogusName":false,"lon":-71.0928554,"lat":48.4076662,"elevation":[]},{"distance":106.305,"relativeDirection":"RIGHT","streetName":"Rue de l'Estacade","absoluteDirection":"NORTH","stayOn":false,"area":false,"bogusName":false,"lon":-71.0944442,"lat":48.4085559,"elevation":[]},{"distance":301.177,"relativeDirection":"LEFT","streetName":"Rue des Presses","absoluteDirection":"NORTHWEST","stayOn":false,"area":false,"bogusName":false,"lon":-71.09383670000001,"lat":48.409420000000004,"elevation":[]},{"distance":56.926,"relativeDirection":"LEFT","streetName":"Rue du Canal","absoluteDirection":"SOUTHWEST","stayOn":false,"area":false,"bogusName":false,"lon":-71.0969,"lat":48.4110802,"elevation":[]},{"distance":35.394,"relativeDirection":"RIGHT","streetName":"Rue de la Papetière","absoluteDirection":"NORTHWEST","stayOn":false,"area":false,"bogusName":false,"lon":-71.0975518,"lat":48.4108114,"elevation":[]},{"distance":7.353,"relativeDirection":"RIGHT","streetName":"road","absoluteDirection":"NORTHEAST","stayOn":false,"area":false,"bogusName":true,"lon":-71.09786100000001,"lat":48.4110547,"elevation":[]}]}],"tooSloped":false},{"duration":2390,"startTime":1522701821000,"endTime":1522704211000,"walkTime":1472,"transitTime":916,"waitingTime":2,"walkDistance":1888.0732857057574,"walkLimitExceeded":false,"elevationLost":0.0,"elevationGained":0.0,"transfers":0,"legs":[{"startTime":1522701821000,"endTime":1522702019000,"departureDelay":0,"arrivalDelay":0,"realTime":false,"distance":250.27000000000004,"pathway":false,"mode":"WALK","route":"","agencyTimeZoneOffset":-14400000,"interlineWithPreviousLeg":false,"from":{"name":"Origin","lon":-71.06022699,"lat":48.427929,"departure":1522701821000,"orig":"","vertexType":"NORMAL"},"to":{"name":"Conservatoire (Jacques-Cartier)","stopId":"1:560","stopCode":"560","lon":-71.061503,"lat":48.426285,"arrival":1522702019000,"departure":1522702020000,"zoneId":"NA","stopIndex":2,"stopSequence":3,"vertexType":"TRANSIT"},"legGeometry":{"points":"kqqfHv{upLt@HlAD^@fAP`@z@TVPZC~C","length":9},"rentedBike":false,"transitLeg":false,"duration":198.0,"steps":[{"distance":132.312,"relativeDirection":"DEPART","streetName":"Rue La Fontaine","absoluteDirection":"SOUTH","stayOn":false,"area":false,"bogusName":false,"lon":-71.05995768712393,"lat":48.427907531333474,"elevation":[]},{"distance":58.538,"relativeDirection":"SLIGHTLY_RIGHT","streetName":"Rue La Fontaine","absoluteDirection":"SOUTHWEST","stayOn":true,"area":false,"bogusName":false,"lon":-71.0601336,"lat":48.4267252,"elevation":[]},{"distance":59.42,"relativeDirection":"RIGHT","streetName":"Rue Jacques-Cartier Est","absoluteDirection":"WEST","stayOn":false,"area":false,"bogusName":false,"lon":-71.0606935,"lat":48.426355900000004,"elevation":[]}]},{"startTime":1522702020000,"endTime":1522702936000,"departureDelay":0,"arrivalDelay":0,"realTime":false,"distance":3819.687557559153,"pathway":false,"mode":"BUS","route":"14","agencyName":"Société de Transport du Saguenay","agencyUrl":"http://ville.saguenay.ca/fr/services-aux-citoyens/transport-sts","agencyTimeZoneOffset":-14400000,"routeColor":"C0C000","routeType":3,"routeId":"1:14","routeTextColor":"000000","interlineWithPreviousLeg":false,"tripBlockId":"30","headsign":"Talbot / Barrette","agencyId":"0","tripId":"1:218107","serviceDate":"20180402","from":{"name":"Conservatoire (Jacques-Cartier)","stopId":"1:560","stopCode":"560","lon":-71.061503,"lat":48.426285,"arrival":1522702019000,"departure":1522702020000,"zoneId":"NA","stopIndex":2,"stopSequence":3,"vertexType":"TRANSIT"},"to":{"name":"Boily / Garnier","stopId":"1:1567","stopCode":"1567","lon":-71.080057,"lat":48.411756,"arrival":1522702936000,"departure":1522702937000,"zoneId":"NA","stopIndex":15,"stopSequence":16,"vertexType":"TRANSIT"},"legGeometry":{"points":"{gqfHjevpLHwFB{I@m@@eBH_AF}A@w@Dq@@i@B}B@Y@e@D]F_@@SHQCKnBnBvIrIn@n@\\iATg@v@_ATg@LmABg@Is@c@iEAm@bAcDTcAtA{DJI|AxAvAvAQv@~@z@dA`ATq@`E~DL`@E`Ex@hDd@`B}FtFaAzAm@xAe@jCa@nDiAbm@SpKM`H]vBhDVzCTcAvCO^bEbEzK`LfBeEtK`KhAdAnCbCvBpCNR~BxAxBf@z@h@","length":69},"routeShortName":"14","routeLongName":"Coopérative","rentedBike":false,"transitLeg":true,"duration":916.0,"steps":[]},{"startTime":1522702937000,"endTime":1522704211000,"departureDelay":0,"arrivalDelay":0,"realTime":false,"distance":1637.539,"pathway":false,"mode":"WALK","route":"","agencyTimeZoneOffset":-14400000,"interlineWithPreviousLeg":false,"from":{"name":"Boily / Garnier","stopId":"1:1567","stopCode":"1567","lon":-71.080057,"lat":48.411756,"arrival":1522702936000,"departure":1522702937000,"zoneId":"NA","stopIndex":15,"stopSequence":16,"vertexType":"TRANSIT"},"to":{"name":"Destination","lon":-71.097639,"lat":48.411084,"arrival":1522704211000,"orig":"","vertexType":"NORMAL"},"legGeometry":{"points":"elnfHpxypLnAr@{@vDWzBY`D{@fDoAnBg@XoAh@IB[Ph@pDh@fBz@rBbBbCj@x@hBjC}AzDYXQHK?o@vCF|BLnCZdExAfPJb@b@~@\\nATlBL|@BZVdA\\z@o@|@CGEE","length":37},"rentedBike":false,"transitLeg":false,"duration":1274.0,"steps":[{"distance":49.36,"relativeDirection":"DEPART","streetName":"Rue Boily","absoluteDirection":"SOUTHWEST","stayOn":false,"area":false,"bogusName":false,"lon":-71.07992373269299,"lat":48.41171817126571,"elevation":[]},{"distance":387.072,"relativeDirection":"RIGHT","streetName":"Rue Garnier","absoluteDirection":"NORTHWEST","stayOn":false,"area":false,"bogusName":false,"lon":-71.0801867,"lat":48.41131,"elevation":[]},{"distance":22.995,"relativeDirection":"CONTINUE","streetName":"Rue Saint-Augustin","absoluteDirection":"NORTH","stayOn":false,"area":false,"bogusName":false,"lon":-71.0842714,"lat":48.413164,"elevation":[]},{"distance":353.491,"relativeDirection":"LEFT","streetName":"Boulevard Saint-Paul","absoluteDirection":"WEST","stayOn":false,"area":false,"bogusName":false,"lon":-71.0843859,"lat":48.413356300000004,"elevation":[]},{"distance":121.414,"relativeDirection":"RIGHT","streetName":"Rue Martin-Bouvard","absoluteDirection":"NORTHWEST","stayOn":false,"area":false,"bogusName":false,"lon":-71.088029,"lat":48.4113872,"elevation":[]},{"distance":108.55099999999999,"relativeDirection":"LEFT","streetName":"path","absoluteDirection":"NORTHWEST","stayOn":false,"area":false,"bogusName":true,"lon":-71.08914440000001,"lat":48.4121377,"elevation":[]},{"distance":551.909,"relativeDirection":"CONTINUE","streetName":"Rue du Canal","absoluteDirection":"WEST","stayOn":false,"area":false,"bogusName":false,"lon":-71.09053370000001,"lat":48.412339100000004,"elevation":[]},{"distance":35.394,"relativeDirection":"RIGHT","streetName":"Rue de la Papetière","absoluteDirection":"NORTHWEST","stayOn":false,"area":false,"bogusName":false,"lon":-71.0975518,"lat":48.4108114,"elevation":[]},{"distance":7.353,"relativeDirection":"RIGHT","streetName":"road","absoluteDirection":"NORTHEAST","stayOn":false,"area":false,"bogusName":true,"lon":-71.09786100000001,"lat":48.4110547,"elevation":[]}]}],"tooSloped":false},{"duration":1634,"startTime":1522703290000,"endTime":1522704924000,"walkTime":972,"transitTime":660,"waitingTime":2,"walkDistance":1232.0365714195827,"walkLimitExceeded":false,"elevationLost":0.0,"elevationGained":0.0,"transfers":0,"legs":[{"startTime":1522703290000,"endTime":1522703699000,"departureDelay":0,"arrivalDelay":0,"realTime":false,"distance":523.894,"pathway":false,"mode":"WALK","route":"","agencyTimeZoneOffset":-14400000,"interlineWithPreviousLeg":false,"from":{"name":"Origin","lon":-71.06022699,"lat":48.427929,"departure":1522703290000,"orig":"","vertexType":"NORMAL"},"to":{"name":"Terminus Chicoutimi","stopId":"1:1289","stopCode":"1289","lon":-71.066163,"lat":48.428677,"arrival":1522703699000,"departure":1522703700000,"zoneId":"NA","stopIndex":0,"stopSequence":1,"vertexType":"TRANSIT"},"legGeometry":{"points":"kqqfHv{upLt@HKpFAl@?RCv@IxEAh@GpBAXAj@SzHc@MKESAcAK","length":16},"rentedBike":false,"transitLeg":false,"duration":409.0,"steps":[{"distance":30.813,"relativeDirection":"DEPART","streetName":"Rue La Fontaine","absoluteDirection":"SOUTH","stayOn":false,"area":false,"bogusName":false,"lon":-71.05995768712393,"lat":48.427907531333474,"elevation":[]},{"distance":415.874,"relativeDirection":"RIGHT","streetName":"Rue Racine Est","absoluteDirection":"WEST","stayOn":false,"area":false,"bogusName":false,"lon":-71.0600075,"lat":48.4276324,"elevation":[]},{"distance":77.207,"relativeDirection":"RIGHT","streetName":"Rue Morin","absoluteDirection":"NORTH","stayOn":false,"area":false,"bogusName":false,"lon":-71.0656238,"lat":48.4279449,"elevation":[]}]},{"startTime":1522703700000,"endTime":1522704360000,"departureDelay":0,"arrivalDelay":0,"realTime":false,"distance":3237.878915799595,"pathway":false,"mode":"BUS","route":"11","agencyName":"Société de Transport du Saguenay","agencyUrl":"http://ville.saguenay.ca/fr/services-aux-citoyens/transport-sts","agencyTimeZoneOffset":-14400000,"routeColor":"FF0000","routeType":3,"routeId":"1:11","routeTextColor":"FFFFFF","interlineWithPreviousLeg":false,"tripBlockId":"36","headsign":"Boul.Royaume/St-Pierre","agencyId":"0","tripId":"1:218298","serviceDate":"20180402","from":{"name":"Terminus Chicoutimi","stopId":"1:1289","stopCode":"1289","lon":-71.066163,"lat":48.428677,"arrival":1522703699000,"departure":1522703700000,"zoneId":"NA","stopIndex":0,"stopSequence":1,"vertexType":"TRANSIT"},"to":{"name":"boul. St-Paul / Descartes","stopId":"1:467","stopCode":"467","lon":-71.092615,"lat":48.408095,"arrival":1522704360000,"departure":1522704361000,"zoneId":"NA","stopIndex":14,"stopSequence":15,"vertexType":"TRANSIT"},"legGeometry":{"points":"evqfHzcwpLk@?UhKfIh@dKp@GnDIfDOtEE~@Ff@x@rEF~@CbAALO~ADRNJXBr@DfGRPBPJLN@@FPFTBX?TE`BhBR@?J@NELKFOlAiDL[bA`AfIjIbGdGzDzD`A~An@`ApApBpClEvJrOR\\bAfBLa@t@]LjAVvAVbAVv@^bAXj@b@t@xEtGh@r@n@x@FDjA|AlBpCnJ|NNT","length":65},"routeShortName":"11","routeLongName":"Chic/Faubourg via St-Paul","rentedBike":false,"transitLeg":true,"duration":660.0,"steps":[]},{"startTime":1522704361000,"endTime":1522704924000,"departureDelay":0,"arrivalDelay":0,"realTime":false,"distance":707.864,"pathway":false,"mode":"WALK","route":"","agencyTimeZoneOffset":-14400000,"interlineWithPreviousLeg":false,"from":{"name":"boul. St-Paul / Descartes","stopId":"1:467","stopCode":"467","lon":-71.092615,"lat":48.408095,"arrival":1522704360000,"departure":1522704361000,"zoneId":"NA","stopIndex":14,"stopSequence":15,"vertexType":"TRANSIT"},"to":{"name":"Destination","lon":-71.097639,"lat":48.411084,"arrival":1522704924000,"orig":"","vertexType":"NORMAL"},"legGeometry":{"points":"{tmfHtf|pLn@~@NT}AfDsAtCq@_@q@[iA}@aB|Cw@jCu@hEy@bAaAl@VdA\\z@o@|@CGEE","length":18},"rentedBike":false,"transitLeg":false,"duration":563.0,"steps":[{"distance":47.28,"relativeDirection":"DEPART","streetName":"Boulevard Saint-Paul","absoluteDirection":"SOUTHWEST","stayOn":false,"area":false,"bogusName":false,"lon":-71.09242610294163,"lat":48.40798176833643,"elevation":[]},{"distance":153.429,"relativeDirection":"RIGHT","streetName":"Rue Descartes","absoluteDirection":"NORTHWEST","stayOn":false,"area":false,"bogusName":false,"lon":-71.0928554,"lat":48.4076662,"elevation":[]},{"distance":106.305,"relativeDirection":"RIGHT","streetName":"Rue de l'Estacade","absoluteDirection":"NORTH","stayOn":false,"area":false,"bogusName":false,"lon":-71.0944442,"lat":48.4085559,"elevation":[]},{"distance":301.177,"relativeDirection":"LEFT","streetName":"Rue des Presses","absoluteDirection":"NORTHWEST","stayOn":false,"area":false,"bogusName":false,"lon":-71.09383670000001,"lat":48.409420000000004,"elevation":[]},{"distance":56.926,"relativeDirection":"LEFT","streetName":"Rue du Canal","absoluteDirection":"SOUTHWEST","stayOn":false,"area":false,"bogusName":false,"lon":-71.0969,"lat":48.4110802,"elevation":[]},{"distance":35.394,"relativeDirection":"RIGHT","streetName":"Rue de la Papetière","absoluteDirection":"NORTHWEST","stayOn":false,"area":false,"bogusName":false,"lon":-71.0975518,"lat":48.4108114,"elevation":[]},{"distance":7.353,"relativeDirection":"RIGHT","streetName":"road","absoluteDirection":"NORTHEAST","stayOn":false,"area":false,"bogusName":true,"lon":-71.09786100000001,"lat":48.4110547,"elevation":[]}]}],"tooSloped":false}]},"debugOutput":{"precalculationTime":29,"pathCalculationTime":53,"pathTimes":[21,13,19],"renderingTime":0,"totalTime":82,"timedOut":false},"elevationMetadata":{"ellipsoidToGeoidDifference":-28.885904201182168,"geoidElevation":false}}