{"requestParameters":{"date":"2018/04/02","walkSpeed":"1.33","walkReluctance":"2.0","fromPlace":"48.406449,-71.096531","maxWalkDistance":"3000","waitReluctance":"1.0","carSpeed":"33","numItineraries":"3","waitAtBeginningFactor":"0.4","mode":"TRANSIT,WALK","ignoreRealtimeUpdates":"false","stairsReluctance":"2.0","toPlace":"48.409492,-71.056431","time":"13:0:00"},"plan":{"date":1522688400000,"from":{"name":"Origin","lon":-71.096531,"lat":48.406449,"orig":"","vertexType":"NORMAL"},"to":{"name":"Destination","lon":-71.056431,"lat":48.409492,"orig":"","vertexType":"NORMAL"},"itineraries":[{"duration":2180,"startTime":1522689942000,"endTime":1522692122000,"walkTime":1513,"transitTime":665,"waitingTime":2,"walkDistance":1948.3356766829959,"walkLimitExceeded":false,"elevationLost":0.0,"elevationGained":0.0,"transfers":0,"legs":[{"startTime":1522689942000,"endTime":1522690719000,"departureDelay":0,"arrivalDelay":0,"realTime":false,"distance":1010.2160000000001,"pathway":false,"mode":"WALK","route":"","agencyTimeZoneOffset":-14400000,"interlineWithPreviousLeg":false,"from":{"name":"Origin","lon":-71.096531,"lat":48.406449,"departure":1522689942000,"orig":"","vertexType":"NORMAL"},"to":{"name":"Malraux / Pagnol","stopId":"1:1978","stopCode":"1978","lon":-71.093388,"lat":48.400416,"arrival":1522690719000,"departure":1522690720000,"zoneId":"NA","stopIndex":29,"stopSequence":30,"vertexType":"TRANSIT"},"legGeometry":{"points":"wkmfHha}pLnAtAlCdDj@r@xAnBr@mBhB{ErCsHFQx@uBzEwM@?`@kAjFzF","length":14},"rentedBike":false,"transitLeg":false,"duration":777.0,"steps":[{"distance":250.22,"relativeDirection":"DEPART","streetName":"Rue de l'Estacade","absoluteDirection":"SOUTHWEST","stayOn":false,"area":false,"bogusName":false,"lon":-71.09668511962573,"lat":48.40652340126709,"elevation":[]},{"distance":599.6949999999999,"relativeDirection":"LEFT","streetName":"Boulevard Barrette","absoluteDirection":"SOUTHEAST","stayOn":false,"area":false,"bogusName":false,"lon":-71.0987621,"lat":48.40474570000001,"elevation":[]},{"distance":160.301,"relativeDirection":"RIGHT","streetName":"Rue Malraux","absoluteDirection":"SOUTHWEST","stayOn":false,"area":false,"bogusName":false,"lon":-71.0921587,"lat":48.401604500000005,"elevation":[]}]},{"startTime":1522690720000,"endTime":1522690860000,"departureDelay":0,"arrivalDelay":0,"realTime":false,"distance":1970.4615229267838,"pathway":false,"mode":"BUS","route":"14","agencyName":"Société de Transport du Saguenay","agencyUrl":"http://ville.saguenay.ca/fr/services-aux-citoyens/transport-sts","agencyTimeZoneOffset":-14400000,"routeColor":"C0C000","routeType":3,"routeId":"1:14","routeTextColor":"000000","interlineWithPreviousLeg":false,"tripBlockId":"32","headsign":"Talbot / Barrette","agencyId":"0","tripId":"1:218160","serviceDate":"20180402","from":{"name":"Malraux / Pagnol","stopId":"1:1978","stopCode":"1978","lon":-71.093388,"lat":48.400416,"arrival":1522690719000,"departure":1522690720000,"zoneId":"NA","stopIndex":29,"stopSequence":30,"vertexType":"TRANSIT"},"to":{"name":"Roitelets / Sapins","stopId":"1:1543","stopCode":"1543","lon":-71.069553,"lat":48.393375,"arrival":1522690860000,"departure":1522690860000,"zoneId":"NA","stopIndex":35,"stopSequence":36,"vertexType":"TRANSIT"},"legGeometry":{"points":"welfH`m|pLcFsF~CgOtGm[j@oCvEoSl@_CxCmLjAeFpCeKrByHfAqCvH_SLa@","length":14},"routeShortName":"14","routeLongName":"Coopérative","rentedBike":false,"transitLeg":true,"duration":140.0,"steps":[]},{"startTime":1522690860000,"endTime":1522691385000,"departureDelay":0,"arrivalDelay":0,"realTime":false,"distance":3436.004619603621,"pathway":false,"mode":"BUS","route":"15","agencyName":"Société de Transport du Saguenay","agencyUrl":"http://ville.saguenay.ca/fr/services-aux-citoyens/transport-sts","agencyTimeZoneOffset":-14400000,"routeColor":"FF00FF","routeType":3,"routeId":"1:15","routeTextColor":"FFFFFF","interlineWithPreviousLeg":true,"tripBlockId":"32","headsign":"Terminus Chicoutimi","agencyId":"0","tripId":"1:218161","serviceDate":"20180402","from":{"name":"Roitelets / Sapins","stopId":"1:1543","stopCode":"1543","lon":-71.069553,"lat":48.393375,"arrival":1522690860000,"departure":1522690860000,"zoneId":"NA","stopIndex":0,"stopSequence":1,"vertexType":"TRANSIT"},"to":{"name":"Saguenéens  / Bach","stopId":"1:575","stopCode":"575","lon":-71.061104,"lat":48.403689,"arrival":1522691385000,"departure":1522691386000,"zoneId":"NA","stopIndex":12,"stopSequence":13,"vertexType":"TRANSIT"},"legGeometry":{"points":"_zjfHfwwpLx@}BHa@NaADq@@y@Cy@I{@Ka@O[Sg@c@mAWwAMyA?EC]?wABuABmFB{@BmDFuH@i@F[FsC@c@TuGEGVsHPuDLuBXsFDoA?W@]Cu@GcAKu@Q_ASo@a@y@a@o@MOUUeCqBiDsDqE{EiAcAcB_AqBgA_AQaBSaBG_@Bu@FG?h@fNKnDpCfBkAzDgA}@y@q@sDy@GAeGT~@~KKrKyAnL[hBUxAm@nCcAlDeCvG","length":73},"routeShortName":"15","routeLongName":"Term. Chic / Costco","rentedBike":false,"transitLeg":true,"duration":525.0,"steps":[]},{"startTime":1522691386000,"endTime":1522692122000,"departureDelay":0,"arrivalDelay":0,"realTime":false,"distance":937.8490000000002,"pathway":false,"mode":"WALK","route":"","agencyTimeZoneOffset":-14400000,"interlineWithPreviousLeg":false,"from":{"name":"Saguenéens  / Bach","stopId":"1:575","stopCode":"575","lon":-71.061104,"lat":48.403689,"arrival":1522691385000,"departure":1522691386000,"zoneId":"NA","stopIndex":12,"stopSequence":13,"vertexType":"TRANSIT"},"to":{"name":"Destination","lon":-71.056431,"lat":48.409492,"arrival":1522692122000,"orig":"","vertexType":"NORMAL"},"legGeometry":{"points":"wylfHfcvpLgAnC}EuEeE}Dw@q@wAoAgGsF][YWMKbAwCgBgBe@`AaCmCWt@","length":15},"rentedBike":false,"transitLeg":false,"duration":736.0,"steps":[{"distance":66.956,"relativeDirection":"DEPART","streetName":"Rue des Saguenéens","absoluteDirection":"NORTHWEST","stayOn":false,"area":false,"bogusName":false,"lon":-71.0611521754673,"lat":48.403646208471976,"elevation":[]},{"distance":587.6930000000001,"relativeDirection":"RIGHT","streetName":"Rue Bach","absoluteDirection":"NORTHEAST","stayOn":false,"area":false,"bogusName":false,"lon":-71.06187870000001,"lat":48.404006700000004,"elevation":[]},{"distance":67.359,"relativeDirection":"RIGHT","streetName":"Rue Plamondon","absoluteDirection":"SOUTHEAST","stayOn":false,"area":false,"bogusName":false,"lon":-71.05766410000001,"lat":48.408490300000004,"elevation":[]},{"distance":69.905,"relativeDirection":"LEFT","streetName":"Rue Plamondon","absoluteDirection":"NORTHEAST","stayOn":true,"area":false,"bogusName":false,"lon":-71.05690750000001,"lat":48.408151600000004,"elevation":[]},{"distance":32.191,"relativeDirection":"LEFT","streetName":"Rue des Champs-Élysées","absoluteDirection":"NORTHWEST","stayOn":false,"area":false,"bogusName":false,"lon":-71.0563831,"lat":48.4086751,"elevation":[]},{"distance":89.027,"relativeDirection":"RIGHT","streetName":"Rue Mozart","absoluteDirection":"NORTHEAST","stayOn":false,"area":false,"bogusName":false,"lon":-71.05671190000001,"lat":48.4088653,"elevation":[]},{"distance":24.718,"relativeDirection":"LEFT","streetName":"Rue Gounod","absoluteDirection":"NORTHWEST","stayOn":false,"area":false,"bogusName":false,"lon":-71.0560006,"lat":48.409511900000005,"elevation":[]}]}],"tooSloped":false},{"duration":2377,"startTime":1522689867000,"endTime":1522692244000,"walkTime":771,"transitTime":1593,"waitingTime":13,"walkDistance":956.9455112683698,"walkLimitExceeded":false,"elevationLost":0.0,"elevationGained":0.0,"transfers":1,"legs":[{"startTime":1522689867000,"endTime":1522690082000,"departureDelay":0,"arrivalDelay":0,"realTime":false,"distance":273.708,"pathway":false,"mode":"WALK","route":"","agencyTimeZoneOffset":-14400000,"interlineWithPreviousLeg":false,"from":{"name":"Origin","lon":-71.096531,"lat":48.406449,"departure":1522689867000,"orig":"","vertexType":"NORMAL"},"to":{"name":"boul. Barrette / Estacade","stopId":"1:465","stopCode":"465","lon":-71.098983,"lat":48.40478,"arrival":1522690082000,"departure":1522690083000,"zoneId":"NA","stopIndex":15,"stopSequence":16,"vertexType":"TRANSIT"},"legGeometry":{"points":"wkmfHha}pLnAtAlCdDj@r@xAnBJRM\\","length":7},"rentedBike":false,"transitLeg":false,"duration":215.0,"steps":[{"distance":250.22,"relativeDirection":"DEPART","streetName":"Rue de l'Estacade","absoluteDirection":"SOUTHWEST","stayOn":false,"area":false,"bogusName":false,"lon":-71.09668511962573,"lat":48.40652340126709,"elevation":[]},{"distance":10.078,"relativeDirection":"CONTINUE","streetName":"path","absoluteDirection":"SOUTHWEST","stayOn":false,"area":false,"bogusName":true,"lon":-71.0987621,"lat":48.40474570000001,"elevation":[]},{"distance":13.41,"relativeDirection":"RIGHT","streetName":"bike path","absoluteDirection":"NORTHWEST","stayOn":true,"area":false,"bogusName":true,"lon":-71.0988614,"lat":48.404683500000004,"elevation":[]}]},{"startTime":1522690083000,"endTime":1522690616000,"departureDelay":0,"arrivalDelay":0,"realTime":false,"distance":5271.990291164261,"pathway":false,"mode":"BUS","route":"11","agencyName":"Société de Transport du Saguenay","agencyUrl":"http://ville.saguenay.ca/fr/services-aux-citoyens/transport-sts","agencyTimeZoneOffset":-14400000,"routeColor":"FF0000","routeType":3,"routeId":"1:11","routeTextColor":"FFFFFF","interlineWithPreviousLeg":false,"tripBlockId":"36","headsign":"Boul.Royaume/St-Pierre","agencyId":"0","tripId":"1:218290","serviceDate":"20180402","from":{"name":"boul. Barrette / Estacade","stopId":"1:465","stopCode":"465","lon":-71.098983,"lat":48.40478,"arrival":1522690082000,"departure":1522690083000,"zoneId":"NA","stopIndex":15,"stopSequence":16,"vertexType":"TRANSIT"},"to":{"name":"boul. Royaume (no. 1409)","stopId":"1:264","stopCode":"264","lon":-71.118186,"lat":48.388875,"arrival":1522690616000,"departure":1522690616000,"zoneId":"NA","stopIndex":28,"stopSequence":29,"vertexType":"TRANSIT"},"legGeometry":{"points":"i`mfHdp}pL|CyI~IrJtAzAmKrWsE`LzJjL|P}d@Ri@hCpEpBdCHJzPrR_AhC}Ppd@KZkDxJq@`CyGfZOl@fNzIJ@HAHIDI@CnNco@vE}Sh@kCb@oCXyBTuAFSBMl@iBlHjJxEtGPRbBdBp@r@xDpDrL`LlAtAiBdFOd@oCrH","length":46},"routeShortName":"11","routeLongName":"Chic/Faubourg via St-Paul","rentedBike":false,"transitLeg":true,"duration":533.0,"steps":[]},{"startTime":1522690616000,"endTime":1522690629000,"departureDelay":0,"arrivalDelay":0,"realTime":false,"distance":13.493,"pathway":false,"mode":"WALK","route":"","agencyTimeZoneOffset":-14400000,"interlineWithPreviousLeg":false,"from":{"name":"boul. Royaume (no. 1409)","stopId":"1:264","stopCode":"264","lon":-71.118186,"lat":48.388875,"arrival":1522690616000,"departure":1522690616000,"zoneId":"NA","stopIndex":28,"stopSequence":29,"vertexType":"TRANSIT"},"to":{"name":"boul. Royaume (no. 1460)","stopId":"1:267","stopCode":"267","lon":-71.1185,"lat":48.388791,"arrival":1522690629000,"departure":1522690640000,"zoneId":"NA","stopIndex":23,"stopSequence":24,"vertexType":"TRANSIT"},"legGeometry":{"points":"a}ifHbhaqLMZ","length":2},"rentedBike":false,"transitLeg":false,"duration":13.0,"steps":[{"distance":13.493,"relativeDirection":"DEPART","streetName":"Boulevard du Royaume Ouest","absoluteDirection":"NORTHWEST","stayOn":false,"area":false,"bogusName":false,"lon":-71.11825025873861,"lat":48.3888149249102,"elevation":[]}]},{"startTime":1522690640000,"endTime":1522690860000,"departureDelay":0,"arrivalDelay":0,"realTime":false,"distance":2570.2679685702965,"pathway":false,"mode":"BUS","route":"2","agencyName":"Société de Transport du Saguenay","agencyUrl":"http://ville.saguenay.ca/fr/services-aux-citoyens/transport-sts","agencyTimeZoneOffset":-14400000,"routeColor":"FF0000","routeType":3,"routeId":"1:2","routeTextColor":"FFFFFF","interlineWithPreviousLeg":false,"tripBlockId":"11","headsign":"Costco","agencyId":"0","tripId":"1:217475","serviceDate":"20180402","from":{"name":"boul. Royaume (no. 1460)","stopId":"1:267","stopCode":"267","lon":-71.1185,"lat":48.388791,"arrival":1522690629000,"departure":1522690640000,"zoneId":"NA","stopIndex":23,"stopSequence":24,"vertexType":"TRANSIT"},"to":{"name":"COSTCO","stopId":"1:1710","stopCode":"1710","lon":-71.085767,"lat":48.382333,"arrival":1522690860000,"departure":1522691100000,"zoneId":"NA","stopIndex":28,"stopSequence":29,"vertexType":"TRANSIT"},"legGeometry":{"points":"e}ifHjiaqL|BaGbDgIz@{B|G}WVyBfB_OrBsTDa]?sD`@uc@tBcJz@yDtI}UaCcC","length":15},"routeShortName":"2","routeLongName":"Chic/Jonq via Boul. Royaume","rentedBike":false,"transitLeg":true,"duration":220.0,"steps":[]},{"startTime":1522691100000,"endTime":1522691700000,"departureDelay":0,"arrivalDelay":0,"realTime":false,"distance":3532.3490999365067,"pathway":false,"mode":"BUS","route":"175","agencyName":"Société de Transport du Saguenay","agencyUrl":"http://ville.saguenay.ca/fr/services-aux-citoyens/transport-sts","agencyTimeZoneOffset":-14400000,"routeColor":"FF00FF","routeType":3,"routeId":"1:175","routeTextColor":"FFFFFF","interlineWithPreviousLeg":true,"tripBlockId":"11","headsign":"Terminus Chicoutimi","agencyId":"0","tripId":"1:217476","serviceDate":"20180402","from":{"name":"COSTCO","stopId":"1:1710","stopCode":"1710","lon":-71.085767,"lat":48.382333,"arrival":1522690860000,"departure":1522691100000,"zoneId":"NA","stopIndex":0,"stopSequence":1,"vertexType":"TRANSIT"},"to":{"name":"Place Royaume","stopId":"1:1801","stopCode":"1801","lon":-71.057017,"lat":48.405588,"arrival":1522691700000,"departure":1522691701000,"zoneId":"NA","stopIndex":10,"stopSequence":11,"vertexType":"TRANSIT"},"legGeometry":{"points":"euhfHt|zpL_BiBsCoDwCqDrCsGN_@uEoFoEiFUWSUqCwC]a@{ByC{@cAkJuKoAwA_CeCeExJ~AlB`@mAu@k@}@q@|C}Iw@}@aO_QkEsEiAoAgEsFkFsHqJ_N}FkImPkOuO{N","length":33},"routeShortName":"175","routeLongName":"Term. Chic / Costco","rentedBike":false,"transitLeg":true,"duration":600.0,"steps":[]},{"startTime":1522691701000,"endTime":1522692244000,"departureDelay":0,"arrivalDelay":0,"realTime":false,"distance":669.44,"pathway":false,"mode":"WALK","route":"","agencyTimeZoneOffset":-14400000,"interlineWithPreviousLeg":false,"from":{"name":"Place Royaume","stopId":"1:1801","stopCode":"1801","lon":-71.057017,"lat":48.405588,"arrival":1522691700000,"departure":1522691701000,"zoneId":"NA","stopIndex":10,"stopSequence":11,"vertexType":"TRANSIT"},"to":{"name":"Destination","lon":-71.056431,"lat":48.409492,"arrival":1522692244000,"orig":"","vertexType":"NORMAL"},"legGeometry":{"points":"memfHriupL`@{A[Yo@|BEJIZKIqD}CaA_Aw@jC]UCAi@[gAe@u@a@]]O`@M\\e@`AaCmCWt@","length":21},"rentedBike":false,"transitLeg":false,"duration":543.0,"steps":[{"distance":56.66,"relativeDirection":"DEPART","streetName":"parking aisle","absoluteDirection":"SOUTHEAST","stayOn":false,"area":false,"bogusName":true,"lon":-71.0570537,"lat":48.405519700000006,"elevation":[]},{"distance":71.053,"relativeDirection":"LEFT","streetName":"service road","absoluteDirection":"NORTHWEST","stayOn":true,"area":false,"bogusName":true,"lon":-71.0564657,"lat":48.405483000000004,"elevation":[]},{"distance":166.422,"relativeDirection":"RIGHT","streetName":"Boulevard Talbot","absoluteDirection":"NORTHEAST","stayOn":false,"area":false,"bogusName":false,"lon":-71.05729810000001,"lat":48.4058038,"elevation":[]},{"distance":200.471,"relativeDirection":"LEFT","streetName":"parking aisle","absoluteDirection":"NORTHWEST","stayOn":false,"area":false,"bogusName":true,"lon":-71.0561383,"lat":48.40708720000001,"elevation":[]},{"distance":61.089,"relativeDirection":"LEFT","streetName":"Rue des Champs-Élysées","absoluteDirection":"NORTHWEST","stayOn":false,"area":false,"bogusName":false,"lon":-71.0560683,"lat":48.4085206,"elevation":[]},{"distance":89.027,"relativeDirection":"RIGHT","streetName":"Rue Mozart","absoluteDirection":"NORTHEAST","stayOn":false,"area":false,"bogusName":false,"lon":-71.05671190000001,"lat":48.4088653,"elevation":[]},{"distance":24.718,"relativeDirection":"LEFT","streetName":"Rue Gounod","absoluteDirection":"NORTHWEST","stayOn":false,"area":false,"bogusName":false,"lon":-71.0560006,"lat":48.409511900000005,"elevation":[]}]}],"tooSloped":false},{"duration":2588,"startTime":1522690096000,"endTime":1522692684000,"walkTime":256,"transitTime":2090,"waitingTime":242,"walkDistance":325.92221052359855,"walkLimitExceeded":false,"elevationLost":0.0,"elevationGained":0.0,"transfers":1,"legs":[{"startTime":1522690096000,"endTime":1522690149000,"departureDelay":0,"arrivalDelay":0,"realTime":false,"distance":69.565,"pathway":false,"mode":"WALK","route":"","agencyTimeZoneOffset":-14400000,"interlineWithPreviousLeg":false,"from":{"name":"Origin","lon":-71.096531,"lat":48.406449,"departure":1522690096000,"orig":"","vertexType":"NORMAL"},"to":{"name":"Estacade / Défibreurs","stopId":"1:1888","stopCode":"1888","lon":-71.096041,"lat":48.406986,"arrival":1522690149000,"departure":1522690150000,"zoneId":"NA","stopIndex":14,"stopSequence":15,"vertexType":"TRANSIT"},"legGeometry":{"points":"wkmfHha}pLcBmB","length":2},"rentedBike":false,"transitLeg":false,"duration":53.0,"steps":[{"distance":69.565,"relativeDirection":"DEPART","streetName":"Rue de l'Estacade","absoluteDirection":"NORTHEAST","stayOn":false,"area":false,"bogusName":false,"lon":-71.09668511962573,"lat":48.40652340126709,"elevation":[]}]},{"startTime":1522690150000,"endTime":1522690860000,"departureDelay":0,"arrivalDelay":0,"realTime":false,"distance":3825.3125271861118,"pathway":false,"mode":"BUS","route":"11","agencyName":"Société de Transport du Saguenay","agencyUrl":"http://ville.saguenay.ca/fr/services-aux-citoyens/transport-sts","agencyTimeZoneOffset":-14400000,"routeColor":"FF0000","routeType":3,"routeId":"1:11","routeTextColor":"FFFFFF","interlineWithPreviousLeg":false,"tripBlockId":"34","headsign":"Terminus Chicoutimi","agencyId":"0","tripId":"1:218220","serviceDate":"20180402","from":{"name":"Estacade / Défibreurs","stopId":"1:1888","stopCode":"1888","lon":-71.096041,"lat":48.406986,"arrival":1522690149000,"departure":1522690150000,"zoneId":"NA","stopIndex":14,"stopSequence":15,"vertexType":"TRANSIT"},"to":{"name":"Terminus Chicoutimi","stopId":"1:1289","stopCode":"1289","lon":-71.066163,"lat":48.428677,"arrival":1522690860000,"departure":1522691100000,"zoneId":"NA","stopIndex":30,"stopSequence":31,"vertexType":"TRANSIT"},"legGeometry":{"points":"_omfH~}|pL_@g@{FwGOMnA}CnA_DJWu@iAW[S[yI{MmBqC{@wAQUw@gAsDiF_B_CQYa@cA[_AUy@YcBOgAYHu@\\M`@cAiBuAyBkHgL{C{E}AcCc@o@q@gAOWwCyCyGyG_IaIs@rBEHwAtDmBvEOd@[bBK~AIf@YHE@Q@O?OCI_@GMEKI_AB_A?Yo@IKCIEIIKOEKCKe@}BKs@CQAUE_A@yCFcDVsLDaCD_@kBKW?e@Q_BQNuEDuBXmNLgHmKm@}BW{AMCn@o@G??","length":87},"routeShortName":"11","routeLongName":"Chic/Faubourg via St-Paul","rentedBike":false,"transitLeg":true,"duration":710.0,"steps":[]},{"startTime":1522691100000,"endTime":1522692480000,"departureDelay":0,"arrivalDelay":0,"realTime":false,"distance":8921.890108417734,"pathway":false,"mode":"BUS","route":"12","agencyName":"Société de Transport du Saguenay","agencyUrl":"http://ville.saguenay.ca/fr/services-aux-citoyens/transport-sts","agencyTimeZoneOffset":-14400000,"routeColor":"556B2F","routeType":3,"routeId":"1:12","routeTextColor":"FFFFFF","interlineWithPreviousLeg":false,"tripBlockId":"27","headsign":"Terminus UQAC","agencyId":"0","tripId":"1:218014","serviceDate":"20180402","from":{"name":"Terminus Chicoutimi","stopId":"1:1289","stopCode":"1289","lon":-71.066163,"lat":48.428677,"arrival":1522690860000,"departure":1522691100000,"zoneId":"NA","stopIndex":0,"stopSequence":1,"vertexType":"TRANSIT"},"to":{"name":"Champs-Élysées / Chopin","stopId":"1:584","stopCode":"584","lon":-71.058412,"lat":48.409805,"arrival":1522692480000,"departure":1522692481000,"zoneId":"NA","stopIndex":29,"stopSequence":30,"vertexType":"TRANSIT"},"legGeometry":{"points":"evqfHpbwpLpFcj@IaKmFy^_DaZz@u]SeV}@aNs@gKToKd@gTnCyHkGuLqFqJ_DeFf@iIvGsKlIrH`JlH`EfDnOdIdGlGjL|BzBiLv@}L`b@fNvVvrCdRvMcAjKcP~b@","length":30},"routeShortName":"12","routeLongName":"Rivière du Moulin","rentedBike":false,"transitLeg":true,"duration":1380.0,"steps":[]},{"startTime":1522692481000,"endTime":1522692684000,"departureDelay":0,"arrivalDelay":0,"realTime":false,"distance":256.273,"pathway":false,"mode":"WALK","route":"","agencyTimeZoneOffset":-14400000,"interlineWithPreviousLeg":false,"from":{"name":"Champs-Élysées / Chopin","stopId":"1:584","stopCode":"584","lon":-71.058412,"lat":48.409805,"arrival":1522692480000,"departure":1522692481000,"zoneId":"NA","stopIndex":29,"stopSequence":30,"vertexType":"TRANSIT"},"to":{"name":"Destination","lon":-71.056431,"lat":48.409492,"arrival":1522692684000,"orig":"","vertexType":"NORMAL"},"legGeometry":{"points":"{_nfHprupL`@}@{AuA{@@jCgH","length":5},"rentedBike":false,"transitLeg":false,"duration":203.0,"steps":[{"distance":29.388,"relativeDirection":"DEPART","streetName":"Rue des Champs-Élysées","absoluteDirection":"SOUTHEAST","stayOn":false,"area":false,"bogusName":false,"lon":-71.05848639303342,"lat":48.40974208921815,"elevation":[]},{"distance":92.957,"relativeDirection":"LEFT","streetName":"Rue Chopin","absoluteDirection":"NORTHEAST","stayOn":false,"area":false,"bogusName":false,"lon":-71.0581732,"lat":48.4095789,"elevation":[]},{"distance":133.928,"relativeDirection":"HARD_RIGHT","streetName":"Rue Gounod","absoluteDirection":"SOUTHEAST","stayOn":false,"area":false,"bogusName":false,"lon":-71.0577591,"lat":48.4103323,"elevation":[]}]}],"tooSloped":false}]},"debugOutput":{"precalculationTime":33,"pathCalculationTime":33,"pathTimes":[20,6,7],"renderingTime":0,"totalTime":66,"timedOut":false},"elevationMetadata":{"ellipsoidToGeoidDifference":-28.885904201182168,"geoidElevation":false}}