{"requestParameters":{"date":"2018/04/02","walkSpeed":"1.33","walkReluctance":"2.0","fromPlace":"48.406867,-71.094072","maxWalkDistance":"3000","waitReluctance":"1.0","carSpeed":"33","numItineraries":"3","waitAtBeginningFactor":"0.4","mode":"TRANSIT,WALK","ignoreRealtimeUpdates":"false","stairsReluctance":"2.0","toPlace":"48.394631,-71.073569","time":"9:35:00"},"plan":{"date":1522676100000,"from":{"name":"Origin","lon":-71.094072,"lat":48.406867,"orig":"","vertexType":"NORMAL"},"to":{"name":"Destination","lon":-71.073569,"lat":48.394631,"orig":"","vertexType":"NORMAL"},"itineraries":[{"duration":1854,"startTime":1522676100000,"endTime":1522677954000,"walkTime":1854,"transitTime":0,"waitingTime":0,"walkDistance":2432.5863533821243,"walkLimitExceeded":false,"elevationLost":0.0,"elevationGained":0.0,"transfers":0,"legs":[{"startTime":1522676100000,"endTime":1522677954000,"departureDelay":0,"arrivalDelay":0,"realTime":false,"distance":2432.5450000000005,"pathway":false,"mode":"WALK","route":"","agencyTimeZoneOffset":-14400000,"interlineWithPreviousLeg":false,"from":{"name":"Origin","lon":-71.094072,"lat":48.406867,"departure":1522676100000,"orig":"","vertexType":"NORMAL"},"to":{"name":"Destination","lon":-71.073569,"lat":48.394631,"arrival":1522677954000,"orig":"","vertexType":"NORMAL"},"legGeometry":{"points":"mmmfHbp|pLxAfB|@dAl@t@~@bAj@n@`@d@h@n@fAjAPTnAxANPrCsHFQx@uBzEwM@?`@kAh@YvAuGx@yDBKb@mB|AyIlA}Fz@_EBKbBoI^}Az@mDJe@r@qCj@_C`GsUf@kBlAyEnA_Fj@eBj@_B","length":39},"rentedBike":false,"transitLeg":false,"duration":1854.0,"steps":[{"distance":393.828,"relativeDirection":"DEPART","streetName":"Boulevard Saint-Paul","absoluteDirection":"SOUTHWEST","stayOn":false,"area":false,"bogusName":false,"lon":-71.09393557305243,"lat":48.40679841060649,"elevation":[]},{"distance":449.30899999999997,"relativeDirection":"LEFT","streetName":"Boulevard Barrette","absoluteDirection":"SOUTHEAST","stayOn":false,"area":false,"bogusName":false,"lon":-71.0971116,"lat":48.4039529,"elevation":[]},{"distance":1589.408,"relativeDirection":"SLIGHTLY_RIGHT","streetName":"bike path","absoluteDirection":"SOUTHEAST","stayOn":false,"area":false,"bogusName":true,"lon":-71.0921587,"lat":48.401604500000005,"elevation":[]}]}],"tooSloped":false},{"duration":910,"startTime":1522677342000,"endTime":1522678252000,"walkTime":789,"transitTime":119,"waitingTime":2,"walkDistance":1019.0577969902614,"walkLimitExceeded":false,"elevationLost":0.0,"elevationGained":0.0,"transfers":0,"legs":[{"startTime":1522677342000,"endTime":1522678119000,"departureDelay":0,"arrivalDelay":0,"realTime":false,"distance":1003.4380000000001,"pathway":false,"mode":"WALK","route":"","agencyTimeZoneOffset":-14400000,"interlineWithPreviousLeg":false,"from":{"name":"Origin","lon":-71.094072,"lat":48.406867,"departure":1522677342000,"orig":"","vertexType":"NORMAL"},"to":{"name":"Malraux / Pagnol","stopId":"1:1978","stopCode":"1978","lon":-71.093388,"lat":48.400416,"arrival":1522678119000,"departure":1522678120000,"zoneId":"NA","stopIndex":29,"stopSequence":30,"vertexType":"TRANSIT"},"legGeometry":{"points":"mmmfHbp|pLxAfB|@dAl@t@~@bAj@n@`@d@h@n@fAjAPTnAxANPrCsHFQx@uBzEwM@?`@kAjFzF","length":19},"rentedBike":false,"transitLeg":false,"duration":777.0,"steps":[{"distance":393.828,"relativeDirection":"DEPART","streetName":"Boulevard Saint-Paul","absoluteDirection":"SOUTHWEST","stayOn":false,"area":false,"bogusName":false,"lon":-71.09393557305243,"lat":48.40679841060649,"elevation":[]},{"distance":449.30899999999997,"relativeDirection":"LEFT","streetName":"Boulevard Barrette","absoluteDirection":"SOUTHEAST","stayOn":false,"area":false,"bogusName":false,"lon":-71.0971116,"lat":48.4039529,"elevation":[]},{"distance":160.301,"relativeDirection":"RIGHT","streetName":"Rue Malraux","absoluteDirection":"SOUTHWEST","stayOn":false,"area":false,"bogusName":false,"lon":-71.0921587,"lat":48.401604500000005,"elevation":[]}]},{"startTime":1522678120000,"endTime":1522678239000,"departureDelay":0,"arrivalDelay":0,"realTime":false,"distance":1661.9374219225506,"pathway":false,"mode":"BUS","route":"14","agencyName":"Société de Transport du Saguenay","agencyUrl":"http://ville.saguenay.ca/fr/services-aux-citoyens/transport-sts","agencyTimeZoneOffset":-14400000,"routeColor":"C0C000","routeType":3,"routeId":"1:14","routeTextColor":"000000","interlineWithPreviousLeg":false,"tripBlockId":"30","headsign":"Talbot / Barrette","agencyId":"0","tripId":"1:218093","serviceDate":"20180402","from":{"name":"Malraux / Pagnol","stopId":"1:1978","stopCode":"1978","lon":-71.093388,"lat":48.400416,"arrival":1522678119000,"departure":1522678120000,"zoneId":"NA","stopIndex":29,"stopSequence":30,"vertexType":"TRANSIT"},"to":{"name":"Maxi - boulevard Barrette","stopId":"1:88","stopCode":"88","lon":-71.07294,"lat":48.395,"arrival":1522678239000,"departure":1522678240000,"zoneId":"NA","stopIndex":34,"stopSequence":35,"vertexType":"TRANSIT"},"legGeometry":{"points":"welfH`m|pLcFsF~CgOtGm[j@oCvEoSl@_CxCmLjAeFpCeKrByHfAqC","length":12},"routeShortName":"14","routeLongName":"Coopérative","rentedBike":false,"transitLeg":true,"duration":119.0,"steps":[]},{"startTime":1522678240000,"endTime":1522678252000,"departureDelay":0,"arrivalDelay":0,"realTime":false,"distance":15.551,"pathway":false,"mode":"WALK","route":"","agencyTimeZoneOffset":-14400000,"interlineWithPreviousLeg":false,"from":{"name":"Maxi - boulevard Barrette","stopId":"1:88","stopCode":"88","lon":-71.07294,"lat":48.395,"arrival":1522678239000,"departure":1522678240000,"zoneId":"NA","stopIndex":34,"stopSequence":35,"vertexType":"TRANSIT"},"to":{"name":"Destination","lon":-71.073569,"lat":48.394631,"arrival":1522678252000,"orig":"","vertexType":"NORMAL"},"legGeometry":{"points":"sckfH~lxpLOb@","length":2},"rentedBike":false,"transitLeg":false,"duration":12.0,"steps":[{"distance":15.551,"relativeDirection":"DEPART","streetName":"bike path","absoluteDirection":"NORTHWEST","stayOn":false,"area":false,"bogusName":false,"lon":-71.072956176549,"lat":48.39498407908756,"elevation":[]}]}],"tooSloped":false},{"duration":910,"startTime":1522679142000,"endTime":1522680052000,"walkTime":789,"transitTime":119,"waitingTime":2,"walkDistance":1019.0577969902614,"walkLimitExceeded":false,"elevationLost":0.0,"elevationGained":0.0,"transfers":0,"legs":[{"startTime":1522679142000,"endTime":1522679919000,"departureDelay":0,"arrivalDelay":0,"realTime":false,"distance":1003.4380000000001,"pathway":false,"mode":"WALK","route":"","agencyTimeZoneOffset":-14400000,"interlineWithPreviousLeg":false,"from":{"name":"Origin","lon":-71.094072,"lat":48.406867,"departure":1522679142000,"orig":"","vertexType":"NORMAL"},"to":{"name":"Malraux / Pagnol","stopId":"1:1978","stopCode":"1978","lon":-71.093388,"lat":48.400416,"arrival":1522679919000,"departure":1522679920000,"zoneId":"NA","stopIndex":29,"stopSequence":30,"vertexType":"TRANSIT"},"legGeometry":{"points":"mmmfHbp|pLxAfB|@dAl@t@~@bAj@n@`@d@h@n@fAjAPTnAxANPrCsHFQx@uBzEwM@?`@kAjFzF","length":19},"rentedBike":false,"transitLeg":false,"duration":777.0,"steps":[{"distance":393.828,"relativeDirection":"DEPART","streetName":"Boulevard Saint-Paul","absoluteDirection":"SOUTHWEST","stayOn":false,"area":false,"bogusName":false,"lon":-71.09393557305243,"lat":48.40679841060649,"elevation":[]},{"distance":449.30899999999997,"relativeDirection":"LEFT","streetName":"Boulevard Barrette","absoluteDirection":"SOUTHEAST","stayOn":false,"area":false,"bogusName":false,"lon":-71.0971116,"lat":48.4039529,"elevation":[]},{"distance":160.301,"relativeDirection":"RIGHT","streetName":"Rue Malraux","absoluteDirection":"SOUTHWEST","stayOn":false,"area":false,"bogusName":false,"lon":-71.0921587,"lat":48.401604500000005,"elevation":[]}]},{"startTime":1522679920000,"endTime":1522680039000,"departureDelay":0,"arrivalDelay":0,"realTime":false,"distance":1661.9374219225506,"pathway":false,"mode":"BUS","route":"14","agencyName":"Société de Transport du Saguenay","agencyUrl":"http://ville.saguenay.ca/fr/services-aux-citoyens/transport-sts","agencyTimeZoneOffset":-14400000,"routeColor":"C0C000","routeType":3,"routeId":"1:14","routeTextColor":"000000","interlineWithPreviousLeg":false,"tripBlockId":"32","headsign":"Talbot / Barrette","agencyId":"0","tripId":"1:218154","serviceDate":"20180402","from":{"name":"Malraux / Pagnol","stopId":"1:1978","stopCode":"1978","lon":-71.093388,"lat":48.400416,"arrival":1522679919000,"departure":1522679920000,"zoneId":"NA","stopIndex":29,"stopSequence":30,"vertexType":"TRANSIT"},"to":{"name":"Maxi - boulevard Barrette","stopId":"1:88","stopCode":"88","lon":-71.07294,"lat":48.395,"arrival":1522680039000,"departure":1522680040000,"zoneId":"NA","stopIndex":34,"stopSequence":35,"vertexType":"TRANSIT"},"legGeometry":{"points":"welfH`m|pLcFsF~CgOtGm[j@oCvEoSl@_CxCmLjAeFpCeKrByHfAqC","length":12},"routeShortName":"14","routeLongName":"Coopérative","rentedBike":false,"transitLeg":true,"duration":119.0,"steps":[]},{"startTime":1522680040000,"endTime":1522680052000,"departureDelay":0,"arrivalDelay":0,"realTime":false,"distance":15.551,"pathway":false,"mode":"WALK","route":"","agencyTimeZoneOffset":-14400000,"interlineWithPreviousLeg":false,"from":{"name":"Maxi - boulevard Barrette","stopId":"1:88","stopCode":"88","lon":-71.07294,"lat":48.395,"arrival":1522680039000,"departure":1522680040000,"zoneId":"NA","stopIndex":34,"stopSequence":35,"vertexType":"TRANSIT"},"to":{"name":"Destination","lon":-71.073569,"lat":48.394631,"arrival":1522680052000,"orig":"","vertexType":"NORMAL"},"legGeometry":{"points":"sckfH~lxpLOb@","length":2},"rentedBike":false,"transitLeg":false,"duration":12.0,"steps":[{"distance":15.551,"relativeDirection":"DEPART","streetName":"bike path","absoluteDirection":"NORTHWEST","stayOn":false,"area":false,"bogusName":false,"lon":-71.072956176549,"lat":48.39498407908756,"elevation":[]}]}],"tooSloped":false}]},"debugOutput":{"precalculationTime":23,"pathCalculationTime":23,"pathTimes":[15,3,5],"renderingTime":0,"totalTime":46,"timedOut":false},"elevationMetadata":{"ellipsoidToGeoidDifference":-28.885904201182168,"geoidElevation":false}}