{"requestParameters":{"date":"2018/04/02","walkSpeed":"1.33","walkReluctance":"2.0","fromPlace":"48.306449,-71.11207299","maxWalkDistance":"3000","waitReluctance":"1.0","carSpeed":"33","numItineraries":"3","waitAtBeginningFactor":"0.4","mode":"TRANSIT,WALK","ignoreRealtimeUpdates":"false","stairsReluctance":"2.0","toPlace":"48.410342,-71.095171","time":"11:0:00"},"plan":{"date":1522681200000,"from":{"name":"Origin","lon":-71.11207299,"lat":48.306449,"orig":"","vertexType":"NORMAL"},"to":{"name":"Destination","lon":-71.095171,"lat":48.410342,"orig":"","vertexType":"NORMAL"},"itineraries":[{"duration":3329,"startTime":1522685319000,"endTime":1522688648000,"walkTime":536,"transitTime":2443,"waitingTime":350,"walkDistance":696.0617969902614,"walkLimitExceeded":false,"elevationLost":0.0,"elevationGained":0.0,"transfers":1,"legs":[{"startTime":1522685319000,"endTime":1522685608000,"departureDelay":0,"arrivalDelay":0,"realTime":false,"distance":378.404,"pathway":false,"mode":"WALK","route":"","agencyTimeZoneOffset":-14400000,"interlineWithPreviousLeg":false,"from":{"name":"Origin","lon":-71.11207299,"lat":48.306449,"departure":1522685319000,"orig":"","vertexType":"NORMAL"},"to":{"name":"Boulevard (no. 1017)","stopId":"1:1723","stopCode":"1723","lon":-71.115166,"lat":48.309087,"arrival":1522685608000,"departure":1522685609000,"zoneId":"NA","stopIndex":15,"stopSequence":16,"vertexType":"TRANSIT"},"legGeometry":{"points":"mzyeHfa`qLEFi@pA_@v@kAvCe@t@q@x@kGbFCB","length":9},"rentedBike":false,"transitLeg":false,"duration":289.0,"steps":[{"distance":378.404,"relativeDirection":"DEPART","streetName":"Rue du Boulevard","absoluteDirection":"NORTHWEST","stayOn":false,"area":false,"bogusName":false,"lon":-71.11203335016066,"lat":48.306479015095846,"elevation":[]}]},{"startTime":1522685609000,"endTime":1522686944000,"departureDelay":0,"arrivalDelay":0,"realTime":false,"distance":12096.195247874159,"pathway":false,"mode":"BUS","route":"62","agencyName":"Société de Transport du Saguenay","agencyUrl":"http://ville.saguenay.ca/fr/services-aux-citoyens/transport-sts","agencyTimeZoneOffset":-14400000,"routeColor":"00FFFF","routeType":3,"routeId":"1:62","routeTextColor":"000000","interlineWithPreviousLeg":false,"tripBlockId":"73","headsign":"Costco","agencyId":"0","tripId":"1:218619","serviceDate":"20180402","from":{"name":"Boulevard (no. 1017)","stopId":"1:1723","stopCode":"1723","lon":-71.115166,"lat":48.309087,"arrival":1522685608000,"departure":1522685609000,"zoneId":"NA","stopIndex":15,"stopSequence":16,"vertexType":"TRANSIT"},"to":{"name":"boul. Royaume (no. 1460)","stopId":"1:267","stopCode":"267","lon":-71.1185,"lat":48.388791,"arrival":1522686944000,"departure":1522687292000,"zoneId":"NA","stopIndex":35,"stopSequence":36,"vertexType":"TRANSIT"},"legGeometry":{"points":"qjzeHlu`qLg@`@[\\g@t@i@bACF}AlEkHvSwIrVgDpJ_KjYkAhDqDjJsA|DuGjRi@i@w@gA_@e@e@UmAc@sHmAaIiA_BAM?cADsJn@gAPkAZODcAl@}@j@w@x@ML_BlB_B`DiAlDsBdH_AfCq@zAQ^S\\{BtD}BxCyAvAyA`AqDtAiCn@yD\\w@DKAOCw@c@EAcRwRe@]_AWMAgJeB{BKe@LGDeAj@kAx@cEnC_BlAoAxAeB`DsBbIQbAiAhHk@tFMlAKzAYhCOnCKdDWjGKlAMxAa@vCWnAoBbFkH~Si@lAc@j@WNcAf@{@HiCYcBc@m@Wq@Iu@Qy@_@qBeAkAu@uAm@mImCsA_@yDs@qGk@eB[o@KWCgASaA]cBkAgPsN_FkEwAgAwAsAgAyBe@gBU}AAEMmB_@aEUaB_AeE}BqIy@mCmD{JsAuCu@_Ao@u@y@y@MOsIoKeHaKkEuFSYuAcBqA_BkDgDoBuA{JsFgKgEoBo@aAS_CAeDR}Ej@yHP{BMgBYwC{@kGoCsBs@wAUqAUaCM[eF_@{IE_B?{BBsA@]LkCHaAf@}D\\mBZkA@EXaAxBkGzFmO","length":166},"routeShortName":"62","routeLongName":"Portage des Roches Sud","rentedBike":false,"transitLeg":true,"duration":1335.0,"steps":[]},{"startTime":1522687292000,"endTime":1522688400000,"departureDelay":0,"arrivalDelay":0,"realTime":false,"distance":4045.977346297669,"pathway":false,"mode":"BUS","route":"11","agencyName":"Société de Transport du Saguenay","agencyUrl":"http://ville.saguenay.ca/fr/services-aux-citoyens/transport-sts","agencyTimeZoneOffset":-14400000,"routeColor":"FF0000","routeType":3,"routeId":"1:11","routeTextColor":"FFFFFF","interlineWithPreviousLeg":false,"tripBlockId":"37","headsign":"Terminus Chicoutimi","agencyId":"0","tripId":"1:218315","serviceDate":"20180402","from":{"name":"boul. Royaume (no. 1460)","stopId":"1:267","stopCode":"267","lon":-71.1185,"lat":48.388791,"arrival":1522686944000,"departure":1522687292000,"zoneId":"NA","stopIndex":3,"stopSequence":4,"vertexType":"TRANSIT"},"to":{"name":"Descartes / Estacade","stopId":"1:1889","stopCode":"1889","lon":-71.093786,"lat":48.408069,"arrival":1522688400000,"departure":1522688401000,"zoneId":"NA","stopIndex":15,"stopSequence":16,"vertexType":"TRANSIT"},"legGeometry":{"points":"i}ifHfiaqLnDmJzByFO[Q]yBsBiMqLKIsFyFMQ}AuBuCgEmGaISV[|@Qj@K`@AFSlAYvBc@nCi@lCyE`T}@dEoLxh@GLIHI@KAgN{IhHu[p@aCjDyJfQie@`AmCJ[kXi[gKsLqMgOmAbDAVSl@y@vBeCuCoCaDkDuE_@g@{FwGOMnA}C","length":50},"routeShortName":"11","routeLongName":"Chic/Faubourg via St-Paul","rentedBike":false,"transitLeg":true,"duration":1108.0,"steps":[]},{"startTime":1522688401000,"endTime":1522688648000,"departureDelay":0,"arrivalDelay":0,"realTime":false,"distance":317.58900000000006,"pathway":false,"mode":"WALK","route":"","agencyTimeZoneOffset":-14400000,"interlineWithPreviousLeg":false,"from":{"name":"Descartes / Estacade","stopId":"1:1889","stopCode":"1889","lon":-71.093786,"lat":48.408069,"arrival":1522688400000,"departure":1522688401000,"zoneId":"NA","stopIndex":15,"stopSequence":16,"vertexType":"TRANSIT"},"to":{"name":"Destination","lon":-71.095171,"lat":48.410342,"arrival":1522688648000,"orig":"","vertexType":"NORMAL"},"legGeometry":{"points":"yumfHrn|pLsAtCq@_@q@[iA}@aB|Cw@hC","length":7},"rentedBike":false,"transitLeg":false,"duration":247.0,"steps":[{"distance":72.045,"relativeDirection":"DEPART","streetName":"Rue Descartes","absoluteDirection":"NORTHWEST","stayOn":false,"area":false,"bogusName":false,"lon":-71.09369815391963,"lat":48.40813812734284,"elevation":[]},{"distance":106.305,"relativeDirection":"RIGHT","streetName":"Rue de l'Estacade","absoluteDirection":"NORTH","stayOn":false,"area":false,"bogusName":false,"lon":-71.0944442,"lat":48.4085559,"elevation":[]},{"distance":139.239,"relativeDirection":"LEFT","streetName":"Rue des Presses","absoluteDirection":"NORTHWEST","stayOn":false,"area":false,"bogusName":false,"lon":-71.09383670000001,"lat":48.409420000000004,"elevation":[]}]}],"tooSloped":false},{"duration":4262,"startTime":1522687848000,"endTime":1522692110000,"walkTime":479,"transitTime":3181,"waitingTime":602,"walkDistance":610.4539473642603,"walkLimitExceeded":false,"elevationLost":0.0,"elevationGained":0.0,"transfers":2,"legs":[{"startTime":1522687848000,"endTime":1522687978000,"departureDelay":0,"arrivalDelay":0,"realTime":false,"distance":164.072,"pathway":false,"mode":"WALK","route":"","agencyTimeZoneOffset":-14400000,"interlineWithPreviousLeg":false,"from":{"name":"Origin","lon":-71.11207299,"lat":48.306449,"departure":1522687848000,"orig":"","vertexType":"NORMAL"},"to":{"name":"Notre-Dame / Gauthier","stopId":"1:1737","stopCode":"1737","lon":-71.110501,"lat":48.307493,"arrival":1522687978000,"departure":1522687979000,"zoneId":"NA","stopIndex":13,"stopSequence":14,"vertexType":"TRANSIT"},"legGeometry":{"points":"mzyeHfa`qLEFwDcGOWGM","length":5},"rentedBike":false,"transitLeg":false,"duration":130.0,"steps":[{"distance":4.041,"relativeDirection":"DEPART","streetName":"Rue du Boulevard","absoluteDirection":"NORTHWEST","stayOn":false,"area":false,"bogusName":false,"lon":-71.11203335016066,"lat":48.306479015095846,"elevation":[]},{"distance":160.031,"relativeDirection":"RIGHT","streetName":"Rue Notre-Dame","absoluteDirection":"NORTHEAST","stayOn":false,"area":false,"bogusName":false,"lon":-71.1120744,"lat":48.306503000000006,"elevation":[]}]},{"startTime":1522687979000,"endTime":1522689000000,"departureDelay":0,"arrivalDelay":0,"realTime":false,"distance":10677.93000402605,"pathway":false,"mode":"BUS","route":"60","agencyName":"Société de Transport du Saguenay","agencyUrl":"http://ville.saguenay.ca/fr/services-aux-citoyens/transport-sts","agencyTimeZoneOffset":-14400000,"routeColor":"00FFFF","routeType":3,"routeId":"1:60","routeTextColor":"000000","interlineWithPreviousLeg":false,"tripBlockId":"73","headsign":"Costco","agencyId":"0","tripId":"1:218620","serviceDate":"20180402","from":{"name":"Notre-Dame / Gauthier","stopId":"1:1737","stopCode":"1737","lon":-71.110501,"lat":48.307493,"arrival":1522687978000,"departure":1522687979000,"zoneId":"NA","stopIndex":13,"stopSequence":14,"vertexType":"TRANSIT"},"to":{"name":"COSTCO","stopId":"1:1710","stopCode":"1710","lon":-71.085767,"lat":48.382333,"arrival":1522689000000,"departure":1522689300000,"zoneId":"NA","stopIndex":29,"stopSequence":30,"vertexType":"TRANSIT"},"legGeometry":{"points":"aazeHbx_qLkF{IyAwDSe@U_@o@eAkDwDoF}Fa@u@iIeQ}Qi`@_@s@a@y@}@_D_Im]y@eCgCwGsDyI]}@_@y@Sc@QSW[mBuAk@Y_@KiAe@a_@_KsUsEcAg@a@YEEcFyFsUsWmB_CqB_CeFoGmAuBi@oAEKiAsBsA{A_As@gEeCy@k@iBkBgGuG[Ya@_@qFuEg@e@qAeB{BcDq@{@iAsAgYc[qJkKyN{Ok@o@{BoAc@Sm@lBcFzO}@rB}@bBcCxCsAjAcAr@eClAsJdEoF~BsJdEsJbE@D_VpLiDtAqA\\cAp@[XY^O^Mb@Ij@Er@CtAE~@I~@Kj@Od@_e@rkAUReFdMIXyCtHwBcC","length":95},"routeShortName":"60","routeLongName":"Portage des Roches Nord","rentedBike":false,"transitLeg":true,"duration":1021.0,"steps":[]},{"startTime":1522689300000,"endTime":1522690800000,"departureDelay":0,"arrivalDelay":0,"realTime":false,"distance":7720.38554651896,"pathway":false,"mode":"BUS","route":"175","agencyName":"Société de Transport du Saguenay","agencyUrl":"http://ville.saguenay.ca/fr/services-aux-citoyens/transport-sts","agencyTimeZoneOffset":-14400000,"routeColor":"FF00FF","routeType":3,"routeId":"1:175","routeTextColor":"FFFFFF","interlineWithPreviousLeg":false,"tripBlockId":"9","headsign":"Terminus Chicoutimi","agencyId":"0","tripId":"1:217405","serviceDate":"20180402","from":{"name":"COSTCO","stopId":"1:1710","stopCode":"1710","lon":-71.085767,"lat":48.382333,"arrival":1522689000000,"departure":1522689300000,"zoneId":"NA","stopIndex":0,"stopSequence":1,"vertexType":"TRANSIT"},"to":{"name":"Terminus Chicoutimi","stopId":"1:1289","stopCode":"1289","lon":-71.066163,"lat":48.428677,"arrival":1522690800000,"departure":1522691100000,"zoneId":"NA","stopIndex":27,"stopSequence":28,"vertexType":"TRANSIT"},"legGeometry":{"points":"euhfHt|zpL_BiBsCoDwCqDrCsGN_@uEoFoEiFUWSUqCwC]a@{ByC{@cAkJuKoAwA_CeCeExJ~AlB`@mAu@k@}@q@|C}Iw@}@aO_QkEsEiAoAgEsFkFsHqJ_N}FkImPkOuO{N_U_TcNgNcBcB{E`Jc@x@qG~@{BlAk@XgSrQqB_GAeFiEeEOt@gAeA_A_ATm@yAwAgBeBqDnL@nBF`@f@|C[dCuAfB]xAs@OmCmCmEkE]a@g@i@ZiGTmEl@oLaEe@cFk@?pH?tJDvBPjMB~Bo@PQDRbFKdGMhIOvIK|EQpHoCQEdC","length":83},"routeShortName":"175","routeLongName":"Term. Chic / Costco","rentedBike":false,"transitLeg":true,"duration":1500.0,"steps":[]},{"startTime":1522691100000,"endTime":1522691760000,"departureDelay":0,"arrivalDelay":0,"realTime":false,"distance":3237.878915799595,"pathway":false,"mode":"BUS","route":"11","agencyName":"Société de Transport du Saguenay","agencyUrl":"http://ville.saguenay.ca/fr/services-aux-citoyens/transport-sts","agencyTimeZoneOffset":-14400000,"routeColor":"FF0000","routeType":3,"routeId":"1:11","routeTextColor":"FFFFFF","interlineWithPreviousLeg":false,"tripBlockId":"35","headsign":"Boul.Royaume/St-Pierre","agencyId":"0","tripId":"1:218256","serviceDate":"20180402","from":{"name":"Terminus Chicoutimi","stopId":"1:1289","stopCode":"1289","lon":-71.066163,"lat":48.428677,"arrival":1522690800000,"departure":1522691100000,"zoneId":"NA","stopIndex":0,"stopSequence":1,"vertexType":"TRANSIT"},"to":{"name":"boul. St-Paul / Descartes","stopId":"1:467","stopCode":"467","lon":-71.092615,"lat":48.408095,"arrival":1522691760000,"departure":1522691761000,"zoneId":"NA","stopIndex":14,"stopSequence":15,"vertexType":"TRANSIT"},"legGeometry":{"points":"evqfHzcwpLk@?UhKfIh@dKp@GnDIfDOtEE~@Ff@x@rEF~@CbAALO~ADRNJXBr@DfGRPBPJLN@@FPFTBX?TE`BhBR@?J@NELKFOlAiDL[bA`AfIjIbGdGzDzD`A~An@`ApApBpClEvJrOR\\bAfBLa@t@]LjAVvAVbAVv@^bAXj@b@t@xEtGh@r@n@x@FDjA|AlBpCnJ|NNT","length":65},"routeShortName":"11","routeLongName":"Chic/Faubourg via St-Paul","rentedBike":false,"transitLeg":true,"duration":660.0,"steps":[]},{"startTime":1522691761000,"endTime":1522692110000,"departureDelay":0,"arrivalDelay":0,"realTime":false,"distance":446.25300000000004,"pathway":false,"mode":"WALK","route":"","agencyTimeZoneOffset":-14400000,"interlineWithPreviousLeg":false,"from":{"name":"boul. St-Paul / Descartes","stopId":"1:467","stopCode":"467","lon":-71.092615,"lat":48.408095,"arrival":1522691760000,"departure":1522691761000,"zoneId":"NA","stopIndex":14,"stopSequence":15,"vertexType":"TRANSIT"},"to":{"name":"Destination","lon":-71.095171,"lat":48.410342,"arrival":1522692110000,"orig":"","vertexType":"NORMAL"},"legGeometry":{"points":"{tmfHtf|pLn@~@NT}AfDsAtCq@_@q@[iA}@aB|Cw@hC","length":10},"rentedBike":false,"transitLeg":false,"duration":349.0,"steps":[{"distance":47.28,"relativeDirection":"DEPART","streetName":"Boulevard Saint-Paul","absoluteDirection":"SOUTHWEST","stayOn":false,"area":false,"bogusName":false,"lon":-71.09242610294163,"lat":48.40798176833643,"elevation":[]},{"distance":153.429,"relativeDirection":"RIGHT","streetName":"Rue Descartes","absoluteDirection":"NORTHWEST","stayOn":false,"area":false,"bogusName":false,"lon":-71.0928554,"lat":48.4076662,"elevation":[]},{"distance":106.305,"relativeDirection":"RIGHT","streetName":"Rue de l'Estacade","absoluteDirection":"NORTH","stayOn":false,"area":false,"bogusName":false,"lon":-71.0944442,"lat":48.4085559,"elevation":[]},{"distance":139.239,"relativeDirection":"LEFT","streetName":"Rue des Presses","absoluteDirection":"NORTHWEST","stayOn":false,"area":false,"bogusName":false,"lon":-71.09383670000001,"lat":48.409420000000004,"elevation":[]}]}],"tooSloped":false},{"duration":4759,"startTime":1522700089000,"endTime":1522704848000,"walkTime":472,"transitTime":2644,"waitingTime":1643,"walkDistance":604.9038646585609,"walkLimitExceeded":false,"elevationLost":0.0,"elevationGained":0.0,"transfers":1,"legs":[{"startTime":1522700089000,"endTime":1522700219000,"departureDelay":0,"arrivalDelay":0,"realTime":false,"distance":164.072,"pathway":false,"mode":"WALK","route":"","agencyTimeZoneOffset":-14400000,"interlineWithPreviousLeg":false,"from":{"name":"Origin","lon":-71.11207299,"lat":48.306449,"departure":1522700089000,"orig":"","vertexType":"NORMAL"},"to":{"name":"Notre-Dame / Gauthier","stopId":"1:1737","stopCode":"1737","lon":-71.110501,"lat":48.307493,"arrival":1522700219000,"departure":1522700220000,"zoneId":"NA","stopIndex":14,"stopSequence":15,"vertexType":"TRANSIT"},"legGeometry":{"points":"mzyeHfa`qLEFwDcGOWGM","length":5},"rentedBike":false,"transitLeg":false,"duration":130.0,"steps":[{"distance":4.041,"relativeDirection":"DEPART","streetName":"Rue du Boulevard","absoluteDirection":"NORTHWEST","stayOn":false,"area":false,"bogusName":false,"lon":-71.11203335016066,"lat":48.306479015095846,"elevation":[]},{"distance":160.031,"relativeDirection":"RIGHT","streetName":"Rue Notre-Dame","absoluteDirection":"NORTHEAST","stayOn":false,"area":false,"bogusName":false,"lon":-71.1120744,"lat":48.306503000000006,"elevation":[]}]},{"startTime":1522700220000,"endTime":1522701240000,"departureDelay":0,"arrivalDelay":0,"realTime":false,"distance":10677.93000402605,"pathway":false,"mode":"BUS","route":"62","agencyName":"Société de Transport du Saguenay","agencyUrl":"http://ville.saguenay.ca/fr/services-aux-citoyens/transport-sts","agencyTimeZoneOffset":-14400000,"routeColor":"00FFFF","routeType":3,"routeId":"1:62","routeTextColor":"000000","interlineWithPreviousLeg":false,"tripBlockId":"107","headsign":"Costco","agencyId":"0","tripId":"1:218822","serviceDate":"20180402","from":{"name":"Notre-Dame / Gauthier","stopId":"1:1737","stopCode":"1737","lon":-71.110501,"lat":48.307493,"arrival":1522700219000,"departure":1522700220000,"zoneId":"NA","stopIndex":14,"stopSequence":15,"vertexType":"TRANSIT"},"to":{"name":"COSTCO","stopId":"1:1710","stopCode":"1710","lon":-71.085767,"lat":48.382333,"arrival":1522701240000,"departure":1522701600000,"zoneId":"NA","stopIndex":30,"stopSequence":31,"vertexType":"TRANSIT"},"legGeometry":{"points":"aazeHbx_qLkF{IyAwDSe@U_@o@eAkDwDoF}Fa@u@iIeQ}Qi`@_@s@a@y@}@_D_Im]y@eCgCwGsDyI]}@_@y@Sc@QSW[mBuAk@Y_@KiAe@a_@_KsUsEcAg@a@YEEcFyFsUsWmB_CqB_CeFoGmAuBi@oAEKiAsBsA{A_As@gEeCy@k@iBkBgGuG[Ya@_@qFuEg@e@qAeB{BcDq@{@iAsAgYc[qJkKyN{Ok@o@{BoAc@Sm@lBcFzO}@rB}@bBcCxCsAjAcAr@eClAsJdEoF~BsJdEsJbEAC{TpJmHjCiEhAHz@d@pGE~@I~@Kj@Od@_e@rkAUReFdMIXyCtHwBcC","length":89},"routeShortName":"62","routeLongName":"Portage des Roches Sud","rentedBike":false,"transitLeg":true,"duration":1020.0,"steps":[]},{"startTime":1522701600000,"endTime":1522701840000,"departureDelay":0,"arrivalDelay":0,"realTime":false,"distance":2271.403230666254,"pathway":false,"mode":"BUS","route":"60","agencyName":"Société de Transport du Saguenay","agencyUrl":"http://ville.saguenay.ca/fr/services-aux-citoyens/transport-sts","agencyTimeZoneOffset":-14400000,"routeColor":"00FFFF","routeType":3,"routeId":"1:60","routeTextColor":"000000","interlineWithPreviousLeg":true,"tripBlockId":"107","headsign":"chemin Portageurs","agencyId":"0","tripId":"1:218823","serviceDate":"20180402","from":{"name":"COSTCO","stopId":"1:1710","stopCode":"1710","lon":-71.085767,"lat":48.382333,"arrival":1522701240000,"departure":1522701600000,"zoneId":"NA","stopIndex":0,"stopSequence":1,"vertexType":"TRANSIT"},"to":{"name":"St-Paul / boul. Royaume","stopId":"1:1607","stopCode":"1607","lon":-71.115594,"lat":48.387321,"arrival":1522701840000,"departure":1522701840000,"zoneId":"NA","stopIndex":1,"stopSequence":2,"vertexType":"TRANSIT"},"legGeometry":{"points":"uthfHh}zpLoB}Bs@`BjChDZbB`@x@iDvI}@fC_AvC[jAi@`CUbBUxBUdCIlD]to@K`IEt@ElBQlEMrBWvDa@jEq@nFa@rC_AnFi@bCo@pCiAbEyCdJNZPT","length":32},"routeShortName":"60","routeLongName":"Portage des Roches Nord","rentedBike":false,"transitLeg":true,"duration":240.0,"steps":[]},{"startTime":1522701840000,"endTime":1522701935000,"departureDelay":0,"arrivalDelay":0,"realTime":false,"distance":123.147,"pathway":false,"mode":"WALK","route":"","agencyTimeZoneOffset":-14400000,"interlineWithPreviousLeg":false,"from":{"name":"St-Paul / boul. Royaume","stopId":"1:1607","stopCode":"1607","lon":-71.115594,"lat":48.387321,"arrival":1522701840000,"departure":1522701840000,"zoneId":"NA","stopIndex":1,"stopSequence":2,"vertexType":"TRANSIT"},"to":{"name":"boul. St-Paul (no. 2315)","stopId":"1:35","stopCode":"35","lon":-71.114414,"lat":48.388104,"arrival":1522701935000,"departure":1522703576000,"zoneId":"NA","stopIndex":4,"stopSequence":5,"vertexType":"TRANSIT"},"legGeometry":{"points":"gtifHzv`qL@EHUMc@oCiC","length":5},"rentedBike":false,"transitLeg":false,"duration":95.0,"steps":[{"distance":12.721,"relativeDirection":"DEPART","streetName":"Boulevard du Royaume Ouest","absoluteDirection":"SOUTHEAST","stayOn":false,"area":false,"bogusName":false,"lon":-71.11549227863343,"lat":48.38740979253505,"elevation":[]},{"distance":110.426,"relativeDirection":"LEFT","streetName":"Boulevard Saint-Paul","absoluteDirection":"NORTHEAST","stayOn":false,"area":false,"bogusName":false,"lon":-71.1153551,"lat":48.3873406,"elevation":[]}]},{"startTime":1522703576000,"endTime":1522704600000,"departureDelay":0,"arrivalDelay":0,"realTime":false,"distance":3734.738124418249,"pathway":false,"mode":"BUS","route":"11","agencyName":"Société de Transport du Saguenay","agencyUrl":"http://ville.saguenay.ca/fr/services-aux-citoyens/transport-sts","agencyTimeZoneOffset":-14400000,"routeColor":"FF0000","routeType":3,"routeId":"1:11","routeTextColor":"FFFFFF","interlineWithPreviousLeg":false,"tripBlockId":"34","headsign":"Terminus Chicoutimi","agencyId":"0","tripId":"1:218228","serviceDate":"20180402","from":{"name":"boul. St-Paul (no. 2315)","stopId":"1:35","stopCode":"35","lon":-71.114414,"lat":48.388104,"arrival":1522701935000,"departure":1522703576000,"zoneId":"NA","stopIndex":4,"stopSequence":5,"vertexType":"TRANSIT"},"to":{"name":"Descartes / Estacade","stopId":"1:1889","stopCode":"1889","lon":-71.093786,"lat":48.408069,"arrival":1522704600000,"departure":1522704601000,"zoneId":"NA","stopIndex":15,"stopSequence":16,"vertexType":"TRANSIT"},"legGeometry":{"points":"yxifHpp`qLiMqLKIsFyFMQ}AuBuCgEmGaISV[|@Qj@K`@AFSlAYvBc@nCi@lCyE`T}@dEoLxh@GLIHI@KAgN{IhHu[p@aCjDyJfQie@`AmCJ[kXi[gKsLqMgOmAbDAVSl@y@vBeCuCoCaDkDuE_@g@{FwGOMnA}C","length":45},"routeShortName":"11","routeLongName":"Chic/Faubourg via St-Paul","rentedBike":false,"transitLeg":true,"duration":1024.0,"steps":[]},{"startTime":1522704601000,"endTime":1522704848000,"departureDelay":0,"arrivalDelay":0,"realTime":false,"distance":317.58900000000006,"pathway":false,"mode":"WALK","route":"","agencyTimeZoneOffset":-14400000,"interlineWithPreviousLeg":false,"from":{"name":"Descartes / Estacade","stopId":"1:1889","stopCode":"1889","lon":-71.093786,"lat":48.408069,"arrival":1522704600000,"departure":1522704601000,"zoneId":"NA","stopIndex":15,"stopSequence":16,"vertexType":"TRANSIT"},"to":{"name":"Destination","lon":-71.095171,"lat":48.410342,"arrival":1522704848000,"orig":"","vertexType":"NORMAL"},"legGeometry":{"points":"yumfHrn|pLsAtCq@_@q@[iA}@aB|Cw@hC","length":7},"rentedBike":false,"transitLeg":false,"duration":247.0,"steps":[{"distance":72.045,"relativeDirection":"DEPART","streetName":"Rue Descartes","absoluteDirection":"NORTHWEST","stayOn":false,"area":false,"bogusName":false,"lon":-71.09369815391963,"lat":48.40813812734284,"elevation":[]},{"distance":106.305,"relativeDirection":"RIGHT","streetName":"Rue de l'Estacade","absoluteDirection":"NORTH","stayOn":false,"area":false,"bogusName":false,"lon":-71.0944442,"lat":48.4085559,"elevation":[]},{"distance":139.239,"relativeDirection":"LEFT","streetName":"Rue des Presses","absoluteDirection":"NORTHWEST","stayOn":false,"area":false,"bogusName":false,"lon":-71.09383670000001,"lat":48.409420000000004,"elevation":[]}]}],"tooSloped":false}]},"debugOutput":{"precalculationTime":10,"pathCalculationTime":22,"pathTimes":[7,12,3],"renderingTime":0,"totalTime":32,"timedOut":false},"elevationMetadata":{"ellipsoidToGeoidDifference":-28.885904201182168,"geoidElevation":false}}