{"requestParameters":{"date":"2018/04/02","walkSpeed":"1.33","walkReluctance":"2.0","fromPlace":"48.440318,-71.07761499","maxWalkDistance":"3000","waitReluctance":"1.0","carSpeed":"33","numItineraries":"3","waitAtBeginningFactor":"0.4","mode":"TRANSIT,WALK","ignoreRealtimeUpdates":"false","stairsReluctance":"2.0","toPlace":"48.418729,-71.053021","time":"16:0:00"},"plan":{"date":1522699200000,"from":{"name":"Origin","lon":-71.07761499,"lat":48.440318,"orig":"","vertexType":"NORMAL"},"to":{"name":"Destination","lon":-71.053021,"lat":48.418729,"orig":"","vertexType":"NORMAL"},"itineraries":[{"duration":1427,"startTime":1522699371000,"endTime":1522700798000,"walkTime":405,"transitTime":720,"waitingTime":302,"walkDistance":510.4796390943357,"walkLimitExceeded":false,"elevationLost":0.0,"elevationGained":0.0,"transfers":1,"legs":[{"startTime":1522699371000,"endTime":1522699499000,"departureDelay":0,"arrivalDelay":0,"realTime":false,"distance":161.855,"pathway":false,"mode":"WALK","route":"","agencyTimeZoneOffset":-14400000,"interlineWithPreviousLeg":false,"from":{"name":"Origin","lon":-71.07761499,"lat":48.440318,"departure":1522699371000,"orig":"","vertexType":"NORMAL"},"to":{"name":"Église Sainte-Anne (Roussel / Fabrique)","stopId":"1:701","stopCode":"701","lon":-71.078824,"lat":48.439832,"arrival":1522699499000,"departure":1522699500000,"zoneId":"NA","stopIndex":26,"stopSequence":27,"vertexType":"TRANSIT"},"legGeometry":{"points":"k}sfHtgypL~@|Ax@vAEJWb@[Z]h@","length":7},"rentedBike":false,"transitLeg":false,"duration":128.0,"steps":[{"distance":96.106,"relativeDirection":"DEPART","streetName":"Rue Saint-Calixte","absoluteDirection":"SOUTHWEST","stayOn":false,"area":false,"bogusName":false,"lon":-71.07722592641467,"lat":48.440067962211344,"elevation":[]},{"distance":65.749,"relativeDirection":"RIGHT","streetName":"Rue Roussel","absoluteDirection":"NORTHWEST","stayOn":false,"area":false,"bogusName":false,"lon":-71.07813920000001,"lat":48.439451600000005,"elevation":[]}]},{"startTime":1522699500000,"endTime":1522699800000,"departureDelay":0,"arrivalDelay":0,"realTime":false,"distance":2541.017793097814,"pathway":false,"mode":"BUS","route":"20","agencyName":"Société de Transport du Saguenay","agencyUrl":"http://ville.saguenay.ca/fr/services-aux-citoyens/transport-sts","agencyTimeZoneOffset":-14400000,"routeColor":"0000FF","routeType":3,"routeId":"1:20","routeTextColor":"FFFFFF","interlineWithPreviousLeg":false,"tripBlockId":"3","headsign":"Terminus Chicoutimi","agencyId":"0","tripId":"1:217205","serviceDate":"20180402","from":{"name":"Église Sainte-Anne (Roussel / Fabrique)","stopId":"1:701","stopCode":"701","lon":-71.078824,"lat":48.439832,"arrival":1522699499000,"departure":1522699500000,"zoneId":"NA","stopIndex":26,"stopSequence":27,"vertexType":"TRANSIT"},"to":{"name":"Terminus Chicoutimi","stopId":"1:1289","stopCode":"1289","lon":-71.066163,"lat":48.428677,"arrival":1522699800000,"departure":1522700100000,"zoneId":"NA","stopIndex":31,"stopSequence":32,"vertexType":"TRANSIT"},"legGeometry":{"points":"e|sfHdqypL^i@p@kAVc@\\cAr@eBv@aB|B_CJSDKLe@NeAJaAHeBBi@F{AaFe@c@IcDeAWtBOfAERGLIHIFMBa@NOQSOUGOCW?UFMHa@XUHQ?QIQOIM[g@rCmFhHqN~@eBr@cAt@_Av@}@RQPMz@k@tAe@REZG^Af@@X@VF`@Jn@XbClAr@Xt\\`PrAb@pA^hBTjAFj@Pb@JPHLLJNJRFXDT?X?ZEVEVKTMNMHMFOB}DWSGOSYcAN}FFkAF}DJyDPwGj@_QjAN~ALIpBGVITe@@","length":99},"routeShortName":"20","routeLongName":"Sainte-Claire","rentedBike":false,"transitLeg":true,"duration":300.0,"steps":[]},{"startTime":1522700100000,"endTime":1522700520000,"departureDelay":0,"arrivalDelay":0,"realTime":false,"distance":1625.306231263697,"pathway":false,"mode":"BUS","route":"15","agencyName":"Société de Transport du Saguenay","agencyUrl":"http://ville.saguenay.ca/fr/services-aux-citoyens/transport-sts","agencyTimeZoneOffset":-14400000,"routeColor":"FF00FF","routeType":3,"routeId":"1:15","routeTextColor":"FFFFFF","interlineWithPreviousLeg":false,"tripBlockId":"33","headsign":"Talbot / Barrette","agencyId":"0","tripId":"1:218191","serviceDate":"20180402","from":{"name":"Terminus Chicoutimi","stopId":"1:1289","stopCode":"1289","lon":-71.066163,"lat":48.428677,"arrival":1522699800000,"departure":1522700100000,"zoneId":"NA","stopIndex":0,"stopSequence":1,"vertexType":"TRANSIT"},"to":{"name":"Terminus UQAC","stopId":"1:1670","stopCode":"1670","lon":-71.053369,"lat":48.420903,"arrival":1522700520000,"departure":1522700521000,"zoneId":"NA","stopIndex":7,"stopSequence":8,"vertexType":"TRANSIT"},"legGeometry":{"points":"evqfHpbwpLPiCjKx@HiEZkS\\aSN_K^eIrBpBvIpIr@r@\\mBfAaA`@gBOkB_@uF|DyL|DpDQ|@|@z@","length":20},"routeShortName":"15","routeLongName":"Term. Chic / Costco","rentedBike":false,"transitLeg":true,"duration":420.0,"steps":[]},{"startTime":1522700521000,"endTime":1522700798000,"departureDelay":0,"arrivalDelay":0,"realTime":false,"distance":348.51900000000006,"pathway":false,"mode":"WALK","route":"","agencyTimeZoneOffset":-14400000,"interlineWithPreviousLeg":false,"from":{"name":"Terminus UQAC","stopId":"1:1670","stopCode":"1670","lon":-71.053369,"lat":48.420903,"arrival":1522700520000,"departure":1522700521000,"zoneId":"NA","stopIndex":7,"stopSequence":8,"vertexType":"TRANSIT"},"to":{"name":"Destination","lon":-71.053021,"lat":48.418729,"arrival":1522700798000,"orig":"","vertexType":"NORMAL"},"legGeometry":{"points":"sepfHrrtpLbA`ATq@f@wAd@wATs@X{@p@Y~@`AB@vBtB","length":11},"rentedBike":false,"transitLeg":false,"duration":277.0,"steps":[{"distance":269.46700000000004,"relativeDirection":"DEPART","streetName":"service road","absoluteDirection":"SOUTHWEST","stayOn":false,"area":false,"bogusName":true,"lon":-71.0533724395415,"lat":48.420904465432976,"elevation":[]},{"distance":79.052,"relativeDirection":"CONTINUE","streetName":"path","absoluteDirection":"SOUTHWEST","stayOn":false,"area":false,"bogusName":false,"lon":-71.05222810000001,"lat":48.41923430000001,"elevation":[]}]}],"tooSloped":false},{"duration":1427,"startTime":1522701171000,"endTime":1522702598000,"walkTime":405,"transitTime":720,"waitingTime":302,"walkDistance":510.4796390943357,"walkLimitExceeded":false,"elevationLost":0.0,"elevationGained":0.0,"transfers":1,"legs":[{"startTime":1522701171000,"endTime":1522701299000,"departureDelay":0,"arrivalDelay":0,"realTime":false,"distance":161.855,"pathway":false,"mode":"WALK","route":"","agencyTimeZoneOffset":-14400000,"interlineWithPreviousLeg":false,"from":{"name":"Origin","lon":-71.07761499,"lat":48.440318,"departure":1522701171000,"orig":"","vertexType":"NORMAL"},"to":{"name":"Église Sainte-Anne (Roussel / Fabrique)","stopId":"1:701","stopCode":"701","lon":-71.078824,"lat":48.439832,"arrival":1522701299000,"departure":1522701300000,"zoneId":"NA","stopIndex":26,"stopSequence":27,"vertexType":"TRANSIT"},"legGeometry":{"points":"k}sfHtgypL~@|Ax@vAEJWb@[Z]h@","length":7},"rentedBike":false,"transitLeg":false,"duration":128.0,"steps":[{"distance":96.106,"relativeDirection":"DEPART","streetName":"Rue Saint-Calixte","absoluteDirection":"SOUTHWEST","stayOn":false,"area":false,"bogusName":false,"lon":-71.07722592641467,"lat":48.440067962211344,"elevation":[]},{"distance":65.749,"relativeDirection":"RIGHT","streetName":"Rue Roussel","absoluteDirection":"NORTHWEST","stayOn":false,"area":false,"bogusName":false,"lon":-71.07813920000001,"lat":48.439451600000005,"elevation":[]}]},{"startTime":1522701300000,"endTime":1522701600000,"departureDelay":0,"arrivalDelay":0,"realTime":false,"distance":2541.017793097814,"pathway":false,"mode":"BUS","route":"20","agencyName":"Société de Transport du Saguenay","agencyUrl":"http://ville.saguenay.ca/fr/services-aux-citoyens/transport-sts","agencyTimeZoneOffset":-14400000,"routeColor":"0000FF","routeType":3,"routeId":"1:20","routeTextColor":"FFFFFF","interlineWithPreviousLeg":false,"tripBlockId":"1","headsign":"Terminus Chicoutimi","agencyId":"0","tripId":"1:217149","serviceDate":"20180402","from":{"name":"Église Sainte-Anne (Roussel / Fabrique)","stopId":"1:701","stopCode":"701","lon":-71.078824,"lat":48.439832,"arrival":1522701299000,"departure":1522701300000,"zoneId":"NA","stopIndex":26,"stopSequence":27,"vertexType":"TRANSIT"},"to":{"name":"Terminus Chicoutimi","stopId":"1:1289","stopCode":"1289","lon":-71.066163,"lat":48.428677,"arrival":1522701600000,"departure":1522701900000,"zoneId":"NA","stopIndex":31,"stopSequence":32,"vertexType":"TRANSIT"},"legGeometry":{"points":"e|sfHdqypL^i@p@kAVc@\\cAr@eBv@aB|B_CJSDKLe@NeAJaAHeBBi@F{AaFe@c@IcDeAWtBOfAERGLIHIFMBa@NOQSOUGOCW?UFMHa@XUHQ?QIQOIM[g@rCmFhHqN~@eBr@cAt@_Av@}@RQPMz@k@tAe@REZG^Af@@X@VF`@Jn@XbClAr@Xt\\`PrAb@pA^hBTjAFj@Pb@JPHLLJNJRFXDT?X?ZEVEVKTMNMHMFOB}DWSGOSYcAN}FFkAF}DJyDPwGj@_QjAN~ALIpBGVITe@@","length":99},"routeShortName":"20","routeLongName":"Sainte-Claire","rentedBike":false,"transitLeg":true,"duration":300.0,"steps":[]},{"startTime":1522701900000,"endTime":1522702320000,"departureDelay":0,"arrivalDelay":0,"realTime":false,"distance":1625.306231263697,"pathway":false,"mode":"BUS","route":"15","agencyName":"Société de Transport du Saguenay","agencyUrl":"http://ville.saguenay.ca/fr/services-aux-citoyens/transport-sts","agencyTimeZoneOffset":-14400000,"routeColor":"FF00FF","routeType":3,"routeId":"1:15","routeTextColor":"FFFFFF","interlineWithPreviousLeg":false,"tripBlockId":"31","headsign":"Talbot / Barrette","agencyId":"0","tripId":"1:218142","serviceDate":"20180402","from":{"name":"Terminus Chicoutimi","stopId":"1:1289","stopCode":"1289","lon":-71.066163,"lat":48.428677,"arrival":1522701600000,"departure":1522701900000,"zoneId":"NA","stopIndex":0,"stopSequence":1,"vertexType":"TRANSIT"},"to":{"name":"Terminus UQAC","stopId":"1:1670","stopCode":"1670","lon":-71.053369,"lat":48.420903,"arrival":1522702320000,"departure":1522702321000,"zoneId":"NA","stopIndex":7,"stopSequence":8,"vertexType":"TRANSIT"},"legGeometry":{"points":"evqfHpbwpLPiCjKx@HiEZkS\\aSN_K^eIrBpBvIpIr@r@\\mBfAaA`@gBOkB_@uF|DyL|DpDQ|@|@z@","length":20},"routeShortName":"15","routeLongName":"Term. Chic / Costco","rentedBike":false,"transitLeg":true,"duration":420.0,"steps":[]},{"startTime":1522702321000,"endTime":1522702598000,"departureDelay":0,"arrivalDelay":0,"realTime":false,"distance":348.51900000000006,"pathway":false,"mode":"WALK","route":"","agencyTimeZoneOffset":-14400000,"interlineWithPreviousLeg":false,"from":{"name":"Terminus UQAC","stopId":"1:1670","stopCode":"1670","lon":-71.053369,"lat":48.420903,"arrival":1522702320000,"departure":1522702321000,"zoneId":"NA","stopIndex":7,"stopSequence":8,"vertexType":"TRANSIT"},"to":{"name":"Destination","lon":-71.053021,"lat":48.418729,"arrival":1522702598000,"orig":"","vertexType":"NORMAL"},"legGeometry":{"points":"sepfHrrtpLbA`ATq@f@wAd@wATs@X{@p@Y~@`AB@vBtB","length":11},"rentedBike":false,"transitLeg":false,"duration":277.0,"steps":[{"distance":269.46700000000004,"relativeDirection":"DEPART","streetName":"service road","absoluteDirection":"SOUTHWEST","stayOn":false,"area":false,"bogusName":true,"lon":-71.0533724395415,"lat":48.420904465432976,"elevation":[]},{"distance":79.052,"relativeDirection":"CONTINUE","streetName":"path","absoluteDirection":"SOUTHWEST","stayOn":false,"area":false,"bogusName":false,"lon":-71.05222810000001,"lat":48.41923430000001,"elevation":[]}]}],"tooSloped":false},{"duration":1671,"startTime":1522700927000,"endTime":1522702598000,"walkTime":709,"transitTime":660,"waitingTime":302,"walkDistance":899.9255714228098,"walkLimitExceeded":false,"elevationLost":0.0,"elevationGained":0.0,"transfers":1,"legs":[{"startTime":1522700927000,"endTime":1522701359000,"departureDelay":0,"arrivalDelay":0,"realTime":false,"distance":551.2280000000001,"pathway":false,"mode":"WALK","route":"","agencyTimeZoneOffset":-14400000,"interlineWithPreviousLeg":false,"from":{"name":"Origin","lon":-71.07761499,"lat":48.440318,"departure":1522700927000,"orig":"","vertexType":"NORMAL"},"to":{"name":"boul. Ste-Geneviève (no. 453)","stopId":"1:736","stopCode":"736","lon":-71.0749,"lat":48.4422,"arrival":1522701359000,"departure":1522701360000,"zoneId":"NA","stopIndex":32,"stopSequence":33,"vertexType":"TRANSIT"},"legGeometry":{"points":"k}sfHtgypLGK?M@MDKzAqAbAi@][II_AwAGOO[Uc@KUOe@{@cCQE{@OcAn@o@F[MMO_@c@sAhC","length":24},"rentedBike":false,"transitLeg":false,"duration":432.0,"steps":[{"distance":11.471,"relativeDirection":"DEPART","streetName":"Rue Saint-Calixte","absoluteDirection":"EAST","stayOn":false,"area":false,"bogusName":false,"lon":-71.07722592641467,"lat":48.440067962211344,"elevation":[]},{"distance":110.843,"relativeDirection":"RIGHT","streetName":"Rue Frontenac","absoluteDirection":"EAST","stayOn":false,"area":false,"bogusName":false,"lon":-71.0770979,"lat":48.4401002,"elevation":[]},{"distance":360.163,"relativeDirection":"HARD_LEFT","streetName":"Rue des Champs","absoluteDirection":"NORTHEAST","stayOn":false,"area":false,"bogusName":false,"lon":-71.0763494,"lat":48.4392658,"elevation":[]},{"distance":68.751,"relativeDirection":"LEFT","streetName":"Boulevard Sainte-Geneviève","absoluteDirection":"NORTHWEST","stayOn":false,"area":false,"bogusName":false,"lon":-71.07419630000001,"lat":48.441794200000004,"elevation":[]}]},{"startTime":1522701360000,"endTime":1522701600000,"departureDelay":0,"arrivalDelay":0,"realTime":false,"distance":1742.5227930095011,"pathway":false,"mode":"BUS","route":"21","agencyName":"Société de Transport du Saguenay","agencyUrl":"http://ville.saguenay.ca/fr/services-aux-citoyens/transport-sts","agencyTimeZoneOffset":-14400000,"routeColor":"556B2F","routeType":3,"routeId":"1:21","routeTextColor":"FFFFFF","interlineWithPreviousLeg":false,"tripBlockId":"2","headsign":"Terminus Chicoutimi","agencyId":"0","tripId":"1:217175","serviceDate":"20180402","from":{"name":"boul. Ste-Geneviève (no. 453)","stopId":"1:736","stopCode":"736","lon":-71.0749,"lat":48.4422,"arrival":1522701359000,"departure":1522701360000,"zoneId":"NA","stopIndex":32,"stopSequence":33,"vertexType":"TRANSIT"},"to":{"name":"Terminus Chicoutimi","stopId":"1:1289","stopCode":"1289","lon":-71.066163,"lat":48.428677,"arrival":1522701600000,"departure":1522701900000,"zoneId":"NA","stopIndex":34,"stopSequence":35,"vertexType":"TRANSIT"},"legGeometry":{"points":"yjtfH`yxpLxAsCrCmFhHqN~@eBr@cAt@_Av@}@RQPMz@k@tAe@REZG^Af@@X@VF`@Jn@XbClAr@Xt\\`PrAb@pA^hBTjAFj@Pb@JPHLLJNJRFXDT?X?ZEVEVKTMNMHMFOB}DWSGOSYcAN}FFkAF}DJyDPwGvAHVyL","length":55},"routeShortName":"21","routeLongName":"Boul. Ste-Geneviève/Élie","rentedBike":false,"transitLeg":true,"duration":240.0,"steps":[]},{"startTime":1522701900000,"endTime":1522702320000,"departureDelay":0,"arrivalDelay":0,"realTime":false,"distance":1729.6772383837415,"pathway":false,"mode":"BUS","route":"14","agencyName":"Société de Transport du Saguenay","agencyUrl":"http://ville.saguenay.ca/fr/services-aux-citoyens/transport-sts","agencyTimeZoneOffset":-14400000,"routeColor":"C0C000","routeType":3,"routeId":"1:14","routeTextColor":"000000","interlineWithPreviousLeg":false,"tripBlockId":"30","headsign":"Talbot / Barrette","agencyId":"0","tripId":"1:218107","serviceDate":"20180402","from":{"name":"Terminus Chicoutimi","stopId":"1:1289","stopCode":"1289","lon":-71.066163,"lat":48.428677,"arrival":1522701600000,"departure":1522701900000,"zoneId":"NA","stopIndex":0,"stopSequence":1,"vertexType":"TRANSIT"},"to":{"name":"Terminus UQAC","stopId":"1:1670","stopCode":"1670","lon":-71.053369,"lat":48.420903,"arrival":1522702320000,"departure":1522702321000,"zoneId":"NA","stopIndex":8,"stopSequence":9,"vertexType":"TRANSIT"},"legGeometry":{"points":"qvqfHnbwpLJkClLh@DsDTmSHwFB{I@m@@eBH_AF}A@w@Dq@@i@B}B@Y@e@D]F_@@SHQCKnBnBvIrIn@n@\\iATg@v@_ATg@LmABg@Is@c@iEAm@bAcDTcAtA{DJI|AxAvAvAQv@~@z@","length":42},"routeShortName":"14","routeLongName":"Coopérative","rentedBike":false,"transitLeg":true,"duration":420.0,"steps":[]},{"startTime":1522702321000,"endTime":1522702598000,"departureDelay":0,"arrivalDelay":0,"realTime":false,"distance":348.51900000000006,"pathway":false,"mode":"WALK","route":"","agencyTimeZoneOffset":-14400000,"interlineWithPreviousLeg":false,"from":{"name":"Terminus UQAC","stopId":"1:1670","stopCode":"1670","lon":-71.053369,"lat":48.420903,"arrival":1522702320000,"departure":1522702321000,"zoneId":"NA","stopIndex":8,"stopSequence":9,"vertexType":"TRANSIT"},"to":{"name":"Destination","lon":-71.053021,"lat":48.418729,"arrival":1522702598000,"orig":"","vertexType":"NORMAL"},"legGeometry":{"points":"sepfHrrtpLbA`ATq@f@wAd@wATs@X{@p@Y~@`AB@vBtB","length":11},"rentedBike":false,"transitLeg":false,"duration":277.0,"steps":[{"distance":269.46700000000004,"relativeDirection":"DEPART","streetName":"service road","absoluteDirection":"SOUTHWEST","stayOn":false,"area":false,"bogusName":true,"lon":-71.0533724395415,"lat":48.420904465432976,"elevation":[]},{"distance":79.052,"relativeDirection":"CONTINUE","streetName":"path","absoluteDirection":"SOUTHWEST","stayOn":false,"area":false,"bogusName":false,"lon":-71.05222810000001,"lat":48.41923430000001,"elevation":[]}]}],"tooSloped":false}]},"debugOutput":{"precalculationTime":34,"pathCalculationTime":28,"pathTimes":[17,5,6],"renderingTime":0,"totalTime":62,"timedOut":false},"elevationMetadata":{"ellipsoidToGeoidDifference":-28.885904201182168,"geoidElevation":false}}