{"requestParameters":{"date":"2018/04/02","walkSpeed":"1.33","walkReluctance":"2.0","fromPlace":"48.398488,-71.0951","maxWalkDistance":"3000","waitReluctance":"1.0","carSpeed":"33","numItineraries":"3","waitAtBeginningFactor":"0.4","mode":"TRANSIT,WALK","ignoreRealtimeUpdates":"false","stairsReluctance":"2.0","toPlace":"48.41803,-71.083128","time":"21:15:00"},"plan":{"date":1522718100000,"from":{"name":"Origin","lon":-71.0951,"lat":48.398488,"orig":"","vertexType":"NORMAL"},"to":{"name":"Destination","lon":-71.083128,"lat":48.41803,"orig":"","vertexType":"NORMAL"},"itineraries":[{"duration":1334,"startTime":1522719639000,"endTime":1522720973000,"walkTime":793,"transitTime":539,"waitingTime":2,"walkDistance":1005.9153007447712,"walkLimitExceeded":false,"elevationLost":0.0,"elevationGained":0.0,"transfers":0,"legs":[{"startTime":1522719639000,"endTime":1522719895000,"departureDelay":0,"arrivalDelay":0,"realTime":false,"distance":319.606,"pathway":false,"mode":"WALK","route":"","agencyTimeZoneOffset":-14400000,"interlineWithPreviousLeg":false,"from":{"name":"Origin","lon":-71.0951,"lat":48.398488,"departure":1522719639000,"orig":"","vertexType":"NORMAL"},"to":{"name":"Malraux / Colette","stopId":"1:1591","stopCode":"1591","lon":-71.091599,"lat":48.397534,"arrival":1522719895000,"departure":1522719896000,"zoneId":"NA","stopIndex":7,"stopSequence":8,"vertexType":"TRANSIT"},"legGeometry":{"points":"exkfHlv|pLCMB]v@uBbAqCcBwBpB{F","length":7},"rentedBike":false,"transitLeg":false,"duration":256.0,"steps":[{"distance":136.59199999999998,"relativeDirection":"DEPART","streetName":"Croissant Rabelais","absoluteDirection":"EAST","stayOn":false,"area":false,"bogusName":false,"lon":-71.09494768608002,"lat":48.398271461680615,"elevation":[]},{"distance":70.684,"relativeDirection":"LEFT","streetName":"Rue Paul Morand","absoluteDirection":"NORTHEAST","stayOn":false,"area":false,"bogusName":false,"lon":-71.0934024,"lat":48.3976538,"elevation":[]},{"distance":112.33,"relativeDirection":"RIGHT","streetName":"Rue Malraux","absoluteDirection":"SOUTHEAST","stayOn":false,"area":false,"bogusName":false,"lon":-71.0928068,"lat":48.398151500000004,"elevation":[]}]},{"startTime":1522719896000,"endTime":1522720435000,"departureDelay":0,"arrivalDelay":0,"realTime":false,"distance":3690.1779088991507,"pathway":false,"mode":"BUS","route":"14","agencyName":"Société de Transport du Saguenay","agencyUrl":"http://ville.saguenay.ca/fr/services-aux-citoyens/transport-sts","agencyTimeZoneOffset":-14400000,"routeColor":"C0C000","routeType":3,"routeId":"1:14","routeTextColor":"000000","interlineWithPreviousLeg":false,"tripBlockId":"33","headsign":"Terminus Chicoutimi","agencyId":"0","tripId":"1:218202","serviceDate":"20180402","from":{"name":"Malraux / Colette","stopId":"1:1591","stopCode":"1591","lon":-71.091599,"lat":48.397534,"arrival":1522719895000,"departure":1522719896000,"zoneId":"NA","stopIndex":7,"stopSequence":8,"vertexType":"TRANSIT"},"to":{"name":"Carrefour 216","stopId":"1:550","stopCode":"550","lon":-71.075884,"lat":48.417843,"arrival":1522720435000,"departure":1522720436000,"zoneId":"NA","stopIndex":25,"stopSequence":26,"vertexType":"TRANSIT"},"legGeometry":{"points":"_tkfH~`|pLn@aB`B_GNoBvAyT|@sNuAyAuF}F}AaB_BkAC@qC\\gAWiBwBiKgMiCwEgEyHCGy@uB}@rAa@nAc@lFEf@mGvUYfAqCs@ICMCqFmDc@s@mAkBuEoESUgAhDiAfD}@zDyAcA_@Um@U{AWgB_Au@s@EEsBkCqFgF{IiI][aBhE}@}@","length":49},"routeShortName":"14","routeLongName":"Coopérative","rentedBike":false,"transitLeg":true,"duration":539.0,"steps":[]},{"startTime":1522720436000,"endTime":1522720973000,"departureDelay":0,"arrivalDelay":0,"realTime":false,"distance":686.0889999999999,"pathway":false,"mode":"WALK","route":"","agencyTimeZoneOffset":-14400000,"interlineWithPreviousLeg":false,"from":{"name":"Carrefour 216","stopId":"1:550","stopCode":"550","lon":-71.075884,"lat":48.417843,"arrival":1522720435000,"departure":1522720436000,"zoneId":"NA","stopIndex":25,"stopSequence":26,"vertexType":"TRANSIT"},"to":{"name":"Destination","lon":-71.083128,"lat":48.41803,"arrival":1522720973000,"orig":"","vertexType":"NORMAL"},"legGeometry":{"points":"urofHx_ypLSQSQaAnCITy@`Ck@|Aw@xB]fAdAtChChCzA`Bk@`DiAzG","length":14},"rentedBike":false,"transitLeg":false,"duration":537.0,"steps":[{"distance":25.448,"relativeDirection":"DEPART","streetName":"Rue Caron","absoluteDirection":"NORTHEAST","stayOn":false,"area":false,"bogusName":false,"lon":-71.07596695515558,"lat":48.41787892661277,"elevation":[]},{"distance":260.983,"relativeDirection":"LEFT","streetName":"Rue Saint-Henri","absoluteDirection":"NORTHWEST","stayOn":false,"area":false,"bogusName":false,"lon":-71.0757816,"lat":48.4180719,"elevation":[]},{"distance":222.874,"relativeDirection":"LEFT","streetName":"Rue Saint-Jean","absoluteDirection":"SOUTHWEST","stayOn":false,"area":false,"bogusName":false,"lon":-71.07870050000001,"lat":48.419397000000004,"elevation":[]},{"distance":176.784,"relativeDirection":"RIGHT","streetName":"Rue Cimon","absoluteDirection":"WEST","stayOn":false,"area":false,"bogusName":false,"lon":-71.0806349,"lat":48.41789300000001,"elevation":[]}]}],"tooSloped":false},{"duration":1497,"startTime":1522721517000,"endTime":1522723014000,"walkTime":1213,"transitTime":282,"waitingTime":2,"walkDistance":1554.8670451041335,"walkLimitExceeded":false,"elevationLost":0.0,"elevationGained":0.0,"transfers":0,"legs":[{"startTime":1522721517000,"endTime":1522722484000,"departureDelay":0,"arrivalDelay":0,"realTime":false,"distance":1240.123,"pathway":false,"mode":"WALK","route":"","agencyTimeZoneOffset":-14400000,"interlineWithPreviousLeg":false,"from":{"name":"Origin","lon":-71.0951,"lat":48.398488,"departure":1522721517000,"orig":"","vertexType":"NORMAL"},"to":{"name":"boul. Barrette / Estacade","stopId":"1:478","stopCode":"478","lon":-71.098119,"lat":48.404568,"arrival":1522722484000,"departure":1522722485000,"zoneId":"NA","stopIndex":12,"stopSequence":13,"vertexType":"TRANSIT"},"legGeometry":{"points":"exkfHlv|pLCMB]v@uBbAqCcBwBEJiCdGYLqBDc@S}@kAaAeAEEkF{Fa@jAA?{EvMy@tBGPsCrHiBzE","length":22},"rentedBike":false,"transitLeg":false,"duration":967.0,"steps":[{"distance":136.59199999999998,"relativeDirection":"DEPART","streetName":"Croissant Rabelais","absoluteDirection":"EAST","stayOn":false,"area":false,"bogusName":false,"lon":-71.09494768608002,"lat":48.398271461680615,"elevation":[]},{"distance":70.684,"relativeDirection":"LEFT","streetName":"Rue Paul Morand","absoluteDirection":"NORTHEAST","stayOn":false,"area":false,"bogusName":false,"lon":-71.0934024,"lat":48.3976538,"elevation":[]},{"distance":483.19599999999997,"relativeDirection":"LEFT","streetName":"Rue Malraux","absoluteDirection":"NORTHWEST","stayOn":false,"area":false,"bogusName":false,"lon":-71.0928068,"lat":48.398151500000004,"elevation":[]},{"distance":549.651,"relativeDirection":"LEFT","streetName":"Boulevard Barrette","absoluteDirection":"NORTHWEST","stayOn":false,"area":false,"bogusName":false,"lon":-71.0921587,"lat":48.401604500000005,"elevation":[]}]},{"startTime":1522722485000,"endTime":1522722767000,"departureDelay":0,"arrivalDelay":0,"realTime":false,"distance":2014.1509186068492,"pathway":false,"mode":"BUS","route":"11","agencyName":"Société de Transport du Saguenay","agencyUrl":"http://ville.saguenay.ca/fr/services-aux-citoyens/transport-sts","agencyTimeZoneOffset":-14400000,"routeColor":"FF0000","routeType":3,"routeId":"1:11","routeTextColor":"FFFFFF","interlineWithPreviousLeg":false,"tripBlockId":"35","headsign":"Terminus Chicoutimi","agencyId":"0","tripId":"1:218273","serviceDate":"20180402","from":{"name":"boul. Barrette / Estacade","stopId":"1:478","stopCode":"478","lon":-71.098119,"lat":48.404568,"arrival":1522722484000,"departure":1522722485000,"zoneId":"NA","stopIndex":12,"stopSequence":13,"vertexType":"TRANSIT"},"to":{"name":"Saint-Paul / Cimon","stopId":"1:1892","stopCode":"1892","lon":-71.079616,"lat":48.417161,"arrival":1522722767000,"departure":1522722768000,"zoneId":"NA","stopIndex":20,"stopSequence":21,"vertexType":"TRANSIT"},"legGeometry":{"points":"c_mfHtj}pLy@vBeCuCoCaDkDuE_@g@{FwGOMnA}CnA_DJWu@iAW[S[yI{MmBqC{@wAQUw@gAsDiF_B_CQYa@cA[_AUy@YcBOgAYHu@\\M`@cAiBuAyBkHgL{C{E}AcC","length":35},"routeShortName":"11","routeLongName":"Chic/Faubourg via St-Paul","rentedBike":false,"transitLeg":true,"duration":282.0,"steps":[]},{"startTime":1522722768000,"endTime":1522723014000,"departureDelay":0,"arrivalDelay":0,"realTime":false,"distance":314.476,"pathway":false,"mode":"WALK","route":"","agencyTimeZoneOffset":-14400000,"interlineWithPreviousLeg":false,"from":{"name":"Saint-Paul / Cimon","stopId":"1:1892","stopCode":"1892","lon":-71.079616,"lat":48.417161,"arrival":1522722767000,"departure":1522722768000,"zoneId":"NA","stopIndex":20,"stopSequence":21,"vertexType":"TRANSIT"},"to":{"name":"Destination","lon":-71.083128,"lat":48.41803,"arrival":1522723014000,"orig":"","vertexType":"NORMAL"},"legGeometry":{"points":"mnofH~vypLg@w@iA|CYxAk@`DiAzG","length":6},"rentedBike":false,"transitLeg":false,"duration":246.0,"steps":[{"distance":29.935,"relativeDirection":"DEPART","streetName":"Rue Saint-Paul","absoluteDirection":"NORTHEAST","stayOn":false,"area":false,"bogusName":false,"lon":-71.07967376054168,"lat":48.41719786896541,"elevation":[]},{"distance":284.541,"relativeDirection":"LEFT","streetName":"Rue Cimon","absoluteDirection":"NORTHWEST","stayOn":false,"area":false,"bogusName":false,"lon":-71.0793926,"lat":48.417391900000005,"elevation":[]}]}],"tooSloped":false},{"duration":2505,"startTime":1522721109000,"endTime":1522723614000,"walkTime":1415,"transitTime":1088,"waitingTime":2,"walkDistance":1804.9934360797565,"walkLimitExceeded":false,"elevationLost":0.0,"elevationGained":0.0,"transfers":0,"legs":[{"startTime":1522721109000,"endTime":1522721298000,"departureDelay":0,"arrivalDelay":0,"realTime":false,"distance":224.43399999999997,"pathway":false,"mode":"WALK","route":"","agencyTimeZoneOffset":-14400000,"interlineWithPreviousLeg":false,"from":{"name":"Origin","lon":-71.0951,"lat":48.398488,"departure":1522721109000,"orig":"","vertexType":"NORMAL"},"to":{"name":"Malraux / Paul Morand","stopId":"1:92","stopCode":"92","lon":-71.092693,"lat":48.398228,"arrival":1522721298000,"departure":1522721299000,"zoneId":"NA","stopIndex":28,"stopSequence":29,"vertexType":"TRANSIT"},"legGeometry":{"points":"exkfHlv|pLCMB]v@uBbAqCcBwBEJOS","length":8},"rentedBike":false,"transitLeg":false,"duration":189.0,"steps":[{"distance":136.59199999999998,"relativeDirection":"DEPART","streetName":"Croissant Rabelais","absoluteDirection":"EAST","stayOn":false,"area":false,"bogusName":false,"lon":-71.09494768608002,"lat":48.398271461680615,"elevation":[]},{"distance":70.684,"relativeDirection":"LEFT","streetName":"Rue Paul Morand","absoluteDirection":"NORTHEAST","stayOn":false,"area":false,"bogusName":false,"lon":-71.0934024,"lat":48.3976538,"elevation":[]},{"distance":5.462,"relativeDirection":"LEFT","streetName":"Rue Malraux","absoluteDirection":"NORTHWEST","stayOn":false,"area":false,"bogusName":false,"lon":-71.0928068,"lat":48.398151500000004,"elevation":[]},{"distance":11.696,"relativeDirection":"RIGHT","streetName":"path","absoluteDirection":"NORTHEAST","stayOn":false,"area":false,"bogusName":true,"lon":-71.0928648,"lat":48.398182000000006,"elevation":[]}]},{"startTime":1522721299000,"endTime":1522721460000,"departureDelay":0,"arrivalDelay":0,"realTime":false,"distance":2219.107945063667,"pathway":false,"mode":"BUS","route":"14","agencyName":"Société de Transport du Saguenay","agencyUrl":"http://ville.saguenay.ca/fr/services-aux-citoyens/transport-sts","agencyTimeZoneOffset":-14400000,"routeColor":"C0C000","routeType":3,"routeId":"1:14","routeTextColor":"000000","interlineWithPreviousLeg":false,"tripBlockId":"30","headsign":"Talbot / Barrette","agencyId":"0","tripId":"1:218117","serviceDate":"20180402","from":{"name":"Malraux / Paul Morand","stopId":"1:92","stopCode":"92","lon":-71.092693,"lat":48.398228,"arrival":1522721298000,"departure":1522721299000,"zoneId":"NA","stopIndex":28,"stopSequence":29,"vertexType":"TRANSIT"},"to":{"name":"Roitelets / Sapins","stopId":"1:1543","stopCode":"1543","lon":-71.069553,"lat":48.393375,"arrival":1522721460000,"departure":1522721460000,"zoneId":"NA","stopIndex":35,"stopSequence":36,"vertexType":"TRANSIT"},"legGeometry":{"points":"wwkfHnh|pLcC~GyC\\aDkDcFsF~CgOtGm[j@oCvEoSl@_CxCmLjAeFpCeKrByHfAqCvH_SLa@","length":17},"routeShortName":"14","routeLongName":"Coopérative","rentedBike":false,"transitLeg":true,"duration":161.0,"steps":[]},{"startTime":1522721460000,"endTime":1522722387000,"departureDelay":0,"arrivalDelay":0,"realTime":false,"distance":5727.748433288822,"pathway":false,"mode":"BUS","route":"15","agencyName":"Société de Transport du Saguenay","agencyUrl":"http://ville.saguenay.ca/fr/services-aux-citoyens/transport-sts","agencyTimeZoneOffset":-14400000,"routeColor":"FF00FF","routeType":3,"routeId":"1:15","routeTextColor":"FFFFFF","interlineWithPreviousLeg":true,"tripBlockId":"30","headsign":"Terminus Chicoutimi","agencyId":"0","tripId":"1:218118","serviceDate":"20180402","from":{"name":"Roitelets / Sapins","stopId":"1:1543","stopCode":"1543","lon":-71.069553,"lat":48.393375,"arrival":1522721460000,"departure":1522721460000,"zoneId":"NA","stopIndex":0,"stopSequence":1,"vertexType":"TRANSIT"},"to":{"name":"École secondaire de l'Odyssé Dominique-Racine","stopId":"1:580","stopCode":"580","lon":-71.067703,"lat":48.412977,"arrival":1522722387000,"departure":1522722388000,"zoneId":"NA","stopIndex":24,"stopSequence":25,"vertexType":"TRANSIT"},"legGeometry":{"points":"_zjfHfwwpLx@}BHa@NaADq@@y@Cy@I{@Ka@O[Sg@c@mAWwAMyA?EC]?wABuABmFB{@BmDFuH@i@F[FsC@c@TuGEGVsHPuDLuBXsFDoA?W@]Cu@GcAKu@Q_ASo@a@y@a@o@MOUUeCqBiDsDqE{EiAcAcB_AqBgA_AQaBSaBG_@Bu@FG?h@fNKnDpCfBkAzDgA}@y@q@sDy@GAeGT~@~KKrKyAnL[hBUxAm@nCcAlDeCvGmA|CUr@}@~A_@\\_DvCEZcA|@UP_@d@Yl@oBdFeCxG_CfGYVQXS\\dK|HlFZbC\\p@zA\\rB@hBiArG{BNw@FiG}@iDwAECcCcBo@y@sEeGe@o@qAa@m@MoB?C@}BZwAc@oA_Bs@gDCKZ{Di@QECc@_@","length":118},"routeShortName":"15","routeLongName":"Term. Chic / Costco","rentedBike":false,"transitLeg":true,"duration":927.0,"steps":[]},{"startTime":1522722388000,"endTime":1522723614000,"departureDelay":0,"arrivalDelay":0,"realTime":false,"distance":1580.2350000000004,"pathway":false,"mode":"WALK","route":"","agencyTimeZoneOffset":-14400000,"interlineWithPreviousLeg":false,"from":{"name":"École secondaire de l'Odyssé Dominique-Racine","stopId":"1:580","stopCode":"580","lon":-71.067703,"lat":48.412977,"arrival":1522722387000,"departure":1522722388000,"zoneId":"NA","stopIndex":24,"stopSequence":25,"vertexType":"TRANSIT"},"to":{"name":"Destination","lon":-71.083128,"lat":48.41803,"arrival":1522723614000,"orig":"","vertexType":"NORMAL"},"legGeometry":{"points":"gtnfHplwpL{@u@UIIP}AhEi@xAc@jA{@`C_DrIaC`HQ`@iCnHe@pAi@tA{@rBCC{@{@SQSQaAnCITy@`Ck@|Aw@xB]fAdAtChChCzA`Bk@`DiAzG","length":30},"rentedBike":false,"transitLeg":false,"duration":1226.0,"steps":[{"distance":52.222,"relativeDirection":"DEPART","streetName":"Rue Bégin","absoluteDirection":"NORTHEAST","stayOn":false,"area":false,"bogusName":false,"lon":-71.06776357747735,"lat":48.41300064951352,"elevation":[]},{"distance":798.6230000000002,"relativeDirection":"LEFT","streetName":"Rue Des Oblats Est","absoluteDirection":"NORTHWEST","stayOn":false,"area":false,"bogusName":false,"lon":-71.06744280000001,"lat":48.413416500000004,"elevation":[]},{"distance":68.749,"relativeDirection":"RIGHT","streetName":"Rue Caron","absoluteDirection":"NORTHEAST","stayOn":false,"area":false,"bogusName":false,"lon":-71.0762876,"lat":48.4175528,"elevation":[]},{"distance":260.983,"relativeDirection":"LEFT","streetName":"Rue Saint-Henri","absoluteDirection":"NORTHWEST","stayOn":false,"area":false,"bogusName":false,"lon":-71.0757816,"lat":48.4180719,"elevation":[]},{"distance":222.874,"relativeDirection":"LEFT","streetName":"Rue Saint-Jean","absoluteDirection":"SOUTHWEST","stayOn":false,"area":false,"bogusName":false,"lon":-71.07870050000001,"lat":48.419397000000004,"elevation":[]},{"distance":176.784,"relativeDirection":"RIGHT","streetName":"Rue Cimon","absoluteDirection":"WEST","stayOn":false,"area":false,"bogusName":false,"lon":-71.0806349,"lat":48.41789300000001,"elevation":[]}]}],"tooSloped":false}]},"debugOutput":{"precalculationTime":18,"pathCalculationTime":23,"pathTimes":[13,4,6],"renderingTime":0,"totalTime":41,"timedOut":false},"elevationMetadata":{"ellipsoidToGeoidDifference":-28.885904201182168,"geoidElevation":false}}