{"requestParameters":{"date":"2018/04/02","walkSpeed":"1.33","walkReluctance":"2.0","fromPlace":"48.408342,-71.101038","maxWalkDistance":"3000","waitReluctance":"1.0","carSpeed":"33","numItineraries":"3","waitAtBeginningFactor":"0.4","mode":"TRANSIT,WALK","ignoreRealtimeUpdates":"false","stairsReluctance":"2.0","toPlace":"48.418436,-71.035021","time":"7:55:00"},"plan":{"date":1522670100000,"from":{"name":"Origin","lon":-71.101038,"lat":48.408342,"orig":"","vertexType":"NORMAL"},"to":{"name":"Destination","lon":-71.035021,"lat":48.418436,"orig":"","vertexType":"NORMAL"},"itineraries":[{"duration":1548,"startTime":1522670152000,"endTime":1522671700000,"walkTime":766,"transitTime":780,"waitingTime":2,"walkDistance":962.5583308179577,"walkLimitExceeded":false,"elevationLost":0.0,"elevationGained":0.0,"transfers":0,"legs":[{"startTime":1522670152000,"endTime":1522670639000,"departureDelay":0,"arrivalDelay":0,"realTime":false,"distance":615.8589999999999,"pathway":false,"mode":"WALK","route":"","agencyTimeZoneOffset":-14400000,"interlineWithPreviousLeg":false,"from":{"name":"Origin","lon":-71.101038,"lat":48.408342,"departure":1522670152000,"orig":"","vertexType":"NORMAL"},"to":{"name":"Draveurs / Pulpe","stopId":"1:893","stopCode":"893","lon":-71.095051,"lat":48.40927,"arrival":1522670639000,"departure":1522670640000,"zoneId":"NA","stopIndex":1,"stopSequence":2,"vertexType":"TRANSIT"},"legGeometry":{"points":"{wmfHf~}pLSUc@i@Sc@Oi@Ou@Ay@@c@L{@Ls@gBqBjAyCcBkC~CoIOWCEmA{@KD","length":18},"rentedBike":false,"transitLeg":false,"duration":487.0,"steps":[{"distance":174.321,"relativeDirection":"DEPART","streetName":"Rue des Défibreurs","absoluteDirection":"NORTHEAST","stayOn":false,"area":false,"bogusName":false,"lon":-71.10131017177922,"lat":48.40846769442732,"elevation":[]},{"distance":70.759,"relativeDirection":"LEFT","streetName":"Rue du Canal","absoluteDirection":"NORTHEAST","stayOn":false,"area":false,"bogusName":false,"lon":-71.0993035,"lat":48.4088682,"elevation":[]},{"distance":70.97,"relativeDirection":"RIGHT","streetName":"Rue du Séchoir","absoluteDirection":"SOUTHEAST","stayOn":false,"area":false,"bogusName":false,"lon":-71.09873730000001,"lat":48.409381700000004,"elevation":[]},{"distance":76.295,"relativeDirection":"LEFT","streetName":"Rue de la Pulpe","absoluteDirection":"NORTHEAST","stayOn":false,"area":false,"bogusName":false,"lon":-71.0979659,"lat":48.4090007,"elevation":[]},{"distance":223.514,"relativeDirection":"RIGHT","streetName":"Rue des Draveurs","absoluteDirection":"SOUTHEAST","stayOn":false,"area":false,"bogusName":false,"lon":-71.0972696,"lat":48.4095078,"elevation":[]}]},{"startTime":1522670640000,"endTime":1522671420000,"departureDelay":0,"arrivalDelay":0,"realTime":false,"distance":4321.237525793735,"pathway":false,"mode":"BUS","route":"217S","agencyName":"Société de Transport du Saguenay","agencyUrl":"http://ville.saguenay.ca/fr/services-aux-citoyens/transport-sts","agencyTimeZoneOffset":-14400000,"routeColor":"8B0000","routeType":3,"routeId":"1:217S","routeTextColor":"FFFFFF","interlineWithPreviousLeg":false,"tripBlockId":"94","headsign":"Séminaire","agencyId":"0","tripId":"1:218702","serviceDate":"20180402","from":{"name":"Draveurs / Pulpe","stopId":"1:893","stopCode":"893","lon":-71.095051,"lat":48.40927,"arrival":1522670639000,"departure":1522670640000,"zoneId":"NA","stopIndex":1,"stopSequence":2,"vertexType":"TRANSIT"},"to":{"name":"Séminaire de Chicoutimi (Chabanel)","stopId":"1:1902","stopCode":"1902","lon":-71.037893,"lat":48.41769,"arrival":1522671420000,"departure":1522671421000,"zoneId":"NA","stopIndex":2,"stopSequence":3,"vertexType":"TRANSIT"},"legGeometry":{"points":"_}mfHhw|pLA?kAbCeBkAx@iCzAqCtD|ApDmIsTg[w@yAwFqIs@eBa@aBa@}CeA_FwBiGkEaG{DaGg_@s^sCmEzAoFlBqeAd@_Dj@{Cj@uAt@iAhIuHpIgH`IcHrAo@dA]jEO|AoAnAmCbBcFaW{W{JeKgEiDyEgClKe[{CaD|@sAVSN^JJV?LKJ_@","length":48},"routeShortName":"217S","routeLongName":"Séminaire - ch. Réserve","rentedBike":false,"transitLeg":true,"duration":780.0,"steps":[]},{"startTime":1522671421000,"endTime":1522671700000,"departureDelay":0,"arrivalDelay":0,"realTime":false,"distance":346.417,"pathway":false,"mode":"WALK","route":"","agencyTimeZoneOffset":-14400000,"interlineWithPreviousLeg":false,"from":{"name":"Séminaire de Chicoutimi (Chabanel)","stopId":"1:1902","stopCode":"1902","lon":-71.037893,"lat":48.41769,"arrival":1522671420000,"departure":1522671421000,"zoneId":"NA","stopIndex":2,"stopSequence":3,"vertexType":"TRANSIT"},"to":{"name":"Destination","lon":-71.035021,"lat":48.418436,"arrival":1522671700000,"orig":"","vertexType":"NORMAL"},"legGeometry":{"points":"kqofH~qqpLQj@E?E?O]OBO?MMK_@UWSWUKMISGQKOKIOA]LSRo@H{@Co@GgBC_ABe@Dg@","length":26},"rentedBike":false,"transitLeg":false,"duration":279.0,"steps":[{"distance":21.334,"relativeDirection":"DEPART","streetName":"service road","absoluteDirection":"NORTHWEST","stayOn":false,"area":false,"bogusName":true,"lon":-71.0379161128933,"lat":48.417666291722945,"elevation":[]},{"distance":325.08299999999997,"relativeDirection":"RIGHT","streetName":"service road","absoluteDirection":"NORTHEAST","stayOn":true,"area":false,"bogusName":true,"lon":-71.03813170000001,"lat":48.417780300000004,"elevation":[]}]}],"tooSloped":false},{"duration":2255,"startTime":1522670105000,"endTime":1522672360000,"walkTime":1293,"transitTime":960,"waitingTime":2,"walkDistance":1672.3077368358213,"walkLimitExceeded":false,"elevationLost":0.0,"elevationGained":0.0,"transfers":0,"legs":[{"startTime":1522670105000,"endTime":1522671119000,"departureDelay":0,"arrivalDelay":0,"realTime":false,"distance":1325.696,"pathway":false,"mode":"WALK","route":"","agencyTimeZoneOffset":-14400000,"interlineWithPreviousLeg":false,"from":{"name":"Origin","lon":-71.101038,"lat":48.408342,"departure":1522670105000,"orig":"","vertexType":"NORMAL"},"to":{"name":"Malraux / Pagnol","stopId":"1:1978","stopCode":"1978","lon":-71.093388,"lat":48.400416,"arrival":1522671119000,"departure":1522671120000,"zoneId":"NA","stopIndex":14,"stopSequence":15,"vertexType":"TRANSIT"},"legGeometry":{"points":"{wmfHf~}pLVX^\\RJPBVBnCCl@Cl@Bd@FTNfAp@Li@p@kCjCoJt@iBr@mBhB{ErCsHFQx@uBzEwM@?`@kAjFzF","length":25},"rentedBike":false,"transitLeg":false,"duration":1014.0,"steps":[{"distance":283.296,"relativeDirection":"DEPART","streetName":"Rue des Défibreurs","absoluteDirection":"SOUTHWEST","stayOn":false,"area":false,"bogusName":false,"lon":-71.10131017177922,"lat":48.40846769442732,"elevation":[]},{"distance":882.099,"relativeDirection":"LEFT","streetName":"Boulevard Barrette","absoluteDirection":"SOUTHEAST","stayOn":false,"area":false,"bogusName":false,"lon":-71.1020482,"lat":48.4060381,"elevation":[]},{"distance":160.301,"relativeDirection":"RIGHT","streetName":"Rue Malraux","absoluteDirection":"SOUTHWEST","stayOn":false,"area":false,"bogusName":false,"lon":-71.0921587,"lat":48.401604500000005,"elevation":[]}]},{"startTime":1522671120000,"endTime":1522672080000,"departureDelay":0,"arrivalDelay":0,"realTime":false,"distance":5475.808983064195,"pathway":false,"mode":"BUS","route":"205S","agencyName":"Société de Transport du Saguenay","agencyUrl":"http://ville.saguenay.ca/fr/services-aux-citoyens/transport-sts","agencyTimeZoneOffset":-14400000,"routeColor":"8B0000","routeType":3,"routeId":"1:205S","routeTextColor":"FFFFFF","interlineWithPreviousLeg":false,"tripBlockId":"49","headsign":"Séminaire","agencyId":"0","tripId":"1:218411","serviceDate":"20180402","from":{"name":"Malraux / Pagnol","stopId":"1:1978","stopCode":"1978","lon":-71.093388,"lat":48.400416,"arrival":1522671119000,"departure":1522671120000,"zoneId":"NA","stopIndex":14,"stopSequence":15,"vertexType":"TRANSIT"},"to":{"name":"Séminaire de Chicoutimi (Chabanel)","stopId":"1:1902","stopCode":"1902","lon":-71.037893,"lat":48.41769,"arrival":1522672080000,"departure":1522672081000,"zoneId":"NA","stopIndex":24,"stopSequence":25,"vertexType":"TRANSIT"},"legGeometry":{"points":"yelfHdm|pLiFcGsBwB|BiGRm@Nq@lAoG@IAICIEGoPcLkDqBa@Qm@Oa@AGyBGoAa@oDo@qDS_Ba@kEG[MWg@_@IHULQAw@M_A_@IIKI[[YWaBy@aAu@o@m@KK]a@}A_CcD{C[[eCsBoBmB]q@WeBy@wMIUwB{D{AcDsEmKUCrDoKoByB}DcE}A_BoAmAk@o@aC_CkIkIaJaJWWuB_C\\{AZkANe@P]^s@`@k@fAgAfDwCtC_CxQaPRQHG^Q\\Mb@I~CILCHAXKXMXQRQPQT[\\s@^aAtAaERc@{b@ed@}BgBaCaBaDcBFMzJqZsCsClAmBHCZf@JFRCf@TL]@E","length":106},"routeShortName":"205S","routeLongName":"Séminaire - Bégin/Malraux","rentedBike":false,"transitLeg":true,"duration":960.0,"steps":[]},{"startTime":1522672081000,"endTime":1522672360000,"departureDelay":0,"arrivalDelay":0,"realTime":false,"distance":346.417,"pathway":false,"mode":"WALK","route":"","agencyTimeZoneOffset":-14400000,"interlineWithPreviousLeg":false,"from":{"name":"Séminaire de Chicoutimi (Chabanel)","stopId":"1:1902","stopCode":"1902","lon":-71.037893,"lat":48.41769,"arrival":1522672080000,"departure":1522672081000,"zoneId":"NA","stopIndex":24,"stopSequence":25,"vertexType":"TRANSIT"},"to":{"name":"Destination","lon":-71.035021,"lat":48.418436,"arrival":1522672360000,"orig":"","vertexType":"NORMAL"},"legGeometry":{"points":"kqofH~qqpLQj@E?E?O]OBO?MMK_@UWSWUKMISGQKOKIOA]LSRo@H{@Co@GgBC_ABe@Dg@","length":26},"rentedBike":false,"transitLeg":false,"duration":279.0,"steps":[{"distance":21.334,"relativeDirection":"DEPART","streetName":"service road","absoluteDirection":"NORTHWEST","stayOn":false,"area":false,"bogusName":true,"lon":-71.0379161128933,"lat":48.417666291722945,"elevation":[]},{"distance":325.08299999999997,"relativeDirection":"RIGHT","streetName":"service road","absoluteDirection":"NORTHEAST","stayOn":true,"area":false,"bogusName":true,"lon":-71.03813170000001,"lat":48.417780300000004,"elevation":[]}]}],"tooSloped":false},{"duration":2264,"startTime":1522671748000,"endTime":1522674012000,"walkTime":583,"transitTime":1439,"waitingTime":242,"walkDistance":744.6278421008476,"walkLimitExceeded":false,"elevationLost":0.0,"elevationGained":0.0,"transfers":1,"legs":[{"startTime":1522671748000,"endTime":1522672149000,"departureDelay":0,"arrivalDelay":0,"realTime":false,"distance":511.20599999999996,"pathway":false,"mode":"WALK","route":"","agencyTimeZoneOffset":-14400000,"interlineWithPreviousLeg":false,"from":{"name":"Origin","lon":-71.101038,"lat":48.408342,"departure":1522671748000,"orig":"","vertexType":"NORMAL"},"to":{"name":"Estacade / Défibreurs","stopId":"1:1888","stopCode":"1888","lon":-71.096041,"lat":48.406986,"arrival":1522672149000,"departure":1522672150000,"zoneId":"NA","stopIndex":14,"stopSequence":15,"vertexType":"TRANSIT"},"legGeometry":{"points":"{wmfHf~}pLSUc@i@Sc@Oi@Ou@Ay@@c@L{@Ls@fAgCpD{JlAaDf@j@","length":14},"rentedBike":false,"transitLeg":false,"duration":401.0,"steps":[{"distance":484.09,"relativeDirection":"DEPART","streetName":"Rue des Défibreurs","absoluteDirection":"NORTHEAST","stayOn":false,"area":false,"bogusName":false,"lon":-71.10131017177922,"lat":48.40846769442732,"elevation":[]},{"distance":27.116,"relativeDirection":"RIGHT","streetName":"Rue de l'Estacade","absoluteDirection":"SOUTHWEST","stayOn":false,"area":false,"bogusName":false,"lon":-71.0959148,"lat":48.4072266,"elevation":[]}]},{"startTime":1522672150000,"endTime":1522672860000,"departureDelay":0,"arrivalDelay":0,"realTime":false,"distance":3825.3125271861118,"pathway":false,"mode":"BUS","route":"11","agencyName":"Société de Transport du Saguenay","agencyUrl":"http://ville.saguenay.ca/fr/services-aux-citoyens/transport-sts","agencyTimeZoneOffset":-14400000,"routeColor":"FF0000","routeType":3,"routeId":"1:11","routeTextColor":"FFFFFF","interlineWithPreviousLeg":false,"tripBlockId":"35","headsign":"Terminus Chicoutimi","agencyId":"0","tripId":"1:218245","serviceDate":"20180402","from":{"name":"Estacade / Défibreurs","stopId":"1:1888","stopCode":"1888","lon":-71.096041,"lat":48.406986,"arrival":1522672149000,"departure":1522672150000,"zoneId":"NA","stopIndex":14,"stopSequence":15,"vertexType":"TRANSIT"},"to":{"name":"Terminus Chicoutimi","stopId":"1:1289","stopCode":"1289","lon":-71.066163,"lat":48.428677,"arrival":1522672860000,"departure":1522673100000,"zoneId":"NA","stopIndex":30,"stopSequence":31,"vertexType":"TRANSIT"},"legGeometry":{"points":"_omfH~}|pL_@g@{FwGOMnA}CnA_DJWu@iAW[S[yI{MmBqC{@wAQUw@gAsDiF_B_CQYa@cA[_AUy@YcBOgAYHu@\\M`@cAiBuAyBkHgL{C{E}AcCc@o@q@gAOWwCyCyGyG_IaIs@rBEHwAtDmBvEOd@[bBK~AIf@YHE@Q@O?OCI_@GMEKI_AB_A?Yo@IKCIEIIKOEKCKe@}BKs@CQAUE_A@yCFcDVsLDaCD_@kBKW?e@Q_BQNuEDuBXmNLgHmKm@}BW{AMCn@o@G??","length":87},"routeShortName":"11","routeLongName":"Chic/Faubourg via St-Paul","rentedBike":false,"transitLeg":true,"duration":710.0,"steps":[]},{"startTime":1522673100000,"endTime":1522673829000,"departureDelay":0,"arrivalDelay":0,"realTime":false,"distance":3458.8732059868325,"pathway":false,"mode":"BUS","route":"10","agencyName":"Société de Transport du Saguenay","agencyUrl":"http://ville.saguenay.ca/fr/services-aux-citoyens/transport-sts","agencyTimeZoneOffset":-14400000,"routeColor":"0000FF","routeType":3,"routeId":"1:10","routeTextColor":"FFFFFF","interlineWithPreviousLeg":false,"tripBlockId":"26","headsign":"Terminus UQAC","agencyId":"0","tripId":"1:217968","serviceDate":"20180402","from":{"name":"Terminus Chicoutimi","stopId":"1:1289","stopCode":"1289","lon":-71.066163,"lat":48.428677,"arrival":1522672860000,"departure":1522673100000,"zoneId":"NA","stopIndex":0,"stopSequence":1,"vertexType":"TRANSIT"},"to":{"name":"Chabanel (no. 616)","stopId":"1:1640","stopCode":"1640","lon":-71.037069,"lat":48.419408,"arrival":1522673829000,"departure":1522673830000,"zoneId":"NA","stopIndex":14,"stopSequence":15,"vertexType":"TRANSIT"},"legGeometry":{"points":"svqfHnbwpLDmCdDZ\\kO`@mQBuCD}DQ_ECk@^Cd@QWkL?m@IuF@gA?eH?cAEuEDO^AjD`@B@rEf@T_FjBXpDd@hCObDaCfCaHbFqN`CwG_J_CwMiDGe@T}C\\yELaCJeAJcAXw@Fk@M_@xBwVr@^LJ|@z@HdAlBbD`Av@b@\\v@d@`@BpBAzAXl@t@","length":55},"routeShortName":"10","routeLongName":"Notre-Dame du Saguenay","rentedBike":false,"transitLeg":true,"duration":729.0,"steps":[]},{"startTime":1522673830000,"endTime":1522674012000,"departureDelay":0,"arrivalDelay":0,"realTime":false,"distance":233.28499999999997,"pathway":false,"mode":"WALK","route":"","agencyTimeZoneOffset":-14400000,"interlineWithPreviousLeg":false,"from":{"name":"Chabanel (no. 616)","stopId":"1:1640","stopCode":"1640","lon":-71.037069,"lat":48.419408,"arrival":1522673829000,"departure":1522673830000,"zoneId":"NA","stopIndex":14,"stopSequence":15,"vertexType":"TRANSIT"},"to":{"name":"Destination","lon":-71.035021,"lat":48.418436,"arrival":1522674012000,"orig":"","vertexType":"NORMAL"},"legGeometry":{"points":"{{ofH`lqpL?@VZHTDPPOHGR_@LSRo@H{@Co@GgBC_ABe@Dg@","length":16},"rentedBike":false,"transitLeg":false,"duration":182.0,"steps":[{"distance":35.321,"relativeDirection":"DEPART","streetName":"Rue Chabanel","absoluteDirection":"SOUTHWEST","stayOn":false,"area":false,"bogusName":false,"lon":-71.03696057111584,"lat":48.41934895529792,"elevation":[]},{"distance":197.964,"relativeDirection":"LEFT","streetName":"service road","absoluteDirection":"SOUTHEAST","stayOn":false,"area":false,"bogusName":true,"lon":-71.0373165,"lat":48.419144200000005,"elevation":[]}]}],"tooSloped":false}]},"debugOutput":{"precalculationTime":21,"pathCalculationTime":24,"pathTimes":[14,5,5],"renderingTime":1,"totalTime":46,"timedOut":false},"elevationMetadata":{"ellipsoidToGeoidDifference":-28.885904201182168,"geoidElevation":false}}