{"requestParameters":{"date":"2018/04/02","walkSpeed":"1.33","walkReluctance":"2.0","fromPlace":"48.408209,-71.05435199","maxWalkDistance":"3000","waitReluctance":"1.0","carSpeed":"33","numItineraries":"3","waitAtBeginningFactor":"0.4","mode":"TRANSIT,WALK","ignoreRealtimeUpdates":"false","stairsReluctance":"2.0","toPlace":"48.40794,-71.102154","time":"11:40:00"},"plan":{"date":1522683600000,"from":{"name":"Origin","lon":-71.05435199,"lat":48.408209,"orig":"","vertexType":"NORMAL"},"to":{"name":"Destination","lon":-71.102154,"lat":48.40794,"orig":"","vertexType":"NORMAL"},"itineraries":[{"duration":2115,"startTime":1522684518000,"endTime":1522686633000,"walkTime":1606,"transitTime":507,"waitingTime":2,"walkDistance":2092.7090526260604,"walkLimitExceeded":false,"elevationLost":0.0,"elevationGained":0.0,"transfers":0,"legs":[{"startTime":1522684518000,"endTime":1522685158000,"departureDelay":0,"arrivalDelay":0,"realTime":false,"distance":831.0920000000001,"pathway":false,"mode":"WALK","route":"","agencyTimeZoneOffset":-14400000,"interlineWithPreviousLeg":false,"from":{"name":"Origin","lon":-71.05435199,"lat":48.408209,"departure":1522684518000,"orig":"","vertexType":"NORMAL"},"to":{"name":"Saguenéens  / Bach","stopId":"1:575","stopCode":"575","lon":-71.061104,"lat":48.403689,"arrival":1522685158000,"departure":1522685159000,"zoneId":"NA","stopIndex":23,"stopSequence":24,"vertexType":"TRANSIT"},"legGeometry":{"points":"ewmfH~ztpL`A|@JJzFjF|DpDIZtAlAtEjEjF~EPPyBvF","length":11},"rentedBike":false,"transitLeg":false,"duration":640.0,"steps":[{"distance":716.806,"relativeDirection":"DEPART","streetName":"Boulevard Talbot","absoluteDirection":"SOUTHWEST","stayOn":false,"area":false,"bogusName":false,"lon":-71.05471405355576,"lat":48.40835867128695,"elevation":[]},{"distance":114.286,"relativeDirection":"RIGHT","streetName":"Rue des Saguenéens","absoluteDirection":"NORTHWEST","stayOn":false,"area":false,"bogusName":false,"lon":-71.0599121,"lat":48.403030900000005,"elevation":[]}]},{"startTime":1522685159000,"endTime":1522685520000,"departureDelay":0,"arrivalDelay":0,"realTime":false,"distance":3436.0046196032185,"pathway":false,"mode":"BUS","route":"15","agencyName":"Société de Transport du Saguenay","agencyUrl":"http://ville.saguenay.ca/fr/services-aux-citoyens/transport-sts","agencyTimeZoneOffset":-14400000,"routeColor":"FF00FF","routeType":3,"routeId":"1:15","routeTextColor":"FFFFFF","interlineWithPreviousLeg":false,"tripBlockId":"31","headsign":"Talbot / Barrette","agencyId":"0","tripId":"1:218132","serviceDate":"20180402","from":{"name":"Saguenéens  / Bach","stopId":"1:575","stopCode":"575","lon":-71.061104,"lat":48.403689,"arrival":1522685158000,"departure":1522685159000,"zoneId":"NA","stopIndex":23,"stopSequence":24,"vertexType":"TRANSIT"},"to":{"name":"Roitelets / Sapins","stopId":"1:1543","stopCode":"1543","lon":-71.069553,"lat":48.393375,"arrival":1522685520000,"departure":1522685520000,"zoneId":"NA","stopIndex":35,"stopSequence":36,"vertexType":"TRANSIT"},"legGeometry":{"points":"ezlfHvbvpLtC{FnBoLbCaO?qLa@uJzF`ApF~@~@PzAgEeDcBf@qAWcKUqEx@Ef@ExDVjDxAFBrBvAfGjG@BjCzC~DxC@@zA~Cb@fCJlC?BsBre@?DWbOAn@?nEGnM@H\\hCzA~ELvAAlAi@jDo@nB","length":42},"routeShortName":"15","routeLongName":"Term. Chic / Costco","rentedBike":false,"transitLeg":true,"duration":361.0,"steps":[]},{"startTime":1522685520000,"endTime":1522685666000,"departureDelay":0,"arrivalDelay":0,"realTime":false,"distance":2001.932967403964,"pathway":false,"mode":"BUS","route":"14","agencyName":"Société de Transport du Saguenay","agencyUrl":"http://ville.saguenay.ca/fr/services-aux-citoyens/transport-sts","agencyTimeZoneOffset":-14400000,"routeColor":"C0C000","routeType":3,"routeId":"1:14","routeTextColor":"000000","interlineWithPreviousLeg":true,"tripBlockId":"31","headsign":"Terminus Chicoutimi","agencyId":"0","tripId":"1:218133","serviceDate":"20180402","from":{"name":"Roitelets / Sapins","stopId":"1:1513","stopCode":"1513","lon":-71.069396,"lat":48.393523,"arrival":1522685520000,"departure":1522685520000,"zoneId":"NA","stopIndex":0,"stopSequence":1,"vertexType":"TRANSIT"},"to":{"name":"Malraux / Pagnol","stopId":"1:441","stopCode":"441","lon":-71.09356,"lat":48.400447,"arrival":1522685666000,"departure":1522685667000,"zoneId":"NA","stopIndex":6,"stopSequence":7,"vertexType":"TRANSIT"},"legGeometry":{"points":"azjfHfwwpLiEfLuBzFsAnDgGzSWfAcD`Mi@dCgChLmCzMwGd\\aDxOdFtF","length":13},"routeShortName":"14","routeLongName":"Coopérative","rentedBike":false,"transitLeg":true,"duration":146.0,"steps":[]},{"startTime":1522685667000,"endTime":1522686633000,"departureDelay":0,"arrivalDelay":0,"realTime":false,"distance":1261.446,"pathway":false,"mode":"WALK","route":"","agencyTimeZoneOffset":-14400000,"interlineWithPreviousLeg":false,"from":{"name":"Malraux / Pagnol","stopId":"1:441","stopCode":"441","lon":-71.09356,"lat":48.400447,"arrival":1522685666000,"departure":1522685667000,"zoneId":"NA","stopIndex":6,"stopSequence":7,"vertexType":"TRANSIT"},"to":{"name":"Destination","lon":-71.102154,"lat":48.40794,"arrival":1522686633000,"orig":"","vertexType":"NORMAL"},"legGeometry":{"points":"melfH`m|pLEEkF{Fa@jAA?{EvMy@tBGPsCrHiBzEs@lBu@hBkCnJq@jCMh@gAq@UOe@Gm@Cm@BoCBGA","length":22},"rentedBike":false,"transitLeg":false,"duration":966.0,"steps":[{"distance":164.807,"relativeDirection":"DEPART","streetName":"Rue Malraux","absoluteDirection":"NORTHEAST","stayOn":false,"area":false,"bogusName":false,"lon":-71.0934459868607,"lat":48.400393574945504,"elevation":[]},{"distance":882.099,"relativeDirection":"LEFT","streetName":"Boulevard Barrette","absoluteDirection":"NORTHWEST","stayOn":false,"area":false,"bogusName":false,"lon":-71.0921587,"lat":48.401604500000005,"elevation":[]},{"distance":214.54,"relativeDirection":"RIGHT","streetName":"Rue des Défibreurs","absoluteDirection":"NORTHEAST","stayOn":false,"area":false,"bogusName":false,"lon":-71.1020482,"lat":48.4060381,"elevation":[]}]}],"tooSloped":false},{"duration":2856,"startTime":1522684009000,"endTime":1522686865000,"walkTime":470,"transitTime":2144,"waitingTime":242,"walkDistance":602.8387293203485,"walkLimitExceeded":false,"elevationLost":0.0,"elevationGained":0.0,"transfers":1,"legs":[{"startTime":1522684009000,"endTime":1522684098000,"departureDelay":0,"arrivalDelay":0,"realTime":false,"distance":109.917,"pathway":false,"mode":"WALK","route":"","agencyTimeZoneOffset":-14400000,"interlineWithPreviousLeg":false,"from":{"name":"Origin","lon":-71.05435199,"lat":48.408209,"departure":1522684009000,"orig":"","vertexType":"NORMAL"},"to":{"name":"Place du Saguenay (Champs-Élysées)","stopId":"1:571","stopCode":"571","lon":-71.055824,"lat":48.408307,"arrival":1522684098000,"departure":1522684099000,"zoneId":"NA","stopIndex":12,"stopSequence":13,"vertexType":"TRANSIT"},"legGeometry":{"points":"ewmfH~ztpL`A|@O`@GPm@|A","length":5},"rentedBike":false,"transitLeg":false,"duration":89.0,"steps":[{"distance":43.865,"relativeDirection":"DEPART","streetName":"Boulevard Talbot","absoluteDirection":"SOUTHWEST","stayOn":false,"area":false,"bogusName":false,"lon":-71.05471405355576,"lat":48.40835867128695,"elevation":[]},{"distance":66.05199999999999,"relativeDirection":"RIGHT","streetName":"Rue des Champs-Élysées","absoluteDirection":"NORTHWEST","stayOn":false,"area":false,"bogusName":false,"lon":-71.05502820000001,"lat":48.4080238,"elevation":[]}]},{"startTime":1522684099000,"endTime":1522685460000,"departureDelay":0,"arrivalDelay":0,"realTime":false,"distance":8492.902354570804,"pathway":false,"mode":"BUS","route":"12","agencyName":"Société de Transport du Saguenay","agencyUrl":"http://ville.saguenay.ca/fr/services-aux-citoyens/transport-sts","agencyTimeZoneOffset":-14400000,"routeColor":"556B2F","routeType":3,"routeId":"1:12","routeTextColor":"FFFFFF","interlineWithPreviousLeg":false,"tripBlockId":"29","headsign":"Terminus Chicoutimi","agencyId":"0","tripId":"1:218062","serviceDate":"20180402","from":{"name":"Place du Saguenay (Champs-Élysées)","stopId":"1:571","stopCode":"571","lon":-71.055824,"lat":48.408307,"arrival":1522684098000,"departure":1522684099000,"zoneId":"NA","stopIndex":12,"stopSequence":13,"vertexType":"TRANSIT"},"to":{"name":"Terminus Chicoutimi","stopId":"1:1289","stopCode":"1289","lon":-71.066163,"lat":48.428677,"arrival":1522685460000,"departure":1522685700000,"zoneId":"NA","stopIndex":33,"stopSequence":34,"vertexType":"TRANSIT"},"legGeometry":{"points":"{vmfH|aupLxFoNlCyGa@yFYkD}CyA}KmFgD_BgAgBn@kFD_NoIgrAmD_WcAaLaDHoDJi`@wVoAbDbA|AnBU|B|AfBlAyLtKoGxFcFqDkJaHgEoDmDwC_TqQsBeB{HjWfAvAfM|O|FlHmB`IgA|Cy@`UYzHZvMR~Hr@~ZPvHsCrMFxf@|ApJj@nDDl]BvZdCXJhC","length":50},"routeShortName":"12","routeLongName":"Rivière du Moulin","rentedBike":false,"transitLeg":true,"duration":1361.0,"steps":[]},{"startTime":1522685700000,"endTime":1522686483000,"departureDelay":0,"arrivalDelay":0,"realTime":false,"distance":3835.2324963508963,"pathway":false,"mode":"BUS","route":"11","agencyName":"Société de Transport du Saguenay","agencyUrl":"http://ville.saguenay.ca/fr/services-aux-citoyens/transport-sts","agencyTimeZoneOffset":-14400000,"routeColor":"FF0000","routeType":3,"routeId":"1:11","routeTextColor":"FFFFFF","interlineWithPreviousLeg":false,"tripBlockId":"37","headsign":"Boul.Royaume/St-Pierre","agencyId":"0","tripId":"1:218314","serviceDate":"20180402","from":{"name":"Terminus Chicoutimi","stopId":"1:1289","stopCode":"1289","lon":-71.066163,"lat":48.428677,"arrival":1522685460000,"departure":1522685700000,"zoneId":"NA","stopIndex":0,"stopSequence":1,"vertexType":"TRANSIT"},"to":{"name":"boul. Barrette / Estacade","stopId":"1:465","stopCode":"465","lon":-71.098983,"lat":48.40478,"arrival":1522686483000,"departure":1522686484000,"zoneId":"NA","stopIndex":15,"stopSequence":16,"vertexType":"TRANSIT"},"legGeometry":{"points":"evqfHzcwpLk@?UhKfIh@dKp@GnDIfDOtEE~@Ff@x@rEF~@CbAALO~ADRNJXBr@DfGRPBPJLN@@FPFTBX?TE`BhBR@?J@NELKFOlAiDL[bA`AfIjIbGdGzDzD`A~An@`ApApBpClEvJrOR\\bAfBLa@t@]LjAVvAVbAVv@^bAXj@b@t@xEtGh@r@n@x@FDjA|AlBpCnJ|NNTX`@V`@eCtHpFjH{FhPcB|Ft@|CEAdCnEdHKrBz@lGiQ","length":77},"routeShortName":"11","routeLongName":"Chic/Faubourg via St-Paul","rentedBike":false,"transitLeg":true,"duration":783.0,"steps":[]},{"startTime":1522686484000,"endTime":1522686865000,"departureDelay":0,"arrivalDelay":0,"realTime":false,"distance":492.83000000000004,"pathway":false,"mode":"WALK","route":"","agencyTimeZoneOffset":-14400000,"interlineWithPreviousLeg":false,"from":{"name":"boul. Barrette / Estacade","stopId":"1:465","stopCode":"465","lon":-71.098983,"lat":48.40478,"arrival":1522686483000,"departure":1522686484000,"zoneId":"NA","stopIndex":15,"stopSequence":16,"vertexType":"TRANSIT"},"to":{"name":"Destination","lon":-71.102154,"lat":48.40794,"arrival":1522686865000,"orig":"","vertexType":"NORMAL"},"legGeometry":{"points":"u`mfHzo}pL_ApCqAhEk@zBo@vCQQgAq@UOe@Gm@Cm@BoCBGA","length":13},"rentedBike":false,"transitLeg":false,"duration":381.0,"steps":[{"distance":266.242,"relativeDirection":"DEPART","streetName":"bike path","absoluteDirection":"NORTHWEST","stayOn":false,"area":false,"bogusName":true,"lon":-71.09901282754062,"lat":48.40475012061133,"elevation":[]},{"distance":12.048,"relativeDirection":"RIGHT","streetName":"path","absoluteDirection":"NORTHEAST","stayOn":true,"area":false,"bogusName":true,"lon":-71.1021327,"lat":48.4059454,"elevation":[]},{"distance":214.54,"relativeDirection":"CONTINUE","streetName":"Rue des Défibreurs","absoluteDirection":"NORTHEAST","stayOn":false,"area":false,"bogusName":false,"lon":-71.1020482,"lat":48.4060381,"elevation":[]}]}],"tooSloped":false},{"duration":2115,"startTime":1522686318000,"endTime":1522688433000,"walkTime":1606,"transitTime":507,"waitingTime":2,"walkDistance":2092.7090526260604,"walkLimitExceeded":false,"elevationLost":0.0,"elevationGained":0.0,"transfers":0,"legs":[{"startTime":1522686318000,"endTime":1522686958000,"departureDelay":0,"arrivalDelay":0,"realTime":false,"distance":831.0920000000001,"pathway":false,"mode":"WALK","route":"","agencyTimeZoneOffset":-14400000,"interlineWithPreviousLeg":false,"from":{"name":"Origin","lon":-71.05435199,"lat":48.408209,"departure":1522686318000,"orig":"","vertexType":"NORMAL"},"to":{"name":"Saguenéens  / Bach","stopId":"1:575","stopCode":"575","lon":-71.061104,"lat":48.403689,"arrival":1522686958000,"departure":1522686959000,"zoneId":"NA","stopIndex":23,"stopSequence":24,"vertexType":"TRANSIT"},"legGeometry":{"points":"ewmfH~ztpL`A|@JJzFjF|DpDIZtAlAtEjEjF~EPPyBvF","length":11},"rentedBike":false,"transitLeg":false,"duration":640.0,"steps":[{"distance":716.806,"relativeDirection":"DEPART","streetName":"Boulevard Talbot","absoluteDirection":"SOUTHWEST","stayOn":false,"area":false,"bogusName":false,"lon":-71.05471405355576,"lat":48.40835867128695,"elevation":[]},{"distance":114.286,"relativeDirection":"RIGHT","streetName":"Rue des Saguenéens","absoluteDirection":"NORTHWEST","stayOn":false,"area":false,"bogusName":false,"lon":-71.0599121,"lat":48.403030900000005,"elevation":[]}]},{"startTime":1522686959000,"endTime":1522687320000,"departureDelay":0,"arrivalDelay":0,"realTime":false,"distance":3436.0046196032185,"pathway":false,"mode":"BUS","route":"15","agencyName":"Société de Transport du Saguenay","agencyUrl":"http://ville.saguenay.ca/fr/services-aux-citoyens/transport-sts","agencyTimeZoneOffset":-14400000,"routeColor":"FF00FF","routeType":3,"routeId":"1:15","routeTextColor":"FFFFFF","interlineWithPreviousLeg":false,"tripBlockId":"33","headsign":"Talbot / Barrette","agencyId":"0","tripId":"1:218183","serviceDate":"20180402","from":{"name":"Saguenéens  / Bach","stopId":"1:575","stopCode":"575","lon":-71.061104,"lat":48.403689,"arrival":1522686958000,"departure":1522686959000,"zoneId":"NA","stopIndex":23,"stopSequence":24,"vertexType":"TRANSIT"},"to":{"name":"Roitelets / Sapins","stopId":"1:1543","stopCode":"1543","lon":-71.069553,"lat":48.393375,"arrival":1522687320000,"departure":1522687320000,"zoneId":"NA","stopIndex":35,"stopSequence":36,"vertexType":"TRANSIT"},"legGeometry":{"points":"ezlfHvbvpLtC{FnBoLbCaO?qLa@uJzF`ApF~@~@PzAgEeDcBf@qAWcKUqEx@Ef@ExDVjDxAFBrBvAfGjG@BjCzC~DxC@@zA~Cb@fCJlC?BsBre@?DWbOAn@?nEGnM@H\\hCzA~ELvAAlAi@jDo@nB","length":42},"routeShortName":"15","routeLongName":"Term. Chic / Costco","rentedBike":false,"transitLeg":true,"duration":361.0,"steps":[]},{"startTime":1522687320000,"endTime":1522687466000,"departureDelay":0,"arrivalDelay":0,"realTime":false,"distance":2001.932967403964,"pathway":false,"mode":"BUS","route":"14","agencyName":"Société de Transport du Saguenay","agencyUrl":"http://ville.saguenay.ca/fr/services-aux-citoyens/transport-sts","agencyTimeZoneOffset":-14400000,"routeColor":"C0C000","routeType":3,"routeId":"1:14","routeTextColor":"000000","interlineWithPreviousLeg":true,"tripBlockId":"33","headsign":"Terminus Chicoutimi","agencyId":"0","tripId":"1:218184","serviceDate":"20180402","from":{"name":"Roitelets / Sapins","stopId":"1:1513","stopCode":"1513","lon":-71.069396,"lat":48.393523,"arrival":1522687320000,"departure":1522687320000,"zoneId":"NA","stopIndex":0,"stopSequence":1,"vertexType":"TRANSIT"},"to":{"name":"Malraux / Pagnol","stopId":"1:441","stopCode":"441","lon":-71.09356,"lat":48.400447,"arrival":1522687466000,"departure":1522687467000,"zoneId":"NA","stopIndex":6,"stopSequence":7,"vertexType":"TRANSIT"},"legGeometry":{"points":"azjfHfwwpLiEfLuBzFsAnDgGzSWfAcD`Mi@dCgChLmCzMwGd\\aDxOdFtF","length":13},"routeShortName":"14","routeLongName":"Coopérative","rentedBike":false,"transitLeg":true,"duration":146.0,"steps":[]},{"startTime":1522687467000,"endTime":1522688433000,"departureDelay":0,"arrivalDelay":0,"realTime":false,"distance":1261.446,"pathway":false,"mode":"WALK","route":"","agencyTimeZoneOffset":-14400000,"interlineWithPreviousLeg":false,"from":{"name":"Malraux / Pagnol","stopId":"1:441","stopCode":"441","lon":-71.09356,"lat":48.400447,"arrival":1522687466000,"departure":1522687467000,"zoneId":"NA","stopIndex":6,"stopSequence":7,"vertexType":"TRANSIT"},"to":{"name":"Destination","lon":-71.102154,"lat":48.40794,"arrival":1522688433000,"orig":"","vertexType":"NORMAL"},"legGeometry":{"points":"melfH`m|pLEEkF{Fa@jAA?{EvMy@tBGPsCrHiBzEs@lBu@hBkCnJq@jCMh@gAq@UOe@Gm@Cm@BoCBGA","length":22},"rentedBike":false,"transitLeg":false,"duration":966.0,"steps":[{"distance":164.807,"relativeDirection":"DEPART","streetName":"Rue Malraux","absoluteDirection":"NORTHEAST","stayOn":false,"area":false,"bogusName":false,"lon":-71.0934459868607,"lat":48.400393574945504,"elevation":[]},{"distance":882.099,"relativeDirection":"LEFT","streetName":"Boulevard Barrette","absoluteDirection":"NORTHWEST","stayOn":false,"area":false,"bogusName":false,"lon":-71.0921587,"lat":48.401604500000005,"elevation":[]},{"distance":214.54,"relativeDirection":"RIGHT","streetName":"Rue des Défibreurs","absoluteDirection":"NORTHEAST","stayOn":false,"area":false,"bogusName":false,"lon":-71.1020482,"lat":48.4060381,"elevation":[]}]}],"tooSloped":false}]},"debugOutput":{"precalculationTime":32,"pathCalculationTime":93,"pathTimes":[40,25,28],"renderingTime":0,"totalTime":125,"timedOut":false},"elevationMetadata":{"ellipsoidToGeoidDifference":-28.885904201182168,"geoidElevation":false}}