{"requestParameters":{"date":"2018/04/02","walkSpeed":"1.33","walkReluctance":"2.0","fromPlace":"48.418436,-71.035021","maxWalkDistance":"3000","waitReluctance":"1.0","carSpeed":"33","numItineraries":"3","waitAtBeginningFactor":"0.4","mode":"TRANSIT,WALK","ignoreRealtimeUpdates":"false","stairsReluctance":"2.0","toPlace":"48.407032,-71.102157","time":"15:20:00"},"plan":{"date":1522696800000,"from":{"name":"Origin","lon":-71.035021,"lat":48.418436,"orig":"","vertexType":"NORMAL"},"to":{"name":"Destination","lon":-71.102157,"lat":48.407032,"orig":"","vertexType":"NORMAL"},"itineraries":[{"duration":2297,"startTime":1522697092000,"endTime":1522699389000,"walkTime":488,"transitTime":1507,"waitingTime":302,"walkDistance":628.8468571398608,"walkLimitExceeded":false,"elevationLost":0.0,"elevationGained":0.0,"transfers":1,"legs":[{"startTime":1522697092000,"endTime":1522697275000,"departureDelay":0,"arrivalDelay":0,"realTime":false,"distance":232.123,"pathway":false,"mode":"WALK","route":"","agencyTimeZoneOffset":-14400000,"interlineWithPreviousLeg":false,"from":{"name":"Origin","lon":-71.035021,"lat":48.418436,"departure":1522697092000,"orig":"","vertexType":"NORMAL"},"to":{"name":"nouveau","stopId":"1:2294","stopCode":"2294","lon":-71.03689,"lat":48.419297,"arrival":1522697275000,"departure":1522697276000,"zoneId":"NA","stopIndex":7,"stopSequence":8,"vertexType":"TRANSIT"},"legGeometry":{"points":"}wofHh_qpLEf@Cd@B~@FfBBn@Iz@Sn@MRS^IFQNEQIUW[","length":15},"rentedBike":false,"transitLeg":false,"duration":183.0,"steps":[{"distance":197.964,"relativeDirection":"DEPART","streetName":"service road","absoluteDirection":"WEST","stayOn":false,"area":false,"bogusName":false,"lon":-71.03492883479979,"lat":48.41871153992348,"elevation":[]},{"distance":34.159,"relativeDirection":"RIGHT","streetName":"Rue Chabanel","absoluteDirection":"NORTHEAST","stayOn":false,"area":false,"bogusName":false,"lon":-71.0373165,"lat":48.419144200000005,"elevation":[]}]},{"startTime":1522697276000,"endTime":1522698000000,"departureDelay":0,"arrivalDelay":0,"realTime":false,"distance":3354.673761312412,"pathway":false,"mode":"BUS","route":"10","agencyName":"Société de Transport du Saguenay","agencyUrl":"http://ville.saguenay.ca/fr/services-aux-citoyens/transport-sts","agencyTimeZoneOffset":-14400000,"routeColor":"0000FF","routeType":3,"routeId":"1:10","routeTextColor":"FFFFFF","interlineWithPreviousLeg":false,"tripBlockId":"27","headsign":"Terminus Chicoutimi","agencyId":"0","tripId":"1:218017","serviceDate":"20180402","from":{"name":"nouveau","stopId":"1:2294","stopCode":"2294","lon":-71.03689,"lat":48.419297,"arrival":1522697275000,"departure":1522697276000,"zoneId":"NA","stopIndex":7,"stopSequence":8,"vertexType":"TRANSIT"},"to":{"name":"Terminus Chicoutimi","stopId":"1:1289","stopCode":"1289","lon":-71.066163,"lat":48.428677,"arrival":1522698000000,"departure":1522698300000,"zoneId":"NA","stopIndex":21,"stopSequence":22,"vertexType":"TRANSIT"},"legGeometry":{"points":"y{ofH`lqpLo@y@k@Io@MqC@}@k@_@[aAw@_BoCMOKcAQUu@s@AAu@[k@xGg@pFc@~EO`@KHCVDP?hAa@nEKdAi@pGAr@GXMRG^Bb@`CV~IxB~ElAhChAsBtFaEvK_BhE}AfD{BdByBh@iC]oDq@YbF_Ea@AAuEg@MDENF|GAjJDzBDdDLdHFbCo@RUFRbFG|FApAMvFa@tPOnHqBOIjDc@Q","length":66},"routeShortName":"10","routeLongName":"Notre-Dame du Saguenay","rentedBike":false,"transitLeg":true,"duration":724.0,"steps":[]},{"startTime":1522698300000,"endTime":1522699083000,"departureDelay":0,"arrivalDelay":0,"realTime":false,"distance":3835.2324963508963,"pathway":false,"mode":"BUS","route":"11","agencyName":"Société de Transport du Saguenay","agencyUrl":"http://ville.saguenay.ca/fr/services-aux-citoyens/transport-sts","agencyTimeZoneOffset":-14400000,"routeColor":"FF0000","routeType":3,"routeId":"1:11","routeTextColor":"FFFFFF","interlineWithPreviousLeg":false,"tripBlockId":"35","headsign":"Boul.Royaume/St-Pierre","agencyId":"0","tripId":"1:218260","serviceDate":"20180402","from":{"name":"Terminus Chicoutimi","stopId":"1:1289","stopCode":"1289","lon":-71.066163,"lat":48.428677,"arrival":1522698000000,"departure":1522698300000,"zoneId":"NA","stopIndex":0,"stopSequence":1,"vertexType":"TRANSIT"},"to":{"name":"boul. Barrette / Estacade","stopId":"1:465","stopCode":"465","lon":-71.098983,"lat":48.40478,"arrival":1522699083000,"departure":1522699084000,"zoneId":"NA","stopIndex":15,"stopSequence":16,"vertexType":"TRANSIT"},"legGeometry":{"points":"evqfHzcwpLk@?UhKfIh@dKp@GnDIfDOtEE~@Ff@x@rEF~@CbAALO~ADRNJXBr@DfGRPBPJLN@@FPFTBX?TE`BhBR@?J@NELKFOlAiDL[bA`AfIjIbGdGzDzD`A~An@`ApApBpClEvJrOR\\bAfBLa@t@]LjAVvAVbAVv@^bAXj@b@t@xEtGh@r@n@x@FDjA|AlBpCnJ|NNTX`@V`@eCtHpFjH{FhPcB|Ft@|CEAdCnEdHKrBz@lGiQ","length":77},"routeShortName":"11","routeLongName":"Chic/Faubourg via St-Paul","rentedBike":false,"transitLeg":true,"duration":783.0,"steps":[]},{"startTime":1522699084000,"endTime":1522699389000,"departureDelay":0,"arrivalDelay":0,"realTime":false,"distance":396.63100000000003,"pathway":false,"mode":"WALK","route":"","agencyTimeZoneOffset":-14400000,"interlineWithPreviousLeg":false,"from":{"name":"boul. Barrette / Estacade","stopId":"1:465","stopCode":"465","lon":-71.098983,"lat":48.40478,"arrival":1522699083000,"departure":1522699084000,"zoneId":"NA","stopIndex":15,"stopSequence":16,"vertexType":"TRANSIT"},"to":{"name":"Destination","lon":-71.102157,"lat":48.407032,"arrival":1522699389000,"orig":"","vertexType":"NORMAL"},"legGeometry":{"points":"u`mfHzo}pL_ApCqAhEk@zBo@vCQQgAq@UOe@Gm@CY@","length":11},"rentedBike":false,"transitLeg":false,"duration":305.0,"steps":[{"distance":266.242,"relativeDirection":"DEPART","streetName":"bike path","absoluteDirection":"NORTHWEST","stayOn":false,"area":false,"bogusName":true,"lon":-71.09901282754062,"lat":48.40475012061133,"elevation":[]},{"distance":12.048,"relativeDirection":"RIGHT","streetName":"path","absoluteDirection":"NORTHEAST","stayOn":true,"area":false,"bogusName":true,"lon":-71.1021327,"lat":48.4059454,"elevation":[]},{"distance":118.341,"relativeDirection":"CONTINUE","streetName":"Rue des Défibreurs","absoluteDirection":"NORTHEAST","stayOn":false,"area":false,"bogusName":false,"lon":-71.1020482,"lat":48.4060381,"elevation":[]}]}],"tooSloped":false},{"duration":2297,"startTime":1522698892000,"endTime":1522701189000,"walkTime":488,"transitTime":1507,"waitingTime":302,"walkDistance":628.8468571398608,"walkLimitExceeded":false,"elevationLost":0.0,"elevationGained":0.0,"transfers":1,"legs":[{"startTime":1522698892000,"endTime":1522699075000,"departureDelay":0,"arrivalDelay":0,"realTime":false,"distance":232.123,"pathway":false,"mode":"WALK","route":"","agencyTimeZoneOffset":-14400000,"interlineWithPreviousLeg":false,"from":{"name":"Origin","lon":-71.035021,"lat":48.418436,"departure":1522698892000,"orig":"","vertexType":"NORMAL"},"to":{"name":"nouveau","stopId":"1:2294","stopCode":"2294","lon":-71.03689,"lat":48.419297,"arrival":1522699075000,"departure":1522699076000,"zoneId":"NA","stopIndex":7,"stopSequence":8,"vertexType":"TRANSIT"},"legGeometry":{"points":"}wofHh_qpLEf@Cd@B~@FfBBn@Iz@Sn@MRS^IFQNEQIUW[","length":15},"rentedBike":false,"transitLeg":false,"duration":183.0,"steps":[{"distance":197.964,"relativeDirection":"DEPART","streetName":"service road","absoluteDirection":"WEST","stayOn":false,"area":false,"bogusName":false,"lon":-71.03492883479979,"lat":48.41871153992348,"elevation":[]},{"distance":34.159,"relativeDirection":"RIGHT","streetName":"Rue Chabanel","absoluteDirection":"NORTHEAST","stayOn":false,"area":false,"bogusName":false,"lon":-71.0373165,"lat":48.419144200000005,"elevation":[]}]},{"startTime":1522699076000,"endTime":1522699800000,"departureDelay":0,"arrivalDelay":0,"realTime":false,"distance":3354.673761312412,"pathway":false,"mode":"BUS","route":"10","agencyName":"Société de Transport du Saguenay","agencyUrl":"http://ville.saguenay.ca/fr/services-aux-citoyens/transport-sts","agencyTimeZoneOffset":-14400000,"routeColor":"0000FF","routeType":3,"routeId":"1:10","routeTextColor":"FFFFFF","interlineWithPreviousLeg":false,"tripBlockId":"28","headsign":"Terminus Chicoutimi","agencyId":"0","tripId":"1:218044","serviceDate":"20180402","from":{"name":"nouveau","stopId":"1:2294","stopCode":"2294","lon":-71.03689,"lat":48.419297,"arrival":1522699075000,"departure":1522699076000,"zoneId":"NA","stopIndex":7,"stopSequence":8,"vertexType":"TRANSIT"},"to":{"name":"Terminus Chicoutimi","stopId":"1:1289","stopCode":"1289","lon":-71.066163,"lat":48.428677,"arrival":1522699800000,"departure":1522700100000,"zoneId":"NA","stopIndex":21,"stopSequence":22,"vertexType":"TRANSIT"},"legGeometry":{"points":"y{ofH`lqpLo@y@k@Io@MqC@}@k@_@[aAw@_BoCMOKcAQUu@s@AAu@[k@xGg@pFc@~EO`@KHCVDP?hAa@nEKdAi@pGAr@GXMRG^Bb@`CV~IxB~ElAhChAsBtFaEvK_BhE}AfD{BdByBh@iC]oDq@YbF_Ea@AAuEg@MDENF|GAjJDzBDdDLdHFbCo@RUFRbFG|FApAMvFa@tPOnHqBOIjDc@Q","length":66},"routeShortName":"10","routeLongName":"Notre-Dame du Saguenay","rentedBike":false,"transitLeg":true,"duration":724.0,"steps":[]},{"startTime":1522700100000,"endTime":1522700883000,"departureDelay":0,"arrivalDelay":0,"realTime":false,"distance":3835.2324963508963,"pathway":false,"mode":"BUS","route":"11","agencyName":"Société de Transport du Saguenay","agencyUrl":"http://ville.saguenay.ca/fr/services-aux-citoyens/transport-sts","agencyTimeZoneOffset":-14400000,"routeColor":"FF0000","routeType":3,"routeId":"1:11","routeTextColor":"FFFFFF","interlineWithPreviousLeg":false,"tripBlockId":"37","headsign":"Boul.Royaume/St-Pierre","agencyId":"0","tripId":"1:218322","serviceDate":"20180402","from":{"name":"Terminus Chicoutimi","stopId":"1:1289","stopCode":"1289","lon":-71.066163,"lat":48.428677,"arrival":1522699800000,"departure":1522700100000,"zoneId":"NA","stopIndex":0,"stopSequence":1,"vertexType":"TRANSIT"},"to":{"name":"boul. Barrette / Estacade","stopId":"1:465","stopCode":"465","lon":-71.098983,"lat":48.40478,"arrival":1522700883000,"departure":1522700884000,"zoneId":"NA","stopIndex":15,"stopSequence":16,"vertexType":"TRANSIT"},"legGeometry":{"points":"evqfHzcwpLk@?UhKfIh@dKp@GnDIfDOtEE~@Ff@x@rEF~@CbAALO~ADRNJXBr@DfGRPBPJLN@@FPFTBX?TE`BhBR@?J@NELKFOlAiDL[bA`AfIjIbGdGzDzD`A~An@`ApApBpClEvJrOR\\bAfBLa@t@]LjAVvAVbAVv@^bAXj@b@t@xEtGh@r@n@x@FDjA|AlBpCnJ|NNTX`@V`@eCtHpFjH{FhPcB|Ft@|CEAdCnEdHKrBz@lGiQ","length":77},"routeShortName":"11","routeLongName":"Chic/Faubourg via St-Paul","rentedBike":false,"transitLeg":true,"duration":783.0,"steps":[]},{"startTime":1522700884000,"endTime":1522701189000,"departureDelay":0,"arrivalDelay":0,"realTime":false,"distance":396.63100000000003,"pathway":false,"mode":"WALK","route":"","agencyTimeZoneOffset":-14400000,"interlineWithPreviousLeg":false,"from":{"name":"boul. Barrette / Estacade","stopId":"1:465","stopCode":"465","lon":-71.098983,"lat":48.40478,"arrival":1522700883000,"departure":1522700884000,"zoneId":"NA","stopIndex":15,"stopSequence":16,"vertexType":"TRANSIT"},"to":{"name":"Destination","lon":-71.102157,"lat":48.407032,"arrival":1522701189000,"orig":"","vertexType":"NORMAL"},"legGeometry":{"points":"u`mfHzo}pL_ApCqAhEk@zBo@vCQQgAq@UOe@Gm@CY@","length":11},"rentedBike":false,"transitLeg":false,"duration":305.0,"steps":[{"distance":266.242,"relativeDirection":"DEPART","streetName":"bike path","absoluteDirection":"NORTHWEST","stayOn":false,"area":false,"bogusName":true,"lon":-71.09901282754062,"lat":48.40475012061133,"elevation":[]},{"distance":12.048,"relativeDirection":"RIGHT","streetName":"path","absoluteDirection":"NORTHEAST","stayOn":true,"area":false,"bogusName":true,"lon":-71.1021327,"lat":48.4059454,"elevation":[]},{"distance":118.341,"relativeDirection":"CONTINUE","streetName":"Rue des Défibreurs","absoluteDirection":"NORTHEAST","stayOn":false,"area":false,"bogusName":false,"lon":-71.1020482,"lat":48.4060381,"elevation":[]}]}],"tooSloped":false},{"duration":1785,"startTime":1522699559000,"endTime":1522701344000,"walkTime":504,"transitTime":1279,"waitingTime":2,"walkDistance":637.2114511219969,"walkLimitExceeded":false,"elevationLost":0.0,"elevationGained":0.0,"transfers":0,"legs":[{"startTime":1522699559000,"endTime":1522699743000,"departureDelay":0,"arrivalDelay":0,"realTime":false,"distance":233.285,"pathway":false,"mode":"WALK","route":"","agencyTimeZoneOffset":-14400000,"interlineWithPreviousLeg":false,"from":{"name":"Origin","lon":-71.035021,"lat":48.418436,"departure":1522699559000,"orig":"","vertexType":"NORMAL"},"to":{"name":"Chabanel (no. 616)","stopId":"1:1640","stopCode":"1640","lon":-71.037069,"lat":48.419408,"arrival":1522699743000,"departure":1522699744000,"zoneId":"NA","stopIndex":4,"stopSequence":5,"vertexType":"TRANSIT"},"legGeometry":{"points":"}wofHh_qpLEf@Cd@B~@FfBBn@Iz@Sn@MRS^IFQNEQIUW[?A","length":16},"rentedBike":false,"transitLeg":false,"duration":184.0,"steps":[{"distance":197.964,"relativeDirection":"DEPART","streetName":"service road","absoluteDirection":"WEST","stayOn":false,"area":false,"bogusName":false,"lon":-71.03492883479979,"lat":48.41871153992348,"elevation":[]},{"distance":35.321,"relativeDirection":"RIGHT","streetName":"Rue Chabanel","absoluteDirection":"NORTHEAST","stayOn":false,"area":false,"bogusName":false,"lon":-71.0373165,"lat":48.419144200000005,"elevation":[]}]},{"startTime":1522699744000,"endTime":1522701023000,"departureDelay":0,"arrivalDelay":0,"realTime":false,"distance":8253.833073141985,"pathway":false,"mode":"BUS","route":"214S","agencyName":"Société de Transport du Saguenay","agencyUrl":"http://ville.saguenay.ca/fr/services-aux-citoyens/transport-sts","agencyTimeZoneOffset":-14400000,"routeColor":"8B0000","routeType":3,"routeId":"1:214S","routeTextColor":"FFFFFF","interlineWithPreviousLeg":false,"headsign":"Carcajous / Martres","agencyId":"0","tripId":"1:218520","serviceDate":"20180402","from":{"name":"Chabanel (no. 616)","stopId":"1:1640","stopCode":"1640","lon":-71.037069,"lat":48.419408,"arrival":1522699743000,"departure":1522699744000,"zoneId":"NA","stopIndex":4,"stopSequence":5,"vertexType":"TRANSIT"},"to":{"name":"Estacade / Écluse","stopId":"1:479","stopCode":"479","lon":-71.097934,"lat":48.405412,"arrival":1522701023000,"departure":1522701024000,"zoneId":"NA","stopIndex":31,"stopSequence":32,"vertexType":"TRANSIT"},"legGeometry":{"points":"}{ofH`lqpLX^t@lCl@rAnBpBpCpCxAzAFD`A~@nBhBv@t@x@v@dChCh@pBLbBBp@OxA?BUrAa@~A}@lCx@lAPV\\h@`@hAdAtAl@p@BB`DlDvHvHRNvBeHLi@Zc@ZQb@IjB|@BBzDjB|FpCFDHDbAb@pAb@tGuA~VwIJCxCqA~Ae@LElB]vFBtEfBPFzHpHx@v@XZdBjBz@t@hChB`@|@@Bv@`Bb@bCBjDpCg@fAIr@B@}DJ[NGjAD~@WjA_Ab@y@XeAL{@DaBfAqHx@}D~@mDiC_C{EuDq@jC@j@VRvHrGy@`E_@nC_@xCCNGrAMz@WbAc@v@mAfA{@RiAESDKZC|Do@CiAJkCb@IbBEn@GfAYbGu@zPKjD?NMzEMxLExKBnC\\zC~AlFHhAEnAO|ASbAo@nBADcI`TSj@}@bCeGzS_IqI|@oC~@mDQcDGcAEo@\\vG}@fD_ArC|HzIU~@mE|PCHcHxZABsGb\\aBlIk@bCOx@c@rAA@oGbQCFiG~Oo@bBeCuC","length":153},"routeShortName":"214S","routeLongName":"Séminaire - Chicoutimi Sud","rentedBike":false,"transitLeg":true,"duration":1279.0,"steps":[]},{"startTime":1522701024000,"endTime":1522701344000,"departureDelay":0,"arrivalDelay":0,"realTime":false,"distance":403.74600000000004,"pathway":false,"mode":"WALK","route":"","agencyTimeZoneOffset":-14400000,"interlineWithPreviousLeg":false,"from":{"name":"Estacade / Écluse","stopId":"1:479","stopCode":"479","lon":-71.097934,"lat":48.405412,"arrival":1522701023000,"departure":1522701024000,"zoneId":"NA","stopIndex":31,"stopSequence":32,"vertexType":"TRANSIT"},"to":{"name":"Destination","lon":-71.102157,"lat":48.407032,"arrival":1522701344000,"orig":"","vertexType":"NORMAL"},"legGeometry":{"points":"ydmfHdi}pLj@r@w@lBgAz@u@hAo@bB]z@Kt@]Fu@^_@j@E`A@tARA","length":14},"rentedBike":false,"transitLeg":false,"duration":320.0,"steps":[{"distance":31.24,"relativeDirection":"DEPART","streetName":"Rue de l'Estacade","absoluteDirection":"SOUTHWEST","stayOn":false,"area":false,"bogusName":false,"lon":-71.09794353307524,"lat":48.405416874978286,"elevation":[]},{"distance":137.37,"relativeDirection":"RIGHT","streetName":"Rue de l'Ecluse","absoluteDirection":"NORTHWEST","stayOn":false,"area":false,"bogusName":false,"lon":-71.0982018,"lat":48.405194300000005,"elevation":[]},{"distance":94.891,"relativeDirection":"CONTINUE","streetName":"path","absoluteDirection":"NORTHWEST","stayOn":false,"area":false,"bogusName":true,"lon":-71.0994234,"lat":48.406102000000004,"elevation":[]},{"distance":128.694,"relativeDirection":"RIGHT","streetName":"Rue des Raffineurs","absoluteDirection":"NORTH","stayOn":false,"area":false,"bogusName":false,"lon":-71.10049930000001,"lat":48.406559300000005,"elevation":[]},{"distance":11.551,"relativeDirection":"LEFT","streetName":"Rue des Défibreurs","absoluteDirection":"SOUTH","stayOn":false,"area":false,"bogusName":false,"lon":-71.10167560000001,"lat":48.407154500000004,"elevation":[]}]}],"tooSloped":false}]},"debugOutput":{"precalculationTime":19,"pathCalculationTime":39,"pathTimes":[19,8,12],"renderingTime":1,"totalTime":59,"timedOut":false},"elevationMetadata":{"ellipsoidToGeoidDifference":-28.885904201182168,"geoidElevation":false}}