{"requestParameters":{"date":"2018/04/02","walkSpeed":"1.33","walkReluctance":"2.0","fromPlace":"48.401213,-71.084664","maxWalkDistance":"3000","waitReluctance":"1.0","carSpeed":"33","numItineraries":"3","waitAtBeginningFactor":"0.4","mode":"TRANSIT,WALK","ignoreRealtimeUpdates":"false","stairsReluctance":"2.0","toPlace":"48.403952,-71.054642","time":"19:0:00"},"plan":{"date":1522710000000,"from":{"name":"Origin","lon":-71.084664,"lat":48.401213,"orig":"","vertexType":"NORMAL"},"to":{"name":"Destination","lon":-71.054642,"lat":48.403952,"orig":"","vertexType":"NORMAL"},"itineraries":[{"duration":1191,"startTime":1522710321000,"endTime":1522711512000,"walkTime":619,"transitTime":570,"waitingTime":2,"walkDistance":740.9851503643188,"walkLimitExceeded":false,"elevationLost":0.0,"elevationGained":0.0,"transfers":0,"legs":[{"startTime":1522710321000,"endTime":1522710569000,"departureDelay":0,"arrivalDelay":0,"realTime":false,"distance":297.25300000000004,"pathway":false,"mode":"WALK","route":"","agencyTimeZoneOffset":-14400000,"interlineWithPreviousLeg":false,"from":{"name":"Origin","lon":-71.084664,"lat":48.401213,"departure":1522710321000,"orig":"","vertexType":"NORMAL"},"to":{"name":"boul. Barrette / passerelle rue Marcel-Portal","stopId":"1:90","stopCode":"90","lon":-71.085149,"lat":48.399287,"arrival":1522710569000,"departure":1522710570000,"zoneId":"NA","stopIndex":31,"stopSequence":32,"vertexType":"TRANSIT"},"legGeometry":{"points":"iklfHltzpLFExAu@NjA?P~@Ct@^l@`@TcAv@l@RZRRLNCJ","length":14},"rentedBike":false,"transitLeg":false,"duration":248.0,"steps":[{"distance":58.183,"relativeDirection":"DEPART","streetName":"Rue Romain Gary","absoluteDirection":"SOUTH","stayOn":false,"area":false,"bogusName":false,"lon":-71.08438947448157,"lat":48.40133054726044,"elevation":[]},{"distance":36.096,"relativeDirection":"RIGHT","streetName":"Rue Yves Thériault","absoluteDirection":"WEST","stayOn":false,"area":false,"bogusName":false,"lon":-71.0840893,"lat":48.400847600000006,"elevation":[]},{"distance":96.725,"relativeDirection":"LEFT","streetName":"Rue Boris Vian","absoluteDirection":"SOUTH","stayOn":false,"area":false,"bogusName":false,"lon":-71.0845591,"lat":48.4007658,"elevation":[]},{"distance":28.015,"relativeDirection":"LEFT","streetName":"Rue Jean-Paul Sartre","absoluteDirection":"SOUTHEAST","stayOn":false,"area":false,"bogusName":false,"lon":-71.0848672,"lat":48.3999413,"elevation":[]},{"distance":73.29599999999999,"relativeDirection":"RIGHT","streetName":"path","absoluteDirection":"SOUTHWEST","stayOn":false,"area":false,"bogusName":true,"lon":-71.0845255,"lat":48.3998317,"elevation":[]},{"distance":4.938,"relativeDirection":"RIGHT","streetName":"bike path","absoluteDirection":"NORTHWEST","stayOn":true,"area":false,"bogusName":true,"lon":-71.08507540000001,"lat":48.3992865,"elevation":[]}]},{"startTime":1522710570000,"endTime":1522710660000,"departureDelay":0,"arrivalDelay":0,"realTime":false,"distance":1328.7038023955338,"pathway":false,"mode":"BUS","route":"14","agencyName":"Société de Transport du Saguenay","agencyUrl":"http://ville.saguenay.ca/fr/services-aux-citoyens/transport-sts","agencyTimeZoneOffset":-14400000,"routeColor":"C0C000","routeType":3,"routeId":"1:14","routeTextColor":"000000","interlineWithPreviousLeg":false,"tripBlockId":"30","headsign":"Talbot / Barrette","agencyId":"0","tripId":"1:218111","serviceDate":"20180402","from":{"name":"boul. Barrette / passerelle rue Marcel-Portal","stopId":"1:90","stopCode":"90","lon":-71.085149,"lat":48.399287,"arrival":1522710569000,"departure":1522710570000,"zoneId":"NA","stopIndex":31,"stopSequence":32,"vertexType":"TRANSIT"},"to":{"name":"Roitelets / Sapins","stopId":"1:1543","stopCode":"1543","lon":-71.069553,"lat":48.393375,"arrival":1522710660000,"departure":1522710660000,"zoneId":"NA","stopIndex":35,"stopSequence":36,"vertexType":"TRANSIT"},"legGeometry":{"points":"e_lfHvxzpLj@oCvEoSl@_CxCmLjAeFpCeKrByHfAqCvH_SLa@","length":11},"routeShortName":"14","routeLongName":"Coopérative","rentedBike":false,"transitLeg":true,"duration":90.0,"steps":[]},{"startTime":1522710660000,"endTime":1522711140000,"departureDelay":0,"arrivalDelay":0,"realTime":false,"distance":3143.6310185151533,"pathway":false,"mode":"BUS","route":"15","agencyName":"Société de Transport du Saguenay","agencyUrl":"http://ville.saguenay.ca/fr/services-aux-citoyens/transport-sts","agencyTimeZoneOffset":-14400000,"routeColor":"FF00FF","routeType":3,"routeId":"1:15","routeTextColor":"FFFFFF","interlineWithPreviousLeg":true,"tripBlockId":"30","headsign":"Terminus Chicoutimi","agencyId":"0","tripId":"1:218112","serviceDate":"20180402","from":{"name":"Roitelets / Sapins","stopId":"1:1543","stopCode":"1543","lon":-71.069553,"lat":48.393375,"arrival":1522710660000,"departure":1522710660000,"zoneId":"NA","stopIndex":0,"stopSequence":1,"vertexType":"TRANSIT"},"to":{"name":"Place du Royaume (Saguenéens)","stopId":"1:1294","stopCode":"1294","lon":-71.057691,"lat":48.402355,"arrival":1522711140000,"departure":1522711141000,"zoneId":"NA","stopIndex":11,"stopSequence":12,"vertexType":"TRANSIT"},"legGeometry":{"points":"_zjfHfwwpLx@}BHa@NaADq@@y@Cy@I{@Ka@O[Sg@c@mAWwAMyA?EC]?wABuABmFB{@BmDFuH@i@F[FsC@c@TuGEGVsHPuDLuBXsFDoA?W@]Cu@GcAKu@Q_ASo@a@y@a@o@MOUUeCqBiDsDqE{EiAcAcB_AqBgA_AQaBSaBG_@Bu@FG?h@fNKnDpCfBkAzDgA}@y@q@sDy@GAeGT~@~KKrKyAnL[hB","length":69},"routeShortName":"15","routeLongName":"Term. Chic / Costco","rentedBike":false,"transitLeg":true,"duration":480.0,"steps":[]},{"startTime":1522711141000,"endTime":1522711512000,"departureDelay":0,"arrivalDelay":0,"realTime":false,"distance":443.37199999999996,"pathway":false,"mode":"WALK","route":"","agencyTimeZoneOffset":-14400000,"interlineWithPreviousLeg":false,"from":{"name":"Place du Royaume (Saguenéens)","stopId":"1:1294","stopCode":"1294","lon":-71.057691,"lat":48.402355,"arrival":1522711140000,"departure":1522711141000,"zoneId":"NA","stopIndex":11,"stopSequence":12,"vertexType":"TRANSIT"},"to":{"name":"Destination","lon":-71.054642,"lat":48.403952,"arrival":1522711512000,"orig":"","vertexType":"NORMAL"},"legGeometry":{"points":"iqlfHxmupLj@wDSi@CME[KKn@eECMGs@]IICWGGCYGECYGQGKKWYUSAEGIUXc@UQBWp@OWKQ","length":28},"rentedBike":false,"transitLeg":false,"duration":371.0,"steps":[{"distance":72.296,"relativeDirection":"DEPART","streetName":"Rue des Saguenéens","absoluteDirection":"EAST","stayOn":false,"area":false,"bogusName":false,"lon":-71.05772328170832,"lat":48.402297506554895,"elevation":[]},{"distance":44.199000000000005,"relativeDirection":"LEFT","streetName":"service road","absoluteDirection":"NORTHEAST","stayOn":false,"area":false,"bogusName":true,"lon":-71.0568056,"lat":48.4020704,"elevation":[]},{"distance":102.75299999999999,"relativeDirection":"RIGHT","streetName":"parking aisle","absoluteDirection":"EAST","stayOn":true,"area":false,"bogusName":true,"lon":-71.0563248,"lat":48.4022894,"elevation":[]},{"distance":131.326,"relativeDirection":"LEFT","streetName":"service road","absoluteDirection":"NORTH","stayOn":true,"area":false,"bogusName":true,"lon":-71.0550072,"lat":48.402104300000005,"elevation":[]},{"distance":37.529,"relativeDirection":"LEFT","streetName":"parking aisle","absoluteDirection":"NORTHWEST","stayOn":true,"area":false,"bogusName":true,"lon":-71.0543643,"lat":48.403182300000005,"elevation":[]},{"distance":55.269,"relativeDirection":"LEFT","streetName":"parking aisle","absoluteDirection":"NORTHWEST","stayOn":true,"area":false,"bogusName":true,"lon":-71.0543818,"lat":48.403475,"elevation":[]}]}],"tooSloped":false},{"duration":1839,"startTime":1522710022000,"endTime":1522711861000,"walkTime":1597,"transitTime":240,"waitingTime":2,"walkDistance":2046.103263146432,"walkLimitExceeded":false,"elevationLost":0.0,"elevationGained":0.0,"transfers":0,"legs":[{"startTime":1522710022000,"endTime":1522711259000,"departureDelay":0,"arrivalDelay":0,"realTime":false,"distance":1599.1120000000003,"pathway":false,"mode":"WALK","route":"","agencyTimeZoneOffset":-14400000,"interlineWithPreviousLeg":false,"from":{"name":"Origin","lon":-71.084664,"lat":48.401213,"departure":1522710022000,"orig":"","vertexType":"NORMAL"},"to":{"name":"boul. Talbot / boul. Barrette","stopId":"1:49","stopCode":"49","lon":-71.069502,"lat":48.394497,"arrival":1522711259000,"departure":1522711260000,"zoneId":"NA","stopIndex":7,"stopSequence":8,"vertexType":"TRANSIT"},"legGeometry":{"points":"iklfHltzpLFExAu@NjA?P~@Ct@^l@`@TcAv@l@RZDQzAsHPq@hBqH`@cBFUb@eB~CeMn@cCVeAZgAfB{GhAsEFSd@eBVm@x@yB|EgMPc@}BmC","length":31},"rentedBike":false,"transitLeg":false,"duration":1237.0,"steps":[{"distance":58.183,"relativeDirection":"DEPART","streetName":"Rue Romain Gary","absoluteDirection":"SOUTH","stayOn":false,"area":false,"bogusName":false,"lon":-71.08438947448157,"lat":48.40133054726044,"elevation":[]},{"distance":36.096,"relativeDirection":"RIGHT","streetName":"Rue Yves Thériault","absoluteDirection":"WEST","stayOn":false,"area":false,"bogusName":false,"lon":-71.0840893,"lat":48.400847600000006,"elevation":[]},{"distance":96.725,"relativeDirection":"LEFT","streetName":"Rue Boris Vian","absoluteDirection":"SOUTH","stayOn":false,"area":false,"bogusName":false,"lon":-71.0845591,"lat":48.4007658,"elevation":[]},{"distance":28.015,"relativeDirection":"LEFT","streetName":"Rue Jean-Paul Sartre","absoluteDirection":"SOUTHEAST","stayOn":false,"area":false,"bogusName":false,"lon":-71.0848672,"lat":48.3999413,"elevation":[]},{"distance":50.8,"relativeDirection":"RIGHT","streetName":"path","absoluteDirection":"SOUTHWEST","stayOn":false,"area":false,"bogusName":true,"lon":-71.0845255,"lat":48.3998317,"elevation":[]},{"distance":1241.566,"relativeDirection":"LEFT","streetName":"Boulevard Barrette","absoluteDirection":"SOUTHEAST","stayOn":false,"area":false,"bogusName":false,"lon":-71.0848982,"lat":48.3994511,"elevation":[]},{"distance":87.727,"relativeDirection":"LEFT","streetName":"Boulevard Talbot","absoluteDirection":"NORTHEAST","stayOn":false,"area":false,"bogusName":false,"lon":-71.0703318,"lat":48.3939238,"elevation":[]}]},{"startTime":1522711260000,"endTime":1522711500000,"departureDelay":0,"arrivalDelay":0,"realTime":false,"distance":1541.8736553866847,"pathway":false,"mode":"BUS","route":"175","agencyName":"Société de Transport du Saguenay","agencyUrl":"http://ville.saguenay.ca/fr/services-aux-citoyens/transport-sts","agencyTimeZoneOffset":-14400000,"routeColor":"FF00FF","routeType":3,"routeId":"1:175","routeTextColor":"FFFFFF","interlineWithPreviousLeg":false,"tripBlockId":"9","headsign":"Terminus Chicoutimi","agencyId":"0","tripId":"1:217417","serviceDate":"20180402","from":{"name":"boul. Talbot / boul. Barrette","stopId":"1:49","stopCode":"49","lon":-71.069502,"lat":48.394497,"arrival":1522711259000,"departure":1522711260000,"zoneId":"NA","stopIndex":7,"stopSequence":8,"vertexType":"TRANSIT"},"to":{"name":"Place Royaume","stopId":"1:1801","stopCode":"1801","lon":-71.057017,"lat":48.405588,"arrival":1522711500000,"departure":1522711501000,"zoneId":"NA","stopIndex":10,"stopSequence":11,"vertexType":"TRANSIT"},"legGeometry":{"points":"aakfHlxwpLiAoAgEsFkFsHqJ_N}FkImPkOuO{N","length":8},"routeShortName":"175","routeLongName":"Term. Chic / Costco","rentedBike":false,"transitLeg":true,"duration":240.0,"steps":[]},{"startTime":1522711501000,"endTime":1522711861000,"departureDelay":0,"arrivalDelay":0,"realTime":false,"distance":446.63599999999997,"pathway":false,"mode":"WALK","route":"","agencyTimeZoneOffset":-14400000,"interlineWithPreviousLeg":false,"from":{"name":"Place Royaume","stopId":"1:1801","stopCode":"1801","lon":-71.057017,"lat":48.405588,"arrival":1522711500000,"departure":1522711501000,"zoneId":"NA","stopIndex":10,"stopSequence":11,"vertexType":"TRANSIT"},"to":{"name":"Destination","lon":-71.054642,"lat":48.403952,"arrival":1522711861000,"orig":"","vertexType":"NORMAL"},"legGeometry":{"points":"memfHriupL`@{Ap@uBXVZX\\XXTBBTBFFXVlBuGj@wDQBWp@OWKQ","length":17},"rentedBike":false,"transitLeg":false,"duration":360.0,"steps":[{"distance":90.318,"relativeDirection":"DEPART","streetName":"parking aisle","absoluteDirection":"SOUTHEAST","stayOn":false,"area":false,"bogusName":true,"lon":-71.0570537,"lat":48.405519700000006,"elevation":[]},{"distance":109.13300000000001,"relativeDirection":"RIGHT","streetName":"service road","absoluteDirection":"SOUTHWEST","stayOn":true,"area":false,"bogusName":true,"lon":-71.05600720000001,"lat":48.4050992,"elevation":[]},{"distance":191.916,"relativeDirection":"LEFT","streetName":"path","absoluteDirection":"SOUTHEAST","stayOn":true,"area":false,"bogusName":true,"lon":-71.0566984,"lat":48.4042426,"elevation":[]},{"distance":55.269,"relativeDirection":"HARD_LEFT","streetName":"parking aisle","absoluteDirection":"NORTHWEST","stayOn":true,"area":false,"bogusName":true,"lon":-71.0543818,"lat":48.403475,"elevation":[]}]}],"tooSloped":false},{"duration":1191,"startTime":1522713921000,"endTime":1522715112000,"walkTime":619,"transitTime":570,"waitingTime":2,"walkDistance":740.9851503643188,"walkLimitExceeded":false,"elevationLost":0.0,"elevationGained":0.0,"transfers":0,"legs":[{"startTime":1522713921000,"endTime":1522714169000,"departureDelay":0,"arrivalDelay":0,"realTime":false,"distance":297.25300000000004,"pathway":false,"mode":"WALK","route":"","agencyTimeZoneOffset":-14400000,"interlineWithPreviousLeg":false,"from":{"name":"Origin","lon":-71.084664,"lat":48.401213,"departure":1522713921000,"orig":"","vertexType":"NORMAL"},"to":{"name":"boul. Barrette / passerelle rue Marcel-Portal","stopId":"1:90","stopCode":"90","lon":-71.085149,"lat":48.399287,"arrival":1522714169000,"departure":1522714170000,"zoneId":"NA","stopIndex":31,"stopSequence":32,"vertexType":"TRANSIT"},"legGeometry":{"points":"iklfHltzpLFExAu@NjA?P~@Ct@^l@`@TcAv@l@RZRRLNCJ","length":14},"rentedBike":false,"transitLeg":false,"duration":248.0,"steps":[{"distance":58.183,"relativeDirection":"DEPART","streetName":"Rue Romain Gary","absoluteDirection":"SOUTH","stayOn":false,"area":false,"bogusName":false,"lon":-71.08438947448157,"lat":48.40133054726044,"elevation":[]},{"distance":36.096,"relativeDirection":"RIGHT","streetName":"Rue Yves Thériault","absoluteDirection":"WEST","stayOn":false,"area":false,"bogusName":false,"lon":-71.0840893,"lat":48.400847600000006,"elevation":[]},{"distance":96.725,"relativeDirection":"LEFT","streetName":"Rue Boris Vian","absoluteDirection":"SOUTH","stayOn":false,"area":false,"bogusName":false,"lon":-71.0845591,"lat":48.4007658,"elevation":[]},{"distance":28.015,"relativeDirection":"LEFT","streetName":"Rue Jean-Paul Sartre","absoluteDirection":"SOUTHEAST","stayOn":false,"area":false,"bogusName":false,"lon":-71.0848672,"lat":48.3999413,"elevation":[]},{"distance":73.29599999999999,"relativeDirection":"RIGHT","streetName":"path","absoluteDirection":"SOUTHWEST","stayOn":false,"area":false,"bogusName":true,"lon":-71.0845255,"lat":48.3998317,"elevation":[]},{"distance":4.938,"relativeDirection":"RIGHT","streetName":"bike path","absoluteDirection":"NORTHWEST","stayOn":true,"area":false,"bogusName":true,"lon":-71.08507540000001,"lat":48.3992865,"elevation":[]}]},{"startTime":1522714170000,"endTime":1522714260000,"departureDelay":0,"arrivalDelay":0,"realTime":false,"distance":1328.7038023955338,"pathway":false,"mode":"BUS","route":"14","agencyName":"Société de Transport du Saguenay","agencyUrl":"http://ville.saguenay.ca/fr/services-aux-citoyens/transport-sts","agencyTimeZoneOffset":-14400000,"routeColor":"C0C000","routeType":3,"routeId":"1:14","routeTextColor":"000000","interlineWithPreviousLeg":false,"tripBlockId":"30","headsign":"Talbot / Barrette","agencyId":"0","tripId":"1:218113","serviceDate":"20180402","from":{"name":"boul. Barrette / passerelle rue Marcel-Portal","stopId":"1:90","stopCode":"90","lon":-71.085149,"lat":48.399287,"arrival":1522714169000,"departure":1522714170000,"zoneId":"NA","stopIndex":31,"stopSequence":32,"vertexType":"TRANSIT"},"to":{"name":"Roitelets / Sapins","stopId":"1:1543","stopCode":"1543","lon":-71.069553,"lat":48.393375,"arrival":1522714260000,"departure":1522714260000,"zoneId":"NA","stopIndex":35,"stopSequence":36,"vertexType":"TRANSIT"},"legGeometry":{"points":"e_lfHvxzpLj@oCvEoSl@_CxCmLjAeFpCeKrByHfAqCvH_SLa@","length":11},"routeShortName":"14","routeLongName":"Coopérative","rentedBike":false,"transitLeg":true,"duration":90.0,"steps":[]},{"startTime":1522714260000,"endTime":1522714740000,"departureDelay":0,"arrivalDelay":0,"realTime":false,"distance":3143.6310185151533,"pathway":false,"mode":"BUS","route":"15","agencyName":"Société de Transport du Saguenay","agencyUrl":"http://ville.saguenay.ca/fr/services-aux-citoyens/transport-sts","agencyTimeZoneOffset":-14400000,"routeColor":"FF00FF","routeType":3,"routeId":"1:15","routeTextColor":"FFFFFF","interlineWithPreviousLeg":true,"tripBlockId":"30","headsign":"Terminus Chicoutimi","agencyId":"0","tripId":"1:218114","serviceDate":"20180402","from":{"name":"Roitelets / Sapins","stopId":"1:1543","stopCode":"1543","lon":-71.069553,"lat":48.393375,"arrival":1522714260000,"departure":1522714260000,"zoneId":"NA","stopIndex":0,"stopSequence":1,"vertexType":"TRANSIT"},"to":{"name":"Place du Royaume (Saguenéens)","stopId":"1:1294","stopCode":"1294","lon":-71.057691,"lat":48.402355,"arrival":1522714740000,"departure":1522714741000,"zoneId":"NA","stopIndex":11,"stopSequence":12,"vertexType":"TRANSIT"},"legGeometry":{"points":"_zjfHfwwpLx@}BHa@NaADq@@y@Cy@I{@Ka@O[Sg@c@mAWwAMyA?EC]?wABuABmFB{@BmDFuH@i@F[FsC@c@TuGEGVsHPuDLuBXsFDoA?W@]Cu@GcAKu@Q_ASo@a@y@a@o@MOUUeCqBiDsDqE{EiAcAcB_AqBgA_AQaBSaBG_@Bu@FG?h@fNKnDpCfBkAzDgA}@y@q@sDy@GAeGT~@~KKrKyAnL[hB","length":69},"routeShortName":"15","routeLongName":"Term. Chic / Costco","rentedBike":false,"transitLeg":true,"duration":480.0,"steps":[]},{"startTime":1522714741000,"endTime":1522715112000,"departureDelay":0,"arrivalDelay":0,"realTime":false,"distance":443.37199999999996,"pathway":false,"mode":"WALK","route":"","agencyTimeZoneOffset":-14400000,"interlineWithPreviousLeg":false,"from":{"name":"Place du Royaume (Saguenéens)","stopId":"1:1294","stopCode":"1294","lon":-71.057691,"lat":48.402355,"arrival":1522714740000,"departure":1522714741000,"zoneId":"NA","stopIndex":11,"stopSequence":12,"vertexType":"TRANSIT"},"to":{"name":"Destination","lon":-71.054642,"lat":48.403952,"arrival":1522715112000,"orig":"","vertexType":"NORMAL"},"legGeometry":{"points":"iqlfHxmupLj@wDSi@CME[KKn@eECMGs@]IICWGGCYGECYGQGKKWYUSAEGIUXc@UQBWp@OWKQ","length":28},"rentedBike":false,"transitLeg":false,"duration":371.0,"steps":[{"distance":72.296,"relativeDirection":"DEPART","streetName":"Rue des Saguenéens","absoluteDirection":"EAST","stayOn":false,"area":false,"bogusName":false,"lon":-71.05772328170832,"lat":48.402297506554895,"elevation":[]},{"distance":44.199000000000005,"relativeDirection":"LEFT","streetName":"service road","absoluteDirection":"NORTHEAST","stayOn":false,"area":false,"bogusName":true,"lon":-71.0568056,"lat":48.4020704,"elevation":[]},{"distance":102.75299999999999,"relativeDirection":"RIGHT","streetName":"parking aisle","absoluteDirection":"EAST","stayOn":true,"area":false,"bogusName":true,"lon":-71.0563248,"lat":48.4022894,"elevation":[]},{"distance":131.326,"relativeDirection":"LEFT","streetName":"service road","absoluteDirection":"NORTH","stayOn":true,"area":false,"bogusName":true,"lon":-71.0550072,"lat":48.402104300000005,"elevation":[]},{"distance":37.529,"relativeDirection":"LEFT","streetName":"parking aisle","absoluteDirection":"NORTHWEST","stayOn":true,"area":false,"bogusName":true,"lon":-71.0543643,"lat":48.403182300000005,"elevation":[]},{"distance":55.269,"relativeDirection":"LEFT","streetName":"parking aisle","absoluteDirection":"NORTHWEST","stayOn":true,"area":false,"bogusName":true,"lon":-71.0543818,"lat":48.403475,"elevation":[]}]}],"tooSloped":false}]},"debugOutput":{"precalculationTime":30,"pathCalculationTime":24,"pathTimes":[12,6,6],"renderingTime":0,"totalTime":54,"timedOut":false},"elevationMetadata":{"ellipsoidToGeoidDifference":-28.885904201182168,"geoidElevation":false}}