{"requestParameters":{"date":"2018/04/02","walkSpeed":"1.33","walkReluctance":"2.0","fromPlace":"48.403878,-71.06054398","maxWalkDistance":"3000","waitReluctance":"1.0","carSpeed":"33","numItineraries":"3","waitAtBeginningFactor":"0.4","mode":"TRANSIT,WALK","ignoreRealtimeUpdates":"false","stairsReluctance":"2.0","toPlace":"48.401602,-71.086033","time":"10:0:00"},"plan":{"date":1522677600000,"from":{"name":"Origin","lon":-71.06054398,"lat":48.403878,"orig":"","vertexType":"NORMAL"},"to":{"name":"Destination","lon":-71.086033,"lat":48.401602,"orig":"","vertexType":"NORMAL"},"itineraries":[{"duration":797,"startTime":1522677942000,"endTime":1522678739000,"walkTime":341,"transitTime":454,"waitingTime":2,"walkDistance":424.53213533337237,"walkLimitExceeded":false,"elevationLost":0.0,"elevationGained":0.0,"transfers":0,"legs":[{"startTime":1522677942000,"endTime":1522677958000,"departureDelay":0,"arrivalDelay":0,"realTime":false,"distance":20.532,"pathway":false,"mode":"WALK","route":"","agencyTimeZoneOffset":-14400000,"interlineWithPreviousLeg":false,"from":{"name":"Origin","lon":-71.06054398,"lat":48.403878,"departure":1522677942000,"orig":"","vertexType":"NORMAL"},"to":{"name":"Saguenéens  / Bach","stopId":"1:575","stopCode":"575","lon":-71.061104,"lat":48.403689,"arrival":1522677958000,"departure":1522677959000,"zoneId":"NA","stopIndex":23,"stopSequence":24,"vertexType":"TRANSIT"},"legGeometry":{"points":"aylfHxavpLUl@","length":2},"rentedBike":false,"transitLeg":false,"duration":16.0,"steps":[{"distance":20.532,"relativeDirection":"DEPART","streetName":"Rue des Saguenéens","absoluteDirection":"NORTHWEST","stayOn":false,"area":false,"bogusName":false,"lon":-71.06092938955602,"lat":48.40353566515243,"elevation":[]}]},{"startTime":1522677959000,"endTime":1522678320000,"departureDelay":0,"arrivalDelay":0,"realTime":false,"distance":3436.0046196032185,"pathway":false,"mode":"BUS","route":"15","agencyName":"Société de Transport du Saguenay","agencyUrl":"http://ville.saguenay.ca/fr/services-aux-citoyens/transport-sts","agencyTimeZoneOffset":-14400000,"routeColor":"FF00FF","routeType":3,"routeId":"1:15","routeTextColor":"FFFFFF","interlineWithPreviousLeg":false,"tripBlockId":"31","headsign":"Talbot / Barrette","agencyId":"0","tripId":"1:218128","serviceDate":"20180402","from":{"name":"Saguenéens  / Bach","stopId":"1:575","stopCode":"575","lon":-71.061104,"lat":48.403689,"arrival":1522677958000,"departure":1522677959000,"zoneId":"NA","stopIndex":23,"stopSequence":24,"vertexType":"TRANSIT"},"to":{"name":"Roitelets / Sapins","stopId":"1:1543","stopCode":"1543","lon":-71.069553,"lat":48.393375,"arrival":1522678320000,"departure":1522678320000,"zoneId":"NA","stopIndex":35,"stopSequence":36,"vertexType":"TRANSIT"},"legGeometry":{"points":"ezlfHvbvpLtC{FnBoLbCaO?qLa@uJzF`ApF~@~@PzAgEeDcBf@qAWcKUqEx@Ef@ExDVjDxAFBrBvAfGjG@BjCzC~DxC@@zA~Cb@fCJlC?BsBre@?DWbOAn@?nEGnM@H\\hCzA~ELvAAlAi@jDo@nB","length":42},"routeShortName":"15","routeLongName":"Term. Chic / Costco","rentedBike":false,"transitLeg":true,"duration":361.0,"steps":[]},{"startTime":1522678320000,"endTime":1522678413000,"departureDelay":0,"arrivalDelay":0,"realTime":false,"distance":1316.7173905257473,"pathway":false,"mode":"BUS","route":"14","agencyName":"Société de Transport du Saguenay","agencyUrl":"http://ville.saguenay.ca/fr/services-aux-citoyens/transport-sts","agencyTimeZoneOffset":-14400000,"routeColor":"C0C000","routeType":3,"routeId":"1:14","routeTextColor":"000000","interlineWithPreviousLeg":true,"tripBlockId":"31","headsign":"Terminus Chicoutimi","agencyId":"0","tripId":"1:218129","serviceDate":"20180402","from":{"name":"Roitelets / Sapins","stopId":"1:1513","stopCode":"1513","lon":-71.069396,"lat":48.393523,"arrival":1522678320000,"departure":1522678320000,"zoneId":"NA","stopIndex":0,"stopSequence":1,"vertexType":"TRANSIT"},"to":{"name":"boul. Barrette passerelle J.Paul Sartre","stopId":"1:1898","stopCode":"1898","lon":-71.084773,"lat":48.399467,"arrival":1522678413000,"departure":1522678414000,"zoneId":"NA","stopIndex":4,"stopSequence":5,"vertexType":"TRANSIT"},"legGeometry":{"points":"azjfHfwwpLiEfLuBzFsAnDgGzSWfAcD`Mi@dCgChLmCzM","length":10},"routeShortName":"14","routeLongName":"Coopérative","rentedBike":false,"transitLeg":true,"duration":93.0,"steps":[]},{"startTime":1522678414000,"endTime":1522678739000,"departureDelay":0,"arrivalDelay":0,"realTime":false,"distance":403.846,"pathway":false,"mode":"WALK","route":"","agencyTimeZoneOffset":-14400000,"interlineWithPreviousLeg":false,"from":{"name":"boul. Barrette passerelle J.Paul Sartre","stopId":"1:1898","stopCode":"1898","lon":-71.084773,"lat":48.399467,"arrival":1522678413000,"departure":1522678414000,"zoneId":"NA","stopIndex":4,"stopSequence":5,"vertexType":"TRANSIT"},"to":{"name":"Destination","lon":-71.086033,"lat":48.401602,"arrival":1522678739000,"orig":"","vertexType":"NORMAL"},"legGeometry":{"points":"k_lfH`wzpLEPS[w@m@UbAm@a@u@_@_AB?QOkAyAt@[XChA]bBa@lB","length":15},"rentedBike":false,"transitLeg":false,"duration":325.0,"steps":[{"distance":7.709,"relativeDirection":"DEPART","streetName":"Boulevard Barrette","absoluteDirection":"NORTHWEST","stayOn":false,"area":false,"bogusName":false,"lon":-71.08480294001286,"lat":48.399422712383675,"elevation":[]},{"distance":50.8,"relativeDirection":"RIGHT","streetName":"path","absoluteDirection":"NORTHEAST","stayOn":false,"area":false,"bogusName":true,"lon":-71.0848982,"lat":48.3994511,"elevation":[]},{"distance":28.015,"relativeDirection":"LEFT","streetName":"Rue Jean-Paul Sartre","absoluteDirection":"NORTHWEST","stayOn":false,"area":false,"bogusName":false,"lon":-71.0845255,"lat":48.3998317,"elevation":[]},{"distance":96.725,"relativeDirection":"RIGHT","streetName":"Rue Boris Vian","absoluteDirection":"NORTHEAST","stayOn":false,"area":false,"bogusName":false,"lon":-71.0848672,"lat":48.3999413,"elevation":[]},{"distance":36.096,"relativeDirection":"RIGHT","streetName":"Rue Yves Thériault","absoluteDirection":"EAST","stayOn":false,"area":false,"bogusName":false,"lon":-71.0845591,"lat":48.4007658,"elevation":[]},{"distance":184.501,"relativeDirection":"LEFT","streetName":"Rue Romain Gary","absoluteDirection":"NORTH","stayOn":false,"area":false,"bogusName":false,"lon":-71.0840893,"lat":48.400847600000006,"elevation":[]}]}],"tooSloped":false},{"duration":797,"startTime":1522679742000,"endTime":1522680539000,"walkTime":341,"transitTime":454,"waitingTime":2,"walkDistance":424.53213533337237,"walkLimitExceeded":false,"elevationLost":0.0,"elevationGained":0.0,"transfers":0,"legs":[{"startTime":1522679742000,"endTime":1522679758000,"departureDelay":0,"arrivalDelay":0,"realTime":false,"distance":20.532,"pathway":false,"mode":"WALK","route":"","agencyTimeZoneOffset":-14400000,"interlineWithPreviousLeg":false,"from":{"name":"Origin","lon":-71.06054398,"lat":48.403878,"departure":1522679742000,"orig":"","vertexType":"NORMAL"},"to":{"name":"Saguenéens  / Bach","stopId":"1:575","stopCode":"575","lon":-71.061104,"lat":48.403689,"arrival":1522679758000,"departure":1522679759000,"zoneId":"NA","stopIndex":23,"stopSequence":24,"vertexType":"TRANSIT"},"legGeometry":{"points":"aylfHxavpLUl@","length":2},"rentedBike":false,"transitLeg":false,"duration":16.0,"steps":[{"distance":20.532,"relativeDirection":"DEPART","streetName":"Rue des Saguenéens","absoluteDirection":"NORTHWEST","stayOn":false,"area":false,"bogusName":false,"lon":-71.06092938955602,"lat":48.40353566515243,"elevation":[]}]},{"startTime":1522679759000,"endTime":1522680120000,"departureDelay":0,"arrivalDelay":0,"realTime":false,"distance":3436.0046196032185,"pathway":false,"mode":"BUS","route":"15","agencyName":"Société de Transport du Saguenay","agencyUrl":"http://ville.saguenay.ca/fr/services-aux-citoyens/transport-sts","agencyTimeZoneOffset":-14400000,"routeColor":"FF00FF","routeType":3,"routeId":"1:15","routeTextColor":"FFFFFF","interlineWithPreviousLeg":false,"tripBlockId":"33","headsign":"Talbot / Barrette","agencyId":"0","tripId":"1:218179","serviceDate":"20180402","from":{"name":"Saguenéens  / Bach","stopId":"1:575","stopCode":"575","lon":-71.061104,"lat":48.403689,"arrival":1522679758000,"departure":1522679759000,"zoneId":"NA","stopIndex":23,"stopSequence":24,"vertexType":"TRANSIT"},"to":{"name":"Roitelets / Sapins","stopId":"1:1543","stopCode":"1543","lon":-71.069553,"lat":48.393375,"arrival":1522680120000,"departure":1522680120000,"zoneId":"NA","stopIndex":35,"stopSequence":36,"vertexType":"TRANSIT"},"legGeometry":{"points":"ezlfHvbvpLtC{FnBoLbCaO?qLa@uJzF`ApF~@~@PzAgEeDcBf@qAWcKUqEx@Ef@ExDVjDxAFBrBvAfGjG@BjCzC~DxC@@zA~Cb@fCJlC?BsBre@?DWbOAn@?nEGnM@H\\hCzA~ELvAAlAi@jDo@nB","length":42},"routeShortName":"15","routeLongName":"Term. Chic / Costco","rentedBike":false,"transitLeg":true,"duration":361.0,"steps":[]},{"startTime":1522680120000,"endTime":1522680213000,"departureDelay":0,"arrivalDelay":0,"realTime":false,"distance":1316.7173905257473,"pathway":false,"mode":"BUS","route":"14","agencyName":"Société de Transport du Saguenay","agencyUrl":"http://ville.saguenay.ca/fr/services-aux-citoyens/transport-sts","agencyTimeZoneOffset":-14400000,"routeColor":"C0C000","routeType":3,"routeId":"1:14","routeTextColor":"000000","interlineWithPreviousLeg":true,"tripBlockId":"33","headsign":"Terminus Chicoutimi","agencyId":"0","tripId":"1:218180","serviceDate":"20180402","from":{"name":"Roitelets / Sapins","stopId":"1:1513","stopCode":"1513","lon":-71.069396,"lat":48.393523,"arrival":1522680120000,"departure":1522680120000,"zoneId":"NA","stopIndex":0,"stopSequence":1,"vertexType":"TRANSIT"},"to":{"name":"boul. Barrette passerelle J.Paul Sartre","stopId":"1:1898","stopCode":"1898","lon":-71.084773,"lat":48.399467,"arrival":1522680213000,"departure":1522680214000,"zoneId":"NA","stopIndex":4,"stopSequence":5,"vertexType":"TRANSIT"},"legGeometry":{"points":"azjfHfwwpLiEfLuBzFsAnDgGzSWfAcD`Mi@dCgChLmCzM","length":10},"routeShortName":"14","routeLongName":"Coopérative","rentedBike":false,"transitLeg":true,"duration":93.0,"steps":[]},{"startTime":1522680214000,"endTime":1522680539000,"departureDelay":0,"arrivalDelay":0,"realTime":false,"distance":403.846,"pathway":false,"mode":"WALK","route":"","agencyTimeZoneOffset":-14400000,"interlineWithPreviousLeg":false,"from":{"name":"boul. Barrette passerelle J.Paul Sartre","stopId":"1:1898","stopCode":"1898","lon":-71.084773,"lat":48.399467,"arrival":1522680213000,"departure":1522680214000,"zoneId":"NA","stopIndex":4,"stopSequence":5,"vertexType":"TRANSIT"},"to":{"name":"Destination","lon":-71.086033,"lat":48.401602,"arrival":1522680539000,"orig":"","vertexType":"NORMAL"},"legGeometry":{"points":"k_lfH`wzpLEPS[w@m@UbAm@a@u@_@_AB?QOkAyAt@[XChA]bBa@lB","length":15},"rentedBike":false,"transitLeg":false,"duration":325.0,"steps":[{"distance":7.709,"relativeDirection":"DEPART","streetName":"Boulevard Barrette","absoluteDirection":"NORTHWEST","stayOn":false,"area":false,"bogusName":false,"lon":-71.08480294001286,"lat":48.399422712383675,"elevation":[]},{"distance":50.8,"relativeDirection":"RIGHT","streetName":"path","absoluteDirection":"NORTHEAST","stayOn":false,"area":false,"bogusName":true,"lon":-71.0848982,"lat":48.3994511,"elevation":[]},{"distance":28.015,"relativeDirection":"LEFT","streetName":"Rue Jean-Paul Sartre","absoluteDirection":"NORTHWEST","stayOn":false,"area":false,"bogusName":false,"lon":-71.0845255,"lat":48.3998317,"elevation":[]},{"distance":96.725,"relativeDirection":"RIGHT","streetName":"Rue Boris Vian","absoluteDirection":"NORTHEAST","stayOn":false,"area":false,"bogusName":false,"lon":-71.0848672,"lat":48.3999413,"elevation":[]},{"distance":36.096,"relativeDirection":"RIGHT","streetName":"Rue Yves Thériault","absoluteDirection":"EAST","stayOn":false,"area":false,"bogusName":false,"lon":-71.0845591,"lat":48.4007658,"elevation":[]},{"distance":184.501,"relativeDirection":"LEFT","streetName":"Rue Romain Gary","absoluteDirection":"NORTH","stayOn":false,"area":false,"bogusName":false,"lon":-71.0840893,"lat":48.400847600000006,"elevation":[]}]}],"tooSloped":false},{"duration":797,"startTime":1522681542000,"endTime":1522682339000,"walkTime":341,"transitTime":454,"waitingTime":2,"walkDistance":424.53213533337237,"walkLimitExceeded":false,"elevationLost":0.0,"elevationGained":0.0,"transfers":0,"legs":[{"startTime":1522681542000,"endTime":1522681558000,"departureDelay":0,"arrivalDelay":0,"realTime":false,"distance":20.532,"pathway":false,"mode":"WALK","route":"","agencyTimeZoneOffset":-14400000,"interlineWithPreviousLeg":false,"from":{"name":"Origin","lon":-71.06054398,"lat":48.403878,"departure":1522681542000,"orig":"","vertexType":"NORMAL"},"to":{"name":"Saguenéens  / Bach","stopId":"1:575","stopCode":"575","lon":-71.061104,"lat":48.403689,"arrival":1522681558000,"departure":1522681559000,"zoneId":"NA","stopIndex":23,"stopSequence":24,"vertexType":"TRANSIT"},"legGeometry":{"points":"aylfHxavpLUl@","length":2},"rentedBike":false,"transitLeg":false,"duration":16.0,"steps":[{"distance":20.532,"relativeDirection":"DEPART","streetName":"Rue des Saguenéens","absoluteDirection":"NORTHWEST","stayOn":false,"area":false,"bogusName":false,"lon":-71.06092938955602,"lat":48.40353566515243,"elevation":[]}]},{"startTime":1522681559000,"endTime":1522681920000,"departureDelay":0,"arrivalDelay":0,"realTime":false,"distance":3436.0046196032185,"pathway":false,"mode":"BUS","route":"15","agencyName":"Société de Transport du Saguenay","agencyUrl":"http://ville.saguenay.ca/fr/services-aux-citoyens/transport-sts","agencyTimeZoneOffset":-14400000,"routeColor":"FF00FF","routeType":3,"routeId":"1:15","routeTextColor":"FFFFFF","interlineWithPreviousLeg":false,"tripBlockId":"31","headsign":"Talbot / Barrette","agencyId":"0","tripId":"1:218130","serviceDate":"20180402","from":{"name":"Saguenéens  / Bach","stopId":"1:575","stopCode":"575","lon":-71.061104,"lat":48.403689,"arrival":1522681558000,"departure":1522681559000,"zoneId":"NA","stopIndex":23,"stopSequence":24,"vertexType":"TRANSIT"},"to":{"name":"Roitelets / Sapins","stopId":"1:1543","stopCode":"1543","lon":-71.069553,"lat":48.393375,"arrival":1522681920000,"departure":1522681920000,"zoneId":"NA","stopIndex":35,"stopSequence":36,"vertexType":"TRANSIT"},"legGeometry":{"points":"ezlfHvbvpLtC{FnBoLbCaO?qLa@uJzF`ApF~@~@PzAgEeDcBf@qAWcKUqEx@Ef@ExDVjDxAFBrBvAfGjG@BjCzC~DxC@@zA~Cb@fCJlC?BsBre@?DWbOAn@?nEGnM@H\\hCzA~ELvAAlAi@jDo@nB","length":42},"routeShortName":"15","routeLongName":"Term. Chic / Costco","rentedBike":false,"transitLeg":true,"duration":361.0,"steps":[]},{"startTime":1522681920000,"endTime":1522682013000,"departureDelay":0,"arrivalDelay":0,"realTime":false,"distance":1316.7173905257473,"pathway":false,"mode":"BUS","route":"14","agencyName":"Société de Transport du Saguenay","agencyUrl":"http://ville.saguenay.ca/fr/services-aux-citoyens/transport-sts","agencyTimeZoneOffset":-14400000,"routeColor":"C0C000","routeType":3,"routeId":"1:14","routeTextColor":"000000","interlineWithPreviousLeg":true,"tripBlockId":"31","headsign":"Terminus Chicoutimi","agencyId":"0","tripId":"1:218131","serviceDate":"20180402","from":{"name":"Roitelets / Sapins","stopId":"1:1513","stopCode":"1513","lon":-71.069396,"lat":48.393523,"arrival":1522681920000,"departure":1522681920000,"zoneId":"NA","stopIndex":0,"stopSequence":1,"vertexType":"TRANSIT"},"to":{"name":"boul. Barrette passerelle J.Paul Sartre","stopId":"1:1898","stopCode":"1898","lon":-71.084773,"lat":48.399467,"arrival":1522682013000,"departure":1522682014000,"zoneId":"NA","stopIndex":4,"stopSequence":5,"vertexType":"TRANSIT"},"legGeometry":{"points":"azjfHfwwpLiEfLuBzFsAnDgGzSWfAcD`Mi@dCgChLmCzM","length":10},"routeShortName":"14","routeLongName":"Coopérative","rentedBike":false,"transitLeg":true,"duration":93.0,"steps":[]},{"startTime":1522682014000,"endTime":1522682339000,"departureDelay":0,"arrivalDelay":0,"realTime":false,"distance":403.846,"pathway":false,"mode":"WALK","route":"","agencyTimeZoneOffset":-14400000,"interlineWithPreviousLeg":false,"from":{"name":"boul. Barrette passerelle J.Paul Sartre","stopId":"1:1898","stopCode":"1898","lon":-71.084773,"lat":48.399467,"arrival":1522682013000,"departure":1522682014000,"zoneId":"NA","stopIndex":4,"stopSequence":5,"vertexType":"TRANSIT"},"to":{"name":"Destination","lon":-71.086033,"lat":48.401602,"arrival":1522682339000,"orig":"","vertexType":"NORMAL"},"legGeometry":{"points":"k_lfH`wzpLEPS[w@m@UbAm@a@u@_@_AB?QOkAyAt@[XChA]bBa@lB","length":15},"rentedBike":false,"transitLeg":false,"duration":325.0,"steps":[{"distance":7.709,"relativeDirection":"DEPART","streetName":"Boulevard Barrette","absoluteDirection":"NORTHWEST","stayOn":false,"area":false,"bogusName":false,"lon":-71.08480294001286,"lat":48.399422712383675,"elevation":[]},{"distance":50.8,"relativeDirection":"RIGHT","streetName":"path","absoluteDirection":"NORTHEAST","stayOn":false,"area":false,"bogusName":true,"lon":-71.0848982,"lat":48.3994511,"elevation":[]},{"distance":28.015,"relativeDirection":"LEFT","streetName":"Rue Jean-Paul Sartre","absoluteDirection":"NORTHWEST","stayOn":false,"area":false,"bogusName":false,"lon":-71.0845255,"lat":48.3998317,"elevation":[]},{"distance":96.725,"relativeDirection":"RIGHT","streetName":"Rue Boris Vian","absoluteDirection":"NORTHEAST","stayOn":false,"area":false,"bogusName":false,"lon":-71.0848672,"lat":48.3999413,"elevation":[]},{"distance":36.096,"relativeDirection":"RIGHT","streetName":"Rue Yves Thériault","absoluteDirection":"EAST","stayOn":false,"area":false,"bogusName":false,"lon":-71.0845591,"lat":48.4007658,"elevation":[]},{"distance":184.501,"relativeDirection":"LEFT","streetName":"Rue Romain Gary","absoluteDirection":"NORTH","stayOn":false,"area":false,"bogusName":false,"lon":-71.0840893,"lat":48.400847600000006,"elevation":[]}]}],"tooSloped":false}]},"debugOutput":{"precalculationTime":34,"pathCalculationTime":38,"pathTimes":[16,9,13],"renderingTime":1,"totalTime":73,"timedOut":false},"elevationMetadata":{"ellipsoidToGeoidDifference":-28.885904201182168,"geoidElevation":false}}