{"requestParameters":{"date":"2018/04/02","walkSpeed":"1.33","walkReluctance":"2.0","fromPlace":"48.41413,-71.04804","maxWalkDistance":"3000","waitReluctance":"1.0","carSpeed":"33","numItineraries":"3","waitAtBeginningFactor":"0.4","mode":"TRANSIT,WALK","ignoreRealtimeUpdates":"false","stairsReluctance":"2.0","toPlace":"48.427464,-71.06332999","time":"12:0:00"},"plan":{"date":1522684800000,"from":{"name":"Origin","lon":-71.04804,"lat":48.41413,"orig":"","vertexType":"NORMAL"},"to":{"name":"Destination","lon":-71.06332999,"lat":48.427464,"orig":"","vertexType":"NORMAL"},"itineraries":[{"duration":1143,"startTime":1522685203000,"endTime":1522686346000,"walkTime":412,"transitTime":729,"waitingTime":2,"walkDistance":521.4541729284854,"walkLimitExceeded":false,"elevationLost":0.0,"elevationGained":0.0,"transfers":0,"legs":[{"startTime":1522685203000,"endTime":1522685519000,"departureDelay":0,"arrivalDelay":0,"realTime":false,"distance":402.0849999999999,"pathway":false,"mode":"WALK","route":"","agencyTimeZoneOffset":-14400000,"interlineWithPreviousLeg":false,"from":{"name":"Origin","lon":-71.04804,"lat":48.41413,"departure":1522685203000,"orig":"","vertexType":"NORMAL"},"to":{"name":"missingStopName","stopId":"1:1812","stopCode":"1812","lon":-71.051352,"lat":48.411592,"arrival":1522685519000,"departure":1522685520000,"zoneId":"NA","stopIndex":11,"stopSequence":12,"vertexType":"TRANSIT"},"legGeometry":{"points":"y{nfHlrspLZ^ENKXId@nArArI~ITXLJx@|@","length":10},"rentedBike":false,"transitLeg":false,"duration":316.0,"steps":[{"distance":54.196,"relativeDirection":"DEPART","streetName":"service road","absoluteDirection":"SOUTHWEST","stayOn":false,"area":false,"bogusName":false,"lon":-71.0482291617135,"lat":48.41421891517668,"elevation":[]},{"distance":347.88899999999995,"relativeDirection":"LEFT","streetName":"Boulevard Talbot","absoluteDirection":"SOUTHWEST","stayOn":false,"area":false,"bogusName":false,"lon":-71.04878880000001,"lat":48.414218500000004,"elevation":[]}]},{"startTime":1522685520000,"endTime":1522686249000,"departureDelay":0,"arrivalDelay":0,"realTime":false,"distance":3220.3505820430646,"pathway":false,"mode":"BUS","route":"175","agencyName":"Société de Transport du Saguenay","agencyUrl":"http://ville.saguenay.ca/fr/services-aux-citoyens/transport-sts","agencyTimeZoneOffset":-14400000,"routeColor":"FF00FF","routeType":3,"routeId":"1:175","routeTextColor":"FFFFFF","interlineWithPreviousLeg":false,"tripBlockId":"81","headsign":"Terminus Chicoutimi","agencyId":"0","tripId":"1:218659","serviceDate":"20180402","from":{"name":"missingStopName","stopId":"1:1812","stopCode":"1812","lon":-71.051352,"lat":48.411592,"arrival":1522685519000,"departure":1522685520000,"zoneId":"NA","stopIndex":11,"stopSequence":12,"vertexType":"TRANSIT"},"to":{"name":"Bibliothèque de Chicoutimi","stopId":"1:452","stopCode":"452","lon":-71.064045,"lat":48.427875,"arrival":1522686249000,"departure":1522686250000,"zoneId":"NA","stopIndex":26,"stopSequence":27,"vertexType":"TRANSIT"},"legGeometry":{"points":"wknfHxftpLcBcB{E`Jc@x@qG~@{BlAk@XgSrQqB_GAeFiEeEOt@gAeA_A_ATm@yAwAgBeBqDnL@nBF`@f@|C[dCuAfB]xAs@OmCmCmEkE]a@g@i@ZiGTmEl@oLaEe@cFk@?pH?tJDvBPjMB~Bo@PQDRbFKdGMhIOvIK|E","length":46},"routeShortName":"175","routeLongName":"Term. Chic / Costco","rentedBike":false,"transitLeg":true,"duration":729.0,"steps":[]},{"startTime":1522686250000,"endTime":1522686346000,"departureDelay":0,"arrivalDelay":0,"realTime":false,"distance":119.25000000000001,"pathway":false,"mode":"WALK","route":"","agencyTimeZoneOffset":-14400000,"interlineWithPreviousLeg":false,"from":{"name":"Bibliothèque de Chicoutimi","stopId":"1:452","stopCode":"452","lon":-71.064045,"lat":48.427875,"arrival":1522686249000,"departure":1522686250000,"zoneId":"NA","stopIndex":26,"stopSequence":27,"vertexType":"TRANSIT"},"to":{"name":"Destination","lon":-71.06332999,"lat":48.427464,"arrival":1522686346000,"orig":"","vertexType":"NORMAL"},"legGeometry":{"points":"_qqfHhuvpL@k@@YFqB@i@~@@","length":6},"rentedBike":false,"transitLeg":false,"duration":96.0,"steps":[{"distance":84.04800000000002,"relativeDirection":"DEPART","streetName":"Rue Racine Est","absoluteDirection":"EAST","stayOn":false,"area":false,"bogusName":false,"lon":-71.0640491926542,"lat":48.42784569763212,"elevation":[]},{"distance":35.202,"relativeDirection":"RIGHT","streetName":"Rue de l'Hôtel-de-Ville","absoluteDirection":"SOUTH","stayOn":false,"area":false,"bogusName":false,"lon":-71.0629152,"lat":48.4277742,"elevation":[]}]}],"tooSloped":false},{"duration":1057,"startTime":1522686186000,"endTime":1522687243000,"walkTime":201,"transitTime":854,"waitingTime":2,"walkDistance":246.19370676424856,"walkLimitExceeded":false,"elevationLost":0.0,"elevationGained":0.0,"transfers":0,"legs":[{"startTime":1522686186000,"endTime":1522686291000,"departureDelay":0,"arrivalDelay":0,"realTime":false,"distance":126.861,"pathway":false,"mode":"WALK","route":"","agencyTimeZoneOffset":-14400000,"interlineWithPreviousLeg":false,"from":{"name":"Origin","lon":-71.04804,"lat":48.41413,"departure":1522686186000,"orig":"","vertexType":"NORMAL"},"to":{"name":"Murdock / Baillargeon","stopId":"1:356","stopCode":"356","lon":-71.047188,"lat":48.413871,"arrival":1522686291000,"departure":1522686292000,"zoneId":"NA","stopIndex":1,"stopSequence":2,"vertexType":"TRANSIT"},"legGeometry":{"points":"y{nfHlrspLZ^L[Ro@Rm@Tq@i@k@AC","length":8},"rentedBike":false,"transitLeg":false,"duration":105.0,"steps":[{"distance":96.438,"relativeDirection":"DEPART","streetName":"service road","absoluteDirection":"SOUTHWEST","stayOn":false,"area":false,"bogusName":false,"lon":-71.0482291617135,"lat":48.41421891517668,"elevation":[]},{"distance":30.423000000000002,"relativeDirection":"LEFT","streetName":"Rue Murdock","absoluteDirection":"NORTHEAST","stayOn":false,"area":false,"bogusName":false,"lon":-71.0475249,"lat":48.413693200000004,"elevation":[]}]},{"startTime":1522686292000,"endTime":1522687146000,"departureDelay":0,"arrivalDelay":0,"realTime":false,"distance":4227.292796546909,"pathway":false,"mode":"BUS","route":"10","agencyName":"Société de Transport du Saguenay","agencyUrl":"http://ville.saguenay.ca/fr/services-aux-citoyens/transport-sts","agencyTimeZoneOffset":-14400000,"routeColor":"0000FF","routeType":3,"routeId":"1:10","routeTextColor":"FFFFFF","interlineWithPreviousLeg":false,"tripBlockId":"27","headsign":"Terminus Chicoutimi","agencyId":"0","tripId":"1:218011","serviceDate":"20180402","from":{"name":"Murdock / Baillargeon","stopId":"1:356","stopCode":"356","lon":-71.047188,"lat":48.413871,"arrival":1522686291000,"departure":1522686292000,"zoneId":"NA","stopIndex":1,"stopSequence":2,"vertexType":"TRANSIT"},"to":{"name":"Bibliothèque de Chicoutimi","stopId":"1:452","stopCode":"452","lon":-71.064045,"lat":48.427875,"arrival":1522687146000,"departure":1522687147000,"zoneId":"NA","stopIndex":20,"stopSequence":21,"vertexType":"TRANSIT"},"legGeometry":{"points":"uynfH~kspLsB{B}AeCu@oAXu@hAoDP_BP{AQmCg@mB_BiBeBaBqFeFmCgC{A_BmBoBk@iAw@}CU[o@y@k@Io@MqC@}@k@_@[aAw@_BoCMOKcAQUu@s@AAu@[k@xGg@pFc@~EO`@KHCVDP?hAa@nEKdAi@pGAr@GXMRG^Bb@`CV~IxB~ElAhChAsBtFaEvK_BhE}AfD{BdByBh@iC]oDq@YbF_Ea@AAuEg@MDENF|GAjJDzBDdDLdHFbCo@RUFRbFG|FApAMvFa@tP","length":80},"routeShortName":"10","routeLongName":"Notre-Dame du Saguenay","rentedBike":false,"transitLeg":true,"duration":854.0,"steps":[]},{"startTime":1522687147000,"endTime":1522687243000,"departureDelay":0,"arrivalDelay":0,"realTime":false,"distance":119.25000000000001,"pathway":false,"mode":"WALK","route":"","agencyTimeZoneOffset":-14400000,"interlineWithPreviousLeg":false,"from":{"name":"Bibliothèque de Chicoutimi","stopId":"1:452","stopCode":"452","lon":-71.064045,"lat":48.427875,"arrival":1522687146000,"departure":1522687147000,"zoneId":"NA","stopIndex":20,"stopSequence":21,"vertexType":"TRANSIT"},"to":{"name":"Destination","lon":-71.06332999,"lat":48.427464,"arrival":1522687243000,"orig":"","vertexType":"NORMAL"},"legGeometry":{"points":"_qqfHhuvpL@k@@YFqB@i@~@@","length":6},"rentedBike":false,"transitLeg":false,"duration":96.0,"steps":[{"distance":84.04800000000002,"relativeDirection":"DEPART","streetName":"Rue Racine Est","absoluteDirection":"EAST","stayOn":false,"area":false,"bogusName":false,"lon":-71.0640491926542,"lat":48.42784569763212,"elevation":[]},{"distance":35.202,"relativeDirection":"RIGHT","streetName":"Rue de l'Hôtel-de-Ville","absoluteDirection":"SOUTH","stayOn":false,"area":false,"bogusName":false,"lon":-71.0629152,"lat":48.4277742,"elevation":[]}]}],"tooSloped":false},{"duration":1143,"startTime":1522686103000,"endTime":1522687246000,"walkTime":412,"transitTime":729,"waitingTime":2,"walkDistance":521.4541729284854,"walkLimitExceeded":false,"elevationLost":0.0,"elevationGained":0.0,"transfers":0,"legs":[{"startTime":1522686103000,"endTime":1522686419000,"departureDelay":0,"arrivalDelay":0,"realTime":false,"distance":402.0849999999999,"pathway":false,"mode":"WALK","route":"","agencyTimeZoneOffset":-14400000,"interlineWithPreviousLeg":false,"from":{"name":"Origin","lon":-71.04804,"lat":48.41413,"departure":1522686103000,"orig":"","vertexType":"NORMAL"},"to":{"name":"missingStopName","stopId":"1:1812","stopCode":"1812","lon":-71.051352,"lat":48.411592,"arrival":1522686419000,"departure":1522686420000,"zoneId":"NA","stopIndex":11,"stopSequence":12,"vertexType":"TRANSIT"},"legGeometry":{"points":"y{nfHlrspLZ^ENKXId@nArArI~ITXLJx@|@","length":10},"rentedBike":false,"transitLeg":false,"duration":316.0,"steps":[{"distance":54.196,"relativeDirection":"DEPART","streetName":"service road","absoluteDirection":"SOUTHWEST","stayOn":false,"area":false,"bogusName":false,"lon":-71.0482291617135,"lat":48.41421891517668,"elevation":[]},{"distance":347.88899999999995,"relativeDirection":"LEFT","streetName":"Boulevard Talbot","absoluteDirection":"SOUTHWEST","stayOn":false,"area":false,"bogusName":false,"lon":-71.04878880000001,"lat":48.414218500000004,"elevation":[]}]},{"startTime":1522686420000,"endTime":1522687149000,"departureDelay":0,"arrivalDelay":0,"realTime":false,"distance":3220.3505820430646,"pathway":false,"mode":"BUS","route":"175","agencyName":"Société de Transport du Saguenay","agencyUrl":"http://ville.saguenay.ca/fr/services-aux-citoyens/transport-sts","agencyTimeZoneOffset":-14400000,"routeColor":"FF00FF","routeType":3,"routeId":"1:175","routeTextColor":"FFFFFF","interlineWithPreviousLeg":false,"tripBlockId":"11","headsign":"Terminus Chicoutimi","agencyId":"0","tripId":"1:217473","serviceDate":"20180402","from":{"name":"missingStopName","stopId":"1:1812","stopCode":"1812","lon":-71.051352,"lat":48.411592,"arrival":1522686419000,"departure":1522686420000,"zoneId":"NA","stopIndex":11,"stopSequence":12,"vertexType":"TRANSIT"},"to":{"name":"Bibliothèque de Chicoutimi","stopId":"1:452","stopCode":"452","lon":-71.064045,"lat":48.427875,"arrival":1522687149000,"departure":1522687150000,"zoneId":"NA","stopIndex":26,"stopSequence":27,"vertexType":"TRANSIT"},"legGeometry":{"points":"wknfHxftpLcBcB{E`Jc@x@qG~@{BlAk@XgSrQqB_GAeFiEeEOt@gAeA_A_ATm@yAwAgBeBqDnL@nBF`@f@|C[dCuAfB]xAs@OmCmCmEkE]a@g@i@ZiGTmEl@oLaEe@cFk@?pH?tJDvBPjMB~Bo@PQDRbFKdGMhIOvIK|E","length":46},"routeShortName":"175","routeLongName":"Term. Chic / Costco","rentedBike":false,"transitLeg":true,"duration":729.0,"steps":[]},{"startTime":1522687150000,"endTime":1522687246000,"departureDelay":0,"arrivalDelay":0,"realTime":false,"distance":119.25000000000001,"pathway":false,"mode":"WALK","route":"","agencyTimeZoneOffset":-14400000,"interlineWithPreviousLeg":false,"from":{"name":"Bibliothèque de Chicoutimi","stopId":"1:452","stopCode":"452","lon":-71.064045,"lat":48.427875,"arrival":1522687149000,"departure":1522687150000,"zoneId":"NA","stopIndex":26,"stopSequence":27,"vertexType":"TRANSIT"},"to":{"name":"Destination","lon":-71.06332999,"lat":48.427464,"arrival":1522687246000,"orig":"","vertexType":"NORMAL"},"legGeometry":{"points":"_qqfHhuvpL@k@@YFqB@i@~@@","length":6},"rentedBike":false,"transitLeg":false,"duration":96.0,"steps":[{"distance":84.04800000000002,"relativeDirection":"DEPART","streetName":"Rue Racine Est","absoluteDirection":"EAST","stayOn":false,"area":false,"bogusName":false,"lon":-71.0640491926542,"lat":48.42784569763212,"elevation":[]},{"distance":35.202,"relativeDirection":"RIGHT","streetName":"Rue de l'Hôtel-de-Ville","absoluteDirection":"SOUTH","stayOn":false,"area":false,"bogusName":false,"lon":-71.0629152,"lat":48.4277742,"elevation":[]}]}],"tooSloped":false}]},"debugOutput":{"precalculationTime":57,"pathCalculationTime":31,"pathTimes":[16,6,8],"renderingTime":0,"totalTime":88,"timedOut":false},"elevationMetadata":{"ellipsoidToGeoidDifference":-28.885904201182168,"geoidElevation":false}}