{"requestParameters":{"date":"2018/04/02","walkSpeed":"1.33","walkReluctance":"2.0","fromPlace":"48.423419,-71.039377","maxWalkDistance":"3000","waitReluctance":"1.0","carSpeed":"33","numItineraries":"3","waitAtBeginningFactor":"0.4","mode":"TRANSIT,WALK","ignoreRealtimeUpdates":"false","stairsReluctance":"2.0","toPlace":"48.427464,-71.06332999","time":"12:0:00"},"plan":{"date":1522684800000,"from":{"name":"Origin","lon":-71.039377,"lat":48.423419,"orig":"","vertexType":"NORMAL"},"to":{"name":"Destination","lon":-71.06332999,"lat":48.427464,"orig":"","vertexType":"NORMAL"},"itineraries":[{"duration":1118,"startTime":1522685228000,"endTime":1522686346000,"walkTime":867,"transitTime":249,"waitingTime":2,"walkDistance":1085.7311503675453,"walkLimitExceeded":false,"elevationLost":0.0,"elevationGained":0.0,"transfers":0,"legs":[{"startTime":1522685228000,"endTime":1522685999000,"departureDelay":0,"arrivalDelay":0,"realTime":false,"distance":966.221,"pathway":false,"mode":"WALK","route":"","agencyTimeZoneOffset":-14400000,"interlineWithPreviousLeg":false,"from":{"name":"Origin","lon":-71.039377,"lat":48.423419,"departure":1522685228000,"orig":"","vertexType":"NORMAL"},"to":{"name":"Hôpital de Chicoutimi (Saint-Vallier)","stopId":"1:410","stopCode":"410","lon":-71.050193,"lat":48.426282,"arrival":1522685999000,"departure":1522686000000,"zoneId":"NA","stopIndex":20,"stopSequence":21,"vertexType":"TRANSIT"},"legGeometry":{"points":"qupfH`{qpLEZGCYIKpAAFa@rEQtBAbAGNGRCBCDAF?F?D@H?~@_@fDObBQrBIv@YvC_AfLAFOtBCVC^YvCc@EEx@CnACf@GNQ?iB[_@E","length":37},"rentedBike":false,"transitLeg":false,"duration":771.0,"steps":[{"distance":30.3,"relativeDirection":"DEPART","streetName":"service road","absoluteDirection":"WEST","stayOn":false,"area":false,"bogusName":false,"lon":-71.03936007182831,"lat":48.423455069459806,"elevation":[]},{"distance":184.736,"relativeDirection":"LEFT","streetName":"Rue Jacques Cartier","absoluteDirection":"WEST","stayOn":false,"area":false,"bogusName":false,"lon":-71.0394333,"lat":48.4236505,"elevation":[]},{"distance":570.089,"relativeDirection":"SLIGHTLY_RIGHT","streetName":"Rue Jacques-Cartier Est","absoluteDirection":"NORTHWEST","stayOn":false,"area":false,"bogusName":false,"lon":-71.0418774,"lat":48.423999300000006,"elevation":[]},{"distance":19.537,"relativeDirection":"RIGHT","streetName":"path","absoluteDirection":"NORTH","stayOn":false,"area":false,"bogusName":true,"lon":-71.04933630000001,"lat":48.425208100000006,"elevation":[]},{"distance":66.589,"relativeDirection":"LEFT","streetName":"service road","absoluteDirection":"WEST","stayOn":true,"area":false,"bogusName":true,"lon":-71.0493017,"lat":48.4253823,"elevation":[]},{"distance":94.97,"relativeDirection":"RIGHT","streetName":"service road","absoluteDirection":"NORTH","stayOn":true,"area":false,"bogusName":true,"lon":-71.05019700000001,"lat":48.425456700000005,"elevation":[]}]},{"startTime":1522686000000,"endTime":1522686249000,"departureDelay":0,"arrivalDelay":0,"realTime":false,"distance":1056.0638293553889,"pathway":false,"mode":"BUS","route":"175","agencyName":"Société de Transport du Saguenay","agencyUrl":"http://ville.saguenay.ca/fr/services-aux-citoyens/transport-sts","agencyTimeZoneOffset":-14400000,"routeColor":"FF00FF","routeType":3,"routeId":"1:175","routeTextColor":"FFFFFF","interlineWithPreviousLeg":false,"tripBlockId":"81","headsign":"Terminus Chicoutimi","agencyId":"0","tripId":"1:218659","serviceDate":"20180402","from":{"name":"Hôpital de Chicoutimi (Saint-Vallier)","stopId":"1:410","stopCode":"410","lon":-71.050193,"lat":48.426282,"arrival":1522685999000,"departure":1522686000000,"zoneId":"NA","stopIndex":20,"stopSequence":21,"vertexType":"TRANSIT"},"to":{"name":"Bibliothèque de Chicoutimi","stopId":"1:452","stopCode":"452","lon":-71.064045,"lat":48.427875,"arrival":1522686249000,"departure":1522686250000,"zoneId":"NA","stopIndex":26,"stopSequence":27,"vertexType":"TRANSIT"},"legGeometry":{"points":"ggqfHh_tpLcFk@?pH?tJDvBPjMB~Bo@PQDRbFKdGMhIOvIK|E","length":14},"routeShortName":"175","routeLongName":"Term. Chic / Costco","rentedBike":false,"transitLeg":true,"duration":249.0,"steps":[]},{"startTime":1522686250000,"endTime":1522686346000,"departureDelay":0,"arrivalDelay":0,"realTime":false,"distance":119.25000000000001,"pathway":false,"mode":"WALK","route":"","agencyTimeZoneOffset":-14400000,"interlineWithPreviousLeg":false,"from":{"name":"Bibliothèque de Chicoutimi","stopId":"1:452","stopCode":"452","lon":-71.064045,"lat":48.427875,"arrival":1522686249000,"departure":1522686250000,"zoneId":"NA","stopIndex":26,"stopSequence":27,"vertexType":"TRANSIT"},"to":{"name":"Destination","lon":-71.06332999,"lat":48.427464,"arrival":1522686346000,"orig":"","vertexType":"NORMAL"},"legGeometry":{"points":"_qqfHhuvpL@k@@YFqB@i@~@@","length":6},"rentedBike":false,"transitLeg":false,"duration":96.0,"steps":[{"distance":84.04800000000002,"relativeDirection":"DEPART","streetName":"Rue Racine Est","absoluteDirection":"EAST","stayOn":false,"area":false,"bogusName":false,"lon":-71.0640491926542,"lat":48.42784569763212,"elevation":[]},{"distance":35.202,"relativeDirection":"RIGHT","streetName":"Rue de l'Hôtel-de-Ville","absoluteDirection":"SOUTH","stayOn":false,"area":false,"bogusName":false,"lon":-71.0629152,"lat":48.4277742,"elevation":[]}]}],"tooSloped":false},{"duration":677,"startTime":1522686566000,"endTime":1522687243000,"walkTime":152,"transitTime":523,"waitingTime":2,"walkDistance":181.07975187644828,"walkLimitExceeded":false,"elevationLost":0.0,"elevationGained":0.0,"transfers":0,"legs":[{"startTime":1522686566000,"endTime":1522686622000,"departureDelay":0,"arrivalDelay":0,"realTime":false,"distance":61.729,"pathway":false,"mode":"WALK","route":"","agencyTimeZoneOffset":-14400000,"interlineWithPreviousLeg":false,"from":{"name":"Origin","lon":-71.039377,"lat":48.423419,"departure":1522686566000,"orig":"","vertexType":"NORMAL"},"to":{"name":"École Apostolique","stopId":"1:251","stopCode":"251","lon":-71.039839,"lat":48.42374,"arrival":1522686622000,"departure":1522686623000,"zoneId":"NA","stopIndex":10,"stopSequence":11,"vertexType":"TRANSIT"},"legGeometry":{"points":"qupfH`{qpLEZGCYIKpA","length":5},"rentedBike":false,"transitLeg":false,"duration":56.0,"steps":[{"distance":30.3,"relativeDirection":"DEPART","streetName":"service road","absoluteDirection":"WEST","stayOn":false,"area":false,"bogusName":false,"lon":-71.03936007182831,"lat":48.423455069459806,"elevation":[]},{"distance":31.429,"relativeDirection":"LEFT","streetName":"Rue Jacques Cartier","absoluteDirection":"WEST","stayOn":false,"area":false,"bogusName":false,"lon":-71.0394333,"lat":48.4236505,"elevation":[]}]},{"startTime":1522686623000,"endTime":1522687146000,"departureDelay":0,"arrivalDelay":0,"realTime":false,"distance":2331.198830996442,"pathway":false,"mode":"BUS","route":"10","agencyName":"Société de Transport du Saguenay","agencyUrl":"http://ville.saguenay.ca/fr/services-aux-citoyens/transport-sts","agencyTimeZoneOffset":-14400000,"routeColor":"0000FF","routeType":3,"routeId":"1:10","routeTextColor":"FFFFFF","interlineWithPreviousLeg":false,"tripBlockId":"27","headsign":"Terminus Chicoutimi","agencyId":"0","tripId":"1:218011","serviceDate":"20180402","from":{"name":"École Apostolique","stopId":"1:251","stopCode":"251","lon":-71.039839,"lat":48.42374,"arrival":1522686622000,"departure":1522686623000,"zoneId":"NA","stopIndex":10,"stopSequence":11,"vertexType":"TRANSIT"},"to":{"name":"Bibliothèque de Chicoutimi","stopId":"1:452","stopCode":"452","lon":-71.064045,"lat":48.427875,"arrival":1522687146000,"departure":1522687147000,"zoneId":"NA","stopIndex":20,"stopSequence":21,"vertexType":"TRANSIT"},"legGeometry":{"points":"ewpfH`~qpLKdAi@pGAr@GXMRG^Bb@`CV~IxB~ElAhChAsBtFaEvK_BhE}AfD{BdByBh@iC]oDq@YbF_Ea@AAuEg@MDENF|GAjJDzBDdDLdHFbCo@RUFRbFG|FApAMvFa@tP","length":39},"routeShortName":"10","routeLongName":"Notre-Dame du Saguenay","rentedBike":false,"transitLeg":true,"duration":523.0,"steps":[]},{"startTime":1522687147000,"endTime":1522687243000,"departureDelay":0,"arrivalDelay":0,"realTime":false,"distance":119.25000000000001,"pathway":false,"mode":"WALK","route":"","agencyTimeZoneOffset":-14400000,"interlineWithPreviousLeg":false,"from":{"name":"Bibliothèque de Chicoutimi","stopId":"1:452","stopCode":"452","lon":-71.064045,"lat":48.427875,"arrival":1522687146000,"departure":1522687147000,"zoneId":"NA","stopIndex":20,"stopSequence":21,"vertexType":"TRANSIT"},"to":{"name":"Destination","lon":-71.06332999,"lat":48.427464,"arrival":1522687243000,"orig":"","vertexType":"NORMAL"},"legGeometry":{"points":"_qqfHhuvpL@k@@YFqB@i@~@@","length":6},"rentedBike":false,"transitLeg":false,"duration":96.0,"steps":[{"distance":84.04800000000002,"relativeDirection":"DEPART","streetName":"Rue Racine Est","absoluteDirection":"EAST","stayOn":false,"area":false,"bogusName":false,"lon":-71.0640491926542,"lat":48.42784569763212,"elevation":[]},{"distance":35.202,"relativeDirection":"RIGHT","streetName":"Rue de l'Hôtel-de-Ville","absoluteDirection":"SOUTH","stayOn":false,"area":false,"bogusName":false,"lon":-71.0629152,"lat":48.4277742,"elevation":[]}]}],"tooSloped":false},{"duration":677,"startTime":1522688366000,"endTime":1522689043000,"walkTime":152,"transitTime":523,"waitingTime":2,"walkDistance":181.07975187644828,"walkLimitExceeded":false,"elevationLost":0.0,"elevationGained":0.0,"transfers":0,"legs":[{"startTime":1522688366000,"endTime":1522688422000,"departureDelay":0,"arrivalDelay":0,"realTime":false,"distance":61.729,"pathway":false,"mode":"WALK","route":"","agencyTimeZoneOffset":-14400000,"interlineWithPreviousLeg":false,"from":{"name":"Origin","lon":-71.039377,"lat":48.423419,"departure":1522688366000,"orig":"","vertexType":"NORMAL"},"to":{"name":"École Apostolique","stopId":"1:251","stopCode":"251","lon":-71.039839,"lat":48.42374,"arrival":1522688422000,"departure":1522688423000,"zoneId":"NA","stopIndex":10,"stopSequence":11,"vertexType":"TRANSIT"},"legGeometry":{"points":"qupfH`{qpLEZGCYIKpA","length":5},"rentedBike":false,"transitLeg":false,"duration":56.0,"steps":[{"distance":30.3,"relativeDirection":"DEPART","streetName":"service road","absoluteDirection":"WEST","stayOn":false,"area":false,"bogusName":false,"lon":-71.03936007182831,"lat":48.423455069459806,"elevation":[]},{"distance":31.429,"relativeDirection":"LEFT","streetName":"Rue Jacques Cartier","absoluteDirection":"WEST","stayOn":false,"area":false,"bogusName":false,"lon":-71.0394333,"lat":48.4236505,"elevation":[]}]},{"startTime":1522688423000,"endTime":1522688946000,"departureDelay":0,"arrivalDelay":0,"realTime":false,"distance":2331.198830996442,"pathway":false,"mode":"BUS","route":"10","agencyName":"Société de Transport du Saguenay","agencyUrl":"http://ville.saguenay.ca/fr/services-aux-citoyens/transport-sts","agencyTimeZoneOffset":-14400000,"routeColor":"0000FF","routeType":3,"routeId":"1:10","routeTextColor":"FFFFFF","interlineWithPreviousLeg":false,"tripBlockId":"28","headsign":"Terminus Chicoutimi","agencyId":"0","tripId":"1:218038","serviceDate":"20180402","from":{"name":"École Apostolique","stopId":"1:251","stopCode":"251","lon":-71.039839,"lat":48.42374,"arrival":1522688422000,"departure":1522688423000,"zoneId":"NA","stopIndex":10,"stopSequence":11,"vertexType":"TRANSIT"},"to":{"name":"Bibliothèque de Chicoutimi","stopId":"1:452","stopCode":"452","lon":-71.064045,"lat":48.427875,"arrival":1522688946000,"departure":1522688947000,"zoneId":"NA","stopIndex":20,"stopSequence":21,"vertexType":"TRANSIT"},"legGeometry":{"points":"ewpfH`~qpLKdAi@pGAr@GXMRG^Bb@`CV~IxB~ElAhChAsBtFaEvK_BhE}AfD{BdByBh@iC]oDq@YbF_Ea@AAuEg@MDENF|GAjJDzBDdDLdHFbCo@RUFRbFG|FApAMvFa@tP","length":39},"routeShortName":"10","routeLongName":"Notre-Dame du Saguenay","rentedBike":false,"transitLeg":true,"duration":523.0,"steps":[]},{"startTime":1522688947000,"endTime":1522689043000,"departureDelay":0,"arrivalDelay":0,"realTime":false,"distance":119.25000000000001,"pathway":false,"mode":"WALK","route":"","agencyTimeZoneOffset":-14400000,"interlineWithPreviousLeg":false,"from":{"name":"Bibliothèque de Chicoutimi","stopId":"1:452","stopCode":"452","lon":-71.064045,"lat":48.427875,"arrival":1522688946000,"departure":1522688947000,"zoneId":"NA","stopIndex":20,"stopSequence":21,"vertexType":"TRANSIT"},"to":{"name":"Destination","lon":-71.06332999,"lat":48.427464,"arrival":1522689043000,"orig":"","vertexType":"NORMAL"},"legGeometry":{"points":"_qqfHhuvpL@k@@YFqB@i@~@@","length":6},"rentedBike":false,"transitLeg":false,"duration":96.0,"steps":[{"distance":84.04800000000002,"relativeDirection":"DEPART","streetName":"Rue Racine Est","absoluteDirection":"EAST","stayOn":false,"area":false,"bogusName":false,"lon":-71.0640491926542,"lat":48.42784569763212,"elevation":[]},{"distance":35.202,"relativeDirection":"RIGHT","streetName":"Rue de l'Hôtel-de-Ville","absoluteDirection":"SOUTH","stayOn":false,"area":false,"bogusName":false,"lon":-71.0629152,"lat":48.4277742,"elevation":[]}]}],"tooSloped":false}]},"debugOutput":{"precalculationTime":50,"pathCalculationTime":26,"pathTimes":[15,6,5],"renderingTime":0,"totalTime":76,"timedOut":false},"elevationMetadata":{"ellipsoidToGeoidDifference":-28.885904201182168,"geoidElevation":false}}