{"requestParameters":{"date":"2018/04/02","walkSpeed":"1.33","walkReluctance":"2.0","fromPlace":"48.409854,-71.06000299","maxWalkDistance":"3000","waitReluctance":"1.0","carSpeed":"33","numItineraries":"3","waitAtBeginningFactor":"0.4","mode":"TRANSIT,WALK","ignoreRealtimeUpdates":"false","stairsReluctance":"2.0","toPlace":"48.456394,-71.11275899","time":"16:30:00"},"plan":{"date":1522701000000,"from":{"name":"Origin","lon":-71.06000299,"lat":48.409854,"orig":"","vertexType":"NORMAL"},"to":{"name":"Destination","lon":-71.11275899,"lat":48.456394,"orig":"","vertexType":"NORMAL"},"itineraries":[{"duration":2898,"startTime":1522701784000,"endTime":1522704682000,"walkTime":597,"transitTime":2059,"waitingTime":242,"walkDistance":758.5553233024843,"walkLimitExceeded":false,"elevationLost":0.0,"elevationGained":0.0,"transfers":1,"legs":[{"startTime":1522701784000,"endTime":1522702053000,"departureDelay":0,"arrivalDelay":0,"realTime":false,"distance":335.165,"pathway":false,"mode":"WALK","route":"","agencyTimeZoneOffset":-14400000,"interlineWithPreviousLeg":false,"from":{"name":"Origin","lon":-71.06000299,"lat":48.409854,"departure":1522701784000,"orig":"","vertexType":"NORMAL"},"to":{"name":"Champs-Élysées / Chopin","stopId":"1:570","stopCode":"570","lon":-71.058565,"lat":48.409684,"arrival":1522702053000,"departure":1522702054000,"zoneId":"NA","stopIndex":11,"stopSequence":12,"vertexType":"TRANSIT"},"legGeometry":{"points":"abnfH|~upLjAzAbCmGk@e@ECiAe@}@i@n@}A","length":8},"rentedBike":false,"transitLeg":false,"duration":269.0,"steps":[{"distance":54.336,"relativeDirection":"DEPART","streetName":"Rue Albani","absoluteDirection":"SOUTHWEST","stayOn":false,"area":false,"bogusName":false,"lon":-71.06046583899321,"lat":48.41009673330408,"elevation":[]},{"distance":123.104,"relativeDirection":"LEFT","streetName":"Rue Létondal","absoluteDirection":"SOUTHEAST","stayOn":false,"area":false,"bogusName":false,"lon":-71.06092220000001,"lat":48.4097133,"elevation":[]},{"distance":113.69200000000001,"relativeDirection":"LEFT","streetName":"Rue Bizet","absoluteDirection":"NORTHEAST","stayOn":false,"area":false,"bogusName":false,"lon":-71.0595787,"lat":48.4090573,"elevation":[]},{"distance":44.033,"relativeDirection":"RIGHT","streetName":"Rue des Champs-Élysées","absoluteDirection":"SOUTHEAST","stayOn":false,"area":false,"bogusName":false,"lon":-71.0589618,"lat":48.409989800000005,"elevation":[]}]},{"startTime":1522702054000,"endTime":1522703460000,"departureDelay":0,"arrivalDelay":0,"realTime":false,"distance":8746.6297172976,"pathway":false,"mode":"BUS","route":"12","agencyName":"Société de Transport du Saguenay","agencyUrl":"http://ville.saguenay.ca/fr/services-aux-citoyens/transport-sts","agencyTimeZoneOffset":-14400000,"routeColor":"556B2F","routeType":3,"routeId":"1:12","routeTextColor":"FFFFFF","interlineWithPreviousLeg":false,"tripBlockId":"29","headsign":"Terminus Chicoutimi","agencyId":"0","tripId":"1:218072","serviceDate":"20180402","from":{"name":"Champs-Élysées / Chopin","stopId":"1:570","stopCode":"570","lon":-71.058565,"lat":48.409684,"arrival":1522702053000,"departure":1522702054000,"zoneId":"NA","stopIndex":11,"stopSequence":12,"vertexType":"TRANSIT"},"to":{"name":"Terminus Chicoutimi","stopId":"1:1289","stopCode":"1289","lon":-71.066163,"lat":48.428677,"arrival":1522703460000,"departure":1522703700000,"zoneId":"NA","stopIndex":33,"stopSequence":34,"vertexType":"TRANSIT"},"legGeometry":{"points":"o_nfH`supLrGcPxFoNlCyGa@yFYkD}CyA}KmFgD_BgAgBn@kFD_NoIgrAmD_WcAaLaDHoDJi`@wVoAbDbA|AnBU|B|AfBlAyLtKoGxFcFqDkJaHgEoDmDwC_TqQsBeB{HjWfAvAfM|O|FlHmB`IgA|Cy@`UYzHZvMR~Hr@~ZPvHsCrMFxf@|ApJj@nDDl]BvZdCXJhC","length":51},"routeShortName":"12","routeLongName":"Rivière du Moulin","rentedBike":false,"transitLeg":true,"duration":1406.0,"steps":[]},{"startTime":1522703700000,"endTime":1522704353000,"departureDelay":0,"arrivalDelay":0,"realTime":false,"distance":5595.262345965266,"pathway":false,"mode":"BUS","route":"21","agencyName":"Société de Transport du Saguenay","agencyUrl":"http://ville.saguenay.ca/fr/services-aux-citoyens/transport-sts","agencyTimeZoneOffset":-14400000,"routeColor":"556B2F","routeType":3,"routeId":"1:21","routeTextColor":"FFFFFF","interlineWithPreviousLeg":false,"tripBlockId":"2","headsign":"Terminus Chicoutimi","agencyId":"0","tripId":"1:217177","serviceDate":"20180402","from":{"name":"Terminus Chicoutimi","stopId":"1:1289","stopCode":"1289","lon":-71.066163,"lat":48.428677,"arrival":1522703460000,"departure":1522703700000,"zoneId":"NA","stopIndex":0,"stopSequence":1,"vertexType":"TRANSIT"},"to":{"name":"boul. Ste-Geneviève / Fleurons","stopId":"1:715","stopCode":"715","lon":-71.1103,"lat":48.4548,"arrival":1522704353000,"departure":1522704354000,"zoneId":"NA","stopIndex":15,"stopSequence":16,"vertexType":"TRANSIT"},"legGeometry":{"points":"kwqfHjbwpLF_CeBSm@rRO\\WjGOfGCRK^KJMHQB_AMg@Gw`@eR}@g@u@Su@Ia@Ck@Dm@HwAf@c@VeAx@iAlAU^[d@eLtTsAvB_CvEuAnCmBlE}@|B_BvFoC`JCD}@hCo@~Aq@pAs@fAWs@IUC[AI?QCeGAs@Gy@Ks@Ou@OcAIcAIgAWgCG_@Og@IQS]UWYQWIUA[Da@P]RSVQ`@Ib@Ef@Et@Gf@Id@I`@Od@cCxFQOgAwA_FqGO[`BcEY_@MOaBtDLTh@bATZpGlIPNa@fAOn@Gd@UtBA^A^R`E^fGRbAVl@P`@BFNb@t@xAiCvCMP}@jAY`@q@jAm@jA}@rBmArD?Tu@|CYzAET{AxOQhBQ~Aa@~DQ~A[xCM~AiAjLo@vGk@tFe@vEu@xHgAdLIl@UhCyAnPQhB","length":131},"routeShortName":"21","routeLongName":"Boul. Ste-Geneviève/Élie","rentedBike":false,"transitLeg":true,"duration":653.0,"steps":[]},{"startTime":1522704354000,"endTime":1522704682000,"departureDelay":0,"arrivalDelay":0,"realTime":false,"distance":423.211,"pathway":false,"mode":"WALK","route":"","agencyTimeZoneOffset":-14400000,"interlineWithPreviousLeg":false,"from":{"name":"boul. Ste-Geneviève / Fleurons","stopId":"1:715","stopCode":"715","lon":-71.1103,"lat":48.4548,"arrival":1522704353000,"departure":1522704354000,"zoneId":"NA","stopIndex":15,"stopSequence":16,"vertexType":"TRANSIT"},"to":{"name":"Destination","lon":-71.11275899,"lat":48.456394,"arrival":1522704682000,"orig":"","vertexType":"NORMAL"},"legGeometry":{"points":"_yvfHpv_qLNcBmCw@iBzRMTODO?QCMAOKGC","length":11},"rentedBike":false,"transitLeg":false,"duration":328.0,"steps":[{"distance":38.273,"relativeDirection":"DEPART","streetName":"Boulevard Sainte-Geneviève","absoluteDirection":"EAST","stayOn":false,"area":false,"bogusName":false,"lon":-71.11032705497189,"lat":48.454727599258575,"elevation":[]},{"distance":81.178,"relativeDirection":"LEFT","streetName":"Rue des Fleurons","absoluteDirection":"NORTH","stayOn":false,"area":false,"bogusName":false,"lon":-71.1098233,"lat":48.454644800000004,"elevation":[]},{"distance":303.76,"relativeDirection":"LEFT","streetName":"Rue de la Gaillarde","absoluteDirection":"WEST","stayOn":false,"area":false,"bogusName":false,"lon":-71.10954480000001,"lat":48.4553511,"elevation":[]}]}],"tooSloped":false},{"duration":3575,"startTime":1522701209000,"endTime":1522704784000,"walkTime":598,"transitTime":1295,"waitingTime":1682,"walkDistance":759.1313233024844,"walkLimitExceeded":false,"elevationLost":0.0,"elevationGained":0.0,"transfers":2,"legs":[{"startTime":1522701209000,"endTime":1522701479000,"departureDelay":0,"arrivalDelay":0,"realTime":false,"distance":335.74100000000004,"pathway":false,"mode":"WALK","route":"","agencyTimeZoneOffset":-14400000,"interlineWithPreviousLeg":false,"from":{"name":"Origin","lon":-71.06000299,"lat":48.409854,"departure":1522701209000,"orig":"","vertexType":"NORMAL"},"to":{"name":"Champs-Élysées / Chopin","stopId":"1:584","stopCode":"584","lon":-71.058412,"lat":48.409805,"arrival":1522701479000,"departure":1522701480000,"zoneId":"NA","stopIndex":29,"stopSequence":30,"vertexType":"TRANSIT"},"legGeometry":{"points":"abnfH|~upLjAzAbCmGk@e@ECiAe@}@i@n@}A?A","length":9},"rentedBike":false,"transitLeg":false,"duration":270.0,"steps":[{"distance":54.336,"relativeDirection":"DEPART","streetName":"Rue Albani","absoluteDirection":"SOUTHWEST","stayOn":false,"area":false,"bogusName":false,"lon":-71.06046583899321,"lat":48.41009673330408,"elevation":[]},{"distance":123.104,"relativeDirection":"LEFT","streetName":"Rue Létondal","absoluteDirection":"SOUTHEAST","stayOn":false,"area":false,"bogusName":false,"lon":-71.06092220000001,"lat":48.4097133,"elevation":[]},{"distance":113.69200000000001,"relativeDirection":"LEFT","streetName":"Rue Bizet","absoluteDirection":"NORTHEAST","stayOn":false,"area":false,"bogusName":false,"lon":-71.0595787,"lat":48.4090573,"elevation":[]},{"distance":44.609,"relativeDirection":"RIGHT","streetName":"Rue des Champs-Élysées","absoluteDirection":"SOUTHEAST","stayOn":false,"area":false,"bogusName":false,"lon":-71.0589618,"lat":48.409989800000005,"elevation":[]}]},{"startTime":1522701480000,"endTime":1522701780000,"departureDelay":0,"arrivalDelay":0,"realTime":false,"distance":2237.4688276406177,"pathway":false,"mode":"BUS","route":"12","agencyName":"Société de Transport du Saguenay","agencyUrl":"http://ville.saguenay.ca/fr/services-aux-citoyens/transport-sts","agencyTimeZoneOffset":-14400000,"routeColor":"556B2F","routeType":3,"routeId":"1:12","routeTextColor":"FFFFFF","interlineWithPreviousLeg":false,"tripBlockId":"28","headsign":"Terminus UQAC","agencyId":"0","tripId":"1:218045","serviceDate":"20180402","from":{"name":"Champs-Élysées / Chopin","stopId":"1:584","stopCode":"584","lon":-71.058412,"lat":48.409805,"arrival":1522701479000,"departure":1522701480000,"zoneId":"NA","stopIndex":29,"stopSequence":30,"vertexType":"TRANSIT"},"to":{"name":"Terminus UQAC","stopId":"1:1670","stopCode":"1670","lon":-71.053369,"lat":48.420903,"arrival":1522701780000,"departure":1522701960000,"zoneId":"NA","stopIndex":39,"stopSequence":40,"vertexType":"TRANSIT"},"legGeometry":{"points":"g`nfHbrupLiHhDaGz@uSl[uCYmIeIeJ_J{J{JwCiThFaQhC`E","length":11},"routeShortName":"12","routeLongName":"Rivière du Moulin","rentedBike":false,"transitLeg":true,"duration":300.0,"steps":[]},{"startTime":1522701960000,"endTime":1522702500000,"departureDelay":0,"arrivalDelay":0,"realTime":false,"distance":2324.3264239577584,"pathway":false,"mode":"BUS","route":"175","agencyName":"Société de Transport du Saguenay","agencyUrl":"http://ville.saguenay.ca/fr/services-aux-citoyens/transport-sts","agencyTimeZoneOffset":-14400000,"routeColor":"FF00FF","routeType":3,"routeId":"1:175","routeTextColor":"FFFFFF","interlineWithPreviousLeg":false,"tripBlockId":"80","headsign":"Terminus Chicoutimi","agencyId":"0","tripId":"1:218655","serviceDate":"20180402","from":{"name":"Terminus UQAC","stopId":"1:1670","stopCode":"1670","lon":-71.053369,"lat":48.420903,"arrival":1522701780000,"departure":1522701960000,"zoneId":"NA","stopIndex":14,"stopSequence":15,"vertexType":"TRANSIT"},"to":{"name":"Terminus Chicoutimi","stopId":"1:1289","stopCode":"1289","lon":-71.066163,"lat":48.428677,"arrival":1522702500000,"departure":1522704000000,"zoneId":"NA","stopIndex":27,"stopSequence":28,"vertexType":"TRANSIT"},"legGeometry":{"points":"sepfHprtpL_A_ATm@yAwAgBeBqDnL@nBF`@f@|C[dCuAfB]xAs@OmCmCmEkE]a@g@i@ZiGTmEl@oLaEe@cFk@?pH?tJDvBPjMB~Bo@PQDRbFKdGMhIOvIK|EQpHoCQEdC","length":37},"routeShortName":"175","routeLongName":"Term. Chic / Costco","rentedBike":false,"transitLeg":true,"duration":540.0,"steps":[]},{"startTime":1522704000000,"endTime":1522704455000,"departureDelay":0,"arrivalDelay":0,"realTime":false,"distance":4706.605389638757,"pathway":false,"mode":"BUS","route":"65","agencyName":"Société de Transport du Saguenay","agencyUrl":"http://ville.saguenay.ca/fr/services-aux-citoyens/transport-sts","agencyTimeZoneOffset":-14400000,"routeColor":"00FFFF","routeType":3,"routeId":"1:65","routeTextColor":"000000","interlineWithPreviousLeg":false,"tripBlockId":"104","headsign":"Épicerie culinaire","agencyId":"0","tripId":"1:218803","serviceDate":"20180402","from":{"name":"Terminus Chicoutimi","stopId":"1:1289","stopCode":"1289","lon":-71.066163,"lat":48.428677,"arrival":1522702500000,"departure":1522704000000,"zoneId":"NA","stopIndex":0,"stopSequence":1,"vertexType":"TRANSIT"},"to":{"name":"boul. Ste-Geneviève / Fleurons","stopId":"1:715","stopCode":"715","lon":-71.1103,"lat":48.4548,"arrival":1522704455000,"departure":1522704456000,"zoneId":"NA","stopIndex":11,"stopSequence":12,"vertexType":"TRANSIT"},"legGeometry":{"points":"kwqfHjbwpLWxLoBKCp@O\\WjGOfGCRK^KJMHQB_AMg@Gw`@eR}@g@u@Su@Ia@Ck@Dm@HwAf@c@VeAx@iAlAU^[d@eLtTsAvB_CvEuAnCmBlE}@|B_BvFoC`JCD}@hCo@~Aq@pAs@fA{BlCoOrQMP}@jAY`@q@jAm@jA}@rBmArD?Tu@|CYzAEToB`SmBzRyBbUoAlM_C~UIl@WhCqBvS","length":61},"routeShortName":"65","routeLongName":"Term. Chic / Shipshaw","rentedBike":false,"transitLeg":true,"duration":455.0,"steps":[]},{"startTime":1522704456000,"endTime":1522704784000,"departureDelay":0,"arrivalDelay":0,"realTime":false,"distance":423.211,"pathway":false,"mode":"WALK","route":"","agencyTimeZoneOffset":-14400000,"interlineWithPreviousLeg":false,"from":{"name":"boul. Ste-Geneviève / Fleurons","stopId":"1:715","stopCode":"715","lon":-71.1103,"lat":48.4548,"arrival":1522704455000,"departure":1522704456000,"zoneId":"NA","stopIndex":11,"stopSequence":12,"vertexType":"TRANSIT"},"to":{"name":"Destination","lon":-71.11275899,"lat":48.456394,"arrival":1522704784000,"orig":"","vertexType":"NORMAL"},"legGeometry":{"points":"_yvfHpv_qLNcBmCw@iBzRMTODO?QCMAOKGC","length":11},"rentedBike":false,"transitLeg":false,"duration":328.0,"steps":[{"distance":38.273,"relativeDirection":"DEPART","streetName":"Boulevard Sainte-Geneviève","absoluteDirection":"EAST","stayOn":false,"area":false,"bogusName":false,"lon":-71.11032705497189,"lat":48.454727599258575,"elevation":[]},{"distance":81.178,"relativeDirection":"LEFT","streetName":"Rue des Fleurons","absoluteDirection":"NORTH","stayOn":false,"area":false,"bogusName":false,"lon":-71.1098233,"lat":48.454644800000004,"elevation":[]},{"distance":303.76,"relativeDirection":"LEFT","streetName":"Rue de la Gaillarde","absoluteDirection":"WEST","stayOn":false,"area":false,"bogusName":false,"lon":-71.10954480000001,"lat":48.4553511,"elevation":[]}]}],"tooSloped":false},{"duration":2719,"startTime":1522703009000,"endTime":1522705728000,"walkTime":1526,"transitTime":697,"waitingTime":496,"walkDistance":1974.0904586406969,"walkLimitExceeded":false,"elevationLost":0.0,"elevationGained":0.0,"transfers":1,"legs":[{"startTime":1522703009000,"endTime":1522703279000,"departureDelay":0,"arrivalDelay":0,"realTime":false,"distance":335.74100000000004,"pathway":false,"mode":"WALK","route":"","agencyTimeZoneOffset":-14400000,"interlineWithPreviousLeg":false,"from":{"name":"Origin","lon":-71.06000299,"lat":48.409854,"departure":1522703009000,"orig":"","vertexType":"NORMAL"},"to":{"name":"Champs-Élysées / Chopin","stopId":"1:584","stopCode":"584","lon":-71.058412,"lat":48.409805,"arrival":1522703279000,"departure":1522703280000,"zoneId":"NA","stopIndex":29,"stopSequence":30,"vertexType":"TRANSIT"},"legGeometry":{"points":"abnfH|~upLjAzAbCmGk@e@ECiAe@}@i@n@}A?A","length":9},"rentedBike":false,"transitLeg":false,"duration":270.0,"steps":[{"distance":54.336,"relativeDirection":"DEPART","streetName":"Rue Albani","absoluteDirection":"SOUTHWEST","stayOn":false,"area":false,"bogusName":false,"lon":-71.06046583899321,"lat":48.41009673330408,"elevation":[]},{"distance":123.104,"relativeDirection":"LEFT","streetName":"Rue Létondal","absoluteDirection":"SOUTHEAST","stayOn":false,"area":false,"bogusName":false,"lon":-71.06092220000001,"lat":48.4097133,"elevation":[]},{"distance":113.69200000000001,"relativeDirection":"LEFT","streetName":"Rue Bizet","absoluteDirection":"NORTHEAST","stayOn":false,"area":false,"bogusName":false,"lon":-71.0595787,"lat":48.4090573,"elevation":[]},{"distance":44.609,"relativeDirection":"RIGHT","streetName":"Rue des Champs-Élysées","absoluteDirection":"SOUTHEAST","stayOn":false,"area":false,"bogusName":false,"lon":-71.0589618,"lat":48.409989800000005,"elevation":[]}]},{"startTime":1522703280000,"endTime":1522703565000,"departureDelay":0,"arrivalDelay":0,"realTime":false,"distance":2132.2244623462193,"pathway":false,"mode":"BUS","route":"12","agencyName":"Société de Transport du Saguenay","agencyUrl":"http://ville.saguenay.ca/fr/services-aux-citoyens/transport-sts","agencyTimeZoneOffset":-14400000,"routeColor":"556B2F","routeType":3,"routeId":"1:12","routeTextColor":"FFFFFF","interlineWithPreviousLeg":false,"tripBlockId":"27","headsign":"Terminus UQAC","agencyId":"0","tripId":"1:218020","serviceDate":"20180402","from":{"name":"Champs-Élysées / Chopin","stopId":"1:584","stopCode":"584","lon":-71.058412,"lat":48.409805,"arrival":1522703279000,"departure":1522703280000,"zoneId":"NA","stopIndex":29,"stopSequence":30,"vertexType":"TRANSIT"},"to":{"name":"Résidence de l' UQAC","stopId":"1:64","stopCode":"64","lon":-71.052396,"lat":48.421595,"arrival":1522703565000,"departure":1522704059000,"zoneId":"NA","stopIndex":38,"stopSequence":39,"vertexType":"TRANSIT"},"legGeometry":{"points":"g`nfHbrupLiHhDaGz@uSl[uCYmIeIeJ_J{J{JwCiThFaQ","length":10},"routeShortName":"12","routeLongName":"Rivière du Moulin","rentedBike":false,"transitLeg":true,"duration":285.0,"steps":[]},{"startTime":1522704059000,"endTime":1522704471000,"departureDelay":0,"arrivalDelay":0,"realTime":false,"distance":5420.262443300813,"pathway":false,"mode":"BUS","route":"27","agencyName":"Société de Transport du Saguenay","agencyUrl":"http://ville.saguenay.ca/fr/services-aux-citoyens/transport-sts","agencyTimeZoneOffset":-14400000,"routeColor":"00FFFF","routeType":3,"routeId":"1:27","routeTextColor":"000000","interlineWithPreviousLeg":false,"tripBlockId":"100","headsign":"Terminus Chicoutimi","agencyId":"0","tripId":"1:218761","serviceDate":"20180402","from":{"name":"Résidence de l' UQAC","stopId":"1:64","stopCode":"64","lon":-71.052396,"lat":48.421595,"arrival":1522703565000,"departure":1522704059000,"zoneId":"NA","stopIndex":7,"stopSequence":8,"vertexType":"TRANSIT"},"to":{"name":"boul. Ste-Geneviève / St-Sauveur","stopId":"1:710","stopCode":"710","lon":-71.093342,"lat":48.451898,"arrival":1522704471000,"departure":1522704472000,"zoneId":"NA","stopIndex":15,"stopSequence":16,"vertexType":"TRANSIT"},"legGeometry":{"points":"wipfH`ltpLzA|AtCsIFIHAtEpE~B`CVRPl@fDfD~@~@JJt@lAP`@ZP_SbQmApA_@h@Ub@Uh@U|@Qh@[xASlDaBjt@OjKIt@StAOl@Mp@]l@]L]K_A{@{@o@e@OwEa@kBKW?{El@}@D}PNgBM[Is@Qs@Usb@gS}@g@u@Su@Ia@Ck@Dm@HwAf@c@VeAx@iAlAU^[d@eLtTsAvBQ\\Ud@wArCuAnCmBlE}@|B_BvFoC`JCD}@hCo@~Aq@pAs@fA{BlCoOrQMP}@jAY`@q@jAm@jA}@rBmArD?Tu@|CYzAEToB`S","length":88},"routeShortName":"27","routeLongName":"St-Honoré","rentedBike":false,"transitLeg":true,"duration":412.0,"steps":[]},{"startTime":1522704472000,"endTime":1522705728000,"departureDelay":0,"arrivalDelay":0,"realTime":false,"distance":1638.166,"pathway":false,"mode":"WALK","route":"","agencyTimeZoneOffset":-14400000,"interlineWithPreviousLeg":false,"from":{"name":"boul. Ste-Geneviève / St-Sauveur","stopId":"1:710","stopCode":"710","lon":-71.093342,"lat":48.451898,"arrival":1522704471000,"departure":1522704472000,"zoneId":"NA","stopIndex":15,"stopSequence":16,"vertexType":"TRANSIT"},"to":{"name":"Destination","lon":-71.11275899,"lat":48.456394,"arrival":1522705728000,"orig":"","vertexType":"NORMAL"},"legGeometry":{"points":"}fvfHpl|pLQ~AEj@WrCAPMfA[bDMnA?DAFyBdUOvA_@fE_@lDO|Ae@zEa@tDm@zGO~AGj@WpCeA`LmCw@iBzRMTODO?QCMAOKGC","length":31},"rentedBike":false,"transitLeg":false,"duration":1256.0,"steps":[{"distance":1253.228,"relativeDirection":"DEPART","streetName":"Boulevard Sainte-Geneviève","absoluteDirection":"WEST","stayOn":false,"area":false,"bogusName":false,"lon":-71.09336582664865,"lat":48.45183764621949,"elevation":[]},{"distance":81.178,"relativeDirection":"RIGHT","streetName":"Rue des Fleurons","absoluteDirection":"NORTH","stayOn":false,"area":false,"bogusName":false,"lon":-71.1098233,"lat":48.454644800000004,"elevation":[]},{"distance":303.76,"relativeDirection":"LEFT","streetName":"Rue de la Gaillarde","absoluteDirection":"WEST","stayOn":false,"area":false,"bogusName":false,"lon":-71.10954480000001,"lat":48.4553511,"elevation":[]}]}],"tooSloped":false}]},"debugOutput":{"precalculationTime":28,"pathCalculationTime":75,"pathTimes":[31,21,23],"renderingTime":0,"totalTime":103,"timedOut":false},"elevationMetadata":{"ellipsoidToGeoidDifference":-28.885904201182168,"geoidElevation":false}}