{"requestParameters":{"date":"2018/04/02","walkSpeed":"1.33","walkReluctance":"2.0","fromPlace":"48.42968,-71.032366","maxWalkDistance":"3000","waitReluctance":"1.0","carSpeed":"33","numItineraries":"3","waitAtBeginningFactor":"0.4","mode":"TRANSIT,WALK","ignoreRealtimeUpdates":"false","stairsReluctance":"2.0","toPlace":"48.407764,-71.05336099","time":"16:0:00"},"plan":{"date":1522699200000,"from":{"name":"Origin","lon":-71.032366,"lat":48.42968,"orig":"","vertexType":"NORMAL"},"to":{"name":"Destination","lon":-71.05336099,"lat":48.407764,"orig":"","vertexType":"NORMAL"},"itineraries":[{"duration":1733,"startTime":1522699482000,"endTime":1522701215000,"walkTime":267,"transitTime":1224,"waitingTime":242,"walkDistance":338.35960902114925,"walkLimitExceeded":false,"elevationLost":0.0,"elevationGained":0.0,"transfers":1,"legs":[{"startTime":1522699482000,"endTime":1522699524000,"departureDelay":0,"arrivalDelay":0,"realTime":false,"distance":50.932,"pathway":false,"mode":"WALK","route":"","agencyTimeZoneOffset":-14400000,"interlineWithPreviousLeg":false,"from":{"name":"Origin","lon":-71.032366,"lat":48.42968,"departure":1522699482000,"orig":"","vertexType":"NORMAL"},"to":{"name":"boul. Saguenay / Jacques Bacon","stopId":"1:1994","stopCode":"1994","lon":-71.033006,"lat":48.429934,"arrival":1522699524000,"departure":1522699525000,"zoneId":"NA","stopIndex":26,"stopSequence":27,"vertexType":"TRANSIT"},"legGeometry":{"points":"u|qfHjpppLQIG~@ARAV","length":5},"rentedBike":false,"transitLeg":false,"duration":42.0,"steps":[{"distance":11.143,"relativeDirection":"DEPART","streetName":"Rue Saint-Thimothée","absoluteDirection":"NORTH","stayOn":false,"area":false,"bogusName":false,"lon":-71.03253162372788,"lat":48.42971315576262,"elevation":[]},{"distance":39.789,"relativeDirection":"LEFT","streetName":"Boulevard du Saguenay Est","absoluteDirection":"WEST","stayOn":false,"area":false,"bogusName":false,"lon":-71.032488,"lat":48.4298091,"elevation":[]}]},{"startTime":1522699525000,"endTime":1522699860000,"departureDelay":0,"arrivalDelay":0,"realTime":false,"distance":2467.0693783784,"pathway":false,"mode":"BUS","route":"12","agencyName":"Société de Transport du Saguenay","agencyUrl":"http://ville.saguenay.ca/fr/services-aux-citoyens/transport-sts","agencyTimeZoneOffset":-14400000,"routeColor":"556B2F","routeType":3,"routeId":"1:12","routeTextColor":"FFFFFF","interlineWithPreviousLeg":false,"tripBlockId":"29","headsign":"Terminus Chicoutimi","agencyId":"0","tripId":"1:218070","serviceDate":"20180402","from":{"name":"boul. Saguenay / Jacques Bacon","stopId":"1:1994","stopCode":"1994","lon":-71.033006,"lat":48.429934,"arrival":1522699524000,"departure":1522699525000,"zoneId":"NA","stopIndex":26,"stopSequence":27,"vertexType":"TRANSIT"},"to":{"name":"Terminus Chicoutimi","stopId":"1:1289","stopCode":"1289","lon":-71.066163,"lat":48.428677,"arrival":1522699860000,"departure":1522700100000,"zoneId":"NA","stopIndex":33,"stopSequence":34,"vertexType":"TRANSIT"},"legGeometry":{"points":"{}qfHjsppLYzHZvMR~Hr@~ZPvHsCrMFxf@|ApJj@nDDl]BvZdCXJhC","length":14},"routeShortName":"12","routeLongName":"Rivière du Moulin","rentedBike":false,"transitLeg":true,"duration":335.0,"steps":[]},{"startTime":1522700100000,"endTime":1522700989000,"departureDelay":0,"arrivalDelay":0,"realTime":false,"distance":4161.798962757783,"pathway":false,"mode":"BUS","route":"175","agencyName":"Société de Transport du Saguenay","agencyUrl":"http://ville.saguenay.ca/fr/services-aux-citoyens/transport-sts","agencyTimeZoneOffset":-14400000,"routeColor":"FF00FF","routeType":3,"routeId":"1:175","routeTextColor":"FFFFFF","interlineWithPreviousLeg":false,"tripBlockId":"7","headsign":"Costco","agencyId":"0","tripId":"1:217340","serviceDate":"20180402","from":{"name":"Terminus Chicoutimi","stopId":"1:1289","stopCode":"1289","lon":-71.066163,"lat":48.428677,"arrival":1522699860000,"departure":1522700100000,"zoneId":"NA","stopIndex":0,"stopSequence":1,"vertexType":"TRANSIT"},"to":{"name":"Émile Girardin / Roitelets","stopId":"1:253","stopCode":"253","lon":-71.050677,"lat":48.406726,"arrival":1522700989000,"departure":1522700990000,"zoneId":"NA","stopIndex":17,"stopSequence":18,"vertexType":"TRANSIT"},"legGeometry":{"points":"kvqfH~awpL~CgBbAqa@FwCBkAOsHAg@bAYUwMKoE@mB@kJ@iFbEf@xEj@iCtYp@r@z@`ABBvHtHXRx@l@VwAvAgB\\qBIuAC]g@yEzDuLbBbBvAxAMx@|@v@`A~@Xw@~D~DPxFZtA~ApE`N{LpFmEb@[ROl@[vDQXKfA[|@q@fAsBlEmMr@sBhCsKz@dAjB|@dM`GzCvAXrC","length":57},"routeShortName":"175","routeLongName":"Term. Chic / Costco","rentedBike":false,"transitLeg":true,"duration":889.0,"steps":[]},{"startTime":1522700990000,"endTime":1522701215000,"departureDelay":0,"arrivalDelay":0,"realTime":false,"distance":287.384,"pathway":false,"mode":"WALK","route":"","agencyTimeZoneOffset":-14400000,"interlineWithPreviousLeg":false,"from":{"name":"Émile Girardin / Roitelets","stopId":"1:253","stopCode":"253","lon":-71.050677,"lat":48.406726,"arrival":1522700989000,"departure":1522700990000,"zoneId":"NA","stopIndex":17,"stopSequence":18,"vertexType":"TRANSIT"},"to":{"name":"Destination","lon":-71.05336099,"lat":48.407764,"arrival":1522701215000,"orig":"","vertexType":"NORMAL"},"legGeometry":{"points":"qlmfHnatpL@J@FFn@z@pEcA`AgAtAQTOb@q@xB","length":10},"rentedBike":false,"transitLeg":false,"duration":225.0,"steps":[{"distance":110.098,"relativeDirection":"DEPART","streetName":"Rue Émile-Girardin","absoluteDirection":"WEST","stayOn":false,"area":false,"bogusName":false,"lon":-71.05063801296859,"lat":48.406654574894674,"elevation":[]},{"distance":177.286,"relativeDirection":"RIGHT","streetName":"Rue des Champs-Élysées","absoluteDirection":"NORTHWEST","stayOn":false,"area":false,"bogusName":false,"lon":-71.05202630000001,"lat":48.4062974,"elevation":[]}]}],"tooSloped":false},{"duration":1080,"startTime":1522700404000,"endTime":1522701484000,"walkTime":98,"transitTime":980,"waitingTime":2,"walkDistance":123.70954135284973,"walkLimitExceeded":false,"elevationLost":0.0,"elevationGained":0.0,"transfers":0,"legs":[{"startTime":1522700404000,"endTime":1522700439000,"departureDelay":0,"arrivalDelay":0,"realTime":false,"distance":42.558,"pathway":false,"mode":"WALK","route":"","agencyTimeZoneOffset":-14400000,"interlineWithPreviousLeg":false,"from":{"name":"Origin","lon":-71.032366,"lat":48.42968,"departure":1522700404000,"orig":"","vertexType":"NORMAL"},"to":{"name":"boul. Saguenay / Saint-Timothée","stopId":"1:495","stopCode":"495","lon":-71.032928,"lat":48.429761,"arrival":1522700439000,"departure":1522700440000,"zoneId":"NA","stopIndex":9,"stopSequence":10,"vertexType":"TRANSIT"},"legGeometry":{"points":"u|qfHjpppLQIG~@AR","length":4},"rentedBike":false,"transitLeg":false,"duration":35.0,"steps":[{"distance":11.143,"relativeDirection":"DEPART","streetName":"Rue Saint-Thimothée","absoluteDirection":"NORTH","stayOn":false,"area":false,"bogusName":false,"lon":-71.03253162372788,"lat":48.42971315576262,"elevation":[]},{"distance":31.415,"relativeDirection":"LEFT","streetName":"Boulevard du Saguenay Est","absoluteDirection":"WEST","stayOn":false,"area":false,"bogusName":false,"lon":-71.032488,"lat":48.4298091,"elevation":[]}]},{"startTime":1522700440000,"endTime":1522701420000,"departureDelay":0,"arrivalDelay":0,"realTime":false,"distance":5886.371611501175,"pathway":false,"mode":"BUS","route":"12","agencyName":"Société de Transport du Saguenay","agencyUrl":"http://ville.saguenay.ca/fr/services-aux-citoyens/transport-sts","agencyTimeZoneOffset":-14400000,"routeColor":"556B2F","routeType":3,"routeId":"1:12","routeTextColor":"FFFFFF","interlineWithPreviousLeg":false,"tripBlockId":"28","headsign":"Terminus UQAC","agencyId":"0","tripId":"1:218045","serviceDate":"20180402","from":{"name":"boul. Saguenay / Saint-Timothée","stopId":"1:495","stopCode":"495","lon":-71.032928,"lat":48.429761,"arrival":1522700439000,"departure":1522700440000,"zoneId":"NA","stopIndex":9,"stopSequence":10,"vertexType":"TRANSIT"},"to":{"name":"Place du Royaume (Champs-Élysées)","stopId":"1:193","stopCode":"193","lon":-71.052659,"lat":48.407065,"arrival":1522701420000,"departure":1522701421000,"zoneId":"NA","stopIndex":28,"stopSequence":29,"vertexType":"TRANSIT"},"legGeometry":{"points":"_}qfHxrppLd@gTnCyHkGuLqFqJ_DeFf@iIvGsKlIrH`JlH`EfDnOdIdGlGjL|BzBiLv@}L`b@fNvVvrCdRvMcAjK","length":20},"routeShortName":"12","routeLongName":"Rivière du Moulin","rentedBike":false,"transitLeg":true,"duration":980.0,"steps":[]},{"startTime":1522701421000,"endTime":1522701484000,"departureDelay":0,"arrivalDelay":0,"realTime":false,"distance":81.135,"pathway":false,"mode":"WALK","route":"","agencyTimeZoneOffset":-14400000,"interlineWithPreviousLeg":false,"from":{"name":"Place du Royaume (Champs-Élysées)","stopId":"1:193","stopCode":"193","lon":-71.052659,"lat":48.407065,"arrival":1522701420000,"departure":1522701421000,"zoneId":"NA","stopIndex":28,"stopSequence":29,"vertexType":"TRANSIT"},"to":{"name":"Destination","lon":-71.05336099,"lat":48.407764,"arrival":1522701484000,"orig":"","vertexType":"NORMAL"},"legGeometry":{"points":"unmfH|ntpLQTOb@q@xB","length":4},"rentedBike":false,"transitLeg":false,"duration":63.0,"steps":[{"distance":81.135,"relativeDirection":"DEPART","streetName":"Rue des Champs-Élysées","absoluteDirection":"NORTHWEST","stayOn":false,"area":false,"bogusName":false,"lon":-71.0527883359973,"lat":48.40699779220329,"elevation":[]}]}],"tooSloped":false},{"duration":1080,"startTime":1522702204000,"endTime":1522703284000,"walkTime":98,"transitTime":980,"waitingTime":2,"walkDistance":123.70954135284973,"walkLimitExceeded":false,"elevationLost":0.0,"elevationGained":0.0,"transfers":0,"legs":[{"startTime":1522702204000,"endTime":1522702239000,"departureDelay":0,"arrivalDelay":0,"realTime":false,"distance":42.558,"pathway":false,"mode":"WALK","route":"","agencyTimeZoneOffset":-14400000,"interlineWithPreviousLeg":false,"from":{"name":"Origin","lon":-71.032366,"lat":48.42968,"departure":1522702204000,"orig":"","vertexType":"NORMAL"},"to":{"name":"boul. Saguenay / Saint-Timothée","stopId":"1:495","stopCode":"495","lon":-71.032928,"lat":48.429761,"arrival":1522702239000,"departure":1522702240000,"zoneId":"NA","stopIndex":9,"stopSequence":10,"vertexType":"TRANSIT"},"legGeometry":{"points":"u|qfHjpppLQIG~@AR","length":4},"rentedBike":false,"transitLeg":false,"duration":35.0,"steps":[{"distance":11.143,"relativeDirection":"DEPART","streetName":"Rue Saint-Thimothée","absoluteDirection":"NORTH","stayOn":false,"area":false,"bogusName":false,"lon":-71.03253162372788,"lat":48.42971315576262,"elevation":[]},{"distance":31.415,"relativeDirection":"LEFT","streetName":"Boulevard du Saguenay Est","absoluteDirection":"WEST","stayOn":false,"area":false,"bogusName":false,"lon":-71.032488,"lat":48.4298091,"elevation":[]}]},{"startTime":1522702240000,"endTime":1522703220000,"departureDelay":0,"arrivalDelay":0,"realTime":false,"distance":5886.371611501175,"pathway":false,"mode":"BUS","route":"12","agencyName":"Société de Transport du Saguenay","agencyUrl":"http://ville.saguenay.ca/fr/services-aux-citoyens/transport-sts","agencyTimeZoneOffset":-14400000,"routeColor":"556B2F","routeType":3,"routeId":"1:12","routeTextColor":"FFFFFF","interlineWithPreviousLeg":false,"tripBlockId":"27","headsign":"Terminus UQAC","agencyId":"0","tripId":"1:218020","serviceDate":"20180402","from":{"name":"boul. Saguenay / Saint-Timothée","stopId":"1:495","stopCode":"495","lon":-71.032928,"lat":48.429761,"arrival":1522702239000,"departure":1522702240000,"zoneId":"NA","stopIndex":9,"stopSequence":10,"vertexType":"TRANSIT"},"to":{"name":"Place du Royaume (Champs-Élysées)","stopId":"1:193","stopCode":"193","lon":-71.052659,"lat":48.407065,"arrival":1522703220000,"departure":1522703221000,"zoneId":"NA","stopIndex":28,"stopSequence":29,"vertexType":"TRANSIT"},"legGeometry":{"points":"_}qfHxrppLd@gTnCyHkGuLqFqJ_DeFf@iIvGsKlIrH`JlH`EfDnOdIdGlGjL|BzBiLv@}L`b@fNvVvrCdRvMcAjK","length":20},"routeShortName":"12","routeLongName":"Rivière du Moulin","rentedBike":false,"transitLeg":true,"duration":980.0,"steps":[]},{"startTime":1522703221000,"endTime":1522703284000,"departureDelay":0,"arrivalDelay":0,"realTime":false,"distance":81.135,"pathway":false,"mode":"WALK","route":"","agencyTimeZoneOffset":-14400000,"interlineWithPreviousLeg":false,"from":{"name":"Place du Royaume (Champs-Élysées)","stopId":"1:193","stopCode":"193","lon":-71.052659,"lat":48.407065,"arrival":1522703220000,"departure":1522703221000,"zoneId":"NA","stopIndex":28,"stopSequence":29,"vertexType":"TRANSIT"},"to":{"name":"Destination","lon":-71.05336099,"lat":48.407764,"arrival":1522703284000,"orig":"","vertexType":"NORMAL"},"legGeometry":{"points":"unmfH|ntpLQTOb@q@xB","length":4},"rentedBike":false,"transitLeg":false,"duration":63.0,"steps":[{"distance":81.135,"relativeDirection":"DEPART","streetName":"Rue des Champs-Élysées","absoluteDirection":"NORTHWEST","stayOn":false,"area":false,"bogusName":false,"lon":-71.0527883359973,"lat":48.40699779220329,"elevation":[]}]}],"tooSloped":false}]},"debugOutput":{"precalculationTime":32,"pathCalculationTime":22,"pathTimes":[8,10,4],"renderingTime":0,"totalTime":54,"timedOut":false},"elevationMetadata":{"ellipsoidToGeoidDifference":-28.885904201182168,"geoidElevation":false}}