{"requestParameters":{"date":"2018/04/02","walkSpeed":"1.33","walkReluctance":"2.0","fromPlace":"48.449901,-71.076722","maxWalkDistance":"3000","waitReluctance":"1.0","carSpeed":"33","numItineraries":"3","waitAtBeginningFactor":"0.4","mode":"TRANSIT,WALK","ignoreRealtimeUpdates":"false","stairsReluctance":"2.0","toPlace":"48.426013,-71.06780399","time":"17:55:00"},"plan":{"date":1522706100000,"from":{"name":"Origin","lon":-71.076722,"lat":48.449901,"orig":"","vertexType":"NORMAL"},"to":{"name":"Destination","lon":-71.06780399,"lat":48.426013,"orig":"","vertexType":"NORMAL"},"itineraries":[{"duration":1389,"startTime":1522707464000,"endTime":1522708853000,"walkTime":607,"transitTime":780,"waitingTime":2,"walkDistance":778.8815789431228,"walkLimitExceeded":false,"elevationLost":0.0,"elevationGained":0.0,"transfers":0,"legs":[{"startTime":1522707464000,"endTime":1522707719000,"departureDelay":0,"arrivalDelay":0,"realTime":false,"distance":332.523,"pathway":false,"mode":"WALK","route":"","agencyTimeZoneOffset":-14400000,"interlineWithPreviousLeg":false,"from":{"name":"Origin","lon":-71.076722,"lat":48.449901,"departure":1522707464000,"orig":"","vertexType":"NORMAL"},"to":{"name":"École Secondaire Charles-Gravel (St-Gérard)","stopId":"1:728","stopCode":"728","lon":-71.08106,"lat":48.449225,"arrival":1522707719000,"departure":1522707720000,"zoneId":"NA","stopIndex":5,"stopSequence":6,"vertexType":"TRANSIT"},"legGeometry":{"points":"q~ufH~jypLJPDFj@r@n@~@^f@DFh@z@Z\\zAfBILOh@S~@I\\ETIz@Ed@","length":17},"rentedBike":false,"transitLeg":false,"duration":255.0,"steps":[{"distance":223.233,"relativeDirection":"DEPART","streetName":"Rue Pinel","absoluteDirection":"SOUTHWEST","stayOn":false,"area":false,"bogusName":false,"lon":-71.07775609904292,"lat":48.450498414117945,"elevation":[]},{"distance":109.28999999999999,"relativeDirection":"RIGHT","streetName":"Rue Saint-Gérard","absoluteDirection":"NORTHWEST","stayOn":false,"area":false,"bogusName":false,"lon":-71.079678,"lat":48.4489492,"elevation":[]}]},{"startTime":1522707720000,"endTime":1522708500000,"departureDelay":0,"arrivalDelay":0,"realTime":false,"distance":5498.063021457336,"pathway":false,"mode":"BUS","route":"23","agencyName":"Société de Transport du Saguenay","agencyUrl":"http://ville.saguenay.ca/fr/services-aux-citoyens/transport-sts","agencyTimeZoneOffset":-14400000,"routeColor":"FF00FF","routeType":3,"routeId":"1:23","routeTextColor":"FFFFFF","interlineWithPreviousLeg":false,"tripBlockId":"4","headsign":"Terminus Chicoutimi","agencyId":"0","tripId":"1:217246","serviceDate":"20180402","from":{"name":"École Secondaire Charles-Gravel (St-Gérard)","stopId":"1:728","stopCode":"728","lon":-71.08106,"lat":48.449225,"arrival":1522707719000,"departure":1522707720000,"zoneId":"NA","stopIndex":5,"stopSequence":6,"vertexType":"TRANSIT"},"to":{"name":"Terminus Chicoutimi","stopId":"1:1289","stopCode":"1289","lon":-71.066163,"lat":48.428677,"arrival":1522708500000,"departure":1522708501000,"zoneId":"NA","stopIndex":26,"stopSequence":27,"vertexType":"TRANSIT"},"legGeometry":{"points":"kwufHh_zpLRoBFe@No@`@gAbCyFNe@Ha@He@Fg@Du@Dg@Hc@Pa@RW\\S`@QZEm@eHM}B?GGi@Is@Ou@Qw@Mo@Kw@ImAGoBAk@aALa@?YEUKc@Yc@_@KOIUGUEWAW?YBqAH_AXeC@IdB_Mh@_EJk@d@kDhAqI`AgHz@oGBU?UAWCWUwAWD]B]AUEoAc@kE}AOIq@g@g@u@]w@b@s@T[~CkFf@s@\\e@x@}@jAeAXQZStBaAh@]`@]`@i@l@kDF_@R{AFWFMPIPC`@BT@V?TAVKLENCLCJ@J@xAb@x@Zz@\\CP?R@N@NFLFF`GtBx@Xw@pG@l@B\\DXL\\RZDFXPf@N@v@Bp@Dr@l@~HNlAH\\@HLd@\\z@Xd@X\\RTXRr@Zn@PfExAvDpALnBJt@Pp@|@`DHZPn@`@rBNnAFr@DbA?bB@jABzA?p@A???A???A?A???A@??A?A@??A@?@A??@A@???@A@?@?@A@?@?@?@?@???@?@?@?@?@?@@@?@?@@@?@@@?@@@?@@?@@??@@@?E`@Kr@]rACVEl@I|AAr@JbAWJe@FUAM?a@Ke@YYWWa@v@}@RQPMz@k@tAe@REZG^Af@@X@VF`@Jn@XbClAr@Xt\\`PrAb@pA^hBTjAFj@Pb@JPHLLJNJRFXDT?X?ZEVEVKTMNMHMFOB}DWSGOSYcAN}FFkAF}DJyDd@wPV_HjAN~ALI`C","length":263},"routeShortName":"23","routeLongName":"Côte Verdun via Aréna du Plateau","rentedBike":false,"transitLeg":true,"duration":780.0,"steps":[]},{"startTime":1522708501000,"endTime":1522708853000,"departureDelay":0,"arrivalDelay":0,"realTime":false,"distance":446.22700000000003,"pathway":false,"mode":"WALK","route":"","agencyTimeZoneOffset":-14400000,"interlineWithPreviousLeg":false,"from":{"name":"Terminus Chicoutimi","stopId":"1:1289","stopCode":"1289","lon":-71.066163,"lat":48.428677,"arrival":1522708500000,"departure":1522708501000,"zoneId":"NA","stopIndex":26,"stopSequence":27,"vertexType":"TRANSIT"},"to":{"name":"Destination","lon":-71.06780399,"lat":48.426013,"arrival":1522708853000,"orig":"","vertexType":"NORMAL"},"legGeometry":{"points":"{uqfHb~vpLbAJR@JDb@LrBHP@jCPKdEH@hAJp@FIxD","length":13},"rentedBike":false,"transitLeg":false,"duration":352.0,"steps":[{"distance":229.71300000000002,"relativeDirection":"DEPART","streetName":"Rue Morin","absoluteDirection":"SOUTH","stayOn":false,"area":false,"bogusName":false,"lon":-71.0654590096484,"lat":48.428628638946556,"elevation":[]},{"distance":73.11,"relativeDirection":"RIGHT","streetName":"Rue Jacques-Cartier Est","absoluteDirection":"WEST","stayOn":false,"area":false,"bogusName":false,"lon":-71.0657774,"lat":48.426577300000005,"elevation":[]},{"distance":74.444,"relativeDirection":"LEFT","streetName":"Rue Lemieux","absoluteDirection":"SOUTH","stayOn":false,"area":false,"bogusName":false,"lon":-71.0667645,"lat":48.4266343,"elevation":[]},{"distance":68.96,"relativeDirection":"RIGHT","streetName":"Rue Blanchette","absoluteDirection":"WEST","stayOn":false,"area":false,"bogusName":false,"lon":-71.0668718,"lat":48.425968600000004,"elevation":[]}]}],"tooSloped":false},{"duration":1462,"startTime":1522707691000,"endTime":1522709153000,"walkTime":1009,"transitTime":451,"waitingTime":2,"walkDistance":1297.306172926872,"walkLimitExceeded":false,"elevationLost":0.0,"elevationGained":0.0,"transfers":0,"legs":[{"startTime":1522707691000,"endTime":1522708348000,"departureDelay":0,"arrivalDelay":0,"realTime":false,"distance":850.9100000000001,"pathway":false,"mode":"WALK","route":"","agencyTimeZoneOffset":-14400000,"interlineWithPreviousLeg":false,"from":{"name":"Origin","lon":-71.076722,"lat":48.449901,"departure":1522707691000,"orig":"","vertexType":"NORMAL"},"to":{"name":"Ste-Marie (no. 224)","stopId":"1:697","stopCode":"697","lon":-71.085685,"lat":48.44687,"arrival":1522708348000,"departure":1522708349000,"zoneId":"NA","stopIndex":21,"stopSequence":22,"vertexType":"TRANSIT"},"legGeometry":{"points":"q~ufH~jypLJPDFj@r@n@~@^f@DFh@z@Z\\zAfBILOh@S~@I\\ETIz@Ed@CT?f@DzANpCLpCDl@Fn@H^JV\\|@FPJTv@lBN\\`@z@HFJHfCElBA","length":36},"rentedBike":false,"transitLeg":false,"duration":657.0,"steps":[{"distance":223.233,"relativeDirection":"DEPART","streetName":"Rue Pinel","absoluteDirection":"SOUTHWEST","stayOn":false,"area":false,"bogusName":false,"lon":-71.07775609904292,"lat":48.450498414117945,"elevation":[]},{"distance":447.54999999999995,"relativeDirection":"RIGHT","streetName":"Rue Saint-Gérard","absoluteDirection":"NORTHWEST","stayOn":false,"area":false,"bogusName":false,"lon":-71.079678,"lat":48.4489492,"elevation":[]},{"distance":35.026,"relativeDirection":"CONTINUE","streetName":"Rue Sainte-Marie Sud","absoluteDirection":"SOUTHWEST","stayOn":false,"area":false,"bogusName":false,"lon":-71.08521470000001,"lat":48.448382800000005,"elevation":[]},{"distance":145.101,"relativeDirection":"LEFT","streetName":"Rue Sainte-Marie Sud","absoluteDirection":"SOUTH","stayOn":true,"area":false,"bogusName":false,"lon":-71.0855571,"lat":48.448167500000004,"elevation":[]}]},{"startTime":1522708349000,"endTime":1522708800000,"departureDelay":0,"arrivalDelay":0,"realTime":false,"distance":3596.573827725571,"pathway":false,"mode":"BUS","route":"20","agencyName":"Société de Transport du Saguenay","agencyUrl":"http://ville.saguenay.ca/fr/services-aux-citoyens/transport-sts","agencyTimeZoneOffset":-14400000,"routeColor":"0000FF","routeType":3,"routeId":"1:20","routeTextColor":"FFFFFF","interlineWithPreviousLeg":false,"tripBlockId":"1","headsign":"Terminus Chicoutimi","agencyId":"0","tripId":"1:217152","serviceDate":"20180402","from":{"name":"Ste-Marie (no. 224)","stopId":"1:697","stopCode":"697","lon":-71.085685,"lat":48.44687,"arrival":1522708348000,"departure":1522708349000,"zoneId":"NA","stopIndex":21,"stopSequence":22,"vertexType":"TRANSIT"},"to":{"name":"Terminus Chicoutimi","stopId":"1:1289","stopCode":"1289","lon":-71.066163,"lat":48.428677,"arrival":1522708800000,"departure":1522708801000,"zoneId":"NA","stopIndex":31,"stopSequence":32,"vertexType":"TRANSIT"},"legGeometry":{"points":"}gufH`|zpLzBEd@Cf@Gj@MZMb@S`Ag@DClAk@f@Qv@Ov@IlBCnBa@TCTBjBPH@LiCDe@Lw@|@cELo@D[Dk@@[@uC@SBUDQFSt@yAHIr@eAjAaB`AqA^i@p@kAVc@\\cAr@eBv@aB|B_CJSDKLe@NeAJaAHeBBi@F{AaFe@c@IcDeAWtBOfAERGLIHIFMBa@NOQSOUGOCW?UFMHa@XUHQ?QIQOIM[g@rCmFhHqN~@eBr@cAt@_Av@}@RQPMz@k@tAe@REZG^Af@@X@VF`@Jn@XbClAr@Xt\\`PrAb@pA^hBTjAFj@Pb@JPHLLJNJRFXDT?X?ZEVEVKTMNMHMFOB}DWSGOSYcAN}FFkAF}DJyDPwGj@_QjAN~ALIpBGVITe@@","length":135},"routeShortName":"20","routeLongName":"Sainte-Claire","rentedBike":false,"transitLeg":true,"duration":451.0,"steps":[]},{"startTime":1522708801000,"endTime":1522709153000,"departureDelay":0,"arrivalDelay":0,"realTime":false,"distance":446.22700000000003,"pathway":false,"mode":"WALK","route":"","agencyTimeZoneOffset":-14400000,"interlineWithPreviousLeg":false,"from":{"name":"Terminus Chicoutimi","stopId":"1:1289","stopCode":"1289","lon":-71.066163,"lat":48.428677,"arrival":1522708800000,"departure":1522708801000,"zoneId":"NA","stopIndex":31,"stopSequence":32,"vertexType":"TRANSIT"},"to":{"name":"Destination","lon":-71.06780399,"lat":48.426013,"arrival":1522709153000,"orig":"","vertexType":"NORMAL"},"legGeometry":{"points":"{uqfHb~vpLbAJR@JDb@LrBHP@jCPKdEH@hAJp@FIxD","length":13},"rentedBike":false,"transitLeg":false,"duration":352.0,"steps":[{"distance":229.71300000000002,"relativeDirection":"DEPART","streetName":"Rue Morin","absoluteDirection":"SOUTH","stayOn":false,"area":false,"bogusName":false,"lon":-71.0654590096484,"lat":48.428628638946556,"elevation":[]},{"distance":73.11,"relativeDirection":"RIGHT","streetName":"Rue Jacques-Cartier Est","absoluteDirection":"WEST","stayOn":false,"area":false,"bogusName":false,"lon":-71.0657774,"lat":48.426577300000005,"elevation":[]},{"distance":74.444,"relativeDirection":"LEFT","streetName":"Rue Lemieux","absoluteDirection":"SOUTH","stayOn":false,"area":false,"bogusName":false,"lon":-71.0667645,"lat":48.4266343,"elevation":[]},{"distance":68.96,"relativeDirection":"RIGHT","streetName":"Rue Blanchette","absoluteDirection":"WEST","stayOn":false,"area":false,"bogusName":false,"lon":-71.0668718,"lat":48.425968600000004,"elevation":[]}]}],"tooSloped":false},{"duration":1412,"startTime":1522707861000,"endTime":1522709273000,"walkTime":363,"transitTime":1047,"waitingTime":2,"walkDistance":460.6996315756357,"walkLimitExceeded":false,"elevationLost":0.0,"elevationGained":0.0,"transfers":0,"legs":[{"startTime":1522707861000,"endTime":1522707872000,"departureDelay":0,"arrivalDelay":0,"realTime":false,"distance":14.37,"pathway":false,"mode":"WALK","route":"","agencyTimeZoneOffset":-14400000,"interlineWithPreviousLeg":false,"from":{"name":"Origin","lon":-71.076722,"lat":48.449901,"departure":1522707861000,"orig":"","vertexType":"NORMAL"},"to":{"name":"Pinel (no. 163)","stopId":"1:730","stopCode":"730","lon":-71.077992,"lat":48.45046,"arrival":1522707872000,"departure":1522707873000,"zoneId":"NA","stopIndex":6,"stopSequence":7,"vertexType":"TRANSIT"},"legGeometry":{"points":"q~ufH~jypLJPDF","length":3},"rentedBike":false,"transitLeg":false,"duration":11.0,"steps":[{"distance":14.37,"relativeDirection":"DEPART","streetName":"Rue Pinel","absoluteDirection":"SOUTHWEST","stayOn":false,"area":false,"bogusName":false,"lon":-71.07775609904292,"lat":48.450498414117945,"elevation":[]}]},{"startTime":1522707873000,"endTime":1522708920000,"departureDelay":0,"arrivalDelay":0,"realTime":false,"distance":8963.18195522221,"pathway":false,"mode":"BUS","route":"21","agencyName":"Société de Transport du Saguenay","agencyUrl":"http://ville.saguenay.ca/fr/services-aux-citoyens/transport-sts","agencyTimeZoneOffset":-14400000,"routeColor":"556B2F","routeType":3,"routeId":"1:21","routeTextColor":"FFFFFF","interlineWithPreviousLeg":false,"tripBlockId":"2","headsign":"Terminus Chicoutimi","agencyId":"0","tripId":"1:217179","serviceDate":"20180402","from":{"name":"Pinel (no. 163)","stopId":"1:730","stopCode":"730","lon":-71.077992,"lat":48.45046,"arrival":1522707872000,"departure":1522707873000,"zoneId":"NA","stopIndex":6,"stopSequence":7,"vertexType":"TRANSIT"},"to":{"name":"Terminus Chicoutimi","stopId":"1:1289","stopCode":"1289","lon":-71.066163,"lat":48.428677,"arrival":1522708920000,"departure":1522708921000,"zoneId":"NA","stopIndex":34,"stopSequence":35,"vertexType":"TRANSIT"},"legGeometry":{"points":"a~ufH|kypLpGlIPNa@fAOn@Gd@UtBA^A^R`E^fGRbAVl@P`@BFNb@t@xAiCvCMP}@jAY`@q@jAm@jA}@rBmArD?Tu@|CYzAET{AxOQhBQ~Aa@~DQ~A[xCM~AiAjLo@vGk@tFe@vEu@xHgAdLIl@UhCyAnPQhBK`Ae@fFm@vGS`Co@`HQhBQlBAHo@fHc@fEc@`FiDiAOSIMOQOa@GQWs@Gf@A\\@r@DRFBDCb@e@NPHLNR|Bt@j@Rb@aF\\eDDa@n@gH@Ib@wEn@aH?A`AwK^}DDi@\\kD~AyQN_BHm@fAeLd@{Et@uHZyC~@sJjAyLJqAZyCP_BZuCDi@b@iExAsO@E^qBt@}CJGnAmDx@iBpAcCb@o@Zi@h@o@`AiArFkG`FgGdBwBt@cAbAmBx@eBj@eB`CoHpCyJbAmCtAuCZg@|@gBxAsCrCmFhHqN~@eBr@cAt@_Av@}@RQPMz@k@tAe@REZG^Af@@X@VF`@Jn@XbClAr@Xt\\`PrAb@pA^hBTjAFj@Pb@JPHLLJNJRFXDT?X?ZEVEVKTMNMHMFOB}DWSGOSYcAN}FFkAF}DJyDPwGvAHVyL","length":182},"routeShortName":"21","routeLongName":"Boul. Ste-Geneviève/Élie","rentedBike":false,"transitLeg":true,"duration":1047.0,"steps":[]},{"startTime":1522708921000,"endTime":1522709273000,"departureDelay":0,"arrivalDelay":0,"realTime":false,"distance":446.22700000000003,"pathway":false,"mode":"WALK","route":"","agencyTimeZoneOffset":-14400000,"interlineWithPreviousLeg":false,"from":{"name":"Terminus Chicoutimi","stopId":"1:1289","stopCode":"1289","lon":-71.066163,"lat":48.428677,"arrival":1522708920000,"departure":1522708921000,"zoneId":"NA","stopIndex":34,"stopSequence":35,"vertexType":"TRANSIT"},"to":{"name":"Destination","lon":-71.06780399,"lat":48.426013,"arrival":1522709273000,"orig":"","vertexType":"NORMAL"},"legGeometry":{"points":"{uqfHb~vpLbAJR@JDb@LrBHP@jCPKdEH@hAJp@FIxD","length":13},"rentedBike":false,"transitLeg":false,"duration":352.0,"steps":[{"distance":229.71300000000002,"relativeDirection":"DEPART","streetName":"Rue Morin","absoluteDirection":"SOUTH","stayOn":false,"area":false,"bogusName":false,"lon":-71.0654590096484,"lat":48.428628638946556,"elevation":[]},{"distance":73.11,"relativeDirection":"RIGHT","streetName":"Rue Jacques-Cartier Est","absoluteDirection":"WEST","stayOn":false,"area":false,"bogusName":false,"lon":-71.0657774,"lat":48.426577300000005,"elevation":[]},{"distance":74.444,"relativeDirection":"LEFT","streetName":"Rue Lemieux","absoluteDirection":"SOUTH","stayOn":false,"area":false,"bogusName":false,"lon":-71.0667645,"lat":48.4266343,"elevation":[]},{"distance":68.96,"relativeDirection":"RIGHT","streetName":"Rue Blanchette","absoluteDirection":"WEST","stayOn":false,"area":false,"bogusName":false,"lon":-71.0668718,"lat":48.425968600000004,"elevation":[]}]}],"tooSloped":false}]},"debugOutput":{"precalculationTime":27,"pathCalculationTime":17,"pathTimes":[13,1,3],"renderingTime":0,"totalTime":44,"timedOut":false},"elevationMetadata":{"ellipsoidToGeoidDifference":-28.885904201182168,"geoidElevation":false}}