{"requestParameters":{"date":"2018/04/02","walkSpeed":"1.33","walkReluctance":"2.0","fromPlace":"48.446957,-71.08310799","maxWalkDistance":"3000","waitReluctance":"1.0","carSpeed":"33","numItineraries":"3","waitAtBeginningFactor":"0.4","mode":"TRANSIT,WALK","ignoreRealtimeUpdates":"false","stairsReluctance":"2.0","toPlace":"48.444385,-71.081322","time":"10:30:00"},"plan":{"date":1522679400000,"from":{"name":"Origin","lon":-71.08310799,"lat":48.446957,"orig":"","vertexType":"NORMAL"},"to":{"name":"Destination","lon":-71.081322,"lat":48.444385,"orig":"","vertexType":"NORMAL"},"itineraries":[{"duration":377,"startTime":1522679431000,"endTime":1522679808000,"walkTime":322,"transitTime":53,"waitingTime":2,"walkDistance":407.86076691384824,"walkLimitExceeded":false,"elevationLost":0.0,"elevationGained":0.0,"transfers":0,"legs":[{"startTime":1522679431000,"endTime":1522679661000,"departureDelay":0,"arrivalDelay":0,"realTime":false,"distance":291.43600000000004,"pathway":false,"mode":"WALK","route":"","agencyTimeZoneOffset":-14400000,"interlineWithPreviousLeg":false,"from":{"name":"Origin","lon":-71.08310799,"lat":48.446957,"departure":1522679431000,"orig":"","vertexType":"NORMAL"},"to":{"name":"boul. Ste-Geneviève / Ste-Marie","stopId":"1:731","stopCode":"731","lon":-71.085744,"lat":48.448746,"arrival":1522679661000,"departure":1522679662000,"zoneId":"NA","stopIndex":29,"stopSequence":30,"vertexType":"TRANSIT"},"legGeometry":{"points":"}gufHnmzpLqCfDsA|AwA~AN\\oAvA","length":6},"rentedBike":false,"transitLeg":false,"duration":230.0,"steps":[{"distance":291.43600000000004,"relativeDirection":"DEPART","streetName":"Boulevard Sainte-Geneviève","absoluteDirection":"NORTHWEST","stayOn":false,"area":false,"bogusName":false,"lon":-71.08327062378734,"lat":48.44687497821064,"elevation":[]}]},{"startTime":1522679662000,"endTime":1522679715000,"departureDelay":0,"arrivalDelay":0,"realTime":false,"distance":588.117358181693,"pathway":false,"mode":"BUS","route":"21","agencyName":"Société de Transport du Saguenay","agencyUrl":"http://ville.saguenay.ca/fr/services-aux-citoyens/transport-sts","agencyTimeZoneOffset":-14400000,"routeColor":"556B2F","routeType":3,"routeId":"1:21","routeTextColor":"FFFFFF","interlineWithPreviousLeg":false,"tripBlockId":"2","headsign":"Terminus Chicoutimi","agencyId":"0","tripId":"1:217163","serviceDate":"20180402","from":{"name":"boul. Ste-Geneviève / Ste-Marie","stopId":"1:731","stopCode":"731","lon":-71.085744,"lat":48.448746,"arrival":1522679661000,"departure":1522679662000,"zoneId":"NA","stopIndex":29,"stopSequence":30,"vertexType":"TRANSIT"},"to":{"name":"Place de la Colline (boul. Ste-Geneviève)","stopId":"1:2009","stopCode":"2009","lon":-71.080522,"lat":48.444768,"arrival":1522679715000,"departure":1522679716000,"zoneId":"NA","stopIndex":31,"stopSequence":32,"vertexType":"TRANSIT"},"legGeometry":{"points":"}sufHh|zpLrFkG`FgGdBwBt@cAbAmBx@eBj@eB","length":8},"routeShortName":"21","routeLongName":"Boul. Ste-Geneviève/Élie","rentedBike":false,"transitLeg":true,"duration":53.0,"steps":[]},{"startTime":1522679716000,"endTime":1522679808000,"departureDelay":0,"arrivalDelay":0,"realTime":false,"distance":116.318,"pathway":false,"mode":"WALK","route":"","agencyTimeZoneOffset":-14400000,"interlineWithPreviousLeg":false,"from":{"name":"Place de la Colline (boul. Ste-Geneviève)","stopId":"1:2009","stopCode":"2009","lon":-71.080522,"lat":48.444768,"arrival":1522679715000,"departure":1522679716000,"zoneId":"NA","stopIndex":31,"stopSequence":32,"vertexType":"TRANSIT"},"to":{"name":"Destination","lon":-71.081322,"lat":48.444385,"arrival":1522679808000,"orig":"","vertexType":"NORMAL"},"legGeometry":{"points":"_{tfH`|ypLi@~AnBhB","length":3},"rentedBike":false,"transitLeg":false,"duration":92.0,"steps":[{"distance":42.545,"relativeDirection":"DEPART","streetName":"Boulevard Sainte-Geneviève","absoluteDirection":"NORTHWEST","stayOn":false,"area":false,"bogusName":false,"lon":-71.0804866067989,"lat":48.44480212337132,"elevation":[]},{"distance":73.773,"relativeDirection":"LEFT","streetName":"Rue David","absoluteDirection":"SOUTHWEST","stayOn":false,"area":false,"bogusName":false,"lon":-71.08096180000001,"lat":48.445019,"elevation":[]}]}],"tooSloped":false},{"duration":533,"startTime":1522679400000,"endTime":1522679933000,"walkTime":533,"transitTime":0,"waitingTime":0,"walkDistance":687.217278191898,"walkLimitExceeded":false,"elevationLost":0.0,"elevationGained":0.0,"transfers":0,"legs":[{"startTime":1522679400000,"endTime":1522679933000,"departureDelay":0,"arrivalDelay":0,"realTime":false,"distance":687.106,"pathway":false,"mode":"WALK","route":"","agencyTimeZoneOffset":-14400000,"interlineWithPreviousLeg":false,"from":{"name":"Origin","lon":-71.08310799,"lat":48.446957,"departure":1522679400000,"orig":"","vertexType":"NORMAL"},"to":{"name":"Destination","lon":-71.081322,"lat":48.444385,"arrival":1522679933000,"orig":"","vertexType":"NORMAL"},"legGeometry":{"points":"}gufHnmzpLlAyApBcChB{Cn@kBb@iA\\eAdBkFPRsAvEa@fAi@~AnBhB","length":13},"rentedBike":false,"transitLeg":false,"duration":533.0,"steps":[{"distance":433.032,"relativeDirection":"DEPART","streetName":"Boulevard Sainte-Geneviève","absoluteDirection":"SOUTHEAST","stayOn":false,"area":false,"bogusName":false,"lon":-71.08327062378734,"lat":48.44687497821064,"elevation":[]},{"distance":180.301,"relativeDirection":"UTURN_RIGHT","streetName":"Boulevard Sainte-Geneviève","absoluteDirection":"NORTHWEST","stayOn":true,"area":false,"bogusName":false,"lon":-71.0790497,"lat":48.4442132,"elevation":[]},{"distance":73.773,"relativeDirection":"LEFT","streetName":"Rue David","absoluteDirection":"SOUTHWEST","stayOn":false,"area":false,"bogusName":false,"lon":-71.08096180000001,"lat":48.445019,"elevation":[]}]}],"tooSloped":false},{"duration":377,"startTime":1522681231000,"endTime":1522681608000,"walkTime":322,"transitTime":53,"waitingTime":2,"walkDistance":407.86076691384824,"walkLimitExceeded":false,"elevationLost":0.0,"elevationGained":0.0,"transfers":0,"legs":[{"startTime":1522681231000,"endTime":1522681461000,"departureDelay":0,"arrivalDelay":0,"realTime":false,"distance":291.43600000000004,"pathway":false,"mode":"WALK","route":"","agencyTimeZoneOffset":-14400000,"interlineWithPreviousLeg":false,"from":{"name":"Origin","lon":-71.08310799,"lat":48.446957,"departure":1522681231000,"orig":"","vertexType":"NORMAL"},"to":{"name":"boul. Ste-Geneviève / Ste-Marie","stopId":"1:731","stopCode":"731","lon":-71.085744,"lat":48.448746,"arrival":1522681461000,"departure":1522681462000,"zoneId":"NA","stopIndex":29,"stopSequence":30,"vertexType":"TRANSIT"},"legGeometry":{"points":"}gufHnmzpLqCfDsA|AwA~AN\\oAvA","length":6},"rentedBike":false,"transitLeg":false,"duration":230.0,"steps":[{"distance":291.43600000000004,"relativeDirection":"DEPART","streetName":"Boulevard Sainte-Geneviève","absoluteDirection":"NORTHWEST","stayOn":false,"area":false,"bogusName":false,"lon":-71.08327062378734,"lat":48.44687497821064,"elevation":[]}]},{"startTime":1522681462000,"endTime":1522681515000,"departureDelay":0,"arrivalDelay":0,"realTime":false,"distance":588.117358181693,"pathway":false,"mode":"BUS","route":"21","agencyName":"Société de Transport du Saguenay","agencyUrl":"http://ville.saguenay.ca/fr/services-aux-citoyens/transport-sts","agencyTimeZoneOffset":-14400000,"routeColor":"556B2F","routeType":3,"routeId":"1:21","routeTextColor":"FFFFFF","interlineWithPreviousLeg":false,"tripBlockId":"2","headsign":"Terminus Chicoutimi","agencyId":"0","tripId":"1:217164","serviceDate":"20180402","from":{"name":"boul. Ste-Geneviève / Ste-Marie","stopId":"1:731","stopCode":"731","lon":-71.085744,"lat":48.448746,"arrival":1522681461000,"departure":1522681462000,"zoneId":"NA","stopIndex":29,"stopSequence":30,"vertexType":"TRANSIT"},"to":{"name":"Place de la Colline (boul. Ste-Geneviève)","stopId":"1:2009","stopCode":"2009","lon":-71.080522,"lat":48.444768,"arrival":1522681515000,"departure":1522681516000,"zoneId":"NA","stopIndex":31,"stopSequence":32,"vertexType":"TRANSIT"},"legGeometry":{"points":"}sufHh|zpLrFkG`FgGdBwBt@cAbAmBx@eBj@eB","length":8},"routeShortName":"21","routeLongName":"Boul. Ste-Geneviève/Élie","rentedBike":false,"transitLeg":true,"duration":53.0,"steps":[]},{"startTime":1522681516000,"endTime":1522681608000,"departureDelay":0,"arrivalDelay":0,"realTime":false,"distance":116.318,"pathway":false,"mode":"WALK","route":"","agencyTimeZoneOffset":-14400000,"interlineWithPreviousLeg":false,"from":{"name":"Place de la Colline (boul. Ste-Geneviève)","stopId":"1:2009","stopCode":"2009","lon":-71.080522,"lat":48.444768,"arrival":1522681515000,"departure":1522681516000,"zoneId":"NA","stopIndex":31,"stopSequence":32,"vertexType":"TRANSIT"},"to":{"name":"Destination","lon":-71.081322,"lat":48.444385,"arrival":1522681608000,"orig":"","vertexType":"NORMAL"},"legGeometry":{"points":"_{tfH`|ypLi@~AnBhB","length":3},"rentedBike":false,"transitLeg":false,"duration":92.0,"steps":[{"distance":42.545,"relativeDirection":"DEPART","streetName":"Boulevard Sainte-Geneviève","absoluteDirection":"NORTHWEST","stayOn":false,"area":false,"bogusName":false,"lon":-71.0804866067989,"lat":48.44480212337132,"elevation":[]},{"distance":73.773,"relativeDirection":"LEFT","streetName":"Rue David","absoluteDirection":"SOUTHWEST","stayOn":false,"area":false,"bogusName":false,"lon":-71.08096180000001,"lat":48.445019,"elevation":[]}]}],"tooSloped":false}]},"debugOutput":{"precalculationTime":12,"pathCalculationTime":15,"pathTimes":[5,6,4],"renderingTime":0,"totalTime":27,"timedOut":false},"elevationMetadata":{"ellipsoidToGeoidDifference":-28.885904201182168,"geoidElevation":false}}