{"requestParameters":{"date":"2018/04/02","walkSpeed":"1.33","walkReluctance":"2.0","fromPlace":"48.423148,-71.052406","maxWalkDistance":"3000","waitReluctance":"1.0","carSpeed":"33","numItineraries":"3","waitAtBeginningFactor":"0.4","mode":"TRANSIT,WALK","ignoreRealtimeUpdates":"false","stairsReluctance":"2.0","toPlace":"48.409981,-71.120915","time":"19:45:00"},"plan":{"date":1522712700000,"from":{"name":"Origin","lon":-71.052406,"lat":48.423148,"orig":"","vertexType":"NORMAL"},"to":{"name":"Destination","lon":-71.120915,"lat":48.409981,"orig":"","vertexType":"NORMAL"},"itineraries":[{"duration":2057,"startTime":1522715353000,"endTime":1522717410000,"walkTime":196,"transitTime":1303,"waitingTime":558,"walkDistance":246.14812029919918,"walkLimitExceeded":false,"elevationLost":0.0,"elevationGained":0.0,"transfers":1,"legs":[{"startTime":1522715353000,"endTime":1522715533000,"departureDelay":0,"arrivalDelay":0,"realTime":false,"distance":229.888,"pathway":false,"mode":"WALK","route":"","agencyTimeZoneOffset":-14400000,"interlineWithPreviousLeg":false,"from":{"name":"Origin","lon":-71.052406,"lat":48.423148,"departure":1522715353000,"orig":"","vertexType":"NORMAL"},"to":{"name":"Cégep de Chicoutimi (voie réservée)","stopId":"1:65","stopCode":"65","lon":-71.054799,"lat":48.423007,"arrival":1522715533000,"departure":1522715534000,"zoneId":"NA","stopIndex":31,"stopSequence":32,"vertexType":"TRANSIT"},"legGeometry":{"points":"qspfHpltpL?n@CVWrB~A^_@hAUt@@z@Hn@BR","length":10},"rentedBike":false,"transitLeg":false,"duration":180.0,"steps":[{"distance":71.52,"relativeDirection":"DEPART","streetName":"service road","absoluteDirection":"WEST","stayOn":false,"area":false,"bogusName":false,"lon":-71.05240568397582,"lat":48.423135724671475,"elevation":[]},{"distance":54.189,"relativeDirection":"LEFT","streetName":"path","absoluteDirection":"SOUTH","stayOn":false,"area":false,"bogusName":true,"lon":-71.05334280000001,"lat":48.4232749,"elevation":[]},{"distance":104.179,"relativeDirection":"RIGHT","streetName":"bike path","absoluteDirection":"NORTHWEST","stayOn":true,"area":false,"bogusName":true,"lon":-71.053503,"lat":48.4227993,"elevation":[]}]},{"startTime":1522715534000,"endTime":1522715820000,"departureDelay":0,"arrivalDelay":0,"realTime":false,"distance":1378.4212952488278,"pathway":false,"mode":"BUS","route":"15","agencyName":"Société de Transport du Saguenay","agencyUrl":"http://ville.saguenay.ca/fr/services-aux-citoyens/transport-sts","agencyTimeZoneOffset":-14400000,"routeColor":"FF00FF","routeType":3,"routeId":"1:15","routeTextColor":"FFFFFF","interlineWithPreviousLeg":false,"tripBlockId":"30","headsign":"Terminus Chicoutimi","agencyId":"0","tripId":"1:218114","serviceDate":"20180402","from":{"name":"Cégep de Chicoutimi (voie réservée)","stopId":"1:65","stopCode":"65","lon":-71.054799,"lat":48.423007,"arrival":1522715533000,"departure":1522715534000,"zoneId":"NA","stopIndex":31,"stopSequence":32,"vertexType":"TRANSIT"},"to":{"name":"Sainte-Anne / Racine","stopId":"1:558","stopCode":"558","lon":-71.068444,"lat":48.427369,"arrival":1522715820000,"departure":1522715820000,"zoneId":"NA","stopIndex":38,"stopSequence":39,"vertexType":"TRANSIT"},"legGeometry":{"points":"arpfHf{tpLVvCIxBg@`Am@l@Sb@a@rAqDqDmEkE]a@kAqAU|@WnKG|DGxDOdPKvJU|F?XQlJC~@ChAIzEcCO","length":24},"routeShortName":"15","routeLongName":"Term. Chic / Costco","rentedBike":false,"transitLeg":true,"duration":286.0,"steps":[]},{"startTime":1522715820000,"endTime":1522715823000,"departureDelay":0,"arrivalDelay":0,"realTime":false,"distance":0.224,"pathway":false,"mode":"WALK","route":"","agencyTimeZoneOffset":-14400000,"interlineWithPreviousLeg":false,"from":{"name":"Sainte-Anne / Racine","stopId":"1:558","stopCode":"558","lon":-71.068444,"lat":48.427369,"arrival":1522715820000,"departure":1522715820000,"zoneId":"NA","stopIndex":38,"stopSequence":39,"vertexType":"TRANSIT"},"to":{"name":"Sainte-Anne / Jacques-Cartier","stopId":"1:413","stopCode":"413","lon":-71.068639,"lat":48.427373,"arrival":1522715823000,"departure":1522716379000,"zoneId":"NA","stopIndex":1,"stopSequence":2,"vertexType":"TRANSIT"},"legGeometry":{"points":"anqfHhqwpL@?","length":2},"rentedBike":false,"transitLeg":false,"duration":3.0,"steps":[{"distance":0.224,"relativeDirection":"DEPART","streetName":"Rue Sainte-Anne","absoluteDirection":"SOUTH","stayOn":false,"area":false,"bogusName":false,"lon":-71.06852127104082,"lat":48.427371387668245,"elevation":[]}]},{"startTime":1522716379000,"endTime":1522717396000,"departureDelay":0,"arrivalDelay":0,"realTime":false,"distance":6544.77492836156,"pathway":false,"mode":"BUS","route":"16","agencyName":"Société de Transport du Saguenay","agencyUrl":"http://ville.saguenay.ca/fr/services-aux-citoyens/transport-sts","agencyTimeZoneOffset":-14400000,"routeColor":"00FF00","routeType":3,"routeId":"1:16","routeTextColor":"000000","interlineWithPreviousLeg":false,"tripBlockId":"35","headsign":"Faubourg Sagamie","agencyId":"0","tripId":"1:218270","serviceDate":"20180402","from":{"name":"Sainte-Anne / Jacques-Cartier","stopId":"1:413","stopCode":"413","lon":-71.068639,"lat":48.427373,"arrival":1522715823000,"departure":1522716379000,"zoneId":"NA","stopIndex":1,"stopSequence":2,"vertexType":"TRANSIT"},"to":{"name":"ch.de la Réserve (no.1774)","stopId":"1:1869","stopCode":"1869","lon":-71.120947,"lat":48.410525,"arrival":1522717396000,"departure":1522717397000,"zoneId":"NA","stopIndex":30,"stopSequence":31,"vertexType":"TRANSIT"},"legGeometry":{"points":"_nqfHnqwpL~M~@jDTOrHKdGE^E~BQnIMhGAxCD~@Df@DVDZd@zBBLDJJNHHHDJBn@HCxAHdAFX@DFj@@b@Ab@SvAe@p@{EnEEB{@w@m@o@aDeDIKCMCM?SL}A?A@WCYi@mDOu@Wm@EIMSSWaAcAuAcBq@f@URa@d@u@`A}BzCV`DX~C@HFT^v@bA|AZ^`Av@\\`@Zf@pAvCtD`JJTrAtCpAjC@BvA|CvA~Ci@zAqD`KyDrKyF|Og@tAr@r@h@^jA\\\\Nt@\\PHf@RVDXEROR[p@iBr@uBJQLIDCNEr@lERbBFzA@LFbFN`A^r@bB|AlC`BDBz@t@eAjD|@x@~AxAxB`BbAiDjCzB|ApAvAZbAo@|@cDf@gB~DbA~Cr@fNtNZ\\nCbDl@jBZrB\\`Dx@tIbB|KzBnOpB|GhA~D\\dF@hI?pApBnP","length":136},"routeShortName":"16","routeLongName":"Côte de la Réserve","rentedBike":false,"transitLeg":true,"duration":1017.0,"steps":[]},{"startTime":1522717397000,"endTime":1522717410000,"departureDelay":0,"arrivalDelay":0,"realTime":false,"distance":15.988,"pathway":false,"mode":"WALK","route":"","agencyTimeZoneOffset":-14400000,"interlineWithPreviousLeg":false,"from":{"name":"ch.de la Réserve (no.1774)","stopId":"1:1869","stopCode":"1869","lon":-71.120947,"lat":48.410525,"arrival":1522717396000,"departure":1522717397000,"zoneId":"NA","stopIndex":30,"stopSequence":31,"vertexType":"TRANSIT"},"to":{"name":"Destination","lon":-71.120915,"lat":48.409981,"arrival":1522717410000,"orig":"","vertexType":"NORMAL"},"legGeometry":{"points":"idnfHvxaqL?@Ff@","length":3},"rentedBike":false,"transitLeg":false,"duration":13.0,"steps":[{"distance":15.988,"relativeDirection":"DEPART","streetName":"Chemin de la Réserve","absoluteDirection":"WEST","stayOn":false,"area":false,"bogusName":false,"lon":-71.1209140260284,"lat":48.410455798799944,"elevation":[]}]}],"tooSloped":false},{"duration":4069,"startTime":1522714748000,"endTime":1522718817000,"walkTime":223,"transitTime":2644,"waitingTime":1202,"walkDistance":271.2349849593734,"walkLimitExceeded":false,"elevationLost":0.0,"elevationGained":0.0,"transfers":1,"legs":[{"startTime":1522714748000,"endTime":1522714959000,"departureDelay":0,"arrivalDelay":0,"realTime":false,"distance":256.03600000000006,"pathway":false,"mode":"WALK","route":"","agencyTimeZoneOffset":-14400000,"interlineWithPreviousLeg":false,"from":{"name":"Origin","lon":-71.052406,"lat":48.423148,"departure":1522714748000,"orig":"","vertexType":"NORMAL"},"to":{"name":"Cégep de Chicoutimi (voie réservée)","stopId":"1:75","stopCode":"75","lon":-71.055283,"lat":48.422761,"arrival":1522714959000,"departure":1522714960000,"zoneId":"NA","stopIndex":9,"stopSequence":10,"vertexType":"TRANSIT"},"legGeometry":{"points":"qspfHpltpL?n@CVWrBOpAP`AN`ANnCJAZELAFh@","length":12},"rentedBike":false,"transitLeg":false,"duration":211.0,"steps":[{"distance":239.42900000000003,"relativeDirection":"DEPART","streetName":"service road","absoluteDirection":"WEST","stayOn":false,"area":false,"bogusName":false,"lon":-71.05240568397582,"lat":48.423135724671475,"elevation":[]},{"distance":16.607,"relativeDirection":"RIGHT","streetName":"Chemin Saint Thomas","absoluteDirection":"WEST","stayOn":false,"area":false,"bogusName":false,"lon":-71.0550802,"lat":48.4228351,"elevation":[]}]},{"startTime":1522714960000,"endTime":1522716120000,"departureDelay":0,"arrivalDelay":0,"realTime":false,"distance":6334.221206958508,"pathway":false,"mode":"BUS","route":"175","agencyName":"Société de Transport du Saguenay","agencyUrl":"http://ville.saguenay.ca/fr/services-aux-citoyens/transport-sts","agencyTimeZoneOffset":-14400000,"routeColor":"FF00FF","routeType":3,"routeId":"1:175","routeTextColor":"FFFFFF","interlineWithPreviousLeg":false,"tripBlockId":"6","headsign":"Costco","agencyId":"0","tripId":"1:217312","serviceDate":"20180402","from":{"name":"Cégep de Chicoutimi (voie réservée)","stopId":"1:75","stopCode":"75","lon":-71.055283,"lat":48.422761,"arrival":1522714959000,"departure":1522714960000,"zoneId":"NA","stopIndex":9,"stopSequence":10,"vertexType":"TRANSIT"},"to":{"name":"COSTCO","stopId":"1:1710","stopCode":"1710","lon":-71.085767,"lat":48.382333,"arrival":1522716120000,"departure":1522716300000,"zoneId":"NA","stopIndex":30,"stopSequence":31,"vertexType":"TRANSIT"},"legGeometry":{"points":"oqpfHr~tpLC]g@yEzDuLbBbBvAxAMx@|@v@`A~@Xw@~D~DPxFZtA~ApE`N{LpFmEb@[ROl@[vDQXKfA[|@q@fAsBlEmMr@sBhCsKz@dAjB|@dM`GzCvAXrCr@~Gx@]PEr@ObACn@FrBb@|@Ch@Kx@U~HsB^KZ|DJpII~Fa@rFUzBi@bDUxAm@nCcAlDM^RTfD`DjF`FjCrCrAvAbCfDjIfMdAzAfFpHd@n@nC`DlXv[b@f@mCtHv@v@p@r@_@p@uAcBjDoJhAzApBrBrFvGjDdEbD|DZb@~DrEbDfDrA~ApLbNpG|GyCtHwBcC","length":86},"routeShortName":"175","routeLongName":"Term. Chic / Costco","rentedBike":false,"transitLeg":true,"duration":1160.0,"steps":[]},{"startTime":1522716300000,"endTime":1522716900000,"departureDelay":0,"arrivalDelay":0,"realTime":false,"distance":6545.867623869018,"pathway":false,"mode":"BUS","route":"2","agencyName":"Société de Transport du Saguenay","agencyUrl":"http://ville.saguenay.ca/fr/services-aux-citoyens/transport-sts","agencyTimeZoneOffset":-14400000,"routeColor":"FF0000","routeType":3,"routeId":"1:2","routeTextColor":"FFFFFF","interlineWithPreviousLeg":true,"tripBlockId":"6","headsign":"Terminus Jonquière","agencyId":"0","tripId":"1:217313","serviceDate":"20180402","from":{"name":"COSTCO","stopId":"1:1710","stopCode":"1710","lon":-71.085767,"lat":48.382333,"arrival":1522716120000,"departure":1522716300000,"zoneId":"NA","stopIndex":0,"stopSequence":1,"vertexType":"TRANSIT"},"to":{"name":"Faubourg Sagamie","stopId":"1:1129","stopCode":"1129","lon":-71.167414,"lat":48.402974,"arrival":1522716900000,"departure":1522718100000,"zoneId":"NA","stopIndex":9,"stopSequence":10,"vertexType":"TRANSIT"},"legGeometry":{"points":"wthfHn}zpLeLkMxCaIbPzPkL|[eB~GwBlIa@bXIbQO`^aBhTiBlNUfBiI~ZeHzQeFxMqDtKAJ}ApJM~EWhIb@`NFlB_@fOsBvK_DrH_G|HiSfXwExNyEzZoHll@}GpYuL`_@PPZ^lC|Bn@j@bB|A","length":38},"routeShortName":"2","routeLongName":"Chic/Jonq via Boul. Royaume","rentedBike":false,"transitLeg":true,"duration":600.0,"steps":[]},{"startTime":1522718100000,"endTime":1522718804000,"departureDelay":0,"arrivalDelay":0,"realTime":false,"distance":4163.308750035974,"pathway":false,"mode":"BUS","route":"16","agencyName":"Société de Transport du Saguenay","agencyUrl":"http://ville.saguenay.ca/fr/services-aux-citoyens/transport-sts","agencyTimeZoneOffset":-14400000,"routeColor":"00FF00","routeType":3,"routeId":"1:16","routeTextColor":"000000","interlineWithPreviousLeg":false,"tripBlockId":"35","headsign":"Terminus Chicoutimi","agencyId":"0","tripId":"1:218271","serviceDate":"20180402","from":{"name":"Faubourg Sagamie","stopId":"1:1129","stopCode":"1129","lon":-71.167414,"lat":48.402974,"arrival":1522716900000,"departure":1522718100000,"zoneId":"NA","stopIndex":0,"stopSequence":1,"vertexType":"TRANSIT"},"to":{"name":"ch. de la Réserve (no. 1805)","stopId":"1:641","stopCode":"641","lon":-71.1209,"lat":48.4104,"arrival":1522718804000,"departure":1522718805000,"zoneId":"NA","stopIndex":17,"stopSequence":18,"vertexType":"TRANSIT"},"legGeometry":{"points":"sulfHn{jqLq@g@J]kIkHbAoDzB{HhBoGxGiTd@{A`ByIXyCZcDaB_@aBoBeGmH[_@m@iClA_AlAuEj@yBt@iDDq@Z}EpAkDlAiAv@i@zB}AeA}H\\sCNgApDyKeE}EoEgF`@gAl@gB}GoImCqFeD_H}DcEiJqJgEeGqAyGk@kEg@_EmD}NkB_IUoB","length":47},"routeShortName":"16","routeLongName":"Côte de la Réserve","rentedBike":false,"transitLeg":true,"duration":704.0,"steps":[]},{"startTime":1522718805000,"endTime":1522718817000,"departureDelay":0,"arrivalDelay":0,"realTime":false,"distance":15.105,"pathway":false,"mode":"WALK","route":"","agencyTimeZoneOffset":-14400000,"interlineWithPreviousLeg":false,"from":{"name":"ch. de la Réserve (no. 1805)","stopId":"1:641","stopCode":"641","lon":-71.1209,"lat":48.4104,"arrival":1522718804000,"departure":1522718805000,"zoneId":"NA","stopIndex":17,"stopSequence":18,"vertexType":"TRANSIT"},"to":{"name":"Destination","lon":-71.120915,"lat":48.409981,"arrival":1522718817000,"orig":"","vertexType":"NORMAL"},"legGeometry":{"points":"idnfHxxaqLFf@","length":2},"rentedBike":false,"transitLeg":false,"duration":12.0,"steps":[{"distance":15.105,"relativeDirection":"DEPART","streetName":"Chemin de la Réserve","absoluteDirection":"WEST","stayOn":false,"area":false,"bogusName":false,"lon":-71.12092544529325,"lat":48.41045340131623,"elevation":[]}]}],"tooSloped":false},{"duration":2057,"startTime":1522718953000,"endTime":1522721010000,"walkTime":196,"transitTime":1303,"waitingTime":558,"walkDistance":246.14812029919918,"walkLimitExceeded":false,"elevationLost":0.0,"elevationGained":0.0,"transfers":1,"legs":[{"startTime":1522718953000,"endTime":1522719133000,"departureDelay":0,"arrivalDelay":0,"realTime":false,"distance":229.888,"pathway":false,"mode":"WALK","route":"","agencyTimeZoneOffset":-14400000,"interlineWithPreviousLeg":false,"from":{"name":"Origin","lon":-71.052406,"lat":48.423148,"departure":1522718953000,"orig":"","vertexType":"NORMAL"},"to":{"name":"Cégep de Chicoutimi (voie réservée)","stopId":"1:65","stopCode":"65","lon":-71.054799,"lat":48.423007,"arrival":1522719133000,"departure":1522719134000,"zoneId":"NA","stopIndex":31,"stopSequence":32,"vertexType":"TRANSIT"},"legGeometry":{"points":"qspfHpltpL?n@CVWrB~A^_@hAUt@@z@Hn@BR","length":10},"rentedBike":false,"transitLeg":false,"duration":180.0,"steps":[{"distance":71.52,"relativeDirection":"DEPART","streetName":"service road","absoluteDirection":"WEST","stayOn":false,"area":false,"bogusName":false,"lon":-71.05240568397582,"lat":48.423135724671475,"elevation":[]},{"distance":54.189,"relativeDirection":"LEFT","streetName":"path","absoluteDirection":"SOUTH","stayOn":false,"area":false,"bogusName":true,"lon":-71.05334280000001,"lat":48.4232749,"elevation":[]},{"distance":104.179,"relativeDirection":"RIGHT","streetName":"bike path","absoluteDirection":"NORTHWEST","stayOn":true,"area":false,"bogusName":true,"lon":-71.053503,"lat":48.4227993,"elevation":[]}]},{"startTime":1522719134000,"endTime":1522719420000,"departureDelay":0,"arrivalDelay":0,"realTime":false,"distance":1378.4212952488278,"pathway":false,"mode":"BUS","route":"15","agencyName":"Société de Transport du Saguenay","agencyUrl":"http://ville.saguenay.ca/fr/services-aux-citoyens/transport-sts","agencyTimeZoneOffset":-14400000,"routeColor":"FF00FF","routeType":3,"routeId":"1:15","routeTextColor":"FFFFFF","interlineWithPreviousLeg":false,"tripBlockId":"30","headsign":"Terminus Chicoutimi","agencyId":"0","tripId":"1:218116","serviceDate":"20180402","from":{"name":"Cégep de Chicoutimi (voie réservée)","stopId":"1:65","stopCode":"65","lon":-71.054799,"lat":48.423007,"arrival":1522719133000,"departure":1522719134000,"zoneId":"NA","stopIndex":31,"stopSequence":32,"vertexType":"TRANSIT"},"to":{"name":"Sainte-Anne / Racine","stopId":"1:558","stopCode":"558","lon":-71.068444,"lat":48.427369,"arrival":1522719420000,"departure":1522719420000,"zoneId":"NA","stopIndex":38,"stopSequence":39,"vertexType":"TRANSIT"},"legGeometry":{"points":"arpfHf{tpLVvCIxBg@`Am@l@Sb@a@rAqDqDmEkE]a@kAqAU|@WnKG|DGxDOdPKvJU|F?XQlJC~@ChAIzEcCO","length":24},"routeShortName":"15","routeLongName":"Term. Chic / Costco","rentedBike":false,"transitLeg":true,"duration":286.0,"steps":[]},{"startTime":1522719420000,"endTime":1522719423000,"departureDelay":0,"arrivalDelay":0,"realTime":false,"distance":0.224,"pathway":false,"mode":"WALK","route":"","agencyTimeZoneOffset":-14400000,"interlineWithPreviousLeg":false,"from":{"name":"Sainte-Anne / Racine","stopId":"1:558","stopCode":"558","lon":-71.068444,"lat":48.427369,"arrival":1522719420000,"departure":1522719420000,"zoneId":"NA","stopIndex":38,"stopSequence":39,"vertexType":"TRANSIT"},"to":{"name":"Sainte-Anne / Jacques-Cartier","stopId":"1:413","stopCode":"413","lon":-71.068639,"lat":48.427373,"arrival":1522719423000,"departure":1522719979000,"zoneId":"NA","stopIndex":1,"stopSequence":2,"vertexType":"TRANSIT"},"legGeometry":{"points":"anqfHhqwpL@?","length":2},"rentedBike":false,"transitLeg":false,"duration":3.0,"steps":[{"distance":0.224,"relativeDirection":"DEPART","streetName":"Rue Sainte-Anne","absoluteDirection":"SOUTH","stayOn":false,"area":false,"bogusName":false,"lon":-71.06852127104082,"lat":48.427371387668245,"elevation":[]}]},{"startTime":1522719979000,"endTime":1522720996000,"departureDelay":0,"arrivalDelay":0,"realTime":false,"distance":6544.77492836156,"pathway":false,"mode":"BUS","route":"16","agencyName":"Société de Transport du Saguenay","agencyUrl":"http://ville.saguenay.ca/fr/services-aux-citoyens/transport-sts","agencyTimeZoneOffset":-14400000,"routeColor":"00FF00","routeType":3,"routeId":"1:16","routeTextColor":"000000","interlineWithPreviousLeg":false,"tripBlockId":"34","headsign":"Faubourg Sagamie","agencyId":"0","tripId":"1:218237","serviceDate":"20180402","from":{"name":"Sainte-Anne / Jacques-Cartier","stopId":"1:413","stopCode":"413","lon":-71.068639,"lat":48.427373,"arrival":1522719423000,"departure":1522719979000,"zoneId":"NA","stopIndex":1,"stopSequence":2,"vertexType":"TRANSIT"},"to":{"name":"ch.de la Réserve (no.1774)","stopId":"1:1869","stopCode":"1869","lon":-71.120947,"lat":48.410525,"arrival":1522720996000,"departure":1522720997000,"zoneId":"NA","stopIndex":30,"stopSequence":31,"vertexType":"TRANSIT"},"legGeometry":{"points":"_nqfHnqwpL~M~@jDTOrHKdGE^E~BQnIMhGAxCD~@Df@DVDZd@zBBLDJJNHHHDJBn@HCxAHdAFX@DFj@@b@Ab@SvAe@p@{EnEEB{@w@m@o@aDeDIKCMCM?SL}A?A@WCYi@mDOu@Wm@EIMSSWaAcAuAcBq@f@URa@d@u@`A}BzCV`DX~C@HFT^v@bA|AZ^`Av@\\`@Zf@pAvCtD`JJTrAtCpAjC@BvA|CvA~Ci@zAqD`KyDrKyF|Og@tAr@r@h@^jA\\\\Nt@\\PHf@RVDXEROR[p@iBr@uBJQLIDCNEr@lERbBFzA@LFbFN`A^r@bB|AlC`BDBz@t@eAjD|@x@~AxAxB`BbAiDjCzB|ApAvAZbAo@|@cDf@gB~DbA~Cr@fNtNZ\\nCbDl@jBZrB\\`Dx@tIbB|KzBnOpB|GhA~D\\dF@hI?pApBnP","length":136},"routeShortName":"16","routeLongName":"Côte de la Réserve","rentedBike":false,"transitLeg":true,"duration":1017.0,"steps":[]},{"startTime":1522720997000,"endTime":1522721010000,"departureDelay":0,"arrivalDelay":0,"realTime":false,"distance":15.988,"pathway":false,"mode":"WALK","route":"","agencyTimeZoneOffset":-14400000,"interlineWithPreviousLeg":false,"from":{"name":"ch.de la Réserve (no.1774)","stopId":"1:1869","stopCode":"1869","lon":-71.120947,"lat":48.410525,"arrival":1522720996000,"departure":1522720997000,"zoneId":"NA","stopIndex":30,"stopSequence":31,"vertexType":"TRANSIT"},"to":{"name":"Destination","lon":-71.120915,"lat":48.409981,"arrival":1522721010000,"orig":"","vertexType":"NORMAL"},"legGeometry":{"points":"idnfHvxaqL?@Ff@","length":3},"rentedBike":false,"transitLeg":false,"duration":13.0,"steps":[{"distance":15.988,"relativeDirection":"DEPART","streetName":"Chemin de la Réserve","absoluteDirection":"WEST","stayOn":false,"area":false,"bogusName":false,"lon":-71.1209140260284,"lat":48.410455798799944,"elevation":[]}]}],"tooSloped":false}]},"debugOutput":{"precalculationTime":27,"pathCalculationTime":85,"pathTimes":[32,25,28],"renderingTime":0,"totalTime":112,"timedOut":false},"elevationMetadata":{"ellipsoidToGeoidDifference":-28.885904201182168,"geoidElevation":false}}