{"requestParameters":{"date":"2018/04/02","walkSpeed":"1.33","walkReluctance":"2.0","fromPlace":"48.437113,-71.065572","maxWalkDistance":"3000","waitReluctance":"1.0","carSpeed":"33","numItineraries":"3","waitAtBeginningFactor":"0.4","mode":"TRANSIT,WALK","ignoreRealtimeUpdates":"false","stairsReluctance":"2.0","toPlace":"48.446747,-71.068829","time":"17:25:00"},"plan":{"date":1522704300000,"from":{"name":"Origin","lon":-71.065572,"lat":48.437113,"orig":"","vertexType":"NORMAL"},"to":{"name":"Destination","lon":-71.068829,"lat":48.446747,"orig":"","vertexType":"NORMAL"},"itineraries":[{"duration":1130,"startTime":1522704300000,"endTime":1522705430000,"walkTime":1130,"transitTime":0,"waitingTime":0,"walkDistance":1442.303819539908,"walkLimitExceeded":false,"elevationLost":0.0,"elevationGained":0.0,"transfers":0,"legs":[{"startTime":1522704300000,"endTime":1522705430000,"departureDelay":0,"arrivalDelay":0,"realTime":false,"distance":1442.0260000000003,"pathway":false,"mode":"WALK","route":"","agencyTimeZoneOffset":-14400000,"interlineWithPreviousLeg":false,"from":{"name":"Origin","lon":-71.065572,"lat":48.437113,"departure":1522704300000,"orig":"","vertexType":"NORMAL"},"to":{"name":"Destination","lon":-71.068829,"lat":48.446747,"arrival":1522705430000,"orig":"","vertexType":"NORMAL"},"legGeometry":{"points":"_lsfHz~vpL?`A@R?dACvCE?C@ABCBAD?DK?e@^u@x@wAbCw@tA[l@Yj@Sd@i@z@c@z@c@WmCLgAqF]ByDq@iDoAmBq@GAIFELGJAHCFAFAXeCr@PnBeAPc@@KAOAe@a@_@YOMqAgA{BeBGTGTKNGDEB{Al@SH","length":54},"rentedBike":false,"transitLeg":false,"duration":1130.0,"steps":[{"distance":113.15899999999999,"relativeDirection":"DEPART","streetName":"Rue Roussel","absoluteDirection":"WEST","stayOn":false,"area":false,"bogusName":false,"lon":-71.06557971462443,"lat":48.43728831150423,"elevation":[]},{"distance":14.306,"relativeDirection":"CIRCLE_COUNTERCLOCKWISE","streetName":"Rue Roussel","absoluteDirection":"NORTHWEST","exit":"1","stayOn":false,"area":false,"bogusName":false,"lon":-71.0671123,"lat":48.437299200000005,"elevation":[]},{"distance":6.516,"relativeDirection":"RIGHT","streetName":"R 172","absoluteDirection":"NORTH","stayOn":false,"area":false,"bogusName":true,"lon":-71.0672278,"lat":48.4373869,"elevation":[]},{"distance":236.639,"relativeDirection":"SLIGHTLY_LEFT","streetName":"R 172","absoluteDirection":"NORTHWEST","stayOn":true,"area":false,"bogusName":true,"lon":-71.0672291,"lat":48.4374455,"elevation":[]},{"distance":62.283,"relativeDirection":"CONTINUE","streetName":"Boulevard Sainte-Geneviève","absoluteDirection":"NORTHWEST","stayOn":false,"area":false,"bogusName":false,"lon":-71.0694016,"lat":48.4389935,"elevation":[]},{"distance":199.08,"relativeDirection":"RIGHT","streetName":"path","absoluteDirection":"NORTHEAST","stayOn":false,"area":false,"bogusName":true,"lon":-71.07000330000001,"lat":48.4393862,"elevation":[]},{"distance":288.789,"relativeDirection":"LEFT","streetName":"Rue Saint-Nicolas","absoluteDirection":"NORTH","stayOn":false,"area":false,"bogusName":false,"lon":-71.06874350000001,"lat":48.4406393,"elevation":[]},{"distance":38.33,"relativeDirection":"LEFT","streetName":"Rue Riel","absoluteDirection":"NORTHWEST","stayOn":false,"area":false,"bogusName":false,"lon":-71.06785640000001,"lat":48.4431554,"elevation":[]},{"distance":77.517,"relativeDirection":"RIGHT","streetName":"path","absoluteDirection":"NORTH","stayOn":false,"area":false,"bogusName":true,"lon":-71.0682821,"lat":48.443321000000005,"elevation":[]},{"distance":42.345,"relativeDirection":"LEFT","streetName":"Rue Delisle","absoluteDirection":"WEST","stayOn":false,"area":false,"bogusName":false,"lon":-71.0685442,"lat":48.4439961,"elevation":[]},{"distance":261.08000000000004,"relativeDirection":"RIGHT","streetName":"Rue Constantin","absoluteDirection":"NORTH","stayOn":false,"area":false,"bogusName":false,"lon":-71.069103,"lat":48.4439088,"elevation":[]},{"distance":101.982,"relativeDirection":"LEFT","streetName":"Rue du Carignan","absoluteDirection":"NORTHWEST","stayOn":false,"area":false,"bogusName":false,"lon":-71.0679434,"lat":48.4460343,"elevation":[]}]}],"tooSloped":false},{"duration":1005,"startTime":1522704985000,"endTime":1522705990000,"walkTime":908,"transitTime":95,"waitingTime":2,"walkDistance":1171.681067665073,"walkLimitExceeded":false,"elevationLost":0.0,"elevationGained":0.0,"transfers":0,"legs":[{"startTime":1522704985000,"endTime":1522705739000,"departureDelay":0,"arrivalDelay":0,"realTime":false,"distance":973.8650000000001,"pathway":false,"mode":"WALK","route":"","agencyTimeZoneOffset":-14400000,"interlineWithPreviousLeg":false,"from":{"name":"Origin","lon":-71.065572,"lat":48.437113,"departure":1522704985000,"orig":"","vertexType":"NORMAL"},"to":{"name":"Champs / Victor","stopId":"1:2018","stopCode":"2018","lon":-71.072622,"lat":48.44254,"arrival":1522705739000,"departure":1522705740000,"zoneId":"NA","stopIndex":1,"stopSequence":2,"vertexType":"TRANSIT"},"legGeometry":{"points":"_lsfHz~vpL?`A@R?dACvCE?C@ABCBAD?DK?e@^u@x@wAbCw@tA[l@Yj@Sd@i@z@c@z@wAnC{AvCaIhOu@mBsAkD?A","length":27},"rentedBike":false,"transitLeg":false,"duration":754.0,"steps":[{"distance":113.15899999999999,"relativeDirection":"DEPART","streetName":"Rue Roussel","absoluteDirection":"WEST","stayOn":false,"area":false,"bogusName":false,"lon":-71.06557971462443,"lat":48.43728831150423,"elevation":[]},{"distance":14.306,"relativeDirection":"CIRCLE_COUNTERCLOCKWISE","streetName":"Rue Roussel","absoluteDirection":"NORTHWEST","exit":"1","stayOn":false,"area":false,"bogusName":false,"lon":-71.0671123,"lat":48.437299200000005,"elevation":[]},{"distance":6.516,"relativeDirection":"RIGHT","streetName":"R 172","absoluteDirection":"NORTH","stayOn":false,"area":false,"bogusName":true,"lon":-71.0672278,"lat":48.4373869,"elevation":[]},{"distance":236.639,"relativeDirection":"SLIGHTLY_LEFT","streetName":"R 172","absoluteDirection":"NORTHWEST","stayOn":true,"area":false,"bogusName":true,"lon":-71.0672291,"lat":48.4374455,"elevation":[]},{"distance":473.293,"relativeDirection":"CONTINUE","streetName":"Boulevard Sainte-Geneviève","absoluteDirection":"NORTHWEST","stayOn":false,"area":false,"bogusName":false,"lon":-71.0694016,"lat":48.4389935,"elevation":[]},{"distance":129.952,"relativeDirection":"RIGHT","streetName":"Rue des Champs","absoluteDirection":"NORTHEAST","stayOn":false,"area":false,"bogusName":false,"lon":-71.0740944,"lat":48.4418955,"elevation":[]}]},{"startTime":1522705740000,"endTime":1522705835000,"departureDelay":0,"arrivalDelay":0,"realTime":false,"distance":634.9067058286228,"pathway":false,"mode":"BUS","route":"22","agencyName":"Société de Transport du Saguenay","agencyUrl":"http://ville.saguenay.ca/fr/services-aux-citoyens/transport-sts","agencyTimeZoneOffset":-14400000,"routeColor":"C0C000","routeType":3,"routeId":"1:22","routeTextColor":"000000","interlineWithPreviousLeg":false,"tripBlockId":"1","headsign":"Terminus Chicoutimi","agencyId":"0","tripId":"1:217151","serviceDate":"20180402","from":{"name":"Champs / Victor","stopId":"1:2018","stopCode":"2018","lon":-71.072622,"lat":48.44254,"arrival":1522705739000,"departure":1522705740000,"zoneId":"NA","stopIndex":1,"stopSequence":2,"vertexType":"TRANSIT"},"to":{"name":"Constantin / Cardinal","stopId":"1:740","stopCode":"740","lon":-71.067189,"lat":48.446739,"arrival":1522705835000,"departure":1522705836000,"zoneId":"NA","stopIndex":4,"stopSequence":5,"vertexType":"TRANSIT"},"legGeometry":{"points":"cmtfHdkxpL[{@_B{D{@uBe@gAO}AGw@SaCmAZe@AYOy@o@MKsAcA}BmBuC}B","length":16},"routeShortName":"22","routeLongName":"Vanier","rentedBike":false,"transitLeg":true,"duration":95.0,"steps":[]},{"startTime":1522705836000,"endTime":1522705990000,"departureDelay":0,"arrivalDelay":0,"realTime":false,"distance":197.689,"pathway":false,"mode":"WALK","route":"","agencyTimeZoneOffset":-14400000,"interlineWithPreviousLeg":false,"from":{"name":"Constantin / Cardinal","stopId":"1:740","stopCode":"740","lon":-71.067189,"lat":48.446739,"arrival":1522705835000,"departure":1522705836000,"zoneId":"NA","stopIndex":4,"stopSequence":5,"vertexType":"TRANSIT"},"to":{"name":"Destination","lon":-71.068829,"lat":48.446747,"arrival":1522705990000,"orig":"","vertexType":"NORMAL"},"legGeometry":{"points":"igufHriwpLdBvAl@h@GTGTKNGDEB{Al@SH","length":10},"rentedBike":false,"transitLeg":false,"duration":154.0,"steps":[{"distance":95.707,"relativeDirection":"DEPART","streetName":"Rue Constantin","absoluteDirection":"SOUTHWEST","stayOn":false,"area":false,"bogusName":false,"lon":-71.06729139128157,"lat":48.44677847155457,"elevation":[]},{"distance":101.982,"relativeDirection":"RIGHT","streetName":"Rue du Carignan","absoluteDirection":"NORTHWEST","stayOn":false,"area":false,"bogusName":false,"lon":-71.0679434,"lat":48.4460343,"elevation":[]}]}],"tooSloped":false},{"duration":1410,"startTime":1522704994000,"endTime":1522706404000,"walkTime":355,"transitTime":1053,"waitingTime":2,"walkDistance":454.8051954861986,"walkLimitExceeded":false,"elevationLost":0.0,"elevationGained":0.0,"transfers":0,"legs":[{"startTime":1522704994000,"endTime":1522705019000,"departureDelay":0,"arrivalDelay":0,"realTime":false,"distance":31.701999999999998,"pathway":false,"mode":"WALK","route":"","agencyTimeZoneOffset":-14400000,"interlineWithPreviousLeg":false,"from":{"name":"Origin","lon":-71.065572,"lat":48.437113,"departure":1522704994000,"orig":"","vertexType":"NORMAL"},"to":{"name":"Roussel / St-Ambroise","stopId":"1:1507","stopCode":"1507","lon":-71.066011,"lat":48.437319,"arrival":1522705019000,"departure":1522705020000,"zoneId":"NA","stopIndex":32,"stopSequence":33,"vertexType":"TRANSIT"},"legGeometry":{"points":"_lsfHz~vpL?`A@R","length":3},"rentedBike":false,"transitLeg":false,"duration":25.0,"steps":[{"distance":31.701999999999998,"relativeDirection":"DEPART","streetName":"Rue Roussel","absoluteDirection":"WEST","stayOn":false,"area":false,"bogusName":false,"lon":-71.06557971462443,"lat":48.43728831150423,"elevation":[]}]},{"startTime":1522705020000,"endTime":1522705260000,"departureDelay":0,"arrivalDelay":0,"realTime":false,"distance":1507.390514446539,"pathway":false,"mode":"BUS","route":"24","agencyName":"Société de Transport du Saguenay","agencyUrl":"http://ville.saguenay.ca/fr/services-aux-citoyens/transport-sts","agencyTimeZoneOffset":-14400000,"routeColor":"00FF00","routeType":3,"routeId":"1:24","routeTextColor":"000000","interlineWithPreviousLeg":false,"tripBlockId":"5","headsign":"Terminus Chicoutimi","agencyId":"0","tripId":"1:217271","serviceDate":"20180402","from":{"name":"Roussel / St-Ambroise","stopId":"1:1507","stopCode":"1507","lon":-71.066011,"lat":48.437319,"arrival":1522705019000,"departure":1522705020000,"zoneId":"NA","stopIndex":32,"stopSequence":33,"vertexType":"TRANSIT"},"to":{"name":"Terminus Chicoutimi","stopId":"1:1289","stopCode":"1289","lon":-71.066163,"lat":48.428677,"arrival":1522705260000,"departure":1522705500000,"zoneId":"NA","stopIndex":35,"stopSequence":36,"vertexType":"TRANSIT"},"legGeometry":{"points":"_lsfHpawpL@jABzA?p@A???A???A?A???A@??A?A@??A@?@A??@A@???@A@?@?@A@?@?@?@?@???@?@?@?@?@?@@@?@?@@@?@@@?@@@?@@?@@??@@@?E`@Kr@]rACVEl@I|AAr@JbAWJe@FUAM?a@Ke@YYWWa@v@}@RQPMz@k@tAe@REZG^Af@@X@VF`@Jn@XbClAr@Xt\\`PrAb@pA^hBTjAFj@Pb@JPHLLJNJRFXDT?X?ZEVEVKTMNMHMFOB}DWSGOSYcAN}FFkAF}DJyDPwGvAHN_HDiB@m@","length":118},"routeShortName":"24","routeLongName":"Saint-Luc","rentedBike":false,"transitLeg":true,"duration":240.0,"steps":[]},{"startTime":1522705500000,"endTime":1522706073000,"departureDelay":0,"arrivalDelay":0,"realTime":false,"distance":4196.583055059013,"pathway":false,"mode":"BUS","route":"23","agencyName":"Société de Transport du Saguenay","agencyUrl":"http://ville.saguenay.ca/fr/services-aux-citoyens/transport-sts","agencyTimeZoneOffset":-14400000,"routeColor":"FF00FF","routeType":3,"routeId":"1:23","routeTextColor":"FFFFFF","interlineWithPreviousLeg":true,"tripBlockId":"5","headsign":"Terminus Chicoutimi","agencyId":"0","tripId":"1:217272","serviceDate":"20180402","from":{"name":"Terminus Chicoutimi","stopId":"1:1289","stopCode":"1289","lon":-71.066163,"lat":48.428677,"arrival":1522705260000,"departure":1522705500000,"zoneId":"NA","stopIndex":0,"stopSequence":1,"vertexType":"TRANSIT"},"to":{"name":"Cabot (no. 575)","stopId":"1:742","stopCode":"742","lon":-71.064972,"lat":48.448145,"arrival":1522706073000,"departure":1522706074000,"zoneId":"NA","stopIndex":10,"stopSequence":11,"vertexType":"TRANSIT"},"legGeometry":{"points":"kwqfHjbwpLF_CkAOYCm@rRO\\WjGOfGCRK^KJMHQB_AMg@Gw`@eR}@g@u@Su@Ia@Ck@Dm@HwAf@c@VeAx@iAlAU^[d@eLtTsAvB_CvEuAnCmBlE}@|B_BvFoC`JCD}@hCo@~Aq@pAs@fA{BlCqH|Iq@Bq@Im@UGCUi@Wm@ScA_@gGSaE@_@@_@@ERoBFe@No@`@gAbCyFNe@Ha@He@Fg@Du@Dg@Hc@Pa@RW\\S`@QZEm@eHM}B?GGi@Is@Ou@Qw@Mo@Kw@ImAGoBAk@aALa@?YEUKc@Yc@_@KOIUGUEWAW?YBqAH_AXeC@IdB_Mh@_EJk@d@kD","length":104},"routeShortName":"23","routeLongName":"Côte Verdun via Aréna du Plateau","rentedBike":false,"transitLeg":true,"duration":573.0,"steps":[]},{"startTime":1522706074000,"endTime":1522706404000,"departureDelay":0,"arrivalDelay":0,"realTime":false,"distance":423.025,"pathway":false,"mode":"WALK","route":"","agencyTimeZoneOffset":-14400000,"interlineWithPreviousLeg":false,"from":{"name":"Cabot (no. 575)","stopId":"1:742","stopCode":"742","lon":-71.064972,"lat":48.448145,"arrival":1522706073000,"departure":1522706074000,"zoneId":"NA","stopIndex":10,"stopSequence":11,"vertexType":"TRANSIT"},"to":{"name":"Destination","lon":-71.068829,"lat":48.446747,"arrival":1522706404000,"orig":"","vertexType":"NORMAL"},"legGeometry":{"points":"ipufHzzvpL]fCId@z@v@@@~@z@|BpBs@`FAH?J?HBLBLFRDLDHBFDFNLdAe@","length":20},"rentedBike":false,"transitLeg":false,"duration":330.0,"steps":[{"distance":67.48,"relativeDirection":"DEPART","streetName":"Rue Cabot","absoluteDirection":"WEST","stayOn":false,"area":false,"bogusName":false,"lon":-71.06493533157504,"lat":48.44821645875971,"elevation":[]},{"distance":164.478,"relativeDirection":"LEFT","streetName":"Rue Constantin","absoluteDirection":"SOUTHWEST","stayOn":false,"area":false,"bogusName":false,"lon":-71.0658016,"lat":48.4484117,"elevation":[]},{"distance":150.261,"relativeDirection":"RIGHT","streetName":"Rue du Cardinal","absoluteDirection":"WEST","stayOn":false,"area":false,"bogusName":false,"lon":-71.06696570000001,"lat":48.4471502,"elevation":[]},{"distance":40.806,"relativeDirection":"LEFT","streetName":"Rue du Carignan","absoluteDirection":"SOUTH","stayOn":false,"area":false,"bogusName":false,"lon":-71.06876480000001,"lat":48.447151600000005,"elevation":[]}]}],"tooSloped":false}]},"debugOutput":{"precalculationTime":23,"pathCalculationTime":21,"pathTimes":[15,3,3],"renderingTime":0,"totalTime":44,"timedOut":false},"elevationMetadata":{"ellipsoidToGeoidDifference":-28.885904201182168,"geoidElevation":false}}