{"requestParameters":{"date":"2018/04/02","walkSpeed":"1.33","walkReluctance":"2.0","fromPlace":"48.415975,-71.061812","maxWalkDistance":"3000","waitReluctance":"1.0","carSpeed":"33","numItineraries":"3","waitAtBeginningFactor":"0.4","mode":"TRANSIT,WALK","ignoreRealtimeUpdates":"false","stairsReluctance":"2.0","toPlace":"48.40513,-71.06202998","time":"11:0:00"},"plan":{"date":1522681200000,"from":{"name":"Origin","lon":-71.061812,"lat":48.415975,"orig":"","vertexType":"NORMAL"},"to":{"name":"Destination","lon":-71.06202998,"lat":48.40513,"orig":"","vertexType":"NORMAL"},"itineraries":[{"duration":1200,"startTime":1522681200000,"endTime":1522682400000,"walkTime":1200,"transitTime":0,"waitingTime":0,"walkDistance":1534.2852405951721,"walkLimitExceeded":false,"elevationLost":0.0,"elevationGained":0.0,"transfers":0,"legs":[{"startTime":1522681200000,"endTime":1522682400000,"departureDelay":0,"arrivalDelay":0,"realTime":false,"distance":1534.0890000000004,"pathway":false,"mode":"WALK","route":"","agencyTimeZoneOffset":-14400000,"interlineWithPreviousLeg":false,"from":{"name":"Origin","lon":-71.061812,"lat":48.415975,"departure":1522681200000,"orig":"","vertexType":"NORMAL"},"to":{"name":"Destination","lon":-71.06202998,"lat":48.40513,"arrival":1522682400000,"orig":"","vertexType":"NORMAL"},"legGeometry":{"points":"agofHxgvpLdCrCnAoDd@qA??hAcDXa@^e@bAq@~@OxCc@LABA|Fs@B?hAMvC_@`@a@|@h@hAd@DBj@d@d@`@pAfAlBpB`BxAn@V~@b@J[DQrAiDn@aBdE|DO`@}@`C","length":35},"rentedBike":false,"transitLeg":false,"duration":1200.0,"steps":[{"distance":92.021,"relativeDirection":"DEPART","streetName":"Rue Georges-Vanier","absoluteDirection":"SOUTHWEST","stayOn":false,"area":false,"bogusName":false,"lon":-71.06188938985933,"lat":48.416012359675335,"elevation":[]},{"distance":699.3710000000001,"relativeDirection":"LEFT","streetName":"Rue des Champs-Élysées","absoluteDirection":"SOUTHEAST","stayOn":false,"area":false,"bogusName":false,"lon":-71.0626228,"lat":48.4153431,"elevation":[]},{"distance":395.65,"relativeDirection":"RIGHT","streetName":"Rue Bizet","absoluteDirection":"SOUTHWEST","stayOn":false,"area":false,"bogusName":false,"lon":-71.0589618,"lat":48.409989800000005,"elevation":[]},{"distance":142.506,"relativeDirection":"LEFT","streetName":"bike path","absoluteDirection":"SOUTHEAST","stayOn":false,"area":false,"bogusName":true,"lon":-71.0614278,"lat":48.4068513,"elevation":[]},{"distance":130.663,"relativeDirection":"RIGHT","streetName":"Rue Bach","absoluteDirection":"SOUTHWEST","stayOn":false,"area":false,"bogusName":false,"lon":-71.0598554,"lat":48.4061091,"elevation":[]},{"distance":73.878,"relativeDirection":"RIGHT","streetName":"Rue Des Maristes","absoluteDirection":"NORTHWEST","stayOn":false,"area":false,"bogusName":false,"lon":-71.06080990000001,"lat":48.405119500000005,"elevation":[]}]}],"tooSloped":false},{"duration":875,"startTime":1522681981000,"endTime":1522682856000,"walkTime":717,"transitTime":156,"waitingTime":2,"walkDistance":916.5780601447595,"walkLimitExceeded":false,"elevationLost":0.0,"elevationGained":0.0,"transfers":0,"legs":[{"startTime":1522681981000,"endTime":1522682142000,"departureDelay":0,"arrivalDelay":0,"realTime":false,"distance":206.89100000000002,"pathway":false,"mode":"WALK","route":"","agencyTimeZoneOffset":-14400000,"interlineWithPreviousLeg":false,"from":{"name":"Origin","lon":-71.061812,"lat":48.415975,"departure":1522681981000,"orig":"","vertexType":"NORMAL"},"to":{"name":"CEA Laure-Conan (Champs-Élysées)","stopId":"1:567","stopCode":"567","lon":-71.0614,"lat":48.4147,"arrival":1522682142000,"departure":1522682143000,"zoneId":"NA","stopIndex":8,"stopSequence":9,"vertexType":"TRANSIT"},"legGeometry":{"points":"agofHxgvpLdCrCnAoDd@qA","length":4},"rentedBike":false,"transitLeg":false,"duration":161.0,"steps":[{"distance":92.021,"relativeDirection":"DEPART","streetName":"Rue Georges-Vanier","absoluteDirection":"SOUTHWEST","stayOn":false,"area":false,"bogusName":false,"lon":-71.06188938985933,"lat":48.416012359675335,"elevation":[]},{"distance":114.87,"relativeDirection":"LEFT","streetName":"Rue des Champs-Élysées","absoluteDirection":"SOUTHEAST","stayOn":false,"area":false,"bogusName":false,"lon":-71.0626228,"lat":48.4153431,"elevation":[]}]},{"startTime":1522682143000,"endTime":1522682299000,"departureDelay":0,"arrivalDelay":0,"realTime":false,"distance":854.3804701190452,"pathway":false,"mode":"BUS","route":"12","agencyName":"Société de Transport du Saguenay","agencyUrl":"http://ville.saguenay.ca/fr/services-aux-citoyens/transport-sts","agencyTimeZoneOffset":-14400000,"routeColor":"556B2F","routeType":3,"routeId":"1:12","routeTextColor":"FFFFFF","interlineWithPreviousLeg":false,"tripBlockId":"26","headsign":"Terminus Chicoutimi","agencyId":"0","tripId":"1:217973","serviceDate":"20180402","from":{"name":"CEA Laure-Conan (Champs-Élysées)","stopId":"1:567","stopCode":"567","lon":-71.0614,"lat":48.4147,"arrival":1522682142000,"departure":1522682143000,"zoneId":"NA","stopIndex":8,"stopSequence":9,"vertexType":"TRANSIT"},"to":{"name":"Place du Saguenay (Champs-Élysées)","stopId":"1:571","stopCode":"571","lon":-71.055824,"lat":48.408307,"arrival":1522682299000,"departure":1522682300000,"zoneId":"NA","stopIndex":12,"stopSequence":13,"vertexType":"TRANSIT"},"legGeometry":{"points":"{~nfHxdvpLbAqDtBeCjFm@`Gs@hFo@xAmBrGcP","length":8},"routeShortName":"12","routeLongName":"Rivière du Moulin","rentedBike":false,"transitLeg":true,"duration":156.0,"steps":[]},{"startTime":1522682300000,"endTime":1522682856000,"departureDelay":0,"arrivalDelay":0,"realTime":false,"distance":709.513,"pathway":false,"mode":"WALK","route":"","agencyTimeZoneOffset":-14400000,"interlineWithPreviousLeg":false,"from":{"name":"Place du Saguenay (Champs-Élysées)","stopId":"1:571","stopCode":"571","lon":-71.055824,"lat":48.408307,"arrival":1522682299000,"departure":1522682300000,"zoneId":"NA","stopIndex":12,"stopSequence":13,"vertexType":"TRANSIT"},"to":{"name":"Destination","lon":-71.06202998,"lat":48.40513,"arrival":1522682856000,"orig":"","vertexType":"NORMAL"},"legGeometry":{"points":"iwmfHnaupL]|@O`@M\\fBfBcAvCLJXV\\ZfGrFvAnAv@p@dE|DO`@}@`C","length":15},"rentedBike":false,"transitLeg":false,"duration":556.0,"steps":[{"distance":57.429,"relativeDirection":"DEPART","streetName":"Rue des Champs-Élysées","absoluteDirection":"NORTHWEST","stayOn":false,"area":false,"bogusName":false,"lon":-71.05575512063196,"lat":48.408370203803415,"elevation":[]},{"distance":69.905,"relativeDirection":"LEFT","streetName":"Rue Plamondon","absoluteDirection":"SOUTHWEST","stayOn":false,"area":false,"bogusName":false,"lon":-71.0563831,"lat":48.4086751,"elevation":[]},{"distance":67.359,"relativeDirection":"RIGHT","streetName":"Rue Plamondon","absoluteDirection":"NORTHWEST","stayOn":true,"area":false,"bogusName":false,"lon":-71.05690750000001,"lat":48.408151600000004,"elevation":[]},{"distance":440.942,"relativeDirection":"LEFT","streetName":"Rue Bach","absoluteDirection":"SOUTHWEST","stayOn":false,"area":false,"bogusName":false,"lon":-71.05766410000001,"lat":48.408490300000004,"elevation":[]},{"distance":73.878,"relativeDirection":"RIGHT","streetName":"Rue Des Maristes","absoluteDirection":"NORTHWEST","stayOn":false,"area":false,"bogusName":false,"lon":-71.06080990000001,"lat":48.405119500000005,"elevation":[]}]}],"tooSloped":false},{"duration":1019,"startTime":1522682453000,"endTime":1522683472000,"walkTime":499,"transitTime":518,"waitingTime":2,"walkDistance":641.8661202975858,"walkLimitExceeded":false,"elevationLost":0.0,"elevationGained":0.0,"transfers":0,"legs":[{"startTime":1522682453000,"endTime":1522682775000,"departureDelay":0,"arrivalDelay":0,"realTime":false,"distance":412.952,"pathway":false,"mode":"WALK","route":"","agencyTimeZoneOffset":-14400000,"interlineWithPreviousLeg":false,"from":{"name":"Origin","lon":-71.061812,"lat":48.415975,"departure":1522682453000,"orig":"","vertexType":"NORMAL"},"to":{"name":"Bégin / Youville","stopId":"1:2004","stopCode":"2004","lon":-71.066018,"lat":48.414996,"arrival":1522682775000,"departure":1522682776000,"zoneId":"NA","stopIndex":11,"stopSequence":12,"vertexType":"TRANSIT"},"legGeometry":{"points":"agofHxgvpLdCrCcA|FOh@GP??k@jBn@l@LNrCpCFFBB","length":12},"rentedBike":false,"transitLeg":false,"duration":322.0,"steps":[{"distance":92.021,"relativeDirection":"DEPART","streetName":"Rue Georges-Vanier","absoluteDirection":"SOUTHWEST","stayOn":false,"area":false,"bogusName":false,"lon":-71.06188938985933,"lat":48.416012359675335,"elevation":[]},{"distance":173.619,"relativeDirection":"RIGHT","streetName":"Rue des Champs-Élysées","absoluteDirection":"WEST","stayOn":false,"area":false,"bogusName":false,"lon":-71.0626228,"lat":48.4153431,"elevation":[]},{"distance":147.31199999999998,"relativeDirection":"LEFT","streetName":"Rue Bégin","absoluteDirection":"SOUTHWEST","stayOn":false,"area":false,"bogusName":false,"lon":-71.0647342,"lat":48.416021,"elevation":[]}]},{"startTime":1522682776000,"endTime":1522683294000,"departureDelay":0,"arrivalDelay":0,"realTime":false,"distance":2156.068900603092,"pathway":false,"mode":"BUS","route":"15","agencyName":"Société de Transport du Saguenay","agencyUrl":"http://ville.saguenay.ca/fr/services-aux-citoyens/transport-sts","agencyTimeZoneOffset":-14400000,"routeColor":"FF00FF","routeType":3,"routeId":"1:15","routeTextColor":"FFFFFF","interlineWithPreviousLeg":false,"tripBlockId":"33","headsign":"Talbot / Barrette","agencyId":"0","tripId":"1:218181","serviceDate":"20180402","from":{"name":"Bégin / Youville","stopId":"1:2004","stopCode":"2004","lon":-71.066018,"lat":48.414996,"arrival":1522682775000,"departure":1522682776000,"zoneId":"NA","stopIndex":11,"stopSequence":12,"vertexType":"TRANSIT"},"to":{"name":"Saguenéens / Maristes","stopId":"1:1999","stopCode":"1999","lon":-71.06394,"lat":48.405813,"arrival":1522683294000,"departure":1522683295000,"zoneId":"NA","stopIndex":21,"stopSequence":22,"vertexType":"TRANSIT"},"legGeometry":{"points":"a`ofHh`wpL|J~JdAfALzDNzDrAdBrEKvBEbCv@d@TvFlC|DlBpMlGrB`AM}@hAwEC{B]oBiBmBsH_@_K{H`EgIvCaGfEoI","length":24},"routeShortName":"15","routeLongName":"Term. Chic / Costco","rentedBike":false,"transitLeg":true,"duration":518.0,"steps":[]},{"startTime":1522683295000,"endTime":1522683472000,"departureDelay":0,"arrivalDelay":0,"realTime":false,"distance":228.816,"pathway":false,"mode":"WALK","route":"","agencyTimeZoneOffset":-14400000,"interlineWithPreviousLeg":false,"from":{"name":"Saguenéens / Maristes","stopId":"1:1999","stopCode":"1999","lon":-71.06394,"lat":48.405813,"arrival":1522683294000,"departure":1522683295000,"zoneId":"NA","stopIndex":21,"stopSequence":22,"vertexType":"TRANSIT"},"to":{"name":"Destination","lon":-71.06202998,"lat":48.40513,"arrival":1522683472000,"orig":"","vertexType":"NORMAL"},"legGeometry":{"points":"agmfHduvpLbA_AcBmFPe@bAkC","length":5},"rentedBike":false,"transitLeg":false,"duration":177.0,"steps":[{"distance":44.272,"relativeDirection":"DEPART","streetName":"Rue des Saguenéens","absoluteDirection":"SOUTHEAST","stayOn":false,"area":false,"bogusName":false,"lon":-71.06402958721657,"lat":48.40577499056331,"elevation":[]},{"distance":184.544,"relativeDirection":"LEFT","streetName":"Rue Des Maristes","absoluteDirection":"NORTHEAST","stayOn":false,"area":false,"bogusName":false,"lon":-71.0637066,"lat":48.4054395,"elevation":[]}]}],"tooSloped":false}]},"debugOutput":{"precalculationTime":48,"pathCalculationTime":36,"pathTimes":[17,10,9],"renderingTime":0,"totalTime":84,"timedOut":false},"elevationMetadata":{"ellipsoidToGeoidDifference":-28.885904201182168,"geoidElevation":false}}