{"requestParameters":{"date":"2018/04/02","walkSpeed":"1.33","walkReluctance":"2.0","fromPlace":"48.449416,-71.089794","maxWalkDistance":"3000","waitReluctance":"1.0","carSpeed":"33","numItineraries":"3","waitAtBeginningFactor":"0.4","mode":"TRANSIT,WALK","ignoreRealtimeUpdates":"false","stairsReluctance":"2.0","toPlace":"48.443416,-71.07852499","time":"16:10:00"},"plan":{"date":1522699800000,"from":{"name":"Origin","lon":-71.089794,"lat":48.449416,"orig":"","vertexType":"NORMAL"},"to":{"name":"Destination","lon":-71.07852499,"lat":48.443416,"orig":"","vertexType":"NORMAL"},"itineraries":[{"duration":886,"startTime":1522699800000,"endTime":1522700686000,"walkTime":886,"transitTime":0,"waitingTime":0,"walkDistance":1146.7847669138482,"walkLimitExceeded":false,"elevationLost":0.0,"elevationGained":0.0,"transfers":0,"legs":[{"startTime":1522699800000,"endTime":1522700686000,"departureDelay":0,"arrivalDelay":0,"realTime":false,"distance":1146.678,"pathway":false,"mode":"WALK","route":"","agencyTimeZoneOffset":-14400000,"interlineWithPreviousLeg":false,"from":{"name":"Origin","lon":-71.089794,"lat":48.449416,"departure":1522699800000,"orig":"","vertexType":"NORMAL"},"to":{"name":"Destination","lon":-71.07852499,"lat":48.443416,"arrival":1522700686000,"orig":"","vertexType":"NORMAL"},"legGeometry":{"points":"qxufHvu{pLZuAf@kAhBwDp@o@v@YEoE?oD?[IGa@{@`D{DtDmEj@s@|AoB|A_C`BcDh@_B`@gArAwEbAuD","length":21},"rentedBike":false,"transitLeg":false,"duration":886.0,"steps":[{"distance":226.551,"relativeDirection":"DEPART","streetName":"Rue Nicolet","absoluteDirection":"SOUTHEAST","stayOn":false,"area":false,"bogusName":false,"lon":-71.08971108506728,"lat":48.44953042776346,"elevation":[]},{"distance":76.596,"relativeDirection":"LEFT","streetName":"Rue Giffard","absoluteDirection":"EAST","stayOn":false,"area":false,"bogusName":false,"lon":-71.0876124,"lat":48.4481301,"elevation":[]},{"distance":75.112,"relativeDirection":"CONTINUE","streetName":"path","absoluteDirection":"EAST","stayOn":false,"area":false,"bogusName":true,"lon":-71.08657550000001,"lat":48.4481685,"elevation":[]},{"distance":35.026,"relativeDirection":"LEFT","streetName":"Rue Sainte-Marie Sud","absoluteDirection":"NORTHEAST","stayOn":false,"area":false,"bogusName":false,"lon":-71.0855571,"lat":48.448167500000004,"elevation":[]},{"distance":733.3929999999999,"relativeDirection":"RIGHT","streetName":"Boulevard Sainte-Geneviève","absoluteDirection":"SOUTHEAST","stayOn":false,"area":false,"bogusName":false,"lon":-71.08521470000001,"lat":48.448382800000005,"elevation":[]}]}],"tooSloped":false},{"duration":557,"startTime":1522700912000,"endTime":1522701469000,"walkTime":502,"transitTime":53,"waitingTime":2,"walkDistance":642.5894511236103,"walkLimitExceeded":false,"elevationLost":0.0,"elevationGained":0.0,"transfers":0,"legs":[{"startTime":1522700912000,"endTime":1522701261000,"departureDelay":0,"arrivalDelay":0,"realTime":false,"distance":441.00500000000005,"pathway":false,"mode":"WALK","route":"","agencyTimeZoneOffset":-14400000,"interlineWithPreviousLeg":false,"from":{"name":"Origin","lon":-71.089794,"lat":48.449416,"departure":1522700912000,"orig":"","vertexType":"NORMAL"},"to":{"name":"boul. Ste-Geneviève / Ste-Marie","stopId":"1:731","stopCode":"731","lon":-71.085744,"lat":48.448746,"arrival":1522701261000,"departure":1522701262000,"zoneId":"NA","stopIndex":29,"stopSequence":30,"vertexType":"TRANSIT"},"legGeometry":{"points":"qxufHvu{pLZuAiBgBhAcD\\m@{AyBCOvAyBx@iAhAmA","length":10},"rentedBike":false,"transitLeg":false,"duration":349.0,"steps":[{"distance":34.686,"relativeDirection":"DEPART","streetName":"Rue Nicolet","absoluteDirection":"SOUTHEAST","stayOn":false,"area":false,"bogusName":false,"lon":-71.08971108506728,"lat":48.44953042776346,"elevation":[]},{"distance":70.398,"relativeDirection":"LEFT","streetName":"Rue Viger","absoluteDirection":"NORTHEAST","stayOn":false,"area":false,"bogusName":false,"lon":-71.0892872,"lat":48.449395300000006,"elevation":[]},{"distance":96.99,"relativeDirection":"RIGHT","streetName":"Rue Mézy","absoluteDirection":"SOUTHEAST","stayOn":false,"area":false,"bogusName":false,"lon":-71.08876810000001,"lat":48.449926600000005,"elevation":[]},{"distance":68.239,"relativeDirection":"LEFT","streetName":"Rue Panet","absoluteDirection":"NORTHEAST","stayOn":false,"area":false,"bogusName":false,"lon":-71.0877188,"lat":48.4494058,"elevation":[]},{"distance":11.826,"relativeDirection":"SLIGHTLY_RIGHT","streetName":"steps","absoluteDirection":"NORTHEAST","stayOn":false,"area":false,"bogusName":true,"lon":-71.0871001,"lat":48.449862100000004,"elevation":[]},{"distance":158.866,"relativeDirection":"RIGHT","streetName":"Boulevard Sainte-Geneviève","absoluteDirection":"SOUTHEAST","stayOn":false,"area":false,"bogusName":false,"lon":-71.08702840000001,"lat":48.449885900000005,"elevation":[]}]},{"startTime":1522701262000,"endTime":1522701315000,"departureDelay":0,"arrivalDelay":0,"realTime":false,"distance":588.117358181693,"pathway":false,"mode":"BUS","route":"21","agencyName":"Société de Transport du Saguenay","agencyUrl":"http://ville.saguenay.ca/fr/services-aux-citoyens/transport-sts","agencyTimeZoneOffset":-14400000,"routeColor":"556B2F","routeType":3,"routeId":"1:21","routeTextColor":"FFFFFF","interlineWithPreviousLeg":false,"tripBlockId":"2","headsign":"Terminus Chicoutimi","agencyId":"0","tripId":"1:217175","serviceDate":"20180402","from":{"name":"boul. Ste-Geneviève / Ste-Marie","stopId":"1:731","stopCode":"731","lon":-71.085744,"lat":48.448746,"arrival":1522701261000,"departure":1522701262000,"zoneId":"NA","stopIndex":29,"stopSequence":30,"vertexType":"TRANSIT"},"to":{"name":"Place de la Colline (boul. Ste-Geneviève)","stopId":"1:2009","stopCode":"2009","lon":-71.080522,"lat":48.444768,"arrival":1522701315000,"departure":1522701316000,"zoneId":"NA","stopIndex":31,"stopSequence":32,"vertexType":"TRANSIT"},"legGeometry":{"points":"}sufHh|zpLrFkG`FgGdBwBt@cAbAmBx@eBj@eB","length":8},"routeShortName":"21","routeLongName":"Boul. Ste-Geneviève/Élie","rentedBike":false,"transitLeg":true,"duration":53.0,"steps":[]},{"startTime":1522701316000,"endTime":1522701469000,"departureDelay":0,"arrivalDelay":0,"realTime":false,"distance":201.454,"pathway":false,"mode":"WALK","route":"","agencyTimeZoneOffset":-14400000,"interlineWithPreviousLeg":false,"from":{"name":"Place de la Colline (boul. Ste-Geneviève)","stopId":"1:2009","stopCode":"2009","lon":-71.080522,"lat":48.444768,"arrival":1522701315000,"departure":1522701316000,"zoneId":"NA","stopIndex":31,"stopSequence":32,"vertexType":"TRANSIT"},"to":{"name":"Destination","lon":-71.07852499,"lat":48.443416,"arrival":1522701469000,"orig":"","vertexType":"NORMAL"},"legGeometry":{"points":"_{tfH`|ypL`@gArAwEbAuD","length":4},"rentedBike":false,"transitLeg":false,"duration":153.0,"steps":[{"distance":201.454,"relativeDirection":"DEPART","streetName":"Boulevard Sainte-Geneviève","absoluteDirection":"SOUTHEAST","stayOn":false,"area":false,"bogusName":false,"lon":-71.0804866067989,"lat":48.44480212337132,"elevation":[]}]}],"tooSloped":false},{"duration":796,"startTime":1522700845000,"endTime":1522701641000,"walkTime":587,"transitTime":207,"waitingTime":2,"walkDistance":742.1917217984218,"walkLimitExceeded":false,"elevationLost":0.0,"elevationGained":0.0,"transfers":0,"legs":[{"startTime":1522700845000,"endTime":1522701071000,"departureDelay":0,"arrivalDelay":0,"realTime":false,"distance":278.34,"pathway":false,"mode":"WALK","route":"","agencyTimeZoneOffset":-14400000,"interlineWithPreviousLeg":false,"from":{"name":"Origin","lon":-71.089794,"lat":48.449416,"departure":1522700845000,"orig":"","vertexType":"NORMAL"},"to":{"name":"Giffard (no. 215)","stopId":"1:694","stopCode":"694","lon":-71.090742,"lat":48.448133,"arrival":1522701071000,"departure":1522701072000,"zoneId":"NA","stopIndex":18,"stopSequence":19,"vertexType":"TRANSIT"},"legGeometry":{"points":"qxufHvu{pLZuAf@kA`AvANdAKfBCNjBt@XFCR","length":10},"rentedBike":false,"transitLeg":false,"duration":226.0,"steps":[{"distance":70.857,"relativeDirection":"DEPART","streetName":"Rue Nicolet","absoluteDirection":"SOUTHEAST","stayOn":false,"area":false,"bogusName":false,"lon":-71.08971108506728,"lat":48.44953042776346,"elevation":[]},{"distance":121.92,"relativeDirection":"RIGHT","streetName":"Rue Maisonneuve","absoluteDirection":"SOUTHWEST","stayOn":false,"area":false,"bogusName":false,"lon":-71.0889003,"lat":48.4491954,"elevation":[]},{"distance":77.97,"relativeDirection":"LEFT","streetName":"path","absoluteDirection":"SOUTH","stayOn":false,"area":false,"bogusName":true,"lon":-71.0902973,"lat":48.4488647,"elevation":[]},{"distance":7.593,"relativeDirection":"RIGHT","streetName":"Rue Giffard","absoluteDirection":"WEST","stayOn":false,"area":false,"bogusName":false,"lon":-71.0906042,"lat":48.448194300000004,"elevation":[]}]},{"startTime":1522701072000,"endTime":1522701279000,"departureDelay":0,"arrivalDelay":0,"realTime":false,"distance":1312.4863515093905,"pathway":false,"mode":"BUS","route":"20","agencyName":"Société de Transport du Saguenay","agencyUrl":"http://ville.saguenay.ca/fr/services-aux-citoyens/transport-sts","agencyTimeZoneOffset":-14400000,"routeColor":"0000FF","routeType":3,"routeId":"1:20","routeTextColor":"FFFFFF","interlineWithPreviousLeg":false,"tripBlockId":"1","headsign":"Terminus Chicoutimi","agencyId":"0","tripId":"1:217149","serviceDate":"20180402","from":{"name":"Giffard (no. 215)","stopId":"1:694","stopCode":"694","lon":-71.090742,"lat":48.448133,"arrival":1522701071000,"departure":1522701072000,"zoneId":"NA","stopIndex":18,"stopSequence":19,"vertexType":"TRANSIT"},"to":{"name":"Roussel / St-Albert","stopId":"1:2008","stopCode":"2008","lon":-71.080062,"lat":48.44081,"arrival":1522701279000,"departure":1522701280000,"zoneId":"NA","stopIndex":25,"stopSequence":26,"vertexType":"TRANSIT"},"legGeometry":{"points":"gpufH|{{pLNaAB]@O@]?}BbA?hA?A}I?iEEcEjBCzBEd@Cf@Gj@MZMb@S`Ag@DClAk@f@Qv@Ov@IlBCnBa@TCTBjBPH@LiCDe@Lw@|@cELo@D[Dk@@[@uC@SBUDQFSt@yAHI","length":45},"routeShortName":"20","routeLongName":"Sainte-Claire","rentedBike":false,"transitLeg":true,"duration":207.0,"steps":[]},{"startTime":1522701280000,"endTime":1522701641000,"departureDelay":0,"arrivalDelay":0,"realTime":false,"distance":463.66299999999995,"pathway":false,"mode":"WALK","route":"","agencyTimeZoneOffset":-14400000,"interlineWithPreviousLeg":false,"from":{"name":"Roussel / St-Albert","stopId":"1:2008","stopCode":"2008","lon":-71.080062,"lat":48.44081,"arrival":1522701279000,"departure":1522701280000,"zoneId":"NA","stopIndex":25,"stopSequence":26,"vertexType":"TRANSIT"},"to":{"name":"Destination","lon":-71.07852499,"lat":48.443416,"arrival":1522701641000,"orig":"","vertexType":"NORMAL"},"legGeometry":{"points":"ibtfHxxypLMPi@ME??AMA]?_@?a@Bc@?Y@e@E[EOEQGoBo@iCw@]MUKc@a@bAuD","length":21},"rentedBike":false,"transitLeg":false,"duration":361.0,"steps":[{"distance":9.654,"relativeDirection":"DEPART","streetName":"Rue Roussel","absoluteDirection":"NORTHWEST","stayOn":false,"area":false,"bogusName":false,"lon":-71.07996828925565,"lat":48.440859892728334,"elevation":[]},{"distance":377.19599999999997,"relativeDirection":"RIGHT","streetName":"Rue Saint-Albert","absoluteDirection":"NORTH","stayOn":false,"area":false,"bogusName":false,"lon":-71.0800502,"lat":48.4409276,"elevation":[]},{"distance":76.813,"relativeDirection":"RIGHT","streetName":"Boulevard Sainte-Geneviève","absoluteDirection":"SOUTHEAST","stayOn":false,"area":false,"bogusName":false,"lon":-71.0790497,"lat":48.4442132,"elevation":[]}]}],"tooSloped":false}]},"debugOutput":{"precalculationTime":12,"pathCalculationTime":16,"pathTimes":[8,7,1],"renderingTime":0,"totalTime":28,"timedOut":false},"elevationMetadata":{"ellipsoidToGeoidDifference":-28.885904201182168,"geoidElevation":false}}