{"requestParameters":{"date":"2018/04/02","walkSpeed":"1.33","walkReluctance":"2.0","fromPlace":"48.443416,-71.07852499","maxWalkDistance":"3000","waitReluctance":"1.0","carSpeed":"33","numItineraries":"3","waitAtBeginningFactor":"0.4","mode":"TRANSIT,WALK","ignoreRealtimeUpdates":"false","stairsReluctance":"2.0","toPlace":"48.448863,-71.090864","time":"8:10:00"},"plan":{"date":1522671000000,"from":{"name":"Origin","lon":-71.07852499,"lat":48.443416,"orig":"","vertexType":"NORMAL"},"to":{"name":"Destination","lon":-71.090864,"lat":48.448863,"orig":"","vertexType":"NORMAL"},"itineraries":[{"duration":956,"startTime":1522671000000,"endTime":1522671956000,"walkTime":956,"transitTime":0,"waitingTime":0,"walkDistance":1237.8679398455604,"walkLimitExceeded":false,"elevationLost":0.0,"elevationGained":0.0,"transfers":0,"legs":[{"startTime":1522671000000,"endTime":1522671956000,"departureDelay":0,"arrivalDelay":0,"realTime":false,"distance":1237.742,"pathway":false,"mode":"WALK","route":"","agencyTimeZoneOffset":-14400000,"interlineWithPreviousLeg":false,"from":{"name":"Origin","lon":-71.07852499,"lat":48.443416,"departure":1522671000000,"orig":"","vertexType":"NORMAL"},"to":{"name":"Destination","lon":-71.090864,"lat":48.448863,"arrival":1522671956000,"orig":"","vertexType":"NORMAL"},"legGeometry":{"points":"eutfHjmypLcAtDsAvEa@fAi@~AaBbD}A~B}AnBk@r@uDlEaDzD`@z@HF?Z?nDDnEw@Xq@n@iBvD`AvANdAKfBCNSfB","length":24},"rentedBike":false,"transitLeg":false,"duration":956.0,"steps":[{"distance":733.393,"relativeDirection":"DEPART","streetName":"Boulevard Sainte-Geneviève","absoluteDirection":"NORTHWEST","stayOn":false,"area":false,"bogusName":false,"lon":-71.0781387826346,"lat":48.44387841675082,"elevation":[]},{"distance":35.026,"relativeDirection":"LEFT","streetName":"Rue Sainte-Marie Sud","absoluteDirection":"SOUTHWEST","stayOn":false,"area":false,"bogusName":false,"lon":-71.08521470000001,"lat":48.448382800000005,"elevation":[]},{"distance":75.112,"relativeDirection":"RIGHT","streetName":"path","absoluteDirection":"WEST","stayOn":false,"area":false,"bogusName":true,"lon":-71.0855571,"lat":48.448167500000004,"elevation":[]},{"distance":76.596,"relativeDirection":"CONTINUE","streetName":"Rue Giffard","absoluteDirection":"WEST","stayOn":false,"area":false,"bogusName":false,"lon":-71.08657550000001,"lat":48.4481685,"elevation":[]},{"distance":155.694,"relativeDirection":"RIGHT","streetName":"Rue Nicolet","absoluteDirection":"NORTH","stayOn":false,"area":false,"bogusName":false,"lon":-71.0876124,"lat":48.4481301,"elevation":[]},{"distance":161.921,"relativeDirection":"LEFT","streetName":"Rue Maisonneuve","absoluteDirection":"SOUTHWEST","stayOn":false,"area":false,"bogusName":false,"lon":-71.0889003,"lat":48.4491954,"elevation":[]}]}],"tooSloped":false},{"duration":679,"startTime":1522671463000,"endTime":1522672142000,"walkTime":609,"transitTime":68,"waitingTime":2,"walkDistance":774.3813759349973,"walkLimitExceeded":false,"elevationLost":0.0,"elevationGained":0.0,"transfers":0,"legs":[{"startTime":1522671463000,"endTime":1522671618000,"departureDelay":0,"arrivalDelay":0,"realTime":false,"distance":193.902,"pathway":false,"mode":"WALK","route":"","agencyTimeZoneOffset":-14400000,"interlineWithPreviousLeg":false,"from":{"name":"Origin","lon":-71.07852499,"lat":48.443416,"departure":1522671463000,"orig":"","vertexType":"NORMAL"},"to":{"name":"Place de la Colline (boul. Ste-Geneviève)","stopId":"1:706","stopCode":"706","lon":-71.080094,"lat":48.44485,"arrival":1522671618000,"departure":1522671619000,"zoneId":"NA","stopIndex":2,"stopSequence":3,"vertexType":"TRANSIT"},"legGeometry":{"points":"eutfHjmypLcAtDQSeBjF","length":4},"rentedBike":false,"transitLeg":false,"duration":155.0,"steps":[{"distance":193.902,"relativeDirection":"DEPART","streetName":"Boulevard Sainte-Geneviève","absoluteDirection":"NORTHWEST","stayOn":false,"area":false,"bogusName":false,"lon":-71.0781387826346,"lat":48.44387841675082,"elevation":[]}]},{"startTime":1522671619000,"endTime":1522671687000,"departureDelay":0,"arrivalDelay":0,"realTime":false,"distance":539.0834998067221,"pathway":false,"mode":"BUS","route":"23","agencyName":"Société de Transport du Saguenay","agencyUrl":"http://ville.saguenay.ca/fr/services-aux-citoyens/transport-sts","agencyTimeZoneOffset":-14400000,"routeColor":"FF00FF","routeType":3,"routeId":"1:23","routeTextColor":"FFFFFF","interlineWithPreviousLeg":false,"tripBlockId":"4","headsign":"Terminus Chicoutimi","agencyId":"0","tripId":"1:217226","serviceDate":"20180402","from":{"name":"Place de la Colline (boul. Ste-Geneviève)","stopId":"1:706","stopCode":"706","lon":-71.080094,"lat":48.44485,"arrival":1522671618000,"departure":1522671619000,"zoneId":"NA","stopIndex":2,"stopSequence":3,"vertexType":"TRANSIT"},"to":{"name":"St-Gérard / Pasteur","stopId":"1:727","stopCode":"727","lon":-71.084309,"lat":48.448719,"arrival":1522671687000,"departure":1522671688000,"zoneId":"NA","stopIndex":4,"stopSequence":5,"vertexType":"TRANSIT"},"legGeometry":{"points":"{ztfH~yypLCD}@hCo@~Aq@pAs@fA{BlCqH|Iq@Bq@Im@U","length":11},"routeShortName":"23","routeLongName":"Côte Verdun via Aréna du Plateau","rentedBike":false,"transitLeg":true,"duration":68.0,"steps":[]},{"startTime":1522671688000,"endTime":1522672142000,"departureDelay":0,"arrivalDelay":0,"realTime":false,"distance":580.329,"pathway":false,"mode":"WALK","route":"","agencyTimeZoneOffset":-14400000,"interlineWithPreviousLeg":false,"from":{"name":"St-Gérard / Pasteur","stopId":"1:727","stopCode":"727","lon":-71.084309,"lat":48.448719,"arrival":1522671687000,"departure":1522671688000,"zoneId":"NA","stopIndex":4,"stopSequence":5,"vertexType":"TRANSIT"},"to":{"name":"Destination","lon":-71.090864,"lat":48.448863,"arrival":1522672142000,"orig":"","vertexType":"NORMAL"},"legGeometry":{"points":"_tufHptzpLJTv@lBN\\`@z@HF?Z?nDDnEw@Xq@n@iBvD`AvANdAKfBCNSfB","length":17},"rentedBike":false,"transitLeg":false,"duration":454.0,"steps":[{"distance":75.98,"relativeDirection":"DEPART","streetName":"Rue Saint-Gérard","absoluteDirection":"SOUTHWEST","stayOn":false,"area":false,"bogusName":false,"lon":-71.0844008886955,"lat":48.448801303287965,"elevation":[]},{"distance":35.026,"relativeDirection":"CONTINUE","streetName":"Rue Sainte-Marie Sud","absoluteDirection":"SOUTHWEST","stayOn":false,"area":false,"bogusName":false,"lon":-71.08521470000001,"lat":48.448382800000005,"elevation":[]},{"distance":75.112,"relativeDirection":"RIGHT","streetName":"path","absoluteDirection":"WEST","stayOn":false,"area":false,"bogusName":true,"lon":-71.0855571,"lat":48.448167500000004,"elevation":[]},{"distance":76.596,"relativeDirection":"CONTINUE","streetName":"Rue Giffard","absoluteDirection":"WEST","stayOn":false,"area":false,"bogusName":false,"lon":-71.08657550000001,"lat":48.4481685,"elevation":[]},{"distance":155.694,"relativeDirection":"RIGHT","streetName":"Rue Nicolet","absoluteDirection":"NORTH","stayOn":false,"area":false,"bogusName":false,"lon":-71.0876124,"lat":48.4481301,"elevation":[]},{"distance":161.921,"relativeDirection":"LEFT","streetName":"Rue Maisonneuve","absoluteDirection":"SOUTHWEST","stayOn":false,"area":false,"bogusName":false,"lon":-71.0889003,"lat":48.4491954,"elevation":[]}]}],"tooSloped":false},{"duration":801,"startTime":1522671576000,"endTime":1522672377000,"walkTime":292,"transitTime":507,"waitingTime":2,"walkDistance":361.5496090179225,"walkLimitExceeded":false,"elevationLost":0.0,"elevationGained":0.0,"transfers":0,"legs":[{"startTime":1522671576000,"endTime":1522671764000,"departureDelay":0,"arrivalDelay":0,"realTime":false,"distance":235.84199999999998,"pathway":false,"mode":"WALK","route":"","agencyTimeZoneOffset":-14400000,"interlineWithPreviousLeg":false,"from":{"name":"Origin","lon":-71.07852499,"lat":48.443416,"departure":1522671576000,"orig":"","vertexType":"NORMAL"},"to":{"name":"Sauvé / St-Albert","stopId":"1:681","stopCode":"681","lon":-71.079877,"lat":48.443248,"arrival":1522671764000,"departure":1522671765000,"zoneId":"NA","stopIndex":6,"stopSequence":7,"vertexType":"TRANSIT"},"legGeometry":{"points":"eutfHjmypLcAtDb@`@TJ\\LhCv@Wx@","length":7},"rentedBike":false,"transitLeg":false,"duration":188.0,"steps":[{"distance":76.813,"relativeDirection":"DEPART","streetName":"Boulevard Sainte-Geneviève","absoluteDirection":"NORTHWEST","stayOn":false,"area":false,"bogusName":false,"lon":-71.0781387826346,"lat":48.44387841675082,"elevation":[]},{"distance":133.438,"relativeDirection":"LEFT","streetName":"Rue Saint-Albert","absoluteDirection":"SOUTHWEST","stayOn":false,"area":false,"bogusName":false,"lon":-71.0790497,"lat":48.4442132,"elevation":[]},{"distance":25.591,"relativeDirection":"RIGHT","streetName":"Rue Sauvé","absoluteDirection":"NORTHWEST","stayOn":false,"area":false,"bogusName":false,"lon":-71.07962210000001,"lat":48.4430824,"elevation":[]}]},{"startTime":1522671765000,"endTime":1522672272000,"departureDelay":0,"arrivalDelay":0,"realTime":false,"distance":2811.866070869663,"pathway":false,"mode":"BUS","route":"20","agencyName":"Société de Transport du Saguenay","agencyUrl":"http://ville.saguenay.ca/fr/services-aux-citoyens/transport-sts","agencyTimeZoneOffset":-14400000,"routeColor":"0000FF","routeType":3,"routeId":"1:20","routeTextColor":"FFFFFF","interlineWithPreviousLeg":false,"tripBlockId":"1","headsign":"Terminus Chicoutimi","agencyId":"0","tripId":"1:217133","serviceDate":"20180402","from":{"name":"Sauvé / St-Albert","stopId":"1:681","stopCode":"681","lon":-71.079877,"lat":48.443248,"arrival":1522671764000,"departure":1522671765000,"zoneId":"NA","stopIndex":6,"stopSequence":7,"vertexType":"TRANSIT"},"to":{"name":"Giffard (no. 215)","stopId":"1:694","stopCode":"694","lon":-71.090742,"lat":48.448133,"arrival":1522672272000,"departure":1522672273000,"zoneId":"NA","stopIndex":18,"stopSequence":19,"vertexType":"TRANSIT"},"legGeometry":{"points":"_qtfHnxypLSx@{A`FyBfHmDjJCDEVE`B?vFBjC@ZFX\\j@T^JVBNBV@RCbE?VCVy@nGCRCFGLKJQNSHaAZa@Pk@\\a@XZrAHp@@FDj@Bp@?~I@fHAd@C`@ERELA@GHMHi@PSBy@BW?YDMDC?OHULWVOXQXSb@~@~BJXF`@Fj@?VAvACv@e@hNGx@MdAQr@ILQ\\a@d@w@aCCQAO@ODOHQDSDWLoDRgGBMFMHIHAfBNDuA@wA?WGk@Ga@KY_A_CRc@PYNYUk@Q[O]KYC]_AaQYwF?W?Y?UBc@D_@d@{D","length":111},"routeShortName":"20","routeLongName":"Sainte-Claire","rentedBike":false,"transitLeg":true,"duration":507.0,"steps":[]},{"startTime":1522672273000,"endTime":1522672377000,"departureDelay":0,"arrivalDelay":0,"realTime":false,"distance":125.564,"pathway":false,"mode":"WALK","route":"","agencyTimeZoneOffset":-14400000,"interlineWithPreviousLeg":false,"from":{"name":"Giffard (no. 215)","stopId":"1:694","stopCode":"694","lon":-71.090742,"lat":48.448133,"arrival":1522672272000,"departure":1522672273000,"zoneId":"NA","stopIndex":18,"stopSequence":19,"vertexType":"TRANSIT"},"to":{"name":"Destination","lon":-71.090864,"lat":48.448863,"arrival":1522672377000,"orig":"","vertexType":"NORMAL"},"legGeometry":{"points":"ipufH|{{pLBSYGkBu@SfB","length":5},"rentedBike":false,"transitLeg":false,"duration":104.0,"steps":[{"distance":7.593,"relativeDirection":"DEPART","streetName":"Rue Giffard","absoluteDirection":"EAST","stayOn":false,"area":false,"bogusName":false,"lon":-71.09070222285663,"lat":48.448215175453115,"elevation":[]},{"distance":77.97,"relativeDirection":"LEFT","streetName":"path","absoluteDirection":"NORTH","stayOn":false,"area":false,"bogusName":true,"lon":-71.0906042,"lat":48.448194300000004,"elevation":[]},{"distance":40.001,"relativeDirection":"LEFT","streetName":"Rue Maisonneuve","absoluteDirection":"WEST","stayOn":false,"area":false,"bogusName":false,"lon":-71.0902973,"lat":48.4488647,"elevation":[]}]}],"tooSloped":false}]},"debugOutput":{"precalculationTime":15,"pathCalculationTime":18,"pathTimes":[12,4,2],"renderingTime":0,"totalTime":33,"timedOut":false},"elevationMetadata":{"ellipsoidToGeoidDifference":-28.885904201182168,"geoidElevation":false}}