{"requestParameters":{"date":"2018/04/02","walkSpeed":"1.33","walkReluctance":"2.0","fromPlace":"48.447901,-71.087931","maxWalkDistance":"3000","waitReluctance":"1.0","carSpeed":"33","numItineraries":"3","waitAtBeginningFactor":"0.4","mode":"TRANSIT,WALK","ignoreRealtimeUpdates":"false","stairsReluctance":"2.0","toPlace":"48.444662,-71.08023699","time":"15:15:00"},"plan":{"date":1522696500000,"from":{"name":"Origin","lon":-71.087931,"lat":48.447901,"orig":"","vertexType":"NORMAL"},"to":{"name":"Destination","lon":-71.08023699,"lat":48.444662,"orig":"","vertexType":"NORMAL"},"itineraries":[{"duration":593,"startTime":1522696500000,"endTime":1522697093000,"walkTime":593,"transitTime":0,"waitingTime":0,"walkDistance":766.9703984943241,"walkLimitExceeded":false,"elevationLost":0.0,"elevationGained":0.0,"transfers":0,"legs":[{"startTime":1522696500000,"endTime":1522697093000,"departureDelay":0,"arrivalDelay":0,"realTime":false,"distance":766.911,"pathway":false,"mode":"WALK","route":"","agencyTimeZoneOffset":-14400000,"interlineWithPreviousLeg":false,"from":{"name":"Origin","lon":-71.087931,"lat":48.447901,"departure":1522696500000,"orig":"","vertexType":"NORMAL"},"to":{"name":"Destination","lon":-71.08023699,"lat":48.444662,"arrival":1522697093000,"orig":"","vertexType":"NORMAL"},"legGeometry":{"points":"woufHtj{pLAaAEoE?oD?[IGa@{@`D{DtDmEj@s@|AoB|A_C`BcDh@_BXu@","length":15},"rentedBike":false,"transitLeg":false,"duration":593.0,"steps":[{"distance":100.834,"relativeDirection":"DEPART","streetName":"Rue Giffard","absoluteDirection":"EAST","stayOn":false,"area":false,"bogusName":false,"lon":-71.08794089557445,"lat":48.44812367733061,"elevation":[]},{"distance":75.112,"relativeDirection":"CONTINUE","streetName":"path","absoluteDirection":"EAST","stayOn":false,"area":false,"bogusName":true,"lon":-71.08657550000001,"lat":48.4481685,"elevation":[]},{"distance":35.026,"relativeDirection":"LEFT","streetName":"Rue Sainte-Marie Sud","absoluteDirection":"NORTHEAST","stayOn":false,"area":false,"bogusName":false,"lon":-71.0855571,"lat":48.448167500000004,"elevation":[]},{"distance":555.939,"relativeDirection":"RIGHT","streetName":"Boulevard Sainte-Geneviève","absoluteDirection":"SOUTHEAST","stayOn":false,"area":false,"bogusName":false,"lon":-71.08521470000001,"lat":48.448382800000005,"elevation":[]}]}],"tooSloped":false},{"duration":285,"startTime":1522697450000,"endTime":1522697735000,"walkTime":230,"transitTime":53,"waitingTime":2,"walkDistance":290.57336841952423,"walkLimitExceeded":false,"elevationLost":0.0,"elevationGained":0.0,"transfers":0,"legs":[{"startTime":1522697450000,"endTime":1522697661000,"departureDelay":0,"arrivalDelay":0,"realTime":false,"distance":266.526,"pathway":false,"mode":"WALK","route":"","agencyTimeZoneOffset":-14400000,"interlineWithPreviousLeg":false,"from":{"name":"Origin","lon":-71.087931,"lat":48.447901,"departure":1522697450000,"orig":"","vertexType":"NORMAL"},"to":{"name":"boul. Ste-Geneviève / Ste-Marie","stopId":"1:731","stopCode":"731","lon":-71.085744,"lat":48.448746,"arrival":1522697661000,"departure":1522697662000,"zoneId":"NA","stopIndex":29,"stopSequence":30,"vertexType":"TRANSIT"},"legGeometry":{"points":"woufHtj{pLAaAEoE?oD?[IGa@{@oAvA","length":8},"rentedBike":false,"transitLeg":false,"duration":211.0,"steps":[{"distance":100.834,"relativeDirection":"DEPART","streetName":"Rue Giffard","absoluteDirection":"EAST","stayOn":false,"area":false,"bogusName":false,"lon":-71.08794089557445,"lat":48.44812367733061,"elevation":[]},{"distance":75.112,"relativeDirection":"CONTINUE","streetName":"path","absoluteDirection":"EAST","stayOn":false,"area":false,"bogusName":true,"lon":-71.08657550000001,"lat":48.4481685,"elevation":[]},{"distance":35.026,"relativeDirection":"LEFT","streetName":"Rue Sainte-Marie Sud","absoluteDirection":"NORTHEAST","stayOn":false,"area":false,"bogusName":false,"lon":-71.0855571,"lat":48.448167500000004,"elevation":[]},{"distance":55.554,"relativeDirection":"LEFT","streetName":"Boulevard Sainte-Geneviève","absoluteDirection":"NORTHWEST","stayOn":false,"area":false,"bogusName":false,"lon":-71.08521470000001,"lat":48.448382800000005,"elevation":[]}]},{"startTime":1522697662000,"endTime":1522697715000,"departureDelay":0,"arrivalDelay":0,"realTime":false,"distance":588.117358181693,"pathway":false,"mode":"BUS","route":"21","agencyName":"Société de Transport du Saguenay","agencyUrl":"http://ville.saguenay.ca/fr/services-aux-citoyens/transport-sts","agencyTimeZoneOffset":-14400000,"routeColor":"556B2F","routeType":3,"routeId":"1:21","routeTextColor":"FFFFFF","interlineWithPreviousLeg":false,"tripBlockId":"2","headsign":"Terminus Chicoutimi","agencyId":"0","tripId":"1:217173","serviceDate":"20180402","from":{"name":"boul. Ste-Geneviève / Ste-Marie","stopId":"1:731","stopCode":"731","lon":-71.085744,"lat":48.448746,"arrival":1522697661000,"departure":1522697662000,"zoneId":"NA","stopIndex":29,"stopSequence":30,"vertexType":"TRANSIT"},"to":{"name":"Place de la Colline (boul. Ste-Geneviève)","stopId":"1:2009","stopCode":"2009","lon":-71.080522,"lat":48.444768,"arrival":1522697715000,"departure":1522697716000,"zoneId":"NA","stopIndex":31,"stopSequence":32,"vertexType":"TRANSIT"},"legGeometry":{"points":"}sufHh|zpLrFkG`FgGdBwBt@cAbAmBx@eBj@eB","length":8},"routeShortName":"21","routeLongName":"Boul. Ste-Geneviève/Élie","rentedBike":false,"transitLeg":true,"duration":53.0,"steps":[]},{"startTime":1522697716000,"endTime":1522697735000,"departureDelay":0,"arrivalDelay":0,"realTime":false,"distance":24.0,"pathway":false,"mode":"WALK","route":"","agencyTimeZoneOffset":-14400000,"interlineWithPreviousLeg":false,"from":{"name":"Place de la Colline (boul. Ste-Geneviève)","stopId":"1:2009","stopCode":"2009","lon":-71.080522,"lat":48.444768,"arrival":1522697715000,"departure":1522697716000,"zoneId":"NA","stopIndex":31,"stopSequence":32,"vertexType":"TRANSIT"},"to":{"name":"Destination","lon":-71.08023699,"lat":48.444662,"arrival":1522697735000,"orig":"","vertexType":"NORMAL"},"legGeometry":{"points":"_{tfH`|ypLXu@","length":2},"rentedBike":false,"transitLeg":false,"duration":19.0,"steps":[{"distance":24.0,"relativeDirection":"DEPART","streetName":"Boulevard Sainte-Geneviève","absoluteDirection":"SOUTHEAST","stayOn":false,"area":false,"bogusName":false,"lon":-71.0804866067989,"lat":48.44480212337132,"elevation":[]}]}],"tooSloped":false},{"duration":609,"startTime":1522697381000,"endTime":1522697990000,"walkTime":521,"transitTime":86,"waitingTime":2,"walkDistance":660.6078947317473,"walkLimitExceeded":false,"elevationLost":0.0,"elevationGained":0.0,"transfers":0,"legs":[{"startTime":1522697381000,"endTime":1522697492000,"departureDelay":0,"arrivalDelay":0,"realTime":false,"distance":141.677,"pathway":false,"mode":"WALK","route":"","agencyTimeZoneOffset":-14400000,"interlineWithPreviousLeg":false,"from":{"name":"Origin","lon":-71.087931,"lat":48.447901,"departure":1522697381000,"orig":"","vertexType":"NORMAL"},"to":{"name":"Louis XIV / Vallières","stopId":"1:695","stopCode":"695","lon":-71.089462,"lat":48.447744,"arrival":1522697492000,"departure":1522697493000,"zoneId":"NA","stopIndex":19,"stopSequence":20,"vertexType":"TRANSIT"},"legGeometry":{"points":"woufHtj{pLDrGdAB","length":3},"rentedBike":false,"transitLeg":false,"duration":111.0,"steps":[{"distance":102.188,"relativeDirection":"DEPART","streetName":"Rue Giffard","absoluteDirection":"WEST","stayOn":false,"area":false,"bogusName":false,"lon":-71.08794089557445,"lat":48.44812367733061,"elevation":[]},{"distance":39.489,"relativeDirection":"LEFT","streetName":"Rue Louis-XIV","absoluteDirection":"SOUTH","stayOn":false,"area":false,"bogusName":false,"lon":-71.0893258,"lat":48.4480966,"elevation":[]}]},{"startTime":1522697493000,"endTime":1522697579000,"departureDelay":0,"arrivalDelay":0,"realTime":false,"distance":509.84382585038236,"pathway":false,"mode":"BUS","route":"20","agencyName":"Société de Transport du Saguenay","agencyUrl":"http://ville.saguenay.ca/fr/services-aux-citoyens/transport-sts","agencyTimeZoneOffset":-14400000,"routeColor":"0000FF","routeType":3,"routeId":"1:20","routeTextColor":"FFFFFF","interlineWithPreviousLeg":false,"tripBlockId":"1","headsign":"Terminus Chicoutimi","agencyId":"0","tripId":"1:217147","serviceDate":"20180402","from":{"name":"Louis XIV / Vallières","stopId":"1:695","stopCode":"695","lon":-71.089462,"lat":48.447744,"arrival":1522697492000,"departure":1522697493000,"zoneId":"NA","stopIndex":19,"stopSequence":20,"vertexType":"TRANSIT"},"to":{"name":"Ste-Marie / St-Armand","stopId":"1:698","stopCode":"698","lon":-71.085163,"lat":48.44497,"arrival":1522697579000,"departure":1522697580000,"zoneId":"NA","stopIndex":22,"stopSequence":23,"vertexType":"TRANSIT"},"legGeometry":{"points":"kmufHps{pLhA?A}I?iEEcEjBCzBEd@Cf@Gj@MZMb@S`Ag@","length":13},"routeShortName":"20","routeLongName":"Sainte-Claire","rentedBike":false,"transitLeg":true,"duration":86.0,"steps":[]},{"startTime":1522697580000,"endTime":1522697990000,"departureDelay":0,"arrivalDelay":0,"realTime":false,"distance":518.773,"pathway":false,"mode":"WALK","route":"","agencyTimeZoneOffset":-14400000,"interlineWithPreviousLeg":false,"from":{"name":"Ste-Marie / St-Armand","stopId":"1:698","stopCode":"698","lon":-71.085163,"lat":48.44497,"arrival":1522697579000,"departure":1522697580000,"zoneId":"NA","stopIndex":22,"stopSequence":23,"vertexType":"TRANSIT"},"to":{"name":"Destination","lon":-71.08023699,"lat":48.444662,"arrival":1522697990000,"orig":"","vertexType":"NORMAL"},"legGeometry":{"points":"e|tfHrxzpLy@\\A{A?YpDkJjAoDeE}Dh@_BXu@","length":9},"rentedBike":false,"transitLeg":false,"duration":410.0,"steps":[{"distance":33.499,"relativeDirection":"DEPART","streetName":"Rue Sainte-Marie Sud","absoluteDirection":"NORTH","stayOn":false,"area":false,"bogusName":false,"lon":-71.08505288374026,"lat":48.444995124398154,"elevation":[]},{"distance":287.597,"relativeDirection":"RIGHT","streetName":"Rue Sauvé","absoluteDirection":"EAST","stayOn":false,"area":false,"bogusName":false,"lon":-71.08520060000001,"lat":48.445280000000004,"elevation":[]},{"distance":131.132,"relativeDirection":"LEFT","streetName":"Rue David","absoluteDirection":"NORTHEAST","stayOn":false,"area":false,"bogusName":false,"lon":-71.081913,"lat":48.444022700000005,"elevation":[]},{"distance":66.545,"relativeDirection":"RIGHT","streetName":"Boulevard Sainte-Geneviève","absoluteDirection":"SOUTHEAST","stayOn":false,"area":false,"bogusName":false,"lon":-71.08096180000001,"lat":48.445019,"elevation":[]}]}],"tooSloped":false}]},"debugOutput":{"precalculationTime":11,"pathCalculationTime":16,"pathTimes":[6,8,2],"renderingTime":0,"totalTime":27,"timedOut":false},"elevationMetadata":{"ellipsoidToGeoidDifference":-28.885904201182168,"geoidElevation":false}}