{"requestParameters":{"date":"2018/04/02","walkSpeed":"1.33","walkReluctance":"2.0","fromPlace":"48.448204,-71.092071","maxWalkDistance":"3000","waitReluctance":"1.0","carSpeed":"33","numItineraries":"3","waitAtBeginningFactor":"0.4","mode":"TRANSIT,WALK","ignoreRealtimeUpdates":"false","stairsReluctance":"2.0","toPlace":"48.402256,-71.061188","time":"11:0:00"},"plan":{"date":1522681200000,"from":{"name":"Origin","lon":-71.092071,"lat":48.448204,"orig":"","vertexType":"NORMAL"},"to":{"name":"Destination","lon":-71.061188,"lat":48.402256,"orig":"","vertexType":"NORMAL"},"itineraries":[{"duration":1984,"startTime":1522682996000,"endTime":1522684980000,"walkTime":78,"transitTime":1604,"waitingTime":302,"walkDistance":102.281,"walkLimitExceeded":false,"elevationLost":0.0,"elevationGained":0.0,"transfers":1,"legs":[{"startTime":1522682996000,"endTime":1522683071000,"departureDelay":0,"arrivalDelay":0,"realTime":false,"distance":99.349,"pathway":false,"mode":"WALK","route":"","agencyTimeZoneOffset":-14400000,"interlineWithPreviousLeg":false,"from":{"name":"Origin","lon":-71.092071,"lat":48.448204,"departure":1522682996000,"orig":"","vertexType":"NORMAL"},"to":{"name":"Giffard (no. 215)","stopId":"1:694","stopCode":"694","lon":-71.090742,"lat":48.448133,"arrival":1522683071000,"departure":1522683072000,"zoneId":"NA","stopIndex":18,"stopSequence":19,"vertexType":"TRANSIT"},"legGeometry":{"points":"wqufH`d|pLLoB^sC","length":3},"rentedBike":false,"transitLeg":false,"duration":75.0,"steps":[{"distance":99.349,"relativeDirection":"DEPART","streetName":"Rue Giffard","absoluteDirection":"EAST","stayOn":false,"area":false,"bogusName":false,"lon":-71.09200170768526,"lat":48.44844425898121,"elevation":[]}]},{"startTime":1522683072000,"endTime":1522683600000,"departureDelay":0,"arrivalDelay":0,"realTime":false,"distance":3995.5120668845075,"pathway":false,"mode":"BUS","route":"20","agencyName":"Société de Transport du Saguenay","agencyUrl":"http://ville.saguenay.ca/fr/services-aux-citoyens/transport-sts","agencyTimeZoneOffset":-14400000,"routeColor":"0000FF","routeType":3,"routeId":"1:20","routeTextColor":"FFFFFF","interlineWithPreviousLeg":false,"tripBlockId":"1","headsign":"Terminus Chicoutimi","agencyId":"0","tripId":"1:217139","serviceDate":"20180402","from":{"name":"Giffard (no. 215)","stopId":"1:694","stopCode":"694","lon":-71.090742,"lat":48.448133,"arrival":1522683071000,"departure":1522683072000,"zoneId":"NA","stopIndex":18,"stopSequence":19,"vertexType":"TRANSIT"},"to":{"name":"Terminus Chicoutimi","stopId":"1:1289","stopCode":"1289","lon":-71.066163,"lat":48.428677,"arrival":1522683600000,"departure":1522683900000,"zoneId":"NA","stopIndex":31,"stopSequence":32,"vertexType":"TRANSIT"},"legGeometry":{"points":"gpufH|{{pLNaAB]@O@]?}BbA?hA?A}I?iEEcEjBCzBEd@Cf@Gj@MZMb@S`Ag@DClAk@f@Qv@Ov@IlBCnBa@TCTBjBPH@LiCDe@Lw@|@cELo@D[Dk@@[@uC@SBUDQFSt@yAHIr@eAjAaB`AqA^i@p@kAVc@\\cAr@eBv@aB|B_CJSDKLe@NeAJaAHeBBi@F{AaFe@c@IcDeAWtBOfAERGLIHIFMBa@NOQSOUGOCW?UFMHa@XUHQ?QIQOIM[g@rCmFhHqN~@eBr@cAt@_Av@}@RQPMz@k@tAe@REZG^Af@@X@VF`@Jn@XbClAr@Xt\\`PrAb@pA^hBTjAFj@Pb@JPHLLJNJRFXDT?X?ZEVEVKTMNMHMFOB}DWSGOSYcAN}FFkAF}DJyDPwGj@_QjAN~ALIpBGVITe@@","length":146},"routeShortName":"20","routeLongName":"Sainte-Claire","rentedBike":false,"transitLeg":true,"duration":528.0,"steps":[]},{"startTime":1522683900000,"endTime":1522684976000,"departureDelay":0,"arrivalDelay":0,"realTime":false,"distance":5408.791385525205,"pathway":false,"mode":"BUS","route":"175","agencyName":"Société de Transport du Saguenay","agencyUrl":"http://ville.saguenay.ca/fr/services-aux-citoyens/transport-sts","agencyTimeZoneOffset":-14400000,"routeColor":"FF00FF","routeType":3,"routeId":"1:175","routeTextColor":"FFFFFF","interlineWithPreviousLeg":false,"tripBlockId":"7","headsign":"Costco","agencyId":"0","tripId":"1:217331","serviceDate":"20180402","from":{"name":"Terminus Chicoutimi","stopId":"1:1289","stopCode":"1289","lon":-71.066163,"lat":48.428677,"arrival":1522683600000,"departure":1522683900000,"zoneId":"NA","stopIndex":0,"stopSequence":1,"vertexType":"TRANSIT"},"to":{"name":"boul. Talbot (no. 1494) (Tim-Horton)","stopId":"1:1854","stopCode":"1854","lon":-71.060941,"lat":48.402118,"arrival":1522684976000,"departure":1522684977000,"zoneId":"NA","stopIndex":21,"stopSequence":22,"vertexType":"TRANSIT"},"legGeometry":{"points":"kvqfH~awpL~CgBbAqa@FwCBkAOsHAg@bAYUwMKoE@mB@kJ@iFbEf@xEj@iCtYp@r@z@`ABBvHtHXRx@l@VwAvAgB\\qBIuAC]g@yEzDuLbBbBvAxAMx@|@v@`A~@Xw@~D~DPxFZtA~ApE`N{LpFmEb@[ROl@[vDQXKfA[|@q@fAsBlEmMr@sBhCsKz@dAjB|@dM`GzCvAXrCr@~Gx@]PEr@ObACn@FrBb@|@Ch@Kx@U~HsB^KZ|DJpII~Fa@rFUzBi@bDUxAm@nCcAlDM^RTfD`D","length":81},"routeShortName":"175","routeLongName":"Term. Chic / Costco","rentedBike":false,"transitLeg":true,"duration":1076.0,"steps":[]},{"startTime":1522684977000,"endTime":1522684980000,"departureDelay":0,"arrivalDelay":0,"realTime":false,"distance":2.932,"pathway":false,"mode":"WALK","route":"","agencyTimeZoneOffset":-14400000,"interlineWithPreviousLeg":false,"from":{"name":"boul. Talbot (no. 1494) (Tim-Horton)","stopId":"1:1854","stopCode":"1854","lon":-71.060941,"lat":48.402118,"arrival":1522684976000,"departure":1522684977000,"zoneId":"NA","stopIndex":21,"stopSequence":22,"vertexType":"TRANSIT"},"to":{"name":"Destination","lon":-71.061188,"lat":48.402256,"arrival":1522684980000,"orig":"","vertexType":"NORMAL"},"legGeometry":{"points":"}olfHhavpLCC","length":2},"rentedBike":false,"transitLeg":false,"duration":3.0,"steps":[{"distance":2.932,"relativeDirection":"DEPART","streetName":"Boulevard Talbot","absoluteDirection":"NORTHEAST","stayOn":false,"area":false,"bogusName":false,"lon":-71.06084575275527,"lat":48.40207691199218,"elevation":[]}]}],"tooSloped":false},{"duration":2526,"startTime":1522682818000,"endTime":1522685344000,"walkTime":627,"transitTime":1597,"waitingTime":302,"walkDistance":808.8412255609984,"walkLimitExceeded":false,"elevationLost":0.0,"elevationGained":0.0,"transfers":1,"legs":[{"startTime":1522682818000,"endTime":1522683261000,"departureDelay":0,"arrivalDelay":0,"realTime":false,"distance":570.8939999999999,"pathway":false,"mode":"WALK","route":"","agencyTimeZoneOffset":-14400000,"interlineWithPreviousLeg":false,"from":{"name":"Origin","lon":-71.092071,"lat":48.448204,"departure":1522682818000,"orig":"","vertexType":"NORMAL"},"to":{"name":"boul. Ste-Geneviève / Ste-Marie","stopId":"1:731","stopCode":"731","lon":-71.085744,"lat":48.448746,"arrival":1522683261000,"departure":1522683262000,"zoneId":"NA","stopIndex":29,"stopSequence":30,"vertexType":"TRANSIT"},"legGeometry":{"points":"wqufH`d|pLLoB^sCBSNsBBkCGuIEoE?oD?[IGa@{@oAvA","length":13},"rentedBike":false,"transitLeg":false,"duration":443.0,"steps":[{"distance":405.202,"relativeDirection":"DEPART","streetName":"Rue Giffard","absoluteDirection":"EAST","stayOn":false,"area":false,"bogusName":false,"lon":-71.09200170768526,"lat":48.44844425898121,"elevation":[]},{"distance":75.112,"relativeDirection":"CONTINUE","streetName":"path","absoluteDirection":"EAST","stayOn":false,"area":false,"bogusName":true,"lon":-71.08657550000001,"lat":48.4481685,"elevation":[]},{"distance":35.026,"relativeDirection":"LEFT","streetName":"Rue Sainte-Marie Sud","absoluteDirection":"NORTHEAST","stayOn":false,"area":false,"bogusName":false,"lon":-71.0855571,"lat":48.448167500000004,"elevation":[]},{"distance":55.554,"relativeDirection":"LEFT","streetName":"Boulevard Sainte-Geneviève","absoluteDirection":"NORTHWEST","stayOn":false,"area":false,"bogusName":false,"lon":-71.08521470000001,"lat":48.448382800000005,"elevation":[]}]},{"startTime":1522683262000,"endTime":1522683600000,"departureDelay":0,"arrivalDelay":0,"realTime":false,"distance":2834.1349452765576,"pathway":false,"mode":"BUS","route":"21","agencyName":"Société de Transport du Saguenay","agencyUrl":"http://ville.saguenay.ca/fr/services-aux-citoyens/transport-sts","agencyTimeZoneOffset":-14400000,"routeColor":"556B2F","routeType":3,"routeId":"1:21","routeTextColor":"FFFFFF","interlineWithPreviousLeg":false,"tripBlockId":"2","headsign":"Terminus Chicoutimi","agencyId":"0","tripId":"1:217165","serviceDate":"20180402","from":{"name":"boul. Ste-Geneviève / Ste-Marie","stopId":"1:731","stopCode":"731","lon":-71.085744,"lat":48.448746,"arrival":1522683261000,"departure":1522683262000,"zoneId":"NA","stopIndex":29,"stopSequence":30,"vertexType":"TRANSIT"},"to":{"name":"Terminus Chicoutimi","stopId":"1:1289","stopCode":"1289","lon":-71.066163,"lat":48.428677,"arrival":1522683600000,"departure":1522683900000,"zoneId":"NA","stopIndex":34,"stopSequence":35,"vertexType":"TRANSIT"},"legGeometry":{"points":"}sufHh|zpLrFkG`FgGdBwBt@cAbAmBx@eBj@eB`CoHpCyJbAmCtAuCZg@|@gBxAsCrCmFhHqN~@eBr@cAt@_Av@}@RQPMz@k@tAe@REZG^Af@@X@VF`@Jn@XbClAr@Xt\\`PrAb@pA^hBTjAFj@Pb@JPHLLJNJRFXDT?X?ZEVEVKTMNMHMFOB}DWSGOSYcAN}FFkAF}DJyDPwGvAHVyL","length":68},"routeShortName":"21","routeLongName":"Boul. Ste-Geneviève/Élie","rentedBike":false,"transitLeg":true,"duration":338.0,"steps":[]},{"startTime":1522683900000,"endTime":1522685159000,"departureDelay":0,"arrivalDelay":0,"realTime":false,"distance":5344.788688857265,"pathway":false,"mode":"BUS","route":"15","agencyName":"Société de Transport du Saguenay","agencyUrl":"http://ville.saguenay.ca/fr/services-aux-citoyens/transport-sts","agencyTimeZoneOffset":-14400000,"routeColor":"FF00FF","routeType":3,"routeId":"1:15","routeTextColor":"FFFFFF","interlineWithPreviousLeg":false,"tripBlockId":"31","headsign":"Talbot / Barrette","agencyId":"0","tripId":"1:218132","serviceDate":"20180402","from":{"name":"Terminus Chicoutimi","stopId":"1:1289","stopCode":"1289","lon":-71.066163,"lat":48.428677,"arrival":1522683600000,"departure":1522683900000,"zoneId":"NA","stopIndex":0,"stopSequence":1,"vertexType":"TRANSIT"},"to":{"name":"Saguenéens  / Bach","stopId":"1:575","stopCode":"575","lon":-71.061104,"lat":48.403689,"arrival":1522685159000,"departure":1522685160000,"zoneId":"NA","stopIndex":23,"stopSequence":24,"vertexType":"TRANSIT"},"legGeometry":{"points":"evqfHpbwpLPiCjKx@HiEZkS\\aSN_K^eIrBpBvIpIr@r@\\mBfAaA`@gBOkB_@uF|DyL|DpDQ|@|@z@bA`ATw@dD~Ch@fA@`E~AjGuH`Iy@bBi@dCbEdEjJlJ`HbHlJpJ|J~JdAfALzDNzDrAdBrEKvBEbCv@d@TvFlC|DlBpMlGrB`AM}@hAwEC{B]oBiBmBsH_@_K{H`EgIvCaGfEoItDsH~DeI","length":58},"routeShortName":"15","routeLongName":"Term. Chic / Costco","rentedBike":false,"transitLeg":true,"duration":1259.0,"steps":[]},{"startTime":1522685160000,"endTime":1522685344000,"departureDelay":0,"arrivalDelay":0,"realTime":false,"distance":237.85699999999997,"pathway":false,"mode":"WALK","route":"","agencyTimeZoneOffset":-14400000,"interlineWithPreviousLeg":false,"from":{"name":"Saguenéens  / Bach","stopId":"1:575","stopCode":"575","lon":-71.061104,"lat":48.403689,"arrival":1522685159000,"departure":1522685160000,"zoneId":"NA","stopIndex":23,"stopSequence":24,"vertexType":"TRANSIT"},"to":{"name":"Destination","lon":-71.061188,"lat":48.402256,"arrival":1522685344000,"orig":"","vertexType":"NORMAL"},"legGeometry":{"points":"wylfHfcvpLxBwFVTbD~C","length":4},"rentedBike":false,"transitLeg":false,"duration":184.0,"steps":[{"distance":114.286,"relativeDirection":"DEPART","streetName":"Rue des Saguenéens","absoluteDirection":"SOUTHEAST","stayOn":false,"area":false,"bogusName":false,"lon":-71.0611521754673,"lat":48.403646208471976,"elevation":[]},{"distance":123.571,"relativeDirection":"RIGHT","streetName":"Boulevard Talbot","absoluteDirection":"SOUTHWEST","stayOn":false,"area":false,"bogusName":false,"lon":-71.0599121,"lat":48.403030900000005,"elevation":[]}]}],"tooSloped":false},{"duration":1646,"startTime":1522686993000,"endTime":1522688639000,"walkTime":681,"transitTime":963,"waitingTime":2,"walkDistance":876.0817443577483,"walkLimitExceeded":false,"elevationLost":0.0,"elevationGained":0.0,"transfers":0,"legs":[{"startTime":1522686993000,"endTime":1522687436000,"departureDelay":0,"arrivalDelay":0,"realTime":false,"distance":570.8939999999999,"pathway":false,"mode":"WALK","route":"","agencyTimeZoneOffset":-14400000,"interlineWithPreviousLeg":false,"from":{"name":"Origin","lon":-71.092071,"lat":48.448204,"departure":1522686993000,"orig":"","vertexType":"NORMAL"},"to":{"name":"boul. Ste-Geneviève / Ste-Marie","stopId":"1:731","stopCode":"731","lon":-71.085744,"lat":48.448746,"arrival":1522687436000,"departure":1522687437000,"zoneId":"NA","stopIndex":8,"stopSequence":9,"vertexType":"TRANSIT"},"legGeometry":{"points":"wqufH`d|pLLoB^sCBSNsBBkCGuIEoE?oD?[IGa@{@oAvA","length":13},"rentedBike":false,"transitLeg":false,"duration":443.0,"steps":[{"distance":405.202,"relativeDirection":"DEPART","streetName":"Rue Giffard","absoluteDirection":"EAST","stayOn":false,"area":false,"bogusName":false,"lon":-71.09200170768526,"lat":48.44844425898121,"elevation":[]},{"distance":75.112,"relativeDirection":"CONTINUE","streetName":"path","absoluteDirection":"EAST","stayOn":false,"area":false,"bogusName":true,"lon":-71.08657550000001,"lat":48.4481685,"elevation":[]},{"distance":35.026,"relativeDirection":"LEFT","streetName":"Rue Sainte-Marie Sud","absoluteDirection":"NORTHEAST","stayOn":false,"area":false,"bogusName":false,"lon":-71.0855571,"lat":48.448167500000004,"elevation":[]},{"distance":55.554,"relativeDirection":"LEFT","streetName":"Boulevard Sainte-Geneviève","absoluteDirection":"NORTHWEST","stayOn":false,"area":false,"bogusName":false,"lon":-71.08521470000001,"lat":48.448382800000005,"elevation":[]}]},{"startTime":1522687437000,"endTime":1522688400000,"departureDelay":0,"arrivalDelay":0,"realTime":false,"distance":7271.236469247221,"pathway":false,"mode":"BUS","route":"27","agencyName":"Société de Transport du Saguenay","agencyUrl":"http://ville.saguenay.ca/fr/services-aux-citoyens/transport-sts","agencyTimeZoneOffset":-14400000,"routeColor":"00FFFF","routeType":3,"routeId":"1:27","routeTextColor":"000000","interlineWithPreviousLeg":false,"tripBlockId":"98","headsign":"Place du Royaume","agencyId":"0","tripId":"1:218746","serviceDate":"20180402","from":{"name":"boul. Ste-Geneviève / Ste-Marie","stopId":"1:731","stopCode":"731","lon":-71.085744,"lat":48.448746,"arrival":1522687436000,"departure":1522687437000,"zoneId":"NA","stopIndex":8,"stopSequence":9,"vertexType":"TRANSIT"},"to":{"name":"Place du Royaume (Saguenéens)","stopId":"1:1294","stopCode":"1294","lon":-71.057691,"lat":48.402355,"arrival":1522688400000,"departure":1522688401000,"zoneId":"NA","stopIndex":26,"stopSequence":27,"vertexType":"TRANSIT"},"legGeometry":{"points":"}sufHh|zpLDGdGoHhE}EBEzB{CpB}CtAsDJYlDsLtB{GzEmJzKsTlB{Dn@gAfD_FfDwB|Cc@tEzAfLxFtQzI`EvA~F\\nGHjH}@RcL?ANcHFgE@CNsFCs@N}FDmBJyEReKDcDH_DCeA@yANyLRq@RIv@v@dA|@fB`BX{@^w@z@aAPc@NoA@e@Iw@?Cc@eEAo@v@_C^aBn@aBh@_BJEt@l@d@f@@?tAzAnAwDnAwDrCpClArA??|A|Av@|@LVnDpD?@`A~@hAnBb@fA|AuAnAeAvBkBb@UBAj@a@|@UjCG\\A??x@WhAcAr@kAhA_Dr@uB`BqE@CXy@nBqGLo@^k@VOf@KjB~@@@~DlB~C|AbBt@FD`Bv@LJ^l@BH?~@B^BL@LFn@`@pBZdBt@_@n@Qt@En@Dp@Ft@LzBB`@Gt@SLEnBm@~DeA^K\\lFLlGOvGQpCSzBOzAm@lD","length":138},"routeShortName":"27","routeLongName":"St-Honoré","rentedBike":false,"transitLeg":true,"duration":963.0,"steps":[]},{"startTime":1522688401000,"endTime":1522688639000,"departureDelay":0,"arrivalDelay":0,"realTime":false,"distance":305.09,"pathway":false,"mode":"WALK","route":"","agencyTimeZoneOffset":-14400000,"interlineWithPreviousLeg":false,"from":{"name":"Place du Royaume (Saguenéens)","stopId":"1:1294","stopCode":"1294","lon":-71.057691,"lat":48.402355,"arrival":1522688400000,"departure":1522688401000,"zoneId":"NA","stopIndex":26,"stopSequence":27,"vertexType":"TRANSIT"},"to":{"name":"Destination","lon":-71.061188,"lat":48.402256,"arrival":1522688639000,"orig":"","vertexType":"NORMAL"},"legGeometry":{"points":"iqlfHxmupLa@dCMh@mArEGRADKVVTbD~C","length":9},"rentedBike":false,"transitLeg":false,"duration":238.0,"steps":[{"distance":181.519,"relativeDirection":"DEPART","streetName":"Rue des Saguenéens","absoluteDirection":"WEST","stayOn":false,"area":false,"bogusName":false,"lon":-71.05772328170832,"lat":48.402297506554895,"elevation":[]},{"distance":123.571,"relativeDirection":"LEFT","streetName":"Boulevard Talbot","absoluteDirection":"SOUTHWEST","stayOn":false,"area":false,"bogusName":false,"lon":-71.0599121,"lat":48.403030900000005,"elevation":[]}]}],"tooSloped":false}]},"debugOutput":{"precalculationTime":23,"pathCalculationTime":21,"pathTimes":[13,4,4],"renderingTime":0,"totalTime":44,"timedOut":false},"elevationMetadata":{"ellipsoidToGeoidDifference":-28.885904201182168,"geoidElevation":false}}