{"requestParameters":{"date":"2018/04/02","walkSpeed":"1.33","walkReluctance":"2.0","fromPlace":"48.425843,-71.07113599","maxWalkDistance":"3000","waitReluctance":"1.0","carSpeed":"33","numItineraries":"3","waitAtBeginningFactor":"0.4","mode":"TRANSIT,WALK","ignoreRealtimeUpdates":"false","stairsReluctance":"2.0","toPlace":"48.448244,-71.096452","time":"18:30:00"},"plan":{"date":1522708200000,"from":{"name":"Origin","lon":-71.07113599,"lat":48.425843,"orig":"","vertexType":"NORMAL"},"to":{"name":"Destination","lon":-71.096452,"lat":48.448244,"orig":"","vertexType":"NORMAL"},"itineraries":[{"duration":1405,"startTime":1522708510000,"endTime":1522709915000,"walkTime":683,"transitTime":720,"waitingTime":2,"walkDistance":879.1970375918863,"walkLimitExceeded":false,"elevationLost":0.0,"elevationGained":0.0,"transfers":0,"legs":[{"startTime":1522708510000,"endTime":1522709099000,"departureDelay":0,"arrivalDelay":0,"realTime":false,"distance":760.016,"pathway":false,"mode":"WALK","route":"","agencyTimeZoneOffset":-14400000,"interlineWithPreviousLeg":false,"from":{"name":"Origin","lon":-71.07113599,"lat":48.425843,"departure":1522708510000,"orig":"","vertexType":"NORMAL"},"to":{"name":"Terminus Chicoutimi","stopId":"1:1289","stopCode":"1289","lon":-71.066163,"lat":48.428677,"arrival":1522709099000,"departure":1522709100000,"zoneId":"NA","stopIndex":0,"stopSequence":1,"vertexType":"TRANSIT"},"legGeometry":{"points":"ubqfH~axpLDmAB}@DoB@_@JmEJ_GDeBDgB@i@Ao@QG_@C{BUsAGkCQQAsBIc@MKESAcAK","length":22},"rentedBike":false,"transitLeg":false,"duration":589.0,"steps":[{"distance":181.122,"relativeDirection":"DEPART","streetName":"Rue Price Ouest","absoluteDirection":"EAST","stayOn":false,"area":false,"bogusName":false,"lon":-71.0711908687107,"lat":48.425553296035005,"elevation":[]},{"distance":204.411,"relativeDirection":"CONTINUE","streetName":"Rue Price Est","absoluteDirection":"EAST","stayOn":false,"area":false,"bogusName":false,"lon":-71.06874640000001,"lat":48.4254073,"elevation":[]},{"distance":374.483,"relativeDirection":"LEFT","streetName":"Rue Morin","absoluteDirection":"NORTH","stayOn":false,"area":false,"bogusName":false,"lon":-71.06598410000001,"lat":48.4252842,"elevation":[]}]},{"startTime":1522709100000,"endTime":1522709820000,"departureDelay":0,"arrivalDelay":0,"realTime":false,"distance":4233.230877827324,"pathway":false,"mode":"BUS","route":"20","agencyName":"Société de Transport du Saguenay","agencyUrl":"http://ville.saguenay.ca/fr/services-aux-citoyens/transport-sts","agencyTimeZoneOffset":-14400000,"routeColor":"0000FF","routeType":3,"routeId":"1:20","routeTextColor":"FFFFFF","interlineWithPreviousLeg":false,"tripBlockId":"3","headsign":"Terminus Chicoutimi","agencyId":"0","tripId":"1:217211","serviceDate":"20180402","from":{"name":"Terminus Chicoutimi","stopId":"1:1289","stopCode":"1289","lon":-71.066163,"lat":48.428677,"arrival":1522709099000,"departure":1522709100000,"zoneId":"NA","stopIndex":0,"stopSequence":1,"vertexType":"TRANSIT"},"to":{"name":"Vallières / Giffard","stopId":"1:689","stopCode":"689","lon":-71.096907,"lat":48.44733,"arrival":1522709820000,"departure":1522709821000,"zoneId":"NA","stopIndex":13,"stopSequence":14,"vertexType":"TRANSIT"},"legGeometry":{"points":"evqfHzcwpLg@?UhKwAIWACp@O\\WjGOfGCRK^KJMHQB_AMg@Gw`@eR}@g@u@Su@Ia@Ck@Dm@HwAf@c@VeAx@iAlAU^[d@eLtTsAvBg@bAPVd@t@PNNF@@P?TI`@YLITGV?NBTFRNNP`@OLCHGHIFMDSR{ARaBbDdAb@H`Fd@EbAE`AIdBK`AOdAMd@EJKR}B~Bw@`Bs@dB]bAWb@q@jAaB|BkA~A}@nAu@IIAe@Cs@Fy@DWA[EUGyCgAU~@Sx@{A`FyBfHmDjJCDEVE`B?vFBjC@ZFX\\j@T^JVBNBV@RCbE?VCVy@nGCRCFGLKJQNSHaAZa@Pk@\\a@XZrAHp@@FDj@Bp@?~I@fHAd@C`@ERELA@GHMHi@PSBy@BW?YDMD","length":136},"routeShortName":"20","routeLongName":"Sainte-Claire","rentedBike":false,"transitLeg":true,"duration":720.0,"steps":[]},{"startTime":1522709821000,"endTime":1522709915000,"departureDelay":0,"arrivalDelay":0,"realTime":false,"distance":119.11600000000001,"pathway":false,"mode":"WALK","route":"","agencyTimeZoneOffset":-14400000,"interlineWithPreviousLeg":false,"from":{"name":"Vallières / Giffard","stopId":"1:689","stopCode":"689","lon":-71.096907,"lat":48.44733,"arrival":1522709820000,"departure":1522709821000,"zoneId":"NA","stopIndex":13,"stopSequence":14,"vertexType":"TRANSIT"},"to":{"name":"Destination","lon":-71.096452,"lat":48.448244,"arrival":1522709915000,"orig":"","vertexType":"NORMAL"},"legGeometry":{"points":"sjufHnc}pL?@OFSNYT[m@Wg@CGCGCICKCIAIA_@","length":14},"rentedBike":false,"transitLeg":false,"duration":94.0,"steps":[{"distance":39.154,"relativeDirection":"DEPART","streetName":"Rue Vallières","absoluteDirection":"NORTH","stayOn":false,"area":false,"bogusName":false,"lon":-71.09703848345393,"lat":48.447300003803996,"elevation":[]},{"distance":79.962,"relativeDirection":"RIGHT","streetName":"Rue Giffard","absoluteDirection":"NORTHEAST","stayOn":false,"area":false,"bogusName":false,"lon":-71.0972753,"lat":48.447614,"elevation":[]}]}],"tooSloped":false},{"duration":1807,"startTime":1522708391000,"endTime":1522710198000,"walkTime":1207,"transitTime":598,"waitingTime":2,"walkDistance":1549.1253834536974,"walkLimitExceeded":false,"elevationLost":0.0,"elevationGained":0.0,"transfers":0,"legs":[{"startTime":1522708391000,"endTime":1522708888000,"departureDelay":0,"arrivalDelay":0,"realTime":false,"distance":629.5450000000001,"pathway":false,"mode":"WALK","route":"","agencyTimeZoneOffset":-14400000,"interlineWithPreviousLeg":false,"from":{"name":"Origin","lon":-71.07113599,"lat":48.425843,"departure":1522708391000,"orig":"","vertexType":"NORMAL"},"to":{"name":"boul. Saguenay / Ste-Anne","stopId":"1:160","stopCode":"160","lon":-71.069701,"lat":48.429464,"arrival":1522708888000,"departure":1522708889000,"zoneId":"NA","stopIndex":34,"stopSequence":35,"vertexType":"TRANSIT"},"legGeometry":{"points":"ubqfH~axpLE~@?HCf@A^OMaAYCFKDKCGGKSSYWKkAK}@B_BHuBHo@BqAPo@Bo@_@MOEEQi@Em@FyE@[","length":28},"rentedBike":false,"transitLeg":false,"duration":497.0,"steps":[{"distance":54.400999999999996,"relativeDirection":"DEPART","streetName":"Rue Price Ouest","absoluteDirection":"WEST","stayOn":false,"area":false,"bogusName":false,"lon":-71.0711908687107,"lat":48.425553296035005,"elevation":[]},{"distance":48.492,"relativeDirection":"RIGHT","streetName":"path","absoluteDirection":"NORTH","stayOn":false,"area":false,"bogusName":true,"lon":-71.0719217,"lat":48.425614800000005,"elevation":[]},{"distance":356.79900000000004,"relativeDirection":"SLIGHTLY_LEFT","streetName":"Rue Montcalm","absoluteDirection":"NORTH","stayOn":false,"area":false,"bogusName":false,"lon":-71.0717267,"lat":48.426028200000005,"elevation":[]},{"distance":78.91,"relativeDirection":"SLIGHTLY_RIGHT","streetName":"link","absoluteDirection":"NORTHEAST","stayOn":false,"area":false,"bogusName":true,"lon":-71.07163890000001,"lat":48.4291351,"elevation":[]},{"distance":90.943,"relativeDirection":"CONTINUE","streetName":"Boulevard du Saguenay Ouest","absoluteDirection":"EAST","stayOn":false,"area":false,"bogusName":false,"lon":-71.07092130000001,"lat":48.429599100000004,"elevation":[]}]},{"startTime":1522708889000,"endTime":1522708920000,"departureDelay":0,"arrivalDelay":0,"realTime":false,"distance":275.32247205812763,"pathway":false,"mode":"BUS","route":"24","agencyName":"Société de Transport du Saguenay","agencyUrl":"http://ville.saguenay.ca/fr/services-aux-citoyens/transport-sts","agencyTimeZoneOffset":-14400000,"routeColor":"00FF00","routeType":3,"routeId":"1:24","routeTextColor":"000000","interlineWithPreviousLeg":false,"tripBlockId":"5","headsign":"Terminus Chicoutimi","agencyId":"0","tripId":"1:217273","serviceDate":"20180402","from":{"name":"boul. Saguenay / Ste-Anne","stopId":"1:160","stopCode":"160","lon":-71.069701,"lat":48.429464,"arrival":1522708888000,"departure":1522708889000,"zoneId":"NA","stopIndex":34,"stopSequence":35,"vertexType":"TRANSIT"},"to":{"name":"Terminus Chicoutimi","stopId":"1:1289","stopCode":"1289","lon":-71.066163,"lat":48.428677,"arrival":1522708920000,"departure":1522709100000,"zoneId":"NA","stopIndex":35,"stopSequence":36,"vertexType":"TRANSIT"},"legGeometry":{"points":"m{qfHrxwpLPwGvAHN_HDiB@m@","length":6},"routeShortName":"24","routeLongName":"Saint-Luc","rentedBike":false,"transitLeg":true,"duration":31.0,"steps":[]},{"startTime":1522709100000,"endTime":1522709487000,"departureDelay":0,"arrivalDelay":0,"realTime":false,"distance":2669.4064857723333,"pathway":false,"mode":"BUS","route":"23","agencyName":"Société de Transport du Saguenay","agencyUrl":"http://ville.saguenay.ca/fr/services-aux-citoyens/transport-sts","agencyTimeZoneOffset":-14400000,"routeColor":"FF00FF","routeType":3,"routeId":"1:23","routeTextColor":"FFFFFF","interlineWithPreviousLeg":true,"tripBlockId":"5","headsign":"Terminus Chicoutimi","agencyId":"0","tripId":"1:217274","serviceDate":"20180402","from":{"name":"Terminus Chicoutimi","stopId":"1:1289","stopCode":"1289","lon":-71.066163,"lat":48.428677,"arrival":1522708920000,"departure":1522709100000,"zoneId":"NA","stopIndex":0,"stopSequence":1,"vertexType":"TRANSIT"},"to":{"name":"St-Gérard / Pasteur","stopId":"1:727","stopCode":"727","lon":-71.084309,"lat":48.448719,"arrival":1522709487000,"departure":1522709488000,"zoneId":"NA","stopIndex":4,"stopSequence":5,"vertexType":"TRANSIT"},"legGeometry":{"points":"kwqfHjbwpLF_CkAOYCm@rRO\\WjGOfGCRK^KJMHQB_AMg@Gw`@eR}@g@u@Su@Ia@Ck@Dm@HwAf@c@VeAx@iAlAU^[d@eLtTsAvB_CvEuAnCmBlE}@|B_BvFoC`JCD}@hCo@~Aq@pAs@fA{BlCqH|Iq@Bq@Im@U","length":46},"routeShortName":"23","routeLongName":"Côte Verdun via Aréna du Plateau","rentedBike":false,"transitLeg":true,"duration":387.0,"steps":[]},{"startTime":1522709488000,"endTime":1522710198000,"departureDelay":0,"arrivalDelay":0,"realTime":false,"distance":919.4269999999999,"pathway":false,"mode":"WALK","route":"","agencyTimeZoneOffset":-14400000,"interlineWithPreviousLeg":false,"from":{"name":"St-Gérard / Pasteur","stopId":"1:727","stopCode":"727","lon":-71.084309,"lat":48.448719,"arrival":1522709487000,"departure":1522709488000,"zoneId":"NA","stopIndex":4,"stopSequence":5,"vertexType":"TRANSIT"},"to":{"name":"Destination","lon":-71.096452,"lat":48.448244,"arrival":1522710198000,"orig":"","vertexType":"NORMAL"},"legGeometry":{"points":"_tufHptzpLJTv@lBN\\`@z@HF?Z?nDDnEFtICjCOrBCR_@rCOdC@l@TvF@TD`@XdE@X^xG","length":22},"rentedBike":false,"transitLeg":false,"duration":710.0,"steps":[{"distance":75.98,"relativeDirection":"DEPART","streetName":"Rue Saint-Gérard","absoluteDirection":"SOUTHWEST","stayOn":false,"area":false,"bogusName":false,"lon":-71.0844008886955,"lat":48.448801303287965,"elevation":[]},{"distance":35.026,"relativeDirection":"CONTINUE","streetName":"Rue Sainte-Marie Sud","absoluteDirection":"SOUTHWEST","stayOn":false,"area":false,"bogusName":false,"lon":-71.08521470000001,"lat":48.448382800000005,"elevation":[]},{"distance":75.112,"relativeDirection":"RIGHT","streetName":"path","absoluteDirection":"WEST","stayOn":false,"area":false,"bogusName":true,"lon":-71.0855571,"lat":48.448167500000004,"elevation":[]},{"distance":733.3089999999999,"relativeDirection":"CONTINUE","streetName":"Rue Giffard","absoluteDirection":"WEST","stayOn":false,"area":false,"bogusName":false,"lon":-71.08657550000001,"lat":48.4481685,"elevation":[]}]}],"tooSloped":false},{"duration":1631,"startTime":1522710310000,"endTime":1522711941000,"walkTime":1073,"transitTime":556,"waitingTime":2,"walkDistance":1384.389511274823,"walkLimitExceeded":false,"elevationLost":0.0,"elevationGained":0.0,"transfers":0,"legs":[{"startTime":1522710310000,"endTime":1522710899000,"departureDelay":0,"arrivalDelay":0,"realTime":false,"distance":760.016,"pathway":false,"mode":"WALK","route":"","agencyTimeZoneOffset":-14400000,"interlineWithPreviousLeg":false,"from":{"name":"Origin","lon":-71.07113599,"lat":48.425843,"departure":1522710310000,"orig":"","vertexType":"NORMAL"},"to":{"name":"Terminus Chicoutimi","stopId":"1:1289","stopCode":"1289","lon":-71.066163,"lat":48.428677,"arrival":1522710899000,"departure":1522710900000,"zoneId":"NA","stopIndex":0,"stopSequence":1,"vertexType":"TRANSIT"},"legGeometry":{"points":"ubqfH~axpLDmAB}@DoB@_@JmEJ_GDeBDgB@i@Ao@QG_@C{BUsAGkCQQAsBIc@MKESAcAK","length":22},"rentedBike":false,"transitLeg":false,"duration":589.0,"steps":[{"distance":181.122,"relativeDirection":"DEPART","streetName":"Rue Price Ouest","absoluteDirection":"EAST","stayOn":false,"area":false,"bogusName":false,"lon":-71.0711908687107,"lat":48.425553296035005,"elevation":[]},{"distance":204.411,"relativeDirection":"CONTINUE","streetName":"Rue Price Est","absoluteDirection":"EAST","stayOn":false,"area":false,"bogusName":false,"lon":-71.06874640000001,"lat":48.4254073,"elevation":[]},{"distance":374.483,"relativeDirection":"LEFT","streetName":"Rue Morin","absoluteDirection":"NORTH","stayOn":false,"area":false,"bogusName":false,"lon":-71.06598410000001,"lat":48.4252842,"elevation":[]}]},{"startTime":1522710900000,"endTime":1522711456000,"departureDelay":0,"arrivalDelay":0,"realTime":false,"distance":4303.674359268244,"pathway":false,"mode":"BUS","route":"21","agencyName":"Société de Transport du Saguenay","agencyUrl":"http://ville.saguenay.ca/fr/services-aux-citoyens/transport-sts","agencyTimeZoneOffset":-14400000,"routeColor":"556B2F","routeType":3,"routeId":"1:21","routeTextColor":"FFFFFF","interlineWithPreviousLeg":false,"tripBlockId":"2","headsign":"Terminus Chicoutimi","agencyId":"0","tripId":"1:217180","serviceDate":"20180402","from":{"name":"Terminus Chicoutimi","stopId":"1:1289","stopCode":"1289","lon":-71.066163,"lat":48.428677,"arrival":1522710899000,"departure":1522710900000,"zoneId":"NA","stopIndex":0,"stopSequence":1,"vertexType":"TRANSIT"},"to":{"name":"boul. Ste-Geneviève / St-Sauveur","stopId":"1:710","stopCode":"710","lon":-71.093342,"lat":48.451898,"arrival":1522711456000,"departure":1522711457000,"zoneId":"NA","stopIndex":10,"stopSequence":11,"vertexType":"TRANSIT"},"legGeometry":{"points":"kwqfHjbwpLF_CeBSm@rRO\\WjGOfGCRK^KJMHQB_AMg@Gw`@eR}@g@u@Su@Ia@Ck@Dm@HwAf@c@VeAx@iAlAU^[d@eLtTsAvB_CvEuAnCmBlE}@|B_BvFoC`JCD}@hCo@~Aq@pAs@fAWs@IUC[AI?QCeGAs@Gy@Ks@Ou@OcAIcAIgAWgCG_@Og@IQS]UWYQWIUA[Da@P]RSVQ`@Ib@Ef@Et@Gf@Id@I`@Od@cCxFQOgAwA_FqGO[`BcEY_@MOaBtDLTh@bATZpGlIPNa@fAOn@Gd@UtBA^A^R`E^fGRbAVl@P`@BFNb@t@xAiCvCMP}@jAY`@q@jAm@jA}@rBmArD?Tu@|CYzAET{AxOQhB","length":116},"routeShortName":"21","routeLongName":"Boul. Ste-Geneviève/Élie","rentedBike":false,"transitLeg":true,"duration":556.0,"steps":[]},{"startTime":1522711457000,"endTime":1522711941000,"departureDelay":0,"arrivalDelay":0,"realTime":false,"distance":624.2689999999999,"pathway":false,"mode":"WALK","route":"","agencyTimeZoneOffset":-14400000,"interlineWithPreviousLeg":false,"from":{"name":"boul. Ste-Geneviève / St-Sauveur","stopId":"1:710","stopCode":"710","lon":-71.093342,"lat":48.451898,"arrival":1522711456000,"departure":1522711457000,"zoneId":"NA","stopIndex":10,"stopSequence":11,"vertexType":"TRANSIT"},"to":{"name":"Destination","lon":-71.096452,"lat":48.448244,"arrival":1522711941000,"orig":"","vertexType":"NORMAL"},"legGeometry":{"points":"}fvfHpl|pLLuARDp@BjDI^JtCfAfGbAD`@XdE@X^xG","length":12},"rentedBike":false,"transitLeg":false,"duration":484.0,"steps":[{"distance":32.593,"relativeDirection":"DEPART","streetName":"Boulevard Sainte-Geneviève","absoluteDirection":"EAST","stayOn":false,"area":false,"bogusName":false,"lon":-71.09336582664865,"lat":48.45183764621949,"elevation":[]},{"distance":389.801,"relativeDirection":"RIGHT","streetName":"Rue Saint-Jérome","absoluteDirection":"SOUTH","stayOn":false,"area":false,"bogusName":false,"lon":-71.0929383,"lat":48.451763400000004,"elevation":[]},{"distance":201.875,"relativeDirection":"RIGHT","streetName":"Rue Giffard","absoluteDirection":"WEST","stayOn":false,"area":false,"bogusName":false,"lon":-71.0936982,"lat":48.4483228,"elevation":[]}]}],"tooSloped":false}]},"debugOutput":{"precalculationTime":26,"pathCalculationTime":45,"pathTimes":[18,12,15],"renderingTime":0,"totalTime":71,"timedOut":false},"elevationMetadata":{"ellipsoidToGeoidDifference":-28.885904201182168,"geoidElevation":false}}