{"requestParameters":{"date":"2018/04/02","walkSpeed":"1.33","walkReluctance":"2.0","fromPlace":"48.399047,-71.10515599","maxWalkDistance":"3000","waitReluctance":"1.0","carSpeed":"33","numItineraries":"3","waitAtBeginningFactor":"0.4","mode":"TRANSIT,WALK","ignoreRealtimeUpdates":"false","stairsReluctance":"2.0","toPlace":"48.436766,-71.07753","time":"17:30:00"},"plan":{"date":1522704600000,"from":{"name":"Origin","lon":-71.10515599,"lat":48.399047,"orig":"","vertexType":"NORMAL"},"to":{"name":"Destination","lon":-71.07753,"lat":48.436766,"orig":"","vertexType":"NORMAL"},"itineraries":[{"duration":1911,"startTime":1522705914000,"endTime":1522707825000,"walkTime":439,"transitTime":1230,"waitingTime":242,"walkDistance":570.0296315772491,"walkLimitExceeded":false,"elevationLost":0.0,"elevationGained":0.0,"transfers":1,"legs":[{"startTime":1522705914000,"endTime":1522706162000,"departureDelay":0,"arrivalDelay":0,"realTime":false,"distance":321.10800000000006,"pathway":false,"mode":"WALK","route":"","agencyTimeZoneOffset":-14400000,"interlineWithPreviousLeg":false,"from":{"name":"Origin","lon":-71.10515599,"lat":48.399047,"departure":1522705914000,"orig":"","vertexType":"NORMAL"},"to":{"name":"boul. St-Paul / Actionnaires","stopId":"1:270","stopCode":"270","lon":-71.10171,"lat":48.399676,"arrival":1522706162000,"departure":1522706163000,"zoneId":"NA","stopIndex":10,"stopSequence":11,"vertexType":"TRANSIT"},"legGeometry":{"points":"y}kfHzt~pLFItBeHJ_@SWgFaG","length":6},"rentedBike":false,"transitLeg":false,"duration":248.0,"steps":[{"distance":146.57600000000002,"relativeDirection":"DEPART","streetName":"Rue Cossette","absoluteDirection":"SOUTHEAST","stayOn":false,"area":false,"bogusName":false,"lon":-71.10493731694658,"lat":48.399174355218044,"elevation":[]},{"distance":174.532,"relativeDirection":"LEFT","streetName":"Boulevard Saint-Paul","absoluteDirection":"NORTHEAST","stayOn":false,"area":false,"bogusName":false,"lon":-71.1032527,"lat":48.3984814,"elevation":[]}]},{"startTime":1522706163000,"endTime":1522707060000,"departureDelay":0,"arrivalDelay":0,"realTime":false,"distance":4757.394623345547,"pathway":false,"mode":"BUS","route":"11","agencyName":"Société de Transport du Saguenay","agencyUrl":"http://ville.saguenay.ca/fr/services-aux-citoyens/transport-sts","agencyTimeZoneOffset":-14400000,"routeColor":"FF0000","routeType":3,"routeId":"1:11","routeTextColor":"FFFFFF","interlineWithPreviousLeg":false,"tripBlockId":"36","headsign":"Terminus Chicoutimi","agencyId":"0","tripId":"1:218299","serviceDate":"20180402","from":{"name":"boul. St-Paul / Actionnaires","stopId":"1:270","stopCode":"270","lon":-71.10171,"lat":48.399676,"arrival":1522706162000,"departure":1522706163000,"zoneId":"NA","stopIndex":10,"stopSequence":11,"vertexType":"TRANSIT"},"to":{"name":"Terminus Chicoutimi","stopId":"1:1289","stopCode":"1289","lon":-71.066163,"lat":48.428677,"arrival":1522707060000,"departure":1522707300000,"zoneId":"NA","stopIndex":30,"stopSequence":31,"vertexType":"TRANSIT"},"legGeometry":{"points":"ealfHfa~pLgKsLqMgOmAbDAVSl@y@vBeCuCoCaDkDuE_@g@{FwGOMnA}CnA_DJWu@iAW[S[yI{MmBqC{@wAQUw@gAsDiF_B_CQYa@cA[_AUy@YcBOgAYHu@\\M`@cAiBuAyBkHgL{C{E}AcCc@o@q@gAOWwCyCyGyG_IaIs@rBEHwAtDmBvEOd@[bBK~AIf@YHE@Q@O?OCI_@GMEKI_AB_A?Yo@IKCIEIIKOEKCKe@}BKs@CQAUE_A@yCFcDVsLDaCD_@kBKW?e@Q_BQNuEDuBXmNLgHmKm@}BW{AMCn@o@G??","length":96},"routeShortName":"11","routeLongName":"Chic/Faubourg via St-Paul","rentedBike":false,"transitLeg":true,"duration":897.0,"steps":[]},{"startTime":1522707300000,"endTime":1522707633000,"departureDelay":0,"arrivalDelay":0,"realTime":false,"distance":1984.7943825378334,"pathway":false,"mode":"BUS","route":"20","agencyName":"Société de Transport du Saguenay","agencyUrl":"http://ville.saguenay.ca/fr/services-aux-citoyens/transport-sts","agencyTimeZoneOffset":-14400000,"routeColor":"0000FF","routeType":3,"routeId":"1:20","routeTextColor":"FFFFFF","interlineWithPreviousLeg":false,"tripBlockId":"1","headsign":"Terminus Chicoutimi","agencyId":"0","tripId":"1:217152","serviceDate":"20180402","from":{"name":"Terminus Chicoutimi","stopId":"1:1289","stopCode":"1289","lon":-71.066163,"lat":48.428677,"arrival":1522707060000,"departure":1522707300000,"zoneId":"NA","stopIndex":0,"stopSequence":1,"vertexType":"TRANSIT"},"to":{"name":"Roussel / Carillon","stopId":"1:678","stopCode":"678","lon":-71.074116,"lat":48.437686,"arrival":1522707633000,"departure":1522707634000,"zoneId":"NA","stopIndex":3,"stopSequence":4,"vertexType":"TRANSIT"},"legGeometry":{"points":"evqfHzcwpLg@?UhKwAIWACp@O\\WjGOfGCRK^KJMHQB_AMg@Gw`@eR}@g@u@Su@Ia@Ck@Dm@HwAf@c@VeAx@iAlAU^[d@eLtTsAvBg@bAPVd@t@PNNF@@P?TI`@YLITGV?NBTFRNNP`@OLCHGHIFMDSR{ARaBbDdAb@H`Fd@EbA","length":59},"routeShortName":"20","routeLongName":"Sainte-Claire","rentedBike":false,"transitLeg":true,"duration":333.0,"steps":[]},{"startTime":1522707634000,"endTime":1522707825000,"departureDelay":0,"arrivalDelay":0,"realTime":false,"distance":248.86899999999997,"pathway":false,"mode":"WALK","route":"","agencyTimeZoneOffset":-14400000,"interlineWithPreviousLeg":false,"from":{"name":"Roussel / Carillon","stopId":"1:678","stopCode":"678","lon":-71.074116,"lat":48.437686,"arrival":1522707633000,"departure":1522707634000,"zoneId":"NA","stopIndex":3,"stopSequence":4,"vertexType":"TRANSIT"},"to":{"name":"Destination","lon":-71.07753,"lat":48.436766,"arrival":1522707825000,"orig":"","vertexType":"NORMAL"},"legGeometry":{"points":"ansfHjtxpLCVKtBIv@C`@EZKf@GPKVKTjC~D","length":11},"rentedBike":false,"transitLeg":false,"duration":191.0,"steps":[{"distance":144.271,"relativeDirection":"DEPART","streetName":"Rue Roussel","absoluteDirection":"WEST","stayOn":false,"area":false,"bogusName":false,"lon":-71.07413181166046,"lat":48.4376181031952,"elevation":[]},{"distance":104.598,"relativeDirection":"LEFT","streetName":"Rue Saint-Alexis","absoluteDirection":"SOUTHWEST","stayOn":false,"area":false,"bogusName":false,"lon":-71.0759586,"lat":48.438014,"elevation":[]}]}],"tooSloped":false},{"duration":1911,"startTime":1522707714000,"endTime":1522709625000,"walkTime":439,"transitTime":1230,"waitingTime":242,"walkDistance":570.0296315772491,"walkLimitExceeded":false,"elevationLost":0.0,"elevationGained":0.0,"transfers":1,"legs":[{"startTime":1522707714000,"endTime":1522707962000,"departureDelay":0,"arrivalDelay":0,"realTime":false,"distance":321.10800000000006,"pathway":false,"mode":"WALK","route":"","agencyTimeZoneOffset":-14400000,"interlineWithPreviousLeg":false,"from":{"name":"Origin","lon":-71.10515599,"lat":48.399047,"departure":1522707714000,"orig":"","vertexType":"NORMAL"},"to":{"name":"boul. St-Paul / Actionnaires","stopId":"1:270","stopCode":"270","lon":-71.10171,"lat":48.399676,"arrival":1522707962000,"departure":1522707963000,"zoneId":"NA","stopIndex":10,"stopSequence":11,"vertexType":"TRANSIT"},"legGeometry":{"points":"y}kfHzt~pLFItBeHJ_@SWgFaG","length":6},"rentedBike":false,"transitLeg":false,"duration":248.0,"steps":[{"distance":146.57600000000002,"relativeDirection":"DEPART","streetName":"Rue Cossette","absoluteDirection":"SOUTHEAST","stayOn":false,"area":false,"bogusName":false,"lon":-71.10493731694658,"lat":48.399174355218044,"elevation":[]},{"distance":174.532,"relativeDirection":"LEFT","streetName":"Boulevard Saint-Paul","absoluteDirection":"NORTHEAST","stayOn":false,"area":false,"bogusName":false,"lon":-71.1032527,"lat":48.3984814,"elevation":[]}]},{"startTime":1522707963000,"endTime":1522708860000,"departureDelay":0,"arrivalDelay":0,"realTime":false,"distance":4757.394623345547,"pathway":false,"mode":"BUS","route":"11","agencyName":"Société de Transport du Saguenay","agencyUrl":"http://ville.saguenay.ca/fr/services-aux-citoyens/transport-sts","agencyTimeZoneOffset":-14400000,"routeColor":"FF0000","routeType":3,"routeId":"1:11","routeTextColor":"FFFFFF","interlineWithPreviousLeg":false,"tripBlockId":"35","headsign":"Terminus Chicoutimi","agencyId":"0","tripId":"1:218265","serviceDate":"20180402","from":{"name":"boul. St-Paul / Actionnaires","stopId":"1:270","stopCode":"270","lon":-71.10171,"lat":48.399676,"arrival":1522707962000,"departure":1522707963000,"zoneId":"NA","stopIndex":10,"stopSequence":11,"vertexType":"TRANSIT"},"to":{"name":"Terminus Chicoutimi","stopId":"1:1289","stopCode":"1289","lon":-71.066163,"lat":48.428677,"arrival":1522708860000,"departure":1522709100000,"zoneId":"NA","stopIndex":30,"stopSequence":31,"vertexType":"TRANSIT"},"legGeometry":{"points":"ealfHfa~pLgKsLqMgOmAbDAVSl@y@vBeCuCoCaDkDuE_@g@{FwGOMnA}CnA_DJWu@iAW[S[yI{MmBqC{@wAQUw@gAsDiF_B_CQYa@cA[_AUy@YcBOgAYHu@\\M`@cAiBuAyBkHgL{C{E}AcCc@o@q@gAOWwCyCyGyG_IaIs@rBEHwAtDmBvEOd@[bBK~AIf@YHE@Q@O?OCI_@GMEKI_AB_A?Yo@IKCIEIIKOEKCKe@}BKs@CQAUE_A@yCFcDVsLDaCD_@kBKW?e@Q_BQNuEDuBXmNLgHmKm@}BW{AMCn@o@G??","length":96},"routeShortName":"11","routeLongName":"Chic/Faubourg via St-Paul","rentedBike":false,"transitLeg":true,"duration":897.0,"steps":[]},{"startTime":1522709100000,"endTime":1522709433000,"departureDelay":0,"arrivalDelay":0,"realTime":false,"distance":1984.7943825378334,"pathway":false,"mode":"BUS","route":"20","agencyName":"Société de Transport du Saguenay","agencyUrl":"http://ville.saguenay.ca/fr/services-aux-citoyens/transport-sts","agencyTimeZoneOffset":-14400000,"routeColor":"0000FF","routeType":3,"routeId":"1:20","routeTextColor":"FFFFFF","interlineWithPreviousLeg":false,"tripBlockId":"3","headsign":"Terminus Chicoutimi","agencyId":"0","tripId":"1:217211","serviceDate":"20180402","from":{"name":"Terminus Chicoutimi","stopId":"1:1289","stopCode":"1289","lon":-71.066163,"lat":48.428677,"arrival":1522708860000,"departure":1522709100000,"zoneId":"NA","stopIndex":0,"stopSequence":1,"vertexType":"TRANSIT"},"to":{"name":"Roussel / Carillon","stopId":"1:678","stopCode":"678","lon":-71.074116,"lat":48.437686,"arrival":1522709433000,"departure":1522709434000,"zoneId":"NA","stopIndex":3,"stopSequence":4,"vertexType":"TRANSIT"},"legGeometry":{"points":"evqfHzcwpLg@?UhKwAIWACp@O\\WjGOfGCRK^KJMHQB_AMg@Gw`@eR}@g@u@Su@Ia@Ck@Dm@HwAf@c@VeAx@iAlAU^[d@eLtTsAvBg@bAPVd@t@PNNF@@P?TI`@YLITGV?NBTFRNNP`@OLCHGHIFMDSR{ARaBbDdAb@H`Fd@EbA","length":59},"routeShortName":"20","routeLongName":"Sainte-Claire","rentedBike":false,"transitLeg":true,"duration":333.0,"steps":[]},{"startTime":1522709434000,"endTime":1522709625000,"departureDelay":0,"arrivalDelay":0,"realTime":false,"distance":248.86899999999997,"pathway":false,"mode":"WALK","route":"","agencyTimeZoneOffset":-14400000,"interlineWithPreviousLeg":false,"from":{"name":"Roussel / Carillon","stopId":"1:678","stopCode":"678","lon":-71.074116,"lat":48.437686,"arrival":1522709433000,"departure":1522709434000,"zoneId":"NA","stopIndex":3,"stopSequence":4,"vertexType":"TRANSIT"},"to":{"name":"Destination","lon":-71.07753,"lat":48.436766,"arrival":1522709625000,"orig":"","vertexType":"NORMAL"},"legGeometry":{"points":"ansfHjtxpLCVKtBIv@C`@EZKf@GPKVKTjC~D","length":11},"rentedBike":false,"transitLeg":false,"duration":191.0,"steps":[{"distance":144.271,"relativeDirection":"DEPART","streetName":"Rue Roussel","absoluteDirection":"WEST","stayOn":false,"area":false,"bogusName":false,"lon":-71.07413181166046,"lat":48.4376181031952,"elevation":[]},{"distance":104.598,"relativeDirection":"LEFT","streetName":"Rue Saint-Alexis","absoluteDirection":"SOUTHWEST","stayOn":false,"area":false,"bogusName":false,"lon":-71.0759586,"lat":48.438014,"elevation":[]}]}],"tooSloped":false},{"duration":2235,"startTime":1522709514000,"endTime":1522711749000,"walkTime":796,"transitTime":1197,"waitingTime":242,"walkDistance":1024.2859774390602,"walkLimitExceeded":false,"elevationLost":0.0,"elevationGained":0.0,"transfers":1,"legs":[{"startTime":1522709514000,"endTime":1522709762000,"departureDelay":0,"arrivalDelay":0,"realTime":false,"distance":321.10800000000006,"pathway":false,"mode":"WALK","route":"","agencyTimeZoneOffset":-14400000,"interlineWithPreviousLeg":false,"from":{"name":"Origin","lon":-71.10515599,"lat":48.399047,"departure":1522709514000,"orig":"","vertexType":"NORMAL"},"to":{"name":"boul. St-Paul / Actionnaires","stopId":"1:270","stopCode":"270","lon":-71.10171,"lat":48.399676,"arrival":1522709762000,"departure":1522709763000,"zoneId":"NA","stopIndex":10,"stopSequence":11,"vertexType":"TRANSIT"},"legGeometry":{"points":"y}kfHzt~pLFItBeHJ_@SWgFaG","length":6},"rentedBike":false,"transitLeg":false,"duration":248.0,"steps":[{"distance":146.57600000000002,"relativeDirection":"DEPART","streetName":"Rue Cossette","absoluteDirection":"SOUTHEAST","stayOn":false,"area":false,"bogusName":false,"lon":-71.10493731694658,"lat":48.399174355218044,"elevation":[]},{"distance":174.532,"relativeDirection":"LEFT","streetName":"Boulevard Saint-Paul","absoluteDirection":"NORTHEAST","stayOn":false,"area":false,"bogusName":false,"lon":-71.1032527,"lat":48.3984814,"elevation":[]}]},{"startTime":1522709763000,"endTime":1522710660000,"departureDelay":0,"arrivalDelay":0,"realTime":false,"distance":4757.394623345547,"pathway":false,"mode":"BUS","route":"11","agencyName":"Société de Transport du Saguenay","agencyUrl":"http://ville.saguenay.ca/fr/services-aux-citoyens/transport-sts","agencyTimeZoneOffset":-14400000,"routeColor":"FF0000","routeType":3,"routeId":"1:11","routeTextColor":"FFFFFF","interlineWithPreviousLeg":false,"tripBlockId":"37","headsign":"Terminus Chicoutimi","agencyId":"0","tripId":"1:218327","serviceDate":"20180402","from":{"name":"boul. St-Paul / Actionnaires","stopId":"1:270","stopCode":"270","lon":-71.10171,"lat":48.399676,"arrival":1522709762000,"departure":1522709763000,"zoneId":"NA","stopIndex":10,"stopSequence":11,"vertexType":"TRANSIT"},"to":{"name":"Terminus Chicoutimi","stopId":"1:1289","stopCode":"1289","lon":-71.066163,"lat":48.428677,"arrival":1522710660000,"departure":1522710900000,"zoneId":"NA","stopIndex":30,"stopSequence":31,"vertexType":"TRANSIT"},"legGeometry":{"points":"ealfHfa~pLgKsLqMgOmAbDAVSl@y@vBeCuCoCaDkDuE_@g@{FwGOMnA}CnA_DJWu@iAW[S[yI{MmBqC{@wAQUw@gAsDiF_B_CQYa@cA[_AUy@YcBOgAYHu@\\M`@cAiBuAyBkHgL{C{E}AcCc@o@q@gAOWwCyCyGyG_IaIs@rBEHwAtDmBvEOd@[bBK~AIf@YHE@Q@O?OCI_@GMEKI_AB_A?Yo@IKCIEIIKOEKCKe@}BKs@CQAUE_A@yCFcDVsLDaCD_@kBKW?e@Q_BQNuEDuBXmNLgHmKm@}BW{AMCn@o@G??","length":96},"routeShortName":"11","routeLongName":"Chic/Faubourg via St-Paul","rentedBike":false,"transitLeg":true,"duration":897.0,"steps":[]},{"startTime":1522710900000,"endTime":1522711200000,"departureDelay":0,"arrivalDelay":0,"realTime":false,"distance":1644.4901640156816,"pathway":false,"mode":"BUS","route":"21","agencyName":"Société de Transport du Saguenay","agencyUrl":"http://ville.saguenay.ca/fr/services-aux-citoyens/transport-sts","agencyTimeZoneOffset":-14400000,"routeColor":"556B2F","routeType":3,"routeId":"1:21","routeTextColor":"FFFFFF","interlineWithPreviousLeg":false,"tripBlockId":"2","headsign":"Terminus Chicoutimi","agencyId":"0","tripId":"1:217180","serviceDate":"20180402","from":{"name":"Terminus Chicoutimi","stopId":"1:1289","stopCode":"1289","lon":-71.066163,"lat":48.428677,"arrival":1522710660000,"departure":1522710900000,"zoneId":"NA","stopIndex":0,"stopSequence":1,"vertexType":"TRANSIT"},"to":{"name":"boul. Ste-Geneviève / Champs","stopId":"1:705","stopCode":"705","lon":-71.074706,"lat":48.442337,"arrival":1522711200000,"departure":1522711201000,"zoneId":"NA","stopIndex":1,"stopSequence":2,"vertexType":"TRANSIT"},"legGeometry":{"points":"kwqfHjbwpLF_CeBSm@rRO\\WjGOfGCRK^KJMHQB_AMg@Gw`@eR}@g@u@Su@Ia@Ck@Dm@HwAf@c@VeAx@iAlAU^[d@eLtTsAvB_CvE","length":30},"routeShortName":"21","routeLongName":"Boul. Ste-Geneviève/Élie","rentedBike":false,"transitLeg":true,"duration":300.0,"steps":[]},{"startTime":1522711201000,"endTime":1522711749000,"departureDelay":0,"arrivalDelay":0,"realTime":false,"distance":703.0369999999999,"pathway":false,"mode":"WALK","route":"","agencyTimeZoneOffset":-14400000,"interlineWithPreviousLeg":false,"from":{"name":"boul. Ste-Geneviève / Champs","stopId":"1:705","stopCode":"705","lon":-71.074706,"lat":48.442337,"arrival":1522711200000,"departure":1522711201000,"zoneId":"NA","stopIndex":1,"stopSequence":2,"vertexType":"TRANSIT"},"to":{"name":"Destination","lon":-71.07753,"lat":48.436766,"arrival":1522711749000,"orig":"","vertexType":"NORMAL"},"legGeometry":{"points":"iktfHhxxpLnAeCRR^b@LNZLn@GbAo@z@NPDz@bCNd@JTTb@NZFN~@vAHH\\ZzBx@HM|A}AT[jC~D","length":24},"rentedBike":false,"transitLeg":false,"duration":548.0,"steps":[{"distance":66.393,"relativeDirection":"DEPART","streetName":"Boulevard Sainte-Geneviève","absoluteDirection":"SOUTHEAST","stayOn":false,"area":false,"bogusName":false,"lon":-71.07476154891728,"lat":48.442296311215706,"elevation":[]},{"distance":174.187,"relativeDirection":"RIGHT","streetName":"Rue des Champs","absoluteDirection":"SOUTHWEST","stayOn":false,"area":false,"bogusName":false,"lon":-71.0740944,"lat":48.4418955,"elevation":[]},{"distance":271.498,"relativeDirection":"SLIGHTLY_RIGHT","streetName":"Rue des Champs","absoluteDirection":"SOUTHWEST","stayOn":true,"area":false,"bogusName":false,"lon":-71.07435980000001,"lat":48.4404586,"elevation":[]},{"distance":86.361,"relativeDirection":"LEFT","streetName":"Rue Roussel","absoluteDirection":"SOUTHEAST","stayOn":false,"area":false,"bogusName":false,"lon":-71.07663450000001,"lat":48.4386467,"elevation":[]},{"distance":104.598,"relativeDirection":"RIGHT","streetName":"Rue Saint-Alexis","absoluteDirection":"SOUTHWEST","stayOn":false,"area":false,"bogusName":false,"lon":-71.0759586,"lat":48.438014,"elevation":[]}]}],"tooSloped":false}]},"debugOutput":{"precalculationTime":13,"pathCalculationTime":22,"pathTimes":[14,4,4],"renderingTime":0,"totalTime":35,"timedOut":false},"elevationMetadata":{"ellipsoidToGeoidDifference":-28.885904201182168,"geoidElevation":false}}