{"requestParameters":{"date":"2018/04/02","walkSpeed":"1.33","walkReluctance":"2.0","fromPlace":"48.423959,-71.042238","maxWalkDistance":"3000","waitReluctance":"1.0","carSpeed":"33","numItineraries":"3","waitAtBeginningFactor":"0.4","mode":"TRANSIT,WALK","ignoreRealtimeUpdates":"false","stairsReluctance":"2.0","toPlace":"48.442149,-71.085432","time":"16:30:00"},"plan":{"date":1522701000000,"from":{"name":"Origin","lon":-71.042238,"lat":48.423959,"orig":"","vertexType":"NORMAL"},"to":{"name":"Destination","lon":-71.085432,"lat":48.442149,"orig":"","vertexType":"NORMAL"},"itineraries":[{"duration":1818,"startTime":1522702673000,"endTime":1522704491000,"walkTime":504,"transitTime":1012,"waitingTime":302,"walkDistance":636.3406691691355,"walkLimitExceeded":false,"elevationLost":0.0,"elevationGained":0.0,"transfers":1,"legs":[{"startTime":1522702673000,"endTime":1522702822000,"departureDelay":0,"arrivalDelay":0,"realTime":false,"distance":183.524,"pathway":false,"mode":"WALK","route":"","agencyTimeZoneOffset":-14400000,"interlineWithPreviousLeg":false,"from":{"name":"Origin","lon":-71.042238,"lat":48.423959,"departure":1522702673000,"orig":"","vertexType":"NORMAL"},"to":{"name":"École Apostolique","stopId":"1:251","stopCode":"251","lon":-71.039839,"lat":48.42374,"arrival":1522702822000,"departure":1522702823000,"zoneId":"NA","stopIndex":10,"stopSequence":11,"vertexType":"TRANSIT"},"legGeometry":{"points":"oxpfHbmrpL@E?GAKCGIi@@cAPuB`@sE@G","length":10},"rentedBike":false,"transitLeg":false,"duration":149.0,"steps":[{"distance":10.175,"relativeDirection":"DEPART","streetName":"road","absoluteDirection":"EAST","stayOn":false,"area":false,"bogusName":false,"lon":-71.04225730300877,"lat":48.42392414707531,"elevation":[]},{"distance":3.504,"relativeDirection":"CIRCLE_CLOCKWISE","streetName":"road","absoluteDirection":"NORTHEAST","exit":"1","stayOn":false,"area":false,"bogusName":true,"lon":-71.0421232,"lat":48.4239235,"elevation":[]},{"distance":16.538,"relativeDirection":"CONTINUE","streetName":"Rue Jacques-Cartier Est","absoluteDirection":"NORTHEAST","stayOn":false,"area":false,"bogusName":false,"lon":-71.04208340000001,"lat":48.4239407,"elevation":[]},{"distance":153.30700000000002,"relativeDirection":"SLIGHTLY_RIGHT","streetName":"Rue Jacques Cartier","absoluteDirection":"EAST","stayOn":false,"area":false,"bogusName":false,"lon":-71.0418774,"lat":48.423999300000006,"elevation":[]}]},{"startTime":1522702823000,"endTime":1522703400000,"departureDelay":0,"arrivalDelay":0,"realTime":false,"distance":2511.128594145138,"pathway":false,"mode":"BUS","route":"10","agencyName":"Société de Transport du Saguenay","agencyUrl":"http://ville.saguenay.ca/fr/services-aux-citoyens/transport-sts","agencyTimeZoneOffset":-14400000,"routeColor":"0000FF","routeType":3,"routeId":"1:10","routeTextColor":"FFFFFF","interlineWithPreviousLeg":false,"tripBlockId":"28","headsign":"Terminus Chicoutimi","agencyId":"0","tripId":"1:218046","serviceDate":"20180402","from":{"name":"École Apostolique","stopId":"1:251","stopCode":"251","lon":-71.039839,"lat":48.42374,"arrival":1522702822000,"departure":1522702823000,"zoneId":"NA","stopIndex":10,"stopSequence":11,"vertexType":"TRANSIT"},"to":{"name":"Terminus Chicoutimi","stopId":"1:1289","stopCode":"1289","lon":-71.066163,"lat":48.428677,"arrival":1522703400000,"departure":1522703700000,"zoneId":"NA","stopIndex":21,"stopSequence":22,"vertexType":"TRANSIT"},"legGeometry":{"points":"ewpfH`~qpLKdAi@pGAr@GXMRG^Bb@`CV~IxB~ElAhChAsBtFaEvK_BhE}AfD{BdByBh@iC]oDq@YbF_Ea@AAuEg@MDENF|GAjJDzBDdDLdHFbCo@RUFRbFG|FApAMvFa@tPOnHqBOIjDc@Q","length":43},"routeShortName":"10","routeLongName":"Notre-Dame du Saguenay","rentedBike":false,"transitLeg":true,"duration":577.0,"steps":[]},{"startTime":1522703700000,"endTime":1522704135000,"departureDelay":0,"arrivalDelay":0,"realTime":false,"distance":2564.7507384376695,"pathway":false,"mode":"BUS","route":"20","agencyName":"Société de Transport du Saguenay","agencyUrl":"http://ville.saguenay.ca/fr/services-aux-citoyens/transport-sts","agencyTimeZoneOffset":-14400000,"routeColor":"0000FF","routeType":3,"routeId":"1:20","routeTextColor":"FFFFFF","interlineWithPreviousLeg":false,"tripBlockId":"102","headsign":"Terminus Chicoutimi","agencyId":"0","tripId":"1:218775","serviceDate":"20180402","from":{"name":"Terminus Chicoutimi","stopId":"1:1289","stopCode":"1289","lon":-71.066163,"lat":48.428677,"arrival":1522703400000,"departure":1522703700000,"zoneId":"NA","stopIndex":0,"stopSequence":1,"vertexType":"TRANSIT"},"to":{"name":"St-Albert / Roussel","stopId":"1:680","stopCode":"680","lon":-71.079859,"lat":48.441152,"arrival":1522704135000,"departure":1522704136000,"zoneId":"NA","stopIndex":5,"stopSequence":6,"vertexType":"TRANSIT"},"legGeometry":{"points":"evqfHzcwpLg@?UhKwAIWACp@O\\WjGOfGCRK^KJMHQB_AMg@Gw`@eR}@g@u@Su@Ia@Ck@Dm@HwAf@c@VeAx@iAlAU^[d@eLtTsAvBg@bAPVd@t@PNNF@@P?TI`@YLITGV?NBTFRNNP`@OLCHGHIFMDSR{ARaBbDdAb@H`Fd@EbAE`AIdBK`AOdAMd@EJKR}B~Bw@`Bs@dB]bAWb@q@jAaB|BkA~A}@nAu@I","length":76},"routeShortName":"20","routeLongName":"Sainte-Claire","rentedBike":false,"transitLeg":true,"duration":435.0,"steps":[]},{"startTime":1522704136000,"endTime":1522704491000,"departureDelay":0,"arrivalDelay":0,"realTime":false,"distance":452.699,"pathway":false,"mode":"WALK","route":"","agencyTimeZoneOffset":-14400000,"interlineWithPreviousLeg":false,"from":{"name":"St-Albert / Roussel","stopId":"1:680","stopCode":"680","lon":-71.079859,"lat":48.441152,"arrival":1522704135000,"departure":1522704136000,"zoneId":"NA","stopIndex":5,"stopSequence":6,"vertexType":"TRANSIT"},"to":{"name":"Destination","lon":-71.085432,"lat":48.442149,"arrival":1522704491000,"orig":"","vertexType":"NORMAL"},"legGeometry":{"points":"gdtfHzxypL?@D?h@LMPOVMTOn@CJCPAF?nAAjA?L?L?PANALCLALCJIZCLYrA[xAKd@EZGf@QvC?TK`D","length":31},"rentedBike":false,"transitLeg":false,"duration":355.0,"steps":[{"distance":26.952,"relativeDirection":"DEPART","streetName":"Rue Saint-Albert","absoluteDirection":"SOUTH","stayOn":false,"area":false,"bogusName":false,"lon":-71.0799793301524,"lat":48.441165372596494,"elevation":[]},{"distance":425.747,"relativeDirection":"HARD_RIGHT","streetName":"Rue Roussel","absoluteDirection":"NORTHWEST","stayOn":false,"area":false,"bogusName":false,"lon":-71.0800502,"lat":48.4409276,"elevation":[]}]}],"tooSloped":false},{"duration":2213,"startTime":1522702523000,"endTime":1522704736000,"walkTime":1292,"transitTime":619,"waitingTime":302,"walkDistance":1647.0553308179574,"walkLimitExceeded":false,"elevationLost":0.0,"elevationGained":0.0,"transfers":1,"legs":[{"startTime":1522702523000,"endTime":1522703099000,"departureDelay":0,"arrivalDelay":0,"realTime":false,"distance":726.7410000000002,"pathway":false,"mode":"WALK","route":"","agencyTimeZoneOffset":-14400000,"interlineWithPreviousLeg":false,"from":{"name":"Origin","lon":-71.042238,"lat":48.423959,"departure":1522702523000,"orig":"","vertexType":"NORMAL"},"to":{"name":"Hôpital de Chicoutimi (Saint-Vallier)","stopId":"1:410","stopCode":"410","lon":-71.050193,"lat":48.426282,"arrival":1522703099000,"departure":1522703100000,"zoneId":"NA","stopIndex":20,"stopSequence":21,"vertexType":"TRANSIT"},"legGeometry":{"points":"oxpfHbmrpL?@CFCDG@M\\GP_@fDObBQrBIv@YvC_AfLAFOtBCVC^YvCc@EEx@CnACf@GNQ?iB[_@E","length":26},"rentedBike":false,"transitLeg":false,"duration":576.0,"steps":[{"distance":7.305,"relativeDirection":"DEPART","streetName":"road","absoluteDirection":"NORTHWEST","stayOn":false,"area":false,"bogusName":false,"lon":-71.04225730300877,"lat":48.42392414707531,"elevation":[]},{"distance":3.922,"relativeDirection":"CIRCLE_COUNTERCLOCKWISE","streetName":"road","absoluteDirection":"NORTH","exit":"1","stayOn":false,"area":false,"bogusName":true,"lon":-71.04233,"lat":48.423967100000006,"elevation":[]},{"distance":534.418,"relativeDirection":"SLIGHTLY_LEFT","streetName":"Rue Jacques-Cartier Est","absoluteDirection":"NORTHWEST","stayOn":false,"area":false,"bogusName":false,"lon":-71.0423488,"lat":48.4240001,"elevation":[]},{"distance":19.537,"relativeDirection":"RIGHT","streetName":"path","absoluteDirection":"NORTH","stayOn":false,"area":false,"bogusName":true,"lon":-71.04933630000001,"lat":48.425208100000006,"elevation":[]},{"distance":66.589,"relativeDirection":"LEFT","streetName":"service road","absoluteDirection":"WEST","stayOn":true,"area":false,"bogusName":true,"lon":-71.0493017,"lat":48.4253823,"elevation":[]},{"distance":94.97,"relativeDirection":"RIGHT","streetName":"service road","absoluteDirection":"NORTH","stayOn":true,"area":false,"bogusName":true,"lon":-71.05019700000001,"lat":48.425456700000005,"elevation":[]}]},{"startTime":1522703100000,"endTime":1522703400000,"departureDelay":0,"arrivalDelay":0,"realTime":false,"distance":1235.9935925040847,"pathway":false,"mode":"BUS","route":"175","agencyName":"Société de Transport du Saguenay","agencyUrl":"http://ville.saguenay.ca/fr/services-aux-citoyens/transport-sts","agencyTimeZoneOffset":-14400000,"routeColor":"FF00FF","routeType":3,"routeId":"1:175","routeTextColor":"FFFFFF","interlineWithPreviousLeg":false,"tripBlockId":"11","headsign":"Terminus Chicoutimi","agencyId":"0","tripId":"1:217482","serviceDate":"20180402","from":{"name":"Hôpital de Chicoutimi (Saint-Vallier)","stopId":"1:410","stopCode":"410","lon":-71.050193,"lat":48.426282,"arrival":1522703099000,"departure":1522703100000,"zoneId":"NA","stopIndex":20,"stopSequence":21,"vertexType":"TRANSIT"},"to":{"name":"Terminus Chicoutimi","stopId":"1:1289","stopCode":"1289","lon":-71.066163,"lat":48.428677,"arrival":1522703400000,"departure":1522703700000,"zoneId":"NA","stopIndex":27,"stopSequence":28,"vertexType":"TRANSIT"},"legGeometry":{"points":"ggqfHh_tpLcFk@?pH?tJDvBPjMB~Bo@PQDRbFKdGMhIOvIK|EQpHoCQEdC","length":17},"routeShortName":"175","routeLongName":"Term. Chic / Costco","rentedBike":false,"transitLeg":true,"duration":300.0,"steps":[]},{"startTime":1522703700000,"endTime":1522704019000,"departureDelay":0,"arrivalDelay":0,"realTime":false,"distance":2130.322985965611,"pathway":false,"mode":"BUS","route":"23","agencyName":"Société de Transport du Saguenay","agencyUrl":"http://ville.saguenay.ca/fr/services-aux-citoyens/transport-sts","agencyTimeZoneOffset":-14400000,"routeColor":"FF00FF","routeType":3,"routeId":"1:23","routeTextColor":"FFFFFF","interlineWithPreviousLeg":false,"tripBlockId":"4","headsign":"Terminus Chicoutimi","agencyId":"0","tripId":"1:217244","serviceDate":"20180402","from":{"name":"Terminus Chicoutimi","stopId":"1:1289","stopCode":"1289","lon":-71.066163,"lat":48.428677,"arrival":1522703400000,"departure":1522703700000,"zoneId":"NA","stopIndex":0,"stopSequence":1,"vertexType":"TRANSIT"},"to":{"name":"Place de la Colline (boul. Ste-Geneviève)","stopId":"1:706","stopCode":"706","lon":-71.080094,"lat":48.44485,"arrival":1522704019000,"departure":1522704020000,"zoneId":"NA","stopIndex":2,"stopSequence":3,"vertexType":"TRANSIT"},"legGeometry":{"points":"kwqfHjbwpLF_CkAOYCm@rRO\\WjGOfGCRK^KJMHQB_AMg@Gw`@eR}@g@u@Su@Ia@Ck@Dm@HwAf@c@VeAx@iAlAU^[d@eLtTsAvB_CvEuAnCmBlE}@|B_BvFoC`J","length":36},"routeShortName":"23","routeLongName":"Côte Verdun via Aréna du Plateau","rentedBike":false,"transitLeg":true,"duration":319.0,"steps":[]},{"startTime":1522704020000,"endTime":1522704736000,"departureDelay":0,"arrivalDelay":0,"realTime":false,"distance":920.0319999999999,"pathway":false,"mode":"WALK","route":"","agencyTimeZoneOffset":-14400000,"interlineWithPreviousLeg":false,"from":{"name":"Place de la Colline (boul. Ste-Geneviève)","stopId":"1:706","stopCode":"706","lon":-71.080094,"lat":48.44485,"arrival":1522704019000,"departure":1522704020000,"zoneId":"NA","stopIndex":2,"stopSequence":3,"vertexType":"TRANSIT"},"to":{"name":"Destination","lon":-71.085432,"lat":48.442149,"arrival":1522704736000,"orig":"","vertexType":"NORMAL"},"legGeometry":{"points":"a{tfHxyypLdBkFPRb@`@TJ\\LhCv@nBn@PFNDZDd@DXAb@?`@C^?\\?L@?@D?h@LMPOVMTOn@CJCPAF?nAAjA?L?L?PANALCLALCJIZCLYrA[xAKd@EZGf@QvC?TK`D","length":48},"rentedBike":false,"transitLeg":false,"duration":716.0,"steps":[{"distance":103.974,"relativeDirection":"DEPART","streetName":"Boulevard Sainte-Geneviève","absoluteDirection":"SOUTHEAST","stayOn":false,"area":false,"bogusName":false,"lon":-71.08012797466124,"lat":48.44481509343017,"elevation":[]},{"distance":390.311,"relativeDirection":"RIGHT","streetName":"Rue Saint-Albert","absoluteDirection":"SOUTHWEST","stayOn":false,"area":false,"bogusName":false,"lon":-71.07894370000001,"lat":48.444307900000005,"elevation":[]},{"distance":425.747,"relativeDirection":"HARD_RIGHT","streetName":"Rue Roussel","absoluteDirection":"NORTHWEST","stayOn":false,"area":false,"bogusName":false,"lon":-71.0800502,"lat":48.4409276,"elevation":[]}]}],"tooSloped":false},{"duration":1856,"startTime":1522703259000,"endTime":1522705115000,"walkTime":1515,"transitTime":339,"waitingTime":2,"walkDistance":1942.0891052553454,"walkLimitExceeded":false,"elevationLost":0.0,"elevationGained":0.0,"transfers":0,"legs":[{"startTime":1522703259000,"endTime":1522704058000,"departureDelay":0,"arrivalDelay":0,"realTime":false,"distance":1021.8149999999998,"pathway":false,"mode":"WALK","route":"","agencyTimeZoneOffset":-14400000,"interlineWithPreviousLeg":false,"from":{"name":"Origin","lon":-71.042238,"lat":48.423959,"departure":1522703259000,"orig":"","vertexType":"NORMAL"},"to":{"name":"Résidence de l' UQAC","stopId":"1:64","stopCode":"64","lon":-71.052396,"lat":48.421595,"arrival":1522704058000,"departure":1522704059000,"zoneId":"NA","stopIndex":7,"stopSequence":8,"vertexType":"TRANSIT"},"legGeometry":{"points":"oxpfHbmrpL?@CFCDG@M\\GP_@fDObBQrBIv@YvC_AfLrAPTFJBJLBXEd@e@bGjAZ?^DbABDp@XLFJHd@ZJFXNV^h@l@ZVb@`@nAlAVPRPb@^TRLJTT","length":41},"rentedBike":false,"transitLeg":false,"duration":799.0,"steps":[{"distance":7.305,"relativeDirection":"DEPART","streetName":"road","absoluteDirection":"NORTHWEST","stayOn":false,"area":false,"bogusName":false,"lon":-71.04225730300877,"lat":48.42392414707531,"elevation":[]},{"distance":3.922,"relativeDirection":"CIRCLE_COUNTERCLOCKWISE","streetName":"road","absoluteDirection":"NORTH","exit":"1","stayOn":false,"area":false,"bogusName":true,"lon":-71.04233,"lat":48.423967100000006,"elevation":[]},{"distance":407.407,"relativeDirection":"SLIGHTLY_LEFT","streetName":"Rue Jacques-Cartier Est","absoluteDirection":"NORTHWEST","stayOn":false,"area":false,"bogusName":false,"lon":-71.0423488,"lat":48.4240001,"elevation":[]},{"distance":197.333,"relativeDirection":"LEFT","streetName":"Rue Duberger","absoluteDirection":"SOUTH","stayOn":false,"area":false,"bogusName":false,"lon":-71.047663,"lat":48.424941800000006,"elevation":[]},{"distance":43.677,"relativeDirection":"LEFT","streetName":"Chemin Sydenham","absoluteDirection":"SOUTH","stayOn":false,"area":false,"bogusName":false,"lon":-71.0495042,"lat":48.4244963,"elevation":[]},{"distance":37.224000000000004,"relativeDirection":"RIGHT","streetName":"road","absoluteDirection":"WEST","stayOn":false,"area":false,"bogusName":true,"lon":-71.0496408,"lat":48.424114100000004,"elevation":[]},{"distance":263.87899999999996,"relativeDirection":"LEFT","streetName":"road","absoluteDirection":"SOUTH","stayOn":true,"area":false,"bogusName":true,"lon":-71.0501431,"lat":48.4240852,"elevation":[]},{"distance":61.068,"relativeDirection":"CONTINUE","streetName":"Chemin Saint Thomas","absoluteDirection":"SOUTHWEST","stayOn":false,"area":false,"bogusName":false,"lon":-71.051902,"lat":48.4220343,"elevation":[]}]},{"startTime":1522704059000,"endTime":1522704398000,"departureDelay":0,"arrivalDelay":0,"realTime":false,"distance":4135.568026324689,"pathway":false,"mode":"BUS","route":"27","agencyName":"Société de Transport du Saguenay","agencyUrl":"http://ville.saguenay.ca/fr/services-aux-citoyens/transport-sts","agencyTimeZoneOffset":-14400000,"routeColor":"00FFFF","routeType":3,"routeId":"1:27","routeTextColor":"000000","interlineWithPreviousLeg":false,"tripBlockId":"100","headsign":"Terminus Chicoutimi","agencyId":"0","tripId":"1:218761","serviceDate":"20180402","from":{"name":"Résidence de l' UQAC","stopId":"1:64","stopCode":"64","lon":-71.052396,"lat":48.421595,"arrival":1522704058000,"departure":1522704059000,"zoneId":"NA","stopIndex":7,"stopSequence":8,"vertexType":"TRANSIT"},"to":{"name":"Place de la Colline (boul. Ste-Geneviève)","stopId":"1:706","stopCode":"706","lon":-71.080094,"lat":48.44485,"arrival":1522704398000,"departure":1522704399000,"zoneId":"NA","stopIndex":11,"stopSequence":12,"vertexType":"TRANSIT"},"legGeometry":{"points":"wipfH`ltpLzA|AtCsIFIHAtEpE~B`CVRPl@fDfD~@~@JJt@lAP`@ZP_SbQmApA_@h@Ub@Uh@U|@Qh@[xASlDaBjt@OjKIt@StAOl@Mp@]l@]L]K_A{@{@o@e@OwEa@kBKW?{El@}@D}PNgBM[Is@Qs@Usb@gS}@g@u@Su@Ia@Ck@Dm@HwAf@c@VeAx@iAlAU^[d@eLtTsAvBQ\\Ud@wArCuAnCmBlE}@|B_BvFoC`J","length":69},"routeShortName":"27","routeLongName":"St-Honoré","rentedBike":false,"transitLeg":true,"duration":339.0,"steps":[]},{"startTime":1522704399000,"endTime":1522705115000,"departureDelay":0,"arrivalDelay":0,"realTime":false,"distance":920.0319999999999,"pathway":false,"mode":"WALK","route":"","agencyTimeZoneOffset":-14400000,"interlineWithPreviousLeg":false,"from":{"name":"Place de la Colline (boul. Ste-Geneviève)","stopId":"1:706","stopCode":"706","lon":-71.080094,"lat":48.44485,"arrival":1522704398000,"departure":1522704399000,"zoneId":"NA","stopIndex":11,"stopSequence":12,"vertexType":"TRANSIT"},"to":{"name":"Destination","lon":-71.085432,"lat":48.442149,"arrival":1522705115000,"orig":"","vertexType":"NORMAL"},"legGeometry":{"points":"a{tfHxyypLdBkFPRb@`@TJ\\LhCv@nBn@PFNDZDd@DXAb@?`@C^?\\?L@?@D?h@LMPOVMTOn@CJCPAF?nAAjA?L?L?PANALCLALCJIZCLYrA[xAKd@EZGf@QvC?TK`D","length":48},"rentedBike":false,"transitLeg":false,"duration":716.0,"steps":[{"distance":103.974,"relativeDirection":"DEPART","streetName":"Boulevard Sainte-Geneviève","absoluteDirection":"SOUTHEAST","stayOn":false,"area":false,"bogusName":false,"lon":-71.08012797466124,"lat":48.44481509343017,"elevation":[]},{"distance":390.311,"relativeDirection":"RIGHT","streetName":"Rue Saint-Albert","absoluteDirection":"SOUTHWEST","stayOn":false,"area":false,"bogusName":false,"lon":-71.07894370000001,"lat":48.444307900000005,"elevation":[]},{"distance":425.747,"relativeDirection":"HARD_RIGHT","streetName":"Rue Roussel","absoluteDirection":"NORTHWEST","stayOn":false,"area":false,"bogusName":false,"lon":-71.0800502,"lat":48.4409276,"elevation":[]}]}],"tooSloped":false}]},"debugOutput":{"precalculationTime":27,"pathCalculationTime":57,"pathTimes":[26,15,16],"renderingTime":1,"totalTime":85,"timedOut":false},"elevationMetadata":{"ellipsoidToGeoidDifference":-28.885904201182168,"geoidElevation":false}}