{"requestParameters":{"date":"2018/04/02","walkSpeed":"1.33","walkReluctance":"2.0","fromPlace":"48.439839,-71.072699","maxWalkDistance":"3000","waitReluctance":"1.0","carSpeed":"33","numItineraries":"3","waitAtBeginningFactor":"0.4","mode":"TRANSIT,WALK","ignoreRealtimeUpdates":"false","stairsReluctance":"2.0","toPlace":"48.393977,-71.067824","time":"13:0:00"},"plan":{"date":1522688400000,"from":{"name":"Origin","lon":-71.072699,"lat":48.439839,"orig":"","vertexType":"NORMAL"},"to":{"name":"Destination","lon":-71.067824,"lat":48.393977,"orig":"","vertexType":"NORMAL"},"itineraries":[{"duration":2392,"startTime":1522688471000,"endTime":1522690863000,"walkTime":590,"transitTime":1500,"waitingTime":302,"walkDistance":759.5696691691355,"walkLimitExceeded":false,"elevationLost":0.0,"elevationGained":0.0,"transfers":1,"legs":[{"startTime":1522688471000,"endTime":1522688759000,"departureDelay":0,"arrivalDelay":0,"realTime":false,"distance":372.682,"pathway":false,"mode":"WALK","route":"","agencyTimeZoneOffset":-14400000,"interlineWithPreviousLeg":false,"from":{"name":"Origin","lon":-71.072699,"lat":48.439839,"departure":1522688471000,"orig":"","vertexType":"NORMAL"},"to":{"name":"boul. Ste-Geneviève (no. 453)","stopId":"1:736","stopCode":"736","lon":-71.0749,"lat":48.4422,"arrival":1522688759000,"departure":1522688760000,"zoneId":"NA","stopIndex":32,"stopSequence":33,"vertexType":"TRANSIT"},"legGeometry":{"points":"}zsfHzkxpLQvAWFS@u@@_@Eg@Ma@Qu@WeC`FMRsAhC","length":12},"rentedBike":false,"transitLeg":false,"duration":288.0,"steps":[{"distance":34.187,"relativeDirection":"DEPART","streetName":"Rue de la Reine","absoluteDirection":"WEST","stayOn":false,"area":false,"bogusName":false,"lon":-71.07277675623843,"lat":48.439670969595255,"elevation":[]},{"distance":147.373,"relativeDirection":"RIGHT","streetName":"Rue de Carillon","absoluteDirection":"NORTH","stayOn":false,"area":false,"bogusName":false,"lon":-71.0732198,"lat":48.4397612,"elevation":[]},{"distance":191.122,"relativeDirection":"LEFT","streetName":"Boulevard Sainte-Geneviève","absoluteDirection":"NORTHWEST","stayOn":false,"area":false,"bogusName":false,"lon":-71.0729661,"lat":48.4410559,"elevation":[]}]},{"startTime":1522688760000,"endTime":1522689000000,"departureDelay":0,"arrivalDelay":0,"realTime":false,"distance":1742.5227930095011,"pathway":false,"mode":"BUS","route":"21","agencyName":"Société de Transport du Saguenay","agencyUrl":"http://ville.saguenay.ca/fr/services-aux-citoyens/transport-sts","agencyTimeZoneOffset":-14400000,"routeColor":"556B2F","routeType":3,"routeId":"1:21","routeTextColor":"FFFFFF","interlineWithPreviousLeg":false,"tripBlockId":"2","headsign":"Terminus Chicoutimi","agencyId":"0","tripId":"1:217168","serviceDate":"20180402","from":{"name":"boul. Ste-Geneviève (no. 453)","stopId":"1:736","stopCode":"736","lon":-71.0749,"lat":48.4422,"arrival":1522688759000,"departure":1522688760000,"zoneId":"NA","stopIndex":32,"stopSequence":33,"vertexType":"TRANSIT"},"to":{"name":"Terminus Chicoutimi","stopId":"1:1289","stopCode":"1289","lon":-71.066163,"lat":48.428677,"arrival":1522689000000,"departure":1522689300000,"zoneId":"NA","stopIndex":34,"stopSequence":35,"vertexType":"TRANSIT"},"legGeometry":{"points":"yjtfH`yxpLxAsCrCmFhHqN~@eBr@cAt@_Av@}@RQPMz@k@tAe@REZG^Af@@X@VF`@Jn@XbClAr@Xt\\`PrAb@pA^hBTjAFj@Pb@JPHLLJNJRFXDT?X?ZEVEVKTMNMHMFOB}DWSGOSYcAN}FFkAF}DJyDPwGvAHVyL","length":55},"routeShortName":"21","routeLongName":"Boul. Ste-Geneviève/Élie","rentedBike":false,"transitLeg":true,"duration":240.0,"steps":[]},{"startTime":1522689300000,"endTime":1522690560000,"departureDelay":0,"arrivalDelay":0,"realTime":false,"distance":6410.862357303791,"pathway":false,"mode":"BUS","route":"175","agencyName":"Société de Transport du Saguenay","agencyUrl":"http://ville.saguenay.ca/fr/services-aux-citoyens/transport-sts","agencyTimeZoneOffset":-14400000,"routeColor":"FF00FF","routeType":3,"routeId":"1:175","routeTextColor":"FFFFFF","interlineWithPreviousLeg":false,"tripBlockId":"7","headsign":"Costco","agencyId":"0","tripId":"1:217334","serviceDate":"20180402","from":{"name":"Terminus Chicoutimi","stopId":"1:1289","stopCode":"1289","lon":-71.066163,"lat":48.428677,"arrival":1522689000000,"departure":1522689300000,"zoneId":"NA","stopIndex":0,"stopSequence":1,"vertexType":"TRANSIT"},"to":{"name":"boul. Talbot (no. 1870)","stopId":"1:1556","stopCode":"1556","lon":-71.069429,"lat":48.3951,"arrival":1522690560000,"departure":1522690561000,"zoneId":"NA","stopIndex":24,"stopSequence":25,"vertexType":"TRANSIT"},"legGeometry":{"points":"kvqfH~awpL~CgBbAqa@FwCBkAOsHAg@bAYUwMKoE@mB@kJ@iFbEf@xEj@iCtYp@r@z@`ABBvHtHXRx@l@VwAvAgB\\qBIuAC]g@yEzDuLbBbBvAxAMx@|@v@`A~@Xw@~D~DPxFZtA~ApE`N{LpFmEb@[ROl@[vDQXKfA[|@q@fAsBlEmMr@sBhCsKz@dAjB|@dM`GzCvAXrCr@~Gx@]PEr@ObACn@FrBb@|@Ch@Kx@U~HsB^KZ|DJpII~Fa@rFUzBi@bDUxAm@nCcAlDM^RTfD`DjF`FjCrCrAvAbCfDjIfMdAzAfFpHd@n@nC`D","length":90},"routeShortName":"175","routeLongName":"Term. Chic / Costco","rentedBike":false,"transitLeg":true,"duration":1260.0,"steps":[]},{"startTime":1522690561000,"endTime":1522690863000,"departureDelay":0,"arrivalDelay":0,"realTime":false,"distance":386.77,"pathway":false,"mode":"WALK","route":"","agencyTimeZoneOffset":-14400000,"interlineWithPreviousLeg":false,"from":{"name":"boul. Talbot (no. 1870)","stopId":"1:1556","stopCode":"1556","lon":-71.069429,"lat":48.3951,"arrival":1522690560000,"departure":1522690561000,"zoneId":"NA","stopIndex":24,"stopSequence":25,"vertexType":"TRANSIT"},"to":{"name":"Destination","lon":-71.067824,"lat":48.393977,"arrival":1522690863000,"orig":"","vertexType":"NORMAL"},"legGeometry":{"points":"adkfHjvwpL~DxENPPc@FQ@CnA{C@EV_@eDyE","length":10},"rentedBike":false,"transitLeg":false,"duration":302.0,"steps":[{"distance":145.045,"relativeDirection":"DEPART","streetName":"Boulevard Talbot","absoluteDirection":"SOUTHWEST","stayOn":false,"area":false,"bogusName":false,"lon":-71.0693341574882,"lat":48.39505259726926,"elevation":[]},{"distance":16.634,"relativeDirection":"LEFT","streetName":"Boulevard Barrette","absoluteDirection":"SOUTHEAST","stayOn":false,"area":false,"bogusName":false,"lon":-71.0705155,"lat":48.394010400000006,"elevation":[]},{"distance":102.842,"relativeDirection":"CONTINUE","streetName":"Rue Des Roitelets","absoluteDirection":"SOUTHEAST","stayOn":false,"area":false,"bogusName":false,"lon":-71.0703318,"lat":48.3939238,"elevation":[]},{"distance":122.249,"relativeDirection":"LEFT","streetName":"Rue des Sapins","absoluteDirection":"NORTHEAST","stayOn":false,"area":false,"bogusName":false,"lon":-71.0692502,"lat":48.3933437,"elevation":[]}]}],"tooSloped":false},{"duration":2253,"startTime":1522688730000,"endTime":1522690983000,"walkTime":182,"transitTime":1769,"waitingTime":302,"walkDistance":231.85247368293682,"walkLimitExceeded":false,"elevationLost":0.0,"elevationGained":0.0,"transfers":1,"legs":[{"startTime":1522688730000,"endTime":1522688790000,"departureDelay":0,"arrivalDelay":0,"realTime":false,"distance":77.06099999999999,"pathway":false,"mode":"WALK","route":"","agencyTimeZoneOffset":-14400000,"interlineWithPreviousLeg":false,"from":{"name":"Origin","lon":-71.072699,"lat":48.439839,"departure":1522688730000,"orig":"","vertexType":"NORMAL"},"to":{"name":"Masson / Carillon","stopId":"1:703","stopCode":"703","lon":-71.073756,"lat":48.439914,"arrival":1522688790000,"departure":1522688791000,"zoneId":"NA","stopIndex":28,"stopSequence":29,"vertexType":"TRANSIT"},"legGeometry":{"points":"}zsfHzkxpLQvAE^Kz@ER","length":5},"rentedBike":false,"transitLeg":false,"duration":60.0,"steps":[{"distance":34.187,"relativeDirection":"DEPART","streetName":"Rue de la Reine","absoluteDirection":"WEST","stayOn":false,"area":false,"bogusName":false,"lon":-71.07277675623843,"lat":48.439670969595255,"elevation":[]},{"distance":42.874,"relativeDirection":"CONTINUE","streetName":"Rue Masson","absoluteDirection":"WEST","stayOn":false,"area":false,"bogusName":false,"lon":-71.0732198,"lat":48.4397612,"elevation":[]}]},{"startTime":1522688791000,"endTime":1522689000000,"departureDelay":0,"arrivalDelay":0,"realTime":false,"distance":1858.5062849748977,"pathway":false,"mode":"BUS","route":"20","agencyName":"Société de Transport du Saguenay","agencyUrl":"http://ville.saguenay.ca/fr/services-aux-citoyens/transport-sts","agencyTimeZoneOffset":-14400000,"routeColor":"0000FF","routeType":3,"routeId":"1:20","routeTextColor":"FFFFFF","interlineWithPreviousLeg":false,"tripBlockId":"3","headsign":"Terminus Chicoutimi","agencyId":"0","tripId":"1:217199","serviceDate":"20180402","from":{"name":"Masson / Carillon","stopId":"1:703","stopCode":"703","lon":-71.073756,"lat":48.439914,"arrival":1522688790000,"departure":1522688791000,"zoneId":"NA","stopIndex":28,"stopSequence":29,"vertexType":"TRANSIT"},"to":{"name":"Terminus Chicoutimi","stopId":"1:1289","stopCode":"1289","lon":-71.066163,"lat":48.428677,"arrival":1522689000000,"departure":1522689300000,"zoneId":"NA","stopIndex":31,"stopSequence":32,"vertexType":"TRANSIT"},"legGeometry":{"points":"c|sfHdrxpLOfAERGLIHIFMBa@NOQSOUGOCW?UFMHa@XUHQ?QIQOIM[g@rCmFhHqN~@eBr@cAt@_Av@}@RQPMz@k@tAe@REZG^Af@@X@VF`@Jn@XbClAr@Xt\\`PrAb@pA^hBTjAFj@Pb@JPHLLJNJRFXDT?X?ZEVEVKTMNMHMFOB}DWSGOSYcAN}FFkAF}DJyDPwGj@_QjAN~ALIpBGVITe@@","length":80},"routeShortName":"20","routeLongName":"Sainte-Claire","rentedBike":false,"transitLeg":true,"duration":209.0,"steps":[]},{"startTime":1522689300000,"endTime":1522690860000,"departureDelay":0,"arrivalDelay":0,"realTime":false,"distance":9446.02109778282,"pathway":false,"mode":"BUS","route":"14","agencyName":"Société de Transport du Saguenay","agencyUrl":"http://ville.saguenay.ca/fr/services-aux-citoyens/transport-sts","agencyTimeZoneOffset":-14400000,"routeColor":"C0C000","routeType":3,"routeId":"1:14","routeTextColor":"000000","interlineWithPreviousLeg":false,"tripBlockId":"32","headsign":"Talbot / Barrette","agencyId":"0","tripId":"1:218160","serviceDate":"20180402","from":{"name":"Terminus Chicoutimi","stopId":"1:1289","stopCode":"1289","lon":-71.066163,"lat":48.428677,"arrival":1522689000000,"departure":1522689300000,"zoneId":"NA","stopIndex":0,"stopSequence":1,"vertexType":"TRANSIT"},"to":{"name":"Roitelets / Sapins","stopId":"1:1543","stopCode":"1543","lon":-71.069553,"lat":48.393375,"arrival":1522690860000,"departure":1522690861000,"zoneId":"NA","stopIndex":35,"stopSequence":36,"vertexType":"TRANSIT"},"legGeometry":{"points":"qvqfHnbwpLJkClLh@DsDTmSHwFB{I@m@@eBH_AF}A@w@Dq@@i@B}B@Y@e@D]F_@@SHQCKnBnBvIrIn@n@\\iATg@v@_ATg@LmABg@Is@c@iEAm@bAcDTcAtA{DJI|AxAvAvAQv@~@z@dA`ATq@`E~DL`@E`Ex@hDd@`B}FtFaAzAm@xAe@jCa@nDiAbm@SpKM`H]vBhDVzCTcAvCO^bEbEzK`LfBeEtK`KhAdAnCbCvBpCNR~BxAxBf@z@h@vAz@z@{DrCoITTlElEtAnB`@l@pFrD@?fDr@XgAjFuR\\yADm@b@gFd@_B`A}@tEvJBDvC`FtJ|LLNlClC|@^hCYVExCjCb@d@vE`F`BhB?pHaBhRqAbLK~@qBxFqB|FcC~GyC\\aDkDcFsF~CgOtGm[j@oCvEoSl@_CxCmLjAeFpCeKrByHfAqCvH_SLa@","length":125},"routeShortName":"14","routeLongName":"Coopérative","rentedBike":false,"transitLeg":true,"duration":1560.0,"steps":[]},{"startTime":1522690861000,"endTime":1522690983000,"departureDelay":0,"arrivalDelay":0,"realTime":false,"distance":154.752,"pathway":false,"mode":"WALK","route":"","agencyTimeZoneOffset":-14400000,"interlineWithPreviousLeg":false,"from":{"name":"Roitelets / Sapins","stopId":"1:1543","stopCode":"1543","lon":-71.069553,"lat":48.393375,"arrival":1522690860000,"departure":1522690861000,"zoneId":"NA","stopIndex":35,"stopSequence":36,"vertexType":"TRANSIT"},"to":{"name":"Destination","lon":-71.067824,"lat":48.393977,"arrival":1522690983000,"orig":"","vertexType":"NORMAL"},"legGeometry":{"points":"oyjfHxwwpLTm@QOeDyE","length":4},"rentedBike":false,"transitLeg":false,"duration":122.0,"steps":[{"distance":21.055,"relativeDirection":"DEPART","streetName":"bike path","absoluteDirection":"SOUTHEAST","stayOn":false,"area":false,"bogusName":true,"lon":-71.0695674967601,"lat":48.39336056343373,"elevation":[]},{"distance":11.448,"relativeDirection":"LEFT","streetName":"path","absoluteDirection":"NORTHEAST","stayOn":true,"area":false,"bogusName":true,"lon":-71.06933020000001,"lat":48.3932555,"elevation":[]},{"distance":122.249,"relativeDirection":"CONTINUE","streetName":"Rue des Sapins","absoluteDirection":"NORTHEAST","stayOn":false,"area":false,"bogusName":false,"lon":-71.0692502,"lat":48.3933437,"elevation":[]}]}],"tooSloped":false},{"duration":2533,"startTime":1522688510000,"endTime":1522691043000,"walkTime":463,"transitTime":1828,"waitingTime":242,"walkDistance":591.6080751837728,"walkLimitExceeded":false,"elevationLost":0.0,"elevationGained":0.0,"transfers":1,"legs":[{"startTime":1522688510000,"endTime":1522688851000,"departureDelay":0,"arrivalDelay":0,"realTime":false,"distance":436.726,"pathway":false,"mode":"WALK","route":"","agencyTimeZoneOffset":-14400000,"interlineWithPreviousLeg":false,"from":{"name":"Origin","lon":-71.072699,"lat":48.439839,"departure":1522688510000,"orig":"","vertexType":"NORMAL"},"to":{"name":"Liberté / Roussel","stopId":"1:833","stopCode":"833","lon":-71.069708,"lat":48.437999,"arrival":1522688851000,"departure":1522688852000,"zoneId":"NA","stopIndex":33,"stopSequence":34,"vertexType":"TRANSIT"},"legGeometry":{"points":"}zsfHzkxpLFe@QQU[GOGQGSCOCKEOEMKYQW|AwCrAmCfAcBf@k@ZTb@VdAd@P?","length":21},"rentedBike":false,"transitLeg":false,"duration":341.0,"steps":[{"distance":15.144,"relativeDirection":"DEPART","streetName":"Rue de la Reine","absoluteDirection":"EAST","stayOn":false,"area":false,"bogusName":false,"lon":-71.07277675623843,"lat":48.439670969595255,"elevation":[]},{"distance":102.176,"relativeDirection":"LEFT","streetName":"Rue des Hydrangées","absoluteDirection":"NORTHEAST","stayOn":false,"area":false,"bogusName":false,"lon":-71.0725805,"lat":48.439631000000006,"elevation":[]},{"distance":229.39800000000002,"relativeDirection":"RIGHT","streetName":"Boulevard Sainte-Geneviève","absoluteDirection":"SOUTHEAST","stayOn":false,"area":false,"bogusName":false,"lon":-71.07154390000001,"lat":48.440209900000006,"elevation":[]},{"distance":90.008,"relativeDirection":"RIGHT","streetName":"Rue de la Liberté","absoluteDirection":"SOUTHWEST","stayOn":false,"area":false,"bogusName":false,"lon":-71.0693565,"lat":48.4387504,"elevation":[]}]},{"startTime":1522688852000,"endTime":1522689060000,"departureDelay":0,"arrivalDelay":0,"realTime":false,"distance":1224.3728011189307,"pathway":false,"mode":"BUS","route":"24","agencyName":"Société de Transport du Saguenay","agencyUrl":"http://ville.saguenay.ca/fr/services-aux-citoyens/transport-sts","agencyTimeZoneOffset":-14400000,"routeColor":"00FF00","routeType":3,"routeId":"1:24","routeTextColor":"000000","interlineWithPreviousLeg":false,"tripBlockId":"4","headsign":"Terminus Chicoutimi","agencyId":"0","tripId":"1:217235","serviceDate":"20180402","from":{"name":"Liberté / Roussel","stopId":"1:833","stopCode":"833","lon":-71.069708,"lat":48.437999,"arrival":1522688851000,"departure":1522688852000,"zoneId":"NA","stopIndex":33,"stopSequence":34,"vertexType":"TRANSIT"},"to":{"name":"Terminus Chicoutimi","stopId":"1:1289","stopCode":"1289","lon":-71.066163,"lat":48.428677,"arrival":1522689060000,"departure":1522689300000,"zoneId":"NA","stopIndex":35,"stopSequence":36,"vertexType":"TRANSIT"},"legGeometry":{"points":"opsfHbywpLM?a@Ke@YYWWa@v@}@RQPMz@k@tAe@REZG^Af@@X@VF`@Jn@XbClAr@Xt\\`PrAb@pA^hBTjAFj@Pb@JPHLLJNJRFXDT?X?ZEVEVKTMNMHMFOB}DWSGOSYcAN}FFkAF}DJyDPwGvAHN_HDiB@m@","length":56},"routeShortName":"24","routeLongName":"Saint-Luc","rentedBike":false,"transitLeg":true,"duration":208.0,"steps":[]},{"startTime":1522689300000,"endTime":1522690920000,"departureDelay":0,"arrivalDelay":0,"realTime":false,"distance":8780.793308460485,"pathway":false,"mode":"BUS","route":"15","agencyName":"Société de Transport du Saguenay","agencyUrl":"http://ville.saguenay.ca/fr/services-aux-citoyens/transport-sts","agencyTimeZoneOffset":-14400000,"routeColor":"FF00FF","routeType":3,"routeId":"1:15","routeTextColor":"FFFFFF","interlineWithPreviousLeg":false,"tripBlockId":"33","headsign":"Talbot / Barrette","agencyId":"0","tripId":"1:218185","serviceDate":"20180402","from":{"name":"Terminus Chicoutimi","stopId":"1:1289","stopCode":"1289","lon":-71.066163,"lat":48.428677,"arrival":1522689060000,"departure":1522689300000,"zoneId":"NA","stopIndex":0,"stopSequence":1,"vertexType":"TRANSIT"},"to":{"name":"Roitelets / Sapins","stopId":"1:1543","stopCode":"1543","lon":-71.069553,"lat":48.393375,"arrival":1522690920000,"departure":1522690921000,"zoneId":"NA","stopIndex":35,"stopSequence":36,"vertexType":"TRANSIT"},"legGeometry":{"points":"evqfHpbwpLPiCjKx@HiEZkS\\aSN_K^eIrBpBvIpIr@r@\\mBfAaA`@gBOkB_@uF|DyL|DpDQ|@|@z@bA`ATw@dD~Ch@fA@`E~AjGuH`Iy@bBi@dCbEdEjJlJ`HbHlJpJ|J~JdAfALzDNzDrAdBrEKvBEbCv@d@TvFlC|DlBpMlGrB`AM}@hAwEC{B]oBiBmBsH_@_K{H`EgIvCaGfEoItDsH~DeItC{FnBoLbCaO?qLa@uJzF`ApF~@~@PzAgEeDcBf@qAWcKUqEx@Ef@ExDVjDxAFBrBvAfGjG@BjCzC~DxC@@zA~Cb@fCJlC?BsBre@?DWbOAn@?nEGnM@H\\hCzA~ELvAAlAi@jDo@nB","length":99},"routeShortName":"15","routeLongName":"Term. Chic / Costco","rentedBike":false,"transitLeg":true,"duration":1620.0,"steps":[]},{"startTime":1522690921000,"endTime":1522691043000,"departureDelay":0,"arrivalDelay":0,"realTime":false,"distance":154.752,"pathway":false,"mode":"WALK","route":"","agencyTimeZoneOffset":-14400000,"interlineWithPreviousLeg":false,"from":{"name":"Roitelets / Sapins","stopId":"1:1543","stopCode":"1543","lon":-71.069553,"lat":48.393375,"arrival":1522690920000,"departure":1522690921000,"zoneId":"NA","stopIndex":35,"stopSequence":36,"vertexType":"TRANSIT"},"to":{"name":"Destination","lon":-71.067824,"lat":48.393977,"arrival":1522691043000,"orig":"","vertexType":"NORMAL"},"legGeometry":{"points":"oyjfHxwwpLTm@QOeDyE","length":4},"rentedBike":false,"transitLeg":false,"duration":122.0,"steps":[{"distance":21.055,"relativeDirection":"DEPART","streetName":"bike path","absoluteDirection":"SOUTHEAST","stayOn":false,"area":false,"bogusName":true,"lon":-71.0695674967601,"lat":48.39336056343373,"elevation":[]},{"distance":11.448,"relativeDirection":"LEFT","streetName":"path","absoluteDirection":"NORTHEAST","stayOn":true,"area":false,"bogusName":true,"lon":-71.06933020000001,"lat":48.3932555,"elevation":[]},{"distance":122.249,"relativeDirection":"CONTINUE","streetName":"Rue des Sapins","absoluteDirection":"NORTHEAST","stayOn":false,"area":false,"bogusName":false,"lon":-71.0692502,"lat":48.3933437,"elevation":[]}]}],"tooSloped":false}]},"debugOutput":{"precalculationTime":25,"pathCalculationTime":29,"pathTimes":[16,7,6],"renderingTime":0,"totalTime":54,"timedOut":false},"elevationMetadata":{"ellipsoidToGeoidDifference":-28.885904201182168,"geoidElevation":false}}