{"requestParameters":{"date":"2018/04/02","walkSpeed":"1.33","walkReluctance":"2.0","fromPlace":"48.438988,-71.07613","maxWalkDistance":"3000","waitReluctance":"1.0","carSpeed":"33","numItineraries":"3","waitAtBeginningFactor":"0.4","mode":"TRANSIT,WALK","ignoreRealtimeUpdates":"false","stairsReluctance":"2.0","toPlace":"48.443713,-71.068053","time":"18:20:00"},"plan":{"date":1522707600000,"from":{"name":"Origin","lon":-71.07613,"lat":48.438988,"orig":"","vertexType":"NORMAL"},"to":{"name":"Destination","lon":-71.068053,"lat":48.443713,"orig":"","vertexType":"NORMAL"},"itineraries":[{"duration":723,"startTime":1522707600000,"endTime":1522708323000,"walkTime":723,"transitTime":0,"waitingTime":0,"walkDistance":924.4994060114107,"walkLimitExceeded":false,"elevationLost":0.0,"elevationGained":0.0,"transfers":0,"legs":[{"startTime":1522707600000,"endTime":1522708323000,"departureDelay":0,"arrivalDelay":0,"realTime":false,"distance":924.387,"pathway":false,"mode":"WALK","route":"","agencyTimeZoneOffset":-14400000,"interlineWithPreviousLeg":false,"from":{"name":"Origin","lon":-71.07613,"lat":48.438988,"departure":1522707600000,"orig":"","vertexType":"NORMAL"},"to":{"name":"Destination","lon":-71.068053,"lat":48.443713,"arrival":1522708323000,"orig":"","vertexType":"NORMAL"},"legGeometry":{"points":"gwsfHb`ypLc@`A][II_AwAGOO[Uc@KUOe@{@cCQE{@OcAn@o@F[MMO_@c@SSu@mBsAkD?A]{@_B}Du@oB?AO]M]KYKs@Ea@Gu@O{BQoBbAY","length":35},"rentedBike":false,"transitLeg":false,"duration":723.0,"steps":[{"distance":31.833,"relativeDirection":"DEPART","streetName":"Rue Frontenac","absoluteDirection":"NORTHWEST","stayOn":false,"area":false,"bogusName":false,"lon":-71.07601050423567,"lat":48.43908856273376,"elevation":[]},{"distance":730.267,"relativeDirection":"RIGHT","streetName":"Rue des Champs","absoluteDirection":"NORTHEAST","stayOn":false,"area":false,"bogusName":false,"lon":-71.0763494,"lat":48.4392658,"elevation":[]},{"distance":122.767,"relativeDirection":"CONTINUE","streetName":"Rue Delisle","absoluteDirection":"EAST","stayOn":false,"area":false,"bogusName":false,"lon":-71.0701683,"lat":48.443755,"elevation":[]},{"distance":39.52,"relativeDirection":"RIGHT","streetName":"path","absoluteDirection":"SOUTH","stayOn":false,"area":false,"bogusName":false,"lon":-71.0685442,"lat":48.4439961,"elevation":[]}]}],"tooSloped":false},{"duration":721,"startTime":1522708336000,"endTime":1522709057000,"walkTime":690,"transitTime":29,"waitingTime":2,"walkDistance":879.9695639057229,"walkLimitExceeded":false,"elevationLost":0.0,"elevationGained":0.0,"transfers":0,"legs":[{"startTime":1522708336000,"endTime":1522708590000,"departureDelay":0,"arrivalDelay":0,"realTime":false,"distance":325.536,"pathway":false,"mode":"WALK","route":"","agencyTimeZoneOffset":-14400000,"interlineWithPreviousLeg":false,"from":{"name":"Origin","lon":-71.07613,"lat":48.438988,"departure":1522708336000,"orig":"","vertexType":"NORMAL"},"to":{"name":"Masson / Carillon","stopId":"1:703","stopCode":"703","lon":-71.073756,"lat":48.439914,"arrival":1522708590000,"departure":1522708591000,"zoneId":"NA","stopIndex":28,"stopSequence":29,"vertexType":"TRANSIT"},"legGeometry":{"points":"gwsfHb`ypLc@`A][II_AwAGOO[Uc@KUOe@{@cCt@Ld@[TeB","length":14},"rentedBike":false,"transitLeg":false,"duration":254.0,"steps":[{"distance":31.833,"relativeDirection":"DEPART","streetName":"Rue Frontenac","absoluteDirection":"NORTHWEST","stayOn":false,"area":false,"bogusName":false,"lon":-71.07601050423567,"lat":48.43908856273376,"elevation":[]},{"distance":199.517,"relativeDirection":"RIGHT","streetName":"Rue des Champs","absoluteDirection":"NORTHEAST","stayOn":false,"area":false,"bogusName":false,"lon":-71.0763494,"lat":48.4392658,"elevation":[]},{"distance":94.186,"relativeDirection":"HARD_RIGHT","streetName":"Rue Masson","absoluteDirection":"SOUTH","stayOn":false,"area":false,"bogusName":false,"lon":-71.07435980000001,"lat":48.4404586,"elevation":[]}]},{"startTime":1522708591000,"endTime":1522708620000,"departureDelay":0,"arrivalDelay":0,"realTime":false,"distance":191.72160505988666,"pathway":false,"mode":"BUS","route":"20","agencyName":"Société de Transport du Saguenay","agencyUrl":"http://ville.saguenay.ca/fr/services-aux-citoyens/transport-sts","agencyTimeZoneOffset":-14400000,"routeColor":"0000FF","routeType":3,"routeId":"1:20","routeTextColor":"FFFFFF","interlineWithPreviousLeg":false,"tripBlockId":"1","headsign":"Terminus Chicoutimi","agencyId":"0","tripId":"1:217152","serviceDate":"20180402","from":{"name":"Masson / Carillon","stopId":"1:703","stopCode":"703","lon":-71.073756,"lat":48.439914,"arrival":1522708590000,"departure":1522708591000,"zoneId":"NA","stopIndex":28,"stopSequence":29,"vertexType":"TRANSIT"},"to":{"name":"Des Champs / Ste-Geneviève","stopId":"1:704","stopCode":"704","lon":-71.0743,"lat":48.4416,"arrival":1522708620000,"departure":1522708621000,"zoneId":"NA","stopIndex":29,"stopSequence":30,"vertexType":"TRANSIT"},"legGeometry":{"points":"c|sfHdrxpLOfAERGLIHIFMBa@NOQSOUGOCW?UFMHa@XUHQ?QIQOIM","length":21},"routeShortName":"20","routeLongName":"Sainte-Claire","rentedBike":false,"transitLeg":true,"duration":29.0,"steps":[]},{"startTime":1522708621000,"endTime":1522709057000,"departureDelay":0,"arrivalDelay":0,"realTime":false,"distance":554.308,"pathway":false,"mode":"WALK","route":"","agencyTimeZoneOffset":-14400000,"interlineWithPreviousLeg":false,"from":{"name":"Des Champs / Ste-Geneviève","stopId":"1:704","stopCode":"704","lon":-71.0743,"lat":48.4416,"arrival":1522708620000,"departure":1522708621000,"zoneId":"NA","stopIndex":29,"stopSequence":30,"vertexType":"TRANSIT"},"to":{"name":"Destination","lon":-71.068053,"lat":48.443713,"arrival":1522709057000,"orig":"","vertexType":"NORMAL"},"legGeometry":{"points":"egtfHzuxpL_@c@SSu@mBsAkD?A]{@_B}Du@oB?AO]M]KYKs@Ea@Gu@O{BQoBbAY","length":19},"rentedBike":false,"transitLeg":false,"duration":436.0,"steps":[{"distance":392.021,"relativeDirection":"DEPART","streetName":"Rue des Champs","absoluteDirection":"NORTHEAST","stayOn":false,"area":false,"bogusName":false,"lon":-71.0743726335253,"lat":48.441635520596776,"elevation":[]},{"distance":122.767,"relativeDirection":"CONTINUE","streetName":"Rue Delisle","absoluteDirection":"EAST","stayOn":false,"area":false,"bogusName":false,"lon":-71.0701683,"lat":48.443755,"elevation":[]},{"distance":39.52,"relativeDirection":"RIGHT","streetName":"path","absoluteDirection":"SOUTH","stayOn":false,"area":false,"bogusName":false,"lon":-71.0685442,"lat":48.4439961,"elevation":[]}]}],"tooSloped":false}]},"debugOutput":{"precalculationTime":18,"pathCalculationTime":15,"pathTimes":[4,9,2],"renderingTime":0,"totalTime":33,"timedOut":false},"elevationMetadata":{"ellipsoidToGeoidDifference":-28.885904201182168,"geoidElevation":false}}