{"requestParameters":{"date":"2018/04/02","walkSpeed":"1.33","walkReluctance":"2.0","fromPlace":"48.443713,-71.068053","maxWalkDistance":"3000","waitReluctance":"1.0","carSpeed":"33","numItineraries":"3","waitAtBeginningFactor":"0.4","mode":"TRANSIT,WALK","ignoreRealtimeUpdates":"false","stairsReluctance":"2.0","toPlace":"48.438988,-71.07613","time":"20:30:00"},"plan":{"date":1522715400000,"from":{"name":"Origin","lon":-71.068053,"lat":48.443713,"orig":"","vertexType":"NORMAL"},"to":{"name":"Destination","lon":-71.07613,"lat":48.438988,"orig":"","vertexType":"NORMAL"},"itineraries":[{"duration":722,"startTime":1522715400000,"endTime":1522716122000,"walkTime":722,"transitTime":0,"waitingTime":0,"walkDistance":924.4979022520608,"walkLimitExceeded":false,"elevationLost":0.0,"elevationGained":0.0,"transfers":0,"legs":[{"startTime":1522715400000,"endTime":1522716122000,"departureDelay":0,"arrivalDelay":0,"realTime":false,"distance":924.3870000000001,"pathway":false,"mode":"WALK","route":"","agencyTimeZoneOffset":-14400000,"interlineWithPreviousLeg":false,"from":{"name":"Origin","lon":-71.068053,"lat":48.443713,"departure":1522715400000,"orig":"","vertexType":"NORMAL"},"to":{"name":"Destination","lon":-71.07613,"lat":48.438988,"arrival":1522716122000,"orig":"","vertexType":"NORMAL"},"legGeometry":{"points":"ystfHrpwpLcAXPnBNzBFt@D`@Jr@JXL\\N\\?@t@nB~A|D\\z@?@rAjDt@lBRR^b@LNZLn@GbAo@z@NPDz@bCNd@JTTb@NZFN~@vAHH\\Zb@aA","length":35},"rentedBike":false,"transitLeg":false,"duration":722.0,"steps":[{"distance":39.52,"relativeDirection":"DEPART","streetName":"path","absoluteDirection":"NORTH","stayOn":false,"area":false,"bogusName":false,"lon":-71.06841057285905,"lat":48.44365191196925,"elevation":[]},{"distance":122.767,"relativeDirection":"LEFT","streetName":"Rue Delisle","absoluteDirection":"WEST","stayOn":false,"area":false,"bogusName":false,"lon":-71.0685442,"lat":48.4439961,"elevation":[]},{"distance":530.7500000000001,"relativeDirection":"CONTINUE","streetName":"Rue des Champs","absoluteDirection":"WEST","stayOn":false,"area":false,"bogusName":false,"lon":-71.0701683,"lat":48.443755,"elevation":[]},{"distance":199.517,"relativeDirection":"SLIGHTLY_RIGHT","streetName":"Rue des Champs","absoluteDirection":"SOUTHWEST","stayOn":true,"area":false,"bogusName":false,"lon":-71.07435980000001,"lat":48.4404586,"elevation":[]},{"distance":31.833,"relativeDirection":"LEFT","streetName":"Rue Frontenac","absoluteDirection":"SOUTHEAST","stayOn":false,"area":false,"bogusName":false,"lon":-71.0763494,"lat":48.4392658,"elevation":[]}]}],"tooSloped":false},{"duration":633,"startTime":1522715543000,"endTime":1522716176000,"walkTime":563,"transitTime":68,"waitingTime":2,"walkDistance":716.837248115485,"walkLimitExceeded":false,"elevationLost":0.0,"elevationGained":0.0,"transfers":0,"legs":[{"startTime":1522715543000,"endTime":1522715691000,"departureDelay":0,"arrivalDelay":0,"realTime":false,"distance":181.486,"pathway":false,"mode":"WALK","route":"","agencyTimeZoneOffset":-14400000,"interlineWithPreviousLeg":false,"from":{"name":"Origin","lon":-71.068053,"lat":48.443713,"departure":1522715543000,"orig":"","vertexType":"NORMAL"},"to":{"name":"Constantin / Casault","stopId":"1:768","stopCode":"768","lon":-71.0691,"lat":48.4448,"arrival":1522715691000,"departure":1522715692000,"zoneId":"NA","stopIndex":32,"stopSequence":33,"vertexType":"TRANSIT"},"legGeometry":{"points":"ystfHrpwpLcAXPnBeAPc@@KAOAe@a@","length":8},"rentedBike":false,"transitLeg":false,"duration":148.0,"steps":[{"distance":39.52,"relativeDirection":"DEPART","streetName":"path","absoluteDirection":"NORTH","stayOn":false,"area":false,"bogusName":false,"lon":-71.06841057285905,"lat":48.44365191196925,"elevation":[]},{"distance":42.345,"relativeDirection":"LEFT","streetName":"Rue Delisle","absoluteDirection":"WEST","stayOn":false,"area":false,"bogusName":false,"lon":-71.0685442,"lat":48.4439961,"elevation":[]},{"distance":99.62100000000001,"relativeDirection":"RIGHT","streetName":"Rue Constantin","absoluteDirection":"NORTH","stayOn":false,"area":false,"bogusName":false,"lon":-71.069103,"lat":48.4439088,"elevation":[]}]},{"startTime":1522715692000,"endTime":1522715760000,"departureDelay":0,"arrivalDelay":0,"realTime":false,"distance":360.09573369221977,"pathway":false,"mode":"BUS","route":"22","agencyName":"Société de Transport du Saguenay","agencyUrl":"http://ville.saguenay.ca/fr/services-aux-citoyens/transport-sts","agencyTimeZoneOffset":-14400000,"routeColor":"C0C000","routeType":3,"routeId":"1:22","routeTextColor":"000000","interlineWithPreviousLeg":false,"tripBlockId":"3","headsign":"Terminus Chicoutimi","agencyId":"0","tripId":"1:217214","serviceDate":"20180402","from":{"name":"Constantin / Casault","stopId":"1:768","stopCode":"768","lon":-71.0691,"lat":48.4448,"arrival":1522715691000,"departure":1522715692000,"zoneId":"NA","stopIndex":32,"stopSequence":33,"vertexType":"TRANSIT"},"to":{"name":"Champs / Victor","stopId":"1:769","stopCode":"769","lon":-71.07274,"lat":48.442642,"arrival":1522715760000,"departure":1522715761000,"zoneId":"NA","stopIndex":33,"stopSequence":34,"vertexType":"TRANSIT"},"legGeometry":{"points":"wztfHjtwpLZTXNd@@lA[ZxDN|Ad@fAz@tB~AzDZ|@","length":11},"routeShortName":"22","routeLongName":"Vanier","rentedBike":false,"transitLeg":true,"duration":68.0,"steps":[]},{"startTime":1522715761000,"endTime":1522716176000,"departureDelay":0,"arrivalDelay":0,"realTime":false,"distance":535.202,"pathway":false,"mode":"WALK","route":"","agencyTimeZoneOffset":-14400000,"interlineWithPreviousLeg":false,"from":{"name":"Champs / Victor","stopId":"1:769","stopCode":"769","lon":-71.07274,"lat":48.442642,"arrival":1522715760000,"departure":1522715761000,"zoneId":"NA","stopIndex":33,"stopSequence":34,"vertexType":"TRANSIT"},"to":{"name":"Destination","lon":-71.07613,"lat":48.438988,"arrival":1522716176000,"orig":"","vertexType":"NORMAL"},"legGeometry":{"points":"cmtfHhkxpLrAjDt@lBRR^b@LNZLn@GbAo@z@NPDz@bCNd@JTTb@NZFN~@vAHH\\Zb@aA","length":21},"rentedBike":false,"transitLeg":false,"duration":415.0,"steps":[{"distance":303.852,"relativeDirection":"DEPART","streetName":"Rue des Champs","absoluteDirection":"SOUTHWEST","stayOn":false,"area":false,"bogusName":false,"lon":-71.07268048433089,"lat":48.44258835732402,"elevation":[]},{"distance":199.517,"relativeDirection":"SLIGHTLY_RIGHT","streetName":"Rue des Champs","absoluteDirection":"SOUTHWEST","stayOn":true,"area":false,"bogusName":false,"lon":-71.07435980000001,"lat":48.4404586,"elevation":[]},{"distance":31.833,"relativeDirection":"LEFT","streetName":"Rue Frontenac","absoluteDirection":"SOUTHEAST","stayOn":false,"area":false,"bogusName":false,"lon":-71.0763494,"lat":48.4392658,"elevation":[]}]}],"tooSloped":false},{"duration":755,"startTime":1522716083000,"endTime":1522716838000,"walkTime":715,"transitTime":38,"waitingTime":2,"walkDistance":913.4838120260479,"walkLimitExceeded":false,"elevationLost":0.0,"elevationGained":0.0,"transfers":0,"legs":[{"startTime":1522716083000,"endTime":1522716539000,"departureDelay":0,"arrivalDelay":0,"realTime":false,"distance":580.2260000000001,"pathway":false,"mode":"WALK","route":"","agencyTimeZoneOffset":-14400000,"interlineWithPreviousLeg":false,"from":{"name":"Origin","lon":-71.068053,"lat":48.443713,"departure":1522716083000,"orig":"","vertexType":"NORMAL"},"to":{"name":"Des Champs / boul. Ste-Geneviève","stopId":"1:676","stopCode":"676","lon":-71.074674,"lat":48.441439,"arrival":1522716539000,"departure":1522716540000,"zoneId":"NA","stopIndex":1,"stopSequence":2,"vertexType":"TRANSIT"},"legGeometry":{"points":"ystfHrpwpLcAXPnBNzBFt@D`@Jr@JXL\\N\\?@t@nB~A|D\\z@?@rAjDt@lBRR^b@LNZL","length":21},"rentedBike":false,"transitLeg":false,"duration":456.0,"steps":[{"distance":39.52,"relativeDirection":"DEPART","streetName":"path","absoluteDirection":"NORTH","stayOn":false,"area":false,"bogusName":false,"lon":-71.06841057285905,"lat":48.44365191196925,"elevation":[]},{"distance":122.767,"relativeDirection":"LEFT","streetName":"Rue Delisle","absoluteDirection":"WEST","stayOn":false,"area":false,"bogusName":false,"lon":-71.0685442,"lat":48.4439961,"elevation":[]},{"distance":417.9390000000001,"relativeDirection":"CONTINUE","streetName":"Rue des Champs","absoluteDirection":"WEST","stayOn":false,"area":false,"bogusName":false,"lon":-71.0701683,"lat":48.443755,"elevation":[]}]},{"startTime":1522716540000,"endTime":1522716578000,"departureDelay":0,"arrivalDelay":0,"realTime":false,"distance":195.0727089516867,"pathway":false,"mode":"BUS","route":"20","agencyName":"Société de Transport du Saguenay","agencyUrl":"http://ville.saguenay.ca/fr/services-aux-citoyens/transport-sts","agencyTimeZoneOffset":-14400000,"routeColor":"0000FF","routeType":3,"routeId":"1:20","routeTextColor":"FFFFFF","interlineWithPreviousLeg":false,"tripBlockId":"3","headsign":"Terminus Chicoutimi","agencyId":"0","tripId":"1:217215","serviceDate":"20180402","from":{"name":"Des Champs / boul. Ste-Geneviève","stopId":"1:676","stopCode":"676","lon":-71.074674,"lat":48.441439,"arrival":1522716539000,"departure":1522716540000,"zoneId":"NA","stopIndex":1,"stopSequence":2,"vertexType":"TRANSIT"},"to":{"name":"Masson / Carillon","stopId":"1:677","stopCode":"677","lon":-71.0737,"lat":48.439808,"arrival":1522716578000,"departure":1522716579000,"zoneId":"NA","stopIndex":2,"stopSequence":3,"vertexType":"TRANSIT"},"legGeometry":{"points":"wetfHzvxpL@@P?TI`@YLITGV?NBTFRNNP`@OLCHGHIFMDSR{A","length":19},"routeShortName":"20","routeLongName":"Sainte-Claire","rentedBike":false,"transitLeg":true,"duration":38.0,"steps":[]},{"startTime":1522716579000,"endTime":1522716838000,"departureDelay":0,"arrivalDelay":0,"realTime":false,"distance":333.13300000000004,"pathway":false,"mode":"WALK","route":"","agencyTimeZoneOffset":-14400000,"interlineWithPreviousLeg":false,"from":{"name":"Masson / Carillon","stopId":"1:677","stopCode":"677","lon":-71.0737,"lat":48.439808,"arrival":1522716578000,"departure":1522716579000,"zoneId":"NA","stopIndex":2,"stopSequence":3,"vertexType":"TRANSIT"},"to":{"name":"Destination","lon":-71.07613,"lat":48.438988,"arrival":1522716838000,"orig":"","vertexType":"NORMAL"},"legGeometry":{"points":"a|sfHnqxpLERUdBe@Zu@Mz@bCNd@JTTb@NZFN~@vAHH\\Zb@aA","length":15},"rentedBike":false,"transitLeg":false,"duration":259.0,"steps":[{"distance":101.783,"relativeDirection":"DEPART","streetName":"Rue Masson","absoluteDirection":"WEST","stayOn":false,"area":false,"bogusName":false,"lon":-71.07367483953627,"lat":48.43985889255844,"elevation":[]},{"distance":199.517,"relativeDirection":"HARD_LEFT","streetName":"Rue des Champs","absoluteDirection":"SOUTHWEST","stayOn":false,"area":false,"bogusName":false,"lon":-71.07435980000001,"lat":48.4404586,"elevation":[]},{"distance":31.833,"relativeDirection":"LEFT","streetName":"Rue Frontenac","absoluteDirection":"SOUTHEAST","stayOn":false,"area":false,"bogusName":false,"lon":-71.0763494,"lat":48.4392658,"elevation":[]}]}],"tooSloped":false}]},"debugOutput":{"precalculationTime":20,"pathCalculationTime":16,"pathTimes":[3,10,3],"renderingTime":0,"totalTime":36,"timedOut":false},"elevationMetadata":{"ellipsoidToGeoidDifference":-28.885904201182168,"geoidElevation":false}}