{"requestParameters":{"date":"2018/04/02","walkSpeed":"1.33","walkReluctance":"2.0","fromPlace":"48.438666,-71.078137","maxWalkDistance":"3000","waitReluctance":"1.0","carSpeed":"33","numItineraries":"3","waitAtBeginningFactor":"0.4","mode":"TRANSIT,WALK","ignoreRealtimeUpdates":"false","stairsReluctance":"2.0","toPlace":"48.444662,-71.08023699","time":"11:0:00"},"plan":{"date":1522681200000,"from":{"name":"Origin","lon":-71.078137,"lat":48.438666,"orig":"","vertexType":"NORMAL"},"to":{"name":"Destination","lon":-71.08023699,"lat":48.444662,"orig":"","vertexType":"NORMAL"},"itineraries":[{"duration":614,"startTime":1522681200000,"endTime":1522681814000,"walkTime":614,"transitTime":0,"waitingTime":0,"walkDistance":787.7673684179108,"walkLimitExceeded":false,"elevationLost":0.0,"elevationGained":0.0,"transfers":0,"legs":[{"startTime":1522681200000,"endTime":1522681814000,"departureDelay":0,"arrivalDelay":0,"realTime":false,"distance":787.6700000000001,"pathway":false,"mode":"WALK","route":"","agencyTimeZoneOffset":-14400000,"interlineWithPreviousLeg":false,"from":{"name":"Origin","lon":-71.078137,"lat":48.438666,"departure":1522681200000,"orig":"","vertexType":"NORMAL"},"to":{"name":"Destination","lon":-71.08023699,"lat":48.444662,"arrival":1522681814000,"orig":"","vertexType":"NORMAL"},"legGeometry":{"points":"ytsfHfnypLYIoBo@M\\EJWb@[Z]h@{@vAA@aC|CMPi@ME??AMA]?_@?a@Bc@?Y@e@E[EOEQGoBo@iCw@]MUKc@a@sAvEGP","length":32},"rentedBike":false,"transitLeg":false,"duration":614.0,"steps":[{"distance":79.528,"relativeDirection":"DEPART","streetName":"Rue Bouchard","absoluteDirection":"NORTH","stayOn":false,"area":false,"bogusName":false,"lon":-71.07827848776158,"lat":48.4386920623572,"elevation":[]},{"distance":230.308,"relativeDirection":"LEFT","streetName":"Rue Roussel","absoluteDirection":"NORTHWEST","stayOn":false,"area":false,"bogusName":false,"lon":-71.07798890000001,"lat":48.439381000000004,"elevation":[]},{"distance":377.19599999999997,"relativeDirection":"RIGHT","streetName":"Rue Saint-Albert","absoluteDirection":"NORTH","stayOn":false,"area":false,"bogusName":false,"lon":-71.0800502,"lat":48.4409276,"elevation":[]},{"distance":100.638,"relativeDirection":"LEFT","streetName":"Boulevard Sainte-Geneviève","absoluteDirection":"NORTHWEST","stayOn":false,"area":false,"bogusName":false,"lon":-71.0790497,"lat":48.4442132,"elevation":[]}]}],"tooSloped":false},{"duration":686,"startTime":1522681372000,"endTime":1522682058000,"walkTime":564,"transitTime":120,"waitingTime":2,"walkDistance":731.5565563886363,"walkLimitExceeded":false,"elevationLost":0.0,"elevationGained":0.0,"transfers":0,"legs":[{"startTime":1522681372000,"endTime":1522681499000,"departureDelay":0,"arrivalDelay":0,"realTime":false,"distance":158.862,"pathway":false,"mode":"WALK","route":"","agencyTimeZoneOffset":-14400000,"interlineWithPreviousLeg":false,"from":{"name":"Origin","lon":-71.078137,"lat":48.438666,"departure":1522681372000,"orig":"","vertexType":"NORMAL"},"to":{"name":"Église Sainte-Anne (Roussel / Fabrique)","stopId":"1:701","stopCode":"701","lon":-71.078824,"lat":48.439832,"arrival":1522681499000,"departure":1522681500000,"zoneId":"NA","stopIndex":26,"stopSequence":27,"vertexType":"TRANSIT"},"legGeometry":{"points":"ytsfHfnypLYIoBo@M\\EJWb@[Z]h@","length":8},"rentedBike":false,"transitLeg":false,"duration":127.0,"steps":[{"distance":79.528,"relativeDirection":"DEPART","streetName":"Rue Bouchard","absoluteDirection":"NORTH","stayOn":false,"area":false,"bogusName":false,"lon":-71.07827848776158,"lat":48.4386920623572,"elevation":[]},{"distance":79.334,"relativeDirection":"LEFT","streetName":"Rue Roussel","absoluteDirection":"NORTHWEST","stayOn":false,"area":false,"bogusName":false,"lon":-71.07798890000001,"lat":48.439381000000004,"elevation":[]}]},{"startTime":1522681500000,"endTime":1522681620000,"departureDelay":0,"arrivalDelay":0,"realTime":false,"distance":874.2331131828031,"pathway":false,"mode":"BUS","route":"20","agencyName":"Société de Transport du Saguenay","agencyUrl":"http://ville.saguenay.ca/fr/services-aux-citoyens/transport-sts","agencyTimeZoneOffset":-14400000,"routeColor":"0000FF","routeType":3,"routeId":"1:20","routeTextColor":"FFFFFF","interlineWithPreviousLeg":false,"tripBlockId":"3","headsign":"Terminus Chicoutimi","agencyId":"0","tripId":"1:217195","serviceDate":"20180402","from":{"name":"Église Sainte-Anne (Roussel / Fabrique)","stopId":"1:701","stopCode":"701","lon":-71.078824,"lat":48.439832,"arrival":1522681499000,"departure":1522681500000,"zoneId":"NA","stopIndex":26,"stopSequence":27,"vertexType":"TRANSIT"},"to":{"name":"Des Champs / Ste-Geneviève","stopId":"1:704","stopCode":"704","lon":-71.0743,"lat":48.4416,"arrival":1522681620000,"departure":1522681621000,"zoneId":"NA","stopIndex":29,"stopSequence":30,"vertexType":"TRANSIT"},"legGeometry":{"points":"e|sfHdqypL^i@p@kAVc@\\cAr@eBv@aB|B_CJSDKLe@NeAJaAHeBBi@F{AaFe@c@IcDeAWtBOfAERGLIHIFMBa@NOQSOUGOCW?UFMHa@XUHQ?QIQOIM","length":40},"routeShortName":"20","routeLongName":"Sainte-Claire","rentedBike":false,"transitLeg":true,"duration":120.0,"steps":[]},{"startTime":1522681621000,"endTime":1522682058000,"departureDelay":0,"arrivalDelay":0,"realTime":false,"distance":572.622,"pathway":false,"mode":"WALK","route":"","agencyTimeZoneOffset":-14400000,"interlineWithPreviousLeg":false,"from":{"name":"Des Champs / Ste-Geneviève","stopId":"1:704","stopCode":"704","lon":-71.0743,"lat":48.4416,"arrival":1522681620000,"departure":1522681621000,"zoneId":"NA","stopIndex":29,"stopSequence":30,"vertexType":"TRANSIT"},"to":{"name":"Destination","lon":-71.08023699,"lat":48.444662,"arrival":1522682058000,"orig":"","vertexType":"NORMAL"},"legGeometry":{"points":"egtfHzuxpL_@c@sAhC_DbG}@vBiAhDgBxGsAvEGP","length":9},"rentedBike":false,"transitLeg":false,"duration":437.0,"steps":[{"distance":21.917,"relativeDirection":"DEPART","streetName":"Rue des Champs","absoluteDirection":"NORTHEAST","stayOn":false,"area":false,"bogusName":false,"lon":-71.0743726335253,"lat":48.441635520596776,"elevation":[]},{"distance":550.705,"relativeDirection":"LEFT","streetName":"Boulevard Sainte-Geneviève","absoluteDirection":"NORTHWEST","stayOn":false,"area":false,"bogusName":false,"lon":-71.07419630000001,"lat":48.441794200000004,"elevation":[]}]}],"tooSloped":false},{"duration":422,"startTime":1522682356000,"endTime":1522682778000,"walkTime":360,"transitTime":60,"waitingTime":2,"walkDistance":455.12926315449823,"walkLimitExceeded":false,"elevationLost":0.0,"elevationGained":0.0,"transfers":0,"legs":[{"startTime":1522682356000,"endTime":1522682519000,"departureDelay":0,"arrivalDelay":0,"realTime":false,"distance":205.899,"pathway":false,"mode":"WALK","route":"","agencyTimeZoneOffset":-14400000,"interlineWithPreviousLeg":false,"from":{"name":"Origin","lon":-71.078137,"lat":48.438666,"departure":1522682356000,"orig":"","vertexType":"NORMAL"},"to":{"name":"Église Ste-Anne (Roussel / Hofman)","stopId":"1:679","stopCode":"679","lon":-71.07909,"lat":48.440248,"arrival":1522682519000,"departure":1522682520000,"zoneId":"NA","stopIndex":4,"stopSequence":5,"vertexType":"TRANSIT"},"legGeometry":{"points":"ytsfHfnypLYIoBo@M\\EJWb@[Z]h@{@vA","length":9},"rentedBike":false,"transitLeg":false,"duration":163.0,"steps":[{"distance":79.528,"relativeDirection":"DEPART","streetName":"Rue Bouchard","absoluteDirection":"NORTH","stayOn":false,"area":false,"bogusName":false,"lon":-71.07827848776158,"lat":48.4386920623572,"elevation":[]},{"distance":126.37100000000001,"relativeDirection":"LEFT","streetName":"Rue Roussel","absoluteDirection":"NORTHWEST","stayOn":false,"area":false,"bogusName":false,"lon":-71.07798890000001,"lat":48.439381000000004,"elevation":[]}]},{"startTime":1522682520000,"endTime":1522682580000,"departureDelay":0,"arrivalDelay":0,"realTime":false,"distance":470.08342272065437,"pathway":false,"mode":"BUS","route":"20","agencyName":"Société de Transport du Saguenay","agencyUrl":"http://ville.saguenay.ca/fr/services-aux-citoyens/transport-sts","agencyTimeZoneOffset":-14400000,"routeColor":"0000FF","routeType":3,"routeId":"1:20","routeTextColor":"FFFFFF","interlineWithPreviousLeg":false,"tripBlockId":"1","headsign":"Terminus Chicoutimi","agencyId":"0","tripId":"1:217139","serviceDate":"20180402","from":{"name":"Église Ste-Anne (Roussel / Hofman)","stopId":"1:679","stopCode":"679","lon":-71.07909,"lat":48.440248,"arrival":1522682519000,"departure":1522682520000,"zoneId":"NA","stopIndex":4,"stopSequence":5,"vertexType":"TRANSIT"},"to":{"name":"Sauvé / David","stopId":"1:682","stopCode":"682","lon":-71.0813,"lat":48.4438,"arrival":1522682580000,"departure":1522682581000,"zoneId":"NA","stopIndex":7,"stopSequence":8,"vertexType":"TRANSIT"},"legGeometry":{"points":"g~sfHxsypLkA~A}@nAu@IIAe@Cs@Fy@DWA[EUGyCgAU~@Sx@{A`F","length":15},"routeShortName":"20","routeLongName":"Sainte-Claire","rentedBike":false,"transitLeg":true,"duration":60.0,"steps":[]},{"startTime":1522682581000,"endTime":1522682778000,"departureDelay":0,"arrivalDelay":0,"realTime":false,"distance":249.125,"pathway":false,"mode":"WALK","route":"","agencyTimeZoneOffset":-14400000,"interlineWithPreviousLeg":false,"from":{"name":"Sauvé / David","stopId":"1:682","stopCode":"682","lon":-71.0813,"lat":48.4438,"arrival":1522682580000,"departure":1522682581000,"zoneId":"NA","stopIndex":7,"stopSequence":8,"vertexType":"TRANSIT"},"to":{"name":"Destination","lon":-71.08023699,"lat":48.444662,"arrival":1522682778000,"orig":"","vertexType":"NORMAL"},"legGeometry":{"points":"qttfHhazpLq@tBeE}Dh@_BXu@","length":5},"rentedBike":false,"transitLeg":false,"duration":197.0,"steps":[{"distance":51.448,"relativeDirection":"DEPART","streetName":"Rue Sauvé","absoluteDirection":"NORTHWEST","stayOn":false,"area":false,"bogusName":false,"lon":-71.08132392744633,"lat":48.44377496388204,"elevation":[]},{"distance":131.132,"relativeDirection":"RIGHT","streetName":"Rue David","absoluteDirection":"NORTHEAST","stayOn":false,"area":false,"bogusName":false,"lon":-71.081913,"lat":48.444022700000005,"elevation":[]},{"distance":66.545,"relativeDirection":"RIGHT","streetName":"Boulevard Sainte-Geneviève","absoluteDirection":"SOUTHEAST","stayOn":false,"area":false,"bogusName":false,"lon":-71.08096180000001,"lat":48.445019,"elevation":[]}]}],"tooSloped":false}]},"debugOutput":{"precalculationTime":15,"pathCalculationTime":15,"pathTimes":[4,9,2],"renderingTime":0,"totalTime":30,"timedOut":false},"elevationMetadata":{"ellipsoidToGeoidDifference":-28.885904201182168,"geoidElevation":false}}