{"requestParameters":{"date":"2018/04/02","walkSpeed":"1.33","walkReluctance":"2.0","fromPlace":"48.444662,-71.08023699","maxWalkDistance":"3000","waitReluctance":"1.0","carSpeed":"33","numItineraries":"3","waitAtBeginningFactor":"0.4","mode":"TRANSIT,WALK","ignoreRealtimeUpdates":"false","stairsReluctance":"2.0","toPlace":"48.437535,-71.066214","time":"11:15:00"},"plan":{"date":1522682100000,"from":{"name":"Origin","lon":-71.08023699,"lat":48.444662,"orig":"","vertexType":"NORMAL"},"to":{"name":"Destination","lon":-71.066214,"lat":48.437535,"orig":"","vertexType":"NORMAL"},"itineraries":[{"duration":863,"startTime":1522682245000,"endTime":1522683108000,"walkTime":220,"transitTime":641,"waitingTime":2,"walkDistance":273.97676691384817,"walkLimitExceeded":false,"elevationLost":0.0,"elevationGained":0.0,"transfers":0,"legs":[{"startTime":1522682245000,"endTime":1522682418000,"departureDelay":0,"arrivalDelay":0,"realTime":false,"distance":217.727,"pathway":false,"mode":"WALK","route":"","agencyTimeZoneOffset":-14400000,"interlineWithPreviousLeg":false,"from":{"name":"Origin","lon":-71.08023699,"lat":48.444662,"departure":1522682245000,"orig":"","vertexType":"NORMAL"},"to":{"name":"Place de la Colline (boul. Ste-Geneviève)","stopId":"1:706","stopCode":"706","lon":-71.080094,"lat":48.44485,"arrival":1522682418000,"departure":1522682419000,"zoneId":"NA","stopIndex":2,"stopSequence":3,"vertexType":"TRANSIT"},"legGeometry":{"points":"eztfHjzypLFQrAwEQSeBjF","length":5},"rentedBike":false,"transitLeg":false,"duration":173.0,"steps":[{"distance":100.638,"relativeDirection":"DEPART","streetName":"Boulevard Sainte-Geneviève","absoluteDirection":"SOUTHEAST","stayOn":false,"area":false,"bogusName":false,"lon":-71.08021854673788,"lat":48.44467978163288,"elevation":[]},{"distance":117.089,"relativeDirection":"UTURN_LEFT","streetName":"Boulevard Sainte-Geneviève","absoluteDirection":"NORTHWEST","stayOn":true,"area":false,"bogusName":false,"lon":-71.07894370000001,"lat":48.444307900000005,"elevation":[]}]},{"startTime":1522682419000,"endTime":1522683060000,"departureDelay":0,"arrivalDelay":0,"realTime":false,"distance":4775.900428111463,"pathway":false,"mode":"BUS","route":"23","agencyName":"Société de Transport du Saguenay","agencyUrl":"http://ville.saguenay.ca/fr/services-aux-citoyens/transport-sts","agencyTimeZoneOffset":-14400000,"routeColor":"FF00FF","routeType":3,"routeId":"1:23","routeTextColor":"FFFFFF","interlineWithPreviousLeg":false,"tripBlockId":"4","headsign":"Terminus Chicoutimi","agencyId":"0","tripId":"1:217232","serviceDate":"20180402","from":{"name":"Place de la Colline (boul. Ste-Geneviève)","stopId":"1:706","stopCode":"706","lon":-71.080094,"lat":48.44485,"arrival":1522682418000,"departure":1522682419000,"zoneId":"NA","stopIndex":2,"stopSequence":3,"vertexType":"TRANSIT"},"to":{"name":"Roussel / St-Ambroise","stopId":"1:1507","stopCode":"1507","lon":-71.066011,"lat":48.437319,"arrival":1522683060000,"departure":1522683061000,"zoneId":"NA","stopIndex":23,"stopSequence":24,"vertexType":"TRANSIT"},"legGeometry":{"points":"{ztfH~yypLCD}@hCo@~Aq@pAs@fA{BlCqH|Iq@Bq@Im@UGCUi@Wm@ScA_@gGSaE@_@@_@@ERoBFe@No@`@gAbCyFNe@Ha@He@Fg@Du@Dg@Hc@Pa@RW\\S`@QZEm@eHM}B?GGi@Is@Ou@Qw@Mo@Kw@ImAGoBAk@aALa@?YEUKc@Yc@_@KOIUGUEWAW?YBqAH_AXeC@IdB_Mh@_EJk@d@kDhAqI`AgHz@oGBU?UAWCWUwAWD]B]AUEoAc@kE}AOIq@g@g@u@]w@b@s@T[~CkFf@s@\\e@x@}@jAeAXQZStBaAh@]`@]`@i@l@kDF_@R{AFWFMPIPC`@BT@V?TAVKLENCLCJ@J@xAb@x@Zz@\\CP?R@N@NFLFF`GtBx@Xw@pG@l@B\\DXL\\RZDFXPf@N@v@Bp@Dr@l@~HNlAH\\@HLd@\\z@Xd@X\\RTXRr@Zn@PfExAvDpALnBJt@Pp@|@`DHZPn@`@rBNnAFr@DbA?bB","length":165},"routeShortName":"23","routeLongName":"Côte Verdun via Aréna du Plateau","rentedBike":false,"transitLeg":true,"duration":641.0,"steps":[]},{"startTime":1522683061000,"endTime":1522683108000,"departureDelay":0,"arrivalDelay":0,"realTime":false,"distance":56.143,"pathway":false,"mode":"WALK","route":"","agencyTimeZoneOffset":-14400000,"interlineWithPreviousLeg":false,"from":{"name":"Roussel / St-Ambroise","stopId":"1:1507","stopCode":"1507","lon":-71.066011,"lat":48.437319,"arrival":1522683060000,"departure":1522683061000,"zoneId":"NA","stopIndex":23,"stopSequence":24,"vertexType":"TRANSIT"},"to":{"name":"Destination","lon":-71.066214,"lat":48.437535,"arrival":1522683108000,"orig":"","vertexType":"NORMAL"},"legGeometry":{"points":"}ksfHpawpL?dAu@I","length":3},"rentedBike":false,"transitLeg":false,"duration":47.0,"steps":[{"distance":25.877,"relativeDirection":"DEPART","streetName":"Rue Roussel","absoluteDirection":"WEST","stayOn":false,"area":false,"bogusName":false,"lon":-71.06600928339171,"lat":48.43727999113519,"elevation":[]},{"distance":30.266,"relativeDirection":"RIGHT","streetName":"Rue Saint-Ambroise","absoluteDirection":"NORTH","stayOn":false,"area":false,"bogusName":false,"lon":-71.06635990000001,"lat":48.4372732,"elevation":[]}]}],"tooSloped":false},{"duration":1066,"startTime":1522682100000,"endTime":1522683166000,"walkTime":1066,"transitTime":0,"waitingTime":0,"walkDistance":1381.0091578894724,"walkLimitExceeded":false,"elevationLost":0.0,"elevationGained":0.0,"transfers":0,"legs":[{"startTime":1522682100000,"endTime":1522683166000,"departureDelay":0,"arrivalDelay":0,"realTime":false,"distance":1380.846,"pathway":false,"mode":"WALK","route":"","agencyTimeZoneOffset":-14400000,"interlineWithPreviousLeg":false,"from":{"name":"Origin","lon":-71.08023699,"lat":48.444662,"departure":1522682100000,"orig":"","vertexType":"NORMAL"},"to":{"name":"Destination","lon":-71.066214,"lat":48.437535,"arrival":1522683166000,"orig":"","vertexType":"NORMAL"},"legGeometry":{"points":"eztfHjzypLFQrAwEfByGhAiD|@wB~CcGrAiCSS`IiOzAwCvAoCb@{@h@{@Re@Xk@Zm@v@uAvAcCt@y@d@_@J??E@EBC@CBAD?BwCu@I","length":30},"rentedBike":false,"transitLeg":false,"duration":1066.0,"steps":[{"distance":1037.539,"relativeDirection":"DEPART","streetName":"Boulevard Sainte-Geneviève","absoluteDirection":"SOUTHEAST","stayOn":false,"area":false,"bogusName":false,"lon":-71.08021854673788,"lat":48.44467978163288,"elevation":[]},{"distance":243.155,"relativeDirection":"CONTINUE","streetName":"R 172","absoluteDirection":"SOUTHEAST","stayOn":false,"area":false,"bogusName":true,"lon":-71.0694016,"lat":48.4389935,"elevation":[]},{"distance":14.306,"relativeDirection":"CIRCLE_CLOCKWISE","streetName":"Rue Roussel","absoluteDirection":"SOUTHEAST","exit":"1","stayOn":false,"area":false,"bogusName":false,"lon":-71.0672278,"lat":48.4373869,"elevation":[]},{"distance":55.58,"relativeDirection":"LEFT","streetName":"Rue Roussel","absoluteDirection":"EAST","stayOn":false,"area":false,"bogusName":false,"lon":-71.0671123,"lat":48.437299200000005,"elevation":[]},{"distance":30.266,"relativeDirection":"LEFT","streetName":"Rue Saint-Ambroise","absoluteDirection":"NORTH","stayOn":false,"area":false,"bogusName":false,"lon":-71.06635990000001,"lat":48.4372732,"elevation":[]}]}],"tooSloped":false},{"duration":863,"startTime":1522684045000,"endTime":1522684908000,"walkTime":220,"transitTime":641,"waitingTime":2,"walkDistance":273.97676691384817,"walkLimitExceeded":false,"elevationLost":0.0,"elevationGained":0.0,"transfers":0,"legs":[{"startTime":1522684045000,"endTime":1522684218000,"departureDelay":0,"arrivalDelay":0,"realTime":false,"distance":217.727,"pathway":false,"mode":"WALK","route":"","agencyTimeZoneOffset":-14400000,"interlineWithPreviousLeg":false,"from":{"name":"Origin","lon":-71.08023699,"lat":48.444662,"departure":1522684045000,"orig":"","vertexType":"NORMAL"},"to":{"name":"Place de la Colline (boul. Ste-Geneviève)","stopId":"1:706","stopCode":"706","lon":-71.080094,"lat":48.44485,"arrival":1522684218000,"departure":1522684219000,"zoneId":"NA","stopIndex":2,"stopSequence":3,"vertexType":"TRANSIT"},"legGeometry":{"points":"eztfHjzypLFQrAwEQSeBjF","length":5},"rentedBike":false,"transitLeg":false,"duration":173.0,"steps":[{"distance":100.638,"relativeDirection":"DEPART","streetName":"Boulevard Sainte-Geneviève","absoluteDirection":"SOUTHEAST","stayOn":false,"area":false,"bogusName":false,"lon":-71.08021854673788,"lat":48.44467978163288,"elevation":[]},{"distance":117.089,"relativeDirection":"UTURN_LEFT","streetName":"Boulevard Sainte-Geneviève","absoluteDirection":"NORTHWEST","stayOn":true,"area":false,"bogusName":false,"lon":-71.07894370000001,"lat":48.444307900000005,"elevation":[]}]},{"startTime":1522684219000,"endTime":1522684860000,"departureDelay":0,"arrivalDelay":0,"realTime":false,"distance":4775.900428111463,"pathway":false,"mode":"BUS","route":"23","agencyName":"Société de Transport du Saguenay","agencyUrl":"http://ville.saguenay.ca/fr/services-aux-citoyens/transport-sts","agencyTimeZoneOffset":-14400000,"routeColor":"FF00FF","routeType":3,"routeId":"1:23","routeTextColor":"FFFFFF","interlineWithPreviousLeg":false,"tripBlockId":"5","headsign":"Terminus Chicoutimi","agencyId":"0","tripId":"1:217260","serviceDate":"20180402","from":{"name":"Place de la Colline (boul. Ste-Geneviève)","stopId":"1:706","stopCode":"706","lon":-71.080094,"lat":48.44485,"arrival":1522684218000,"departure":1522684219000,"zoneId":"NA","stopIndex":2,"stopSequence":3,"vertexType":"TRANSIT"},"to":{"name":"Roussel / St-Ambroise","stopId":"1:1507","stopCode":"1507","lon":-71.066011,"lat":48.437319,"arrival":1522684860000,"departure":1522684861000,"zoneId":"NA","stopIndex":23,"stopSequence":24,"vertexType":"TRANSIT"},"legGeometry":{"points":"{ztfH~yypLCD}@hCo@~Aq@pAs@fA{BlCqH|Iq@Bq@Im@UGCUi@Wm@ScA_@gGSaE@_@@_@@ERoBFe@No@`@gAbCyFNe@Ha@He@Fg@Du@Dg@Hc@Pa@RW\\S`@QZEm@eHM}B?GGi@Is@Ou@Qw@Mo@Kw@ImAGoBAk@aALa@?YEUKc@Yc@_@KOIUGUEWAW?YBqAH_AXeC@IdB_Mh@_EJk@d@kDhAqI`AgHz@oGBU?UAWCWUwAWD]B]AUEoAc@kE}AOIq@g@g@u@]w@b@s@T[~CkFf@s@\\e@x@}@jAeAXQZStBaAh@]`@]`@i@l@kDF_@R{AFWFMPIPC`@BT@V?TAVKLENCLCJ@J@xAb@x@Zz@\\CP?R@N@NFLFF`GtBx@Xw@pG@l@B\\DXL\\RZDFXPf@N@v@Bp@Dr@l@~HNlAH\\@HLd@\\z@Xd@X\\RTXRr@Zn@PfExAvDpALnBJt@Pp@|@`DHZPn@`@rBNnAFr@DbA?bB","length":165},"routeShortName":"23","routeLongName":"Côte Verdun via Aréna du Plateau","rentedBike":false,"transitLeg":true,"duration":641.0,"steps":[]},{"startTime":1522684861000,"endTime":1522684908000,"departureDelay":0,"arrivalDelay":0,"realTime":false,"distance":56.143,"pathway":false,"mode":"WALK","route":"","agencyTimeZoneOffset":-14400000,"interlineWithPreviousLeg":false,"from":{"name":"Roussel / St-Ambroise","stopId":"1:1507","stopCode":"1507","lon":-71.066011,"lat":48.437319,"arrival":1522684860000,"departure":1522684861000,"zoneId":"NA","stopIndex":23,"stopSequence":24,"vertexType":"TRANSIT"},"to":{"name":"Destination","lon":-71.066214,"lat":48.437535,"arrival":1522684908000,"orig":"","vertexType":"NORMAL"},"legGeometry":{"points":"}ksfHpawpL?dAu@I","length":3},"rentedBike":false,"transitLeg":false,"duration":47.0,"steps":[{"distance":25.877,"relativeDirection":"DEPART","streetName":"Rue Roussel","absoluteDirection":"WEST","stayOn":false,"area":false,"bogusName":false,"lon":-71.06600928339171,"lat":48.43727999113519,"elevation":[]},{"distance":30.266,"relativeDirection":"RIGHT","streetName":"Rue Saint-Ambroise","absoluteDirection":"NORTH","stayOn":false,"area":false,"bogusName":false,"lon":-71.06635990000001,"lat":48.4372732,"elevation":[]}]}],"tooSloped":false}]},"debugOutput":{"precalculationTime":21,"pathCalculationTime":16,"pathTimes":[11,3,2],"renderingTime":0,"totalTime":37,"timedOut":false},"elevationMetadata":{"ellipsoidToGeoidDifference":-28.885904201182168,"geoidElevation":false}}