{"requestParameters":{"date":"2018/04/02","walkSpeed":"1.33","walkReluctance":"2.0","fromPlace":"48.452817,-71.052497","maxWalkDistance":"3000","waitReluctance":"1.0","carSpeed":"33","numItineraries":"3","waitAtBeginningFactor":"0.4","mode":"TRANSIT,WALK","ignoreRealtimeUpdates":"false","stairsReluctance":"2.0","toPlace":"48.427847,-71.06056399","time":"7:0:00"},"plan":{"date":1522666800000,"from":{"name":"Origin","lon":-71.052497,"lat":48.452817,"orig":"","vertexType":"NORMAL"},"to":{"name":"Destination","lon":-71.06056399,"lat":48.427847,"orig":"","vertexType":"NORMAL"},"itineraries":[{"duration":1696,"startTime":1522667734000,"endTime":1522669430000,"walkTime":974,"transitTime":720,"waitingTime":2,"walkDistance":1244.7348646553341,"walkLimitExceeded":false,"elevationLost":0.0,"elevationGained":0.0,"transfers":0,"legs":[{"startTime":1522667734000,"endTime":1522668359000,"departureDelay":0,"arrivalDelay":0,"realTime":false,"distance":794.159,"pathway":false,"mode":"WALK","route":"","agencyTimeZoneOffset":-14400000,"interlineWithPreviousLeg":false,"from":{"name":"Origin","lon":-71.052497,"lat":48.452817,"departure":1522667734000,"orig":"","vertexType":"NORMAL"},"to":{"name":"Verdun / Riviera","stopId":"1:2023","stopCode":"2023","lon":-71.057875,"lat":48.449739,"arrival":1522668359000,"departure":1522668360000,"zoneId":"NA","stopIndex":14,"stopSequence":15,"vertexType":"TRANSIT"},"legGeometry":{"points":"kmvfHxntpLNFbAXHJBBBFBT?PAJCVCPEJCRp@XrAh@yClTNFxCdAvCfAVHbBp@~@sAf@y@","length":23},"rentedBike":false,"transitLeg":false,"duration":625.0,"steps":[{"distance":77.234,"relativeDirection":"DEPART","streetName":"Rue Lacordaire","absoluteDirection":"SOUTH","stayOn":false,"area":false,"bogusName":false,"lon":-71.05276618180746,"lat":48.45286554336297,"elevation":[]},{"distance":33.398,"relativeDirection":"SLIGHTLY_RIGHT","streetName":"Rue Fauteux","absoluteDirection":"WEST","stayOn":false,"area":false,"bogusName":false,"lon":-71.05325900000001,"lat":48.4523385,"elevation":[]},{"distance":78.45400000000001,"relativeDirection":"LEFT","streetName":"Rue Guy","absoluteDirection":"SOUTH","stayOn":false,"area":false,"bogusName":false,"lon":-71.053683,"lat":48.452437100000004,"elevation":[]},{"distance":267.631,"relativeDirection":"RIGHT","streetName":"Rue de Vimy","absoluteDirection":"WEST","stayOn":false,"area":false,"bogusName":false,"lon":-71.054021,"lat":48.4517681,"elevation":[]},{"distance":260.302,"relativeDirection":"LEFT","streetName":"Rue Richelieu","absoluteDirection":"SOUTH","stayOn":false,"area":false,"bogusName":false,"lon":-71.0574594,"lat":48.4525377,"elevation":[]},{"distance":77.14,"relativeDirection":"LEFT","streetName":"Rue de Verdun","absoluteDirection":"SOUTHEAST","stayOn":false,"area":false,"bogusName":false,"lon":-71.05850140000001,"lat":48.450301200000006,"elevation":[]}]},{"startTime":1522668360000,"endTime":1522669080000,"departureDelay":0,"arrivalDelay":0,"realTime":false,"distance":3566.9301798582574,"pathway":false,"mode":"BUS","route":"23","agencyName":"Société de Transport du Saguenay","agencyUrl":"http://ville.saguenay.ca/fr/services-aux-citoyens/transport-sts","agencyTimeZoneOffset":-14400000,"routeColor":"FF00FF","routeType":3,"routeId":"1:23","routeTextColor":"FFFFFF","interlineWithPreviousLeg":false,"tripBlockId":"4","headsign":"Terminus Chicoutimi","agencyId":"0","tripId":"1:217224","serviceDate":"20180402","from":{"name":"Verdun / Riviera","stopId":"1:2023","stopCode":"2023","lon":-71.057875,"lat":48.449739,"arrival":1522668359000,"departure":1522668360000,"zoneId":"NA","stopIndex":14,"stopSequence":15,"vertexType":"TRANSIT"},"to":{"name":"Terminus Chicoutimi","stopId":"1:1289","stopCode":"1289","lon":-71.066163,"lat":48.428677,"arrival":1522669080000,"departure":1522669081000,"zoneId":"NA","stopIndex":26,"stopSequence":27,"vertexType":"TRANSIT"},"legGeometry":{"points":"czufHhnupLT[~CkFf@s@\\e@x@}@jAeAXQZStBaAh@]`@]`@i@l@kDF_@R{AFWFMPIPC`@BT@V?TAVKLENCLCJ@J@xAb@x@Zz@\\CP?R@N@NFLFF`GtBx@Xw@pG@l@B\\DXL\\RZDFXPf@N@v@Bp@Dr@l@~HNlAH\\@HLd@\\z@Xd@X\\RTXRr@Zn@PfExAvDpALnBJt@Pp@|@`DHZPn@`@rBNnAFr@DbA?bB@jABzA?p@A???A???A?A???A@??A?A@??A@?@A??@A@???@A@?@?@A@?@?@?@?@???@?@?@?@?@?@@@?@?@@@?@@@?@@@?@@?@@??@@@?E`@Kr@]rACVEl@I|AAr@JbAWJe@FUAM?a@Ke@YYWWa@v@}@RQPMz@k@tAe@REZG^Af@@X@VF`@Jn@XbClAr@Xt\\`PrAb@pA^hBTjAFj@Pb@JPHLLJNJRFXDT?X?ZEVEVKTMNMHMFOB}DWSGOSYcAN}FFkAF}DJyDd@wPV_HjAN~ALI`C","length":195},"routeShortName":"23","routeLongName":"Côte Verdun via Aréna du Plateau","rentedBike":false,"transitLeg":true,"duration":720.0,"steps":[]},{"startTime":1522669081000,"endTime":1522669430000,"departureDelay":0,"arrivalDelay":0,"realTime":false,"distance":450.38,"pathway":false,"mode":"WALK","route":"","agencyTimeZoneOffset":-14400000,"interlineWithPreviousLeg":false,"from":{"name":"Terminus Chicoutimi","stopId":"1:1289","stopCode":"1289","lon":-71.066163,"lat":48.428677,"arrival":1522669080000,"departure":1522669081000,"zoneId":"NA","stopIndex":26,"stopSequence":27,"vertexType":"TRANSIT"},"to":{"name":"Destination","lon":-71.06056399,"lat":48.427847,"arrival":1522669430000,"orig":"","vertexType":"NORMAL"},"legGeometry":{"points":"{uqfHb~vpLbAJR@JDb@LR{H@k@@YFqB@i@HyEBw@?S@m@D}B","length":15},"rentedBike":false,"transitLeg":false,"duration":349.0,"steps":[{"distance":77.207,"relativeDirection":"DEPART","streetName":"Rue Morin","absoluteDirection":"SOUTH","stayOn":false,"area":false,"bogusName":false,"lon":-71.0654590096484,"lat":48.428628638946556,"elevation":[]},{"distance":373.173,"relativeDirection":"LEFT","streetName":"Rue Racine Est","absoluteDirection":"EAST","stayOn":false,"area":false,"bogusName":false,"lon":-71.0656238,"lat":48.4279449,"elevation":[]}]}],"tooSloped":false},{"duration":1184,"startTime":1522668366000,"endTime":1522669550000,"walkTime":357,"transitTime":825,"waitingTime":2,"walkDistance":460.0358345853744,"walkLimitExceeded":false,"elevationLost":0.0,"elevationGained":0.0,"transfers":0,"legs":[{"startTime":1522668366000,"endTime":1522668374000,"departureDelay":0,"arrivalDelay":0,"realTime":false,"distance":9.622,"pathway":false,"mode":"WALK","route":"","agencyTimeZoneOffset":-14400000,"interlineWithPreviousLeg":false,"from":{"name":"Origin","lon":-71.052497,"lat":48.452817,"departure":1522668366000,"orig":"","vertexType":"NORMAL"},"to":{"name":"Lacordaire / Dolbec","stopId":"1:755","stopCode":"755","lon":-71.0529,"lat":48.4528,"arrival":1522668374000,"departure":1522668375000,"zoneId":"NA","stopIndex":19,"stopSequence":20,"vertexType":"TRANSIT"},"legGeometry":{"points":"kmvfHxntpLNF","length":2},"rentedBike":false,"transitLeg":false,"duration":8.0,"steps":[{"distance":9.622,"relativeDirection":"DEPART","streetName":"Rue Lacordaire","absoluteDirection":"SOUTH","stayOn":false,"area":false,"bogusName":false,"lon":-71.05276618180746,"lat":48.45286554336297,"elevation":[]}]},{"startTime":1522668375000,"endTime":1522669200000,"departureDelay":0,"arrivalDelay":0,"realTime":false,"distance":4435.953050543964,"pathway":false,"mode":"BUS","route":"22","agencyName":"Société de Transport du Saguenay","agencyUrl":"http://ville.saguenay.ca/fr/services-aux-citoyens/transport-sts","agencyTimeZoneOffset":-14400000,"routeColor":"C0C000","routeType":3,"routeId":"1:22","routeTextColor":"000000","interlineWithPreviousLeg":false,"tripBlockId":"3","headsign":"Terminus Chicoutimi","agencyId":"0","tripId":"1:217188","serviceDate":"20180402","from":{"name":"Lacordaire / Dolbec","stopId":"1:755","stopCode":"755","lon":-71.0529,"lat":48.4528,"arrival":1522668374000,"departure":1522668375000,"zoneId":"NA","stopIndex":19,"stopSequence":20,"vertexType":"TRANSIT"},"to":{"name":"Terminus Chicoutimi","stopId":"1:1289","stopCode":"1289","lon":-71.066163,"lat":48.428677,"arrival":1522669200000,"departure":1522669201000,"zoneId":"NA","stopIndex":35,"stopSequence":36,"vertexType":"TRANSIT"},"legGeometry":{"points":"{lvfHdotpLz@VNJJRBTAVQdAn@XrAh@uCvSeA|He@hCo@|AiBbD~@^|IrDhAb@qAfJSzAMr@Yz@xAhDFNpBdFRp@Hl@Jz@BXXrCHl@Lh@Nf@r@nAr@r@`@PLFbAVH_AXeC@IdB_Mh@_EJk@x@x@bA`A|BrBnDrCl@f@|BlBrAbAj@d@ZTXNd@@lA[ZxDN|Ad@fAz@tB~AzDZ|@Zv@x@vBP\\h@~@PVrCmFhHqN~@eBr@cAt@_Av@}@RQPMz@k@tAe@REZG^Af@@X@VF`@Jn@XbClAr@Xt\\`PrAb@pA^hBTjAFj@Pb@JPHLLJNJRFXDT?X?ZEVEVKTMNMHMFOB}DWSGOSYcAN}FFkAF}DJyDd@wPV_HjAN~ALIzBQb@e@@","length":123},"routeShortName":"22","routeLongName":"Vanier","rentedBike":false,"transitLeg":true,"duration":825.0,"steps":[]},{"startTime":1522669201000,"endTime":1522669550000,"departureDelay":0,"arrivalDelay":0,"realTime":false,"distance":450.38,"pathway":false,"mode":"WALK","route":"","agencyTimeZoneOffset":-14400000,"interlineWithPreviousLeg":false,"from":{"name":"Terminus Chicoutimi","stopId":"1:1289","stopCode":"1289","lon":-71.066163,"lat":48.428677,"arrival":1522669200000,"departure":1522669201000,"zoneId":"NA","stopIndex":35,"stopSequence":36,"vertexType":"TRANSIT"},"to":{"name":"Destination","lon":-71.06056399,"lat":48.427847,"arrival":1522669550000,"orig":"","vertexType":"NORMAL"},"legGeometry":{"points":"{uqfHb~vpLbAJR@JDb@LR{H@k@@YFqB@i@HyEBw@?S@m@D}B","length":15},"rentedBike":false,"transitLeg":false,"duration":349.0,"steps":[{"distance":77.207,"relativeDirection":"DEPART","streetName":"Rue Morin","absoluteDirection":"SOUTH","stayOn":false,"area":false,"bogusName":false,"lon":-71.0654590096484,"lat":48.428628638946556,"elevation":[]},{"distance":373.173,"relativeDirection":"LEFT","streetName":"Rue Racine Est","absoluteDirection":"EAST","stayOn":false,"area":false,"bogusName":false,"lon":-71.0656238,"lat":48.4279449,"elevation":[]}]}],"tooSloped":false},{"duration":1087,"startTime":1522670263000,"endTime":1522671350000,"walkTime":357,"transitTime":728,"waitingTime":2,"walkDistance":460.0358345853744,"walkLimitExceeded":false,"elevationLost":0.0,"elevationGained":0.0,"transfers":0,"legs":[{"startTime":1522670263000,"endTime":1522670271000,"departureDelay":0,"arrivalDelay":0,"realTime":false,"distance":9.622,"pathway":false,"mode":"WALK","route":"","agencyTimeZoneOffset":-14400000,"interlineWithPreviousLeg":false,"from":{"name":"Origin","lon":-71.052497,"lat":48.452817,"departure":1522670263000,"orig":"","vertexType":"NORMAL"},"to":{"name":"Lacordaire / Dolbec","stopId":"1:755","stopCode":"755","lon":-71.0529,"lat":48.4528,"arrival":1522670271000,"departure":1522670272000,"zoneId":"NA","stopIndex":19,"stopSequence":20,"vertexType":"TRANSIT"},"legGeometry":{"points":"kmvfHxntpLNF","length":2},"rentedBike":false,"transitLeg":false,"duration":8.0,"steps":[{"distance":9.622,"relativeDirection":"DEPART","streetName":"Rue Lacordaire","absoluteDirection":"SOUTH","stayOn":false,"area":false,"bogusName":false,"lon":-71.05276618180746,"lat":48.45286554336297,"elevation":[]}]},{"startTime":1522670272000,"endTime":1522671000000,"departureDelay":0,"arrivalDelay":0,"realTime":false,"distance":4435.953050543964,"pathway":false,"mode":"BUS","route":"22","agencyName":"Société de Transport du Saguenay","agencyUrl":"http://ville.saguenay.ca/fr/services-aux-citoyens/transport-sts","agencyTimeZoneOffset":-14400000,"routeColor":"C0C000","routeType":3,"routeId":"1:22","routeTextColor":"000000","interlineWithPreviousLeg":false,"tripBlockId":"1","headsign":"Terminus Chicoutimi","agencyId":"0","tripId":"1:217132","serviceDate":"20180402","from":{"name":"Lacordaire / Dolbec","stopId":"1:755","stopCode":"755","lon":-71.0529,"lat":48.4528,"arrival":1522670271000,"departure":1522670272000,"zoneId":"NA","stopIndex":19,"stopSequence":20,"vertexType":"TRANSIT"},"to":{"name":"Terminus Chicoutimi","stopId":"1:1289","stopCode":"1289","lon":-71.066163,"lat":48.428677,"arrival":1522671000000,"departure":1522671001000,"zoneId":"NA","stopIndex":35,"stopSequence":36,"vertexType":"TRANSIT"},"legGeometry":{"points":"{lvfHdotpLz@VNJJRBTAVQdAn@XrAh@uCvSeA|He@hCo@|AiBbD~@^|IrDhAb@qAfJSzAMr@Yz@xAhDFNpBdFRp@Hl@Jz@BXXrCHl@Lh@Nf@r@nAr@r@`@PLFbAVH_AXeC@IdB_Mh@_EJk@x@x@bA`A|BrBnDrCl@f@|BlBrAbAj@d@ZTXNd@@lA[ZxDN|Ad@fAz@tB~AzDZ|@Zv@x@vBP\\h@~@PVrCmFhHqN~@eBr@cAt@_Av@}@RQPMz@k@tAe@REZG^Af@@X@VF`@Jn@XbClAr@Xt\\`PrAb@pA^hBTjAFj@Pb@JPHLLJNJRFXDT?X?ZEVEVKTMNMHMFOB}DWSGOSYcAN}FFkAF}DJyDd@wPV_HjAN~ALIzBQb@e@@","length":123},"routeShortName":"22","routeLongName":"Vanier","rentedBike":false,"transitLeg":true,"duration":728.0,"steps":[]},{"startTime":1522671001000,"endTime":1522671350000,"departureDelay":0,"arrivalDelay":0,"realTime":false,"distance":450.38,"pathway":false,"mode":"WALK","route":"","agencyTimeZoneOffset":-14400000,"interlineWithPreviousLeg":false,"from":{"name":"Terminus Chicoutimi","stopId":"1:1289","stopCode":"1289","lon":-71.066163,"lat":48.428677,"arrival":1522671000000,"departure":1522671001000,"zoneId":"NA","stopIndex":35,"stopSequence":36,"vertexType":"TRANSIT"},"to":{"name":"Destination","lon":-71.06056399,"lat":48.427847,"arrival":1522671350000,"orig":"","vertexType":"NORMAL"},"legGeometry":{"points":"{uqfHb~vpLbAJR@JDb@LR{H@k@@YFqB@i@HyEBw@?S@m@D}B","length":15},"rentedBike":false,"transitLeg":false,"duration":349.0,"steps":[{"distance":77.207,"relativeDirection":"DEPART","streetName":"Rue Morin","absoluteDirection":"SOUTH","stayOn":false,"area":false,"bogusName":false,"lon":-71.0654590096484,"lat":48.428628638946556,"elevation":[]},{"distance":373.173,"relativeDirection":"LEFT","streetName":"Rue Racine Est","absoluteDirection":"EAST","stayOn":false,"area":false,"bogusName":false,"lon":-71.0656238,"lat":48.4279449,"elevation":[]}]}],"tooSloped":false}]},"debugOutput":{"precalculationTime":25,"pathCalculationTime":15,"pathTimes":[8,5,2],"renderingTime":0,"totalTime":40,"timedOut":false},"elevationMetadata":{"ellipsoidToGeoidDifference":-28.885904201182168,"geoidElevation":false}}