{"requestParameters":{"date":"2018/04/02","walkSpeed":"1.33","walkReluctance":"2.0","fromPlace":"48.446173,-71.09069999","maxWalkDistance":"3000","waitReluctance":"1.0","carSpeed":"33","numItineraries":"3","waitAtBeginningFactor":"0.4","mode":"TRANSIT,WALK","ignoreRealtimeUpdates":"false","stairsReluctance":"2.0","toPlace":"48.454704,-71.06017","time":"21:45:00"},"plan":{"date":1522719900000,"from":{"name":"Origin","lon":-71.09069999,"lat":48.446173,"orig":"","vertexType":"NORMAL"},"to":{"name":"Destination","lon":-71.06017,"lat":48.454704,"orig":"","vertexType":"NORMAL"},"itineraries":[{"duration":1832,"startTime":1522720459000,"endTime":1522722291000,"walkTime":196,"transitTime":1634,"waitingTime":2,"walkDistance":251.6232105252119,"walkLimitExceeded":false,"elevationLost":0.0,"elevationGained":0.0,"transfers":0,"legs":[{"startTime":1522720459000,"endTime":1522720545000,"departureDelay":0,"arrivalDelay":0,"realTime":false,"distance":108.143,"pathway":false,"mode":"WALK","route":"","agencyTimeZoneOffset":-14400000,"interlineWithPreviousLeg":false,"from":{"name":"Origin","lon":-71.09069999,"lat":48.446173,"departure":1522720459000,"orig":"","vertexType":"NORMAL"},"to":{"name":"Vallières / Éric","stopId":"1:686","stopCode":"686","lon":-71.092505,"lat":48.446308,"arrival":1522720545000,"departure":1522720546000,"zoneId":"NA","stopIndex":10,"stopSequence":11,"vertexType":"TRANSIT"},"legGeometry":{"points":"sbufHl`|pLE@kAdALd@Lp@Hp@","length":6},"rentedBike":false,"transitLeg":false,"duration":86.0,"steps":[{"distance":53.136,"relativeDirection":"DEPART","streetName":"Rue Saint-Armand","absoluteDirection":"NORTHWEST","stayOn":false,"area":false,"bogusName":false,"lon":-71.09142170621203,"lat":48.446021702586286,"elevation":[]},{"distance":55.007,"relativeDirection":"LEFT","streetName":"Rue Vallières","absoluteDirection":"SOUTHWEST","stayOn":false,"area":false,"bogusName":false,"lon":-71.0917854,"lat":48.446433000000006,"elevation":[]}]},{"startTime":1522720546000,"endTime":1522721400000,"departureDelay":0,"arrivalDelay":0,"realTime":false,"distance":5792.682126927852,"pathway":false,"mode":"BUS","route":"20","agencyName":"Société de Transport du Saguenay","agencyUrl":"http://ville.saguenay.ca/fr/services-aux-citoyens/transport-sts","agencyTimeZoneOffset":-14400000,"routeColor":"0000FF","routeType":3,"routeId":"1:20","routeTextColor":"FFFFFF","interlineWithPreviousLeg":false,"tripBlockId":"3","headsign":"Terminus Chicoutimi","agencyId":"0","tripId":"1:217217","serviceDate":"20180402","from":{"name":"Vallières / Éric","stopId":"1:686","stopCode":"686","lon":-71.092505,"lat":48.446308,"arrival":1522720545000,"departure":1522720546000,"zoneId":"NA","stopIndex":10,"stopSequence":11,"vertexType":"TRANSIT"},"to":{"name":"Terminus Chicoutimi","stopId":"1:1289","stopCode":"1289","lon":-71.066163,"lat":48.428677,"arrival":1522721400000,"departure":1522721700000,"zoneId":"NA","stopIndex":31,"stopSequence":32,"vertexType":"TRANSIT"},"legGeometry":{"points":"}cufH`g|pLDj@Bp@?~I@fHAd@C`@ERELA@GHMHi@PSBy@BW?YDMDC?OHULWVOXQXSb@~@~BJXF`@Fj@?VAvACv@e@hNGx@MdAQr@ILQ\\a@d@w@aCCQAO@ODOHQDSDWLoDRgGBMFMHIHAfBNDuA@wA?WGk@Ga@KY_A_CRc@PYNYUk@Q[O]KYC]_AaQYwF?W?Y?UBc@D_@d@{DNaAB]@O@]?}BbA?hA?A}I?iEEcEjBCzBEd@Cf@Gj@MZMb@S`Ag@DClAk@f@Qv@Ov@IlBCnBa@TCTBjBPH@LiCDe@Lw@|@cELo@D[Dk@@[@uC@SBUDQFSt@yAHIr@eAjAaB`AqA^i@p@kAVc@\\cAr@eBv@aB|B_CJSDKLe@NeAJaAHeBBi@F{AaFe@c@IcDeAWtBOfAERGLIHIFMBa@NOQSOUGOCW?UFMHa@XUHQ?QIQOIM[g@rCmFhHqN~@eBr@cAt@_Av@}@RQPMz@k@tAe@REZG^Af@@X@VF`@Jn@XbClAr@Xt\\`PrAb@pA^hBTjAFj@Pb@JPHLLJNJRFXDT?X?ZEVEVKTMNMHMFOB}DWSGOSYcAN}FFkAF}DJyDPwGj@_QjAN~ALIpBGVITe@@","length":222},"routeShortName":"20","routeLongName":"Sainte-Claire","rentedBike":false,"transitLeg":true,"duration":854.0,"steps":[]},{"startTime":1522721700000,"endTime":1522722180000,"departureDelay":0,"arrivalDelay":0,"realTime":false,"distance":3171.96201036206,"pathway":false,"mode":"BUS","route":"22","agencyName":"Société de Transport du Saguenay","agencyUrl":"http://ville.saguenay.ca/fr/services-aux-citoyens/transport-sts","agencyTimeZoneOffset":-14400000,"routeColor":"C0C000","routeType":3,"routeId":"1:22","routeTextColor":"000000","interlineWithPreviousLeg":true,"tripBlockId":"3","headsign":"Terminus Chicoutimi","agencyId":"0","tripId":"1:217218","serviceDate":"20180402","from":{"name":"Terminus Chicoutimi","stopId":"1:1289","stopCode":"1289","lon":-71.066163,"lat":48.428677,"arrival":1522721400000,"departure":1522721700000,"zoneId":"NA","stopIndex":0,"stopSequence":1,"vertexType":"TRANSIT"},"to":{"name":"Delisle / Vimy","stopId":"1:2016","stopCode":"2016","lon":-71.060948,"lat":48.45351,"arrival":1522722180000,"departure":1522722181000,"zoneId":"NA","stopIndex":9,"stopSequence":10,"vertexType":"TRANSIT"},"legGeometry":{"points":"evqfHzcwpLg@?UhKxDVOhHMrH~CYhBBInAKXSNg@L{JHgBMoA[s@Usb@gS}@g@u@Su@Ia@Ck@Dm@HwAf@c@VeAx@iAlAU^[d@eLtTsAvBMJYF[EMIQ]y@wB[y@[{@_B{D{@uBe@gAO}AGw@SaCmAZe@AYOy@o@MKsAcA}BmBuC}BgA}@}BsBaAaA{@y@d@kDp@uEyIkDqHwC_@QmLyE","length":63},"routeShortName":"22","routeLongName":"Vanier","rentedBike":false,"transitLeg":true,"duration":480.0,"steps":[]},{"startTime":1522722181000,"endTime":1522722291000,"departureDelay":0,"arrivalDelay":0,"realTime":false,"distance":143.446,"pathway":false,"mode":"WALK","route":"","agencyTimeZoneOffset":-14400000,"interlineWithPreviousLeg":false,"from":{"name":"Delisle / Vimy","stopId":"1:2016","stopCode":"2016","lon":-71.060948,"lat":48.45351,"arrival":1522722180000,"departure":1522722181000,"zoneId":"NA","stopIndex":9,"stopSequence":10,"vertexType":"TRANSIT"},"to":{"name":"Destination","lon":-71.06017,"lat":48.454704,"arrival":1522722291000,"orig":"","vertexType":"NORMAL"},"legGeometry":{"points":"qqvfHpbvpLcAa@qDoA","length":3},"rentedBike":false,"transitLeg":false,"duration":110.0,"steps":[{"distance":143.446,"relativeDirection":"DEPART","streetName":"Rue Delisle","absoluteDirection":"NORTH","stayOn":false,"area":false,"bogusName":false,"lon":-71.061046170069,"lat":48.4535313186617,"elevation":[]}]}],"tooSloped":false},{"duration":2183,"startTime":1522722302000,"endTime":1522724485000,"walkTime":2083,"transitTime":98,"waitingTime":2,"walkDistance":2697.174616533396,"walkLimitExceeded":false,"elevationLost":0.0,"elevationGained":0.0,"transfers":0,"legs":[{"startTime":1522722302000,"endTime":1522722861000,"departureDelay":0,"arrivalDelay":0,"realTime":false,"distance":711.88,"pathway":false,"mode":"WALK","route":"","agencyTimeZoneOffset":-14400000,"interlineWithPreviousLeg":false,"from":{"name":"Origin","lon":-71.09069999,"lat":48.446173,"departure":1522722302000,"orig":"","vertexType":"NORMAL"},"to":{"name":"boul. Ste-Geneviève / Ste-Marie","stopId":"1:731","stopCode":"731","lon":-71.085744,"lat":48.448746,"arrival":1522722861000,"departure":1522722862000,"zoneId":"NA","stopIndex":29,"stopSequence":30,"vertexType":"TRANSIT"},"legGeometry":{"points":"sbufHl`|pLE@kAdAK][eA]gAsA}COa@GQEYEg@Ae@eAAeACGuIEoE?oD?[IGa@{@oAvA","length":21},"rentedBike":false,"transitLeg":false,"duration":559.0,"steps":[{"distance":53.136,"relativeDirection":"DEPART","streetName":"Rue Saint-Armand","absoluteDirection":"NORTHWEST","stayOn":false,"area":false,"bogusName":false,"lon":-71.09142170621203,"lat":48.446021702586286,"elevation":[]},{"distance":211.613,"relativeDirection":"RIGHT","streetName":"Rue Vallières","absoluteDirection":"NORTHEAST","stayOn":false,"area":false,"bogusName":false,"lon":-71.0917854,"lat":48.446433000000006,"elevation":[]},{"distance":78.416,"relativeDirection":"LEFT","streetName":"Rue Louis-XIV","absoluteDirection":"NORTH","stayOn":false,"area":false,"bogusName":false,"lon":-71.08935740000001,"lat":48.447391700000004,"elevation":[]},{"distance":203.02300000000002,"relativeDirection":"RIGHT","streetName":"Rue Giffard","absoluteDirection":"EAST","stayOn":false,"area":false,"bogusName":false,"lon":-71.0893258,"lat":48.4480966,"elevation":[]},{"distance":75.112,"relativeDirection":"CONTINUE","streetName":"path","absoluteDirection":"EAST","stayOn":false,"area":false,"bogusName":true,"lon":-71.08657550000001,"lat":48.4481685,"elevation":[]},{"distance":35.026,"relativeDirection":"LEFT","streetName":"Rue Sainte-Marie Sud","absoluteDirection":"NORTHEAST","stayOn":false,"area":false,"bogusName":false,"lon":-71.0855571,"lat":48.448167500000004,"elevation":[]},{"distance":55.554,"relativeDirection":"LEFT","streetName":"Boulevard Sainte-Geneviève","absoluteDirection":"NORTHWEST","stayOn":false,"area":false,"bogusName":false,"lon":-71.08521470000001,"lat":48.448382800000005,"elevation":[]}]},{"startTime":1522722862000,"endTime":1522722960000,"departureDelay":0,"arrivalDelay":0,"realTime":false,"distance":1091.6121522670567,"pathway":false,"mode":"BUS","route":"21","agencyName":"Société de Transport du Saguenay","agencyUrl":"http://ville.saguenay.ca/fr/services-aux-citoyens/transport-sts","agencyTimeZoneOffset":-14400000,"routeColor":"556B2F","routeType":3,"routeId":"1:21","routeTextColor":"FFFFFF","interlineWithPreviousLeg":false,"tripBlockId":"2","headsign":"Terminus Chicoutimi","agencyId":"0","tripId":"1:217183","serviceDate":"20180402","from":{"name":"boul. Ste-Geneviève / Ste-Marie","stopId":"1:731","stopCode":"731","lon":-71.085744,"lat":48.448746,"arrival":1522722861000,"departure":1522722862000,"zoneId":"NA","stopIndex":29,"stopSequence":30,"vertexType":"TRANSIT"},"to":{"name":"boul. Ste-Geneviève (no. 453)","stopId":"1:736","stopCode":"736","lon":-71.0749,"lat":48.4422,"arrival":1522722960000,"departure":1522722961000,"zoneId":"NA","stopIndex":32,"stopSequence":33,"vertexType":"TRANSIT"},"legGeometry":{"points":"}sufHh|zpLrFkG`FgGdBwBt@cAbAmBx@eBj@eB`CoHpCyJbAmCtAuCZg@|@gB","length":14},"routeShortName":"21","routeLongName":"Boul. Ste-Geneviève/Élie","rentedBike":false,"transitLeg":true,"duration":98.0,"steps":[]},{"startTime":1522722961000,"endTime":1522724485000,"departureDelay":0,"arrivalDelay":0,"realTime":false,"distance":1985.0480000000002,"pathway":false,"mode":"WALK","route":"","agencyTimeZoneOffset":-14400000,"interlineWithPreviousLeg":false,"from":{"name":"boul. Ste-Geneviève (no. 453)","stopId":"1:736","stopCode":"736","lon":-71.0749,"lat":48.4422,"arrival":1522722960000,"departure":1522722961000,"zoneId":"NA","stopIndex":32,"stopSequence":33,"vertexType":"TRANSIT"},"to":{"name":"Destination","lon":-71.06017,"lat":48.454704,"arrival":1522724485000,"orig":"","vertexType":"NORMAL"},"legGeometry":{"points":"yjtfH`yxpLrAiCSSu@mBsAkD?A]{@_B}Du@oB?AO]M]KYKs@Ea@Gu@O{BQoBiA{MIk@GYISIOIKIGKIa@OWIqQeHGAoIqD}DcBqBy@GCWKiAe@_JkDECcAa@qDoA","length":40},"rentedBike":false,"transitLeg":false,"duration":1524.0,"steps":[{"distance":68.751,"relativeDirection":"DEPART","streetName":"Boulevard Sainte-Geneviève","absoluteDirection":"SOUTHEAST","stayOn":false,"area":false,"bogusName":false,"lon":-71.07488215191115,"lat":48.442212866844194,"elevation":[]},{"distance":370.1040000000001,"relativeDirection":"LEFT","streetName":"Rue des Champs","absoluteDirection":"NORTHEAST","stayOn":false,"area":false,"bogusName":false,"lon":-71.07419630000001,"lat":48.441794200000004,"elevation":[]},{"distance":1546.1930000000002,"relativeDirection":"CONTINUE","streetName":"Rue Delisle","absoluteDirection":"EAST","stayOn":false,"area":false,"bogusName":false,"lon":-71.0701683,"lat":48.443755,"elevation":[]}]}],"tooSloped":false},{"duration":1420,"startTime":1522723313000,"endTime":1522724733000,"walkTime":1145,"transitTime":273,"waitingTime":2,"walkDistance":1471.9228571366343,"walkLimitExceeded":false,"elevationLost":0.0,"elevationGained":0.0,"transfers":0,"legs":[{"startTime":1522723313000,"endTime":1522723886000,"departureDelay":0,"arrivalDelay":0,"realTime":false,"distance":732.3060000000002,"pathway":false,"mode":"WALK","route":"","agencyTimeZoneOffset":-14400000,"interlineWithPreviousLeg":false,"from":{"name":"Origin","lon":-71.09069999,"lat":48.446173,"departure":1522723313000,"orig":"","vertexType":"NORMAL"},"to":{"name":"St-Gérard / Pasteur","stopId":"1:727","stopCode":"727","lon":-71.084309,"lat":48.448719,"arrival":1522723886000,"departure":1522723887000,"zoneId":"NA","stopIndex":4,"stopSequence":5,"vertexType":"TRANSIT"},"legGeometry":{"points":"sbufHl`|pLE@kAdAK][eA]gAsA}COa@GQEYEg@Ae@eAAeACGuIEoE?oD?[IGa@{@O]w@mBKU","length":23},"rentedBike":false,"transitLeg":false,"duration":573.0,"steps":[{"distance":53.136,"relativeDirection":"DEPART","streetName":"Rue Saint-Armand","absoluteDirection":"NORTHWEST","stayOn":false,"area":false,"bogusName":false,"lon":-71.09142170621203,"lat":48.446021702586286,"elevation":[]},{"distance":211.613,"relativeDirection":"RIGHT","streetName":"Rue Vallières","absoluteDirection":"NORTHEAST","stayOn":false,"area":false,"bogusName":false,"lon":-71.0917854,"lat":48.446433000000006,"elevation":[]},{"distance":78.416,"relativeDirection":"LEFT","streetName":"Rue Louis-XIV","absoluteDirection":"NORTH","stayOn":false,"area":false,"bogusName":false,"lon":-71.08935740000001,"lat":48.447391700000004,"elevation":[]},{"distance":203.02300000000002,"relativeDirection":"RIGHT","streetName":"Rue Giffard","absoluteDirection":"EAST","stayOn":false,"area":false,"bogusName":false,"lon":-71.0893258,"lat":48.4480966,"elevation":[]},{"distance":75.112,"relativeDirection":"CONTINUE","streetName":"path","absoluteDirection":"EAST","stayOn":false,"area":false,"bogusName":true,"lon":-71.08657550000001,"lat":48.4481685,"elevation":[]},{"distance":35.026,"relativeDirection":"LEFT","streetName":"Rue Sainte-Marie Sud","absoluteDirection":"NORTHEAST","stayOn":false,"area":false,"bogusName":false,"lon":-71.0855571,"lat":48.448167500000004,"elevation":[]},{"distance":75.97999999999999,"relativeDirection":"CONTINUE","streetName":"Rue Saint-Gérard","absoluteDirection":"NORTHEAST","stayOn":false,"area":false,"bogusName":false,"lon":-71.08521470000001,"lat":48.448382800000005,"elevation":[]}]},{"startTime":1522723887000,"endTime":1522724160000,"departureDelay":0,"arrivalDelay":0,"realTime":false,"distance":2177.277262893022,"pathway":false,"mode":"BUS","route":"23","agencyName":"Société de Transport du Saguenay","agencyUrl":"http://ville.saguenay.ca/fr/services-aux-citoyens/transport-sts","agencyTimeZoneOffset":-14400000,"routeColor":"FF00FF","routeType":3,"routeId":"1:23","routeTextColor":"FFFFFF","interlineWithPreviousLeg":false,"tripBlockId":"5","headsign":"Terminus Chicoutimi","agencyId":"0","tripId":"1:217282","serviceDate":"20180402","from":{"name":"St-Gérard / Pasteur","stopId":"1:727","stopCode":"727","lon":-71.084309,"lat":48.448719,"arrival":1522723886000,"departure":1522723887000,"zoneId":"NA","stopIndex":4,"stopSequence":5,"vertexType":"TRANSIT"},"to":{"name":"Verdun / Riviera","stopId":"1:2023","stopCode":"2023","lon":-71.057875,"lat":48.449739,"arrival":1522724160000,"departure":1522724161000,"zoneId":"NA","stopIndex":14,"stopSequence":15,"vertexType":"TRANSIT"},"legGeometry":{"points":"ssufHxtzpLGCUi@Wm@ScA_@gGSaE@_@@_@@ERoBFe@No@`@gAbCyFNe@Ha@He@Fg@Du@Dg@Hc@Pa@RW\\S`@QZEm@eHM}B?GGi@Is@Ou@Qw@Mo@Kw@ImAGoBAk@aALa@?YEUKc@Yc@_@KOIUGUEWAW?YBqAH_AXeC@IdB_Mh@_EJk@d@kDhAqI`AgHz@oGBU?UAWCWUwAWD]B]AUEoAc@kE}AOIq@g@g@u@]w@b@s@","length":78},"routeShortName":"23","routeLongName":"Côte Verdun via Aréna du Plateau","rentedBike":false,"transitLeg":true,"duration":273.0,"steps":[]},{"startTime":1522724161000,"endTime":1522724733000,"departureDelay":0,"arrivalDelay":0,"realTime":false,"distance":739.424,"pathway":false,"mode":"WALK","route":"","agencyTimeZoneOffset":-14400000,"interlineWithPreviousLeg":false,"from":{"name":"Verdun / Riviera","stopId":"1:2023","stopCode":"2023","lon":-71.057875,"lat":48.449739,"arrival":1522724160000,"departure":1522724161000,"zoneId":"NA","stopIndex":14,"stopSequence":15,"vertexType":"TRANSIT"},"to":{"name":"Destination","lon":-71.06017,"lat":48.454704,"arrival":1522724733000,"orig":"","vertexType":"NORMAL"},"legGeometry":{"points":"czufHfnupLg@x@_ArAcBq@WIwCgAyCeAOGmAbIG^Ib@GZOd@Q`@U`@kB|CqDoA","length":17},"rentedBike":false,"transitLeg":false,"duration":572.0,"steps":[{"distance":77.14,"relativeDirection":"DEPART","streetName":"Rue de Verdun","absoluteDirection":"NORTHWEST","stayOn":false,"area":false,"bogusName":false,"lon":-71.05779790898674,"lat":48.44978803093983,"elevation":[]},{"distance":260.302,"relativeDirection":"RIGHT","streetName":"Rue Richelieu","absoluteDirection":"NORTH","stayOn":false,"area":false,"bogusName":false,"lon":-71.05850140000001,"lat":48.450301200000006,"elevation":[]},{"distance":298.79499999999996,"relativeDirection":"LEFT","streetName":"Rue de Vimy","absoluteDirection":"WEST","stayOn":false,"area":false,"bogusName":false,"lon":-71.0574594,"lat":48.4525377,"elevation":[]},{"distance":103.187,"relativeDirection":"RIGHT","streetName":"Rue Delisle","absoluteDirection":"NORTH","stayOn":false,"area":false,"bogusName":false,"lon":-71.0608763,"lat":48.4538754,"elevation":[]}]}],"tooSloped":false}]},"debugOutput":{"precalculationTime":10,"pathCalculationTime":24,"pathTimes":[16,4,4],"renderingTime":0,"totalTime":34,"timedOut":false},"elevationMetadata":{"ellipsoidToGeoidDifference":-28.885904201182168,"geoidElevation":false}}