{"requestParameters":{"date":"2018/04/02","walkSpeed":"1.33","walkReluctance":"2.0","fromPlace":"48.438555,-71.070454","maxWalkDistance":"3000","waitReluctance":"1.0","carSpeed":"33","numItineraries":"3","waitAtBeginningFactor":"0.4","mode":"TRANSIT,WALK","ignoreRealtimeUpdates":"false","stairsReluctance":"2.0","toPlace":"48.449901,-71.076722","time":"9:30:00"},"plan":{"date":1522675800000,"from":{"name":"Origin","lon":-71.070454,"lat":48.438555,"orig":"","vertexType":"NORMAL"},"to":{"name":"Destination","lon":-71.076722,"lat":48.449901,"orig":"","vertexType":"NORMAL"},"itineraries":[{"duration":718,"startTime":1522676447000,"endTime":1522677165000,"walkTime":563,"transitTime":153,"waitingTime":2,"walkDistance":704.594090217946,"walkLimitExceeded":false,"elevationLost":0.0,"elevationGained":0.0,"transfers":0,"legs":[{"startTime":1522676447000,"endTime":1522676999000,"departureDelay":0,"arrivalDelay":0,"realTime":false,"distance":689.988,"pathway":false,"mode":"WALK","route":"","agencyTimeZoneOffset":-14400000,"interlineWithPreviousLeg":false,"from":{"name":"Origin","lon":-71.070454,"lat":48.438555,"departure":1522676447000,"orig":"","vertexType":"NORMAL"},"to":{"name":"boul. Ste-Geneviève / Champs","stopId":"1:705","stopCode":"705","lon":-71.074706,"lat":48.442337,"arrival":1522676999000,"departure":1522677000000,"zoneId":"NA","stopIndex":1,"stopSequence":2,"vertexType":"TRANSIT"},"legGeometry":{"points":"susfHd_xpLL`@Ld@Jf@F\\@HFj@Bf@Bj@@h@?j@q@Ie@Qg@YQIUOUBMFYdAY|BWFS@u@@_@Eg@Ma@Qu@WeC`FMRSSoAdC","length":31},"rentedBike":false,"transitLeg":false,"duration":552.0,"steps":[{"distance":142.88299999999998,"relativeDirection":"DEPART","streetName":"Rue des Glaïeuls","absoluteDirection":"SOUTHWEST","stayOn":false,"area":false,"bogusName":false,"lon":-71.070742,"lat":48.438827,"elevation":[]},{"distance":197.42700000000002,"relativeDirection":"RIGHT","streetName":"Rue de la Reine","absoluteDirection":"NORTH","stayOn":false,"area":false,"bogusName":false,"lon":-71.07257390000001,"lat":48.4384864,"elevation":[]},{"distance":147.373,"relativeDirection":"RIGHT","streetName":"Rue de Carillon","absoluteDirection":"NORTH","stayOn":false,"area":false,"bogusName":false,"lon":-71.0732198,"lat":48.4397612,"elevation":[]},{"distance":202.305,"relativeDirection":"LEFT","streetName":"Boulevard Sainte-Geneviève","absoluteDirection":"NORTHWEST","stayOn":false,"area":false,"bogusName":false,"lon":-71.0729661,"lat":48.4410559,"elevation":[]}]},{"startTime":1522677000000,"endTime":1522677153000,"departureDelay":0,"arrivalDelay":0,"realTime":false,"distance":1404.8262225349915,"pathway":false,"mode":"BUS","route":"21","agencyName":"Société de Transport du Saguenay","agencyUrl":"http://ville.saguenay.ca/fr/services-aux-citoyens/transport-sts","agencyTimeZoneOffset":-14400000,"routeColor":"556B2F","routeType":3,"routeId":"1:21","routeTextColor":"FFFFFF","interlineWithPreviousLeg":false,"tripBlockId":"2","headsign":"Terminus Chicoutimi","agencyId":"0","tripId":"1:217162","serviceDate":"20180402","from":{"name":"boul. Ste-Geneviève / Champs","stopId":"1:705","stopCode":"705","lon":-71.074706,"lat":48.442337,"arrival":1522676999000,"departure":1522677000000,"zoneId":"NA","stopIndex":1,"stopSequence":2,"vertexType":"TRANSIT"},"to":{"name":"Pinel (no. 163)","stopId":"1:730","stopCode":"730","lon":-71.077992,"lat":48.45046,"arrival":1522677153000,"departure":1522677154000,"zoneId":"NA","stopIndex":6,"stopSequence":7,"vertexType":"TRANSIT"},"legGeometry":{"points":"iktfHhxxpLuAnCmBlE}@|B_BvFoC`JCD}@hCo@~Aq@pAs@fAWs@IUC[AI?QCeGAs@Gy@Ks@Ou@OcAIcAIgAWgCG_@Og@IQS]UWYQWIUA[Da@P]RSVQ`@Ib@Ef@Et@Gf@Id@I`@Od@cCxFQOgAwA_FqGO[`BcEY_@MOaBtDLTh@bATZ","length":57},"routeShortName":"21","routeLongName":"Boul. Ste-Geneviève/Élie","rentedBike":false,"transitLeg":true,"duration":153.0,"steps":[]},{"startTime":1522677154000,"endTime":1522677165000,"departureDelay":0,"arrivalDelay":0,"realTime":false,"distance":14.37,"pathway":false,"mode":"WALK","route":"","agencyTimeZoneOffset":-14400000,"interlineWithPreviousLeg":false,"from":{"name":"Pinel (no. 163)","stopId":"1:730","stopCode":"730","lon":-71.077992,"lat":48.45046,"arrival":1522677153000,"departure":1522677154000,"zoneId":"NA","stopIndex":6,"stopSequence":7,"vertexType":"TRANSIT"},"to":{"name":"Destination","lon":-71.076722,"lat":48.449901,"arrival":1522677165000,"orig":"","vertexType":"NORMAL"},"legGeometry":{"points":"_~ufHxkypLEGKQ","length":3},"rentedBike":false,"transitLeg":false,"duration":11.0,"steps":[{"distance":14.37,"relativeDirection":"DEPART","streetName":"Rue Pinel","absoluteDirection":"NORTHEAST","stayOn":false,"area":false,"bogusName":false,"lon":-71.07788276791463,"lat":48.45040022579413,"elevation":[]}]}],"tooSloped":false},{"duration":968,"startTime":1522676408000,"endTime":1522677376000,"walkTime":807,"transitTime":159,"waitingTime":2,"walkDistance":1022.7760375854331,"walkLimitExceeded":false,"elevationLost":0.0,"elevationGained":0.0,"transfers":0,"legs":[{"startTime":1522676408000,"endTime":1522676960000,"departureDelay":0,"arrivalDelay":0,"realTime":false,"distance":689.988,"pathway":false,"mode":"WALK","route":"","agencyTimeZoneOffset":-14400000,"interlineWithPreviousLeg":false,"from":{"name":"Origin","lon":-71.070454,"lat":48.438555,"departure":1522676408000,"orig":"","vertexType":"NORMAL"},"to":{"name":"boul. Ste-Geneviève / Champs","stopId":"1:705","stopCode":"705","lon":-71.074706,"lat":48.442337,"arrival":1522676960000,"departure":1522676961000,"zoneId":"NA","stopIndex":1,"stopSequence":2,"vertexType":"TRANSIT"},"legGeometry":{"points":"susfHd_xpLL`@Ld@Jf@F\\@HFj@Bf@Bj@@h@?j@q@Ie@Qg@YQIUOUBMFYdAY|BWFS@u@@_@Eg@Ma@Qu@WeC`FMRSSoAdC","length":31},"rentedBike":false,"transitLeg":false,"duration":552.0,"steps":[{"distance":142.88299999999998,"relativeDirection":"DEPART","streetName":"Rue des Glaïeuls","absoluteDirection":"SOUTHWEST","stayOn":false,"area":false,"bogusName":false,"lon":-71.070742,"lat":48.438827,"elevation":[]},{"distance":197.42700000000002,"relativeDirection":"RIGHT","streetName":"Rue de la Reine","absoluteDirection":"NORTH","stayOn":false,"area":false,"bogusName":false,"lon":-71.07257390000001,"lat":48.4384864,"elevation":[]},{"distance":147.373,"relativeDirection":"RIGHT","streetName":"Rue de Carillon","absoluteDirection":"NORTH","stayOn":false,"area":false,"bogusName":false,"lon":-71.0732198,"lat":48.4397612,"elevation":[]},{"distance":202.305,"relativeDirection":"LEFT","streetName":"Boulevard Sainte-Geneviève","absoluteDirection":"NORTHWEST","stayOn":false,"area":false,"bogusName":false,"lon":-71.0729661,"lat":48.4410559,"elevation":[]}]},{"startTime":1522676961000,"endTime":1522677120000,"departureDelay":0,"arrivalDelay":0,"realTime":false,"distance":1271.0607430505959,"pathway":false,"mode":"BUS","route":"23","agencyName":"Société de Transport du Saguenay","agencyUrl":"http://ville.saguenay.ca/fr/services-aux-citoyens/transport-sts","agencyTimeZoneOffset":-14400000,"routeColor":"FF00FF","routeType":3,"routeId":"1:23","routeTextColor":"FFFFFF","interlineWithPreviousLeg":false,"tripBlockId":"5","headsign":"Terminus Chicoutimi","agencyId":"0","tripId":"1:217256","serviceDate":"20180402","from":{"name":"boul. Ste-Geneviève / Champs","stopId":"1:705","stopCode":"705","lon":-71.074706,"lat":48.442337,"arrival":1522676960000,"departure":1522676961000,"zoneId":"NA","stopIndex":1,"stopSequence":2,"vertexType":"TRANSIT"},"to":{"name":"École Secondaire Charles-Gravel (St-Gérard)","stopId":"1:728","stopCode":"728","lon":-71.08106,"lat":48.449225,"arrival":1522677120000,"departure":1522677121000,"zoneId":"NA","stopIndex":5,"stopSequence":6,"vertexType":"TRANSIT"},"legGeometry":{"points":"iktfHhxxpLuAnCmBlE}@|B_BvFoC`JCD}@hCo@~Aq@pAs@fA{BlCqH|Iq@Bq@Im@UGCUi@Wm@ScA_@gGSaE@_@@_@@E","length":25},"routeShortName":"23","routeLongName":"Côte Verdun via Aréna du Plateau","rentedBike":false,"transitLeg":true,"duration":159.0,"steps":[]},{"startTime":1522677121000,"endTime":1522677376000,"departureDelay":0,"arrivalDelay":0,"realTime":false,"distance":332.523,"pathway":false,"mode":"WALK","route":"","agencyTimeZoneOffset":-14400000,"interlineWithPreviousLeg":false,"from":{"name":"École Secondaire Charles-Gravel (St-Gérard)","stopId":"1:728","stopCode":"728","lon":-71.08106,"lat":48.449225,"arrival":1522677120000,"departure":1522677121000,"zoneId":"NA","stopIndex":5,"stopSequence":6,"vertexType":"TRANSIT"},"to":{"name":"Destination","lon":-71.076722,"lat":48.449901,"arrival":1522677376000,"orig":"","vertexType":"NORMAL"},"legGeometry":{"points":"iwufHl_zpLDe@H{@DUH]R_ANi@HM{AgB[]i@{@EG_@g@o@_Ak@s@EGKQ","length":17},"rentedBike":false,"transitLeg":false,"duration":255.0,"steps":[{"distance":109.28999999999999,"relativeDirection":"DEPART","streetName":"Rue Saint-Gérard","absoluteDirection":"EAST","stayOn":false,"area":false,"bogusName":false,"lon":-71.08102429625302,"lat":48.449334223206954,"elevation":[]},{"distance":223.233,"relativeDirection":"LEFT","streetName":"Rue Pinel","absoluteDirection":"NORTHEAST","stayOn":false,"area":false,"bogusName":false,"lon":-71.079678,"lat":48.4489492,"elevation":[]}]}],"tooSloped":false},{"duration":718,"startTime":1522678247000,"endTime":1522678965000,"walkTime":563,"transitTime":153,"waitingTime":2,"walkDistance":704.594090217946,"walkLimitExceeded":false,"elevationLost":0.0,"elevationGained":0.0,"transfers":0,"legs":[{"startTime":1522678247000,"endTime":1522678799000,"departureDelay":0,"arrivalDelay":0,"realTime":false,"distance":689.988,"pathway":false,"mode":"WALK","route":"","agencyTimeZoneOffset":-14400000,"interlineWithPreviousLeg":false,"from":{"name":"Origin","lon":-71.070454,"lat":48.438555,"departure":1522678247000,"orig":"","vertexType":"NORMAL"},"to":{"name":"boul. Ste-Geneviève / Champs","stopId":"1:705","stopCode":"705","lon":-71.074706,"lat":48.442337,"arrival":1522678799000,"departure":1522678800000,"zoneId":"NA","stopIndex":1,"stopSequence":2,"vertexType":"TRANSIT"},"legGeometry":{"points":"susfHd_xpLL`@Ld@Jf@F\\@HFj@Bf@Bj@@h@?j@q@Ie@Qg@YQIUOUBMFYdAY|BWFS@u@@_@Eg@Ma@Qu@WeC`FMRSSoAdC","length":31},"rentedBike":false,"transitLeg":false,"duration":552.0,"steps":[{"distance":142.88299999999998,"relativeDirection":"DEPART","streetName":"Rue des Glaïeuls","absoluteDirection":"SOUTHWEST","stayOn":false,"area":false,"bogusName":false,"lon":-71.070742,"lat":48.438827,"elevation":[]},{"distance":197.42700000000002,"relativeDirection":"RIGHT","streetName":"Rue de la Reine","absoluteDirection":"NORTH","stayOn":false,"area":false,"bogusName":false,"lon":-71.07257390000001,"lat":48.4384864,"elevation":[]},{"distance":147.373,"relativeDirection":"RIGHT","streetName":"Rue de Carillon","absoluteDirection":"NORTH","stayOn":false,"area":false,"bogusName":false,"lon":-71.0732198,"lat":48.4397612,"elevation":[]},{"distance":202.305,"relativeDirection":"LEFT","streetName":"Boulevard Sainte-Geneviève","absoluteDirection":"NORTHWEST","stayOn":false,"area":false,"bogusName":false,"lon":-71.0729661,"lat":48.4410559,"elevation":[]}]},{"startTime":1522678800000,"endTime":1522678953000,"departureDelay":0,"arrivalDelay":0,"realTime":false,"distance":1404.8262225349915,"pathway":false,"mode":"BUS","route":"21","agencyName":"Société de Transport du Saguenay","agencyUrl":"http://ville.saguenay.ca/fr/services-aux-citoyens/transport-sts","agencyTimeZoneOffset":-14400000,"routeColor":"556B2F","routeType":3,"routeId":"1:21","routeTextColor":"FFFFFF","interlineWithPreviousLeg":false,"tripBlockId":"2","headsign":"Terminus Chicoutimi","agencyId":"0","tripId":"1:217163","serviceDate":"20180402","from":{"name":"boul. Ste-Geneviève / Champs","stopId":"1:705","stopCode":"705","lon":-71.074706,"lat":48.442337,"arrival":1522678799000,"departure":1522678800000,"zoneId":"NA","stopIndex":1,"stopSequence":2,"vertexType":"TRANSIT"},"to":{"name":"Pinel (no. 163)","stopId":"1:730","stopCode":"730","lon":-71.077992,"lat":48.45046,"arrival":1522678953000,"departure":1522678954000,"zoneId":"NA","stopIndex":6,"stopSequence":7,"vertexType":"TRANSIT"},"legGeometry":{"points":"iktfHhxxpLuAnCmBlE}@|B_BvFoC`JCD}@hCo@~Aq@pAs@fAWs@IUC[AI?QCeGAs@Gy@Ks@Ou@OcAIcAIgAWgCG_@Og@IQS]UWYQWIUA[Da@P]RSVQ`@Ib@Ef@Et@Gf@Id@I`@Od@cCxFQOgAwA_FqGO[`BcEY_@MOaBtDLTh@bATZ","length":57},"routeShortName":"21","routeLongName":"Boul. Ste-Geneviève/Élie","rentedBike":false,"transitLeg":true,"duration":153.0,"steps":[]},{"startTime":1522678954000,"endTime":1522678965000,"departureDelay":0,"arrivalDelay":0,"realTime":false,"distance":14.37,"pathway":false,"mode":"WALK","route":"","agencyTimeZoneOffset":-14400000,"interlineWithPreviousLeg":false,"from":{"name":"Pinel (no. 163)","stopId":"1:730","stopCode":"730","lon":-71.077992,"lat":48.45046,"arrival":1522678953000,"departure":1522678954000,"zoneId":"NA","stopIndex":6,"stopSequence":7,"vertexType":"TRANSIT"},"to":{"name":"Destination","lon":-71.076722,"lat":48.449901,"arrival":1522678965000,"orig":"","vertexType":"NORMAL"},"legGeometry":{"points":"_~ufHxkypLEGKQ","length":3},"rentedBike":false,"transitLeg":false,"duration":11.0,"steps":[{"distance":14.37,"relativeDirection":"DEPART","streetName":"Rue Pinel","absoluteDirection":"NORTHEAST","stayOn":false,"area":false,"bogusName":false,"lon":-71.07788276791463,"lat":48.45040022579413,"elevation":[]}]}],"tooSloped":false}]},"debugOutput":{"precalculationTime":17,"pathCalculationTime":21,"pathTimes":[13,5,3],"renderingTime":0,"totalTime":38,"timedOut":false},"elevationMetadata":{"ellipsoidToGeoidDifference":-28.885904201182168,"geoidElevation":false}}