{"requestParameters":{"date":"2018/04/02","walkSpeed":"1.33","walkReluctance":"2.0","fromPlace":"48.438893,-71.071107","maxWalkDistance":"3000","waitReluctance":"1.0","carSpeed":"33","numItineraries":"3","waitAtBeginningFactor":"0.4","mode":"TRANSIT,WALK","ignoreRealtimeUpdates":"false","stairsReluctance":"2.0","toPlace":"48.432762,-71.07052299","time":"6:45:00"},"plan":{"date":1522665900000,"from":{"name":"Origin","lon":-71.071107,"lat":48.438893,"orig":"","vertexType":"NORMAL"},"to":{"name":"Destination","lon":-71.07052299,"lat":48.432762,"orig":"","vertexType":"NORMAL"},"itineraries":[{"duration":844,"startTime":1522665900000,"endTime":1522666744000,"walkTime":844,"transitTime":0,"waitingTime":0,"walkDistance":1074.1842631512714,"walkLimitExceeded":false,"elevationLost":0.0,"elevationGained":0.0,"transfers":0,"legs":[{"startTime":1522665900000,"endTime":1522666744000,"departureDelay":0,"arrivalDelay":0,"realTime":false,"distance":1073.979,"pathway":false,"mode":"WALK","route":"","agencyTimeZoneOffset":-14400000,"interlineWithPreviousLeg":false,"from":{"name":"Origin","lon":-71.071107,"lat":48.438893,"departure":1522665900000,"orig":"","vertexType":"NORMAL"},"to":{"name":"Destination","lon":-71.07052299,"lat":48.432762,"arrival":1522666744000,"orig":"","vertexType":"NORMAL"},"legGeometry":{"points":"ausfHp`xpLHZJf@F\\H@TN\\Vj@Ph@Nn@DAI@a@Dg@JmA@QBs@@q@EoACME]IYG]Ge@A[@_@Bi@Fk@h@_DP_BB@DABA@EBE?EvBJZD~@Pb@?DBd@g@VWHFnAQPGLCPtBFJfMv@","length":49},"rentedBike":false,"transitLeg":false,"duration":844.0,"steps":[{"distance":39.689,"relativeDirection":"DEPART","streetName":"Rue des Glaïeuls","absoluteDirection":"SOUTHWEST","stayOn":false,"area":false,"bogusName":false,"lon":-71.0709653244444,"lat":48.43873458505912,"elevation":[]},{"distance":114.787,"relativeDirection":"LEFT","streetName":"Rue des Bouleaux","absoluteDirection":"SOUTH","stayOn":false,"area":false,"bogusName":false,"lon":-71.0714535,"lat":48.4385867,"elevation":[]},{"distance":345.132,"relativeDirection":"LEFT","streetName":"Rue Roussel","absoluteDirection":"EAST","stayOn":false,"area":false,"bogusName":false,"lon":-71.0718657,"lat":48.437602000000005,"elevation":[]},{"distance":15.767,"relativeDirection":"CIRCLE_COUNTERCLOCKWISE","streetName":"Rue Roussel","absoluteDirection":"SOUTH","exit":"1","stayOn":false,"area":false,"bogusName":false,"lon":-71.0673579,"lat":48.437325900000005,"elevation":[]},{"distance":142.16299999999998,"relativeDirection":"RIGHT","streetName":"Rue du Pont","absoluteDirection":"SOUTH","stayOn":false,"area":false,"bogusName":false,"lon":-71.06725250000001,"lat":48.4372217,"elevation":[]},{"distance":41.536,"relativeDirection":"LEFT","streetName":"link","absoluteDirection":"SOUTHEAST","stayOn":false,"area":false,"bogusName":true,"lon":-71.06745260000001,"lat":48.4359534,"elevation":[]},{"distance":114.291,"relativeDirection":"SLIGHTLY_RIGHT","streetName":"bike path","absoluteDirection":"SOUTH","stayOn":true,"area":false,"bogusName":true,"lon":-71.06713590000001,"lat":48.435644700000005,"elevation":[]},{"distance":260.614,"relativeDirection":"LEFT","streetName":"Pont de Sainte-Anne","absoluteDirection":"SOUTH","stayOn":false,"area":false,"bogusName":false,"lon":-71.0676151,"lat":48.434942,"elevation":[]}]}],"tooSloped":false},{"duration":815,"startTime":1522666603000,"endTime":1522667418000,"walkTime":645,"transitTime":168,"waitingTime":2,"walkDistance":820.6729548813469,"walkLimitExceeded":false,"elevationLost":0.0,"elevationGained":0.0,"transfers":0,"legs":[{"startTime":1522666603000,"endTime":1522666889000,"departureDelay":0,"arrivalDelay":0,"realTime":false,"distance":363.032,"pathway":false,"mode":"WALK","route":"","agencyTimeZoneOffset":-14400000,"interlineWithPreviousLeg":false,"from":{"name":"Origin","lon":-71.071107,"lat":48.438893,"departure":1522666603000,"orig":"","vertexType":"NORMAL"},"to":{"name":"Liberté / Roussel","stopId":"1:833","stopCode":"833","lon":-71.069708,"lat":48.437999,"arrival":1522666889000,"departure":1522666890000,"zoneId":"NA","stopIndex":24,"stopSequence":25,"vertexType":"TRANSIT"},"legGeometry":{"points":"ausfHp`xpLHZJf@F\\H@TN\\Vj@Ph@Nn@DAI@a@Dg@JmA@QBs@@q@EoACME]IY[Lq@?","length":23},"rentedBike":false,"transitLeg":false,"duration":286.0,"steps":[{"distance":39.689,"relativeDirection":"DEPART","streetName":"Rue des Glaïeuls","absoluteDirection":"SOUTHWEST","stayOn":false,"area":false,"bogusName":false,"lon":-71.0709653244444,"lat":48.43873458505912,"elevation":[]},{"distance":114.787,"relativeDirection":"LEFT","streetName":"Rue des Bouleaux","absoluteDirection":"SOUTH","stayOn":false,"area":false,"bogusName":false,"lon":-71.0714535,"lat":48.4385867,"elevation":[]},{"distance":163.875,"relativeDirection":"LEFT","streetName":"Rue Roussel","absoluteDirection":"EAST","stayOn":false,"area":false,"bogusName":false,"lon":-71.0718657,"lat":48.437602000000005,"elevation":[]},{"distance":44.681,"relativeDirection":"LEFT","streetName":"Rue de la Liberté","absoluteDirection":"NORTH","stayOn":false,"area":false,"bogusName":false,"lon":-71.0697018,"lat":48.437604,"elevation":[]}]},{"startTime":1522666890000,"endTime":1522667058000,"departureDelay":0,"arrivalDelay":0,"realTime":false,"distance":949.050329060803,"pathway":false,"mode":"BUS","route":"23","agencyName":"Société de Transport du Saguenay","agencyUrl":"http://ville.saguenay.ca/fr/services-aux-citoyens/transport-sts","agencyTimeZoneOffset":-14400000,"routeColor":"FF00FF","routeType":3,"routeId":"1:23","routeTextColor":"FFFFFF","interlineWithPreviousLeg":false,"tripBlockId":"5","headsign":"Terminus Chicoutimi","agencyId":"0","tripId":"1:217250","serviceDate":"20180402","from":{"name":"Liberté / Roussel","stopId":"1:833","stopCode":"833","lon":-71.069708,"lat":48.437999,"arrival":1522666889000,"departure":1522666890000,"zoneId":"NA","stopIndex":24,"stopSequence":25,"vertexType":"TRANSIT"},"to":{"name":"boul. Saguenay / Ste-Anne","stopId":"1:160","stopCode":"160","lon":-71.069701,"lat":48.429464,"arrival":1522667058000,"departure":1522667059000,"zoneId":"NA","stopIndex":25,"stopSequence":26,"vertexType":"TRANSIT"},"legGeometry":{"points":"opsfHbywpLM?a@Ke@YYWWa@v@}@RQPMz@k@tAe@REZG^Af@@X@VF`@Jn@XbClAr@Xt\\`PrAb@pA^hBTjAFj@Pb@JPHLLJNJRFXDT?X?ZEVEVKTMNMHMFOB}DWSGOSYcAN}FFkAF}DJyD","length":51},"routeShortName":"23","routeLongName":"Côte Verdun via Aréna du Plateau","rentedBike":false,"transitLeg":true,"duration":168.0,"steps":[]},{"startTime":1522667059000,"endTime":1522667418000,"departureDelay":0,"arrivalDelay":0,"realTime":false,"distance":457.459,"pathway":false,"mode":"WALK","route":"","agencyTimeZoneOffset":-14400000,"interlineWithPreviousLeg":false,"from":{"name":"boul. Saguenay / Ste-Anne","stopId":"1:160","stopCode":"160","lon":-71.069701,"lat":48.429464,"arrival":1522667058000,"departure":1522667059000,"zoneId":"NA","stopIndex":25,"stopSequence":26,"vertexType":"TRANSIT"},"to":{"name":"Destination","lon":-71.07052299,"lat":48.432762,"arrival":1522667418000,"orig":"","vertexType":"NORMAL"},"legGeometry":{"points":"s{qfHrxwpLJuFB_@SCIKQ?CFmA?uN}@","length":9},"rentedBike":false,"transitLeg":false,"duration":359.0,"steps":[{"distance":102.431,"relativeDirection":"DEPART","streetName":"Boulevard du Saguenay Ouest","absoluteDirection":"EAST","stayOn":false,"area":false,"bogusName":false,"lon":-71.06969134971845,"lat":48.42954562670822,"elevation":[]},{"distance":11.024,"relativeDirection":"LEFT","streetName":"Rue Sainte-Anne","absoluteDirection":"NORTH","stayOn":false,"area":false,"bogusName":false,"lon":-71.06830790000001,"lat":48.429469600000004,"elevation":[]},{"distance":17.484,"relativeDirection":"CONTINUE","streetName":"path","absoluteDirection":"NORTH","stayOn":false,"area":false,"bogusName":true,"lon":-71.06828730000001,"lat":48.4295678,"elevation":[]},{"distance":46.378,"relativeDirection":"LEFT","streetName":"bike path","absoluteDirection":"NORTHWEST","stayOn":true,"area":false,"bogusName":true,"lon":-71.06822600000001,"lat":48.4297065,"elevation":[]},{"distance":280.142,"relativeDirection":"CONTINUE","streetName":"Pont de Sainte-Anne","absoluteDirection":"NORTH","stayOn":false,"area":false,"bogusName":false,"lon":-71.06826430000001,"lat":48.4301122,"elevation":[]}]}],"tooSloped":false},{"duration":836,"startTime":1522666891000,"endTime":1522667727000,"walkTime":619,"transitTime":215,"waitingTime":2,"walkDistance":788.7752105219852,"walkLimitExceeded":false,"elevationLost":0.0,"elevationGained":0.0,"transfers":0,"legs":[{"startTime":1522666891000,"endTime":1522667151000,"departureDelay":0,"arrivalDelay":0,"realTime":false,"distance":331.182,"pathway":false,"mode":"WALK","route":"","agencyTimeZoneOffset":-14400000,"interlineWithPreviousLeg":false,"from":{"name":"Origin","lon":-71.071107,"lat":48.438893,"departure":1522666891000,"orig":"","vertexType":"NORMAL"},"to":{"name":"Roussel / Carillon","stopId":"1:702","stopCode":"702","lon":-71.074263,"lat":48.437575,"arrival":1522667151000,"departure":1522667152000,"zoneId":"NA","stopIndex":27,"stopSequence":28,"vertexType":"TRANSIT"},"legGeometry":{"points":"ausfHp`xpLHZJf@F\\H@TN\\Vj@Ph@Nn@DDn@@p@@v@?L?n@AbAGdB?p@APCV","length":20},"rentedBike":false,"transitLeg":false,"duration":260.0,"steps":[{"distance":39.689,"relativeDirection":"DEPART","streetName":"Rue des Glaïeuls","absoluteDirection":"SOUTHWEST","stayOn":false,"area":false,"bogusName":false,"lon":-71.0709653244444,"lat":48.43873458505912,"elevation":[]},{"distance":114.787,"relativeDirection":"LEFT","streetName":"Rue des Bouleaux","absoluteDirection":"SOUTH","stayOn":false,"area":false,"bogusName":false,"lon":-71.0714535,"lat":48.4385867,"elevation":[]},{"distance":176.706,"relativeDirection":"RIGHT","streetName":"Rue Roussel","absoluteDirection":"WEST","stayOn":false,"area":false,"bogusName":false,"lon":-71.0718657,"lat":48.437602000000005,"elevation":[]}]},{"startTime":1522667152000,"endTime":1522667367000,"departureDelay":0,"arrivalDelay":0,"realTime":false,"distance":1845.9445684835086,"pathway":false,"mode":"BUS","route":"20","agencyName":"Société de Transport du Saguenay","agencyUrl":"http://ville.saguenay.ca/fr/services-aux-citoyens/transport-sts","agencyTimeZoneOffset":-14400000,"routeColor":"0000FF","routeType":3,"routeId":"1:20","routeTextColor":"FFFFFF","interlineWithPreviousLeg":false,"tripBlockId":"3","headsign":"Terminus Chicoutimi","agencyId":"0","tripId":"1:217187","serviceDate":"20180402","from":{"name":"Roussel / Carillon","stopId":"1:702","stopCode":"702","lon":-71.074263,"lat":48.437575,"arrival":1522667151000,"departure":1522667152000,"zoneId":"NA","stopIndex":27,"stopSequence":28,"vertexType":"TRANSIT"},"to":{"name":"boul. Saguenay / Ste-Anne","stopId":"1:160","stopCode":"160","lon":-71.069701,"lat":48.429464,"arrival":1522667367000,"departure":1522667368000,"zoneId":"NA","stopIndex":30,"stopSequence":31,"vertexType":"TRANSIT"},"legGeometry":{"points":"insfH`uxpLF{AaFe@c@IcDeAWtBOfAERGLIHIFMBa@NOQSOUGOCW?UFMHa@XUHQ?QIQOIM[g@rCmFhHqN~@eBr@cAt@_Av@}@RQPMz@k@tAe@REZG^Af@@X@VF`@Jn@XbClAr@Xt\\`PrAb@pA^hBTjAFj@Pb@JPHLLJNJRFXDT?X?ZEVEVKTMNMHMFOB}DWSGOSYcAN}FFkAF}DJyD","length":77},"routeShortName":"20","routeLongName":"Sainte-Claire","rentedBike":false,"transitLeg":true,"duration":215.0,"steps":[]},{"startTime":1522667368000,"endTime":1522667727000,"departureDelay":0,"arrivalDelay":0,"realTime":false,"distance":457.459,"pathway":false,"mode":"WALK","route":"","agencyTimeZoneOffset":-14400000,"interlineWithPreviousLeg":false,"from":{"name":"boul. Saguenay / Ste-Anne","stopId":"1:160","stopCode":"160","lon":-71.069701,"lat":48.429464,"arrival":1522667367000,"departure":1522667368000,"zoneId":"NA","stopIndex":30,"stopSequence":31,"vertexType":"TRANSIT"},"to":{"name":"Destination","lon":-71.07052299,"lat":48.432762,"arrival":1522667727000,"orig":"","vertexType":"NORMAL"},"legGeometry":{"points":"s{qfHrxwpLJuFB_@SCIKQ?CFmA?uN}@","length":9},"rentedBike":false,"transitLeg":false,"duration":359.0,"steps":[{"distance":102.431,"relativeDirection":"DEPART","streetName":"Boulevard du Saguenay Ouest","absoluteDirection":"EAST","stayOn":false,"area":false,"bogusName":false,"lon":-71.06969134971845,"lat":48.42954562670822,"elevation":[]},{"distance":11.024,"relativeDirection":"LEFT","streetName":"Rue Sainte-Anne","absoluteDirection":"NORTH","stayOn":false,"area":false,"bogusName":false,"lon":-71.06830790000001,"lat":48.429469600000004,"elevation":[]},{"distance":17.484,"relativeDirection":"CONTINUE","streetName":"path","absoluteDirection":"NORTH","stayOn":false,"area":false,"bogusName":true,"lon":-71.06828730000001,"lat":48.4295678,"elevation":[]},{"distance":46.378,"relativeDirection":"LEFT","streetName":"bike path","absoluteDirection":"NORTHWEST","stayOn":true,"area":false,"bogusName":true,"lon":-71.06822600000001,"lat":48.4297065,"elevation":[]},{"distance":280.142,"relativeDirection":"CONTINUE","streetName":"Pont de Sainte-Anne","absoluteDirection":"NORTH","stayOn":false,"area":false,"bogusName":false,"lon":-71.06826430000001,"lat":48.4301122,"elevation":[]}]}],"tooSloped":false}]},"debugOutput":{"precalculationTime":32,"pathCalculationTime":17,"pathTimes":[7,8,2],"renderingTime":0,"totalTime":49,"timedOut":false},"elevationMetadata":{"ellipsoidToGeoidDifference":-28.885904201182168,"geoidElevation":false}}