{"requestParameters":{"date":"2018/04/02","walkSpeed":"1.33","walkReluctance":"2.0","fromPlace":"48.439141,-71.073745","maxWalkDistance":"3000","waitReluctance":"1.0","carSpeed":"33","numItineraries":"3","waitAtBeginningFactor":"0.4","mode":"TRANSIT,WALK","ignoreRealtimeUpdates":"false","stairsReluctance":"2.0","toPlace":"48.418311,-71.070214","time":"12:30:00"},"plan":{"date":1522686600000,"from":{"name":"Origin","lon":-71.073745,"lat":48.439141,"orig":"","vertexType":"NORMAL"},"to":{"name":"Destination","lon":-71.070214,"lat":48.418311,"orig":"","vertexType":"NORMAL"},"itineraries":[{"duration":1444,"startTime":1522686895000,"endTime":1522688339000,"walkTime":1233,"transitTime":209,"waitingTime":2,"walkDistance":1586.3752481154852,"walkLimitExceeded":false,"elevationLost":0.0,"elevationGained":0.0,"transfers":0,"legs":[{"startTime":1522686895000,"endTime":1522686990000,"departureDelay":0,"arrivalDelay":0,"realTime":false,"distance":119.57,"pathway":false,"mode":"WALK","route":"","agencyTimeZoneOffset":-14400000,"interlineWithPreviousLeg":false,"from":{"name":"Origin","lon":-71.073745,"lat":48.439141,"departure":1522686895000,"orig":"","vertexType":"NORMAL"},"to":{"name":"Masson / Carillon","stopId":"1:703","stopCode":"703","lon":-71.073756,"lat":48.439914,"arrival":1522686990000,"departure":1522686991000,"zoneId":"NA","stopIndex":28,"stopSequence":29,"vertexType":"TRANSIT"},"legGeometry":{"points":"iwsfHfpxpLQEk@Ue@MICMAICE^Kz@ER","length":10},"rentedBike":false,"transitLeg":false,"duration":95.0,"steps":[{"distance":76.696,"relativeDirection":"DEPART","streetName":"Rue de Carillon","absoluteDirection":"NORTH","stayOn":false,"area":false,"bogusName":false,"lon":-71.0734744169552,"lat":48.43909357520142,"elevation":[]},{"distance":42.874,"relativeDirection":"LEFT","streetName":"Rue Masson","absoluteDirection":"WEST","stayOn":false,"area":false,"bogusName":false,"lon":-71.0732198,"lat":48.4397612,"elevation":[]}]},{"startTime":1522686991000,"endTime":1522687200000,"departureDelay":0,"arrivalDelay":0,"realTime":false,"distance":1858.5062849748977,"pathway":false,"mode":"BUS","route":"20","agencyName":"Société de Transport du Saguenay","agencyUrl":"http://ville.saguenay.ca/fr/services-aux-citoyens/transport-sts","agencyTimeZoneOffset":-14400000,"routeColor":"0000FF","routeType":3,"routeId":"1:20","routeTextColor":"FFFFFF","interlineWithPreviousLeg":false,"tripBlockId":"1","headsign":"Terminus Chicoutimi","agencyId":"0","tripId":"1:217141","serviceDate":"20180402","from":{"name":"Masson / Carillon","stopId":"1:703","stopCode":"703","lon":-71.073756,"lat":48.439914,"arrival":1522686990000,"departure":1522686991000,"zoneId":"NA","stopIndex":28,"stopSequence":29,"vertexType":"TRANSIT"},"to":{"name":"Terminus Chicoutimi","stopId":"1:1289","stopCode":"1289","lon":-71.066163,"lat":48.428677,"arrival":1522687200000,"departure":1522687201000,"zoneId":"NA","stopIndex":31,"stopSequence":32,"vertexType":"TRANSIT"},"legGeometry":{"points":"c|sfHdrxpLOfAERGLIHIFMBa@NOQSOUGOCW?UFMHa@XUHQ?QIQOIM[g@rCmFhHqN~@eBr@cAt@_Av@}@RQPMz@k@tAe@REZG^Af@@X@VF`@Jn@XbClAr@Xt\\`PrAb@pA^hBTjAFj@Pb@JPHLLJNJRFXDT?X?ZEVEVKTMNMHMFOB}DWSGOSYcAN}FFkAF}DJyDPwGj@_QjAN~ALIpBGVITe@@","length":80},"routeShortName":"20","routeLongName":"Sainte-Claire","rentedBike":false,"transitLeg":true,"duration":209.0,"steps":[]},{"startTime":1522687201000,"endTime":1522688339000,"departureDelay":0,"arrivalDelay":0,"realTime":false,"distance":1466.6560000000004,"pathway":false,"mode":"WALK","route":"","agencyTimeZoneOffset":-14400000,"interlineWithPreviousLeg":false,"from":{"name":"Terminus Chicoutimi","stopId":"1:1289","stopCode":"1289","lon":-71.066163,"lat":48.428677,"arrival":1522687200000,"departure":1522687201000,"zoneId":"NA","stopIndex":31,"stopSequence":32,"vertexType":"TRANSIT"},"to":{"name":"Destination","lon":-71.070214,"lat":48.418311,"arrival":1522688339000,"orig":"","vertexType":"NORMAL"},"legGeometry":{"points":"{uqfHb~vpLbAJR@JDb@LrBHP@jCPrAFzBT^BPF@n@j@f@n@pBf@dA`BtDh@nALLb@n@l@DzBNd@BxAFt@Dr@DR@P@L@jBNfCPRB\\EhBNd@Cz@AXKx@WFC\\E^Kn@MV?b@BN?APGl@Q`@[l@c@zAEV","length":51},"rentedBike":false,"transitLeg":false,"duration":1138.0,"steps":[{"distance":374.48300000000006,"relativeDirection":"DEPART","streetName":"Rue Morin","absoluteDirection":"SOUTH","stayOn":false,"area":false,"bogusName":false,"lon":-71.0654590096484,"lat":48.428628638946556,"elevation":[]},{"distance":17.515,"relativeDirection":"RIGHT","streetName":"Rue Price Est","absoluteDirection":"WEST","stayOn":false,"area":false,"bogusName":false,"lon":-71.06598410000001,"lat":48.4252842,"elevation":[]},{"distance":272.594,"relativeDirection":"LEFT","streetName":"path","absoluteDirection":"SOUTHWEST","stayOn":false,"area":false,"bogusName":true,"lon":-71.0662212,"lat":48.425276600000004,"elevation":[]},{"distance":547.586,"relativeDirection":"SLIGHTLY_LEFT","streetName":"Rue Sainte-Anne","absoluteDirection":"SOUTH","stayOn":false,"area":false,"bogusName":false,"lon":-71.06896330000001,"lat":48.423667200000004,"elevation":[]},{"distance":142.52,"relativeDirection":"CONTINUE","streetName":"Rue Jolliet","absoluteDirection":"SOUTH","stayOn":false,"area":false,"bogusName":false,"lon":-71.0693796,"lat":48.418765,"elevation":[]},{"distance":111.958,"relativeDirection":"RIGHT","streetName":"service road","absoluteDirection":"WEST","stayOn":false,"area":false,"bogusName":false,"lon":-71.0690988,"lat":48.4175072,"elevation":[]}]}],"tooSloped":false},{"duration":1697,"startTime":1522686642000,"endTime":1522688339000,"walkTime":1455,"transitTime":240,"waitingTime":2,"walkDistance":1881.9830902211727,"walkLimitExceeded":false,"elevationLost":0.0,"elevationGained":0.0,"transfers":0,"legs":[{"startTime":1522686642000,"endTime":1522686959000,"departureDelay":0,"arrivalDelay":0,"realTime":false,"distance":415.19100000000003,"pathway":false,"mode":"WALK","route":"","agencyTimeZoneOffset":-14400000,"interlineWithPreviousLeg":false,"from":{"name":"Origin","lon":-71.073745,"lat":48.439141,"departure":1522686642000,"orig":"","vertexType":"NORMAL"},"to":{"name":"boul. Ste-Geneviève (no. 453)","stopId":"1:736","stopCode":"736","lon":-71.0749,"lat":48.4422,"arrival":1522686959000,"departure":1522686960000,"zoneId":"NA","stopIndex":32,"stopSequence":33,"vertexType":"TRANSIT"},"legGeometry":{"points":"iwsfHfpxpLQEk@Ue@MICMAICWFS@u@@_@Eg@Ma@Qu@WeC`FMRsAhC","length":17},"rentedBike":false,"transitLeg":false,"duration":317.0,"steps":[{"distance":224.069,"relativeDirection":"DEPART","streetName":"Rue de Carillon","absoluteDirection":"NORTH","stayOn":false,"area":false,"bogusName":false,"lon":-71.0734744169552,"lat":48.43909357520142,"elevation":[]},{"distance":191.122,"relativeDirection":"LEFT","streetName":"Boulevard Sainte-Geneviève","absoluteDirection":"NORTHWEST","stayOn":false,"area":false,"bogusName":false,"lon":-71.0729661,"lat":48.4410559,"elevation":[]}]},{"startTime":1522686960000,"endTime":1522687200000,"departureDelay":0,"arrivalDelay":0,"realTime":false,"distance":1742.5227930095011,"pathway":false,"mode":"BUS","route":"21","agencyName":"Société de Transport du Saguenay","agencyUrl":"http://ville.saguenay.ca/fr/services-aux-citoyens/transport-sts","agencyTimeZoneOffset":-14400000,"routeColor":"556B2F","routeType":3,"routeId":"1:21","routeTextColor":"FFFFFF","interlineWithPreviousLeg":false,"tripBlockId":"2","headsign":"Terminus Chicoutimi","agencyId":"0","tripId":"1:217167","serviceDate":"20180402","from":{"name":"boul. Ste-Geneviève (no. 453)","stopId":"1:736","stopCode":"736","lon":-71.0749,"lat":48.4422,"arrival":1522686959000,"departure":1522686960000,"zoneId":"NA","stopIndex":32,"stopSequence":33,"vertexType":"TRANSIT"},"to":{"name":"Terminus Chicoutimi","stopId":"1:1289","stopCode":"1289","lon":-71.066163,"lat":48.428677,"arrival":1522687200000,"departure":1522687201000,"zoneId":"NA","stopIndex":34,"stopSequence":35,"vertexType":"TRANSIT"},"legGeometry":{"points":"yjtfH`yxpLxAsCrCmFhHqN~@eBr@cAt@_Av@}@RQPMz@k@tAe@REZG^Af@@X@VF`@Jn@XbClAr@Xt\\`PrAb@pA^hBTjAFj@Pb@JPHLLJNJRFXDT?X?ZEVEVKTMNMHMFOB}DWSGOSYcAN}FFkAF}DJyDPwGvAHVyL","length":55},"routeShortName":"21","routeLongName":"Boul. Ste-Geneviève/Élie","rentedBike":false,"transitLeg":true,"duration":240.0,"steps":[]},{"startTime":1522687201000,"endTime":1522688339000,"departureDelay":0,"arrivalDelay":0,"realTime":false,"distance":1466.6560000000004,"pathway":false,"mode":"WALK","route":"","agencyTimeZoneOffset":-14400000,"interlineWithPreviousLeg":false,"from":{"name":"Terminus Chicoutimi","stopId":"1:1289","stopCode":"1289","lon":-71.066163,"lat":48.428677,"arrival":1522687200000,"departure":1522687201000,"zoneId":"NA","stopIndex":34,"stopSequence":35,"vertexType":"TRANSIT"},"to":{"name":"Destination","lon":-71.070214,"lat":48.418311,"arrival":1522688339000,"orig":"","vertexType":"NORMAL"},"legGeometry":{"points":"{uqfHb~vpLbAJR@JDb@LrBHP@jCPrAFzBT^BPF@n@j@f@n@pBf@dA`BtDh@nALLb@n@l@DzBNd@BxAFt@Dr@DR@P@L@jBNfCPRB\\EhBNd@Cz@AXKx@WFC\\E^Kn@MV?b@BN?APGl@Q`@[l@c@zAEV","length":51},"rentedBike":false,"transitLeg":false,"duration":1138.0,"steps":[{"distance":374.48300000000006,"relativeDirection":"DEPART","streetName":"Rue Morin","absoluteDirection":"SOUTH","stayOn":false,"area":false,"bogusName":false,"lon":-71.0654590096484,"lat":48.428628638946556,"elevation":[]},{"distance":17.515,"relativeDirection":"RIGHT","streetName":"Rue Price Est","absoluteDirection":"WEST","stayOn":false,"area":false,"bogusName":false,"lon":-71.06598410000001,"lat":48.4252842,"elevation":[]},{"distance":272.594,"relativeDirection":"LEFT","streetName":"path","absoluteDirection":"SOUTHWEST","stayOn":false,"area":false,"bogusName":true,"lon":-71.0662212,"lat":48.425276600000004,"elevation":[]},{"distance":547.586,"relativeDirection":"SLIGHTLY_LEFT","streetName":"Rue Sainte-Anne","absoluteDirection":"SOUTH","stayOn":false,"area":false,"bogusName":false,"lon":-71.06896330000001,"lat":48.423667200000004,"elevation":[]},{"distance":142.52,"relativeDirection":"CONTINUE","streetName":"Rue Jolliet","absoluteDirection":"SOUTH","stayOn":false,"area":false,"bogusName":false,"lon":-71.0693796,"lat":48.418765,"elevation":[]},{"distance":111.958,"relativeDirection":"RIGHT","streetName":"service road","absoluteDirection":"WEST","stayOn":false,"area":false,"bogusName":false,"lon":-71.0690988,"lat":48.4175072,"elevation":[]}]}],"tooSloped":false},{"duration":1353,"startTime":1522687182000,"endTime":1522688535000,"walkTime":1164,"transitTime":187,"waitingTime":2,"walkDistance":1499.7333984927106,"walkLimitExceeded":false,"elevationLost":0.0,"elevationGained":0.0,"transfers":0,"legs":[{"startTime":1522687182000,"endTime":1522687499000,"departureDelay":0,"arrivalDelay":0,"realTime":false,"distance":415.19100000000003,"pathway":false,"mode":"WALK","route":"","agencyTimeZoneOffset":-14400000,"interlineWithPreviousLeg":false,"from":{"name":"Origin","lon":-71.073745,"lat":48.439141,"departure":1522687182000,"orig":"","vertexType":"NORMAL"},"to":{"name":"boul. Ste-Geneviève (no. 453)","stopId":"1:736","stopCode":"736","lon":-71.0749,"lat":48.4422,"arrival":1522687499000,"departure":1522687500000,"zoneId":"NA","stopIndex":11,"stopSequence":12,"vertexType":"TRANSIT"},"legGeometry":{"points":"iwsfHfpxpLQEk@Ue@MICMAICWFS@u@@_@Eg@Ma@Qu@WeC`FMRsAhC","length":17},"rentedBike":false,"transitLeg":false,"duration":317.0,"steps":[{"distance":224.069,"relativeDirection":"DEPART","streetName":"Rue de Carillon","absoluteDirection":"NORTH","stayOn":false,"area":false,"bogusName":false,"lon":-71.0734744169552,"lat":48.43909357520142,"elevation":[]},{"distance":191.122,"relativeDirection":"LEFT","streetName":"Boulevard Sainte-Geneviève","absoluteDirection":"NORTHWEST","stayOn":false,"area":false,"bogusName":false,"lon":-71.0729661,"lat":48.4410559,"elevation":[]}]},{"startTime":1522687500000,"endTime":1522687687000,"departureDelay":0,"arrivalDelay":0,"realTime":false,"distance":1905.6357556231699,"pathway":false,"mode":"BUS","route":"27","agencyName":"Société de Transport du Saguenay","agencyUrl":"http://ville.saguenay.ca/fr/services-aux-citoyens/transport-sts","agencyTimeZoneOffset":-14400000,"routeColor":"00FFFF","routeType":3,"routeId":"1:27","routeTextColor":"000000","interlineWithPreviousLeg":false,"tripBlockId":"98","headsign":"Place du Royaume","agencyId":"0","tripId":"1:218746","serviceDate":"20180402","from":{"name":"boul. Ste-Geneviève (no. 453)","stopId":"1:736","stopCode":"736","lon":-71.0749,"lat":48.4422,"arrival":1522687499000,"departure":1522687500000,"zoneId":"NA","stopIndex":11,"stopSequence":12,"vertexType":"TRANSIT"},"to":{"name":"Price / Petit","stopId":"1:442","stopCode":"442","lon":-71.069949,"lat":48.42538,"arrival":1522687687000,"departure":1522687688000,"zoneId":"NA","stopIndex":12,"stopSequence":13,"vertexType":"TRANSIT"},"legGeometry":{"points":"sjtfHfyxpLzKsTlB{Dn@gAfD_FfDwB|Cc@tEzAfLxFtQzI`EvA~F\\nGHjH}@RcL","length":15},"routeShortName":"27","routeLongName":"St-Honoré","rentedBike":false,"transitLeg":true,"duration":187.0,"steps":[]},{"startTime":1522687688000,"endTime":1522688535000,"departureDelay":0,"arrivalDelay":0,"realTime":false,"distance":1084.4330000000002,"pathway":false,"mode":"WALK","route":"","agencyTimeZoneOffset":-14400000,"interlineWithPreviousLeg":false,"from":{"name":"Price / Petit","stopId":"1:442","stopCode":"442","lon":-71.069949,"lat":48.42538,"arrival":1522687687000,"departure":1522687688000,"zoneId":"NA","stopIndex":12,"stopSequence":13,"vertexType":"TRANSIT"},"to":{"name":"Destination","lon":-71.070214,"lat":48.418311,"arrival":1522688535000,"orig":"","vertexType":"NORMAL"},"legGeometry":{"points":"ebqfHbzwpL@_@JmEB?tAJB?ZBjCNXBR@f@Dl@DzBNd@BxAFt@Dr@DR@P@L@jBNfCPRB\\EhBNd@Cz@AXKx@WFC\\E^Kn@MV?b@BN?APGl@Q`@[l@c@zAEV","length":42},"rentedBike":false,"transitLeg":false,"duration":847.0,"steps":[{"distance":88.21300000000001,"relativeDirection":"DEPART","streetName":"Rue Price Ouest","absoluteDirection":"EAST","stayOn":false,"area":false,"bogusName":false,"lon":-71.06993762401986,"lat":48.42547428887004,"elevation":[]},{"distance":741.742,"relativeDirection":"RIGHT","streetName":"Rue Sainte-Anne","absoluteDirection":"SOUTH","stayOn":false,"area":false,"bogusName":false,"lon":-71.06874640000001,"lat":48.4254073,"elevation":[]},{"distance":142.52,"relativeDirection":"CONTINUE","streetName":"Rue Jolliet","absoluteDirection":"SOUTH","stayOn":false,"area":false,"bogusName":false,"lon":-71.0693796,"lat":48.418765,"elevation":[]},{"distance":111.958,"relativeDirection":"RIGHT","streetName":"service road","absoluteDirection":"WEST","stayOn":false,"area":false,"bogusName":false,"lon":-71.0690988,"lat":48.4175072,"elevation":[]}]}],"tooSloped":false}]},"debugOutput":{"precalculationTime":42,"pathCalculationTime":26,"pathTimes":[17,4,5],"renderingTime":0,"totalTime":68,"timedOut":false},"elevationMetadata":{"ellipsoidToGeoidDifference":-28.885904201182168,"geoidElevation":false}}