{"requestParameters":{"date":"2018/04/02","walkSpeed":"1.33","walkReluctance":"2.0","fromPlace":"48.437591,-71.076256","maxWalkDistance":"3000","waitReluctance":"1.0","carSpeed":"33","numItineraries":"3","waitAtBeginningFactor":"0.4","mode":"TRANSIT,WALK","ignoreRealtimeUpdates":"false","stairsReluctance":"2.0","toPlace":"48.43805,-71.063759","time":"14:0:00"},"plan":{"date":1522692000000,"from":{"name":"Origin","lon":-71.076256,"lat":48.437591,"orig":"","vertexType":"NORMAL"},"to":{"name":"Destination","lon":-71.063759,"lat":48.43805,"orig":"","vertexType":"NORMAL"},"itineraries":[{"duration":801,"startTime":1522692000000,"endTime":1522692801000,"walkTime":801,"transitTime":0,"waitingTime":0,"walkDistance":1021.3288270618342,"walkLimitExceeded":false,"elevationLost":0.0,"elevationGained":0.0,"transfers":0,"legs":[{"startTime":1522692000000,"endTime":1522692801000,"departureDelay":0,"arrivalDelay":0,"realTime":false,"distance":1021.1479999999999,"pathway":false,"mode":"WALK","route":"","agencyTimeZoneOffset":-14400000,"interlineWithPreviousLeg":false,"from":{"name":"Origin","lon":-71.076256,"lat":48.437591,"departure":1522692000000,"orig":"","vertexType":"NORMAL"},"to":{"name":"Destination","lon":-71.063759,"lat":48.43805,"arrival":1522692801000,"orig":"","vertexType":"NORMAL"},"legGeometry":{"points":"onsfHrbypLaA{AJUJWFQJg@D[Ba@Hw@JuBBW@Q?q@FeB@cA?o@?MAw@Aq@Eo@AI@a@Dg@JmA@QBs@@q@EoACME]IYG]Ge@A[@_@Bi@Fk@h@_DP_BCACCAC?AAG?E?E@EBC@CBAD?BwC?eAASAyAKqCy@gDgA\\","length":58},"rentedBike":false,"transitLeg":false,"duration":801.0,"steps":[{"distance":49.55,"relativeDirection":"DEPART","streetName":"Rue Saint-Alexis","absoluteDirection":"NORTHEAST","stayOn":false,"area":false,"bogusName":false,"lon":-71.07641077088844,"lat":48.43768447661603,"elevation":[]},{"distance":930.779,"relativeDirection":"RIGHT","streetName":"Rue Roussel","absoluteDirection":"SOUTHEAST","stayOn":false,"area":false,"bogusName":false,"lon":-71.0759586,"lat":48.438014,"elevation":[]},{"distance":40.819,"relativeDirection":"LEFT","streetName":"Rue de la Victoire","absoluteDirection":"NORTH","stayOn":false,"area":false,"bogusName":false,"lon":-71.0638856,"lat":48.4376465,"elevation":[]}]}],"tooSloped":false},{"duration":752,"startTime":1522692493000,"endTime":1522693245000,"walkTime":725,"transitTime":25,"waitingTime":2,"walkDistance":920.4288120244343,"walkLimitExceeded":false,"elevationLost":0.0,"elevationGained":0.0,"transfers":0,"legs":[{"startTime":1522692493000,"endTime":1522693139000,"departureDelay":0,"arrivalDelay":0,"realTime":false,"distance":823.337,"pathway":false,"mode":"WALK","route":"","agencyTimeZoneOffset":-14400000,"interlineWithPreviousLeg":false,"from":{"name":"Origin","lon":-71.076256,"lat":48.437591,"departure":1522692493000,"orig":"","vertexType":"NORMAL"},"to":{"name":"Roussel / St-François","stopId":"1:1508","stopCode":"1508","lon":-71.065897,"lat":48.437206,"arrival":1522693139000,"departure":1522693140000,"zoneId":"NA","stopIndex":1,"stopSequence":2,"vertexType":"TRANSIT"},"legGeometry":{"points":"onsfHrbypLaA{AJUJWFQJg@D[Ba@Hw@JuBBW@Q?q@FeB@cA?o@?MAw@Aq@Eo@AI@a@Dg@JmA@QBs@@q@EoACME]IYG]Ge@A[@_@Bi@Fk@h@_DP_BCACCAC?AAG?E?E@EBC@CBAD?BwC?eAAS","length":54},"rentedBike":false,"transitLeg":false,"duration":646.0,"steps":[{"distance":49.55,"relativeDirection":"DEPART","streetName":"Rue Saint-Alexis","absoluteDirection":"NORTHEAST","stayOn":false,"area":false,"bogusName":false,"lon":-71.07641077088844,"lat":48.43768447661603,"elevation":[]},{"distance":773.787,"relativeDirection":"RIGHT","streetName":"Rue Roussel","absoluteDirection":"SOUTHEAST","stayOn":false,"area":false,"bogusName":false,"lon":-71.0759586,"lat":48.438014,"elevation":[]}]},{"startTime":1522693140000,"endTime":1522693165000,"departureDelay":0,"arrivalDelay":0,"realTime":false,"distance":213.56223820148873,"pathway":false,"mode":"BUS","route":"24","agencyName":"Société de Transport du Saguenay","agencyUrl":"http://ville.saguenay.ca/fr/services-aux-citoyens/transport-sts","agencyTimeZoneOffset":-14400000,"routeColor":"00FF00","routeType":3,"routeId":"1:24","routeTextColor":"000000","interlineWithPreviousLeg":false,"tripBlockId":"5","headsign":"Terminus Chicoutimi","agencyId":"0","tripId":"1:217265","serviceDate":"20180402","from":{"name":"Roussel / St-François","stopId":"1:1508","stopCode":"1508","lon":-71.065897,"lat":48.437206,"arrival":1522693139000,"departure":1522693140000,"zoneId":"NA","stopIndex":1,"stopSequence":2,"vertexType":"TRANSIT"},"to":{"name":"Roussel / St-Éphrem","stopId":"1:771","stopCode":"771","lon":-71.063155,"lat":48.437822,"arrival":1522693165000,"departure":1522693166000,"zoneId":"NA","stopIndex":2,"stopSequence":3,"vertexType":"TRANSIT"},"legGeometry":{"points":"_lsfHz`wpL?mAEcAGs@OoAa@sB[kAYcA","length":8},"routeShortName":"24","routeLongName":"Saint-Luc","rentedBike":false,"transitLeg":true,"duration":25.0,"steps":[]},{"startTime":1522693166000,"endTime":1522693245000,"departureDelay":0,"arrivalDelay":0,"realTime":false,"distance":96.917,"pathway":false,"mode":"WALK","route":"","agencyTimeZoneOffset":-14400000,"interlineWithPreviousLeg":false,"from":{"name":"Roussel / St-Éphrem","stopId":"1:771","stopCode":"771","lon":-71.063155,"lat":48.437822,"arrival":1522693165000,"departure":1522693166000,"zoneId":"NA","stopIndex":2,"stopSequence":3,"vertexType":"TRANSIT"},"to":{"name":"Destination","lon":-71.063759,"lat":48.43805,"arrival":1522693245000,"orig":"","vertexType":"NORMAL"},"legGeometry":{"points":"yosfHdpvpLX~@H^Lb@gA\\","length":5},"rentedBike":false,"transitLeg":false,"duration":79.0,"steps":[{"distance":56.098,"relativeDirection":"DEPART","streetName":"Rue Roussel","absoluteDirection":"SOUTHWEST","stayOn":false,"area":false,"bogusName":false,"lon":-71.06322717074731,"lat":48.4378981822846,"elevation":[]},{"distance":40.819,"relativeDirection":"RIGHT","streetName":"Rue de la Victoire","absoluteDirection":"NORTH","stayOn":false,"area":false,"bogusName":false,"lon":-71.0638856,"lat":48.4376465,"elevation":[]}]}],"tooSloped":false}]},"debugOutput":{"precalculationTime":23,"pathCalculationTime":18,"pathTimes":[10,6,2],"renderingTime":0,"totalTime":41,"timedOut":false},"elevationMetadata":{"ellipsoidToGeoidDifference":-28.885904201182168,"geoidElevation":false}}