{"requestParameters":{"date":"2018/04/02","walkSpeed":"1.33","walkReluctance":"2.0","fromPlace":"48.438697,-71.079823","maxWalkDistance":"3000","waitReluctance":"1.0","carSpeed":"33","numItineraries":"3","waitAtBeginningFactor":"0.4","mode":"TRANSIT,WALK","ignoreRealtimeUpdates":"false","stairsReluctance":"2.0","toPlace":"48.4458,-71.06916499","time":"10:0:00"},"plan":{"date":1522677600000,"from":{"name":"Origin","lon":-71.079823,"lat":48.438697,"orig":"","vertexType":"NORMAL"},"to":{"name":"Destination","lon":-71.06916499,"lat":48.4458,"orig":"","vertexType":"NORMAL"},"itineraries":[{"duration":1159,"startTime":1522677600000,"endTime":1522678759000,"walkTime":1159,"transitTime":0,"waitingTime":0,"walkDistance":1470.162586456983,"walkLimitExceeded":false,"elevationLost":0.0,"elevationGained":0.0,"transfers":0,"legs":[{"startTime":1522677600000,"endTime":1522678759000,"departureDelay":0,"arrivalDelay":0,"realTime":false,"distance":1469.8780000000004,"pathway":false,"mode":"WALK","route":"","agencyTimeZoneOffset":-14400000,"interlineWithPreviousLeg":false,"from":{"name":"Origin","lon":-71.079823,"lat":48.438697,"departure":1522677600000,"orig":"","vertexType":"NORMAL"},"to":{"name":"Destination","lon":-71.06916499,"lat":48.4458,"arrival":1522678759000,"orig":"","vertexType":"NORMAL"},"legGeometry":{"points":"mtsfH`wypL_BeBx@}DoBo@Vo@vAiDXi@HI{By@][II_AwAGOO[Uc@KUOe@{@cCQE{@OcAn@o@F[MMO_@c@SSu@mBsAkD?A]{@_B}Du@oB?AO]M]KYKs@Ea@Gu@O{BeAPc@@KAOAe@a@_@YOMqAgAc@vAGPMRKLEB","length":53},"rentedBike":false,"transitLeg":false,"duration":1159.0,"steps":[{"distance":65.352,"relativeDirection":"DEPART","streetName":"Rue de la Fabrique","absoluteDirection":"NORTHEAST","stayOn":false,"area":false,"bogusName":false,"lon":-71.07968937982345,"lat":48.43863426214715,"elevation":[]},{"distance":77.328,"relativeDirection":"RIGHT","streetName":"Rue Sainte-Élisabeth","absoluteDirection":"SOUTHEAST","stayOn":false,"area":false,"bogusName":false,"lon":-71.07917760000001,"lat":48.439114000000004,"elevation":[]},{"distance":63.622,"relativeDirection":"LEFT","streetName":"Rue Bouchard","absoluteDirection":"NORTH","stayOn":false,"area":false,"bogusName":false,"lon":-71.07822080000001,"lat":48.4388299,"elevation":[]},{"distance":129.309,"relativeDirection":"RIGHT","streetName":"Rue Roussel","absoluteDirection":"SOUTHEAST","stayOn":false,"area":false,"bogusName":false,"lon":-71.07798890000001,"lat":48.439381000000004,"elevation":[]},{"distance":802.248,"relativeDirection":"HARD_LEFT","streetName":"Rue des Champs","absoluteDirection":"NORTH","stayOn":false,"area":false,"bogusName":false,"lon":-71.07663450000001,"lat":48.4386467,"elevation":[]},{"distance":80.422,"relativeDirection":"CONTINUE","streetName":"Rue Delisle","absoluteDirection":"EAST","stayOn":false,"area":false,"bogusName":false,"lon":-71.0701683,"lat":48.443755,"elevation":[]},{"distance":182.699,"relativeDirection":"LEFT","streetName":"Rue Constantin","absoluteDirection":"NORTH","stayOn":false,"area":false,"bogusName":false,"lon":-71.069103,"lat":48.4439088,"elevation":[]},{"distance":68.898,"relativeDirection":"LEFT","streetName":"Rue Saint-Laurent","absoluteDirection":"NORTHWEST","stayOn":false,"area":false,"bogusName":false,"lon":-71.0684581,"lat":48.445417600000006,"elevation":[]}]}],"tooSloped":false},{"duration":1144,"startTime":1522677763000,"endTime":1522678907000,"walkTime":241,"transitTime":901,"waitingTime":2,"walkDistance":305.69690977237394,"walkLimitExceeded":false,"elevationLost":0.0,"elevationGained":0.0,"transfers":0,"legs":[{"startTime":1522677763000,"endTime":1522677899000,"departureDelay":0,"arrivalDelay":0,"realTime":false,"distance":173.145,"pathway":false,"mode":"WALK","route":"","agencyTimeZoneOffset":-14400000,"interlineWithPreviousLeg":false,"from":{"name":"Origin","lon":-71.079823,"lat":48.438697,"departure":1522677763000,"orig":"","vertexType":"NORMAL"},"to":{"name":"Église Sainte-Anne (Roussel / Fabrique)","stopId":"1:701","stopCode":"701","lon":-71.078824,"lat":48.439832,"arrival":1522677899000,"departure":1522677900000,"zoneId":"NA","stopIndex":26,"stopSequence":27,"vertexType":"TRANSIT"},"legGeometry":{"points":"mtsfH`wypL_BeB}BcC]h@","length":4},"rentedBike":false,"transitLeg":false,"duration":136.0,"steps":[{"distance":150.872,"relativeDirection":"DEPART","streetName":"Rue de la Fabrique","absoluteDirection":"NORTHEAST","stayOn":false,"area":false,"bogusName":false,"lon":-71.07968937982345,"lat":48.43863426214715,"elevation":[]},{"distance":22.273,"relativeDirection":"LEFT","streetName":"Rue Roussel","absoluteDirection":"NORTHWEST","stayOn":false,"area":false,"bogusName":false,"lon":-71.07852,"lat":48.4397474,"elevation":[]}]},{"startTime":1522677900000,"endTime":1522678200000,"departureDelay":0,"arrivalDelay":0,"realTime":false,"distance":2541.017793097814,"pathway":false,"mode":"BUS","route":"20","agencyName":"Société de Transport du Saguenay","agencyUrl":"http://ville.saguenay.ca/fr/services-aux-citoyens/transport-sts","agencyTimeZoneOffset":-14400000,"routeColor":"0000FF","routeType":3,"routeId":"1:20","routeTextColor":"FFFFFF","interlineWithPreviousLeg":false,"tripBlockId":"3","headsign":"Terminus Chicoutimi","agencyId":"0","tripId":"1:217193","serviceDate":"20180402","from":{"name":"Église Sainte-Anne (Roussel / Fabrique)","stopId":"1:701","stopCode":"701","lon":-71.078824,"lat":48.439832,"arrival":1522677899000,"departure":1522677900000,"zoneId":"NA","stopIndex":26,"stopSequence":27,"vertexType":"TRANSIT"},"to":{"name":"Terminus Chicoutimi","stopId":"1:1289","stopCode":"1289","lon":-71.066163,"lat":48.428677,"arrival":1522678200000,"departure":1522678500000,"zoneId":"NA","stopIndex":31,"stopSequence":32,"vertexType":"TRANSIT"},"legGeometry":{"points":"e|sfHdqypL^i@p@kAVc@\\cAr@eBv@aB|B_CJSDKLe@NeAJaAHeBBi@F{AaFe@c@IcDeAWtBOfAERGLIHIFMBa@NOQSOUGOCW?UFMHa@XUHQ?QIQOIM[g@rCmFhHqN~@eBr@cAt@_Av@}@RQPMz@k@tAe@REZG^Af@@X@VF`@Jn@XbClAr@Xt\\`PrAb@pA^hBTjAFj@Pb@JPHLLJNJRFXDT?X?ZEVEVKTMNMHMFOB}DWSGOSYcAN}FFkAF}DJyDPwGj@_QjAN~ALIpBGVITe@@","length":99},"routeShortName":"20","routeLongName":"Sainte-Claire","rentedBike":false,"transitLeg":true,"duration":300.0,"steps":[]},{"startTime":1522678500000,"endTime":1522678801000,"departureDelay":0,"arrivalDelay":0,"realTime":false,"distance":2010.8275232384121,"pathway":false,"mode":"BUS","route":"22","agencyName":"Société de Transport du Saguenay","agencyUrl":"http://ville.saguenay.ca/fr/services-aux-citoyens/transport-sts","agencyTimeZoneOffset":-14400000,"routeColor":"C0C000","routeType":3,"routeId":"1:22","routeTextColor":"000000","interlineWithPreviousLeg":true,"tripBlockId":"3","headsign":"Terminus Chicoutimi","agencyId":"0","tripId":"1:217194","serviceDate":"20180402","from":{"name":"Terminus Chicoutimi","stopId":"1:1289","stopCode":"1289","lon":-71.066163,"lat":48.428677,"arrival":1522678200000,"departure":1522678500000,"zoneId":"NA","stopIndex":0,"stopSequence":1,"vertexType":"TRANSIT"},"to":{"name":"Constantin / Chantilly","stopId":"1:739","stopCode":"739","lon":-71.068789,"lat":48.444885,"arrival":1522678801000,"departure":1522678802000,"zoneId":"NA","stopIndex":3,"stopSequence":4,"vertexType":"TRANSIT"},"legGeometry":{"points":"evqfHzcwpLg@?UhKxDVOhHMrH~CYhBBInAKXSNg@L{JHgBMoA[s@Usb@gS}@g@u@Su@Ia@Ck@Dm@HwAf@c@VeAx@iAlAU^[d@eLtTsAvBMJYF[EMIQ]y@wB[y@[{@_B{D{@uBe@gAO}AGw@SaCmAZe@AYOy@o@","length":49},"routeShortName":"22","routeLongName":"Vanier","rentedBike":false,"transitLeg":true,"duration":301.0,"steps":[]},{"startTime":1522678802000,"endTime":1522678907000,"departureDelay":0,"arrivalDelay":0,"realTime":false,"distance":132.488,"pathway":false,"mode":"WALK","route":"","agencyTimeZoneOffset":-14400000,"interlineWithPreviousLeg":false,"from":{"name":"Constantin / Chantilly","stopId":"1:739","stopCode":"739","lon":-71.068789,"lat":48.444885,"arrival":1522678801000,"departure":1522678802000,"zoneId":"NA","stopIndex":3,"stopSequence":4,"vertexType":"TRANSIT"},"to":{"name":"Destination","lon":-71.06916499,"lat":48.4458,"arrival":1522678907000,"orig":"","vertexType":"NORMAL"},"legGeometry":{"points":"w{tfHpswpLOMqAgAc@vAGPMRKLEB","length":8},"rentedBike":false,"transitLeg":false,"duration":105.0,"steps":[{"distance":63.59,"relativeDirection":"DEPART","streetName":"Rue Constantin","absoluteDirection":"NORTHEAST","stayOn":false,"area":false,"bogusName":false,"lon":-71.06888873182352,"lat":48.44492221171191,"elevation":[]},{"distance":68.898,"relativeDirection":"LEFT","streetName":"Rue Saint-Laurent","absoluteDirection":"NORTHWEST","stayOn":false,"area":false,"bogusName":false,"lon":-71.0684581,"lat":48.445417600000006,"elevation":[]}]}],"tooSloped":false},{"duration":1144,"startTime":1522679563000,"endTime":1522680707000,"walkTime":241,"transitTime":901,"waitingTime":2,"walkDistance":305.69690977237394,"walkLimitExceeded":false,"elevationLost":0.0,"elevationGained":0.0,"transfers":0,"legs":[{"startTime":1522679563000,"endTime":1522679699000,"departureDelay":0,"arrivalDelay":0,"realTime":false,"distance":173.145,"pathway":false,"mode":"WALK","route":"","agencyTimeZoneOffset":-14400000,"interlineWithPreviousLeg":false,"from":{"name":"Origin","lon":-71.079823,"lat":48.438697,"departure":1522679563000,"orig":"","vertexType":"NORMAL"},"to":{"name":"Église Sainte-Anne (Roussel / Fabrique)","stopId":"1:701","stopCode":"701","lon":-71.078824,"lat":48.439832,"arrival":1522679699000,"departure":1522679700000,"zoneId":"NA","stopIndex":26,"stopSequence":27,"vertexType":"TRANSIT"},"legGeometry":{"points":"mtsfH`wypL_BeB}BcC]h@","length":4},"rentedBike":false,"transitLeg":false,"duration":136.0,"steps":[{"distance":150.872,"relativeDirection":"DEPART","streetName":"Rue de la Fabrique","absoluteDirection":"NORTHEAST","stayOn":false,"area":false,"bogusName":false,"lon":-71.07968937982345,"lat":48.43863426214715,"elevation":[]},{"distance":22.273,"relativeDirection":"LEFT","streetName":"Rue Roussel","absoluteDirection":"NORTHWEST","stayOn":false,"area":false,"bogusName":false,"lon":-71.07852,"lat":48.4397474,"elevation":[]}]},{"startTime":1522679700000,"endTime":1522680000000,"departureDelay":0,"arrivalDelay":0,"realTime":false,"distance":2541.017793097814,"pathway":false,"mode":"BUS","route":"20","agencyName":"Société de Transport du Saguenay","agencyUrl":"http://ville.saguenay.ca/fr/services-aux-citoyens/transport-sts","agencyTimeZoneOffset":-14400000,"routeColor":"0000FF","routeType":3,"routeId":"1:20","routeTextColor":"FFFFFF","interlineWithPreviousLeg":false,"tripBlockId":"1","headsign":"Terminus Chicoutimi","agencyId":"0","tripId":"1:217137","serviceDate":"20180402","from":{"name":"Église Sainte-Anne (Roussel / Fabrique)","stopId":"1:701","stopCode":"701","lon":-71.078824,"lat":48.439832,"arrival":1522679699000,"departure":1522679700000,"zoneId":"NA","stopIndex":26,"stopSequence":27,"vertexType":"TRANSIT"},"to":{"name":"Terminus Chicoutimi","stopId":"1:1289","stopCode":"1289","lon":-71.066163,"lat":48.428677,"arrival":1522680000000,"departure":1522680300000,"zoneId":"NA","stopIndex":31,"stopSequence":32,"vertexType":"TRANSIT"},"legGeometry":{"points":"e|sfHdqypL^i@p@kAVc@\\cAr@eBv@aB|B_CJSDKLe@NeAJaAHeBBi@F{AaFe@c@IcDeAWtBOfAERGLIHIFMBa@NOQSOUGOCW?UFMHa@XUHQ?QIQOIM[g@rCmFhHqN~@eBr@cAt@_Av@}@RQPMz@k@tAe@REZG^Af@@X@VF`@Jn@XbClAr@Xt\\`PrAb@pA^hBTjAFj@Pb@JPHLLJNJRFXDT?X?ZEVEVKTMNMHMFOB}DWSGOSYcAN}FFkAF}DJyDPwGj@_QjAN~ALIpBGVITe@@","length":99},"routeShortName":"20","routeLongName":"Sainte-Claire","rentedBike":false,"transitLeg":true,"duration":300.0,"steps":[]},{"startTime":1522680300000,"endTime":1522680601000,"departureDelay":0,"arrivalDelay":0,"realTime":false,"distance":2010.8275232384121,"pathway":false,"mode":"BUS","route":"22","agencyName":"Société de Transport du Saguenay","agencyUrl":"http://ville.saguenay.ca/fr/services-aux-citoyens/transport-sts","agencyTimeZoneOffset":-14400000,"routeColor":"C0C000","routeType":3,"routeId":"1:22","routeTextColor":"000000","interlineWithPreviousLeg":true,"tripBlockId":"1","headsign":"Terminus Chicoutimi","agencyId":"0","tripId":"1:217138","serviceDate":"20180402","from":{"name":"Terminus Chicoutimi","stopId":"1:1289","stopCode":"1289","lon":-71.066163,"lat":48.428677,"arrival":1522680000000,"departure":1522680300000,"zoneId":"NA","stopIndex":0,"stopSequence":1,"vertexType":"TRANSIT"},"to":{"name":"Constantin / Chantilly","stopId":"1:739","stopCode":"739","lon":-71.068789,"lat":48.444885,"arrival":1522680601000,"departure":1522680602000,"zoneId":"NA","stopIndex":3,"stopSequence":4,"vertexType":"TRANSIT"},"legGeometry":{"points":"evqfHzcwpLg@?UhKxDVOhHMrH~CYhBBInAKXSNg@L{JHgBMoA[s@Usb@gS}@g@u@Su@Ia@Ck@Dm@HwAf@c@VeAx@iAlAU^[d@eLtTsAvBMJYF[EMIQ]y@wB[y@[{@_B{D{@uBe@gAO}AGw@SaCmAZe@AYOy@o@","length":49},"routeShortName":"22","routeLongName":"Vanier","rentedBike":false,"transitLeg":true,"duration":301.0,"steps":[]},{"startTime":1522680602000,"endTime":1522680707000,"departureDelay":0,"arrivalDelay":0,"realTime":false,"distance":132.488,"pathway":false,"mode":"WALK","route":"","agencyTimeZoneOffset":-14400000,"interlineWithPreviousLeg":false,"from":{"name":"Constantin / Chantilly","stopId":"1:739","stopCode":"739","lon":-71.068789,"lat":48.444885,"arrival":1522680601000,"departure":1522680602000,"zoneId":"NA","stopIndex":3,"stopSequence":4,"vertexType":"TRANSIT"},"to":{"name":"Destination","lon":-71.06916499,"lat":48.4458,"arrival":1522680707000,"orig":"","vertexType":"NORMAL"},"legGeometry":{"points":"w{tfHpswpLOMqAgAc@vAGPMRKLEB","length":8},"rentedBike":false,"transitLeg":false,"duration":105.0,"steps":[{"distance":63.59,"relativeDirection":"DEPART","streetName":"Rue Constantin","absoluteDirection":"NORTHEAST","stayOn":false,"area":false,"bogusName":false,"lon":-71.06888873182352,"lat":48.44492221171191,"elevation":[]},{"distance":68.898,"relativeDirection":"LEFT","streetName":"Rue Saint-Laurent","absoluteDirection":"NORTHWEST","stayOn":false,"area":false,"bogusName":false,"lon":-71.0684581,"lat":48.445417600000006,"elevation":[]}]}],"tooSloped":false}]},"debugOutput":{"precalculationTime":14,"pathCalculationTime":17,"pathTimes":[11,4,2],"renderingTime":0,"totalTime":31,"timedOut":false},"elevationMetadata":{"ellipsoidToGeoidDifference":-28.885904201182168,"geoidElevation":false}}