{"requestParameters":{"date":"2018/04/02","walkSpeed":"1.33","walkReluctance":"2.0","fromPlace":"48.449608,-71.079063","maxWalkDistance":"3000","waitReluctance":"1.0","carSpeed":"33","numItineraries":"3","waitAtBeginningFactor":"0.4","mode":"TRANSIT,WALK","ignoreRealtimeUpdates":"false","stairsReluctance":"2.0","toPlace":"48.405622,-71.051169","time":"7:30:00"},"plan":{"date":1522668600000,"from":{"name":"Origin","lon":-71.079063,"lat":48.449608,"orig":"","vertexType":"NORMAL"},"to":{"name":"Destination","lon":-71.051169,"lat":48.405622,"orig":"","vertexType":"NORMAL"},"itineraries":[{"duration":2439,"startTime":1522669903000,"endTime":1522672342000,"walkTime":168,"transitTime":1969,"waitingTime":302,"walkDistance":212.87696992358684,"walkLimitExceeded":false,"elevationLost":0.0,"elevationGained":0.0,"transfers":1,"legs":[{"startTime":1522669903000,"endTime":1522669919000,"departureDelay":0,"arrivalDelay":0,"realTime":false,"distance":20.887,"pathway":false,"mode":"WALK","route":"","agencyTimeZoneOffset":-14400000,"interlineWithPreviousLeg":false,"from":{"name":"Origin","lon":-71.079063,"lat":48.449608,"departure":1522669903000,"orig":"","vertexType":"NORMAL"},"to":{"name":"Pinel / St-Gérard","stopId":"1:99","stopCode":"99","lon":-71.079002,"lat":48.449332,"arrival":1522669919000,"departure":1522669920000,"zoneId":"NA","stopIndex":4,"stopSequence":5,"vertexType":"TRANSIT"},"legGeometry":{"points":"uxufHrrypL@DZ\\","length":3},"rentedBike":false,"transitLeg":false,"duration":16.0,"steps":[{"distance":20.887,"relativeDirection":"DEPART","streetName":"Rue Pinel","absoluteDirection":"SOUTHWEST","stayOn":false,"area":false,"bogusName":false,"lon":-71.07897858730877,"lat":48.44955600906517,"elevation":[]}]},{"startTime":1522669920000,"endTime":1522671000000,"departureDelay":0,"arrivalDelay":0,"realTime":false,"distance":9298.912537094722,"pathway":false,"mode":"BUS","route":"21","agencyName":"Société de Transport du Saguenay","agencyUrl":"http://ville.saguenay.ca/fr/services-aux-citoyens/transport-sts","agencyTimeZoneOffset":-14400000,"routeColor":"556B2F","routeType":3,"routeId":"1:21","routeTextColor":"FFFFFF","interlineWithPreviousLeg":false,"tripBlockId":"2","headsign":"Terminus Chicoutimi","agencyId":"0","tripId":"1:217158","serviceDate":"20180402","from":{"name":"Pinel / St-Gérard","stopId":"1:99","stopCode":"99","lon":-71.079002,"lat":48.449332,"arrival":1522669919000,"departure":1522669920000,"zoneId":"NA","stopIndex":4,"stopSequence":5,"vertexType":"TRANSIT"},"to":{"name":"Terminus Chicoutimi","stopId":"1:1289","stopCode":"1289","lon":-71.066163,"lat":48.428677,"arrival":1522671000000,"departure":1522671300000,"zoneId":"NA","stopIndex":34,"stopSequence":35,"vertexType":"TRANSIT"},"legGeometry":{"points":"wwufHrsypL_FqGO[`BcEY_@MOaBtDLTh@bATZpGlIPNa@fAOn@Gd@UtBA^A^R`E^fGRbAVl@P`@BFNb@t@xAiCvCMP}@jAY`@q@jAm@jA}@rBmArD?Tu@|CYzAET{AxOQhBQ~Aa@~DQ~A[xCM~AiAjLo@vGk@tFe@vEu@xHgAdLIl@UhCyAnPQhBK`Ae@fFm@vGS`Co@`HQhBQlBAHo@fHc@fEc@`FiDiAOSIMOQOa@GQWs@Gf@A\\@r@DRFBDCb@e@NPHLNR|Bt@j@Rb@aF\\eDDa@n@gH@Ib@wEn@aH?A`AwK^}DDi@\\kD~AyQN_BHm@fAeLd@{Et@uHZyC~@sJjAyLJqAZyCP_BZuCDi@b@iExAsO@E^qBt@}CJGnAmDx@iBpAcCb@o@Zi@h@o@`AiArFkG`FgGdBwBt@cAbAmBx@eBj@eB`CoHpCyJbAmCtAuCZg@|@gBxAsCrCmFhHqN~@eBr@cAt@_Av@}@RQPMz@k@tAe@REZG^Af@@X@VF`@Jn@XbClAr@Xt\\`PrAb@pA^hBTjAFj@Pb@JPHLLJNJRFXDT?X?ZEVEVKTMNMHMFOB}DWSGOSYcAN}FFkAF}DJyDPwGvAHVyL","length":191},"routeShortName":"21","routeLongName":"Boul. Ste-Geneviève/Élie","rentedBike":false,"transitLeg":true,"duration":1080.0,"steps":[]},{"startTime":1522671300000,"endTime":1522672189000,"departureDelay":0,"arrivalDelay":0,"realTime":false,"distance":4161.798962757783,"pathway":false,"mode":"BUS","route":"175","agencyName":"Société de Transport du Saguenay","agencyUrl":"http://ville.saguenay.ca/fr/services-aux-citoyens/transport-sts","agencyTimeZoneOffset":-14400000,"routeColor":"FF00FF","routeType":3,"routeId":"1:175","routeTextColor":"FFFFFF","interlineWithPreviousLeg":false,"tripBlockId":"6","headsign":"Costco","agencyId":"0","tripId":"1:217288","serviceDate":"20180402","from":{"name":"Terminus Chicoutimi","stopId":"1:1289","stopCode":"1289","lon":-71.066163,"lat":48.428677,"arrival":1522671000000,"departure":1522671300000,"zoneId":"NA","stopIndex":0,"stopSequence":1,"vertexType":"TRANSIT"},"to":{"name":"Émile Girardin / Roitelets","stopId":"1:253","stopCode":"253","lon":-71.050677,"lat":48.406726,"arrival":1522672189000,"departure":1522672190000,"zoneId":"NA","stopIndex":17,"stopSequence":18,"vertexType":"TRANSIT"},"legGeometry":{"points":"kvqfH~awpL~CgBbAqa@FwCBkAOsHAg@bAYUwMKoE@mB@kJ@iFbEf@xEj@iCtYp@r@z@`ABBvHtHXRx@l@VwAvAgB\\qBIuAC]g@yEzDuLbBbBvAxAMx@|@v@`A~@Xw@~D~DPxFZtA~ApE`N{LpFmEb@[ROl@[vDQXKfA[|@q@fAsBlEmMr@sBhCsKz@dAjB|@dM`GzCvAXrC","length":57},"routeShortName":"175","routeLongName":"Term. Chic / Costco","rentedBike":false,"transitLeg":true,"duration":889.0,"steps":[]},{"startTime":1522672190000,"endTime":1522672342000,"departureDelay":0,"arrivalDelay":0,"realTime":false,"distance":191.952,"pathway":false,"mode":"WALK","route":"","agencyTimeZoneOffset":-14400000,"interlineWithPreviousLeg":false,"from":{"name":"Émile Girardin / Roitelets","stopId":"1:253","stopCode":"253","lon":-71.050677,"lat":48.406726,"arrival":1522672189000,"departure":1522672190000,"zoneId":"NA","stopIndex":17,"stopSequence":18,"vertexType":"TRANSIT"},"to":{"name":"Destination","lon":-71.051169,"lat":48.405622,"arrival":1522672342000,"orig":"","vertexType":"NORMAL"},"legGeometry":{"points":"qlmfHnatpL@J@FFn@z@pEt@]l@Qh@C","length":8},"rentedBike":false,"transitLeg":false,"duration":152.0,"steps":[{"distance":110.098,"relativeDirection":"DEPART","streetName":"Rue Émile-Girardin","absoluteDirection":"WEST","stayOn":false,"area":false,"bogusName":false,"lon":-71.05063801296859,"lat":48.406654574894674,"elevation":[]},{"distance":81.854,"relativeDirection":"LEFT","streetName":"Rue des Champs-Élysées","absoluteDirection":"SOUTH","stayOn":false,"area":false,"bogusName":false,"lon":-71.05202630000001,"lat":48.4062974,"elevation":[]}]}],"tooSloped":false},{"duration":2977,"startTime":1522669768000,"endTime":1522672745000,"walkTime":303,"transitTime":2252,"waitingTime":422,"walkDistance":386.25091729107385,"walkLimitExceeded":false,"elevationLost":0.0,"elevationGained":0.0,"transfers":1,"legs":[{"startTime":1522669768000,"endTime":1522669919000,"departureDelay":0,"arrivalDelay":0,"realTime":false,"distance":194.232,"pathway":false,"mode":"WALK","route":"","agencyTimeZoneOffset":-14400000,"interlineWithPreviousLeg":false,"from":{"name":"Origin","lon":-71.079063,"lat":48.449608,"departure":1522669768000,"orig":"","vertexType":"NORMAL"},"to":{"name":"École Secondaire Charles-Gravel (St-Gérard)","stopId":"1:728","stopCode":"728","lon":-71.08106,"lat":48.449225,"arrival":1522669919000,"departure":1522669920000,"zoneId":"NA","stopIndex":5,"stopSequence":6,"vertexType":"TRANSIT"},"legGeometry":{"points":"uxufHrrypL@DZ\\zAfBILOh@S~@I\\ETIz@Ed@","length":11},"rentedBike":false,"transitLeg":false,"duration":151.0,"steps":[{"distance":84.94200000000001,"relativeDirection":"DEPART","streetName":"Rue Pinel","absoluteDirection":"SOUTHWEST","stayOn":false,"area":false,"bogusName":false,"lon":-71.07897858730877,"lat":48.44955600906517,"elevation":[]},{"distance":109.28999999999999,"relativeDirection":"RIGHT","streetName":"Rue Saint-Gérard","absoluteDirection":"NORTHWEST","stayOn":false,"area":false,"bogusName":false,"lon":-71.079678,"lat":48.4489492,"elevation":[]}]},{"startTime":1522669920000,"endTime":1522670880000,"departureDelay":0,"arrivalDelay":0,"realTime":false,"distance":5498.063021457336,"pathway":false,"mode":"BUS","route":"23","agencyName":"Société de Transport du Saguenay","agencyUrl":"http://ville.saguenay.ca/fr/services-aux-citoyens/transport-sts","agencyTimeZoneOffset":-14400000,"routeColor":"FF00FF","routeType":3,"routeId":"1:23","routeTextColor":"FFFFFF","interlineWithPreviousLeg":false,"tripBlockId":"5","headsign":"Terminus Chicoutimi","agencyId":"0","tripId":"1:217252","serviceDate":"20180402","from":{"name":"École Secondaire Charles-Gravel (St-Gérard)","stopId":"1:728","stopCode":"728","lon":-71.08106,"lat":48.449225,"arrival":1522669919000,"departure":1522669920000,"zoneId":"NA","stopIndex":5,"stopSequence":6,"vertexType":"TRANSIT"},"to":{"name":"Terminus Chicoutimi","stopId":"1:1289","stopCode":"1289","lon":-71.066163,"lat":48.428677,"arrival":1522670880000,"departure":1522671300000,"zoneId":"NA","stopIndex":26,"stopSequence":27,"vertexType":"TRANSIT"},"legGeometry":{"points":"kwufHh_zpLRoBFe@No@`@gAbCyFNe@Ha@He@Fg@Du@Dg@Hc@Pa@RW\\S`@QZEm@eHM}B?GGi@Is@Ou@Qw@Mo@Kw@ImAGoBAk@aALa@?YEUKc@Yc@_@KOIUGUEWAW?YBqAH_AXeC@IdB_Mh@_EJk@d@kDhAqI`AgHz@oGBU?UAWCWUwAWD]B]AUEoAc@kE}AOIq@g@g@u@]w@b@s@T[~CkFf@s@\\e@x@}@jAeAXQZStBaAh@]`@]`@i@l@kDF_@R{AFWFMPIPC`@BT@V?TAVKLENCLCJ@J@xAb@x@Zz@\\CP?R@N@NFLFF`GtBx@Xw@pG@l@B\\DXL\\RZDFXPf@N@v@Bp@Dr@l@~HNlAH\\@HLd@\\z@Xd@X\\RTXRr@Zn@PfExAvDpALnBJt@Pp@|@`DHZPn@`@rBNnAFr@DbA?bB@jABzA?p@A???A???A?A???A@??A?A@??A@?@A??@A@???@A@?@?@A@?@?@?@?@???@?@?@?@?@?@@@?@?@@@?@@@?@@@?@@?@@??@@@?E`@Kr@]rACVEl@I|AAr@JbAWJe@FUAM?a@Ke@YYWWa@v@}@RQPMz@k@tAe@REZG^Af@@X@VF`@Jn@XbClAr@Xt\\`PrAb@pA^hBTjAFj@Pb@JPHLLJNJRFXDT?X?ZEVEVKTMNMHMFOB}DWSGOSYcAN}FFkAF}DJyDd@wPV_HjAN~ALI`C","length":263},"routeShortName":"23","routeLongName":"Côte Verdun via Aréna du Plateau","rentedBike":false,"transitLeg":true,"duration":960.0,"steps":[]},{"startTime":1522671300000,"endTime":1522672592000,"departureDelay":0,"arrivalDelay":0,"realTime":false,"distance":8248.171057113988,"pathway":false,"mode":"BUS","route":"12","agencyName":"Société de Transport du Saguenay","agencyUrl":"http://ville.saguenay.ca/fr/services-aux-citoyens/transport-sts","agencyTimeZoneOffset":-14400000,"routeColor":"556B2F","routeType":3,"routeId":"1:12","routeTextColor":"FFFFFF","interlineWithPreviousLeg":false,"tripBlockId":"28","headsign":"Terminus UQAC","agencyId":"0","tripId":"1:218029","serviceDate":"20180402","from":{"name":"Terminus Chicoutimi","stopId":"1:1289","stopCode":"1289","lon":-71.066163,"lat":48.428677,"arrival":1522670880000,"departure":1522671300000,"zoneId":"NA","stopIndex":0,"stopSequence":1,"vertexType":"TRANSIT"},"to":{"name":"Émile Girardin / Roitelets","stopId":"1:253","stopCode":"253","lon":-71.050677,"lat":48.406726,"arrival":1522672592000,"departure":1522672593000,"zoneId":"NA","stopIndex":27,"stopSequence":28,"vertexType":"TRANSIT"},"legGeometry":{"points":"evqfHpbwpLpFcj@IaKmFy^_DaZz@u]SeV}@aNs@gKToKd@gTnCyHkGuLqFqJ_DeFf@iIvGsKlIrH`JlH`EfDnOdIdGlGjL|BzBiLv@}L`b@fNvVvrCdRvM","length":28},"routeShortName":"12","routeLongName":"Rivière du Moulin","rentedBike":false,"transitLeg":true,"duration":1292.0,"steps":[]},{"startTime":1522672593000,"endTime":1522672745000,"departureDelay":0,"arrivalDelay":0,"realTime":false,"distance":191.952,"pathway":false,"mode":"WALK","route":"","agencyTimeZoneOffset":-14400000,"interlineWithPreviousLeg":false,"from":{"name":"Émile Girardin / Roitelets","stopId":"1:253","stopCode":"253","lon":-71.050677,"lat":48.406726,"arrival":1522672592000,"departure":1522672593000,"zoneId":"NA","stopIndex":27,"stopSequence":28,"vertexType":"TRANSIT"},"to":{"name":"Destination","lon":-71.051169,"lat":48.405622,"arrival":1522672745000,"orig":"","vertexType":"NORMAL"},"legGeometry":{"points":"qlmfHnatpL@J@FFn@z@pEt@]l@Qh@C","length":8},"rentedBike":false,"transitLeg":false,"duration":152.0,"steps":[{"distance":110.098,"relativeDirection":"DEPART","streetName":"Rue Émile-Girardin","absoluteDirection":"WEST","stayOn":false,"area":false,"bogusName":false,"lon":-71.05063801296859,"lat":48.406654574894674,"elevation":[]},{"distance":81.854,"relativeDirection":"LEFT","streetName":"Rue des Champs-Élysées","absoluteDirection":"SOUTH","stayOn":false,"area":false,"bogusName":false,"lon":-71.05202630000001,"lat":48.4062974,"elevation":[]}]}],"tooSloped":false},{"duration":3247,"startTime":1522669995000,"endTime":1522673242000,"walkTime":705,"transitTime":1340,"waitingTime":1202,"walkDistance":904.6755112748231,"walkLimitExceeded":false,"elevationLost":0.0,"elevationGained":0.0,"transfers":1,"legs":[{"startTime":1522669995000,"endTime":1522670548000,"departureDelay":0,"arrivalDelay":0,"realTime":false,"distance":712.619,"pathway":false,"mode":"WALK","route":"","agencyTimeZoneOffset":-14400000,"interlineWithPreviousLeg":false,"from":{"name":"Origin","lon":-71.079063,"lat":48.449608,"departure":1522669995000,"orig":"","vertexType":"NORMAL"},"to":{"name":"Ste-Marie (no. 224)","stopId":"1:697","stopCode":"697","lon":-71.085685,"lat":48.44687,"arrival":1522670548000,"departure":1522670549000,"zoneId":"NA","stopIndex":21,"stopSequence":22,"vertexType":"TRANSIT"},"legGeometry":{"points":"uxufHrrypL@DZ\\zAfBILOh@S~@I\\ETIz@Ed@CT?f@DzANpCLpCDl@Fn@H^JV\\|@FPJTv@lBN\\`@z@HFJHfCElBA","length":30},"rentedBike":false,"transitLeg":false,"duration":553.0,"steps":[{"distance":84.94200000000001,"relativeDirection":"DEPART","streetName":"Rue Pinel","absoluteDirection":"SOUTHWEST","stayOn":false,"area":false,"bogusName":false,"lon":-71.07897858730877,"lat":48.44955600906517,"elevation":[]},{"distance":447.54999999999995,"relativeDirection":"RIGHT","streetName":"Rue Saint-Gérard","absoluteDirection":"NORTHWEST","stayOn":false,"area":false,"bogusName":false,"lon":-71.079678,"lat":48.4489492,"elevation":[]},{"distance":35.026,"relativeDirection":"CONTINUE","streetName":"Rue Sainte-Marie Sud","absoluteDirection":"SOUTHWEST","stayOn":false,"area":false,"bogusName":false,"lon":-71.08521470000001,"lat":48.448382800000005,"elevation":[]},{"distance":145.101,"relativeDirection":"LEFT","streetName":"Rue Sainte-Marie Sud","absoluteDirection":"SOUTH","stayOn":true,"area":false,"bogusName":false,"lon":-71.0855571,"lat":48.448167500000004,"elevation":[]}]},{"startTime":1522670549000,"endTime":1522671000000,"departureDelay":0,"arrivalDelay":0,"realTime":false,"distance":3596.573827725571,"pathway":false,"mode":"BUS","route":"20","agencyName":"Société de Transport du Saguenay","agencyUrl":"http://ville.saguenay.ca/fr/services-aux-citoyens/transport-sts","agencyTimeZoneOffset":-14400000,"routeColor":"0000FF","routeType":3,"routeId":"1:20","routeTextColor":"FFFFFF","interlineWithPreviousLeg":false,"tripBlockId":"3","headsign":"Terminus Chicoutimi","agencyId":"0","tripId":"1:217189","serviceDate":"20180402","from":{"name":"Ste-Marie (no. 224)","stopId":"1:697","stopCode":"697","lon":-71.085685,"lat":48.44687,"arrival":1522670548000,"departure":1522670549000,"zoneId":"NA","stopIndex":21,"stopSequence":22,"vertexType":"TRANSIT"},"to":{"name":"Terminus Chicoutimi","stopId":"1:1289","stopCode":"1289","lon":-71.066163,"lat":48.428677,"arrival":1522671000000,"departure":1522672200000,"zoneId":"NA","stopIndex":31,"stopSequence":32,"vertexType":"TRANSIT"},"legGeometry":{"points":"}gufH`|zpLzBEd@Cf@Gj@MZMb@S`Ag@DClAk@f@Qv@Ov@IlBCnBa@TCTBjBPH@LiCDe@Lw@|@cELo@D[Dk@@[@uC@SBUDQFSt@yAHIr@eAjAaB`AqA^i@p@kAVc@\\cAr@eBv@aB|B_CJSDKLe@NeAJaAHeBBi@F{AaFe@c@IcDeAWtBOfAERGLIHIFMBa@NOQSOUGOCW?UFMHa@XUHQ?QIQOIM[g@rCmFhHqN~@eBr@cAt@_Av@}@RQPMz@k@tAe@REZG^Af@@X@VF`@Jn@XbClAr@Xt\\`PrAb@pA^hBTjAFj@Pb@JPHLLJNJRFXDT?X?ZEVEVKTMNMHMFOB}DWSGOSYcAN}FFkAF}DJyDPwGj@_QjAN~ALIpBGVITe@@","length":135},"routeShortName":"20","routeLongName":"Sainte-Claire","rentedBike":false,"transitLeg":true,"duration":451.0,"steps":[]},{"startTime":1522672200000,"endTime":1522673089000,"departureDelay":0,"arrivalDelay":0,"realTime":false,"distance":4161.798962757783,"pathway":false,"mode":"BUS","route":"175","agencyName":"Société de Transport du Saguenay","agencyUrl":"http://ville.saguenay.ca/fr/services-aux-citoyens/transport-sts","agencyTimeZoneOffset":-14400000,"routeColor":"FF00FF","routeType":3,"routeId":"1:175","routeTextColor":"FFFFFF","interlineWithPreviousLeg":false,"tripBlockId":"76","headsign":"Costco","agencyId":"0","tripId":"1:218632","serviceDate":"20180402","from":{"name":"Terminus Chicoutimi","stopId":"1:1289","stopCode":"1289","lon":-71.066163,"lat":48.428677,"arrival":1522671000000,"departure":1522672200000,"zoneId":"NA","stopIndex":0,"stopSequence":1,"vertexType":"TRANSIT"},"to":{"name":"Émile Girardin / Roitelets","stopId":"1:253","stopCode":"253","lon":-71.050677,"lat":48.406726,"arrival":1522673089000,"departure":1522673090000,"zoneId":"NA","stopIndex":17,"stopSequence":18,"vertexType":"TRANSIT"},"legGeometry":{"points":"kvqfH~awpL~CgBbAqa@FwCBkAOsHAg@bAYUwMKoE@mB@kJ@iFbEf@xEj@iCtYp@r@z@`ABBvHtHXRx@l@VwAvAgB\\qBIuAC]g@yEzDuLbBbBvAxAMx@|@v@`A~@Xw@~D~DPxFZtA~ApE`N{LpFmEb@[ROl@[vDQXKfA[|@q@fAsBlEmMr@sBhCsKz@dAjB|@dM`GzCvAXrC","length":57},"routeShortName":"175","routeLongName":"Term. Chic / Costco","rentedBike":false,"transitLeg":true,"duration":889.0,"steps":[]},{"startTime":1522673090000,"endTime":1522673242000,"departureDelay":0,"arrivalDelay":0,"realTime":false,"distance":191.952,"pathway":false,"mode":"WALK","route":"","agencyTimeZoneOffset":-14400000,"interlineWithPreviousLeg":false,"from":{"name":"Émile Girardin / Roitelets","stopId":"1:253","stopCode":"253","lon":-71.050677,"lat":48.406726,"arrival":1522673089000,"departure":1522673090000,"zoneId":"NA","stopIndex":17,"stopSequence":18,"vertexType":"TRANSIT"},"to":{"name":"Destination","lon":-71.051169,"lat":48.405622,"arrival":1522673242000,"orig":"","vertexType":"NORMAL"},"legGeometry":{"points":"qlmfHnatpL@J@FFn@z@pEt@]l@Qh@C","length":8},"rentedBike":false,"transitLeg":false,"duration":152.0,"steps":[{"distance":110.098,"relativeDirection":"DEPART","streetName":"Rue Émile-Girardin","absoluteDirection":"WEST","stayOn":false,"area":false,"bogusName":false,"lon":-71.05063801296859,"lat":48.406654574894674,"elevation":[]},{"distance":81.854,"relativeDirection":"LEFT","streetName":"Rue des Champs-Élysées","absoluteDirection":"SOUTH","stayOn":false,"area":false,"bogusName":false,"lon":-71.05202630000001,"lat":48.4062974,"elevation":[]}]}],"tooSloped":false}]},"debugOutput":{"precalculationTime":27,"pathCalculationTime":25,"pathTimes":[14,5,6],"renderingTime":1,"totalTime":53,"timedOut":false},"elevationMetadata":{"ellipsoidToGeoidDifference":-28.885904201182168,"geoidElevation":false}}