{"requestParameters":{"date":"2018/04/02","walkSpeed":"1.33","walkReluctance":"2.0","fromPlace":"48.427745,-71.062942","maxWalkDistance":"3000","waitReluctance":"1.0","carSpeed":"33","numItineraries":"3","waitAtBeginningFactor":"0.4","mode":"TRANSIT,WALK","ignoreRealtimeUpdates":"false","stairsReluctance":"2.0","toPlace":"48.447107,-71.084921","time":"20:30:00"},"plan":{"date":1522715400000,"from":{"name":"Origin","lon":-71.062942,"lat":48.427745,"orig":"","vertexType":"NORMAL"},"to":{"name":"Destination","lon":-71.084921,"lat":48.447107,"orig":"","vertexType":"NORMAL"},"itineraries":[{"duration":815,"startTime":1522716076000,"endTime":1522716891000,"walkTime":426,"transitTime":387,"waitingTime":2,"walkDistance":533.2896240553224,"walkLimitExceeded":false,"elevationLost":0.0,"elevationGained":0.0,"transfers":0,"legs":[{"startTime":1522716076000,"endTime":1522716299000,"departureDelay":0,"arrivalDelay":0,"realTime":false,"distance":281.251,"pathway":false,"mode":"WALK","route":"","agencyTimeZoneOffset":-14400000,"interlineWithPreviousLeg":false,"from":{"name":"Origin","lon":-71.062942,"lat":48.427745,"departure":1522716076000,"orig":"","vertexType":"NORMAL"},"to":{"name":"Terminus Chicoutimi","stopId":"1:1289","stopCode":"1289","lon":-71.066163,"lat":48.428677,"arrival":1522716299000,"departure":1522716300000,"zoneId":"NA","stopIndex":0,"stopSequence":1,"vertexType":"TRANSIT"},"legGeometry":{"points":"kpqfHfnvpLE?Ah@GpBAXAj@SzHc@MKESAcAK","length":11},"rentedBike":false,"transitLeg":false,"duration":223.0,"steps":[{"distance":3.292,"relativeDirection":"DEPART","streetName":"Rue de l'Hôtel-de-Ville","absoluteDirection":"NORTH","stayOn":false,"area":false,"bogusName":false,"lon":-71.06291624844302,"lat":48.42774459839536,"elevation":[]},{"distance":200.752,"relativeDirection":"LEFT","streetName":"Rue Racine Est","absoluteDirection":"WEST","stayOn":false,"area":false,"bogusName":false,"lon":-71.0629152,"lat":48.4277742,"elevation":[]},{"distance":77.207,"relativeDirection":"RIGHT","streetName":"Rue Morin","absoluteDirection":"NORTH","stayOn":false,"area":false,"bogusName":false,"lon":-71.0656238,"lat":48.4279449,"elevation":[]}]},{"startTime":1522716300000,"endTime":1522716687000,"departureDelay":0,"arrivalDelay":0,"realTime":false,"distance":2669.4064857723333,"pathway":false,"mode":"BUS","route":"23","agencyName":"Société de Transport du Saguenay","agencyUrl":"http://ville.saguenay.ca/fr/services-aux-citoyens/transport-sts","agencyTimeZoneOffset":-14400000,"routeColor":"FF00FF","routeType":3,"routeId":"1:23","routeTextColor":"FFFFFF","interlineWithPreviousLeg":false,"tripBlockId":"5","headsign":"Terminus Chicoutimi","agencyId":"0","tripId":"1:217278","serviceDate":"20180402","from":{"name":"Terminus Chicoutimi","stopId":"1:1289","stopCode":"1289","lon":-71.066163,"lat":48.428677,"arrival":1522716299000,"departure":1522716300000,"zoneId":"NA","stopIndex":0,"stopSequence":1,"vertexType":"TRANSIT"},"to":{"name":"St-Gérard / Pasteur","stopId":"1:727","stopCode":"727","lon":-71.084309,"lat":48.448719,"arrival":1522716687000,"departure":1522716688000,"zoneId":"NA","stopIndex":4,"stopSequence":5,"vertexType":"TRANSIT"},"legGeometry":{"points":"kwqfHjbwpLF_CkAOYCm@rRO\\WjGOfGCRK^KJMHQB_AMg@Gw`@eR}@g@u@Su@Ia@Ck@Dm@HwAf@c@VeAx@iAlAU^[d@eLtTsAvB_CvEuAnCmBlE}@|B_BvFoC`JCD}@hCo@~Aq@pAs@fA{BlCqH|Iq@Bq@Im@U","length":46},"routeShortName":"23","routeLongName":"Côte Verdun via Aréna du Plateau","rentedBike":false,"transitLeg":true,"duration":387.0,"steps":[]},{"startTime":1522716688000,"endTime":1522716891000,"departureDelay":0,"arrivalDelay":0,"realTime":false,"distance":251.889,"pathway":false,"mode":"WALK","route":"","agencyTimeZoneOffset":-14400000,"interlineWithPreviousLeg":false,"from":{"name":"St-Gérard / Pasteur","stopId":"1:727","stopCode":"727","lon":-71.084309,"lat":48.448719,"arrival":1522716687000,"departure":1522716688000,"zoneId":"NA","stopIndex":4,"stopSequence":5,"vertexType":"TRANSIT"},"to":{"name":"Destination","lon":-71.084921,"lat":48.447107,"arrival":1522716891000,"orig":"","vertexType":"NORMAL"},"legGeometry":{"points":"_tufHptzpLJTv@lBN\\`D{DRj@RRJ?b@?DA","length":10},"rentedBike":false,"transitLeg":false,"duration":203.0,"steps":[{"distance":75.98,"relativeDirection":"DEPART","streetName":"Rue Saint-Gérard","absoluteDirection":"SOUTHWEST","stayOn":false,"area":false,"bogusName":false,"lon":-71.0844008886955,"lat":48.448801303287965,"elevation":[]},{"distance":113.606,"relativeDirection":"LEFT","streetName":"Boulevard Sainte-Geneviève","absoluteDirection":"SOUTHEAST","stayOn":false,"area":false,"bogusName":false,"lon":-71.08521470000001,"lat":48.448382800000005,"elevation":[]},{"distance":32.705,"relativeDirection":"RIGHT","streetName":"path","absoluteDirection":"SOUTHWEST","stayOn":false,"area":false,"bogusName":true,"lon":-71.0842777,"lat":48.4475719,"elevation":[]},{"distance":29.598,"relativeDirection":"SLIGHTLY_LEFT","streetName":"Rue Pasteur Sud","absoluteDirection":"SOUTH","stayOn":false,"area":false,"bogusName":false,"lon":-71.0845956,"lat":48.447373400000004,"elevation":[]}]}],"tooSloped":false},{"duration":1091,"startTime":1522716076000,"endTime":1522717167000,"walkTime":609,"transitTime":480,"waitingTime":2,"walkDistance":781.5206315756357,"walkLimitExceeded":false,"elevationLost":0.0,"elevationGained":0.0,"transfers":0,"legs":[{"startTime":1522716076000,"endTime":1522716299000,"departureDelay":0,"arrivalDelay":0,"realTime":false,"distance":281.251,"pathway":false,"mode":"WALK","route":"","agencyTimeZoneOffset":-14400000,"interlineWithPreviousLeg":false,"from":{"name":"Origin","lon":-71.062942,"lat":48.427745,"departure":1522716076000,"orig":"","vertexType":"NORMAL"},"to":{"name":"Terminus Chicoutimi","stopId":"1:1289","stopCode":"1289","lon":-71.066163,"lat":48.428677,"arrival":1522716299000,"departure":1522716300000,"zoneId":"NA","stopIndex":0,"stopSequence":1,"vertexType":"TRANSIT"},"legGeometry":{"points":"kpqfHfnvpLE?Ah@GpBAXAj@SzHc@MKESAcAK","length":11},"rentedBike":false,"transitLeg":false,"duration":223.0,"steps":[{"distance":3.292,"relativeDirection":"DEPART","streetName":"Rue de l'Hôtel-de-Ville","absoluteDirection":"NORTH","stayOn":false,"area":false,"bogusName":false,"lon":-71.06291624844302,"lat":48.42774459839536,"elevation":[]},{"distance":200.752,"relativeDirection":"LEFT","streetName":"Rue Racine Est","absoluteDirection":"WEST","stayOn":false,"area":false,"bogusName":false,"lon":-71.0629152,"lat":48.4277742,"elevation":[]},{"distance":77.207,"relativeDirection":"RIGHT","streetName":"Rue Morin","absoluteDirection":"NORTH","stayOn":false,"area":false,"bogusName":false,"lon":-71.0656238,"lat":48.4279449,"elevation":[]}]},{"startTime":1522716300000,"endTime":1522716780000,"departureDelay":0,"arrivalDelay":0,"realTime":false,"distance":2919.412271031845,"pathway":false,"mode":"BUS","route":"20","agencyName":"Société de Transport du Saguenay","agencyUrl":"http://ville.saguenay.ca/fr/services-aux-citoyens/transport-sts","agencyTimeZoneOffset":-14400000,"routeColor":"0000FF","routeType":3,"routeId":"1:20","routeTextColor":"FFFFFF","interlineWithPreviousLeg":false,"tripBlockId":"3","headsign":"Terminus Chicoutimi","agencyId":"0","tripId":"1:217215","serviceDate":"20180402","from":{"name":"Terminus Chicoutimi","stopId":"1:1289","stopCode":"1289","lon":-71.066163,"lat":48.428677,"arrival":1522716299000,"departure":1522716300000,"zoneId":"NA","stopIndex":0,"stopSequence":1,"vertexType":"TRANSIT"},"to":{"name":"Sauvé / David","stopId":"1:682","stopCode":"682","lon":-71.0813,"lat":48.4438,"arrival":1522716780000,"departure":1522716781000,"zoneId":"NA","stopIndex":7,"stopSequence":8,"vertexType":"TRANSIT"},"legGeometry":{"points":"evqfHzcwpLg@?UhKwAIWACp@O\\WjGOfGCRK^KJMHQB_AMg@Gw`@eR}@g@u@Su@Ia@Ck@Dm@HwAf@c@VeAx@iAlAU^[d@eLtTsAvBg@bAPVd@t@PNNF@@P?TI`@YLITGV?NBTFRNNP`@OLCHGHIFMDSR{ARaBbDdAb@H`Fd@EbAE`AIdBK`AOdAMd@EJKR}B~Bw@`Bs@dB]bAWb@q@jAaB|BkA~A}@nAu@IIAe@Cs@Fy@DWA[EUGyCgAU~@Sx@{A`F","length":87},"routeShortName":"20","routeLongName":"Sainte-Claire","rentedBike":false,"transitLeg":true,"duration":480.0,"steps":[]},{"startTime":1522716781000,"endTime":1522717167000,"departureDelay":0,"arrivalDelay":0,"realTime":false,"distance":500.1669999999999,"pathway":false,"mode":"WALK","route":"","agencyTimeZoneOffset":-14400000,"interlineWithPreviousLeg":false,"from":{"name":"Sauvé / David","stopId":"1:682","stopCode":"682","lon":-71.0813,"lat":48.4438,"arrival":1522716780000,"departure":1522716781000,"zoneId":"NA","stopIndex":7,"stopSequence":8,"vertexType":"TRANSIT"},"to":{"name":"Destination","lon":-71.084921,"lat":48.447107,"arrival":1522717167000,"orig":"","vertexType":"NORMAL"},"legGeometry":{"points":"qttfHhazpLq@tBkAnDqDjJUSmAD{BFiC?","length":8},"rentedBike":false,"transitLeg":false,"duration":386.0,"steps":[{"distance":296.13599999999997,"relativeDirection":"DEPART","streetName":"Rue Sauvé","absoluteDirection":"NORTHWEST","stayOn":false,"area":false,"bogusName":false,"lon":-71.08132392744633,"lat":48.44377496388204,"elevation":[]},{"distance":204.03099999999998,"relativeDirection":"RIGHT","streetName":"Rue Pasteur Sud","absoluteDirection":"NORTHEAST","stayOn":false,"area":false,"bogusName":false,"lon":-71.0846193,"lat":48.4452944,"elevation":[]}]}],"tooSloped":false},{"duration":934,"startTime":1522717876000,"endTime":1522718810000,"walkTime":436,"transitTime":496,"waitingTime":2,"walkDistance":541.7798120244345,"walkLimitExceeded":false,"elevationLost":0.0,"elevationGained":0.0,"transfers":0,"legs":[{"startTime":1522717876000,"endTime":1522718099000,"departureDelay":0,"arrivalDelay":0,"realTime":false,"distance":281.251,"pathway":false,"mode":"WALK","route":"","agencyTimeZoneOffset":-14400000,"interlineWithPreviousLeg":false,"from":{"name":"Origin","lon":-71.062942,"lat":48.427745,"departure":1522717876000,"orig":"","vertexType":"NORMAL"},"to":{"name":"Terminus Chicoutimi","stopId":"1:1289","stopCode":"1289","lon":-71.066163,"lat":48.428677,"arrival":1522718099000,"departure":1522718100000,"zoneId":"NA","stopIndex":0,"stopSequence":1,"vertexType":"TRANSIT"},"legGeometry":{"points":"kpqfHfnvpLE?Ah@GpBAXAj@SzHc@MKESAcAK","length":11},"rentedBike":false,"transitLeg":false,"duration":223.0,"steps":[{"distance":3.292,"relativeDirection":"DEPART","streetName":"Rue de l'Hôtel-de-Ville","absoluteDirection":"NORTH","stayOn":false,"area":false,"bogusName":false,"lon":-71.06291624844302,"lat":48.42774459839536,"elevation":[]},{"distance":200.752,"relativeDirection":"LEFT","streetName":"Rue Racine Est","absoluteDirection":"WEST","stayOn":false,"area":false,"bogusName":false,"lon":-71.0629152,"lat":48.4277742,"elevation":[]},{"distance":77.207,"relativeDirection":"RIGHT","streetName":"Rue Morin","absoluteDirection":"NORTH","stayOn":false,"area":false,"bogusName":false,"lon":-71.0656238,"lat":48.4279449,"elevation":[]}]},{"startTime":1522718100000,"endTime":1522718596000,"departureDelay":0,"arrivalDelay":0,"realTime":false,"distance":3559.685247334825,"pathway":false,"mode":"BUS","route":"21","agencyName":"Société de Transport du Saguenay","agencyUrl":"http://ville.saguenay.ca/fr/services-aux-citoyens/transport-sts","agencyTimeZoneOffset":-14400000,"routeColor":"556B2F","routeType":3,"routeId":"1:21","routeTextColor":"FFFFFF","interlineWithPreviousLeg":false,"tripBlockId":"2","headsign":"Terminus Chicoutimi","agencyId":"0","tripId":"1:217182","serviceDate":"20180402","from":{"name":"Terminus Chicoutimi","stopId":"1:1289","stopCode":"1289","lon":-71.066163,"lat":48.428677,"arrival":1522718099000,"departure":1522718100000,"zoneId":"NA","stopIndex":0,"stopSequence":1,"vertexType":"TRANSIT"},"to":{"name":"St-Gérard / Pasteur","stopId":"1:733","stopCode":"733","lon":-71.0845,"lat":48.4489,"arrival":1522718596000,"departure":1522718597000,"zoneId":"NA","stopIndex":7,"stopSequence":8,"vertexType":"TRANSIT"},"legGeometry":{"points":"kwqfHjbwpLF_CeBSm@rRO\\WjGOfGCRK^KJMHQB_AMg@Gw`@eR}@g@u@Su@Ia@Ck@Dm@HwAf@c@VeAx@iAlAU^[d@eLtTsAvB_CvEuAnCmBlE}@|B_BvFoC`JCD}@hCo@~Aq@pAs@fAWs@IUC[AI?QCeGAs@Gy@Ks@Ou@OcAIcAIgAWgCG_@Og@IQS]UWYQWIUA[Da@P]RSVQ`@Ib@Ef@Et@Gf@Id@I`@Od@cCxFQOgAwA_FqGO[`BcEY_@MOaBtDLTh@bATZpGlIPNa@fAOn@Gd@UtBA^A^R`E^fGRbAVl@P`@","length":99},"routeShortName":"21","routeLongName":"Boul. Ste-Geneviève/Élie","rentedBike":false,"transitLeg":true,"duration":496.0,"steps":[]},{"startTime":1522718597000,"endTime":1522718810000,"departureDelay":0,"arrivalDelay":0,"realTime":false,"distance":260.354,"pathway":false,"mode":"WALK","route":"","agencyTimeZoneOffset":-14400000,"interlineWithPreviousLeg":false,"from":{"name":"St-Gérard / Pasteur","stopId":"1:733","stopCode":"733","lon":-71.0845,"lat":48.4489,"arrival":1522718596000,"departure":1522718597000,"zoneId":"NA","stopIndex":7,"stopSequence":8,"vertexType":"TRANSIT"},"to":{"name":"Destination","lon":-71.084921,"lat":48.447107,"arrival":1522718810000,"orig":"","vertexType":"NORMAL"},"legGeometry":{"points":"qtufHxuzpLH?JGFIv@lBN\\`D{DRj@RRJ?b@?DA","length":12},"rentedBike":false,"transitLeg":false,"duration":213.0,"steps":[{"distance":18.91,"relativeDirection":"DEPART","streetName":"Rue Pasteur Nord","absoluteDirection":"SOUTH","stayOn":false,"area":false,"bogusName":false,"lon":-71.08460477785076,"lat":48.44889846721524,"elevation":[]},{"distance":65.535,"relativeDirection":"RIGHT","streetName":"Rue Saint-Gérard","absoluteDirection":"SOUTHWEST","stayOn":false,"area":false,"bogusName":false,"lon":-71.0845147,"lat":48.4487454,"elevation":[]},{"distance":113.606,"relativeDirection":"LEFT","streetName":"Boulevard Sainte-Geneviève","absoluteDirection":"SOUTHEAST","stayOn":false,"area":false,"bogusName":false,"lon":-71.08521470000001,"lat":48.448382800000005,"elevation":[]},{"distance":32.705,"relativeDirection":"RIGHT","streetName":"path","absoluteDirection":"SOUTHWEST","stayOn":false,"area":false,"bogusName":true,"lon":-71.0842777,"lat":48.4475719,"elevation":[]},{"distance":29.598,"relativeDirection":"SLIGHTLY_LEFT","streetName":"Rue Pasteur Sud","absoluteDirection":"SOUTH","stayOn":false,"area":false,"bogusName":false,"lon":-71.0845956,"lat":48.447373400000004,"elevation":[]}]}],"tooSloped":false}]},"debugOutput":{"precalculationTime":26,"pathCalculationTime":28,"pathTimes":[16,5,7],"renderingTime":1,"totalTime":55,"timedOut":false},"elevationMetadata":{"ellipsoidToGeoidDifference":-28.885904201182168,"geoidElevation":false}}