{"requestParameters":{"date":"2018/04/02","walkSpeed":"1.33","walkReluctance":"2.0","fromPlace":"48.449709,-71.07605599","maxWalkDistance":"3000","waitReluctance":"1.0","carSpeed":"33","numItineraries":"3","waitAtBeginningFactor":"0.4","mode":"TRANSIT,WALK","ignoreRealtimeUpdates":"false","stairsReluctance":"2.0","toPlace":"48.444825,-71.080607","time":"12:50:00"},"plan":{"date":1522687800000,"from":{"name":"Origin","lon":-71.07605599,"lat":48.449709,"orig":"","vertexType":"NORMAL"},"to":{"name":"Destination","lon":-71.080607,"lat":48.444825,"orig":"","vertexType":"NORMAL"},"itineraries":[{"duration":794,"startTime":1522687929000,"endTime":1522688723000,"walkTime":30,"transitTime":762,"waitingTime":2,"walkDistance":39.29,"walkLimitExceeded":false,"elevationLost":0.0,"elevationGained":0.0,"transfers":0,"legs":[{"startTime":1522687929000,"endTime":1522687952000,"departureDelay":0,"arrivalDelay":0,"realTime":false,"distance":30.533,"pathway":false,"mode":"WALK","route":"","agencyTimeZoneOffset":-14400000,"interlineWithPreviousLeg":false,"from":{"name":"Origin","lon":-71.07605599,"lat":48.449709,"departure":1522687929000,"orig":"","vertexType":"NORMAL"},"to":{"name":"Pinel (no. 163)","stopId":"1:730","stopCode":"730","lon":-71.077992,"lat":48.45046,"arrival":1522687952000,"departure":1522687953000,"zoneId":"NA","stopIndex":6,"stopSequence":7,"vertexType":"TRANSIT"},"legGeometry":{"points":"g_vfHbjypL`@l@DF","length":3},"rentedBike":false,"transitLeg":false,"duration":23.0,"steps":[{"distance":30.533,"relativeDirection":"DEPART","streetName":"Rue Pinel","absoluteDirection":"SOUTHWEST","stayOn":false,"area":false,"bogusName":false,"lon":-71.07761215676713,"lat":48.450608027064355,"elevation":[]}]},{"startTime":1522687953000,"endTime":1522688715000,"departureDelay":0,"arrivalDelay":0,"realTime":false,"distance":6717.1643681273445,"pathway":false,"mode":"BUS","route":"21","agencyName":"Société de Transport du Saguenay","agencyUrl":"http://ville.saguenay.ca/fr/services-aux-citoyens/transport-sts","agencyTimeZoneOffset":-14400000,"routeColor":"556B2F","routeType":3,"routeId":"1:21","routeTextColor":"FFFFFF","interlineWithPreviousLeg":false,"tripBlockId":"2","headsign":"Terminus Chicoutimi","agencyId":"0","tripId":"1:217168","serviceDate":"20180402","from":{"name":"Pinel (no. 163)","stopId":"1:730","stopCode":"730","lon":-71.077992,"lat":48.45046,"arrival":1522687952000,"departure":1522687953000,"zoneId":"NA","stopIndex":6,"stopSequence":7,"vertexType":"TRANSIT"},"to":{"name":"Place de la Colline (boul. Ste-Geneviève)","stopId":"1:2009","stopCode":"2009","lon":-71.080522,"lat":48.444768,"arrival":1522688715000,"departure":1522688716000,"zoneId":"NA","stopIndex":31,"stopSequence":32,"vertexType":"TRANSIT"},"legGeometry":{"points":"a~ufH|kypLpGlIPNa@fAOn@Gd@UtBA^A^R`E^fGRbAVl@P`@BFNb@t@xAiCvCMP}@jAY`@q@jAm@jA}@rBmArD?Tu@|CYzAET{AxOQhBQ~Aa@~DQ~A[xCM~AiAjLo@vGk@tFe@vEu@xHgAdLIl@UhCyAnPQhBK`Ae@fFm@vGS`Co@`HQhBQlBAHo@fHc@fEc@`FiDiAOSIMOQOa@GQWs@Gf@A\\@r@DRFBDCb@e@NPHLNR|Bt@j@Rb@aF\\eDDa@n@gH@Ib@wEn@aH?A`AwK^}DDi@\\kD~AyQN_BHm@fAeLd@{Et@uHZyC~@sJjAyLJqAZyCP_BZuCDi@b@iExAsO@E^qBt@}CJGnAmDx@iBpAcCb@o@Zi@h@o@`AiArFkG`FgGdBwBt@cAbAmBx@eBj@eB","length":122},"routeShortName":"21","routeLongName":"Boul. Ste-Geneviève/Élie","rentedBike":false,"transitLeg":true,"duration":762.0,"steps":[]},{"startTime":1522688716000,"endTime":1522688723000,"departureDelay":0,"arrivalDelay":0,"realTime":false,"distance":8.757,"pathway":false,"mode":"WALK","route":"","agencyTimeZoneOffset":-14400000,"interlineWithPreviousLeg":false,"from":{"name":"Place de la Colline (boul. Ste-Geneviève)","stopId":"1:2009","stopCode":"2009","lon":-71.080522,"lat":48.444768,"arrival":1522688715000,"departure":1522688716000,"zoneId":"NA","stopIndex":31,"stopSequence":32,"vertexType":"TRANSIT"},"to":{"name":"Destination","lon":-71.080607,"lat":48.444825,"arrival":1522688723000,"orig":"","vertexType":"NORMAL"},"legGeometry":{"points":"_{tfH`|ypLGR","length":2},"rentedBike":false,"transitLeg":false,"duration":7.0,"steps":[{"distance":8.757,"relativeDirection":"DEPART","streetName":"Boulevard Sainte-Geneviève","absoluteDirection":"NORTHWEST","stayOn":false,"area":false,"bogusName":false,"lon":-71.0804866067989,"lat":48.44480212337132,"elevation":[]}]}],"tooSloped":false},{"duration":931,"startTime":1522687800000,"endTime":1522688731000,"walkTime":931,"transitTime":0,"waitingTime":0,"walkDistance":1210.2127142829486,"walkLimitExceeded":false,"elevationLost":0.0,"elevationGained":0.0,"transfers":0,"legs":[{"startTime":1522687800000,"endTime":1522688731000,"departureDelay":0,"arrivalDelay":0,"realTime":false,"distance":1210.1270000000002,"pathway":false,"mode":"WALK","route":"","agencyTimeZoneOffset":-14400000,"interlineWithPreviousLeg":false,"from":{"name":"Origin","lon":-71.07605599,"lat":48.449709,"departure":1522687800000,"orig":"","vertexType":"NORMAL"},"to":{"name":"Destination","lon":-71.080607,"lat":48.444825,"arrival":1522688731000,"orig":"","vertexType":"NORMAL"},"legGeometry":{"points":"g_vfHbjypL`@l@DFj@r@n@~@^f@DFh@z@Z\\zAfBILOh@S~@I\\ETIz@Ed@CT?f@DzANpCLpCDl@Fn@H^JV\\|@FPJTv@lBN\\`D{DtDmEj@s@|AoB|A_C`BcD`@kA","length":38},"rentedBike":false,"transitLeg":false,"duration":931.0,"steps":[{"distance":239.39600000000002,"relativeDirection":"DEPART","streetName":"Rue Pinel","absoluteDirection":"SOUTHWEST","stayOn":false,"area":false,"bogusName":false,"lon":-71.07761215676713,"lat":48.450608027064355,"elevation":[]},{"distance":447.54999999999995,"relativeDirection":"RIGHT","streetName":"Rue Saint-Gérard","absoluteDirection":"NORTHWEST","stayOn":false,"area":false,"bogusName":false,"lon":-71.079678,"lat":48.4489492,"elevation":[]},{"distance":523.181,"relativeDirection":"LEFT","streetName":"Boulevard Sainte-Geneviève","absoluteDirection":"SOUTHEAST","stayOn":false,"area":false,"bogusName":false,"lon":-71.08521470000001,"lat":48.448382800000005,"elevation":[]}]}],"tooSloped":false},{"duration":794,"startTime":1522689729000,"endTime":1522690523000,"walkTime":30,"transitTime":762,"waitingTime":2,"walkDistance":39.29,"walkLimitExceeded":false,"elevationLost":0.0,"elevationGained":0.0,"transfers":0,"legs":[{"startTime":1522689729000,"endTime":1522689752000,"departureDelay":0,"arrivalDelay":0,"realTime":false,"distance":30.533,"pathway":false,"mode":"WALK","route":"","agencyTimeZoneOffset":-14400000,"interlineWithPreviousLeg":false,"from":{"name":"Origin","lon":-71.07605599,"lat":48.449709,"departure":1522689729000,"orig":"","vertexType":"NORMAL"},"to":{"name":"Pinel (no. 163)","stopId":"1:730","stopCode":"730","lon":-71.077992,"lat":48.45046,"arrival":1522689752000,"departure":1522689753000,"zoneId":"NA","stopIndex":6,"stopSequence":7,"vertexType":"TRANSIT"},"legGeometry":{"points":"g_vfHbjypL`@l@DF","length":3},"rentedBike":false,"transitLeg":false,"duration":23.0,"steps":[{"distance":30.533,"relativeDirection":"DEPART","streetName":"Rue Pinel","absoluteDirection":"SOUTHWEST","stayOn":false,"area":false,"bogusName":false,"lon":-71.07761215676713,"lat":48.450608027064355,"elevation":[]}]},{"startTime":1522689753000,"endTime":1522690515000,"departureDelay":0,"arrivalDelay":0,"realTime":false,"distance":6717.1643681273445,"pathway":false,"mode":"BUS","route":"21","agencyName":"Société de Transport du Saguenay","agencyUrl":"http://ville.saguenay.ca/fr/services-aux-citoyens/transport-sts","agencyTimeZoneOffset":-14400000,"routeColor":"556B2F","routeType":3,"routeId":"1:21","routeTextColor":"FFFFFF","interlineWithPreviousLeg":false,"tripBlockId":"2","headsign":"Terminus Chicoutimi","agencyId":"0","tripId":"1:217169","serviceDate":"20180402","from":{"name":"Pinel (no. 163)","stopId":"1:730","stopCode":"730","lon":-71.077992,"lat":48.45046,"arrival":1522689752000,"departure":1522689753000,"zoneId":"NA","stopIndex":6,"stopSequence":7,"vertexType":"TRANSIT"},"to":{"name":"Place de la Colline (boul. Ste-Geneviève)","stopId":"1:2009","stopCode":"2009","lon":-71.080522,"lat":48.444768,"arrival":1522690515000,"departure":1522690516000,"zoneId":"NA","stopIndex":31,"stopSequence":32,"vertexType":"TRANSIT"},"legGeometry":{"points":"a~ufH|kypLpGlIPNa@fAOn@Gd@UtBA^A^R`E^fGRbAVl@P`@BFNb@t@xAiCvCMP}@jAY`@q@jAm@jA}@rBmArD?Tu@|CYzAET{AxOQhBQ~Aa@~DQ~A[xCM~AiAjLo@vGk@tFe@vEu@xHgAdLIl@UhCyAnPQhBK`Ae@fFm@vGS`Co@`HQhBQlBAHo@fHc@fEc@`FiDiAOSIMOQOa@GQWs@Gf@A\\@r@DRFBDCb@e@NPHLNR|Bt@j@Rb@aF\\eDDa@n@gH@Ib@wEn@aH?A`AwK^}DDi@\\kD~AyQN_BHm@fAeLd@{Et@uHZyC~@sJjAyLJqAZyCP_BZuCDi@b@iExAsO@E^qBt@}CJGnAmDx@iBpAcCb@o@Zi@h@o@`AiArFkG`FgGdBwBt@cAbAmBx@eBj@eB","length":122},"routeShortName":"21","routeLongName":"Boul. Ste-Geneviève/Élie","rentedBike":false,"transitLeg":true,"duration":762.0,"steps":[]},{"startTime":1522690516000,"endTime":1522690523000,"departureDelay":0,"arrivalDelay":0,"realTime":false,"distance":8.757,"pathway":false,"mode":"WALK","route":"","agencyTimeZoneOffset":-14400000,"interlineWithPreviousLeg":false,"from":{"name":"Place de la Colline (boul. Ste-Geneviève)","stopId":"1:2009","stopCode":"2009","lon":-71.080522,"lat":48.444768,"arrival":1522690515000,"departure":1522690516000,"zoneId":"NA","stopIndex":31,"stopSequence":32,"vertexType":"TRANSIT"},"to":{"name":"Destination","lon":-71.080607,"lat":48.444825,"arrival":1522690523000,"orig":"","vertexType":"NORMAL"},"legGeometry":{"points":"_{tfH`|ypLGR","length":2},"rentedBike":false,"transitLeg":false,"duration":7.0,"steps":[{"distance":8.757,"relativeDirection":"DEPART","streetName":"Boulevard Sainte-Geneviève","absoluteDirection":"NORTHWEST","stayOn":false,"area":false,"bogusName":false,"lon":-71.0804866067989,"lat":48.44480212337132,"elevation":[]}]}],"tooSloped":false}]},"debugOutput":{"precalculationTime":14,"pathCalculationTime":18,"pathTimes":[4,10,4],"renderingTime":1,"totalTime":33,"timedOut":false},"elevationMetadata":{"ellipsoidToGeoidDifference":-28.885904201182168,"geoidElevation":false}}