{"requestParameters":{"date":"2018/04/02","walkSpeed":"1.33","walkReluctance":"2.0","fromPlace":"48.451316,-71.083306","maxWalkDistance":"3000","waitReluctance":"1.0","carSpeed":"33","numItineraries":"3","waitAtBeginningFactor":"0.4","mode":"TRANSIT,WALK","ignoreRealtimeUpdates":"false","stairsReluctance":"2.0","toPlace":"48.42374,-71.043332","time":"6:30:00"},"plan":{"date":1522665000000,"from":{"name":"Origin","lon":-71.083306,"lat":48.451316,"orig":"","vertexType":"NORMAL"},"to":{"name":"Destination","lon":-71.043332,"lat":48.42374,"orig":"","vertexType":"NORMAL"},"itineraries":[{"duration":1879,"startTime":1522666507000,"endTime":1522668386000,"walkTime":520,"transitTime":952,"waitingTime":407,"walkDistance":657.0195864618227,"walkLimitExceeded":false,"elevationLost":0.0,"elevationGained":0.0,"transfers":2,"legs":[{"startTime":1522666507000,"endTime":1522666948000,"departureDelay":0,"arrivalDelay":0,"realTime":false,"distance":561.34,"pathway":false,"mode":"WALK","route":"","agencyTimeZoneOffset":-14400000,"interlineWithPreviousLeg":false,"from":{"name":"Origin","lon":-71.083306,"lat":48.451316,"departure":1522666507000,"orig":"","vertexType":"NORMAL"},"to":{"name":"Ste-Marie (no. 224)","stopId":"1:697","stopCode":"697","lon":-71.085685,"lat":48.44687,"arrival":1522666948000,"departure":1522666949000,"zoneId":"NA","stopIndex":21,"stopSequence":22,"vertexType":"TRANSIT"},"legGeometry":{"points":"obvfHvnzpLENBNzAnDHLLJXDxBGvDEH?JGFIv@lBN\\`@z@HFJHfCElBA","length":19},"rentedBike":false,"transitLeg":false,"duration":441.0,"steps":[{"distance":315.67800000000005,"relativeDirection":"DEPART","streetName":"Rue Pasteur Nord","absoluteDirection":"WEST","stayOn":false,"area":false,"bogusName":false,"lon":-71.083471,"lat":48.451128,"elevation":[]},{"distance":65.535,"relativeDirection":"RIGHT","streetName":"Rue Saint-Gérard","absoluteDirection":"SOUTHWEST","stayOn":false,"area":false,"bogusName":false,"lon":-71.0845147,"lat":48.4487454,"elevation":[]},{"distance":35.026,"relativeDirection":"CONTINUE","streetName":"Rue Sainte-Marie Sud","absoluteDirection":"SOUTHWEST","stayOn":false,"area":false,"bogusName":false,"lon":-71.08521470000001,"lat":48.448382800000005,"elevation":[]},{"distance":145.101,"relativeDirection":"LEFT","streetName":"Rue Sainte-Marie Sud","absoluteDirection":"SOUTH","stayOn":true,"area":false,"bogusName":false,"lon":-71.0855571,"lat":48.448167500000004,"elevation":[]}]},{"startTime":1522666949000,"endTime":1522667400000,"departureDelay":0,"arrivalDelay":0,"realTime":false,"distance":3596.573827725571,"pathway":false,"mode":"BUS","route":"20","agencyName":"Société de Transport du Saguenay","agencyUrl":"http://ville.saguenay.ca/fr/services-aux-citoyens/transport-sts","agencyTimeZoneOffset":-14400000,"routeColor":"0000FF","routeType":3,"routeId":"1:20","routeTextColor":"FFFFFF","interlineWithPreviousLeg":false,"tripBlockId":"3","headsign":"Terminus Chicoutimi","agencyId":"0","tripId":"1:217187","serviceDate":"20180402","from":{"name":"Ste-Marie (no. 224)","stopId":"1:697","stopCode":"697","lon":-71.085685,"lat":48.44687,"arrival":1522666948000,"departure":1522666949000,"zoneId":"NA","stopIndex":21,"stopSequence":22,"vertexType":"TRANSIT"},"to":{"name":"Terminus Chicoutimi","stopId":"1:1289","stopCode":"1289","lon":-71.066163,"lat":48.428677,"arrival":1522667400000,"departure":1522667700000,"zoneId":"NA","stopIndex":31,"stopSequence":32,"vertexType":"TRANSIT"},"legGeometry":{"points":"}gufH`|zpLzBEd@Cf@Gj@MZMb@S`Ag@DClAk@f@Qv@Ov@IlBCnBa@TCTBjBPH@LiCDe@Lw@|@cELo@D[Dk@@[@uC@SBUDQFSt@yAHIr@eAjAaB`AqA^i@p@kAVc@\\cAr@eBv@aB|B_CJSDKLe@NeAJaAHeBBi@F{AaFe@c@IcDeAWtBOfAERGLIHIFMBa@NOQSOUGOCW?UFMHa@XUHQ?QIQOIM[g@rCmFhHqN~@eBr@cAt@_Av@}@RQPMz@k@tAe@REZG^Af@@X@VF`@Jn@XbClAr@Xt\\`PrAb@pA^hBTjAFj@Pb@JPHLLJNJRFXDT?X?ZEVEVKTMNMHMFOB}DWSGOSYcAN}FFkAF}DJyDPwGj@_QjAN~ALIpBGVITe@@","length":135},"routeShortName":"20","routeLongName":"Sainte-Claire","rentedBike":false,"transitLeg":true,"duration":451.0,"steps":[]},{"startTime":1522667700000,"endTime":1522667942000,"departureDelay":0,"arrivalDelay":0,"realTime":false,"distance":1762.8533684079105,"pathway":false,"mode":"BUS","route":"12","agencyName":"Société de Transport du Saguenay","agencyUrl":"http://ville.saguenay.ca/fr/services-aux-citoyens/transport-sts","agencyTimeZoneOffset":-14400000,"routeColor":"556B2F","routeType":3,"routeId":"1:12","routeTextColor":"FFFFFF","interlineWithPreviousLeg":false,"tripBlockId":"28","headsign":"Terminus UQAC","agencyId":"0","tripId":"1:218027","serviceDate":"20180402","from":{"name":"Terminus Chicoutimi","stopId":"1:1289","stopCode":"1289","lon":-71.066163,"lat":48.428677,"arrival":1522667400000,"departure":1522667700000,"zoneId":"NA","stopIndex":0,"stopSequence":1,"vertexType":"TRANSIT"},"to":{"name":"boul. Saguenay / Bon-Conseil","stopId":"1:491","stopCode":"491","lon":-71.043,"lat":48.4292,"arrival":1522667942000,"departure":1522667942000,"zoneId":"NA","stopIndex":5,"stopSequence":6,"vertexType":"TRANSIT"},"legGeometry":{"points":"evqfHpbwpLpFcj@IaKmFy^_DaZz@u]","length":6},"routeShortName":"12","routeLongName":"Rivière du Moulin","rentedBike":false,"transitLeg":true,"duration":242.0,"steps":[]},{"startTime":1522667942000,"endTime":1522667945000,"departureDelay":0,"arrivalDelay":0,"realTime":false,"distance":0.879,"pathway":false,"mode":"WALK","route":"","agencyTimeZoneOffset":-14400000,"interlineWithPreviousLeg":false,"from":{"name":"boul. Saguenay / Bon-Conseil","stopId":"1:491","stopCode":"491","lon":-71.043,"lat":48.4292,"arrival":1522667942000,"departure":1522667942000,"zoneId":"NA","stopIndex":5,"stopSequence":6,"vertexType":"TRANSIT"},"to":{"name":"boul. Saguenay / Bon-Conseil","stopId":"1:1990","stopCode":"1990","lon":-71.043002,"lat":48.429311,"arrival":1522667945000,"departure":1522668050000,"zoneId":"NA","stopIndex":81,"stopSequence":82,"vertexType":"TRANSIT"},"legGeometry":{"points":"azqfHvqrpL?@","length":2},"rentedBike":false,"transitLeg":false,"duration":3.0,"steps":[{"distance":0.879,"relativeDirection":"DEPART","streetName":"Boulevard du Saguenay Est","absoluteDirection":"WEST","stayOn":false,"area":false,"bogusName":false,"lon":-71.04299134123569,"lat":48.42929662012274,"elevation":[]}]},{"startTime":1522668050000,"endTime":1522668309000,"departureDelay":0,"arrivalDelay":0,"realTime":false,"distance":1463.1819183364396,"pathway":false,"mode":"BUS","route":"2S","agencyName":"Société de Transport du Saguenay","agencyUrl":"http://ville.saguenay.ca/fr/services-aux-citoyens/transport-sts","agencyTimeZoneOffset":-14400000,"routeColor":"8B0000","routeType":3,"routeId":"1:2S","routeTextColor":"FFFFFF","interlineWithPreviousLeg":false,"tripBlockId":"38","headsign":"CRDI","agencyId":"0","tripId":"1:218330","serviceDate":"20180402","from":{"name":"boul. Saguenay / Bon-Conseil","stopId":"1:1990","stopCode":"1990","lon":-71.043002,"lat":48.429311,"arrival":1522667945000,"departure":1522668050000,"zoneId":"NA","stopIndex":81,"stopSequence":82,"vertexType":"TRANSIT"},"to":{"name":"Jacques-Cartier / de Sales","stopId":"1:344","stopCode":"344","lon":-71.043973,"lat":48.424206,"arrival":1522668309000,"departure":1522668310000,"zoneId":"NA","stopIndex":87,"stopSequence":88,"vertexType":"TRANSIT"},"legGeometry":{"points":"yyqfHxqrpL?pA_@tE}AnHa@pBWjBGdCFrU@lAA|@EnB?vA@|Ad@MZEpAChC[RX[qFGe@LEfGaACuAGoE@KBIBEFAhEn@|Er@LsBLsB^{ERcCyEaBHbCBFRBJBTYd@}@dB|@t@oJFg@h@oFPwB","length":46},"routeShortName":"2S","routeLongName":"Navette Hopital - La Baie","rentedBike":false,"transitLeg":true,"duration":259.0,"steps":[]},{"startTime":1522668310000,"endTime":1522668386000,"departureDelay":0,"arrivalDelay":0,"realTime":false,"distance":94.666,"pathway":false,"mode":"WALK","route":"","agencyTimeZoneOffset":-14400000,"interlineWithPreviousLeg":false,"from":{"name":"Jacques-Cartier / de Sales","stopId":"1:344","stopCode":"344","lon":-71.043973,"lat":48.424206,"arrival":1522668309000,"departure":1522668310000,"zoneId":"NA","stopIndex":87,"stopSequence":88,"vertexType":"TRANSIT"},"to":{"name":"Destination","lon":-71.043332,"lat":48.42374,"arrival":1522668386000,"orig":"","vertexType":"NORMAL"},"legGeometry":{"points":"e{pfHpwrpLNcBbB`@","length":3},"rentedBike":false,"transitLeg":false,"duration":76.0,"steps":[{"distance":37.954,"relativeDirection":"DEPART","streetName":"Rue Jacques-Cartier Est","absoluteDirection":"EAST","stayOn":false,"area":false,"bogusName":false,"lon":-71.04392183118667,"lat":48.424353416635554,"elevation":[]},{"distance":56.712,"relativeDirection":"RIGHT","streetName":"Rue de Sales","absoluteDirection":"SOUTH","stayOn":false,"area":false,"bogusName":false,"lon":-71.0434206,"lat":48.4242768,"elevation":[]}]}],"tooSloped":false},{"duration":1768,"startTime":1522666715000,"endTime":1522668483000,"walkTime":565,"transitTime":901,"waitingTime":302,"walkDistance":701.5262180374583,"walkLimitExceeded":false,"elevationLost":0.0,"elevationGained":0.0,"transfers":1,"legs":[{"startTime":1522666715000,"endTime":1522667061000,"departureDelay":0,"arrivalDelay":0,"realTime":false,"distance":436.76700000000005,"pathway":false,"mode":"WALK","route":"","agencyTimeZoneOffset":-14400000,"interlineWithPreviousLeg":false,"from":{"name":"Origin","lon":-71.083306,"lat":48.451316,"departure":1522666715000,"orig":"","vertexType":"NORMAL"},"to":{"name":"boul. Ste-Geneviève / Ste-Marie","stopId":"1:731","stopCode":"731","lon":-71.085744,"lat":48.448746,"arrival":1522667061000,"departure":1522667062000,"zoneId":"NA","stopIndex":29,"stopSequence":30,"vertexType":"TRANSIT"},"legGeometry":{"points":"obvfHvnzpLENBNzAnDHLLJXDxBGvDEH?JGFIv@lBN\\oAvA","length":15},"rentedBike":false,"transitLeg":false,"duration":346.0,"steps":[{"distance":315.67800000000005,"relativeDirection":"DEPART","streetName":"Rue Pasteur Nord","absoluteDirection":"WEST","stayOn":false,"area":false,"bogusName":false,"lon":-71.083471,"lat":48.451128,"elevation":[]},{"distance":65.535,"relativeDirection":"RIGHT","streetName":"Rue Saint-Gérard","absoluteDirection":"SOUTHWEST","stayOn":false,"area":false,"bogusName":false,"lon":-71.0845147,"lat":48.4487454,"elevation":[]},{"distance":55.554,"relativeDirection":"RIGHT","streetName":"Boulevard Sainte-Geneviève","absoluteDirection":"NORTHWEST","stayOn":false,"area":false,"bogusName":false,"lon":-71.08521470000001,"lat":48.448382800000005,"elevation":[]}]},{"startTime":1522667062000,"endTime":1522667400000,"departureDelay":0,"arrivalDelay":0,"realTime":false,"distance":2834.1349452765576,"pathway":false,"mode":"BUS","route":"21","agencyName":"Société de Transport du Saguenay","agencyUrl":"http://ville.saguenay.ca/fr/services-aux-citoyens/transport-sts","agencyTimeZoneOffset":-14400000,"routeColor":"556B2F","routeType":3,"routeId":"1:21","routeTextColor":"FFFFFF","interlineWithPreviousLeg":false,"tripBlockId":"2","headsign":"Terminus Chicoutimi","agencyId":"0","tripId":"1:217156","serviceDate":"20180402","from":{"name":"boul. Ste-Geneviève / Ste-Marie","stopId":"1:731","stopCode":"731","lon":-71.085744,"lat":48.448746,"arrival":1522667061000,"departure":1522667062000,"zoneId":"NA","stopIndex":29,"stopSequence":30,"vertexType":"TRANSIT"},"to":{"name":"Terminus Chicoutimi","stopId":"1:1289","stopCode":"1289","lon":-71.066163,"lat":48.428677,"arrival":1522667400000,"departure":1522667700000,"zoneId":"NA","stopIndex":34,"stopSequence":35,"vertexType":"TRANSIT"},"legGeometry":{"points":"}sufHh|zpLrFkG`FgGdBwBt@cAbAmBx@eBj@eB`CoHpCyJbAmCtAuCZg@|@gBxAsCrCmFhHqN~@eBr@cAt@_Av@}@RQPMz@k@tAe@REZG^Af@@X@VF`@Jn@XbClAr@Xt\\`PrAb@pA^hBTjAFj@Pb@JPHLLJNJRFXDT?X?ZEVEVKTMNMHMFOB}DWSGOSYcAN}FFkAF}DJyDPwGvAHVyL","length":68},"routeShortName":"21","routeLongName":"Boul. Ste-Geneviève/Élie","rentedBike":false,"transitLeg":true,"duration":338.0,"steps":[]},{"startTime":1522667700000,"endTime":1522668263000,"departureDelay":0,"arrivalDelay":0,"realTime":false,"distance":2548.217070159106,"pathway":false,"mode":"BUS","route":"10","agencyName":"Société de Transport du Saguenay","agencyUrl":"http://ville.saguenay.ca/fr/services-aux-citoyens/transport-sts","agencyTimeZoneOffset":-14400000,"routeColor":"0000FF","routeType":3,"routeId":"1:10","routeTextColor":"FFFFFF","interlineWithPreviousLeg":false,"tripBlockId":"29","headsign":"Terminus UQAC","agencyId":"0","tripId":"1:218053","serviceDate":"20180402","from":{"name":"Terminus Chicoutimi","stopId":"1:1289","stopCode":"1289","lon":-71.066163,"lat":48.428677,"arrival":1522667400000,"departure":1522667700000,"zoneId":"NA","stopIndex":0,"stopSequence":1,"vertexType":"TRANSIT"},"to":{"name":"Centre d'hébergement Le Beaumanoir (J.Cartier)","stopId":"1:345","stopCode":"345","lon":-71.041163,"lat":48.423769,"arrival":1522668263000,"departure":1522668264000,"zoneId":"NA","stopIndex":10,"stopSequence":11,"vertexType":"TRANSIT"},"legGeometry":{"points":"svqfHnbwpLDmCdDZ\\kO`@mQBuCD}DQ_ECk@^Cd@QWkL?m@IuF@gA?eH?cAEuEDO^AjD`@B@rEf@T_FjBXpDd@hCObDaCfCaHbFqN`CwG_J_CwMiDGe@T}C","length":35},"routeShortName":"10","routeLongName":"Notre-Dame du Saguenay","rentedBike":false,"transitLeg":true,"duration":563.0,"steps":[]},{"startTime":1522668264000,"endTime":1522668483000,"departureDelay":0,"arrivalDelay":0,"realTime":false,"distance":264.522,"pathway":false,"mode":"WALK","route":"","agencyTimeZoneOffset":-14400000,"interlineWithPreviousLeg":false,"from":{"name":"Centre d'hébergement Le Beaumanoir (J.Cartier)","stopId":"1:345","stopCode":"345","lon":-71.041163,"lat":48.423769,"arrival":1522668263000,"departure":1522668264000,"zoneId":"NA","stopIndex":10,"stopSequence":11,"vertexType":"TRANSIT"},"to":{"name":"Destination","lon":-71.043332,"lat":48.42374,"arrival":1522668483000,"orig":"","vertexType":"NORMAL"},"legGeometry":{"points":"kwpfHferpL]IQtBAbAGNGRCBCDAF?F?D@H?~@_@fDbB`@","length":15},"rentedBike":false,"transitLeg":false,"duration":219.0,"steps":[{"distance":16.676,"relativeDirection":"DEPART","streetName":"service road","absoluteDirection":"NORTH","stayOn":false,"area":false,"bogusName":true,"lon":-71.04099969401791,"lat":48.423744110376546,"elevation":[]},{"distance":69.751,"relativeDirection":"LEFT","streetName":"Rue Jacques Cartier","absoluteDirection":"WEST","stayOn":false,"area":false,"bogusName":false,"lon":-71.0409491,"lat":48.423890300000004,"elevation":[]},{"distance":121.383,"relativeDirection":"SLIGHTLY_RIGHT","streetName":"Rue Jacques-Cartier Est","absoluteDirection":"NORTHWEST","stayOn":false,"area":false,"bogusName":false,"lon":-71.0418774,"lat":48.423999300000006,"elevation":[]},{"distance":56.712,"relativeDirection":"LEFT","streetName":"Rue de Sales","absoluteDirection":"SOUTH","stayOn":false,"area":false,"bogusName":false,"lon":-71.0434206,"lat":48.4242768,"elevation":[]}]}],"tooSloped":false},{"duration":2532,"startTime":1522666027000,"endTime":1522668559000,"walkTime":817,"transitTime":1113,"waitingTime":602,"walkDistance":1042.6743007463847,"walkLimitExceeded":false,"elevationLost":0.0,"elevationGained":0.0,"transfers":1,"legs":[{"startTime":1522666027000,"endTime":1522666286000,"departureDelay":0,"arrivalDelay":0,"realTime":false,"distance":326.12300000000005,"pathway":false,"mode":"WALK","route":"","agencyTimeZoneOffset":-14400000,"interlineWithPreviousLeg":false,"from":{"name":"Origin","lon":-71.083306,"lat":48.451316,"departure":1522666027000,"orig":"","vertexType":"NORMAL"},"to":{"name":"St-Gérard / Pasteur","stopId":"1:727","stopCode":"727","lon":-71.084309,"lat":48.448719,"arrival":1522666286000,"departure":1522666287000,"zoneId":"NA","stopIndex":4,"stopSequence":5,"vertexType":"TRANSIT"},"legGeometry":{"points":"obvfHvnzpLENBNzAnDHLLJXDxBGvDEH?JGFIKU","length":13},"rentedBike":false,"transitLeg":false,"duration":259.0,"steps":[{"distance":315.67800000000005,"relativeDirection":"DEPART","streetName":"Rue Pasteur Nord","absoluteDirection":"WEST","stayOn":false,"area":false,"bogusName":false,"lon":-71.083471,"lat":48.451128,"elevation":[]},{"distance":10.445,"relativeDirection":"LEFT","streetName":"Rue Saint-Gérard","absoluteDirection":"NORTHEAST","stayOn":false,"area":false,"bogusName":false,"lon":-71.0845147,"lat":48.4487454,"elevation":[]}]},{"startTime":1522666287000,"endTime":1522667100000,"departureDelay":0,"arrivalDelay":0,"realTime":false,"distance":5744.20744275128,"pathway":false,"mode":"BUS","route":"23","agencyName":"Société de Transport du Saguenay","agencyUrl":"http://ville.saguenay.ca/fr/services-aux-citoyens/transport-sts","agencyTimeZoneOffset":-14400000,"routeColor":"FF00FF","routeType":3,"routeId":"1:23","routeTextColor":"FFFFFF","interlineWithPreviousLeg":false,"tripBlockId":"5","headsign":"Terminus Chicoutimi","agencyId":"0","tripId":"1:217250","serviceDate":"20180402","from":{"name":"St-Gérard / Pasteur","stopId":"1:727","stopCode":"727","lon":-71.084309,"lat":48.448719,"arrival":1522666286000,"departure":1522666287000,"zoneId":"NA","stopIndex":4,"stopSequence":5,"vertexType":"TRANSIT"},"to":{"name":"Terminus Chicoutimi","stopId":"1:1289","stopCode":"1289","lon":-71.066163,"lat":48.428677,"arrival":1522667100000,"departure":1522667700000,"zoneId":"NA","stopIndex":26,"stopSequence":27,"vertexType":"TRANSIT"},"legGeometry":{"points":"ssufHxtzpLGCUi@Wm@ScA_@gGSaE@_@@_@@ERoBFe@No@`@gAbCyFNe@Ha@He@Fg@Du@Dg@Hc@Pa@RW\\S`@QZEm@eHM}B?GGi@Is@Ou@Qw@Mo@Kw@ImAGoBAk@aALa@?YEUKc@Yc@_@KOIUGUEWAW?YBqAH_AXeC@IdB_Mh@_EJk@d@kDhAqI`AgHz@oGBU?UAWCWUwAWD]B]AUEoAc@kE}AOIq@g@g@u@]w@b@s@T[~CkFf@s@\\e@x@}@jAeAXQZStBaAh@]`@]`@i@l@kDF_@R{AFWFMPIPC`@BT@V?TAVKLENCLCJ@J@xAb@x@Zz@\\CP?R@N@NFLFF`GtBx@Xw@pG@l@B\\DXL\\RZDFXPf@N@v@Bp@Dr@l@~HNlAH\\@HLd@\\z@Xd@X\\RTXRr@Zn@PfExAvDpALnBJt@Pp@|@`DHZPn@`@rBNnAFr@DbA?bB@jABzA?p@A???A???A?A???A@??A?A@??A@?@A??@A@???@A@?@?@A@?@?@?@?@???@?@?@?@?@?@@@?@?@@@?@@@?@@@?@@?@@??@@@?E`@Kr@]rACVEl@I|AAr@JbAWJe@FUAM?a@Ke@YYWWa@v@}@RQPMz@k@tAe@REZG^Af@@X@VF`@Jn@XbClAr@Xt\\`PrAb@pA^hBTjAFj@Pb@JPHLLJNJRFXDT?X?ZEVEVKTMNMHMFOB}DWSGOSYcAN}FFkAF}DJyDd@wPV_HjAN~ALI`C","length":272},"routeShortName":"23","routeLongName":"Côte Verdun via Aréna du Plateau","rentedBike":false,"transitLeg":true,"duration":813.0,"steps":[]},{"startTime":1522667700000,"endTime":1522668000000,"departureDelay":0,"arrivalDelay":0,"realTime":false,"distance":1242.678141622333,"pathway":false,"mode":"BUS","route":"175","agencyName":"Société de Transport du Saguenay","agencyUrl":"http://ville.saguenay.ca/fr/services-aux-citoyens/transport-sts","agencyTimeZoneOffset":-14400000,"routeColor":"FF00FF","routeType":3,"routeId":"1:175","routeTextColor":"FFFFFF","interlineWithPreviousLeg":false,"tripBlockId":"7","headsign":"Costco","agencyId":"0","tripId":"1:217322","serviceDate":"20180402","from":{"name":"Terminus Chicoutimi","stopId":"1:1289","stopCode":"1289","lon":-71.066163,"lat":48.428677,"arrival":1522667100000,"departure":1522667700000,"zoneId":"NA","stopIndex":0,"stopSequence":1,"vertexType":"TRANSIT"},"to":{"name":"Hôpital de Chicoutimi (Saint-Vallier)","stopId":"1:342","stopCode":"342","lon":-71.050416,"lat":48.426429,"arrival":1522668000000,"departure":1522668001000,"zoneId":"NA","stopIndex":6,"stopSequence":7,"vertexType":"TRANSIT"},"legGeometry":{"points":"kvqfH~awpL~CgBbAqa@FwCBkAOsHAg@bAYUwMKoE@mB@kJ@iFbEf@","length":14},"routeShortName":"175","routeLongName":"Term. Chic / Costco","rentedBike":false,"transitLeg":true,"duration":300.0,"steps":[]},{"startTime":1522668001000,"endTime":1522668559000,"departureDelay":0,"arrivalDelay":0,"realTime":false,"distance":716.381,"pathway":false,"mode":"WALK","route":"","agencyTimeZoneOffset":-14400000,"interlineWithPreviousLeg":false,"from":{"name":"Hôpital de Chicoutimi (Saint-Vallier)","stopId":"1:342","stopCode":"342","lon":-71.050416,"lat":48.426429,"arrival":1522668000000,"departure":1522668001000,"zoneId":"NA","stopIndex":6,"stopSequence":7,"vertexType":"TRANSIT"},"to":{"name":"Destination","lon":-71.043332,"lat":48.42374,"arrival":1522668559000,"orig":"","vertexType":"NORMAL"},"legGeometry":{"points":"ahqfHd_tpLF?lEt@Du@TyDXwCB_@BWNuB@G~@gLXwCHw@PsBNcBbB`@","length":16},"rentedBike":false,"transitLeg":false,"duration":558.0,"steps":[{"distance":121.256,"relativeDirection":"DEPART","streetName":"Rue Saint-Vallier","absoluteDirection":"SOUTH","stayOn":false,"area":false,"bogusName":false,"lon":-71.05026027647143,"lat":48.426416552989835,"elevation":[]},{"distance":538.4129999999999,"relativeDirection":"LEFT","streetName":"Rue Jacques-Cartier Est","absoluteDirection":"EAST","stayOn":false,"area":false,"bogusName":false,"lon":-71.0505352,"lat":48.4253415,"elevation":[]},{"distance":56.712,"relativeDirection":"RIGHT","streetName":"Rue de Sales","absoluteDirection":"SOUTH","stayOn":false,"area":false,"bogusName":false,"lon":-71.0434206,"lat":48.4242768,"elevation":[]}]}],"tooSloped":false}]},"debugOutput":{"precalculationTime":25,"pathCalculationTime":25,"pathTimes":[14,5,6],"renderingTime":0,"totalTime":50,"timedOut":false},"elevationMetadata":{"ellipsoidToGeoidDifference":-28.885904201182168,"geoidElevation":false}}