{"requestParameters":{"date":"2018/04/02","walkSpeed":"1.33","walkReluctance":"2.0","fromPlace":"48.418729,-71.053021","maxWalkDistance":"3000","waitReluctance":"1.0","carSpeed":"33","numItineraries":"3","waitAtBeginningFactor":"0.4","mode":"TRANSIT,WALK","ignoreRealtimeUpdates":"false","stairsReluctance":"2.0","toPlace":"48.451164,-71.083129","time":"12:0:00"},"plan":{"date":1522684800000,"from":{"name":"Origin","lon":-71.053021,"lat":48.418729,"orig":"","vertexType":"NORMAL"},"to":{"name":"Destination","lon":-71.083129,"lat":48.451164,"orig":"","vertexType":"NORMAL"},"itineraries":[{"duration":1231,"startTime":1522684854000,"endTime":1522686085000,"walkTime":490,"transitTime":739,"waitingTime":2,"walkDistance":620.1865187919099,"walkLimitExceeded":false,"elevationLost":0.0,"elevationGained":0.0,"transfers":0,"legs":[{"startTime":1522684854000,"endTime":1522684979000,"departureDelay":0,"arrivalDelay":0,"realTime":false,"distance":149.715,"pathway":false,"mode":"WALK","route":"","agencyTimeZoneOffset":-14400000,"interlineWithPreviousLeg":false,"from":{"name":"Origin","lon":-71.053021,"lat":48.418729,"departure":1522684854000,"orig":"","vertexType":"NORMAL"},"to":{"name":"Université du Québec à Chicoutimi","stopId":"1:63","stopCode":"63","lon":-71.051623,"lat":48.419503,"arrival":1522684979000,"departure":1522684980000,"zoneId":"NA","stopIndex":0,"stopSequence":1,"vertexType":"TRANSIT"},"legGeometry":{"points":"mwofHbotpLwBuBCA_AaATIQQ","length":6},"rentedBike":false,"transitLeg":false,"duration":125.0,"steps":[{"distance":137.92600000000002,"relativeDirection":"DEPART","streetName":"path","absoluteDirection":"NORTHEAST","stayOn":false,"area":false,"bogusName":false,"lon":-71.05281450938897,"lat":48.41863935175929,"elevation":[]},{"distance":11.789,"relativeDirection":"HARD_LEFT","streetName":"Rue de la Fondation","absoluteDirection":"NORTHEAST","stayOn":false,"area":false,"bogusName":false,"lon":-71.0518321,"lat":48.419468900000005,"elevation":[]}]},{"startTime":1522684980000,"endTime":1522685719000,"departureDelay":0,"arrivalDelay":0,"realTime":false,"distance":4585.147232492806,"pathway":false,"mode":"BUS","route":"65","agencyName":"Société de Transport du Saguenay","agencyUrl":"http://ville.saguenay.ca/fr/services-aux-citoyens/transport-sts","agencyTimeZoneOffset":-14400000,"routeColor":"00FFFF","routeType":3,"routeId":"1:65","routeTextColor":"000000","interlineWithPreviousLeg":false,"tripBlockId":"75","headsign":"Épicerie culinaire","agencyId":"0","tripId":"1:218626","serviceDate":"20180402","from":{"name":"Université du Québec à Chicoutimi","stopId":"1:63","stopCode":"63","lon":-71.051623,"lat":48.419503,"arrival":1522684979000,"departure":1522684980000,"zoneId":"NA","stopIndex":0,"stopSequence":1,"vertexType":"TRANSIT"},"to":{"name":"boul. Ste-Geneviève / Ste-Marie","stopId":"1:708","stopCode":"708","lon":-71.08574,"lat":48.44916,"arrival":1522685719000,"departure":1522685720000,"zoneId":"NA","stopIndex":12,"stopSequence":13,"vertexType":"TRANSIT"},"legGeometry":{"points":"e}ofHjhtpLmCkCI@GHuCrIyA{AaBeBg@vAsClJAh@Bf@Hp@Hp@HdA@fA?h@O|@Ul@u@bAm@~AuDqDmEkE]a@kAqAU|@WnKG|DGxDOdPKvJU|F?XGbDgCO}BYkCSCn@m@EEnAWxLoBKCp@O\\WjGOfGCRK^KJMHQB_AMg@Gw`@eR}@g@u@Su@Ia@Ck@Dm@HwAf@c@VeAx@iAlAU^[d@eLtTsAvB_CvEuAnCmBlE}@|B_BvFoC`JCD}@hCo@~Aq@pAs@fA{BlCoOrQ","length":80},"routeShortName":"65","routeLongName":"Term. Chic / Shipshaw","rentedBike":false,"transitLeg":true,"duration":739.0,"steps":[]},{"startTime":1522685720000,"endTime":1522686085000,"departureDelay":0,"arrivalDelay":0,"realTime":false,"distance":470.31399999999996,"pathway":false,"mode":"WALK","route":"","agencyTimeZoneOffset":-14400000,"interlineWithPreviousLeg":false,"from":{"name":"boul. Ste-Geneviève / Ste-Marie","stopId":"1:708","stopCode":"708","lon":-71.08574,"lat":48.44916,"arrival":1522685719000,"departure":1522685720000,"zoneId":"NA","stopIndex":12,"stopSequence":13,"vertexType":"TRANSIT"},"to":{"name":"Destination","lon":-71.083129,"lat":48.451164,"arrival":1522686085000,"orig":"","vertexType":"NORMAL"},"legGeometry":{"points":"avufHf}zpLdCqCw@mBGHKFI?wDDyBFYEMKIM{AoDCODOBKDIBC","length":17},"rentedBike":false,"transitLeg":false,"duration":365.0,"steps":[{"distance":91.347,"relativeDirection":"DEPART","streetName":"Boulevard Sainte-Geneviève","absoluteDirection":"SOUTHEAST","stayOn":false,"area":false,"bogusName":false,"lon":-71.0857982223501,"lat":48.449131668488924,"elevation":[]},{"distance":50.926,"relativeDirection":"LEFT","streetName":"Rue Saint-Gérard","absoluteDirection":"NORTHEAST","stayOn":false,"area":false,"bogusName":false,"lon":-71.08506560000001,"lat":48.448469300000006,"elevation":[]},{"distance":328.041,"relativeDirection":"LEFT","streetName":"Rue Pasteur Nord","absoluteDirection":"NORTHWEST","stayOn":false,"area":false,"bogusName":false,"lon":-71.0845147,"lat":48.4487454,"elevation":[]}]}],"tooSloped":false},{"duration":1770,"startTime":1522686381000,"endTime":1522688151000,"walkTime":541,"transitTime":927,"waitingTime":302,"walkDistance":687.1174060114106,"walkLimitExceeded":false,"elevationLost":0.0,"elevationGained":0.0,"transfers":1,"legs":[{"startTime":1522686381000,"endTime":1522686659000,"departureDelay":0,"arrivalDelay":0,"realTime":false,"distance":348.519,"pathway":false,"mode":"WALK","route":"","agencyTimeZoneOffset":-14400000,"interlineWithPreviousLeg":false,"from":{"name":"Origin","lon":-71.053021,"lat":48.418729,"departure":1522686381000,"orig":"","vertexType":"NORMAL"},"to":{"name":"Terminus UQAC","stopId":"1:1670","stopCode":"1670","lon":-71.053369,"lat":48.420903,"arrival":1522686659000,"departure":1522686660000,"zoneId":"NA","stopIndex":14,"stopSequence":15,"vertexType":"TRANSIT"},"legGeometry":{"points":"mwofHbotpLwBuBCA_AaAq@XYz@Ur@e@vAg@vAUp@cAaA","length":11},"rentedBike":false,"transitLeg":false,"duration":278.0,"steps":[{"distance":281.082,"relativeDirection":"DEPART","streetName":"path","absoluteDirection":"NORTHEAST","stayOn":false,"area":false,"bogusName":false,"lon":-71.05281450938897,"lat":48.41863935175929,"elevation":[]},{"distance":67.437,"relativeDirection":"CONTINUE","streetName":"service road","absoluteDirection":"NORTHWEST","stayOn":false,"area":false,"bogusName":true,"lon":-71.05345460000001,"lat":48.4204518,"elevation":[]}]},{"startTime":1522686660000,"endTime":1522687200000,"departureDelay":0,"arrivalDelay":0,"realTime":false,"distance":2324.3264239577584,"pathway":false,"mode":"BUS","route":"175","agencyName":"Société de Transport du Saguenay","agencyUrl":"http://ville.saguenay.ca/fr/services-aux-citoyens/transport-sts","agencyTimeZoneOffset":-14400000,"routeColor":"FF00FF","routeType":3,"routeId":"1:175","routeTextColor":"FFFFFF","interlineWithPreviousLeg":false,"tripBlockId":"11","headsign":"Terminus Chicoutimi","agencyId":"0","tripId":"1:217473","serviceDate":"20180402","from":{"name":"Terminus UQAC","stopId":"1:1670","stopCode":"1670","lon":-71.053369,"lat":48.420903,"arrival":1522686659000,"departure":1522686660000,"zoneId":"NA","stopIndex":14,"stopSequence":15,"vertexType":"TRANSIT"},"to":{"name":"Terminus Chicoutimi","stopId":"1:1289","stopCode":"1289","lon":-71.066163,"lat":48.428677,"arrival":1522687200000,"departure":1522687500000,"zoneId":"NA","stopIndex":27,"stopSequence":28,"vertexType":"TRANSIT"},"legGeometry":{"points":"sepfHprtpL_A_ATm@yAwAgBeBqDnL@nBF`@f@|C[dCuAfB]xAs@OmCmCmEkE]a@g@i@ZiGTmEl@oLaEe@cFk@?pH?tJDvBPjMB~Bo@PQDRbFKdGMhIOvIK|EQpHoCQEdC","length":37},"routeShortName":"175","routeLongName":"Term. Chic / Costco","rentedBike":false,"transitLeg":true,"duration":540.0,"steps":[]},{"startTime":1522687500000,"endTime":1522687887000,"departureDelay":0,"arrivalDelay":0,"realTime":false,"distance":2669.4064857723333,"pathway":false,"mode":"BUS","route":"23","agencyName":"Société de Transport du Saguenay","agencyUrl":"http://ville.saguenay.ca/fr/services-aux-citoyens/transport-sts","agencyTimeZoneOffset":-14400000,"routeColor":"FF00FF","routeType":3,"routeId":"1:23","routeTextColor":"FFFFFF","interlineWithPreviousLeg":false,"tripBlockId":"5","headsign":"Terminus Chicoutimi","agencyId":"0","tripId":"1:217262","serviceDate":"20180402","from":{"name":"Terminus Chicoutimi","stopId":"1:1289","stopCode":"1289","lon":-71.066163,"lat":48.428677,"arrival":1522687200000,"departure":1522687500000,"zoneId":"NA","stopIndex":0,"stopSequence":1,"vertexType":"TRANSIT"},"to":{"name":"St-Gérard / Pasteur","stopId":"1:727","stopCode":"727","lon":-71.084309,"lat":48.448719,"arrival":1522687887000,"departure":1522687888000,"zoneId":"NA","stopIndex":4,"stopSequence":5,"vertexType":"TRANSIT"},"legGeometry":{"points":"kwqfHjbwpLF_CkAOYCm@rRO\\WjGOfGCRK^KJMHQB_AMg@Gw`@eR}@g@u@Su@Ia@Ck@Dm@HwAf@c@VeAx@iAlAU^[d@eLtTsAvB_CvEuAnCmBlE}@|B_BvFoC`JCD}@hCo@~Aq@pAs@fA{BlCqH|Iq@Bq@Im@U","length":46},"routeShortName":"23","routeLongName":"Côte Verdun via Aréna du Plateau","rentedBike":false,"transitLeg":true,"duration":387.0,"steps":[]},{"startTime":1522687888000,"endTime":1522688151000,"departureDelay":0,"arrivalDelay":0,"realTime":false,"distance":338.486,"pathway":false,"mode":"WALK","route":"","agencyTimeZoneOffset":-14400000,"interlineWithPreviousLeg":false,"from":{"name":"St-Gérard / Pasteur","stopId":"1:727","stopCode":"727","lon":-71.084309,"lat":48.448719,"arrival":1522687887000,"departure":1522687888000,"zoneId":"NA","stopIndex":4,"stopSequence":5,"vertexType":"TRANSIT"},"to":{"name":"Destination","lon":-71.083129,"lat":48.451164,"arrival":1522688151000,"orig":"","vertexType":"NORMAL"},"legGeometry":{"points":"_tufHptzpLJTGHKFI?wDDyBFYEMKIM{AoDCODOBKDIBC","length":16},"rentedBike":false,"transitLeg":false,"duration":263.0,"steps":[{"distance":10.445,"relativeDirection":"DEPART","streetName":"Rue Saint-Gérard","absoluteDirection":"SOUTHWEST","stayOn":false,"area":false,"bogusName":false,"lon":-71.0844008886955,"lat":48.448801303287965,"elevation":[]},{"distance":328.041,"relativeDirection":"RIGHT","streetName":"Rue Pasteur Nord","absoluteDirection":"NORTHWEST","stayOn":false,"area":false,"bogusName":false,"lon":-71.0845147,"lat":48.4487454,"elevation":[]}]}],"tooSloped":false},{"duration":2751,"startTime":1522685481000,"endTime":1522688232000,"walkTime":513,"transitTime":1036,"waitingTime":1202,"walkDistance":657.7203007496113,"walkLimitExceeded":false,"elevationLost":0.0,"elevationGained":0.0,"transfers":1,"legs":[{"startTime":1522685481000,"endTime":1522685759000,"departureDelay":0,"arrivalDelay":0,"realTime":false,"distance":348.519,"pathway":false,"mode":"WALK","route":"","agencyTimeZoneOffset":-14400000,"interlineWithPreviousLeg":false,"from":{"name":"Origin","lon":-71.053021,"lat":48.418729,"departure":1522685481000,"orig":"","vertexType":"NORMAL"},"to":{"name":"Terminus UQAC","stopId":"1:1670","stopCode":"1670","lon":-71.053369,"lat":48.420903,"arrival":1522685759000,"departure":1522685760000,"zoneId":"NA","stopIndex":14,"stopSequence":15,"vertexType":"TRANSIT"},"legGeometry":{"points":"mwofHbotpLwBuBCA_AaAq@XYz@Ur@e@vAg@vAUp@cAaA","length":11},"rentedBike":false,"transitLeg":false,"duration":278.0,"steps":[{"distance":281.082,"relativeDirection":"DEPART","streetName":"path","absoluteDirection":"NORTHEAST","stayOn":false,"area":false,"bogusName":false,"lon":-71.05281450938897,"lat":48.41863935175929,"elevation":[]},{"distance":67.437,"relativeDirection":"CONTINUE","streetName":"service road","absoluteDirection":"NORTHWEST","stayOn":false,"area":false,"bogusName":true,"lon":-71.05345460000001,"lat":48.4204518,"elevation":[]}]},{"startTime":1522685760000,"endTime":1522686300000,"departureDelay":0,"arrivalDelay":0,"realTime":false,"distance":2324.3264239577584,"pathway":false,"mode":"BUS","route":"175","agencyName":"Société de Transport du Saguenay","agencyUrl":"http://ville.saguenay.ca/fr/services-aux-citoyens/transport-sts","agencyTimeZoneOffset":-14400000,"routeColor":"FF00FF","routeType":3,"routeId":"1:175","routeTextColor":"FFFFFF","interlineWithPreviousLeg":false,"tripBlockId":"81","headsign":"Terminus Chicoutimi","agencyId":"0","tripId":"1:218659","serviceDate":"20180402","from":{"name":"Terminus UQAC","stopId":"1:1670","stopCode":"1670","lon":-71.053369,"lat":48.420903,"arrival":1522685759000,"departure":1522685760000,"zoneId":"NA","stopIndex":14,"stopSequence":15,"vertexType":"TRANSIT"},"to":{"name":"Terminus Chicoutimi","stopId":"1:1289","stopCode":"1289","lon":-71.066163,"lat":48.428677,"arrival":1522686300000,"departure":1522687500000,"zoneId":"NA","stopIndex":27,"stopSequence":28,"vertexType":"TRANSIT"},"legGeometry":{"points":"sepfHprtpL_A_ATm@yAwAgBeBqDnL@nBF`@f@|C[dCuAfB]xAs@OmCmCmEkE]a@g@i@ZiGTmEl@oLaEe@cFk@?pH?tJDvBPjMB~Bo@PQDRbFKdGMhIOvIK|EQpHoCQEdC","length":37},"routeShortName":"175","routeLongName":"Term. Chic / Costco","rentedBike":false,"transitLeg":true,"duration":540.0,"steps":[]},{"startTime":1522687500000,"endTime":1522687996000,"departureDelay":0,"arrivalDelay":0,"realTime":false,"distance":3559.685247334825,"pathway":false,"mode":"BUS","route":"21","agencyName":"Société de Transport du Saguenay","agencyUrl":"http://ville.saguenay.ca/fr/services-aux-citoyens/transport-sts","agencyTimeZoneOffset":-14400000,"routeColor":"556B2F","routeType":3,"routeId":"1:21","routeTextColor":"FFFFFF","interlineWithPreviousLeg":false,"tripBlockId":"2","headsign":"Terminus Chicoutimi","agencyId":"0","tripId":"1:217168","serviceDate":"20180402","from":{"name":"Terminus Chicoutimi","stopId":"1:1289","stopCode":"1289","lon":-71.066163,"lat":48.428677,"arrival":1522686300000,"departure":1522687500000,"zoneId":"NA","stopIndex":0,"stopSequence":1,"vertexType":"TRANSIT"},"to":{"name":"St-Gérard / Pasteur","stopId":"1:733","stopCode":"733","lon":-71.0845,"lat":48.4489,"arrival":1522687996000,"departure":1522687997000,"zoneId":"NA","stopIndex":7,"stopSequence":8,"vertexType":"TRANSIT"},"legGeometry":{"points":"kwqfHjbwpLF_CeBSm@rRO\\WjGOfGCRK^KJMHQB_AMg@Gw`@eR}@g@u@Su@Ia@Ck@Dm@HwAf@c@VeAx@iAlAU^[d@eLtTsAvB_CvEuAnCmBlE}@|B_BvFoC`JCD}@hCo@~Aq@pAs@fAWs@IUC[AI?QCeGAs@Gy@Ks@Ou@OcAIcAIgAWgCG_@Og@IQS]UWYQWIUA[Da@P]RSVQ`@Ib@Ef@Et@Gf@Id@I`@Od@cCxFQOgAwA_FqGO[`BcEY_@MOaBtDLTh@bATZpGlIPNa@fAOn@Gd@UtBA^A^R`E^fGRbAVl@P`@","length":99},"routeShortName":"21","routeLongName":"Boul. Ste-Geneviève/Élie","rentedBike":false,"transitLeg":true,"duration":496.0,"steps":[]},{"startTime":1522687997000,"endTime":1522688232000,"departureDelay":0,"arrivalDelay":0,"realTime":false,"distance":309.131,"pathway":false,"mode":"WALK","route":"","agencyTimeZoneOffset":-14400000,"interlineWithPreviousLeg":false,"from":{"name":"St-Gérard / Pasteur","stopId":"1:733","stopCode":"733","lon":-71.0845,"lat":48.4489,"arrival":1522687996000,"departure":1522687997000,"zoneId":"NA","stopIndex":7,"stopSequence":8,"vertexType":"TRANSIT"},"to":{"name":"Destination","lon":-71.083129,"lat":48.451164,"arrival":1522688232000,"orig":"","vertexType":"NORMAL"},"legGeometry":{"points":"qtufHxuzpLwDDyBFYEMKIM{AoDCODOBKDIBC","length":12},"rentedBike":false,"transitLeg":false,"duration":235.0,"steps":[{"distance":309.131,"relativeDirection":"DEPART","streetName":"Rue Pasteur Nord","absoluteDirection":"NORTH","stayOn":false,"area":false,"bogusName":false,"lon":-71.08460477785076,"lat":48.44889846721524,"elevation":[]}]}],"tooSloped":false}]},"debugOutput":{"precalculationTime":33,"pathCalculationTime":58,"pathTimes":[18,20,20],"renderingTime":0,"totalTime":91,"timedOut":false},"elevationMetadata":{"ellipsoidToGeoidDifference":-28.885904201182168,"geoidElevation":false}}