{"requestParameters":{"date":"2018/04/02","walkSpeed":"1.33","walkReluctance":"2.0","fromPlace":"48.442106,-71.059971","maxWalkDistance":"3000","waitReluctance":"1.0","carSpeed":"33","numItineraries":"3","waitAtBeginningFactor":"0.4","mode":"TRANSIT,WALK","ignoreRealtimeUpdates":"false","stairsReluctance":"2.0","toPlace":"48.442678,-71.07414099","time":"21:15:00"},"plan":{"date":1522718100000,"from":{"name":"Origin","lon":-71.059971,"lat":48.442106,"orig":"","vertexType":"NORMAL"},"to":{"name":"Destination","lon":-71.07414099,"lat":48.442678,"orig":"","vertexType":"NORMAL"},"itineraries":[{"duration":1109,"startTime":1522718100000,"endTime":1522719209000,"walkTime":1109,"transitTime":0,"waitingTime":0,"walkDistance":1445.016639094336,"walkLimitExceeded":false,"elevationLost":0.0,"elevationGained":0.0,"transfers":0,"legs":[{"startTime":1522718100000,"endTime":1522719209000,"departureDelay":0,"arrivalDelay":0,"realTime":false,"distance":1444.911,"pathway":false,"mode":"WALK","route":"","agencyTimeZoneOffset":-14400000,"interlineWithPreviousLeg":false,"from":{"name":"Origin","lon":-71.059971,"lat":48.442106,"departure":1522718100000,"orig":"","vertexType":"NORMAL"},"to":{"name":"Destination","lon":-71.07414099,"lat":48.442678,"arrival":1522719209000,"orig":"","vertexType":"NORMAL"},"legGeometry":{"points":"qjtfHb~upLtAd@GXa@jCk@rEc@|Fc@pAgBv@iANmEqAKB_@ZUr@k@pDVH`@NJHHFHJHNHRFXHj@hAzMPnBNzBFt@D`@\\pD@FRpBr@fH\\pDNtA~@eA","length":35},"rentedBike":false,"transitLeg":false,"duration":1109.0,"steps":[{"distance":49.675,"relativeDirection":"DEPART","streetName":"Rue du Régent","absoluteDirection":"SOUTH","stayOn":false,"area":false,"bogusName":false,"lon":-71.06033651682873,"lat":48.44217607951115,"elevation":[]},{"distance":620.971,"relativeDirection":"RIGHT","streetName":"Rue Talon","absoluteDirection":"WEST","stayOn":false,"area":false,"bogusName":false,"lon":-71.0605235,"lat":48.441746900000005,"elevation":[]},{"distance":730.771,"relativeDirection":"LEFT","streetName":"Rue Delisle","absoluteDirection":"SOUTH","stayOn":false,"area":false,"bogusName":false,"lon":-71.065352,"lat":48.445005300000005,"elevation":[]},{"distance":43.494,"relativeDirection":"LEFT","streetName":"Rue Chapais","absoluteDirection":"SOUTHEAST","stayOn":false,"area":false,"bogusName":false,"lon":-71.07446730000001,"lat":48.443004300000005,"elevation":[]}]}],"tooSloped":false},{"duration":1029,"startTime":1522718451000,"endTime":1522719480000,"walkTime":959,"transitTime":68,"waitingTime":2,"walkDistance":1243.7829999951603,"walkLimitExceeded":false,"elevationLost":0.0,"elevationGained":0.0,"transfers":0,"legs":[{"startTime":1522718451000,"endTime":1522719291000,"departureDelay":0,"arrivalDelay":0,"realTime":false,"distance":1092.71,"pathway":false,"mode":"WALK","route":"","agencyTimeZoneOffset":-14400000,"interlineWithPreviousLeg":false,"from":{"name":"Origin","lon":-71.059971,"lat":48.442106,"departure":1522718451000,"orig":"","vertexType":"NORMAL"},"to":{"name":"Constantin / Casault","stopId":"1:768","stopCode":"768","lon":-71.0691,"lat":48.4448,"arrival":1522719291000,"departure":1522719292000,"zoneId":"NA","stopIndex":32,"stopSequence":33,"vertexType":"TRANSIT"},"legGeometry":{"points":"qjtfHb~upLtAd@GXa@jCk@rEc@|Fc@pAgBv@iANmEqAKB_@ZUr@k@pDVH`@NJHHFHJHNHRFXHj@hAzMPnBeAPc@@KAOAe@a@","length":30},"rentedBike":false,"transitLeg":false,"duration":840.0,"steps":[{"distance":49.675,"relativeDirection":"DEPART","streetName":"Rue du Régent","absoluteDirection":"SOUTH","stayOn":false,"area":false,"bogusName":false,"lon":-71.06033651682873,"lat":48.44217607951115,"elevation":[]},{"distance":620.971,"relativeDirection":"RIGHT","streetName":"Rue Talon","absoluteDirection":"WEST","stayOn":false,"area":false,"bogusName":false,"lon":-71.0605235,"lat":48.441746900000005,"elevation":[]},{"distance":322.443,"relativeDirection":"LEFT","streetName":"Rue Delisle","absoluteDirection":"SOUTH","stayOn":false,"area":false,"bogusName":false,"lon":-71.065352,"lat":48.445005300000005,"elevation":[]},{"distance":99.62100000000001,"relativeDirection":"RIGHT","streetName":"Rue Constantin","absoluteDirection":"NORTH","stayOn":false,"area":false,"bogusName":false,"lon":-71.069103,"lat":48.4439088,"elevation":[]}]},{"startTime":1522719292000,"endTime":1522719360000,"departureDelay":0,"arrivalDelay":0,"realTime":false,"distance":360.09573369221977,"pathway":false,"mode":"BUS","route":"22","agencyName":"Société de Transport du Saguenay","agencyUrl":"http://ville.saguenay.ca/fr/services-aux-citoyens/transport-sts","agencyTimeZoneOffset":-14400000,"routeColor":"C0C000","routeType":3,"routeId":"1:22","routeTextColor":"000000","interlineWithPreviousLeg":false,"tripBlockId":"3","headsign":"Terminus Chicoutimi","agencyId":"0","tripId":"1:217216","serviceDate":"20180402","from":{"name":"Constantin / Casault","stopId":"1:768","stopCode":"768","lon":-71.0691,"lat":48.4448,"arrival":1522719291000,"departure":1522719292000,"zoneId":"NA","stopIndex":32,"stopSequence":33,"vertexType":"TRANSIT"},"to":{"name":"Champs / Victor","stopId":"1:769","stopCode":"769","lon":-71.07274,"lat":48.442642,"arrival":1522719360000,"departure":1522719361000,"zoneId":"NA","stopIndex":33,"stopSequence":34,"vertexType":"TRANSIT"},"legGeometry":{"points":"wztfHjtwpLZTXNd@@lA[ZxDN|Ad@fAz@tB~AzDZ|@","length":11},"routeShortName":"22","routeLongName":"Vanier","rentedBike":false,"transitLeg":true,"duration":68.0,"steps":[]},{"startTime":1522719361000,"endTime":1522719480000,"departureDelay":0,"arrivalDelay":0,"realTime":false,"distance":150.923,"pathway":false,"mode":"WALK","route":"","agencyTimeZoneOffset":-14400000,"interlineWithPreviousLeg":false,"from":{"name":"Champs / Victor","stopId":"1:769","stopCode":"769","lon":-71.07274,"lat":48.442642,"arrival":1522719360000,"departure":1522719361000,"zoneId":"NA","stopIndex":33,"stopSequence":34,"vertexType":"TRANSIT"},"to":{"name":"Destination","lon":-71.07414099,"lat":48.442678,"arrival":1522719480000,"orig":"","vertexType":"NORMAL"},"legGeometry":{"points":"cmtfHhkxpLrAjDgBpB","length":3},"rentedBike":false,"transitLeg":false,"duration":119.0,"steps":[{"distance":79.042,"relativeDirection":"DEPART","streetName":"Rue des Champs","absoluteDirection":"SOUTHWEST","stayOn":false,"area":false,"bogusName":false,"lon":-71.07268048433089,"lat":48.44258835732402,"elevation":[]},{"distance":71.881,"relativeDirection":"RIGHT","streetName":"Rue Chapais","absoluteDirection":"NORTHWEST","stayOn":false,"area":false,"bogusName":false,"lon":-71.0735435,"lat":48.442167000000005,"elevation":[]}]}],"tooSloped":false},{"duration":1124,"startTime":1522719189000,"endTime":1522720313000,"walkTime":270,"transitTime":852,"waitingTime":2,"walkDistance":338.9845263122231,"walkLimitExceeded":false,"elevationLost":0.0,"elevationGained":0.0,"transfers":0,"legs":[{"startTime":1522719189000,"endTime":1522719308000,"departureDelay":0,"arrivalDelay":0,"realTime":false,"distance":149.977,"pathway":false,"mode":"WALK","route":"","agencyTimeZoneOffset":-14400000,"interlineWithPreviousLeg":false,"from":{"name":"Origin","lon":-71.059971,"lat":48.442106,"departure":1522719189000,"orig":"","vertexType":"NORMAL"},"to":{"name":"Église St-Luc (boul. Tadoussac)","stopId":"1:830","stopCode":"830","lon":-71.059501,"lat":48.441464,"arrival":1522719308000,"departure":1522719309000,"zoneId":"NA","stopIndex":29,"stopSequence":30,"vertexType":"TRANSIT"},"legGeometry":{"points":"qjtfHb~upLtAd@PcAH]FOJMPSPSCKMa@","length":10},"rentedBike":false,"transitLeg":false,"duration":119.0,"steps":[{"distance":49.675,"relativeDirection":"DEPART","streetName":"Rue du Régent","absoluteDirection":"SOUTH","stayOn":false,"area":false,"bogusName":false,"lon":-71.06033651682873,"lat":48.44217607951115,"elevation":[]},{"distance":80.529,"relativeDirection":"LEFT","streetName":"Rue Talon","absoluteDirection":"SOUTHEAST","stayOn":false,"area":false,"bogusName":false,"lon":-71.0605235,"lat":48.441746900000005,"elevation":[]},{"distance":19.773,"relativeDirection":"LEFT","streetName":"Boulevard de Tadoussac","absoluteDirection":"NORTHEAST","stayOn":false,"area":false,"bogusName":false,"lon":-71.0596842,"lat":48.441320700000006,"elevation":[]}]},{"startTime":1522719309000,"endTime":1522719660000,"departureDelay":0,"arrivalDelay":0,"realTime":false,"distance":2205.3269568724254,"pathway":false,"mode":"BUS","route":"24","agencyName":"Société de Transport du Saguenay","agencyUrl":"http://ville.saguenay.ca/fr/services-aux-citoyens/transport-sts","agencyTimeZoneOffset":-14400000,"routeColor":"00FF00","routeType":3,"routeId":"1:24","routeTextColor":"000000","interlineWithPreviousLeg":false,"tripBlockId":"5","headsign":"Terminus Chicoutimi","agencyId":"0","tripId":"1:217279","serviceDate":"20180402","from":{"name":"Église St-Luc (boul. Tadoussac)","stopId":"1:830","stopCode":"830","lon":-71.059501,"lat":48.441464,"arrival":1522719308000,"departure":1522719309000,"zoneId":"NA","stopIndex":29,"stopSequence":30,"vertexType":"TRANSIT"},"to":{"name":"Terminus Chicoutimi","stopId":"1:1289","stopCode":"1289","lon":-71.066163,"lat":48.428677,"arrival":1522719660000,"departure":1522719900000,"zoneId":"NA","stopIndex":35,"stopSequence":36,"vertexType":"TRANSIT"},"legGeometry":{"points":"yetfHvxupL@HLd@\\z@Xd@X\\RTXRr@Zn@PfExAvDpALnBJt@Pp@Nj@l@tBHZPn@`@rBNnAFr@DbA?bB@jABzA?p@A???A???A?A???A@??A?A@??A@?@A??@A@???@A@?@?@A@?@?@?@?@???@?@?@?@?@?@@@?@?@@@?@@@?@@@?@@?@@??@@@?E`@Kr@]rACVEl@I|AAr@JbAWJe@FUAM?a@Ke@YYWWa@v@}@RQPMz@k@tAe@REZG^Af@@X@VF`@Jn@XbClAr@Xt\\`PrAb@pA^hBTjAFj@Pb@JPHLLJNJRFXDT?X?ZEVEVKTMNMHMFOB}DWSGOSYcAN}FFkAF}DJyDPwGvAHN_HDiB@m@","length":141},"routeShortName":"24","routeLongName":"Saint-Luc","rentedBike":false,"transitLeg":true,"duration":351.0,"steps":[]},{"startTime":1522719900000,"endTime":1522720161000,"departureDelay":0,"arrivalDelay":0,"realTime":false,"distance":1644.4901640156816,"pathway":false,"mode":"BUS","route":"23","agencyName":"Société de Transport du Saguenay","agencyUrl":"http://ville.saguenay.ca/fr/services-aux-citoyens/transport-sts","agencyTimeZoneOffset":-14400000,"routeColor":"FF00FF","routeType":3,"routeId":"1:23","routeTextColor":"FFFFFF","interlineWithPreviousLeg":true,"tripBlockId":"5","headsign":"Terminus Chicoutimi","agencyId":"0","tripId":"1:217280","serviceDate":"20180402","from":{"name":"Terminus Chicoutimi","stopId":"1:1289","stopCode":"1289","lon":-71.066163,"lat":48.428677,"arrival":1522719660000,"departure":1522719900000,"zoneId":"NA","stopIndex":0,"stopSequence":1,"vertexType":"TRANSIT"},"to":{"name":"boul. Ste-Geneviève / Champs","stopId":"1:705","stopCode":"705","lon":-71.074706,"lat":48.442337,"arrival":1522720161000,"departure":1522720162000,"zoneId":"NA","stopIndex":1,"stopSequence":2,"vertexType":"TRANSIT"},"legGeometry":{"points":"kwqfHjbwpLF_CkAOYCm@rRO\\WjGOfGCRK^KJMHQB_AMg@Gw`@eR}@g@u@Su@Ia@Ck@Dm@HwAf@c@VeAx@iAlAU^[d@eLtTsAvB_CvE","length":31},"routeShortName":"23","routeLongName":"Côte Verdun via Aréna du Plateau","rentedBike":false,"transitLeg":true,"duration":261.0,"steps":[]},{"startTime":1522720162000,"endTime":1522720313000,"departureDelay":0,"arrivalDelay":0,"realTime":false,"distance":188.897,"pathway":false,"mode":"WALK","route":"","agencyTimeZoneOffset":-14400000,"interlineWithPreviousLeg":false,"from":{"name":"boul. Ste-Geneviève / Champs","stopId":"1:705","stopCode":"705","lon":-71.074706,"lat":48.442337,"arrival":1522720161000,"departure":1522720162000,"zoneId":"NA","stopIndex":1,"stopSequence":2,"vertexType":"TRANSIT"},"to":{"name":"Destination","lon":-71.07414099,"lat":48.442678,"arrival":1522720313000,"orig":"","vertexType":"NORMAL"},"legGeometry":{"points":"iktfHhxxpLnAeCu@mBgBpB","length":4},"rentedBike":false,"transitLeg":false,"duration":151.0,"steps":[{"distance":66.393,"relativeDirection":"DEPART","streetName":"Boulevard Sainte-Geneviève","absoluteDirection":"SOUTHEAST","stayOn":false,"area":false,"bogusName":false,"lon":-71.07476154891728,"lat":48.442296311215706,"elevation":[]},{"distance":50.623,"relativeDirection":"LEFT","streetName":"Rue des Champs","absoluteDirection":"NORTHEAST","stayOn":false,"area":false,"bogusName":false,"lon":-71.0740944,"lat":48.4418955,"elevation":[]},{"distance":71.881,"relativeDirection":"LEFT","streetName":"Rue Chapais","absoluteDirection":"NORTHWEST","stayOn":false,"area":false,"bogusName":false,"lon":-71.0735435,"lat":48.442167000000005,"elevation":[]}]}],"tooSloped":false}]},"debugOutput":{"precalculationTime":18,"pathCalculationTime":16,"pathTimes":[11,3,2],"renderingTime":0,"totalTime":34,"timedOut":false},"elevationMetadata":{"ellipsoidToGeoidDifference":-28.885904201182168,"geoidElevation":false}}