{"requestParameters":{"date":"2018/04/02","walkSpeed":"1.33","walkReluctance":"2.0","fromPlace":"48.444119,-71.080494","maxWalkDistance":"3000","waitReluctance":"1.0","carSpeed":"33","numItineraries":"3","waitAtBeginningFactor":"0.4","mode":"TRANSIT,WALK","ignoreRealtimeUpdates":"false","stairsReluctance":"2.0","toPlace":"48.443258,-71.088378","time":"13:30:00"},"plan":{"date":1522690200000,"from":{"name":"Origin","lon":-71.080494,"lat":48.444119,"orig":"","vertexType":"NORMAL"},"to":{"name":"Destination","lon":-71.088378,"lat":48.443258,"orig":"","vertexType":"NORMAL"},"itineraries":[{"duration":738,"startTime":1522690200000,"endTime":1522690938000,"walkTime":738,"transitTime":0,"waitingTime":0,"walkDistance":941.0620902195593,"walkLimitExceeded":false,"elevationLost":0.0,"elevationGained":0.0,"transfers":0,"legs":[{"startTime":1522690200000,"endTime":1522690938000,"departureDelay":0,"arrivalDelay":0,"realTime":false,"distance":940.876,"pathway":false,"mode":"WALK","route":"","agencyTimeZoneOffset":-14400000,"interlineWithPreviousLeg":false,"from":{"name":"Origin","lon":-71.080494,"lat":48.444119,"departure":1522690200000,"orig":"","vertexType":"NORMAL"},"to":{"name":"Destination","lon":-71.088378,"lat":48.443258,"arrival":1522690938000,"orig":"","vertexType":"NORMAL"},"legGeometry":{"points":"wytfHjyypLELa@fAi@~AdE|DkAnDqDjJ?X@zAOHDxFBpD@Hd@t@@?RZPr@?HfAh@j@\\bC|@NBN?RERKHAHE","length":27},"alerts":[{"alertHeaderText":"Unpaved surface"}],"rentedBike":false,"transitLeg":false,"duration":738.0,"steps":[{"distance":80.96000000000001,"relativeDirection":"DEPART","streetName":"Boulevard Sainte-Geneviève","absoluteDirection":"NORTHWEST","stayOn":false,"area":false,"bogusName":false,"lon":-71.08005452675857,"lat":48.4446094224144,"elevation":[]},{"distance":131.132,"relativeDirection":"LEFT","streetName":"Rue David","absoluteDirection":"SOUTHWEST","stayOn":false,"area":false,"bogusName":false,"lon":-71.08096180000001,"lat":48.445019,"elevation":[]},{"distance":287.597,"relativeDirection":"RIGHT","streetName":"Rue Sauvé","absoluteDirection":"NORTHWEST","stayOn":false,"area":false,"bogusName":false,"lon":-71.081913,"lat":48.444022700000005,"elevation":[]},{"distance":9.852,"relativeDirection":"RIGHT","streetName":"Rue Sainte-Marie Sud","absoluteDirection":"NORTHWEST","stayOn":false,"area":false,"bogusName":false,"lon":-71.08520060000001,"lat":48.445280000000004,"elevation":[],"alerts":[{"alertHeaderText":"Unpaved surface"}]},{"distance":161.772,"relativeDirection":"LEFT","streetName":"Rue Saint-Armand","absoluteDirection":"WEST","stayOn":false,"area":false,"bogusName":false,"lon":-71.0852564,"lat":48.4453605,"elevation":[]},{"distance":70.658,"relativeDirection":"LEFT","streetName":"Rue Saint-Denis","absoluteDirection":"SOUTHWEST","stayOn":false,"area":false,"bogusName":false,"lon":-71.0874465,"lat":48.445303900000006,"elevation":[]},{"distance":198.905,"relativeDirection":"LEFT","streetName":"Rue Saint-Denis","absoluteDirection":"SOUTH","stayOn":true,"area":false,"bogusName":false,"lon":-71.08816850000001,"lat":48.4449102,"elevation":[]}]}],"tooSloped":false},{"duration":486,"startTime":1522691371000,"endTime":1522691857000,"walkTime":380,"transitTime":104,"waitingTime":2,"walkDistance":485.9478571398609,"walkLimitExceeded":false,"elevationLost":0.0,"elevationGained":0.0,"transfers":0,"legs":[{"startTime":1522691371000,"endTime":1522691564000,"departureDelay":0,"arrivalDelay":0,"realTime":false,"distance":245.252,"pathway":false,"mode":"WALK","route":"","agencyTimeZoneOffset":-14400000,"interlineWithPreviousLeg":false,"from":{"name":"Origin","lon":-71.080494,"lat":48.444119,"departure":1522691371000,"orig":"","vertexType":"NORMAL"},"to":{"name":"Sauvé / St-Albert","stopId":"1:681","stopCode":"681","lon":-71.079877,"lat":48.443248,"arrival":1522691564000,"departure":1522691565000,"zoneId":"NA","stopIndex":6,"stopSequence":7,"vertexType":"TRANSIT"},"legGeometry":{"points":"wytfHjyypLlAiEb@`@TJ\\LhCv@Wx@","length":7},"rentedBike":false,"transitLeg":false,"duration":193.0,"steps":[{"distance":86.223,"relativeDirection":"DEPART","streetName":"Boulevard Sainte-Geneviève","absoluteDirection":"SOUTHEAST","stayOn":false,"area":false,"bogusName":false,"lon":-71.08005452675857,"lat":48.4446094224144,"elevation":[]},{"distance":133.438,"relativeDirection":"RIGHT","streetName":"Rue Saint-Albert","absoluteDirection":"SOUTHWEST","stayOn":false,"area":false,"bogusName":false,"lon":-71.0790497,"lat":48.4442132,"elevation":[]},{"distance":25.591,"relativeDirection":"RIGHT","streetName":"Rue Sauvé","absoluteDirection":"NORTHWEST","stayOn":false,"area":false,"bogusName":false,"lon":-71.07962210000001,"lat":48.4430824,"elevation":[]}]},{"startTime":1522691565000,"endTime":1522691669000,"departureDelay":0,"arrivalDelay":0,"realTime":false,"distance":620.8740288342417,"pathway":false,"mode":"BUS","route":"20","agencyName":"Société de Transport du Saguenay","agencyUrl":"http://ville.saguenay.ca/fr/services-aux-citoyens/transport-sts","agencyTimeZoneOffset":-14400000,"routeColor":"0000FF","routeType":3,"routeId":"1:20","routeTextColor":"FFFFFF","interlineWithPreviousLeg":false,"tripBlockId":"3","headsign":"Terminus Chicoutimi","agencyId":"0","tripId":"1:217201","serviceDate":"20180402","from":{"name":"Sauvé / St-Albert","stopId":"1:681","stopCode":"681","lon":-71.079877,"lat":48.443248,"arrival":1522691564000,"departure":1522691565000,"zoneId":"NA","stopIndex":6,"stopSequence":7,"vertexType":"TRANSIT"},"to":{"name":"St-Armand / St-Denis","stopId":"1:683","stopCode":"683","lon":-71.08776,"lat":48.445141,"arrival":1522691669000,"departure":1522691670000,"zoneId":"NA","stopIndex":8,"stopSequence":9,"vertexType":"TRANSIT"},"legGeometry":{"points":"_qtfHnxypLSx@{A`FyBfHmDjJCDEVE`B?vFBjC@ZFX\\j@","length":13},"routeShortName":"20","routeLongName":"Sainte-Claire","rentedBike":false,"transitLeg":true,"duration":104.0,"steps":[]},{"startTime":1522691670000,"endTime":1522691857000,"departureDelay":0,"arrivalDelay":0,"realTime":false,"distance":240.603,"pathway":false,"mode":"WALK","route":"","agencyTimeZoneOffset":-14400000,"interlineWithPreviousLeg":false,"from":{"name":"St-Armand / St-Denis","stopId":"1:683","stopCode":"683","lon":-71.08776,"lat":48.445141,"arrival":1522691669000,"departure":1522691670000,"zoneId":"NA","stopIndex":8,"stopSequence":9,"vertexType":"TRANSIT"},"to":{"name":"Destination","lon":-71.088378,"lat":48.443258,"arrival":1522691857000,"orig":"","vertexType":"NORMAL"},"legGeometry":{"points":"}|tfHfi{pL@?RZPr@?HfAh@j@\\bC|@NBN?RERKHAHE","length":14},"rentedBike":false,"transitLeg":false,"duration":187.0,"steps":[{"distance":41.698,"relativeDirection":"DEPART","streetName":"Rue Saint-Denis","absoluteDirection":"SOUTHWEST","stayOn":false,"area":false,"bogusName":false,"lon":-71.08771063731606,"lat":48.44511122383417,"elevation":[]},{"distance":198.905,"relativeDirection":"LEFT","streetName":"Rue Saint-Denis","absoluteDirection":"SOUTH","stayOn":true,"area":false,"bogusName":false,"lon":-71.08816850000001,"lat":48.4449102,"elevation":[]}]}],"tooSloped":false}]},"debugOutput":{"precalculationTime":11,"pathCalculationTime":17,"pathTimes":[9,6,2],"renderingTime":0,"totalTime":28,"timedOut":false},"elevationMetadata":{"ellipsoidToGeoidDifference":-28.885904201182168,"geoidElevation":false}}