{"requestParameters":{"date":"2018/04/02","walkSpeed":"1.33","walkReluctance":"2.0","fromPlace":"48.429528,-71.088649","maxWalkDistance":"3000","waitReluctance":"1.0","carSpeed":"33","numItineraries":"3","waitAtBeginningFactor":"0.4","mode":"TRANSIT,WALK","ignoreRealtimeUpdates":"false","stairsReluctance":"2.0","toPlace":"48.426011,-71.071102","time":"16:30:00"},"plan":{"date":1522701000000,"from":{"name":"Origin","lon":-71.088649,"lat":48.429528,"orig":"","vertexType":"NORMAL"},"to":{"name":"Destination","lon":-71.071102,"lat":48.426011,"orig":"","vertexType":"NORMAL"},"itineraries":[{"duration":1524,"startTime":1522701000000,"endTime":1522702524000,"walkTime":1524,"transitTime":0,"waitingTime":0,"walkDistance":1957.6719097659206,"walkLimitExceeded":false,"elevationLost":0.0,"elevationGained":0.0,"transfers":0,"legs":[{"startTime":1522701000000,"endTime":1522702524000,"departureDelay":0,"arrivalDelay":0,"realTime":false,"distance":1957.408,"pathway":false,"mode":"WALK","route":"","agencyTimeZoneOffset":-14400000,"interlineWithPreviousLeg":false,"from":{"name":"Origin","lon":-71.088649,"lat":48.429528,"departure":1522701000000,"orig":"","vertexType":"NORMAL"},"to":{"name":"Destination","lon":-71.071102,"lat":48.426011,"arrival":1522702524000,"orig":"","vertexType":"NORMAL"},"legGeometry":{"points":"o{qfHbn{pLhAAdBD`C\\pBj@|@J~Bt@R_JHyC@c@@}@?c@DkDH_DDk@xAgEh@{A`AyCXm@Xa@r@u@pBqB~AqBNaB?kAEQAEK_@E]@q@?e@AUEKGGa@IWGMOM[Mq@g@oCCM?e@A[CkDF}C@c@eCSs@UFk@Fi@@S?ADcAC[G}@q@iDA[Ec@OMaAYBIAQKM","length":63},"rentedBike":false,"transitLeg":false,"duration":1524.0,"steps":[{"distance":345.42,"relativeDirection":"DEPART","streetName":"Rue J.-R.-Théberge","absoluteDirection":"SOUTH","stayOn":false,"area":false,"bogusName":false,"lon":-71.08849099429519,"lat":48.42952929308083,"elevation":[]},{"distance":376.719,"relativeDirection":"LEFT","streetName":"Rue Brassard","absoluteDirection":"EAST","stayOn":false,"area":false,"bogusName":false,"lon":-71.0892196,"lat":48.4264773,"elevation":[]},{"distance":238.88,"relativeDirection":"SLIGHTLY_RIGHT","streetName":"Côte Saint-Ange","absoluteDirection":"SOUTHEAST","stayOn":false,"area":false,"bogusName":false,"lon":-71.0841347,"lat":48.426195400000005,"elevation":[]},{"distance":179.39800000000002,"relativeDirection":"CONTINUE","streetName":"Rue Dubuc","absoluteDirection":"SOUTHEAST","stayOn":false,"area":false,"bogusName":false,"lon":-71.0815067,"lat":48.424949000000005,"elevation":[]},{"distance":65.531,"relativeDirection":"SLIGHTLY_LEFT","streetName":"road","absoluteDirection":"EAST","stayOn":false,"area":false,"bogusName":true,"lon":-71.080094,"lat":48.4236379,"elevation":[]},{"distance":81.06899999999999,"relativeDirection":"SLIGHTLY_LEFT","streetName":"Rue Bossé","absoluteDirection":"NORTHEAST","stayOn":false,"area":false,"bogusName":false,"lon":-71.0792211,"lat":48.423552400000005,"elevation":[]},{"distance":304.52399999999994,"relativeDirection":"LEFT","streetName":"Rue Bossé","absoluteDirection":"NORTH","stayOn":true,"area":false,"bogusName":false,"lon":-71.0781822,"lat":48.42371,"elevation":[]},{"distance":104.41,"relativeDirection":"LEFT","streetName":"Rue Sainte-Marthe","absoluteDirection":"NORTH","stayOn":false,"area":false,"bogusName":false,"lon":-71.0746309,"lat":48.424456500000005,"elevation":[]},{"distance":193.44000000000003,"relativeDirection":"RIGHT","streetName":"Rue Price Ouest","absoluteDirection":"EAST","stayOn":false,"area":false,"bogusName":false,"lon":-71.07442610000001,"lat":48.425381900000005,"elevation":[]},{"distance":48.492,"relativeDirection":"LEFT","streetName":"path","absoluteDirection":"NORTH","stayOn":false,"area":false,"bogusName":true,"lon":-71.0719217,"lat":48.425614800000005,"elevation":[]},{"distance":19.525,"relativeDirection":"RIGHT","streetName":"Rue Montcalm","absoluteDirection":"EAST","stayOn":false,"area":false,"bogusName":false,"lon":-71.0717267,"lat":48.426028200000005,"elevation":[]}]}],"tooSloped":false},{"duration":992,"startTime":1522702445000,"endTime":1522703437000,"walkTime":772,"transitTime":218,"waitingTime":2,"walkDistance":994.8665563870227,"walkLimitExceeded":false,"elevationLost":0.0,"elevationGained":0.0,"transfers":0,"legs":[{"startTime":1522702445000,"endTime":1522703039000,"departureDelay":0,"arrivalDelay":0,"realTime":false,"distance":773.8029999999999,"pathway":false,"mode":"WALK","route":"","agencyTimeZoneOffset":-14400000,"interlineWithPreviousLeg":false,"from":{"name":"Origin","lon":-71.088649,"lat":48.429528,"departure":1522702445000,"orig":"","vertexType":"NORMAL"},"to":{"name":"ch. de la Réserve / St-Ange","stopId":"1:625","stopCode":"625","lon":-71.083536,"lat":48.42644,"arrival":1522703039000,"departure":1522703040000,"zoneId":"NA","stopIndex":30,"stopSequence":31,"vertexType":"TRANSIT"},"legGeometry":{"points":"o{qfHbn{pLhAAdBD`C\\pBj@|@J~Bt@R_JHyC@c@@}@?c@DkDH_DDk@GOo@_B","length":17},"rentedBike":false,"transitLeg":false,"duration":594.0,"steps":[{"distance":345.42,"relativeDirection":"DEPART","streetName":"Rue J.-R.-Théberge","absoluteDirection":"SOUTH","stayOn":false,"area":false,"bogusName":false,"lon":-71.08849099429519,"lat":48.42952929308083,"elevation":[]},{"distance":376.719,"relativeDirection":"LEFT","streetName":"Rue Brassard","absoluteDirection":"EAST","stayOn":false,"area":false,"bogusName":false,"lon":-71.0892196,"lat":48.4264773,"elevation":[]},{"distance":51.664,"relativeDirection":"LEFT","streetName":"Chemin de la Réserve","absoluteDirection":"NORTHEAST","stayOn":false,"area":false,"bogusName":false,"lon":-71.0841347,"lat":48.426195400000005,"elevation":[]}]},{"startTime":1522703040000,"endTime":1522703258000,"departureDelay":0,"arrivalDelay":0,"realTime":false,"distance":946.3989513452327,"pathway":false,"mode":"BUS","route":"16","agencyName":"Société de Transport du Saguenay","agencyUrl":"http://ville.saguenay.ca/fr/services-aux-citoyens/transport-sts","agencyTimeZoneOffset":-14400000,"routeColor":"00FF00","routeType":3,"routeId":"1:16","routeTextColor":"000000","interlineWithPreviousLeg":false,"tripBlockId":"36","headsign":"Terminus Chicoutimi","agencyId":"0","tripId":"1:218297","serviceDate":"20180402","from":{"name":"ch. de la Réserve / St-Ange","stopId":"1:625","stopCode":"625","lon":-71.083536,"lat":48.42644,"arrival":1522703039000,"departure":1522703040000,"zoneId":"NA","stopIndex":30,"stopSequence":31,"vertexType":"TRANSIT"},"to":{"name":"Price / Sainte-Marthe","stopId":"1:628","stopCode":"628","lon":-71.073911,"lat":48.425195,"arrival":1522703258000,"departure":1522703259000,"zoneId":"NA","stopIndex":32,"stopSequence":33,"vertexType":"TRANSIT"},"legGeometry":{"points":"ohqfHnozpLeCcGqAwC[g@]a@aAw@[_@cA}A_@w@GU[iDWaDzByCv@cA`@e@TSp@g@nAo@nBm@ZSf@c@PMb@[b@_@b@e@PYP]N_@La@P{@NcB","length":31},"routeShortName":"16","routeLongName":"Côte de la Réserve","rentedBike":false,"transitLeg":true,"duration":218.0,"steps":[]},{"startTime":1522703259000,"endTime":1522703437000,"departureDelay":0,"arrivalDelay":0,"realTime":false,"distance":220.941,"pathway":false,"mode":"WALK","route":"","agencyTimeZoneOffset":-14400000,"interlineWithPreviousLeg":false,"from":{"name":"Price / Sainte-Marthe","stopId":"1:628","stopCode":"628","lon":-71.073911,"lat":48.425195,"arrival":1522703258000,"departure":1522703259000,"zoneId":"NA","stopIndex":32,"stopSequence":33,"vertexType":"TRANSIT"},"to":{"name":"Destination","lon":-71.071102,"lat":48.426011,"arrival":1522703437000,"orig":"","vertexType":"NORMAL"},"legGeometry":{"points":"aaqfHzrxpL?ADcAC[G}@q@iDA[Ec@OMaAYBIAQKM","length":13},"rentedBike":false,"transitLeg":false,"duration":178.0,"steps":[{"distance":152.924,"relativeDirection":"DEPART","streetName":"Rue Price Ouest","absoluteDirection":"EAST","stayOn":false,"area":false,"bogusName":false,"lon":-71.07389556833924,"lat":48.42529273918486,"elevation":[]},{"distance":48.492,"relativeDirection":"LEFT","streetName":"path","absoluteDirection":"NORTH","stayOn":false,"area":false,"bogusName":true,"lon":-71.0719217,"lat":48.425614800000005,"elevation":[]},{"distance":19.525,"relativeDirection":"RIGHT","streetName":"Rue Montcalm","absoluteDirection":"EAST","stayOn":false,"area":false,"bogusName":false,"lon":-71.0717267,"lat":48.426028200000005,"elevation":[]}]}],"tooSloped":false},{"duration":1062,"startTime":1522702525000,"endTime":1522703587000,"walkTime":894,"transitTime":166,"waitingTime":2,"walkDistance":1157.267293229298,"walkLimitExceeded":false,"elevationLost":0.0,"elevationGained":0.0,"transfers":0,"legs":[{"startTime":1522702525000,"endTime":1522703019000,"departureDelay":0,"arrivalDelay":0,"realTime":false,"distance":645.684,"pathway":false,"mode":"WALK","route":"","agencyTimeZoneOffset":-14400000,"interlineWithPreviousLeg":false,"from":{"name":"Origin","lon":-71.088649,"lat":48.429528,"departure":1522702525000,"orig":"","vertexType":"NORMAL"},"to":{"name":"boul. Saguenay / Albert","stopId":"1:158","stopCode":"158","lon":-71.089619,"lat":48.434041,"arrival":1522703019000,"departure":1522703020000,"zoneId":"NA","stopIndex":29,"stopSequence":30,"vertexType":"TRANSIT"},"legGeometry":{"points":"o{qfHbn{pLaE@m@?oBD{@EoAMaAYqAg@eAm@iBkAMMCJa@|ASdAGp@WnE","length":16},"rentedBike":false,"transitLeg":false,"duration":494.0,"steps":[{"distance":476.005,"relativeDirection":"DEPART","streetName":"Rue J.-R.-Théberge","absoluteDirection":"NORTH","stayOn":false,"area":false,"bogusName":false,"lon":-71.08849099429519,"lat":48.42952929308083,"elevation":[]},{"distance":169.679,"relativeDirection":"LEFT","streetName":"Boulevard du Saguenay Ouest","absoluteDirection":"NORTHWEST","stayOn":false,"area":false,"bogusName":false,"lon":-71.0874263,"lat":48.433672300000005,"elevation":[]}]},{"startTime":1522703020000,"endTime":1522703186000,"departureDelay":0,"arrivalDelay":0,"realTime":false,"distance":1559.568760146196,"pathway":false,"mode":"BUS","route":"3","agencyName":"Société de Transport du Saguenay","agencyUrl":"http://ville.saguenay.ca/fr/services-aux-citoyens/transport-sts","agencyTimeZoneOffset":-14400000,"routeColor":"FF0000","routeType":3,"routeId":"1:3","routeTextColor":"FFFFFF","interlineWithPreviousLeg":false,"tripBlockId":"57","headsign":"Terminus Chicoutimi","agencyId":"0","tripId":"1:218536","serviceDate":"20180402","from":{"name":"boul. Saguenay / Albert","stopId":"1:158","stopCode":"158","lon":-71.089619,"lat":48.434041,"arrival":1522703019000,"departure":1522703020000,"zoneId":"NA","stopIndex":29,"stopSequence":30,"vertexType":"TRANSIT"},"to":{"name":"boul. Saguenay / Ste-Anne","stopId":"1:160","stopCode":"160","lon":-71.069701,"lat":48.429464,"arrival":1522703186000,"departure":1522703187000,"zoneId":"NA","stopIndex":31,"stopSequence":32,"vertexType":"TRANSIT"},"legGeometry":{"points":"exrfH`u{pLPiDN_BZcB`@mAxGgV|Ju^\\eBVgBLcB|@}^FkAF}DJyD","length":14},"routeShortName":"3","routeLongName":"Chic/Jonq via Boul. Saguenay","rentedBike":false,"transitLeg":true,"duration":166.0,"steps":[]},{"startTime":1522703187000,"endTime":1522703587000,"departureDelay":0,"arrivalDelay":0,"realTime":false,"distance":511.466,"pathway":false,"mode":"WALK","route":"","agencyTimeZoneOffset":-14400000,"interlineWithPreviousLeg":false,"from":{"name":"boul. Saguenay / Ste-Anne","stopId":"1:160","stopCode":"160","lon":-71.069701,"lat":48.429464,"arrival":1522703186000,"departure":1522703187000,"zoneId":"NA","stopIndex":31,"stopSequence":32,"vertexType":"TRANSIT"},"to":{"name":"Destination","lon":-71.071102,"lat":48.426011,"arrival":1522703587000,"orig":"","vertexType":"NORMAL"},"legGeometry":{"points":"s{qfHrxwpLAZGxEDl@Ph@DDLNn@^n@CpAQn@CtBI~AI|@CjAJP?RBJBH?TD","length":20},"rentedBike":false,"transitLeg":false,"duration":400.0,"steps":[{"distance":90.943,"relativeDirection":"DEPART","streetName":"Boulevard du Saguenay Ouest","absoluteDirection":"WEST","stayOn":false,"area":false,"bogusName":false,"lon":-71.06969134971845,"lat":48.42954562670822,"elevation":[]},{"distance":78.91,"relativeDirection":"CONTINUE","streetName":"link","absoluteDirection":"WEST","stayOn":false,"area":false,"bogusName":true,"lon":-71.07092130000001,"lat":48.429599100000004,"elevation":[]},{"distance":341.613,"relativeDirection":"SLIGHTLY_LEFT","streetName":"Rue Montcalm","absoluteDirection":"SOUTH","stayOn":false,"area":false,"bogusName":false,"lon":-71.07163890000001,"lat":48.4291351,"elevation":[]}]}],"tooSloped":false}]},"debugOutput":{"precalculationTime":31,"pathCalculationTime":16,"pathTimes":[10,4,2],"renderingTime":1,"totalTime":48,"timedOut":false},"elevationMetadata":{"ellipsoidToGeoidDifference":-28.885904201182168,"geoidElevation":false}}