{"requestParameters":{"date":"2018/04/02","walkSpeed":"1.33","walkReluctance":"2.0","fromPlace":"48.440721,-71.078607","maxWalkDistance":"3000","waitReluctance":"1.0","carSpeed":"33","numItineraries":"3","waitAtBeginningFactor":"0.4","mode":"TRANSIT,WALK","ignoreRealtimeUpdates":"false","stairsReluctance":"2.0","toPlace":"48.446148,-71.087843","time":"11:45:00"},"plan":{"date":1522683900000,"from":{"name":"Origin","lon":-71.078607,"lat":48.440721,"orig":"","vertexType":"NORMAL"},"to":{"name":"Destination","lon":-71.087843,"lat":48.446148,"orig":"","vertexType":"NORMAL"},"itineraries":[{"duration":265,"startTime":1522684302000,"endTime":1522684567000,"walkTime":114,"transitTime":149,"waitingTime":2,"walkDistance":144.87579699187467,"walkLimitExceeded":false,"elevationLost":0.0,"elevationGained":0.0,"transfers":0,"legs":[{"startTime":1522684302000,"endTime":1522684319000,"departureDelay":0,"arrivalDelay":0,"realTime":false,"distance":19.386,"pathway":false,"mode":"WALK","route":"","agencyTimeZoneOffset":-14400000,"interlineWithPreviousLeg":false,"from":{"name":"Origin","lon":-71.078607,"lat":48.440721,"departure":1522684302000,"orig":"","vertexType":"NORMAL"},"to":{"name":"Église Ste-Anne (Roussel / Hofman)","stopId":"1:679","stopCode":"679","lon":-71.07909,"lat":48.440248,"arrival":1522684319000,"departure":1522684320000,"zoneId":"NA","stopIndex":4,"stopSequence":5,"vertexType":"TRANSIT"},"legGeometry":{"points":"a_tfHztypLX_@@A","length":3},"rentedBike":false,"transitLeg":false,"duration":17.0,"steps":[{"distance":19.386,"relativeDirection":"DEPART","streetName":"Rue Roussel","absoluteDirection":"SOUTHEAST","stayOn":false,"area":false,"bogusName":false,"lon":-71.07933278198604,"lat":48.440334583580004,"elevation":[]}]},{"startTime":1522684320000,"endTime":1522684469000,"departureDelay":0,"arrivalDelay":0,"realTime":false,"distance":969.3646330539672,"pathway":false,"mode":"BUS","route":"20","agencyName":"Société de Transport du Saguenay","agencyUrl":"http://ville.saguenay.ca/fr/services-aux-citoyens/transport-sts","agencyTimeZoneOffset":-14400000,"routeColor":"0000FF","routeType":3,"routeId":"1:20","routeTextColor":"FFFFFF","interlineWithPreviousLeg":false,"tripBlockId":"3","headsign":"Terminus Chicoutimi","agencyId":"0","tripId":"1:217197","serviceDate":"20180402","from":{"name":"Église Ste-Anne (Roussel / Hofman)","stopId":"1:679","stopCode":"679","lon":-71.07909,"lat":48.440248,"arrival":1522684319000,"departure":1522684320000,"zoneId":"NA","stopIndex":4,"stopSequence":5,"vertexType":"TRANSIT"},"to":{"name":"St-Armand / St-Denis","stopId":"1:683","stopCode":"683","lon":-71.08776,"lat":48.445141,"arrival":1522684469000,"departure":1522684470000,"zoneId":"NA","stopIndex":8,"stopSequence":9,"vertexType":"TRANSIT"},"legGeometry":{"points":"g~sfHxsypLkA~A}@nAu@IIAe@Cs@Fy@DWA[EUGyCgAU~@Sx@{A`FyBfHmDjJCDEVE`B?vFBjC@ZFX\\j@","length":25},"routeShortName":"20","routeLongName":"Sainte-Claire","rentedBike":false,"transitLeg":true,"duration":149.0,"steps":[]},{"startTime":1522684470000,"endTime":1522684567000,"departureDelay":0,"arrivalDelay":0,"realTime":false,"distance":125.471,"pathway":false,"mode":"WALK","route":"","agencyTimeZoneOffset":-14400000,"interlineWithPreviousLeg":false,"from":{"name":"St-Armand / St-Denis","stopId":"1:683","stopCode":"683","lon":-71.08776,"lat":48.445141,"arrival":1522684469000,"departure":1522684470000,"zoneId":"NA","stopIndex":8,"stopSequence":9,"vertexType":"TRANSIT"},"to":{"name":"Destination","lon":-71.087843,"lat":48.446148,"arrival":1522684567000,"orig":"","vertexType":"NORMAL"},"legGeometry":{"points":"}|tfHfi{pLe@u@iDLC@","length":4},"rentedBike":false,"transitLeg":false,"duration":97.0,"steps":[{"distance":28.96,"relativeDirection":"DEPART","streetName":"Rue Saint-Denis","absoluteDirection":"NORTHEAST","stayOn":false,"area":false,"bogusName":false,"lon":-71.08771063731606,"lat":48.44511122383417,"elevation":[]},{"distance":96.511,"relativeDirection":"LEFT","streetName":"Rue Saint-Denis","absoluteDirection":"NORTH","stayOn":true,"area":false,"bogusName":false,"lon":-71.0874465,"lat":48.445303900000006,"elevation":[]}]}],"tooSloped":false},{"duration":811,"startTime":1522683900000,"endTime":1522684711000,"walkTime":811,"transitTime":0,"waitingTime":0,"walkDistance":1042.8328120260476,"walkLimitExceeded":false,"elevationLost":0.0,"elevationGained":0.0,"transfers":0,"legs":[{"startTime":1522683900000,"endTime":1522684711000,"departureDelay":0,"arrivalDelay":0,"realTime":false,"distance":1042.708,"pathway":false,"mode":"WALK","route":"","agencyTimeZoneOffset":-14400000,"interlineWithPreviousLeg":false,"from":{"name":"Origin","lon":-71.078607,"lat":48.440721,"departure":1522683900000,"orig":"","vertexType":"NORMAL"},"to":{"name":"Destination","lon":-71.087843,"lat":48.446148,"arrival":1522684711000,"orig":"","vertexType":"NORMAL"},"legGeometry":{"points":"a_tfHztypLgB|BMPi@ME??AMA]?_@?a@Bc@?Y@e@E[EOEaBrF_B|EyAtE]jAeAdDMl@]PsAj@y@\\OHDxFBpD@HiDLC@","length":30},"alerts":[{"alertHeaderText":"Unpaved surface"}],"rentedBike":false,"transitLeg":false,"duration":811.0,"steps":[{"distance":84.551,"relativeDirection":"DEPART","streetName":"Rue Roussel","absoluteDirection":"NORTHWEST","stayOn":false,"area":false,"bogusName":false,"lon":-71.07933278198604,"lat":48.440334583580004,"elevation":[]},{"distance":168.445,"relativeDirection":"RIGHT","streetName":"Rue Saint-Albert","absoluteDirection":"NORTH","stayOn":false,"area":false,"bogusName":false,"lon":-71.0800502,"lat":48.4409276,"elevation":[]},{"distance":420.35699999999997,"relativeDirection":"LEFT","streetName":"Rue Monseigneur-Martel","absoluteDirection":"NORTHWEST","stayOn":false,"area":false,"bogusName":false,"lon":-71.07990600000001,"lat":48.4424318,"elevation":[]},{"distance":111.072,"relativeDirection":"RIGHT","streetName":"Rue Sainte-Marie Sud","absoluteDirection":"NORTH","stayOn":false,"area":false,"bogusName":false,"lon":-71.08474960000001,"lat":48.444420300000004,"elevation":[],"alerts":[{"alertHeaderText":"Unpaved surface"}]},{"distance":161.772,"relativeDirection":"LEFT","streetName":"Rue Saint-Armand","absoluteDirection":"WEST","stayOn":false,"area":false,"bogusName":false,"lon":-71.0852564,"lat":48.4453605,"elevation":[]},{"distance":96.511,"relativeDirection":"RIGHT","streetName":"Rue Saint-Denis","absoluteDirection":"NORTH","stayOn":false,"area":false,"bogusName":false,"lon":-71.0874465,"lat":48.445303900000006,"elevation":[]}]}],"tooSloped":false},{"duration":265,"startTime":1522686102000,"endTime":1522686367000,"walkTime":114,"transitTime":149,"waitingTime":2,"walkDistance":144.87579699187467,"walkLimitExceeded":false,"elevationLost":0.0,"elevationGained":0.0,"transfers":0,"legs":[{"startTime":1522686102000,"endTime":1522686119000,"departureDelay":0,"arrivalDelay":0,"realTime":false,"distance":19.386,"pathway":false,"mode":"WALK","route":"","agencyTimeZoneOffset":-14400000,"interlineWithPreviousLeg":false,"from":{"name":"Origin","lon":-71.078607,"lat":48.440721,"departure":1522686102000,"orig":"","vertexType":"NORMAL"},"to":{"name":"Église Ste-Anne (Roussel / Hofman)","stopId":"1:679","stopCode":"679","lon":-71.07909,"lat":48.440248,"arrival":1522686119000,"departure":1522686120000,"zoneId":"NA","stopIndex":4,"stopSequence":5,"vertexType":"TRANSIT"},"legGeometry":{"points":"a_tfHztypLX_@@A","length":3},"rentedBike":false,"transitLeg":false,"duration":17.0,"steps":[{"distance":19.386,"relativeDirection":"DEPART","streetName":"Rue Roussel","absoluteDirection":"SOUTHEAST","stayOn":false,"area":false,"bogusName":false,"lon":-71.07933278198604,"lat":48.440334583580004,"elevation":[]}]},{"startTime":1522686120000,"endTime":1522686269000,"departureDelay":0,"arrivalDelay":0,"realTime":false,"distance":969.3646330539672,"pathway":false,"mode":"BUS","route":"20","agencyName":"Société de Transport du Saguenay","agencyUrl":"http://ville.saguenay.ca/fr/services-aux-citoyens/transport-sts","agencyTimeZoneOffset":-14400000,"routeColor":"0000FF","routeType":3,"routeId":"1:20","routeTextColor":"FFFFFF","interlineWithPreviousLeg":false,"tripBlockId":"1","headsign":"Terminus Chicoutimi","agencyId":"0","tripId":"1:217141","serviceDate":"20180402","from":{"name":"Église Ste-Anne (Roussel / Hofman)","stopId":"1:679","stopCode":"679","lon":-71.07909,"lat":48.440248,"arrival":1522686119000,"departure":1522686120000,"zoneId":"NA","stopIndex":4,"stopSequence":5,"vertexType":"TRANSIT"},"to":{"name":"St-Armand / St-Denis","stopId":"1:683","stopCode":"683","lon":-71.08776,"lat":48.445141,"arrival":1522686269000,"departure":1522686270000,"zoneId":"NA","stopIndex":8,"stopSequence":9,"vertexType":"TRANSIT"},"legGeometry":{"points":"g~sfHxsypLkA~A}@nAu@IIAe@Cs@Fy@DWA[EUGyCgAU~@Sx@{A`FyBfHmDjJCDEVE`B?vFBjC@ZFX\\j@","length":25},"routeShortName":"20","routeLongName":"Sainte-Claire","rentedBike":false,"transitLeg":true,"duration":149.0,"steps":[]},{"startTime":1522686270000,"endTime":1522686367000,"departureDelay":0,"arrivalDelay":0,"realTime":false,"distance":125.471,"pathway":false,"mode":"WALK","route":"","agencyTimeZoneOffset":-14400000,"interlineWithPreviousLeg":false,"from":{"name":"St-Armand / St-Denis","stopId":"1:683","stopCode":"683","lon":-71.08776,"lat":48.445141,"arrival":1522686269000,"departure":1522686270000,"zoneId":"NA","stopIndex":8,"stopSequence":9,"vertexType":"TRANSIT"},"to":{"name":"Destination","lon":-71.087843,"lat":48.446148,"arrival":1522686367000,"orig":"","vertexType":"NORMAL"},"legGeometry":{"points":"}|tfHfi{pLe@u@iDLC@","length":4},"rentedBike":false,"transitLeg":false,"duration":97.0,"steps":[{"distance":28.96,"relativeDirection":"DEPART","streetName":"Rue Saint-Denis","absoluteDirection":"NORTHEAST","stayOn":false,"area":false,"bogusName":false,"lon":-71.08771063731606,"lat":48.44511122383417,"elevation":[]},{"distance":96.511,"relativeDirection":"LEFT","streetName":"Rue Saint-Denis","absoluteDirection":"NORTH","stayOn":true,"area":false,"bogusName":false,"lon":-71.0874465,"lat":48.445303900000006,"elevation":[]}]}],"tooSloped":false}]},"debugOutput":{"precalculationTime":13,"pathCalculationTime":15,"pathTimes":[6,5,4],"renderingTime":0,"totalTime":28,"timedOut":false},"elevationMetadata":{"ellipsoidToGeoidDifference":-28.885904201182168,"geoidElevation":false}}