{"requestParameters":{"date":"2018/04/02","walkSpeed":"1.33","walkReluctance":"2.0","fromPlace":"48.451406,-71.093745","maxWalkDistance":"3000","waitReluctance":"1.0","carSpeed":"33","numItineraries":"3","waitAtBeginningFactor":"0.4","mode":"TRANSIT,WALK","ignoreRealtimeUpdates":"false","stairsReluctance":"2.0","toPlace":"48.437535,-71.066214","time":"12:10:00"},"plan":{"date":1522685400000,"from":{"name":"Origin","lon":-71.093745,"lat":48.451406,"orig":"","vertexType":"NORMAL"},"to":{"name":"Destination","lon":-71.066214,"lat":48.437535,"orig":"","vertexType":"NORMAL"},"itineraries":[{"duration":927,"startTime":1522686736000,"endTime":1522687663000,"walkTime":762,"transitTime":163,"waitingTime":2,"walkDistance":969.0012857073713,"walkLimitExceeded":false,"elevationLost":0.0,"elevationGained":0.0,"transfers":0,"legs":[{"startTime":1522686736000,"endTime":1522686796000,"departureDelay":0,"arrivalDelay":0,"realTime":false,"distance":69.89500000000001,"pathway":false,"mode":"WALK","route":"","agencyTimeZoneOffset":-14400000,"interlineWithPreviousLeg":false,"from":{"name":"Origin","lon":-71.093745,"lat":48.451406,"departure":1522686736000,"orig":"","vertexType":"NORMAL"},"to":{"name":"boul. Ste-Geneviève / St-Sauveur","stopId":"1:725","stopCode":"725","lon":-71.094112,"lat":48.451823,"arrival":1522686796000,"departure":1522686797000,"zoneId":"NA","stopIndex":27,"stopSequence":28,"vertexType":"TRANSIT"},"legGeometry":{"points":"qdvfHrp|pLkA]QCEj@","length":4},"rentedBike":false,"transitLeg":false,"duration":60.0,"steps":[{"distance":53.523,"relativeDirection":"DEPART","streetName":"Rue Saint-Sauveur","absoluteDirection":"NORTH","stayOn":false,"area":false,"bogusName":false,"lon":-71.0940180983889,"lat":48.451453952790814,"elevation":[]},{"distance":16.372,"relativeDirection":"LEFT","streetName":"Boulevard Sainte-Geneviève","absoluteDirection":"WEST","stayOn":false,"area":false,"bogusName":false,"lon":-71.0938481,"lat":48.4519214,"elevation":[]}]},{"startTime":1522686797000,"endTime":1522686960000,"departureDelay":0,"arrivalDelay":0,"realTime":false,"distance":1811.331126960014,"pathway":false,"mode":"BUS","route":"21","agencyName":"Société de Transport du Saguenay","agencyUrl":"http://ville.saguenay.ca/fr/services-aux-citoyens/transport-sts","agencyTimeZoneOffset":-14400000,"routeColor":"556B2F","routeType":3,"routeId":"1:21","routeTextColor":"FFFFFF","interlineWithPreviousLeg":false,"tripBlockId":"2","headsign":"Terminus Chicoutimi","agencyId":"0","tripId":"1:217167","serviceDate":"20180402","from":{"name":"boul. Ste-Geneviève / St-Sauveur","stopId":"1:725","stopCode":"725","lon":-71.094112,"lat":48.451823,"arrival":1522686796000,"departure":1522686797000,"zoneId":"NA","stopIndex":27,"stopSequence":28,"vertexType":"TRANSIT"},"to":{"name":"boul. Ste-Geneviève (no. 453)","stopId":"1:736","stopCode":"736","lon":-71.0749,"lat":48.4422,"arrival":1522686960000,"departure":1522686961000,"zoneId":"NA","stopIndex":32,"stopSequence":33,"vertexType":"TRANSIT"},"legGeometry":{"points":"mgvfH~p|pLDi@b@iExAsO@E^qBt@}CJGnAmDx@iBpAcCb@o@Zi@h@o@`AiArFkG`FgGdBwBt@cAbAmBx@eBj@eB`CoHpCyJbAmCtAuCZg@|@gB","length":28},"routeShortName":"21","routeLongName":"Boul. Ste-Geneviève/Élie","rentedBike":false,"transitLeg":true,"duration":163.0,"steps":[]},{"startTime":1522686961000,"endTime":1522687663000,"departureDelay":0,"arrivalDelay":0,"realTime":false,"distance":898.892,"pathway":false,"mode":"WALK","route":"","agencyTimeZoneOffset":-14400000,"interlineWithPreviousLeg":false,"from":{"name":"boul. Ste-Geneviève (no. 453)","stopId":"1:736","stopCode":"736","lon":-71.0749,"lat":48.4422,"arrival":1522686960000,"departure":1522686961000,"zoneId":"NA","stopIndex":32,"stopSequence":33,"vertexType":"TRANSIT"},"to":{"name":"Destination","lon":-71.066214,"lat":48.437535,"arrival":1522687663000,"orig":"","vertexType":"NORMAL"},"legGeometry":{"points":"yjtfH`yxpLrAiCSS`IiOzAwCvAoCb@{@h@{@Re@Xk@Zm@v@uAvAcCt@y@d@_@J??E@EBC@CBAD?BwCu@I","length":24},"rentedBike":false,"transitLeg":false,"duration":702.0,"steps":[{"distance":555.585,"relativeDirection":"DEPART","streetName":"Boulevard Sainte-Geneviève","absoluteDirection":"SOUTHEAST","stayOn":false,"area":false,"bogusName":false,"lon":-71.07488215191115,"lat":48.442212866844194,"elevation":[]},{"distance":243.155,"relativeDirection":"CONTINUE","streetName":"R 172","absoluteDirection":"SOUTHEAST","stayOn":false,"area":false,"bogusName":true,"lon":-71.0694016,"lat":48.4389935,"elevation":[]},{"distance":14.306,"relativeDirection":"CIRCLE_CLOCKWISE","streetName":"Rue Roussel","absoluteDirection":"SOUTHEAST","exit":"1","stayOn":false,"area":false,"bogusName":false,"lon":-71.0672278,"lat":48.4373869,"elevation":[]},{"distance":55.58,"relativeDirection":"LEFT","streetName":"Rue Roussel","absoluteDirection":"EAST","stayOn":false,"area":false,"bogusName":false,"lon":-71.0671123,"lat":48.437299200000005,"elevation":[]},{"distance":30.266,"relativeDirection":"LEFT","streetName":"Rue Saint-Ambroise","absoluteDirection":"NORTH","stayOn":false,"area":false,"bogusName":false,"lon":-71.06635990000001,"lat":48.4372732,"elevation":[]}]}],"tooSloped":false},{"duration":841,"startTime":1522687302000,"endTime":1522688143000,"walkTime":762,"transitTime":77,"waitingTime":2,"walkDistance":969.0012857073713,"walkLimitExceeded":false,"elevationLost":0.0,"elevationGained":0.0,"transfers":0,"legs":[{"startTime":1522687302000,"endTime":1522687362000,"departureDelay":0,"arrivalDelay":0,"realTime":false,"distance":69.89500000000001,"pathway":false,"mode":"WALK","route":"","agencyTimeZoneOffset":-14400000,"interlineWithPreviousLeg":false,"from":{"name":"Origin","lon":-71.093745,"lat":48.451406,"departure":1522687302000,"orig":"","vertexType":"NORMAL"},"to":{"name":"boul. Ste-Geneviève / St-Sauveur","stopId":"1:725","stopCode":"725","lon":-71.094112,"lat":48.451823,"arrival":1522687362000,"departure":1522687363000,"zoneId":"NA","stopIndex":19,"stopSequence":20,"vertexType":"TRANSIT"},"legGeometry":{"points":"qdvfHrp|pLkA]QCEj@","length":4},"rentedBike":false,"transitLeg":false,"duration":60.0,"steps":[{"distance":53.523,"relativeDirection":"DEPART","streetName":"Rue Saint-Sauveur","absoluteDirection":"NORTH","stayOn":false,"area":false,"bogusName":false,"lon":-71.0940180983889,"lat":48.451453952790814,"elevation":[]},{"distance":16.372,"relativeDirection":"LEFT","streetName":"Boulevard Sainte-Geneviève","absoluteDirection":"WEST","stayOn":false,"area":false,"bogusName":false,"lon":-71.0938481,"lat":48.4519214,"elevation":[]}]},{"startTime":1522687363000,"endTime":1522687440000,"departureDelay":0,"arrivalDelay":0,"realTime":false,"distance":1811.331126960014,"pathway":false,"mode":"BUS","route":"65","agencyName":"Société de Transport du Saguenay","agencyUrl":"http://ville.saguenay.ca/fr/services-aux-citoyens/transport-sts","agencyTimeZoneOffset":-14400000,"routeColor":"00FFFF","routeType":3,"routeId":"1:65","routeTextColor":"000000","interlineWithPreviousLeg":false,"tripBlockId":"75","headsign":"UQAC","agencyId":"0","tripId":"1:218627","serviceDate":"20180402","from":{"name":"boul. Ste-Geneviève / St-Sauveur","stopId":"1:725","stopCode":"725","lon":-71.094112,"lat":48.451823,"arrival":1522687362000,"departure":1522687363000,"zoneId":"NA","stopIndex":19,"stopSequence":20,"vertexType":"TRANSIT"},"to":{"name":"boul. Ste-Geneviève (no. 453)","stopId":"1:736","stopCode":"736","lon":-71.0749,"lat":48.4422,"arrival":1522687440000,"departure":1522687441000,"zoneId":"NA","stopIndex":24,"stopSequence":25,"vertexType":"TRANSIT"},"legGeometry":{"points":"ogvfH~p|pLfCgW?E^qBt@}CJGnAmDx@iBpAcCb@o@Zi@h@o@`AiArFkG`FgGdBwBt@cAbAmBx@eBj@eB`CoHpCyJbAmCtAuCZg@|@gB","length":26},"routeShortName":"65","routeLongName":"Term. Chic / Shipshaw","rentedBike":false,"transitLeg":true,"duration":77.0,"steps":[]},{"startTime":1522687441000,"endTime":1522688143000,"departureDelay":0,"arrivalDelay":0,"realTime":false,"distance":898.892,"pathway":false,"mode":"WALK","route":"","agencyTimeZoneOffset":-14400000,"interlineWithPreviousLeg":false,"from":{"name":"boul. Ste-Geneviève (no. 453)","stopId":"1:736","stopCode":"736","lon":-71.0749,"lat":48.4422,"arrival":1522687440000,"departure":1522687441000,"zoneId":"NA","stopIndex":24,"stopSequence":25,"vertexType":"TRANSIT"},"to":{"name":"Destination","lon":-71.066214,"lat":48.437535,"arrival":1522688143000,"orig":"","vertexType":"NORMAL"},"legGeometry":{"points":"yjtfH`yxpLrAiCSS`IiOzAwCvAoCb@{@h@{@Re@Xk@Zm@v@uAvAcCt@y@d@_@J??E@EBC@CBAD?BwCu@I","length":24},"rentedBike":false,"transitLeg":false,"duration":702.0,"steps":[{"distance":555.585,"relativeDirection":"DEPART","streetName":"Boulevard Sainte-Geneviève","absoluteDirection":"SOUTHEAST","stayOn":false,"area":false,"bogusName":false,"lon":-71.07488215191115,"lat":48.442212866844194,"elevation":[]},{"distance":243.155,"relativeDirection":"CONTINUE","streetName":"R 172","absoluteDirection":"SOUTHEAST","stayOn":false,"area":false,"bogusName":true,"lon":-71.0694016,"lat":48.4389935,"elevation":[]},{"distance":14.306,"relativeDirection":"CIRCLE_CLOCKWISE","streetName":"Rue Roussel","absoluteDirection":"SOUTHEAST","exit":"1","stayOn":false,"area":false,"bogusName":false,"lon":-71.0672278,"lat":48.4373869,"elevation":[]},{"distance":55.58,"relativeDirection":"LEFT","streetName":"Rue Roussel","absoluteDirection":"EAST","stayOn":false,"area":false,"bogusName":false,"lon":-71.0671123,"lat":48.437299200000005,"elevation":[]},{"distance":30.266,"relativeDirection":"LEFT","streetName":"Rue Saint-Ambroise","absoluteDirection":"NORTH","stayOn":false,"area":false,"bogusName":false,"lon":-71.06635990000001,"lat":48.4372732,"elevation":[]}]}],"tooSloped":false},{"duration":870,"startTime":1522687333000,"endTime":1522688203000,"walkTime":762,"transitTime":106,"waitingTime":2,"walkDistance":969.0012857073713,"walkLimitExceeded":false,"elevationLost":0.0,"elevationGained":0.0,"transfers":0,"legs":[{"startTime":1522687333000,"endTime":1522687393000,"departureDelay":0,"arrivalDelay":0,"realTime":false,"distance":69.89500000000001,"pathway":false,"mode":"WALK","route":"","agencyTimeZoneOffset":-14400000,"interlineWithPreviousLeg":false,"from":{"name":"Origin","lon":-71.093745,"lat":48.451406,"departure":1522687333000,"orig":"","vertexType":"NORMAL"},"to":{"name":"boul. Ste-Geneviève / St-Sauveur","stopId":"1:725","stopCode":"725","lon":-71.094112,"lat":48.451823,"arrival":1522687393000,"departure":1522687394000,"zoneId":"NA","stopIndex":7,"stopSequence":8,"vertexType":"TRANSIT"},"legGeometry":{"points":"qdvfHrp|pLkA]QCEj@","length":4},"rentedBike":false,"transitLeg":false,"duration":60.0,"steps":[{"distance":53.523,"relativeDirection":"DEPART","streetName":"Rue Saint-Sauveur","absoluteDirection":"NORTH","stayOn":false,"area":false,"bogusName":false,"lon":-71.0940180983889,"lat":48.451453952790814,"elevation":[]},{"distance":16.372,"relativeDirection":"LEFT","streetName":"Boulevard Sainte-Geneviève","absoluteDirection":"WEST","stayOn":false,"area":false,"bogusName":false,"lon":-71.0938481,"lat":48.4519214,"elevation":[]}]},{"startTime":1522687394000,"endTime":1522687500000,"departureDelay":0,"arrivalDelay":0,"realTime":false,"distance":1797.268383830593,"pathway":false,"mode":"BUS","route":"27","agencyName":"Société de Transport du Saguenay","agencyUrl":"http://ville.saguenay.ca/fr/services-aux-citoyens/transport-sts","agencyTimeZoneOffset":-14400000,"routeColor":"00FFFF","routeType":3,"routeId":"1:27","routeTextColor":"000000","interlineWithPreviousLeg":false,"tripBlockId":"98","headsign":"Place du Royaume","agencyId":"0","tripId":"1:218746","serviceDate":"20180402","from":{"name":"boul. Ste-Geneviève / St-Sauveur","stopId":"1:725","stopCode":"725","lon":-71.094112,"lat":48.451823,"arrival":1522687393000,"departure":1522687394000,"zoneId":"NA","stopIndex":7,"stopSequence":8,"vertexType":"TRANSIT"},"to":{"name":"boul. Ste-Geneviève (no. 453)","stopId":"1:736","stopCode":"736","lon":-71.0749,"lat":48.4422,"arrival":1522687500000,"departure":1522687501000,"zoneId":"NA","stopIndex":11,"stopSequence":12,"vertexType":"TRANSIT"},"legGeometry":{"points":"qgvfH|p|pL@Gr@gIhAgLpA{FxAcFxCyFlDaEDGdGoHhE}EBEzB{CpB}CtAsDJYlDsLtB{GzEmJ","length":19},"routeShortName":"27","routeLongName":"St-Honoré","rentedBike":false,"transitLeg":true,"duration":106.0,"steps":[]},{"startTime":1522687501000,"endTime":1522688203000,"departureDelay":0,"arrivalDelay":0,"realTime":false,"distance":898.892,"pathway":false,"mode":"WALK","route":"","agencyTimeZoneOffset":-14400000,"interlineWithPreviousLeg":false,"from":{"name":"boul. Ste-Geneviève (no. 453)","stopId":"1:736","stopCode":"736","lon":-71.0749,"lat":48.4422,"arrival":1522687500000,"departure":1522687501000,"zoneId":"NA","stopIndex":11,"stopSequence":12,"vertexType":"TRANSIT"},"to":{"name":"Destination","lon":-71.066214,"lat":48.437535,"arrival":1522688203000,"orig":"","vertexType":"NORMAL"},"legGeometry":{"points":"yjtfH`yxpLrAiCSS`IiOzAwCvAoCb@{@h@{@Re@Xk@Zm@v@uAvAcCt@y@d@_@J??E@EBC@CBAD?BwCu@I","length":24},"rentedBike":false,"transitLeg":false,"duration":702.0,"steps":[{"distance":555.585,"relativeDirection":"DEPART","streetName":"Boulevard Sainte-Geneviève","absoluteDirection":"SOUTHEAST","stayOn":false,"area":false,"bogusName":false,"lon":-71.07488215191115,"lat":48.442212866844194,"elevation":[]},{"distance":243.155,"relativeDirection":"CONTINUE","streetName":"R 172","absoluteDirection":"SOUTHEAST","stayOn":false,"area":false,"bogusName":true,"lon":-71.0694016,"lat":48.4389935,"elevation":[]},{"distance":14.306,"relativeDirection":"CIRCLE_CLOCKWISE","streetName":"Rue Roussel","absoluteDirection":"SOUTHEAST","exit":"1","stayOn":false,"area":false,"bogusName":false,"lon":-71.0672278,"lat":48.4373869,"elevation":[]},{"distance":55.58,"relativeDirection":"LEFT","streetName":"Rue Roussel","absoluteDirection":"EAST","stayOn":false,"area":false,"bogusName":false,"lon":-71.0671123,"lat":48.437299200000005,"elevation":[]},{"distance":30.266,"relativeDirection":"LEFT","streetName":"Rue Saint-Ambroise","absoluteDirection":"NORTH","stayOn":false,"area":false,"bogusName":false,"lon":-71.06635990000001,"lat":48.4372732,"elevation":[]}]}],"tooSloped":false}]},"debugOutput":{"precalculationTime":17,"pathCalculationTime":17,"pathTimes":[13,3,1],"renderingTime":1,"totalTime":35,"timedOut":false},"elevationMetadata":{"ellipsoidToGeoidDifference":-28.885904201182168,"geoidElevation":false}}