{"requestParameters":{"date":"2018/04/02","walkSpeed":"1.33","walkReluctance":"2.0","fromPlace":"48.455397,-71.112991","maxWalkDistance":"3000","waitReluctance":"1.0","carSpeed":"33","numItineraries":"3","waitAtBeginningFactor":"0.4","mode":"TRANSIT,WALK","ignoreRealtimeUpdates":"false","stairsReluctance":"2.0","toPlace":"48.440318,-71.07761499","time":"7:30:00"},"plan":{"date":1522668600000,"from":{"name":"Origin","lon":-71.112991,"lat":48.455397,"orig":"","vertexType":"NORMAL"},"to":{"name":"Destination","lon":-71.07761499,"lat":48.440318,"orig":"","vertexType":"NORMAL"},"itineraries":[{"duration":1662,"startTime":1522669167000,"endTime":1522670829000,"walkTime":1258,"transitTime":402,"waitingTime":2,"walkDistance":1633.8080451073592,"walkLimitExceeded":false,"elevationLost":0.0,"elevationGained":0.0,"transfers":0,"legs":[{"startTime":1522669167000,"endTime":1522670297000,"departureDelay":0,"arrivalDelay":0,"realTime":false,"distance":1471.785,"pathway":false,"mode":"WALK","route":"","agencyTimeZoneOffset":-14400000,"interlineWithPreviousLeg":false,"from":{"name":"Origin","lon":-71.112991,"lat":48.455397,"departure":1522669167000,"orig":"","vertexType":"NORMAL"},"to":{"name":"Chapleau / Ste-Catherine","stopId":"1:691","stopCode":"691","lon":-71.103068,"lat":48.447954,"arrival":1522670297000,"departure":1522670298000,"zoneId":"NA","stopIndex":15,"stopSequence":16,"vertexType":"TRANSIT"},"legGeometry":{"points":"y{vfHvg`qLfAyLN_B@KNcBdAaLVqCFk@N_Bl@{G`@uD~Br@r@}FhA`@nCdAfCd@xBRb@c@|An@`@\\PtARDn@o@zAqA\\OVOPMJEDEFCDGLSPULU?A","length":35},"rentedBike":false,"transitLeg":false,"duration":1130.0,"steps":[{"distance":691.5659999999999,"relativeDirection":"DEPART","streetName":"Boulevard Sainte-Geneviève","absoluteDirection":"EAST","stayOn":false,"area":false,"bogusName":false,"lon":-71.11307382718124,"lat":48.45517147433694,"elevation":[]},{"distance":73.975,"relativeDirection":"RIGHT","streetName":"Rue Dumais","absoluteDirection":"SOUTH","stayOn":false,"area":false,"bogusName":false,"lon":-71.10397780000001,"lat":48.453659200000004,"elevation":[]},{"distance":515.768,"relativeDirection":"LEFT","streetName":"path","absoluteDirection":"EAST","stayOn":false,"area":false,"bogusName":true,"lon":-71.1042335,"lat":48.453015900000004,"elevation":[]},{"distance":190.476,"relativeDirection":"LEFT","streetName":"Rue Chapleau","absoluteDirection":"SOUTHEAST","stayOn":false,"area":false,"bogusName":false,"lon":-71.10444170000001,"lat":48.449363700000006,"elevation":[]}]},{"startTime":1522670298000,"endTime":1522670700000,"departureDelay":0,"arrivalDelay":0,"realTime":false,"distance":2370.593436219416,"pathway":false,"mode":"BUS","route":"20","agencyName":"Société de Transport du Saguenay","agencyUrl":"http://ville.saguenay.ca/fr/services-aux-citoyens/transport-sts","agencyTimeZoneOffset":-14400000,"routeColor":"0000FF","routeType":3,"routeId":"1:20","routeTextColor":"FFFFFF","interlineWithPreviousLeg":false,"tripBlockId":"3","headsign":"Terminus Chicoutimi","agencyId":"0","tripId":"1:217189","serviceDate":"20180402","from":{"name":"Chapleau / Ste-Catherine","stopId":"1:691","stopCode":"691","lon":-71.103068,"lat":48.447954,"arrival":1522670297000,"departure":1522670298000,"zoneId":"NA","stopIndex":15,"stopSequence":16,"vertexType":"TRANSIT"},"to":{"name":"Église Sainte-Anne (Roussel / Fabrique)","stopId":"1:701","stopCode":"701","lon":-71.078824,"lat":48.439832,"arrival":1522670700000,"departure":1522670701000,"zoneId":"NA","stopIndex":26,"stopSequence":27,"vertexType":"TRANSIT"},"legGeometry":{"points":"mnufHpi~pLQ\\a@d@w@aCCQAO@ODOHQDSDWLoDRgGBMFMHIHAfBNDuA@wA?WGk@Ga@KY_A_CRc@PYNYUk@Q[O]KYC]_AaQYwF?W?Y?UBc@D_@d@{DNaAB]@O@]?}BbA?hA?A}I?iEEcEjBCzBEd@Cf@Gj@MZMb@S`Ag@DClAk@f@Qv@Ov@IlBCnBa@TCTBjBPH@LiCDe@Lw@|@cELo@D[Dk@@[@uC@SBUDQFSt@yAHIr@eAjAaB`AqA","length":88},"routeShortName":"20","routeLongName":"Sainte-Claire","rentedBike":false,"transitLeg":true,"duration":402.0,"steps":[]},{"startTime":1522670701000,"endTime":1522670829000,"departureDelay":0,"arrivalDelay":0,"realTime":false,"distance":161.855,"pathway":false,"mode":"WALK","route":"","agencyTimeZoneOffset":-14400000,"interlineWithPreviousLeg":false,"from":{"name":"Église Sainte-Anne (Roussel / Fabrique)","stopId":"1:701","stopCode":"701","lon":-71.078824,"lat":48.439832,"arrival":1522670700000,"departure":1522670701000,"zoneId":"NA","stopIndex":26,"stopSequence":27,"vertexType":"TRANSIT"},"to":{"name":"Destination","lon":-71.07761499,"lat":48.440318,"arrival":1522670829000,"orig":"","vertexType":"NORMAL"},"legGeometry":{"points":"i|sfH`qypL\\i@Z[Vc@DKy@wA_A}A","length":7},"rentedBike":false,"transitLeg":false,"duration":128.0,"steps":[{"distance":65.749,"relativeDirection":"DEPART","streetName":"Rue Roussel","absoluteDirection":"SOUTHEAST","stayOn":false,"area":false,"bogusName":false,"lon":-71.07872814012659,"lat":48.439892512674625,"elevation":[]},{"distance":96.106,"relativeDirection":"LEFT","streetName":"Rue Saint-Calixte","absoluteDirection":"NORTHEAST","stayOn":false,"area":false,"bogusName":false,"lon":-71.07813920000001,"lat":48.439451600000005,"elevation":[]}]}],"tooSloped":false},{"duration":777,"startTime":1522670296000,"endTime":1522671073000,"walkTime":478,"transitTime":297,"waitingTime":2,"walkDistance":611.3326466130356,"walkLimitExceeded":false,"elevationLost":0.0,"elevationGained":0.0,"transfers":0,"legs":[{"startTime":1522670296000,"endTime":1522670342000,"departureDelay":0,"arrivalDelay":0,"realTime":false,"distance":59.996,"pathway":false,"mode":"WALK","route":"","agencyTimeZoneOffset":-14400000,"interlineWithPreviousLeg":false,"from":{"name":"Origin","lon":-71.112991,"lat":48.455397,"departure":1522670296000,"orig":"","vertexType":"NORMAL"},"to":{"name":"boul. Ste-Geneviève (no. 1824)","stopId":"1:720","stopCode":"720","lon":-71.113893,"lat":48.455221,"arrival":1522670342000,"departure":1522670343000,"zoneId":"NA","stopIndex":21,"stopSequence":22,"vertexType":"TRANSIT"},"legGeometry":{"points":"y{vfHvg`qLC\\S~B","length":3},"rentedBike":false,"transitLeg":false,"duration":46.0,"steps":[{"distance":59.996,"relativeDirection":"DEPART","streetName":"Boulevard Sainte-Geneviève","absoluteDirection":"WEST","stayOn":false,"area":false,"bogusName":false,"lon":-71.11307382718124,"lat":48.45517147433694,"elevation":[]}]},{"startTime":1522670343000,"endTime":1522670640000,"departureDelay":0,"arrivalDelay":0,"realTime":false,"distance":3318.5101601363085,"pathway":false,"mode":"BUS","route":"21","agencyName":"Société de Transport du Saguenay","agencyUrl":"http://ville.saguenay.ca/fr/services-aux-citoyens/transport-sts","agencyTimeZoneOffset":-14400000,"routeColor":"556B2F","routeType":3,"routeId":"1:21","routeTextColor":"FFFFFF","interlineWithPreviousLeg":false,"tripBlockId":"2","headsign":"Terminus Chicoutimi","agencyId":"0","tripId":"1:217158","serviceDate":"20180402","from":{"name":"boul. Ste-Geneviève (no. 1824)","stopId":"1:720","stopCode":"720","lon":-71.113893,"lat":48.455221,"arrival":1522670342000,"departure":1522670343000,"zoneId":"NA","stopIndex":21,"stopSequence":22,"vertexType":"TRANSIT"},"to":{"name":"boul. Ste-Geneviève (no. 453)","stopId":"1:736","stopCode":"736","lon":-71.0749,"lat":48.4422,"arrival":1522670640000,"departure":1522670641000,"zoneId":"NA","stopIndex":32,"stopSequence":33,"vertexType":"TRANSIT"},"legGeometry":{"points":"o|vfHtl`qL`AwK^}DDi@\\kD~AyQN_BHm@fAeLd@{Et@uHZyC~@sJjAyLJqAZyCP_BZuCDi@b@iExAsO@E^qBt@}CJGnAmDx@iBpAcCb@o@Zi@h@o@`AiArFkG`FgGdBwBt@cAbAmBx@eBj@eB`CoHpCyJbAmCtAuCZg@|@gB","length":45},"routeShortName":"21","routeLongName":"Boul. Ste-Geneviève/Élie","rentedBike":false,"transitLeg":true,"duration":297.0,"steps":[]},{"startTime":1522670641000,"endTime":1522671073000,"departureDelay":0,"arrivalDelay":0,"realTime":false,"distance":551.228,"pathway":false,"mode":"WALK","route":"","agencyTimeZoneOffset":-14400000,"interlineWithPreviousLeg":false,"from":{"name":"boul. Ste-Geneviève (no. 453)","stopId":"1:736","stopCode":"736","lon":-71.0749,"lat":48.4422,"arrival":1522670640000,"departure":1522670641000,"zoneId":"NA","stopIndex":32,"stopSequence":33,"vertexType":"TRANSIT"},"to":{"name":"Destination","lon":-71.07761499,"lat":48.440318,"arrival":1522671073000,"orig":"","vertexType":"NORMAL"},"legGeometry":{"points":"yjtfH`yxpLrAiC^b@LNZLn@GbAo@z@NPDz@bCNd@JTTb@NZFN~@vAHH\\ZcAh@{ApAEJAL?LFJ","length":24},"rentedBike":false,"transitLeg":false,"duration":432.0,"steps":[{"distance":68.751,"relativeDirection":"DEPART","streetName":"Boulevard Sainte-Geneviève","absoluteDirection":"SOUTHEAST","stayOn":false,"area":false,"bogusName":false,"lon":-71.07488215191115,"lat":48.442212866844194,"elevation":[]},{"distance":160.64600000000002,"relativeDirection":"RIGHT","streetName":"Rue des Champs","absoluteDirection":"SOUTHWEST","stayOn":false,"area":false,"bogusName":false,"lon":-71.07419630000001,"lat":48.441794200000004,"elevation":[]},{"distance":199.517,"relativeDirection":"SLIGHTLY_RIGHT","streetName":"Rue des Champs","absoluteDirection":"SOUTHWEST","stayOn":true,"area":false,"bogusName":false,"lon":-71.07435980000001,"lat":48.4404586,"elevation":[]},{"distance":110.843,"relativeDirection":"HARD_RIGHT","streetName":"Rue Frontenac","absoluteDirection":"NORTHWEST","stayOn":false,"area":false,"bogusName":false,"lon":-71.0763494,"lat":48.4392658,"elevation":[]},{"distance":11.471,"relativeDirection":"LEFT","streetName":"Rue Saint-Calixte","absoluteDirection":"WEST","stayOn":false,"area":false,"bogusName":false,"lon":-71.0770979,"lat":48.4401002,"elevation":[]}]}],"tooSloped":false},{"duration":777,"startTime":1522672216000,"endTime":1522672993000,"walkTime":478,"transitTime":297,"waitingTime":2,"walkDistance":611.3326466130356,"walkLimitExceeded":false,"elevationLost":0.0,"elevationGained":0.0,"transfers":0,"legs":[{"startTime":1522672216000,"endTime":1522672262000,"departureDelay":0,"arrivalDelay":0,"realTime":false,"distance":59.996,"pathway":false,"mode":"WALK","route":"","agencyTimeZoneOffset":-14400000,"interlineWithPreviousLeg":false,"from":{"name":"Origin","lon":-71.112991,"lat":48.455397,"departure":1522672216000,"orig":"","vertexType":"NORMAL"},"to":{"name":"boul. Ste-Geneviève (no. 1824)","stopId":"1:720","stopCode":"720","lon":-71.113893,"lat":48.455221,"arrival":1522672262000,"departure":1522672263000,"zoneId":"NA","stopIndex":21,"stopSequence":22,"vertexType":"TRANSIT"},"legGeometry":{"points":"y{vfHvg`qLC\\S~B","length":3},"rentedBike":false,"transitLeg":false,"duration":46.0,"steps":[{"distance":59.996,"relativeDirection":"DEPART","streetName":"Boulevard Sainte-Geneviève","absoluteDirection":"WEST","stayOn":false,"area":false,"bogusName":false,"lon":-71.11307382718124,"lat":48.45517147433694,"elevation":[]}]},{"startTime":1522672263000,"endTime":1522672560000,"departureDelay":0,"arrivalDelay":0,"realTime":false,"distance":3318.5101601363085,"pathway":false,"mode":"BUS","route":"21","agencyName":"Société de Transport du Saguenay","agencyUrl":"http://ville.saguenay.ca/fr/services-aux-citoyens/transport-sts","agencyTimeZoneOffset":-14400000,"routeColor":"556B2F","routeType":3,"routeId":"1:21","routeTextColor":"FFFFFF","interlineWithPreviousLeg":false,"tripBlockId":"2","headsign":"Terminus Chicoutimi","agencyId":"0","tripId":"1:217159","serviceDate":"20180402","from":{"name":"boul. Ste-Geneviève (no. 1824)","stopId":"1:720","stopCode":"720","lon":-71.113893,"lat":48.455221,"arrival":1522672262000,"departure":1522672263000,"zoneId":"NA","stopIndex":21,"stopSequence":22,"vertexType":"TRANSIT"},"to":{"name":"boul. Ste-Geneviève (no. 453)","stopId":"1:736","stopCode":"736","lon":-71.0749,"lat":48.4422,"arrival":1522672560000,"departure":1522672561000,"zoneId":"NA","stopIndex":32,"stopSequence":33,"vertexType":"TRANSIT"},"legGeometry":{"points":"o|vfHtl`qL`AwK^}DDi@\\kD~AyQN_BHm@fAeLd@{Et@uHZyC~@sJjAyLJqAZyCP_BZuCDi@b@iExAsO@E^qBt@}CJGnAmDx@iBpAcCb@o@Zi@h@o@`AiArFkG`FgGdBwBt@cAbAmBx@eBj@eB`CoHpCyJbAmCtAuCZg@|@gB","length":45},"routeShortName":"21","routeLongName":"Boul. Ste-Geneviève/Élie","rentedBike":false,"transitLeg":true,"duration":297.0,"steps":[]},{"startTime":1522672561000,"endTime":1522672993000,"departureDelay":0,"arrivalDelay":0,"realTime":false,"distance":551.228,"pathway":false,"mode":"WALK","route":"","agencyTimeZoneOffset":-14400000,"interlineWithPreviousLeg":false,"from":{"name":"boul. Ste-Geneviève (no. 453)","stopId":"1:736","stopCode":"736","lon":-71.0749,"lat":48.4422,"arrival":1522672560000,"departure":1522672561000,"zoneId":"NA","stopIndex":32,"stopSequence":33,"vertexType":"TRANSIT"},"to":{"name":"Destination","lon":-71.07761499,"lat":48.440318,"arrival":1522672993000,"orig":"","vertexType":"NORMAL"},"legGeometry":{"points":"yjtfH`yxpLrAiC^b@LNZLn@GbAo@z@NPDz@bCNd@JTTb@NZFN~@vAHH\\ZcAh@{ApAEJAL?LFJ","length":24},"rentedBike":false,"transitLeg":false,"duration":432.0,"steps":[{"distance":68.751,"relativeDirection":"DEPART","streetName":"Boulevard Sainte-Geneviève","absoluteDirection":"SOUTHEAST","stayOn":false,"area":false,"bogusName":false,"lon":-71.07488215191115,"lat":48.442212866844194,"elevation":[]},{"distance":160.64600000000002,"relativeDirection":"RIGHT","streetName":"Rue des Champs","absoluteDirection":"SOUTHWEST","stayOn":false,"area":false,"bogusName":false,"lon":-71.07419630000001,"lat":48.441794200000004,"elevation":[]},{"distance":199.517,"relativeDirection":"SLIGHTLY_RIGHT","streetName":"Rue des Champs","absoluteDirection":"SOUTHWEST","stayOn":true,"area":false,"bogusName":false,"lon":-71.07435980000001,"lat":48.4404586,"elevation":[]},{"distance":110.843,"relativeDirection":"HARD_RIGHT","streetName":"Rue Frontenac","absoluteDirection":"NORTHWEST","stayOn":false,"area":false,"bogusName":false,"lon":-71.0763494,"lat":48.4392658,"elevation":[]},{"distance":11.471,"relativeDirection":"LEFT","streetName":"Rue Saint-Calixte","absoluteDirection":"WEST","stayOn":false,"area":false,"bogusName":false,"lon":-71.0770979,"lat":48.4401002,"elevation":[]}]}],"tooSloped":false}]},"debugOutput":{"precalculationTime":11,"pathCalculationTime":15,"pathTimes":[4,7,4],"renderingTime":0,"totalTime":26,"timedOut":false},"elevationMetadata":{"ellipsoidToGeoidDifference":-28.885904201182168,"geoidElevation":false}}