{"requestParameters":{"date":"2018/04/02","walkSpeed":"1.33","walkReluctance":"2.0","fromPlace":"48.403952,-71.054642","maxWalkDistance":"3000","waitReluctance":"1.0","carSpeed":"33","numItineraries":"3","waitAtBeginningFactor":"0.4","mode":"TRANSIT,WALK","ignoreRealtimeUpdates":"false","stairsReluctance":"2.0","toPlace":"48.441205,-71.067301","time":"16:40:00"},"plan":{"date":1522701600000,"from":{"name":"Origin","lon":-71.054642,"lat":48.403952,"orig":"","vertexType":"NORMAL"},"to":{"name":"Destination","lon":-71.067301,"lat":48.441205,"orig":"","vertexType":"NORMAL"},"itineraries":[{"duration":2224,"startTime":1522702139000,"endTime":1522704363000,"walkTime":745,"transitTime":1177,"waitingTime":302,"walkDistance":936.0477819464082,"walkLimitExceeded":false,"elevationLost":0.0,"elevationGained":0.0,"transfers":1,"legs":[{"startTime":1522702139000,"endTime":1522702499000,"departureDelay":0,"arrivalDelay":0,"realTime":false,"distance":446.63599999999997,"pathway":false,"mode":"WALK","route":"","agencyTimeZoneOffset":-14400000,"interlineWithPreviousLeg":false,"from":{"name":"Origin","lon":-71.054642,"lat":48.403952,"departure":1522702139000,"orig":"","vertexType":"NORMAL"},"to":{"name":"Place Royaume","stopId":"1:1801","stopCode":"1801","lon":-71.057017,"lat":48.405588,"arrival":1522702499000,"departure":1522702500000,"zoneId":"NA","stopIndex":10,"stopSequence":11,"vertexType":"TRANSIT"},"legGeometry":{"points":"{zlfHhytpLJPNVVq@PCk@vDmBtGYWGGUCCCYU]Y[YYWq@tBa@zA","length":17},"rentedBike":false,"transitLeg":false,"duration":360.0,"steps":[{"distance":55.269,"relativeDirection":"DEPART","streetName":"parking aisle","absoluteDirection":"SOUTHWEST","stayOn":false,"area":false,"bogusName":false,"lon":-71.05444515294332,"lat":48.40382759190054,"elevation":[]},{"distance":191.916,"relativeDirection":"HARD_RIGHT","streetName":"path","absoluteDirection":"WEST","stayOn":false,"area":false,"bogusName":true,"lon":-71.0543818,"lat":48.403475,"elevation":[]},{"distance":109.13299999999998,"relativeDirection":"RIGHT","streetName":"service road","absoluteDirection":"NORTHEAST","stayOn":true,"area":false,"bogusName":true,"lon":-71.0566984,"lat":48.4042426,"elevation":[]},{"distance":90.318,"relativeDirection":"LEFT","streetName":"parking aisle","absoluteDirection":"NORTHWEST","stayOn":true,"area":false,"bogusName":true,"lon":-71.05600720000001,"lat":48.4050992,"elevation":[]}]},{"startTime":1522702500000,"endTime":1522703400000,"departureDelay":0,"arrivalDelay":0,"realTime":false,"distance":4188.036446582453,"pathway":false,"mode":"BUS","route":"175","agencyName":"Société de Transport du Saguenay","agencyUrl":"http://ville.saguenay.ca/fr/services-aux-citoyens/transport-sts","agencyTimeZoneOffset":-14400000,"routeColor":"FF00FF","routeType":3,"routeId":"1:175","routeTextColor":"FFFFFF","interlineWithPreviousLeg":false,"tripBlockId":"11","headsign":"Terminus Chicoutimi","agencyId":"0","tripId":"1:217482","serviceDate":"20180402","from":{"name":"Place Royaume","stopId":"1:1801","stopCode":"1801","lon":-71.057017,"lat":48.405588,"arrival":1522702499000,"departure":1522702500000,"zoneId":"NA","stopIndex":10,"stopSequence":11,"vertexType":"TRANSIT"},"to":{"name":"Terminus Chicoutimi","stopId":"1:1289","stopCode":"1289","lon":-71.066163,"lat":48.428677,"arrival":1522703400000,"departure":1522703700000,"zoneId":"NA","stopIndex":27,"stopSequence":28,"vertexType":"TRANSIT"},"legGeometry":{"points":"sfmfH`kupL_U_TcNgNcBcB{E`Jc@x@qG~@{BlAk@XgSrQqB_GAeFiEeEOt@gAeA_A_ATm@yAwAgBeBqDnL@nBF`@f@|C[dCuAfB]xAs@OmCmCmEkE]a@g@i@ZiGTmEl@oLaEe@cFk@?pH?tJDvBPjMB~Bo@PQDRbFKdGMhIOvIK|EQpHoCQEdC","length":51},"routeShortName":"175","routeLongName":"Term. Chic / Costco","rentedBike":false,"transitLeg":true,"duration":900.0,"steps":[]},{"startTime":1522703700000,"endTime":1522703977000,"departureDelay":0,"arrivalDelay":0,"realTime":false,"distance":1866.894002566487,"pathway":false,"mode":"BUS","route":"22","agencyName":"Société de Transport du Saguenay","agencyUrl":"http://ville.saguenay.ca/fr/services-aux-citoyens/transport-sts","agencyTimeZoneOffset":-14400000,"routeColor":"C0C000","routeType":3,"routeId":"1:22","routeTextColor":"000000","interlineWithPreviousLeg":false,"tripBlockId":"3","headsign":"Terminus Chicoutimi","agencyId":"0","tripId":"1:217208","serviceDate":"20180402","from":{"name":"Terminus Chicoutimi","stopId":"1:1289","stopCode":"1289","lon":-71.066163,"lat":48.428677,"arrival":1522703400000,"departure":1522703700000,"zoneId":"NA","stopIndex":0,"stopSequence":1,"vertexType":"TRANSIT"},"to":{"name":"Delisle / Pépin","stopId":"1:100","stopCode":"100","lon":-71.069702,"lat":48.443741,"arrival":1522703977000,"departure":1522703978000,"zoneId":"NA","stopIndex":2,"stopSequence":3,"vertexType":"TRANSIT"},"legGeometry":{"points":"evqfHzcwpLg@?UhKxDVOhHMrH~CYhBBInAKXSNg@L{JHgBMoA[s@Usb@gS}@g@u@Su@Ia@Ck@Dm@HwAf@c@VeAx@iAlAU^[d@eLtTsAvBMJYF[EMIQ]y@wB[y@[{@_B{D{@uBe@gAO}AGw@","length":44},"routeShortName":"22","routeLongName":"Vanier","rentedBike":false,"transitLeg":true,"duration":277.0,"steps":[]},{"startTime":1522703978000,"endTime":1522704363000,"departureDelay":0,"arrivalDelay":0,"realTime":false,"distance":489.149,"pathway":false,"mode":"WALK","route":"","agencyTimeZoneOffset":-14400000,"interlineWithPreviousLeg":false,"from":{"name":"Delisle / Pépin","stopId":"1:100","stopCode":"100","lon":-71.069702,"lat":48.443741,"arrival":1522703977000,"departure":1522703978000,"zoneId":"NA","stopIndex":2,"stopSequence":3,"vertexType":"TRANSIT"},"to":{"name":"Destination","lon":-71.067301,"lat":48.441205,"arrival":1522704363000,"orig":"","vertexType":"NORMAL"},"legGeometry":{"points":"{ttfHxxwpLO{BQoBdCs@@Y@GBG@IFKDMHGF@lBp@hDnAJeAXqBj@oAJG","length":18},"rentedBike":false,"transitLeg":false,"duration":385.0,"steps":[{"distance":89.437,"relativeDirection":"DEPART","streetName":"Rue Delisle","absoluteDirection":"EAST","stayOn":false,"area":false,"bogusName":false,"lon":-71.06972755596824,"lat":48.44382094111548,"elevation":[]},{"distance":77.517,"relativeDirection":"RIGHT","streetName":"path","absoluteDirection":"SOUTH","stayOn":false,"area":false,"bogusName":true,"lon":-71.0685442,"lat":48.4439961,"elevation":[]},{"distance":38.33,"relativeDirection":"LEFT","streetName":"Rue Riel","absoluteDirection":"EAST","stayOn":false,"area":false,"bogusName":false,"lon":-71.0682821,"lat":48.443321000000005,"elevation":[]},{"distance":283.865,"relativeDirection":"RIGHT","streetName":"Rue Saint-Nicolas","absoluteDirection":"SOUTH","stayOn":false,"area":false,"bogusName":false,"lon":-71.06785640000001,"lat":48.4431554,"elevation":[]}]}],"tooSloped":false},{"duration":2833,"startTime":1522701769000,"endTime":1522704602000,"walkTime":1031,"transitTime":1380,"waitingTime":422,"walkDistance":1290.5584661545568,"walkLimitExceeded":false,"elevationLost":0.0,"elevationGained":0.0,"transfers":1,"legs":[{"startTime":1522701769000,"endTime":1522702139000,"departureDelay":0,"arrivalDelay":0,"realTime":false,"distance":443.3719999999999,"pathway":false,"mode":"WALK","route":"","agencyTimeZoneOffset":-14400000,"interlineWithPreviousLeg":false,"from":{"name":"Origin","lon":-71.054642,"lat":48.403952,"departure":1522701769000,"orig":"","vertexType":"NORMAL"},"to":{"name":"Place du Royaume (Saguenéens)","stopId":"1:1294","stopCode":"1294","lon":-71.057691,"lat":48.402355,"arrival":1522702139000,"departure":1522702140000,"zoneId":"NA","stopIndex":11,"stopSequence":12,"vertexType":"TRANSIT"},"legGeometry":{"points":"{zlfHhytpLJPNVVq@PCb@TTYFH@DTRVXJJPFXFDBXFFBVFHB\\HFr@BLo@dEJJDZBLRh@k@vD","length":28},"rentedBike":false,"transitLeg":false,"duration":370.0,"steps":[{"distance":55.269,"relativeDirection":"DEPART","streetName":"parking aisle","absoluteDirection":"SOUTHWEST","stayOn":false,"area":false,"bogusName":false,"lon":-71.05444515294332,"lat":48.40382759190054,"elevation":[]},{"distance":37.529,"relativeDirection":"RIGHT","streetName":"parking aisle","absoluteDirection":"SOUTHWEST","stayOn":true,"area":false,"bogusName":true,"lon":-71.0543818,"lat":48.403475,"elevation":[]},{"distance":131.32600000000002,"relativeDirection":"RIGHT","streetName":"service road","absoluteDirection":"SOUTHWEST","stayOn":true,"area":false,"bogusName":true,"lon":-71.0543643,"lat":48.403182300000005,"elevation":[]},{"distance":102.75299999999999,"relativeDirection":"RIGHT","streetName":"parking aisle","absoluteDirection":"WEST","stayOn":true,"area":false,"bogusName":true,"lon":-71.0550072,"lat":48.402104300000005,"elevation":[]},{"distance":44.199,"relativeDirection":"LEFT","streetName":"service road","absoluteDirection":"SOUTHWEST","stayOn":true,"area":false,"bogusName":true,"lon":-71.0563248,"lat":48.4022894,"elevation":[]},{"distance":72.296,"relativeDirection":"RIGHT","streetName":"Rue des Saguenéens","absoluteDirection":"WEST","stayOn":false,"area":false,"bogusName":false,"lon":-71.0568056,"lat":48.4020704,"elevation":[]}]},{"startTime":1522702140000,"endTime":1522703280000,"departureDelay":0,"arrivalDelay":0,"realTime":false,"distance":6028.851523869202,"pathway":false,"mode":"BUS","route":"15","agencyName":"Société de Transport du Saguenay","agencyUrl":"http://ville.saguenay.ca/fr/services-aux-citoyens/transport-sts","agencyTimeZoneOffset":-14400000,"routeColor":"FF00FF","routeType":3,"routeId":"1:15","routeTextColor":"FFFFFF","interlineWithPreviousLeg":false,"tripBlockId":"32","headsign":"Terminus Chicoutimi","agencyId":"0","tripId":"1:218167","serviceDate":"20180402","from":{"name":"Place du Royaume (Saguenéens)","stopId":"1:1294","stopCode":"1294","lon":-71.057691,"lat":48.402355,"arrival":1522702139000,"departure":1522702140000,"zoneId":"NA","stopIndex":11,"stopSequence":12,"vertexType":"TRANSIT"},"to":{"name":"Terminus Chicoutimi","stopId":"1:1289","stopCode":"1289","lon":-71.066163,"lat":48.428677,"arrival":1522703280000,"departure":1522703700000,"zoneId":"NA","stopIndex":39,"stopSequence":40,"vertexType":"TRANSIT"},"legGeometry":{"points":"eqlfHzmupLUxAm@nCcAlDeCvGmA|CUr@}@~A_@\\_DvCEZcA|@UP_@d@Yl@oBdFeCxG_CfGYVQXS\\dK|HlFZbC\\p@zA\\rB@hBiArG{BNw@FiG}@iDwAECcCcBo@y@sEeGe@o@qAa@m@MoB?C@}BZwAc@oA_Bs@gDCKZ{Di@QECc@_@sAkAoBwB_EcE{A_BoAmAk@o@cCaCkIkIaJaJUUwBaCj@wCjAsCzGoG_CoHL{D_@kAqD{CQr@iAcAy@w@L{@wAuA_B_B_EpLDh@NbBVvCIxBg@`Am@l@Sb@a@rAqDqDmEkE]a@kAqAU|@WnKG|DGxDOdPKvJU|F?XQlJC~@ChAIzEcCOaIi@VwL","length":102},"routeShortName":"15","routeLongName":"Term. Chic / Costco","rentedBike":false,"transitLeg":true,"duration":1140.0,"steps":[]},{"startTime":1522703700000,"endTime":1522703940000,"departureDelay":0,"arrivalDelay":0,"realTime":false,"distance":948.5860437121592,"pathway":false,"mode":"BUS","route":"24","agencyName":"Société de Transport du Saguenay","agencyUrl":"http://ville.saguenay.ca/fr/services-aux-citoyens/transport-sts","agencyTimeZoneOffset":-14400000,"routeColor":"00FF00","routeType":3,"routeId":"1:24","routeTextColor":"000000","interlineWithPreviousLeg":false,"tripBlockId":"5","headsign":"Terminus Chicoutimi","agencyId":"0","tripId":"1:217271","serviceDate":"20180402","from":{"name":"Terminus Chicoutimi","stopId":"1:1289","stopCode":"1289","lon":-71.066163,"lat":48.428677,"arrival":1522703280000,"departure":1522703700000,"zoneId":"NA","stopIndex":0,"stopSequence":1,"vertexType":"TRANSIT"},"to":{"name":"Roussel / St-François","stopId":"1:1508","stopCode":"1508","lon":-71.065897,"lat":48.437206,"arrival":1522703940000,"departure":1522703941000,"zoneId":"NA","stopIndex":1,"stopSequence":2,"vertexType":"TRANSIT"},"legGeometry":{"points":"evqfHzcwpLg@?EhBO~GoBKCp@O\\WjGOfGCRK^KJMHQB_AMg@Gm\\wO]i@wAyA_@WUKMEwEm@Js@Da@??@@??@?@???@???@?@??A@???@A@??A@??A@A??@A?A??@A?A?A?A@A?A???A?A?A???A?A?A?A???A?AAA?A???AAA?A??AA?AA??AA??A??AA??A??AA?A???A????q@C{AAaB","length":92},"routeShortName":"24","routeLongName":"Saint-Luc","rentedBike":false,"transitLeg":true,"duration":240.0,"steps":[]},{"startTime":1522703941000,"endTime":1522704602000,"departureDelay":0,"arrivalDelay":0,"realTime":false,"distance":846.85,"pathway":false,"mode":"WALK","route":"","agencyTimeZoneOffset":-14400000,"interlineWithPreviousLeg":false,"from":{"name":"Roussel / St-François","stopId":"1:1508","stopCode":"1508","lon":-71.065897,"lat":48.437206,"arrival":1522703940000,"departure":1522703941000,"zoneId":"NA","stopIndex":1,"stopSequence":2,"vertexType":"TRANSIT"},"to":{"name":"Destination","lon":-71.067301,"lat":48.441205,"arrival":1522704602000,"orig":"","vertexType":"NORMAL"},"legGeometry":{"points":"_lsfH|`wpL@R?dACvCE?C@ABCBAD?DK?e@^u@x@wAbCw@tA[l@Yj@Sd@i@z@c@z@c@WmCLgAqF]ByDq@JeAXqBj@oAJG","length":29},"rentedBike":false,"transitLeg":false,"duration":661.0,"steps":[{"distance":89.496,"relativeDirection":"DEPART","streetName":"Rue Roussel","absoluteDirection":"WEST","stayOn":false,"area":false,"bogusName":false,"lon":-71.06590034885933,"lat":48.43728210110123,"elevation":[]},{"distance":14.306,"relativeDirection":"CIRCLE_COUNTERCLOCKWISE","streetName":"Rue Roussel","absoluteDirection":"NORTHWEST","exit":"1","stayOn":false,"area":false,"bogusName":false,"lon":-71.0671123,"lat":48.437299200000005,"elevation":[]},{"distance":6.516,"relativeDirection":"RIGHT","streetName":"R 172","absoluteDirection":"NORTH","stayOn":false,"area":false,"bogusName":true,"lon":-71.0672278,"lat":48.4373869,"elevation":[]},{"distance":236.639,"relativeDirection":"SLIGHTLY_LEFT","streetName":"R 172","absoluteDirection":"NORTHWEST","stayOn":true,"area":false,"bogusName":true,"lon":-71.0672291,"lat":48.4374455,"elevation":[]},{"distance":62.283,"relativeDirection":"CONTINUE","streetName":"Boulevard Sainte-Geneviève","absoluteDirection":"NORTHWEST","stayOn":false,"area":false,"bogusName":false,"lon":-71.0694016,"lat":48.4389935,"elevation":[]},{"distance":199.08,"relativeDirection":"RIGHT","streetName":"path","absoluteDirection":"NORTHEAST","stayOn":false,"area":false,"bogusName":true,"lon":-71.07000330000001,"lat":48.4393862,"elevation":[]},{"distance":238.53,"relativeDirection":"LEFT","streetName":"Rue Saint-Nicolas","absoluteDirection":"NORTH","stayOn":false,"area":false,"bogusName":false,"lon":-71.06874350000001,"lat":48.4406393,"elevation":[]}]}],"tooSloped":false},{"duration":2941,"startTime":1522701721000,"endTime":1522704662000,"walkTime":1079,"transitTime":1620,"waitingTime":242,"walkDistance":1363.4792932244582,"walkLimitExceeded":false,"elevationLost":0.0,"elevationGained":0.0,"transfers":1,"legs":[{"startTime":1522701721000,"endTime":1522702139000,"departureDelay":0,"arrivalDelay":0,"realTime":false,"distance":516.362,"pathway":false,"mode":"WALK","route":"","agencyTimeZoneOffset":-14400000,"interlineWithPreviousLeg":false,"from":{"name":"Origin","lon":-71.054642,"lat":48.403952,"departure":1522701721000,"orig":"","vertexType":"NORMAL"},"to":{"name":"Place du Royaume (Champs-Élysées)","stopId":"1:572","stopCode":"572","lon":-71.053302,"lat":48.407097,"arrival":1522702139000,"departure":1522702140000,"zoneId":"NA","stopIndex":13,"stopSequence":14,"vertexType":"TRANSIT"},"legGeometry":{"points":"{zlfHhytpLKMS]U_@S]Yc@Vu@Ng@QSYWWUYWYY[YSSGH]bAGPMZg@rA]PGBU?[AW?KAc@Ae@A[AYWc@q@]d@","length":32},"rentedBike":false,"transitLeg":false,"duration":418.0,"steps":[{"distance":117.35300000000001,"relativeDirection":"DEPART","streetName":"parking aisle","absoluteDirection":"NORTHEAST","stayOn":false,"area":false,"bogusName":false,"lon":-71.05444515294332,"lat":48.40382759190054,"elevation":[]},{"distance":110.875,"relativeDirection":"LEFT","streetName":"service road","absoluteDirection":"NORTHEAST","stayOn":false,"area":false,"bogusName":true,"lon":-71.0532652,"lat":48.4041209,"elevation":[]},{"distance":288.134,"relativeDirection":"LEFT","streetName":"service road","absoluteDirection":"NORTHWEST","stayOn":true,"area":false,"bogusName":true,"lon":-71.05245930000001,"lat":48.4049623,"elevation":[]}]},{"startTime":1522702140000,"endTime":1522703460000,"departureDelay":0,"arrivalDelay":0,"realTime":false,"distance":8263.211391150631,"pathway":false,"mode":"BUS","route":"12","agencyName":"Société de Transport du Saguenay","agencyUrl":"http://ville.saguenay.ca/fr/services-aux-citoyens/transport-sts","agencyTimeZoneOffset":-14400000,"routeColor":"556B2F","routeType":3,"routeId":"1:12","routeTextColor":"FFFFFF","interlineWithPreviousLeg":false,"tripBlockId":"29","headsign":"Terminus Chicoutimi","agencyId":"0","tripId":"1:218072","serviceDate":"20180402","from":{"name":"Place du Royaume (Champs-Élysées)","stopId":"1:572","stopCode":"572","lon":-71.053302,"lat":48.407097,"arrival":1522702139000,"departure":1522702140000,"zoneId":"NA","stopIndex":13,"stopSequence":14,"vertexType":"TRANSIT"},"to":{"name":"Terminus Chicoutimi","stopId":"1:1289","stopCode":"1289","lon":-71.066163,"lat":48.428677,"arrival":1522703460000,"departure":1522703700000,"zoneId":"NA","stopIndex":33,"stopSequence":34,"vertexType":"TRANSIT"},"legGeometry":{"points":"aomfHlrtpLlCyGa@yFYkD}CyA}KmFgD_BgAgBn@kFD_NoIgrAmD_WcAaLaDHoDJi`@wVoAbDbA|AnBU|B|AfBlAyLtKoGxFcFqDkJaHgEoDmDwC_TqQsBeB{HjWfAvAfM|O|FlHmB`IgA|Cy@`UYzHZvMR~Hr@~ZPvHsCrMFxf@|ApJj@nDDl]BvZdCXJhC","length":49},"routeShortName":"12","routeLongName":"Rivière du Moulin","rentedBike":false,"transitLeg":true,"duration":1320.0,"steps":[]},{"startTime":1522703700000,"endTime":1522704000000,"departureDelay":0,"arrivalDelay":0,"realTime":false,"distance":948.5860437121592,"pathway":false,"mode":"BUS","route":"25","agencyName":"Société de Transport du Saguenay","agencyUrl":"http://ville.saguenay.ca/fr/services-aux-citoyens/transport-sts","agencyTimeZoneOffset":-14400000,"routeColor":"00FFFF","routeType":3,"routeId":"1:25","routeTextColor":"000000","interlineWithPreviousLeg":false,"tripBlockId":"97","headsign":"Terminus Chicoutimi","agencyId":"0","tripId":"1:218742","serviceDate":"20180402","from":{"name":"Terminus Chicoutimi","stopId":"1:1289","stopCode":"1289","lon":-71.066163,"lat":48.428677,"arrival":1522703460000,"departure":1522703700000,"zoneId":"NA","stopIndex":0,"stopSequence":1,"vertexType":"TRANSIT"},"to":{"name":"Roussel / St-François","stopId":"1:1508","stopCode":"1508","lon":-71.065897,"lat":48.437206,"arrival":1522704000000,"departure":1522704001000,"zoneId":"NA","stopIndex":1,"stopSequence":2,"vertexType":"TRANSIT"},"legGeometry":{"points":"avqfH``wpLc@E@o@kAOYCm@rRO\\WjGOfGCRK^KJMHQB_AMg@Gm\\wO]i@wAyA_@WUKMEwEm@Js@Da@??@@??@?@???@???@?@??A@???@A@??A@??A@A??@A?A??@A?A?A?A@A?A???A?A?A???A?A?A?A???A?AAA?A???AAA?A??AA?AA??AA??A??AA??A??AA?A???A????q@C{AAaB","length":92},"routeShortName":"25","routeLongName":"Valin","rentedBike":false,"transitLeg":true,"duration":300.0,"steps":[]},{"startTime":1522704001000,"endTime":1522704662000,"departureDelay":0,"arrivalDelay":0,"realTime":false,"distance":846.85,"pathway":false,"mode":"WALK","route":"","agencyTimeZoneOffset":-14400000,"interlineWithPreviousLeg":false,"from":{"name":"Roussel / St-François","stopId":"1:1508","stopCode":"1508","lon":-71.065897,"lat":48.437206,"arrival":1522704000000,"departure":1522704001000,"zoneId":"NA","stopIndex":1,"stopSequence":2,"vertexType":"TRANSIT"},"to":{"name":"Destination","lon":-71.067301,"lat":48.441205,"arrival":1522704662000,"orig":"","vertexType":"NORMAL"},"legGeometry":{"points":"_lsfH|`wpL@R?dACvCE?C@ABCBAD?DK?e@^u@x@wAbCw@tA[l@Yj@Sd@i@z@c@z@c@WmCLgAqF]ByDq@JeAXqBj@oAJG","length":29},"rentedBike":false,"transitLeg":false,"duration":661.0,"steps":[{"distance":89.496,"relativeDirection":"DEPART","streetName":"Rue Roussel","absoluteDirection":"WEST","stayOn":false,"area":false,"bogusName":false,"lon":-71.06590034885933,"lat":48.43728210110123,"elevation":[]},{"distance":14.306,"relativeDirection":"CIRCLE_COUNTERCLOCKWISE","streetName":"Rue Roussel","absoluteDirection":"NORTHWEST","exit":"1","stayOn":false,"area":false,"bogusName":false,"lon":-71.0671123,"lat":48.437299200000005,"elevation":[]},{"distance":6.516,"relativeDirection":"RIGHT","streetName":"R 172","absoluteDirection":"NORTH","stayOn":false,"area":false,"bogusName":true,"lon":-71.0672278,"lat":48.4373869,"elevation":[]},{"distance":236.639,"relativeDirection":"SLIGHTLY_LEFT","streetName":"R 172","absoluteDirection":"NORTHWEST","stayOn":true,"area":false,"bogusName":true,"lon":-71.0672291,"lat":48.4374455,"elevation":[]},{"distance":62.283,"relativeDirection":"CONTINUE","streetName":"Boulevard Sainte-Geneviève","absoluteDirection":"NORTHWEST","stayOn":false,"area":false,"bogusName":false,"lon":-71.0694016,"lat":48.4389935,"elevation":[]},{"distance":199.08,"relativeDirection":"RIGHT","streetName":"path","absoluteDirection":"NORTHEAST","stayOn":false,"area":false,"bogusName":true,"lon":-71.07000330000001,"lat":48.4393862,"elevation":[]},{"distance":238.53,"relativeDirection":"LEFT","streetName":"Rue Saint-Nicolas","absoluteDirection":"NORTH","stayOn":false,"area":false,"bogusName":false,"lon":-71.06874350000001,"lat":48.4406393,"elevation":[]}]}],"tooSloped":false}]},"debugOutput":{"precalculationTime":29,"pathCalculationTime":54,"pathTimes":[25,14,15],"renderingTime":1,"totalTime":84,"timedOut":false},"elevationMetadata":{"ellipsoidToGeoidDifference":-28.885904201182168,"geoidElevation":false}}