{"requestParameters":{"date":"2018/04/02","walkSpeed":"1.33","walkReluctance":"2.0","fromPlace":"48.457944,-71.10299","maxWalkDistance":"3000","waitReluctance":"1.0","carSpeed":"33","numItineraries":"3","waitAtBeginningFactor":"0.4","mode":"TRANSIT,WALK","ignoreRealtimeUpdates":"false","stairsReluctance":"2.0","toPlace":"48.451647,-71.081782","time":"13:0:00"},"plan":{"date":1522688400000,"from":{"name":"Origin","lon":-71.10299,"lat":48.457944,"orig":"","vertexType":"NORMAL"},"to":{"name":"Destination","lon":-71.081782,"lat":48.451647,"orig":"","vertexType":"NORMAL"},"itineraries":[{"duration":2014,"startTime":1522688400000,"endTime":1522690414000,"walkTime":2014,"transitTime":0,"waitingTime":0,"walkDistance":2626.7698045057346,"walkLimitExceeded":false,"elevationLost":0.0,"elevationGained":0.0,"transfers":0,"legs":[{"startTime":1522688400000,"endTime":1522690414000,"departureDelay":0,"arrivalDelay":0,"realTime":false,"distance":2626.598,"pathway":false,"mode":"WALK","route":"","agencyTimeZoneOffset":-14400000,"interlineWithPreviousLeg":false,"from":{"name":"Origin","lon":-71.10299,"lat":48.457944,"departure":1522688400000,"orig":"","vertexType":"NORMAL"},"to":{"name":"Destination","lon":-71.081782,"lat":48.451647,"arrival":1522690414000,"orig":"","vertexType":"NORMAL"},"legGeometry":{"points":"mowfHbf~pLX{BdBkARt@ZrAp@tCfB`IPj@`AhAd@XNDzA\\F@xA^l@\\JFFFPLNNDFHFD@LF\\HZHl@{G`@uDd@{EN}A^mD^gENwAxBeU@G?ELoAZcDLgA@QVsCDk@P_BLuAZeDr@wGHu@H_@BSDWFc@F[Lm@TeABINk@@GSSEYDi@xAmOoDoA_@e@Im@FsEEcCIuAWiAa@_A","length":68},"rentedBike":false,"transitLeg":false,"duration":2014.0,"steps":[{"distance":47.92,"relativeDirection":"DEPART","streetName":"service road","absoluteDirection":"EAST","stayOn":false,"area":false,"bogusName":false,"lon":-71.102574,"lat":48.45831,"elevation":[]},{"distance":63.203,"relativeDirection":"RIGHT","streetName":"Rue des Fougères","absoluteDirection":"SOUTHEAST","stayOn":false,"area":false,"bogusName":false,"lon":-71.10195200000001,"lat":48.4581852,"elevation":[]},{"distance":573.7090000000001,"relativeDirection":"RIGHT","streetName":"Rue des Épervières","absoluteDirection":"SOUTHWEST","stayOn":false,"area":false,"bogusName":false,"lon":-71.1015776,"lat":48.4576739,"elevation":[]},{"distance":1338.734,"relativeDirection":"LEFT","streetName":"Boulevard Sainte-Geneviève","absoluteDirection":"EAST","stayOn":false,"area":false,"bogusName":false,"lon":-71.1063082,"lat":48.454059900000004,"elevation":[]},{"distance":240.113,"relativeDirection":"LEFT","streetName":"Rue d'Orléans","absoluteDirection":"NORTHEAST","stayOn":false,"area":false,"bogusName":false,"lon":-71.08884300000001,"lat":48.450840400000004,"elevation":[]},{"distance":125.073,"relativeDirection":"LEFT","streetName":"Rue Sainte-Marie Nord","absoluteDirection":"NORTH","stayOn":false,"area":false,"bogusName":false,"lon":-71.08577530000001,"lat":48.450490900000005,"elevation":[]},{"distance":237.846,"relativeDirection":"SLIGHTLY_RIGHT","streetName":"Rue de Vimy","absoluteDirection":"EAST","stayOn":false,"area":false,"bogusName":false,"lon":-71.08518210000001,"lat":48.4515302,"elevation":[]}]}],"tooSloped":false},{"duration":1158,"startTime":1522689747000,"endTime":1522690905000,"walkTime":1004,"transitTime":152,"waitingTime":2,"walkDistance":1294.0066541285087,"walkLimitExceeded":false,"elevationLost":0.0,"elevationGained":0.0,"transfers":0,"legs":[{"startTime":1522689747000,"endTime":1522690309000,"departureDelay":0,"arrivalDelay":0,"realTime":false,"distance":721.3439999999998,"pathway":false,"mode":"WALK","route":"","agencyTimeZoneOffset":-14400000,"interlineWithPreviousLeg":false,"from":{"name":"Origin","lon":-71.10299,"lat":48.457944,"departure":1522689747000,"orig":"","vertexType":"NORMAL"},"to":{"name":"boul. Ste-Geneviève / Épervières","stopId":"1:722","stopCode":"722","lon":-71.106817,"lat":48.454063,"arrival":1522690309000,"departure":1522690310000,"zoneId":"NA","stopIndex":23,"stopSequence":24,"vertexType":"TRANSIT"},"legGeometry":{"points":"mowfHbf~pLX{BdBkARt@ZrAp@tCfB`IPj@`AhAd@XNDzA\\F@xA^l@\\JFFFPLNNDFHFD@LF\\HZHO~A","length":26},"rentedBike":false,"transitLeg":false,"duration":562.0,"steps":[{"distance":47.92,"relativeDirection":"DEPART","streetName":"service road","absoluteDirection":"EAST","stayOn":false,"area":false,"bogusName":false,"lon":-71.102574,"lat":48.45831,"elevation":[]},{"distance":63.203,"relativeDirection":"RIGHT","streetName":"Rue des Fougères","absoluteDirection":"SOUTHEAST","stayOn":false,"area":false,"bogusName":false,"lon":-71.10195200000001,"lat":48.4581852,"elevation":[]},{"distance":573.7090000000001,"relativeDirection":"RIGHT","streetName":"Rue des Épervières","absoluteDirection":"SOUTHWEST","stayOn":false,"area":false,"bogusName":false,"lon":-71.1015776,"lat":48.4576739,"elevation":[]},{"distance":36.512,"relativeDirection":"RIGHT","streetName":"Boulevard Sainte-Geneviève","absoluteDirection":"WEST","stayOn":false,"area":false,"bogusName":false,"lon":-71.1063082,"lat":48.454059900000004,"elevation":[]}]},{"startTime":1522690310000,"endTime":1522690462000,"departureDelay":0,"arrivalDelay":0,"realTime":false,"distance":1689.3999387196054,"pathway":false,"mode":"BUS","route":"21","agencyName":"Société de Transport du Saguenay","agencyUrl":"http://ville.saguenay.ca/fr/services-aux-citoyens/transport-sts","agencyTimeZoneOffset":-14400000,"routeColor":"556B2F","routeType":3,"routeId":"1:21","routeTextColor":"FFFFFF","interlineWithPreviousLeg":false,"tripBlockId":"2","headsign":"Terminus Chicoutimi","agencyId":"0","tripId":"1:217169","serviceDate":"20180402","from":{"name":"boul. Ste-Geneviève / Épervières","stopId":"1:722","stopCode":"722","lon":-71.106817,"lat":48.454063,"arrival":1522690309000,"departure":1522690310000,"zoneId":"NA","stopIndex":23,"stopSequence":24,"vertexType":"TRANSIT"},"to":{"name":"boul. Ste-Geneviève / Ste-Marie","stopId":"1:731","stopCode":"731","lon":-71.085744,"lat":48.448746,"arrival":1522690462000,"departure":1522690463000,"zoneId":"NA","stopIndex":29,"stopSequence":30,"vertexType":"TRANSIT"},"legGeometry":{"points":"iuvfHn`_qLN_BHm@fAeLd@{Et@uHZyC~@sJjAyLJqAZyCP_BZuCDi@b@iExAsO@E^qBt@}CJGnAmDx@iBpAcCb@o@Zi@h@o@`AiA","length":27},"routeShortName":"21","routeLongName":"Boul. Ste-Geneviève/Élie","rentedBike":false,"transitLeg":true,"duration":152.0,"steps":[]},{"startTime":1522690463000,"endTime":1522690905000,"departureDelay":0,"arrivalDelay":0,"realTime":false,"distance":572.451,"pathway":false,"mode":"WALK","route":"","agencyTimeZoneOffset":-14400000,"interlineWithPreviousLeg":false,"from":{"name":"boul. Ste-Geneviève / Ste-Marie","stopId":"1:731","stopCode":"731","lon":-71.085744,"lat":48.448746,"arrival":1522690462000,"departure":1522690463000,"zoneId":"NA","stopIndex":29,"stopSequence":30,"vertexType":"TRANSIT"},"to":{"name":"Destination","lon":-71.081782,"lat":48.451647,"arrival":1522690905000,"orig":"","vertexType":"NORMAL"},"legGeometry":{"points":"{sufHj|zpLiAlAM[Yc@SCoELoDoA_@e@Im@FsEEcCIuAWiAa@_A","length":14},"rentedBike":false,"transitLeg":false,"duration":442.0,"steps":[{"distance":50.18,"relativeDirection":"DEPART","streetName":"Boulevard Sainte-Geneviève","absoluteDirection":"NORTHWEST","stayOn":false,"area":false,"bogusName":false,"lon":-71.0856524695509,"lat":48.448789360343824,"elevation":[]},{"distance":284.425,"relativeDirection":"RIGHT","streetName":"Rue Sainte-Marie Nord","absoluteDirection":"NORTHEAST","stayOn":false,"area":false,"bogusName":false,"lon":-71.08604790000001,"lat":48.4491566,"elevation":[]},{"distance":237.846,"relativeDirection":"SLIGHTLY_RIGHT","streetName":"Rue de Vimy","absoluteDirection":"EAST","stayOn":false,"area":false,"bogusName":false,"lon":-71.08518210000001,"lat":48.4515302,"elevation":[]}]}],"tooSloped":false},{"duration":1158,"startTime":1522691547000,"endTime":1522692705000,"walkTime":1004,"transitTime":152,"waitingTime":2,"walkDistance":1294.0066541285087,"walkLimitExceeded":false,"elevationLost":0.0,"elevationGained":0.0,"transfers":0,"legs":[{"startTime":1522691547000,"endTime":1522692109000,"departureDelay":0,"arrivalDelay":0,"realTime":false,"distance":721.3439999999998,"pathway":false,"mode":"WALK","route":"","agencyTimeZoneOffset":-14400000,"interlineWithPreviousLeg":false,"from":{"name":"Origin","lon":-71.10299,"lat":48.457944,"departure":1522691547000,"orig":"","vertexType":"NORMAL"},"to":{"name":"boul. Ste-Geneviève / Épervières","stopId":"1:722","stopCode":"722","lon":-71.106817,"lat":48.454063,"arrival":1522692109000,"departure":1522692110000,"zoneId":"NA","stopIndex":23,"stopSequence":24,"vertexType":"TRANSIT"},"legGeometry":{"points":"mowfHbf~pLX{BdBkARt@ZrAp@tCfB`IPj@`AhAd@XNDzA\\F@xA^l@\\JFFFPLNNDFHFD@LF\\HZHO~A","length":26},"rentedBike":false,"transitLeg":false,"duration":562.0,"steps":[{"distance":47.92,"relativeDirection":"DEPART","streetName":"service road","absoluteDirection":"EAST","stayOn":false,"area":false,"bogusName":false,"lon":-71.102574,"lat":48.45831,"elevation":[]},{"distance":63.203,"relativeDirection":"RIGHT","streetName":"Rue des Fougères","absoluteDirection":"SOUTHEAST","stayOn":false,"area":false,"bogusName":false,"lon":-71.10195200000001,"lat":48.4581852,"elevation":[]},{"distance":573.7090000000001,"relativeDirection":"RIGHT","streetName":"Rue des Épervières","absoluteDirection":"SOUTHWEST","stayOn":false,"area":false,"bogusName":false,"lon":-71.1015776,"lat":48.4576739,"elevation":[]},{"distance":36.512,"relativeDirection":"RIGHT","streetName":"Boulevard Sainte-Geneviève","absoluteDirection":"WEST","stayOn":false,"area":false,"bogusName":false,"lon":-71.1063082,"lat":48.454059900000004,"elevation":[]}]},{"startTime":1522692110000,"endTime":1522692262000,"departureDelay":0,"arrivalDelay":0,"realTime":false,"distance":1689.3999387196054,"pathway":false,"mode":"BUS","route":"21","agencyName":"Société de Transport du Saguenay","agencyUrl":"http://ville.saguenay.ca/fr/services-aux-citoyens/transport-sts","agencyTimeZoneOffset":-14400000,"routeColor":"556B2F","routeType":3,"routeId":"1:21","routeTextColor":"FFFFFF","interlineWithPreviousLeg":false,"tripBlockId":"2","headsign":"Terminus Chicoutimi","agencyId":"0","tripId":"1:217170","serviceDate":"20180402","from":{"name":"boul. Ste-Geneviève / Épervières","stopId":"1:722","stopCode":"722","lon":-71.106817,"lat":48.454063,"arrival":1522692109000,"departure":1522692110000,"zoneId":"NA","stopIndex":23,"stopSequence":24,"vertexType":"TRANSIT"},"to":{"name":"boul. Ste-Geneviève / Ste-Marie","stopId":"1:731","stopCode":"731","lon":-71.085744,"lat":48.448746,"arrival":1522692262000,"departure":1522692263000,"zoneId":"NA","stopIndex":29,"stopSequence":30,"vertexType":"TRANSIT"},"legGeometry":{"points":"iuvfHn`_qLN_BHm@fAeLd@{Et@uHZyC~@sJjAyLJqAZyCP_BZuCDi@b@iExAsO@E^qBt@}CJGnAmDx@iBpAcCb@o@Zi@h@o@`AiA","length":27},"routeShortName":"21","routeLongName":"Boul. Ste-Geneviève/Élie","rentedBike":false,"transitLeg":true,"duration":152.0,"steps":[]},{"startTime":1522692263000,"endTime":1522692705000,"departureDelay":0,"arrivalDelay":0,"realTime":false,"distance":572.451,"pathway":false,"mode":"WALK","route":"","agencyTimeZoneOffset":-14400000,"interlineWithPreviousLeg":false,"from":{"name":"boul. Ste-Geneviève / Ste-Marie","stopId":"1:731","stopCode":"731","lon":-71.085744,"lat":48.448746,"arrival":1522692262000,"departure":1522692263000,"zoneId":"NA","stopIndex":29,"stopSequence":30,"vertexType":"TRANSIT"},"to":{"name":"Destination","lon":-71.081782,"lat":48.451647,"arrival":1522692705000,"orig":"","vertexType":"NORMAL"},"legGeometry":{"points":"{sufHj|zpLiAlAM[Yc@SCoELoDoA_@e@Im@FsEEcCIuAWiAa@_A","length":14},"rentedBike":false,"transitLeg":false,"duration":442.0,"steps":[{"distance":50.18,"relativeDirection":"DEPART","streetName":"Boulevard Sainte-Geneviève","absoluteDirection":"NORTHWEST","stayOn":false,"area":false,"bogusName":false,"lon":-71.0856524695509,"lat":48.448789360343824,"elevation":[]},{"distance":284.425,"relativeDirection":"RIGHT","streetName":"Rue Sainte-Marie Nord","absoluteDirection":"NORTHEAST","stayOn":false,"area":false,"bogusName":false,"lon":-71.08604790000001,"lat":48.4491566,"elevation":[]},{"distance":237.846,"relativeDirection":"SLIGHTLY_RIGHT","streetName":"Rue de Vimy","absoluteDirection":"EAST","stayOn":false,"area":false,"bogusName":false,"lon":-71.08518210000001,"lat":48.4515302,"elevation":[]}]}],"tooSloped":false}]},"debugOutput":{"precalculationTime":7,"pathCalculationTime":16,"pathTimes":[6,6,4],"renderingTime":0,"totalTime":23,"timedOut":false},"elevationMetadata":{"ellipsoidToGeoidDifference":-28.885904201182168,"geoidElevation":false}}