{"requestParameters":{"date":"2018/04/02","walkSpeed":"1.33","walkReluctance":"2.0","fromPlace":"48.418729,-71.053021","maxWalkDistance":"3000","waitReluctance":"1.0","carSpeed":"33","numItineraries":"3","waitAtBeginningFactor":"0.4","mode":"TRANSIT,WALK","ignoreRealtimeUpdates":"false","stairsReluctance":"2.0","toPlace":"48.455248,-71.06668","time":"21:10:00"},"plan":{"date":1522717800000,"from":{"name":"Origin","lon":-71.053021,"lat":48.418729,"orig":"","vertexType":"NORMAL"},"to":{"name":"Destination","lon":-71.06668,"lat":48.455248,"orig":"","vertexType":"NORMAL"},"itineraries":[{"duration":2621,"startTime":1522718781000,"endTime":1522721402000,"walkTime":1119,"transitTime":1080,"waitingTime":422,"walkDistance":1443.6632330780853,"walkLimitExceeded":false,"elevationLost":0.0,"elevationGained":0.0,"transfers":1,"legs":[{"startTime":1522718781000,"endTime":1522719059000,"departureDelay":0,"arrivalDelay":0,"realTime":false,"distance":348.519,"pathway":false,"mode":"WALK","route":"","agencyTimeZoneOffset":-14400000,"interlineWithPreviousLeg":false,"from":{"name":"Origin","lon":-71.053021,"lat":48.418729,"departure":1522718781000,"orig":"","vertexType":"NORMAL"},"to":{"name":"Terminus UQAC","stopId":"1:1670","stopCode":"1670","lon":-71.053369,"lat":48.420903,"arrival":1522719059000,"departure":1522719060000,"zoneId":"NA","stopIndex":29,"stopSequence":30,"vertexType":"TRANSIT"},"legGeometry":{"points":"mwofHbotpLwBuBCA_AaAq@XYz@Ur@e@vAg@vAUp@cAaA","length":11},"rentedBike":false,"transitLeg":false,"duration":278.0,"steps":[{"distance":281.082,"relativeDirection":"DEPART","streetName":"path","absoluteDirection":"NORTHEAST","stayOn":false,"area":false,"bogusName":false,"lon":-71.05281450938897,"lat":48.41863935175929,"elevation":[]},{"distance":67.437,"relativeDirection":"CONTINUE","streetName":"service road","absoluteDirection":"NORTHWEST","stayOn":false,"area":false,"bogusName":true,"lon":-71.05345460000001,"lat":48.4204518,"elevation":[]}]},{"startTime":1522719060000,"endTime":1522719480000,"departureDelay":0,"arrivalDelay":0,"realTime":false,"distance":1953.854830020236,"pathway":false,"mode":"BUS","route":"15","agencyName":"Société de Transport du Saguenay","agencyUrl":"http://ville.saguenay.ca/fr/services-aux-citoyens/transport-sts","agencyTimeZoneOffset":-14400000,"routeColor":"FF00FF","routeType":3,"routeId":"1:15","routeTextColor":"FFFFFF","interlineWithPreviousLeg":false,"tripBlockId":"30","headsign":"Terminus Chicoutimi","agencyId":"0","tripId":"1:218116","serviceDate":"20180402","from":{"name":"Terminus UQAC","stopId":"1:1670","stopCode":"1670","lon":-71.053369,"lat":48.420903,"arrival":1522719059000,"departure":1522719060000,"zoneId":"NA","stopIndex":29,"stopSequence":30,"vertexType":"TRANSIT"},"to":{"name":"Terminus Chicoutimi","stopId":"1:1289","stopCode":"1289","lon":-71.066163,"lat":48.428677,"arrival":1522719480000,"departure":1522719900000,"zoneId":"NA","stopIndex":39,"stopSequence":40,"vertexType":"TRANSIT"},"legGeometry":{"points":"sepfHprtpLy@w@L{@wAuA_B_B_EpLDh@NbBVvCIxBg@`Am@l@Sb@a@rAqDqDmEkE]a@kAqAU|@WnKG|DGxDOdPKvJU|F?XQlJC~@ChAIzEcCOaIi@VwL","length":33},"routeShortName":"15","routeLongName":"Term. Chic / Costco","rentedBike":false,"transitLeg":true,"duration":420.0,"steps":[]},{"startTime":1522719900000,"endTime":1522720560000,"departureDelay":0,"arrivalDelay":0,"realTime":false,"distance":4846.683748665354,"pathway":false,"mode":"BUS","route":"23","agencyName":"Société de Transport du Saguenay","agencyUrl":"http://ville.saguenay.ca/fr/services-aux-citoyens/transport-sts","agencyTimeZoneOffset":-14400000,"routeColor":"FF00FF","routeType":3,"routeId":"1:23","routeTextColor":"FFFFFF","interlineWithPreviousLeg":false,"tripBlockId":"5","headsign":"Terminus Chicoutimi","agencyId":"0","tripId":"1:217280","serviceDate":"20180402","from":{"name":"Terminus Chicoutimi","stopId":"1:1289","stopCode":"1289","lon":-71.066163,"lat":48.428677,"arrival":1522719480000,"departure":1522719900000,"zoneId":"NA","stopIndex":0,"stopSequence":1,"vertexType":"TRANSIT"},"to":{"name":"Verdun / Riviera","stopId":"1:2023","stopCode":"2023","lon":-71.057875,"lat":48.449739,"arrival":1522720560000,"departure":1522720561000,"zoneId":"NA","stopIndex":14,"stopSequence":15,"vertexType":"TRANSIT"},"legGeometry":{"points":"kwqfHjbwpLF_CkAOYCm@rRO\\WjGOfGCRK^KJMHQB_AMg@Gw`@eR}@g@u@Su@Ia@Ck@Dm@HwAf@c@VeAx@iAlAU^[d@eLtTsAvB_CvEuAnCmBlE}@|B_BvFoC`JCD}@hCo@~Aq@pAs@fA{BlCqH|Iq@Bq@Im@UGCUi@Wm@ScA_@gGSaE@_@@_@@ERoBFe@No@`@gAbCyFNe@Ha@He@Fg@Du@Dg@Hc@Pa@RW\\S`@QZEm@eHM}B?GGi@Is@Ou@Qw@Mo@Kw@ImAGoBAk@aALa@?YEUKc@Yc@_@KOIUGUEWAW?YBqAH_AXeC@IdB_Mh@_EJk@d@kDhAqI`AgHz@oGBU?UAWCWUwAWD]B]AUEoAc@kE}AOIq@g@g@u@]w@b@s@","length":123},"routeShortName":"23","routeLongName":"Côte Verdun via Aréna du Plateau","rentedBike":false,"transitLeg":true,"duration":660.0,"steps":[]},{"startTime":1522720561000,"endTime":1522721402000,"departureDelay":0,"arrivalDelay":0,"realTime":false,"distance":1095.001,"pathway":false,"mode":"WALK","route":"","agencyTimeZoneOffset":-14400000,"interlineWithPreviousLeg":false,"from":{"name":"Verdun / Riviera","stopId":"1:2023","stopCode":"2023","lon":-71.057875,"lat":48.449739,"arrival":1522720560000,"departure":1522720561000,"zoneId":"NA","stopIndex":14,"stopSequence":15,"vertexType":"TRANSIT"},"to":{"name":"Destination","lon":-71.06668,"lat":48.455248,"arrival":1522721402000,"orig":"","vertexType":"NORMAL"},"legGeometry":{"points":"czufHfnupLg@x@_ArAcBq@WIwCgAyCeAOGmAbIG^Ib@GZOd@Q`@U`@kB|Ce@vBMh@Ot@q@tDy@fFsA`Hm@vDEl@","length":24},"rentedBike":false,"transitLeg":false,"duration":841.0,"steps":[{"distance":77.14,"relativeDirection":"DEPART","streetName":"Rue de Verdun","absoluteDirection":"NORTHWEST","stayOn":false,"area":false,"bogusName":false,"lon":-71.05779790898674,"lat":48.44978803093983,"elevation":[]},{"distance":260.302,"relativeDirection":"RIGHT","streetName":"Rue Richelieu","absoluteDirection":"NORTH","stayOn":false,"area":false,"bogusName":false,"lon":-71.05850140000001,"lat":48.450301200000006,"elevation":[]},{"distance":757.559,"relativeDirection":"LEFT","streetName":"Rue de Vimy","absoluteDirection":"WEST","stayOn":false,"area":false,"bogusName":false,"lon":-71.0574594,"lat":48.4525377,"elevation":[]}]}],"tooSloped":false},{"duration":3140,"startTime":1522718781000,"endTime":1522721921000,"walkTime":2058,"transitTime":780,"waitingTime":302,"walkDistance":2668.406947362647,"walkLimitExceeded":false,"elevationLost":0.0,"elevationGained":0.0,"transfers":1,"legs":[{"startTime":1522718781000,"endTime":1522719059000,"departureDelay":0,"arrivalDelay":0,"realTime":false,"distance":348.519,"pathway":false,"mode":"WALK","route":"","agencyTimeZoneOffset":-14400000,"interlineWithPreviousLeg":false,"from":{"name":"Origin","lon":-71.053021,"lat":48.418729,"departure":1522718781000,"orig":"","vertexType":"NORMAL"},"to":{"name":"Terminus UQAC","stopId":"1:1670","stopCode":"1670","lon":-71.053369,"lat":48.420903,"arrival":1522719059000,"departure":1522719060000,"zoneId":"NA","stopIndex":14,"stopSequence":15,"vertexType":"TRANSIT"},"legGeometry":{"points":"mwofHbotpLwBuBCA_AaAq@XYz@Ur@e@vAg@vAUp@cAaA","length":11},"rentedBike":false,"transitLeg":false,"duration":278.0,"steps":[{"distance":281.082,"relativeDirection":"DEPART","streetName":"path","absoluteDirection":"NORTHEAST","stayOn":false,"area":false,"bogusName":false,"lon":-71.05281450938897,"lat":48.41863935175929,"elevation":[]},{"distance":67.437,"relativeDirection":"CONTINUE","streetName":"service road","absoluteDirection":"NORTHWEST","stayOn":false,"area":false,"bogusName":true,"lon":-71.05345460000001,"lat":48.4204518,"elevation":[]}]},{"startTime":1522719060000,"endTime":1522719600000,"departureDelay":0,"arrivalDelay":0,"realTime":false,"distance":2324.3264239577584,"pathway":false,"mode":"BUS","route":"175","agencyName":"Société de Transport du Saguenay","agencyUrl":"http://ville.saguenay.ca/fr/services-aux-citoyens/transport-sts","agencyTimeZoneOffset":-14400000,"routeColor":"FF00FF","routeType":3,"routeId":"1:175","routeTextColor":"FFFFFF","interlineWithPreviousLeg":false,"tripBlockId":"11","headsign":"Terminus Chicoutimi","agencyId":"0","tripId":"1:217491","serviceDate":"20180402","from":{"name":"Terminus UQAC","stopId":"1:1670","stopCode":"1670","lon":-71.053369,"lat":48.420903,"arrival":1522719059000,"departure":1522719060000,"zoneId":"NA","stopIndex":14,"stopSequence":15,"vertexType":"TRANSIT"},"to":{"name":"Terminus Chicoutimi","stopId":"1:1289","stopCode":"1289","lon":-71.066163,"lat":48.428677,"arrival":1522719600000,"departure":1522719900000,"zoneId":"NA","stopIndex":27,"stopSequence":28,"vertexType":"TRANSIT"},"legGeometry":{"points":"sepfHprtpL_A_ATm@yAwAgBeBqDnL@nBF`@f@|C[dCuAfB]xAs@OmCmCmEkE]a@g@i@ZiGTmEl@oLaEe@cFk@?pH?tJDvBPjMB~Bo@PQDRbFKdGMhIOvIK|EQpHoCQEdC","length":37},"routeShortName":"175","routeLongName":"Term. Chic / Costco","rentedBike":false,"transitLeg":true,"duration":540.0,"steps":[]},{"startTime":1522719900000,"endTime":1522720140000,"departureDelay":0,"arrivalDelay":0,"realTime":false,"distance":1551.778432484001,"pathway":false,"mode":"BUS","route":"20","agencyName":"Société de Transport du Saguenay","agencyUrl":"http://ville.saguenay.ca/fr/services-aux-citoyens/transport-sts","agencyTimeZoneOffset":-14400000,"routeColor":"0000FF","routeType":3,"routeId":"1:20","routeTextColor":"FFFFFF","interlineWithPreviousLeg":false,"tripBlockId":"3","headsign":"Terminus Chicoutimi","agencyId":"0","tripId":"1:217217","serviceDate":"20180402","from":{"name":"Terminus Chicoutimi","stopId":"1:1289","stopCode":"1289","lon":-71.066163,"lat":48.428677,"arrival":1522719600000,"departure":1522719900000,"zoneId":"NA","stopIndex":0,"stopSequence":1,"vertexType":"TRANSIT"},"to":{"name":"Des Champs / boul. Ste-Geneviève","stopId":"1:676","stopCode":"676","lon":-71.074674,"lat":48.441439,"arrival":1522720140000,"departure":1522720141000,"zoneId":"NA","stopIndex":1,"stopSequence":2,"vertexType":"TRANSIT"},"legGeometry":{"points":"evqfHzcwpLg@?UhKwAIWACp@O\\WjGOfGCRK^KJMHQB_AMg@Gw`@eR}@g@u@Su@Ia@Ck@Dm@HwAf@c@VeAx@iAlAU^[d@eLtTsAvBg@bAPVd@t@PNNF","length":36},"routeShortName":"20","routeLongName":"Sainte-Claire","rentedBike":false,"transitLeg":true,"duration":240.0,"steps":[]},{"startTime":1522720141000,"endTime":1522721921000,"departureDelay":0,"arrivalDelay":0,"realTime":false,"distance":2319.709,"pathway":false,"mode":"WALK","route":"","agencyTimeZoneOffset":-14400000,"interlineWithPreviousLeg":false,"from":{"name":"Des Champs / boul. Ste-Geneviève","stopId":"1:676","stopCode":"676","lon":-71.074674,"lat":48.441439,"arrival":1522720140000,"departure":1522720141000,"zoneId":"NA","stopIndex":1,"stopSequence":2,"vertexType":"TRANSIT"},"to":{"name":"Destination","lon":-71.06668,"lat":48.455248,"arrival":1522721921000,"orig":"","vertexType":"NORMAL"},"legGeometry":{"points":"{etfHxvxpL[MMO_@c@SSu@mBsAkD?A]{@_B}Du@oB?AO]M]KYKs@Ea@Gu@O{BQoBiA{MIk@GYISIOIKIGKIa@OWIqQeHGAoIqD}DcBqBy@GCWKiAe@_JkDECcAa@e@vBMh@Ot@q@tDy@fFsA`Hm@vDEl@","length":49},"rentedBike":false,"transitLeg":false,"duration":1780.0,"steps":[{"distance":417.939,"relativeDirection":"DEPART","streetName":"Rue des Champs","absoluteDirection":"NORTH","stayOn":false,"area":false,"bogusName":false,"lon":-71.074529,"lat":48.441429,"elevation":[]},{"distance":1443.0060000000003,"relativeDirection":"CONTINUE","streetName":"Rue Delisle","absoluteDirection":"EAST","stayOn":false,"area":false,"bogusName":false,"lon":-71.0701683,"lat":48.443755,"elevation":[]},{"distance":458.764,"relativeDirection":"LEFT","streetName":"Rue de Vimy","absoluteDirection":"NORTHWEST","stayOn":false,"area":false,"bogusName":false,"lon":-71.0608763,"lat":48.4538754,"elevation":[]}]}],"tooSloped":false},{"duration":2486,"startTime":1522720079000,"endTime":1522722565000,"walkTime":2004,"transitTime":480,"waitingTime":2,"walkDistance":2555.5924887090423,"walkLimitExceeded":false,"elevationLost":0.0,"elevationGained":0.0,"transfers":0,"legs":[{"startTime":1522720079000,"endTime":1522721699000,"departureDelay":0,"arrivalDelay":0,"realTime":false,"distance":2056.174,"pathway":false,"mode":"WALK","route":"","agencyTimeZoneOffset":-14400000,"interlineWithPreviousLeg":false,"from":{"name":"Origin","lon":-71.053021,"lat":48.418729,"departure":1522720079000,"orig":"","vertexType":"NORMAL"},"to":{"name":"Terminus Chicoutimi","stopId":"1:1289","stopCode":"1289","lon":-71.066163,"lat":48.428677,"arrival":1522721699000,"departure":1522721700000,"zoneId":"NA","stopIndex":0,"stopSequence":1,"vertexType":"TRANSIT"},"legGeometry":{"points":"mwofHbotpLwBuBY|@Sj@[x@d@`@XXD\\G`@w@zBTZJ`@AvBChAYAODQX[d@oBzBuBzBYXmBrAyBhAo@XiAgAaAcASOWWIIKIOl@EdACd@MLSICAOEk@CG?KACTM\\I\\Ax@Al@g@Zy@\\iG_@IpEAR?\\A|@?TC~C?n@CfBCdAAX?REvBCd@AVA\\CpAAx@A^Ar@EvCkCQQAsBIc@MKESAcAK","length":75},"rentedBike":false,"transitLeg":false,"duration":1620.0,"steps":[{"distance":152.13,"relativeDirection":"DEPART","streetName":"path","absoluteDirection":"NORTHEAST","stayOn":false,"area":false,"bogusName":false,"lon":-71.05281450938897,"lat":48.41863935175929,"elevation":[]},{"distance":122.724,"relativeDirection":"LEFT","streetName":"service road","absoluteDirection":"SOUTHWEST","stayOn":false,"area":false,"bogusName":true,"lon":-71.05304550000001,"lat":48.4196048,"elevation":[]},{"distance":74.519,"relativeDirection":"LEFT","streetName":"Chemin Saint Thomas","absoluteDirection":"SOUTHWEST","stayOn":false,"area":false,"bogusName":false,"lon":-71.05428950000001,"lat":48.4195775,"elevation":[]},{"distance":27.625,"relativeDirection":"CONTINUE","streetName":"Rue Newton","absoluteDirection":"WEST","stayOn":false,"area":false,"bogusName":false,"lon":-71.0551914,"lat":48.4194198,"elevation":[]},{"distance":403.881,"relativeDirection":"RIGHT","streetName":"Chemin Saint-Thomas","absoluteDirection":"NORTH","stayOn":false,"area":false,"bogusName":false,"lon":-71.05556510000001,"lat":48.4194344,"elevation":[]},{"distance":135.88400000000001,"relativeDirection":"RIGHT","streetName":"Rue Bégin","absoluteDirection":"NORTHEAST","stayOn":false,"area":false,"bogusName":false,"lon":-71.0581995,"lat":48.4225587,"elevation":[]},{"distance":127.559,"relativeDirection":"LEFT","streetName":"alley","absoluteDirection":"NORTHWEST","stayOn":false,"area":false,"bogusName":true,"lon":-71.05719760000001,"lat":48.4235836,"elevation":[]},{"distance":131.454,"relativeDirection":"LEFT","streetName":"path","absoluteDirection":"WEST","stayOn":true,"area":false,"bogusName":true,"lon":-71.0579166,"lat":48.424303900000005,"elevation":[]},{"distance":147.775,"relativeDirection":"SLIGHTLY_RIGHT","streetName":"Rue Maltais","absoluteDirection":"NORTH","stayOn":false,"area":false,"bogusName":false,"lon":-71.0591387,"lat":48.424959400000006,"elevation":[]},{"distance":502.91,"relativeDirection":"LEFT","streetName":"Rue Jacques-Cartier Est","absoluteDirection":"WEST","stayOn":false,"area":false,"bogusName":false,"lon":-71.0589782,"lat":48.426284100000004,"elevation":[]},{"distance":229.713,"relativeDirection":"RIGHT","streetName":"Rue Morin","absoluteDirection":"NORTH","stayOn":false,"area":false,"bogusName":false,"lon":-71.0657774,"lat":48.426577300000005,"elevation":[]}]},{"startTime":1522721700000,"endTime":1522722180000,"departureDelay":0,"arrivalDelay":0,"realTime":false,"distance":3171.96201036206,"pathway":false,"mode":"BUS","route":"22","agencyName":"Société de Transport du Saguenay","agencyUrl":"http://ville.saguenay.ca/fr/services-aux-citoyens/transport-sts","agencyTimeZoneOffset":-14400000,"routeColor":"C0C000","routeType":3,"routeId":"1:22","routeTextColor":"000000","interlineWithPreviousLeg":false,"tripBlockId":"3","headsign":"Terminus Chicoutimi","agencyId":"0","tripId":"1:217218","serviceDate":"20180402","from":{"name":"Terminus Chicoutimi","stopId":"1:1289","stopCode":"1289","lon":-71.066163,"lat":48.428677,"arrival":1522721699000,"departure":1522721700000,"zoneId":"NA","stopIndex":0,"stopSequence":1,"vertexType":"TRANSIT"},"to":{"name":"Delisle / Vimy","stopId":"1:2016","stopCode":"2016","lon":-71.060948,"lat":48.45351,"arrival":1522722180000,"departure":1522722181000,"zoneId":"NA","stopIndex":9,"stopSequence":10,"vertexType":"TRANSIT"},"legGeometry":{"points":"evqfHzcwpLg@?UhKxDVOhHMrH~CYhBBInAKXSNg@L{JHgBMoA[s@Usb@gS}@g@u@Su@Ia@Ck@Dm@HwAf@c@VeAx@iAlAU^[d@eLtTsAvBMJYF[EMIQ]y@wB[y@[{@_B{D{@uBe@gAO}AGw@SaCmAZe@AYOy@o@MKsAcA}BmBuC}BgA}@}BsBaAaA{@y@d@kDp@uEyIkDqHwC_@QmLyE","length":63},"routeShortName":"22","routeLongName":"Vanier","rentedBike":false,"transitLeg":true,"duration":480.0,"steps":[]},{"startTime":1522722181000,"endTime":1522722565000,"departureDelay":0,"arrivalDelay":0,"realTime":false,"distance":499.02299999999997,"pathway":false,"mode":"WALK","route":"","agencyTimeZoneOffset":-14400000,"interlineWithPreviousLeg":false,"from":{"name":"Delisle / Vimy","stopId":"1:2016","stopCode":"2016","lon":-71.060948,"lat":48.45351,"arrival":1522722180000,"departure":1522722181000,"zoneId":"NA","stopIndex":9,"stopSequence":10,"vertexType":"TRANSIT"},"to":{"name":"Destination","lon":-71.06668,"lat":48.455248,"arrival":1522722565000,"orig":"","vertexType":"NORMAL"},"legGeometry":{"points":"qqvfHpbvpLcAa@e@vBMh@Ot@q@tDy@fFsA`Hm@vDEl@","length":10},"rentedBike":false,"transitLeg":false,"duration":384.0,"steps":[{"distance":40.259,"relativeDirection":"DEPART","streetName":"Rue Delisle","absoluteDirection":"NORTH","stayOn":false,"area":false,"bogusName":false,"lon":-71.061046170069,"lat":48.4535313186617,"elevation":[]},{"distance":458.764,"relativeDirection":"LEFT","streetName":"Rue de Vimy","absoluteDirection":"NORTHWEST","stayOn":false,"area":false,"bogusName":false,"lon":-71.0608763,"lat":48.4538754,"elevation":[]}]}],"tooSloped":false}]},"debugOutput":{"precalculationTime":32,"pathCalculationTime":78,"pathTimes":[33,22,23],"renderingTime":1,"totalTime":111,"timedOut":false},"elevationMetadata":{"ellipsoidToGeoidDifference":-28.885904201182168,"geoidElevation":false}}