{"requestParameters":{"date":"2018/04/02","walkSpeed":"1.33","walkReluctance":"2.0","fromPlace":"48.451647,-71.081782","maxWalkDistance":"3000","waitReluctance":"1.0","carSpeed":"33","numItineraries":"3","waitAtBeginningFactor":"0.4","mode":"TRANSIT,WALK","ignoreRealtimeUpdates":"false","stairsReluctance":"2.0","toPlace":"48.403952,-71.054642","time":"19:0:00"},"plan":{"date":1522710000000,"from":{"name":"Origin","lon":-71.081782,"lat":48.451647,"orig":"","vertexType":"NORMAL"},"to":{"name":"Destination","lon":-71.054642,"lat":48.403952,"orig":"","vertexType":"NORMAL"},"itineraries":[{"duration":2240,"startTime":1522711620000,"endTime":1522713860000,"walkTime":663,"transitTime":1275,"waitingTime":302,"walkDistance":836.7306390911086,"walkLimitExceeded":false,"elevationLost":0.0,"elevationGained":0.0,"transfers":1,"legs":[{"startTime":1522711620000,"endTime":1522712061000,"departureDelay":0,"arrivalDelay":0,"realTime":false,"distance":572.4509999999999,"pathway":false,"mode":"WALK","route":"","agencyTimeZoneOffset":-14400000,"interlineWithPreviousLeg":false,"from":{"name":"Origin","lon":-71.081782,"lat":48.451647,"departure":1522711620000,"orig":"","vertexType":"NORMAL"},"to":{"name":"boul. Ste-Geneviève / Ste-Marie","stopId":"1:731","stopCode":"731","lon":-71.085744,"lat":48.448746,"arrival":1522712061000,"departure":1522712062000,"zoneId":"NA","stopIndex":29,"stopSequence":30,"vertexType":"TRANSIT"},"legGeometry":{"points":"mgvfHffzpL`@~@VhAHtADbCGrEHl@^d@nDnAnEMRBXb@LZhAmA","length":14},"rentedBike":false,"transitLeg":false,"duration":441.0,"steps":[{"distance":237.846,"relativeDirection":"DEPART","streetName":"Rue de Vimy","absoluteDirection":"SOUTHWEST","stayOn":false,"area":false,"bogusName":false,"lon":-71.08211642828164,"lat":48.45191513976267,"elevation":[]},{"distance":284.425,"relativeDirection":"SLIGHTLY_LEFT","streetName":"Rue Sainte-Marie Nord","absoluteDirection":"SOUTHWEST","stayOn":false,"area":false,"bogusName":false,"lon":-71.08518210000001,"lat":48.4515302,"elevation":[]},{"distance":50.18,"relativeDirection":"LEFT","streetName":"Boulevard Sainte-Geneviève","absoluteDirection":"SOUTHEAST","stayOn":false,"area":false,"bogusName":false,"lon":-71.08604790000001,"lat":48.4491566,"elevation":[]}]},{"startTime":1522712062000,"endTime":1522712400000,"departureDelay":0,"arrivalDelay":0,"realTime":false,"distance":2834.1349452765576,"pathway":false,"mode":"BUS","route":"21","agencyName":"Société de Transport du Saguenay","agencyUrl":"http://ville.saguenay.ca/fr/services-aux-citoyens/transport-sts","agencyTimeZoneOffset":-14400000,"routeColor":"556B2F","routeType":3,"routeId":"1:21","routeTextColor":"FFFFFF","interlineWithPreviousLeg":false,"tripBlockId":"2","headsign":"Terminus Chicoutimi","agencyId":"0","tripId":"1:217180","serviceDate":"20180402","from":{"name":"boul. Ste-Geneviève / Ste-Marie","stopId":"1:731","stopCode":"731","lon":-71.085744,"lat":48.448746,"arrival":1522712061000,"departure":1522712062000,"zoneId":"NA","stopIndex":29,"stopSequence":30,"vertexType":"TRANSIT"},"to":{"name":"Terminus Chicoutimi","stopId":"1:1289","stopCode":"1289","lon":-71.066163,"lat":48.428677,"arrival":1522712400000,"departure":1522712700000,"zoneId":"NA","stopIndex":34,"stopSequence":35,"vertexType":"TRANSIT"},"legGeometry":{"points":"}sufHh|zpLrFkG`FgGdBwBt@cAbAmBx@eBj@eB`CoHpCyJbAmCtAuCZg@|@gBxAsCrCmFhHqN~@eBr@cAt@_Av@}@RQPMz@k@tAe@REZG^Af@@X@VF`@Jn@XbClAr@Xt\\`PrAb@pA^hBTjAFj@Pb@JPHLLJNJRFXDT?X?ZEVEVKTMNMHMFOB}DWSGOSYcAN}FFkAF}DJyDPwGvAHVyL","length":68},"routeShortName":"21","routeLongName":"Boul. Ste-Geneviève/Élie","rentedBike":false,"transitLeg":true,"duration":338.0,"steps":[]},{"startTime":1522712700000,"endTime":1522713637000,"departureDelay":0,"arrivalDelay":0,"realTime":false,"distance":4513.779081531779,"pathway":false,"mode":"BUS","route":"175","agencyName":"Société de Transport du Saguenay","agencyUrl":"http://ville.saguenay.ca/fr/services-aux-citoyens/transport-sts","agencyTimeZoneOffset":-14400000,"routeColor":"FF00FF","routeType":3,"routeId":"1:175","routeTextColor":"FFFFFF","interlineWithPreviousLeg":false,"tripBlockId":"8","headsign":"Costco","agencyId":"0","tripId":"1:217383","serviceDate":"20180402","from":{"name":"Terminus Chicoutimi","stopId":"1:1289","stopCode":"1289","lon":-71.066163,"lat":48.428677,"arrival":1522712400000,"departure":1522712700000,"zoneId":"NA","stopIndex":0,"stopSequence":1,"vertexType":"TRANSIT"},"to":{"name":"Champs-Élysées (no. 1415)","stopId":"1:1925","stopCode":"1925","lon":-71.051931,"lat":48.403672,"arrival":1522713637000,"departure":1522713638000,"zoneId":"NA","stopIndex":18,"stopSequence":19,"vertexType":"TRANSIT"},"legGeometry":{"points":"kvqfH~awpL~CgBbAqa@FwCBkAOsHAg@bAYUwMKoE@mB@kJ@iFbEf@xEj@iCtYp@r@z@`ABBvHtHXRx@l@VwAvAgB\\qBIuAC]g@yEzDuLbBbBvAxAMx@|@v@`A~@Xw@~D~DPxFZtA~ApE`N{LpFmEb@[ROl@[vDQXKfA[|@q@fAsBlEmMr@sBhCsKz@dAjB|@dM`GzCvAXrCr@~Gx@]PEr@ObACn@FrBb@|@Ch@Kx@U","length":67},"routeShortName":"175","routeLongName":"Term. Chic / Costco","rentedBike":false,"transitLeg":true,"duration":937.0,"steps":[]},{"startTime":1522713638000,"endTime":1522713860000,"departureDelay":0,"arrivalDelay":0,"realTime":false,"distance":264.074,"pathway":false,"mode":"WALK","route":"","agencyTimeZoneOffset":-14400000,"interlineWithPreviousLeg":false,"from":{"name":"Champs-Élysées (no. 1415)","stopId":"1:1925","stopCode":"1925","lon":-71.051931,"lat":48.403672,"arrival":1522713637000,"departure":1522713638000,"zoneId":"NA","stopIndex":18,"stopSequence":19,"vertexType":"TRANSIT"},"to":{"name":"Destination","lon":-71.054642,"lat":48.403952,"arrival":1522713860000,"orig":"","vertexType":"NORMAL"},"legGeometry":{"points":"czlfHphtpLOFe@L@zA?p@ELPNk@hBOf@Wt@Xb@R\\T^R\\JL","length":15},"rentedBike":false,"transitLeg":false,"duration":222.0,"steps":[{"distance":31.103,"relativeDirection":"DEPART","streetName":"Rue des Champs-Élysées","absoluteDirection":"NORTH","stayOn":false,"area":false,"bogusName":false,"lon":-71.05176919271997,"lat":48.40370108692007,"elevation":[]},{"distance":232.97099999999998,"relativeDirection":"LEFT","streetName":"parking aisle","absoluteDirection":"WEST","stayOn":false,"area":false,"bogusName":true,"lon":-71.0518792,"lat":48.4039711,"elevation":[]}]}],"tooSloped":false},{"duration":3092,"startTime":1522712568000,"endTime":1522715660000,"walkTime":740,"transitTime":1750,"waitingTime":602,"walkDistance":938.8517443545214,"walkLimitExceeded":false,"elevationLost":0.0,"elevationGained":0.0,"transfers":1,"legs":[{"startTime":1522712568000,"endTime":1522713086000,"departureDelay":0,"arrivalDelay":0,"realTime":false,"distance":674.58,"pathway":false,"mode":"WALK","route":"","agencyTimeZoneOffset":-14400000,"interlineWithPreviousLeg":false,"from":{"name":"Origin","lon":-71.081782,"lat":48.451647,"departure":1522712568000,"orig":"","vertexType":"NORMAL"},"to":{"name":"St-Gérard / Pasteur","stopId":"1:727","stopCode":"727","lon":-71.084309,"lat":48.448719,"arrival":1522713086000,"departure":1522713087000,"zoneId":"NA","stopIndex":4,"stopSequence":5,"vertexType":"TRANSIT"},"legGeometry":{"points":"mgvfHffzpL`@~@VhAHtADbCGrEHl@^d@nDnAnEMRBXb@PUdCqCw@mBKU","length":16},"rentedBike":false,"transitLeg":false,"duration":518.0,"steps":[{"distance":237.846,"relativeDirection":"DEPART","streetName":"Rue de Vimy","absoluteDirection":"SOUTHWEST","stayOn":false,"area":false,"bogusName":false,"lon":-71.08211642828164,"lat":48.45191513976267,"elevation":[]},{"distance":271.214,"relativeDirection":"SLIGHTLY_LEFT","streetName":"Rue Sainte-Marie Nord","absoluteDirection":"SOUTHWEST","stayOn":false,"area":false,"bogusName":false,"lon":-71.08518210000001,"lat":48.4515302,"elevation":[]},{"distance":104.149,"relativeDirection":"LEFT","streetName":"Boulevard Sainte-Geneviève","absoluteDirection":"SOUTHEAST","stayOn":false,"area":false,"bogusName":false,"lon":-71.0859009,"lat":48.4492245,"elevation":[]},{"distance":61.371,"relativeDirection":"LEFT","streetName":"Rue Saint-Gérard","absoluteDirection":"NORTHEAST","stayOn":false,"area":false,"bogusName":false,"lon":-71.08506560000001,"lat":48.448469300000006,"elevation":[]}]},{"startTime":1522713087000,"endTime":1522713900000,"departureDelay":0,"arrivalDelay":0,"realTime":false,"distance":5744.20744275128,"pathway":false,"mode":"BUS","route":"23","agencyName":"Société de Transport du Saguenay","agencyUrl":"http://ville.saguenay.ca/fr/services-aux-citoyens/transport-sts","agencyTimeZoneOffset":-14400000,"routeColor":"FF00FF","routeType":3,"routeId":"1:23","routeTextColor":"FFFFFF","interlineWithPreviousLeg":false,"tripBlockId":"5","headsign":"Terminus Chicoutimi","agencyId":"0","tripId":"1:217276","serviceDate":"20180402","from":{"name":"St-Gérard / Pasteur","stopId":"1:727","stopCode":"727","lon":-71.084309,"lat":48.448719,"arrival":1522713086000,"departure":1522713087000,"zoneId":"NA","stopIndex":4,"stopSequence":5,"vertexType":"TRANSIT"},"to":{"name":"Terminus Chicoutimi","stopId":"1:1289","stopCode":"1289","lon":-71.066163,"lat":48.428677,"arrival":1522713900000,"departure":1522714500000,"zoneId":"NA","stopIndex":26,"stopSequence":27,"vertexType":"TRANSIT"},"legGeometry":{"points":"ssufHxtzpLGCUi@Wm@ScA_@gGSaE@_@@_@@ERoBFe@No@`@gAbCyFNe@Ha@He@Fg@Du@Dg@Hc@Pa@RW\\S`@QZEm@eHM}B?GGi@Is@Ou@Qw@Mo@Kw@ImAGoBAk@aALa@?YEUKc@Yc@_@KOIUGUEWAW?YBqAH_AXeC@IdB_Mh@_EJk@d@kDhAqI`AgHz@oGBU?UAWCWUwAWD]B]AUEoAc@kE}AOIq@g@g@u@]w@b@s@T[~CkFf@s@\\e@x@}@jAeAXQZStBaAh@]`@]`@i@l@kDF_@R{AFWFMPIPC`@BT@V?TAVKLENCLCJ@J@xAb@x@Zz@\\CP?R@N@NFLFF`GtBx@Xw@pG@l@B\\DXL\\RZDFXPf@N@v@Bp@Dr@l@~HNlAH\\@HLd@\\z@Xd@X\\RTXRr@Zn@PfExAvDpALnBJt@Pp@|@`DHZPn@`@rBNnAFr@DbA?bB@jABzA?p@A???A???A?A???A@??A?A@??A@?@A??@A@???@A@?@?@A@?@?@?@?@???@?@?@?@?@?@@@?@?@@@?@@@?@@@?@@?@@??@@@?E`@Kr@]rACVEl@I|AAr@JbAWJe@FUAM?a@Ke@YYWWa@v@}@RQPMz@k@tAe@REZG^Af@@X@VF`@Jn@XbClAr@Xt\\`PrAb@pA^hBTjAFj@Pb@JPHLLJNJRFXDT?X?ZEVEVKTMNMHMFOB}DWSGOSYcAN}FFkAF}DJyDd@wPV_HjAN~ALI`C","length":272},"routeShortName":"23","routeLongName":"Côte Verdun via Aréna du Plateau","rentedBike":false,"transitLeg":true,"duration":813.0,"steps":[]},{"startTime":1522714500000,"endTime":1522715437000,"departureDelay":0,"arrivalDelay":0,"realTime":false,"distance":4513.779081531779,"pathway":false,"mode":"BUS","route":"175","agencyName":"Société de Transport du Saguenay","agencyUrl":"http://ville.saguenay.ca/fr/services-aux-citoyens/transport-sts","agencyTimeZoneOffset":-14400000,"routeColor":"FF00FF","routeType":3,"routeId":"1:175","routeTextColor":"FFFFFF","interlineWithPreviousLeg":false,"tripBlockId":"6","headsign":"Costco","agencyId":"0","tripId":"1:217312","serviceDate":"20180402","from":{"name":"Terminus Chicoutimi","stopId":"1:1289","stopCode":"1289","lon":-71.066163,"lat":48.428677,"arrival":1522713900000,"departure":1522714500000,"zoneId":"NA","stopIndex":0,"stopSequence":1,"vertexType":"TRANSIT"},"to":{"name":"Champs-Élysées (no. 1415)","stopId":"1:1925","stopCode":"1925","lon":-71.051931,"lat":48.403672,"arrival":1522715437000,"departure":1522715438000,"zoneId":"NA","stopIndex":18,"stopSequence":19,"vertexType":"TRANSIT"},"legGeometry":{"points":"kvqfH~awpL~CgBbAqa@FwCBkAOsHAg@bAYUwMKoE@mB@kJ@iFbEf@xEj@iCtYp@r@z@`ABBvHtHXRx@l@VwAvAgB\\qBIuAC]g@yEzDuLbBbBvAxAMx@|@v@`A~@Xw@~D~DPxFZtA~ApE`N{LpFmEb@[ROl@[vDQXKfA[|@q@fAsBlEmMr@sBhCsKz@dAjB|@dM`GzCvAXrCr@~Gx@]PEr@ObACn@FrBb@|@Ch@Kx@U","length":67},"routeShortName":"175","routeLongName":"Term. Chic / Costco","rentedBike":false,"transitLeg":true,"duration":937.0,"steps":[]},{"startTime":1522715438000,"endTime":1522715660000,"departureDelay":0,"arrivalDelay":0,"realTime":false,"distance":264.074,"pathway":false,"mode":"WALK","route":"","agencyTimeZoneOffset":-14400000,"interlineWithPreviousLeg":false,"from":{"name":"Champs-Élysées (no. 1415)","stopId":"1:1925","stopCode":"1925","lon":-71.051931,"lat":48.403672,"arrival":1522715437000,"departure":1522715438000,"zoneId":"NA","stopIndex":18,"stopSequence":19,"vertexType":"TRANSIT"},"to":{"name":"Destination","lon":-71.054642,"lat":48.403952,"arrival":1522715660000,"orig":"","vertexType":"NORMAL"},"legGeometry":{"points":"czlfHphtpLOFe@L@zA?p@ELPNk@hBOf@Wt@Xb@R\\T^R\\JL","length":15},"rentedBike":false,"transitLeg":false,"duration":222.0,"steps":[{"distance":31.103,"relativeDirection":"DEPART","streetName":"Rue des Champs-Élysées","absoluteDirection":"NORTH","stayOn":false,"area":false,"bogusName":false,"lon":-71.05176919271997,"lat":48.40370108692007,"elevation":[]},{"distance":232.97099999999998,"relativeDirection":"LEFT","streetName":"parking aisle","absoluteDirection":"WEST","stayOn":false,"area":false,"bogusName":true,"lon":-71.0518792,"lat":48.4039711,"elevation":[]}]}],"tooSloped":false},{"duration":3067,"startTime":1522713125000,"endTime":1522716192000,"walkTime":994,"transitTime":1771,"waitingTime":302,"walkDistance":1251.581661645595,"walkLimitExceeded":false,"elevationLost":0.0,"elevationGained":0.0,"transfers":1,"legs":[{"startTime":1522713125000,"endTime":1522713748000,"departureDelay":0,"arrivalDelay":0,"realTime":false,"distance":807.9449999999999,"pathway":false,"mode":"WALK","route":"","agencyTimeZoneOffset":-14400000,"interlineWithPreviousLeg":false,"from":{"name":"Origin","lon":-71.081782,"lat":48.451647,"departure":1522713125000,"orig":"","vertexType":"NORMAL"},"to":{"name":"Ste-Marie (no. 224)","stopId":"1:697","stopCode":"697","lon":-71.085685,"lat":48.44687,"arrival":1522713748000,"departure":1522713749000,"zoneId":"NA","stopIndex":21,"stopSequence":22,"vertexType":"TRANSIT"},"legGeometry":{"points":"mgvfHffzpL`@~@VhAHtADbCGrEHl@^d@nDnAnEMRBXb@PUdCqCN\\`@z@HFJHfCElBA","length":20},"rentedBike":false,"transitLeg":false,"duration":623.0,"steps":[{"distance":237.846,"relativeDirection":"DEPART","streetName":"Rue de Vimy","absoluteDirection":"SOUTHWEST","stayOn":false,"area":false,"bogusName":false,"lon":-71.08211642828164,"lat":48.45191513976267,"elevation":[]},{"distance":271.214,"relativeDirection":"SLIGHTLY_LEFT","streetName":"Rue Sainte-Marie Nord","absoluteDirection":"SOUTHWEST","stayOn":false,"area":false,"bogusName":false,"lon":-71.08518210000001,"lat":48.4515302,"elevation":[]},{"distance":104.149,"relativeDirection":"LEFT","streetName":"Boulevard Sainte-Geneviève","absoluteDirection":"SOUTHEAST","stayOn":false,"area":false,"bogusName":false,"lon":-71.0859009,"lat":48.4492245,"elevation":[]},{"distance":14.609,"relativeDirection":"RIGHT","streetName":"Rue Saint-Gérard","absoluteDirection":"SOUTHWEST","stayOn":false,"area":false,"bogusName":false,"lon":-71.08506560000001,"lat":48.448469300000006,"elevation":[]},{"distance":35.026,"relativeDirection":"CONTINUE","streetName":"Rue Sainte-Marie Sud","absoluteDirection":"SOUTHWEST","stayOn":false,"area":false,"bogusName":false,"lon":-71.08521470000001,"lat":48.448382800000005,"elevation":[]},{"distance":145.101,"relativeDirection":"LEFT","streetName":"Rue Sainte-Marie Sud","absoluteDirection":"SOUTH","stayOn":true,"area":false,"bogusName":false,"lon":-71.0855571,"lat":48.448167500000004,"elevation":[]}]},{"startTime":1522713749000,"endTime":1522714200000,"departureDelay":0,"arrivalDelay":0,"realTime":false,"distance":3596.573827725571,"pathway":false,"mode":"BUS","route":"20","agencyName":"Société de Transport du Saguenay","agencyUrl":"http://ville.saguenay.ca/fr/services-aux-citoyens/transport-sts","agencyTimeZoneOffset":-14400000,"routeColor":"0000FF","routeType":3,"routeId":"1:20","routeTextColor":"FFFFFF","interlineWithPreviousLeg":false,"tripBlockId":"3","headsign":"Terminus Chicoutimi","agencyId":"0","tripId":"1:217213","serviceDate":"20180402","from":{"name":"Ste-Marie (no. 224)","stopId":"1:697","stopCode":"697","lon":-71.085685,"lat":48.44687,"arrival":1522713748000,"departure":1522713749000,"zoneId":"NA","stopIndex":21,"stopSequence":22,"vertexType":"TRANSIT"},"to":{"name":"Terminus Chicoutimi","stopId":"1:1289","stopCode":"1289","lon":-71.066163,"lat":48.428677,"arrival":1522714200000,"departure":1522714500000,"zoneId":"NA","stopIndex":31,"stopSequence":32,"vertexType":"TRANSIT"},"legGeometry":{"points":"}gufH`|zpLzBEd@Cf@Gj@MZMb@S`Ag@DClAk@f@Qv@Ov@IlBCnBa@TCTBjBPH@LiCDe@Lw@|@cELo@D[Dk@@[@uC@SBUDQFSt@yAHIr@eAjAaB`AqA^i@p@kAVc@\\cAr@eBv@aB|B_CJSDKLe@NeAJaAHeBBi@F{AaFe@c@IcDeAWtBOfAERGLIHIFMBa@NOQSOUGOCW?UFMHa@XUHQ?QIQOIM[g@rCmFhHqN~@eBr@cAt@_Av@}@RQPMz@k@tAe@REZG^Af@@X@VF`@Jn@XbClAr@Xt\\`PrAb@pA^hBTjAFj@Pb@JPHLLJNJRFXDT?X?ZEVEVKTMNMHMFOB}DWSGOSYcAN}FFkAF}DJyDPwGj@_QjAN~ALIpBGVITe@@","length":135},"routeShortName":"20","routeLongName":"Sainte-Claire","rentedBike":false,"transitLeg":true,"duration":451.0,"steps":[]},{"startTime":1522714500000,"endTime":1522715820000,"departureDelay":0,"arrivalDelay":0,"realTime":false,"distance":5637.162289945865,"pathway":false,"mode":"BUS","route":"15","agencyName":"Société de Transport du Saguenay","agencyUrl":"http://ville.saguenay.ca/fr/services-aux-citoyens/transport-sts","agencyTimeZoneOffset":-14400000,"routeColor":"FF00FF","routeType":3,"routeId":"1:15","routeTextColor":"FFFFFF","interlineWithPreviousLeg":false,"tripBlockId":"33","headsign":"Talbot / Barrette","agencyId":"0","tripId":"1:218199","serviceDate":"20180402","from":{"name":"Terminus Chicoutimi","stopId":"1:1289","stopCode":"1289","lon":-71.066163,"lat":48.428677,"arrival":1522714200000,"departure":1522714500000,"zoneId":"NA","stopIndex":0,"stopSequence":1,"vertexType":"TRANSIT"},"to":{"name":"Place du Royaume (Saguenéens)","stopId":"1:1294","stopCode":"1294","lon":-71.057691,"lat":48.402355,"arrival":1522715820000,"departure":1522715821000,"zoneId":"NA","stopIndex":24,"stopSequence":25,"vertexType":"TRANSIT"},"legGeometry":{"points":"evqfHpbwpLPiCjKx@HiEZkS\\aSN_K^eIrBpBvIpIr@r@\\mBfAaA`@gBOkB_@uF|DyL|DpDQ|@|@z@bA`ATw@dD~Ch@fA@`E~AjGuH`Iy@bBi@dCbEdEjJlJ`HbHlJpJ|J~JdAfALzDNzDrAdBrEKvBEbCv@d@TvFlC|DlBpMlGrB`AM}@hAwEC{B]oBiBmBsH_@_K{H`EgIvCaGfEoItDsH~DeItC{FnBoL","length":60},"routeShortName":"15","routeLongName":"Term. Chic / Costco","rentedBike":false,"transitLeg":true,"duration":1320.0,"steps":[]},{"startTime":1522715821000,"endTime":1522716192000,"departureDelay":0,"arrivalDelay":0,"realTime":false,"distance":443.37199999999996,"pathway":false,"mode":"WALK","route":"","agencyTimeZoneOffset":-14400000,"interlineWithPreviousLeg":false,"from":{"name":"Place du Royaume (Saguenéens)","stopId":"1:1294","stopCode":"1294","lon":-71.057691,"lat":48.402355,"arrival":1522715820000,"departure":1522715821000,"zoneId":"NA","stopIndex":24,"stopSequence":25,"vertexType":"TRANSIT"},"to":{"name":"Destination","lon":-71.054642,"lat":48.403952,"arrival":1522716192000,"orig":"","vertexType":"NORMAL"},"legGeometry":{"points":"iqlfHxmupLj@wDSi@CME[KKn@eECMGs@]IICWGGCYGECYGQGKKWYUSAEGIUXc@UQBWp@OWKQ","length":28},"rentedBike":false,"transitLeg":false,"duration":371.0,"steps":[{"distance":72.296,"relativeDirection":"DEPART","streetName":"Rue des Saguenéens","absoluteDirection":"EAST","stayOn":false,"area":false,"bogusName":false,"lon":-71.05772328170832,"lat":48.402297506554895,"elevation":[]},{"distance":44.199000000000005,"relativeDirection":"LEFT","streetName":"service road","absoluteDirection":"NORTHEAST","stayOn":false,"area":false,"bogusName":true,"lon":-71.0568056,"lat":48.4020704,"elevation":[]},{"distance":102.75299999999999,"relativeDirection":"RIGHT","streetName":"parking aisle","absoluteDirection":"EAST","stayOn":true,"area":false,"bogusName":true,"lon":-71.0563248,"lat":48.4022894,"elevation":[]},{"distance":131.326,"relativeDirection":"LEFT","streetName":"service road","absoluteDirection":"NORTH","stayOn":true,"area":false,"bogusName":true,"lon":-71.0550072,"lat":48.402104300000005,"elevation":[]},{"distance":37.529,"relativeDirection":"LEFT","streetName":"parking aisle","absoluteDirection":"NORTHWEST","stayOn":true,"area":false,"bogusName":true,"lon":-71.0543643,"lat":48.403182300000005,"elevation":[]},{"distance":55.269,"relativeDirection":"LEFT","streetName":"parking aisle","absoluteDirection":"NORTHWEST","stayOn":true,"area":false,"bogusName":true,"lon":-71.0543818,"lat":48.403475,"elevation":[]}]}],"tooSloped":false}]},"debugOutput":{"precalculationTime":23,"pathCalculationTime":24,"pathTimes":[14,4,5],"renderingTime":0,"totalTime":47,"timedOut":false},"elevationMetadata":{"ellipsoidToGeoidDifference":-28.885904201182168,"geoidElevation":false}}