{"requestParameters":{"date":"2018/04/02","walkSpeed":"1.33","walkReluctance":"2.0","fromPlace":"48.451647,-71.081782","maxWalkDistance":"3000","waitReluctance":"1.0","carSpeed":"33","numItineraries":"3","waitAtBeginningFactor":"0.4","mode":"TRANSIT,WALK","ignoreRealtimeUpdates":"false","stairsReluctance":"2.0","toPlace":"48.457944,-71.10299","time":"11:15:00"},"plan":{"date":1522682100000,"from":{"name":"Origin","lon":-71.081782,"lat":48.451647,"orig":"","vertexType":"NORMAL"},"to":{"name":"Destination","lon":-71.10299,"lat":48.457944,"orig":"","vertexType":"NORMAL"},"itineraries":[{"duration":1098,"startTime":1522682209000,"endTime":1522683307000,"walkTime":970,"transitTime":126,"waitingTime":2,"walkDistance":1259.8154436049103,"walkLimitExceeded":false,"elevationLost":0.0,"elevationGained":0.0,"transfers":0,"legs":[{"startTime":1522682209000,"endTime":1522682607000,"departureDelay":0,"arrivalDelay":0,"realTime":false,"distance":521.862,"pathway":false,"mode":"WALK","route":"","agencyTimeZoneOffset":-14400000,"interlineWithPreviousLeg":false,"from":{"name":"Origin","lon":-71.081782,"lat":48.451647,"departure":1522682209000,"orig":"","vertexType":"NORMAL"},"to":{"name":"boul. Ste-Geneviève / Ste-Marie","stopId":"1:708","stopCode":"708","lon":-71.08574,"lat":48.44916,"arrival":1522682607000,"departure":1522682608000,"zoneId":"NA","stopIndex":8,"stopSequence":9,"vertexType":"TRANSIT"},"legGeometry":{"points":"mgvfHffzpL`@~@VhAHtADbCGrEHl@^d@nDnAnEMRBXb@PU","length":13},"rentedBike":false,"transitLeg":false,"duration":398.0,"steps":[{"distance":237.846,"relativeDirection":"DEPART","streetName":"Rue de Vimy","absoluteDirection":"SOUTHWEST","stayOn":false,"area":false,"bogusName":false,"lon":-71.08211642828164,"lat":48.45191513976267,"elevation":[]},{"distance":271.214,"relativeDirection":"SLIGHTLY_LEFT","streetName":"Rue Sainte-Marie Nord","absoluteDirection":"SOUTHWEST","stayOn":false,"area":false,"bogusName":false,"lon":-71.08518210000001,"lat":48.4515302,"elevation":[]},{"distance":12.802,"relativeDirection":"LEFT","streetName":"Boulevard Sainte-Geneviève","absoluteDirection":"SOUTHEAST","stayOn":false,"area":false,"bogusName":false,"lon":-71.0859009,"lat":48.4492245,"elevation":[]}]},{"startTime":1522682608000,"endTime":1522682734000,"departureDelay":0,"arrivalDelay":0,"realTime":false,"distance":1687.131145398565,"pathway":false,"mode":"BUS","route":"21","agencyName":"Société de Transport du Saguenay","agencyUrl":"http://ville.saguenay.ca/fr/services-aux-citoyens/transport-sts","agencyTimeZoneOffset":-14400000,"routeColor":"556B2F","routeType":3,"routeId":"1:21","routeTextColor":"FFFFFF","interlineWithPreviousLeg":false,"tripBlockId":"2","headsign":"Terminus Chicoutimi","agencyId":"0","tripId":"1:217165","serviceDate":"20180402","from":{"name":"boul. Ste-Geneviève / Ste-Marie","stopId":"1:708","stopCode":"708","lon":-71.08574,"lat":48.44916,"arrival":1522682607000,"departure":1522682608000,"zoneId":"NA","stopIndex":8,"stopSequence":9,"vertexType":"TRANSIT"},"to":{"name":"boul. Ste-Geneviève / Épervières","stopId":"1:714","stopCode":"714","lon":-71.106978,"lat":48.454249,"arrival":1522682734000,"departure":1522682735000,"zoneId":"NA","stopIndex":14,"stopSequence":15,"vertexType":"TRANSIT"},"legGeometry":{"points":"_vufHj}zpLMP}@jAY`@q@jAm@jA}@rBmArD?Tu@|CYzAET{AxOQhBQ~Aa@~DQ~A[xCM~AiAjLo@vGk@tFe@vEu@xHgAdLIl@UhC","length":27},"routeShortName":"21","routeLongName":"Boul. Ste-Geneviève/Élie","rentedBike":false,"transitLeg":true,"duration":126.0,"steps":[]},{"startTime":1522682735000,"endTime":1522683307000,"departureDelay":0,"arrivalDelay":0,"realTime":false,"distance":737.8259999999999,"pathway":false,"mode":"WALK","route":"","agencyTimeZoneOffset":-14400000,"interlineWithPreviousLeg":false,"from":{"name":"boul. Ste-Geneviève / Épervières","stopId":"1:714","stopCode":"714","lon":-71.106978,"lat":48.454249,"arrival":1522682734000,"departure":1522682735000,"zoneId":"NA","stopIndex":14,"stopSequence":15,"vertexType":"TRANSIT"},"to":{"name":"Destination","lon":-71.10299,"lat":48.457944,"arrival":1522683307000,"orig":"","vertexType":"NORMAL"},"legGeometry":{"points":"quvfHxa_qLFk@N_B[I]IMGEAIGEGOOQMGGKGm@]yA_@GA{A]OEe@YaAiAQk@gBaIq@uC[sASu@eBjAYzB","length":27},"rentedBike":false,"transitLeg":false,"duration":572.0,"steps":[{"distance":52.994,"relativeDirection":"DEPART","streetName":"Boulevard Sainte-Geneviève","absoluteDirection":"EAST","stayOn":false,"area":false,"bogusName":false,"lon":-71.10700587445747,"lat":48.45417408807853,"elevation":[]},{"distance":573.709,"relativeDirection":"LEFT","streetName":"Rue des Épervières","absoluteDirection":"NORTH","stayOn":false,"area":false,"bogusName":false,"lon":-71.1063082,"lat":48.454059900000004,"elevation":[]},{"distance":63.203,"relativeDirection":"LEFT","streetName":"Rue des Fougères","absoluteDirection":"NORTHWEST","stayOn":false,"area":false,"bogusName":false,"lon":-71.1015776,"lat":48.4576739,"elevation":[]},{"distance":47.92,"relativeDirection":"LEFT","streetName":"service road","absoluteDirection":"WEST","stayOn":false,"area":false,"bogusName":false,"lon":-71.10195200000001,"lat":48.4581852,"elevation":[]}]}],"tooSloped":false},{"duration":1098,"startTime":1522684009000,"endTime":1522685107000,"walkTime":970,"transitTime":126,"waitingTime":2,"walkDistance":1259.8154436049103,"walkLimitExceeded":false,"elevationLost":0.0,"elevationGained":0.0,"transfers":0,"legs":[{"startTime":1522684009000,"endTime":1522684407000,"departureDelay":0,"arrivalDelay":0,"realTime":false,"distance":521.862,"pathway":false,"mode":"WALK","route":"","agencyTimeZoneOffset":-14400000,"interlineWithPreviousLeg":false,"from":{"name":"Origin","lon":-71.081782,"lat":48.451647,"departure":1522684009000,"orig":"","vertexType":"NORMAL"},"to":{"name":"boul. Ste-Geneviève / Ste-Marie","stopId":"1:708","stopCode":"708","lon":-71.08574,"lat":48.44916,"arrival":1522684407000,"departure":1522684408000,"zoneId":"NA","stopIndex":8,"stopSequence":9,"vertexType":"TRANSIT"},"legGeometry":{"points":"mgvfHffzpL`@~@VhAHtADbCGrEHl@^d@nDnAnEMRBXb@PU","length":13},"rentedBike":false,"transitLeg":false,"duration":398.0,"steps":[{"distance":237.846,"relativeDirection":"DEPART","streetName":"Rue de Vimy","absoluteDirection":"SOUTHWEST","stayOn":false,"area":false,"bogusName":false,"lon":-71.08211642828164,"lat":48.45191513976267,"elevation":[]},{"distance":271.214,"relativeDirection":"SLIGHTLY_LEFT","streetName":"Rue Sainte-Marie Nord","absoluteDirection":"SOUTHWEST","stayOn":false,"area":false,"bogusName":false,"lon":-71.08518210000001,"lat":48.4515302,"elevation":[]},{"distance":12.802,"relativeDirection":"LEFT","streetName":"Boulevard Sainte-Geneviève","absoluteDirection":"SOUTHEAST","stayOn":false,"area":false,"bogusName":false,"lon":-71.0859009,"lat":48.4492245,"elevation":[]}]},{"startTime":1522684408000,"endTime":1522684534000,"departureDelay":0,"arrivalDelay":0,"realTime":false,"distance":1687.131145398565,"pathway":false,"mode":"BUS","route":"21","agencyName":"Société de Transport du Saguenay","agencyUrl":"http://ville.saguenay.ca/fr/services-aux-citoyens/transport-sts","agencyTimeZoneOffset":-14400000,"routeColor":"556B2F","routeType":3,"routeId":"1:21","routeTextColor":"FFFFFF","interlineWithPreviousLeg":false,"tripBlockId":"2","headsign":"Terminus Chicoutimi","agencyId":"0","tripId":"1:217166","serviceDate":"20180402","from":{"name":"boul. Ste-Geneviève / Ste-Marie","stopId":"1:708","stopCode":"708","lon":-71.08574,"lat":48.44916,"arrival":1522684407000,"departure":1522684408000,"zoneId":"NA","stopIndex":8,"stopSequence":9,"vertexType":"TRANSIT"},"to":{"name":"boul. Ste-Geneviève / Épervières","stopId":"1:714","stopCode":"714","lon":-71.106978,"lat":48.454249,"arrival":1522684534000,"departure":1522684535000,"zoneId":"NA","stopIndex":14,"stopSequence":15,"vertexType":"TRANSIT"},"legGeometry":{"points":"_vufHj}zpLMP}@jAY`@q@jAm@jA}@rBmArD?Tu@|CYzAET{AxOQhBQ~Aa@~DQ~A[xCM~AiAjLo@vGk@tFe@vEu@xHgAdLIl@UhC","length":27},"routeShortName":"21","routeLongName":"Boul. Ste-Geneviève/Élie","rentedBike":false,"transitLeg":true,"duration":126.0,"steps":[]},{"startTime":1522684535000,"endTime":1522685107000,"departureDelay":0,"arrivalDelay":0,"realTime":false,"distance":737.8259999999999,"pathway":false,"mode":"WALK","route":"","agencyTimeZoneOffset":-14400000,"interlineWithPreviousLeg":false,"from":{"name":"boul. Ste-Geneviève / Épervières","stopId":"1:714","stopCode":"714","lon":-71.106978,"lat":48.454249,"arrival":1522684534000,"departure":1522684535000,"zoneId":"NA","stopIndex":14,"stopSequence":15,"vertexType":"TRANSIT"},"to":{"name":"Destination","lon":-71.10299,"lat":48.457944,"arrival":1522685107000,"orig":"","vertexType":"NORMAL"},"legGeometry":{"points":"quvfHxa_qLFk@N_B[I]IMGEAIGEGOOQMGGKGm@]yA_@GA{A]OEe@YaAiAQk@gBaIq@uC[sASu@eBjAYzB","length":27},"rentedBike":false,"transitLeg":false,"duration":572.0,"steps":[{"distance":52.994,"relativeDirection":"DEPART","streetName":"Boulevard Sainte-Geneviève","absoluteDirection":"EAST","stayOn":false,"area":false,"bogusName":false,"lon":-71.10700587445747,"lat":48.45417408807853,"elevation":[]},{"distance":573.709,"relativeDirection":"LEFT","streetName":"Rue des Épervières","absoluteDirection":"NORTH","stayOn":false,"area":false,"bogusName":false,"lon":-71.1063082,"lat":48.454059900000004,"elevation":[]},{"distance":63.203,"relativeDirection":"LEFT","streetName":"Rue des Fougères","absoluteDirection":"NORTHWEST","stayOn":false,"area":false,"bogusName":false,"lon":-71.1015776,"lat":48.4576739,"elevation":[]},{"distance":47.92,"relativeDirection":"LEFT","streetName":"service road","absoluteDirection":"WEST","stayOn":false,"area":false,"bogusName":false,"lon":-71.10195200000001,"lat":48.4581852,"elevation":[]}]}],"tooSloped":false},{"duration":1091,"startTime":1522685320000,"endTime":1522686411000,"walkTime":970,"transitTime":119,"waitingTime":2,"walkDistance":1259.8154436049103,"walkLimitExceeded":false,"elevationLost":0.0,"elevationGained":0.0,"transfers":0,"legs":[{"startTime":1522685320000,"endTime":1522685718000,"departureDelay":0,"arrivalDelay":0,"realTime":false,"distance":521.862,"pathway":false,"mode":"WALK","route":"","agencyTimeZoneOffset":-14400000,"interlineWithPreviousLeg":false,"from":{"name":"Origin","lon":-71.081782,"lat":48.451647,"departure":1522685320000,"orig":"","vertexType":"NORMAL"},"to":{"name":"boul. Ste-Geneviève / Ste-Marie","stopId":"1:708","stopCode":"708","lon":-71.08574,"lat":48.44916,"arrival":1522685718000,"departure":1522685719000,"zoneId":"NA","stopIndex":12,"stopSequence":13,"vertexType":"TRANSIT"},"legGeometry":{"points":"mgvfHffzpL`@~@VhAHtADbCGrEHl@^d@nDnAnEMRBXb@PU","length":13},"rentedBike":false,"transitLeg":false,"duration":398.0,"steps":[{"distance":237.846,"relativeDirection":"DEPART","streetName":"Rue de Vimy","absoluteDirection":"SOUTHWEST","stayOn":false,"area":false,"bogusName":false,"lon":-71.08211642828164,"lat":48.45191513976267,"elevation":[]},{"distance":271.214,"relativeDirection":"SLIGHTLY_LEFT","streetName":"Rue Sainte-Marie Nord","absoluteDirection":"SOUTHWEST","stayOn":false,"area":false,"bogusName":false,"lon":-71.08518210000001,"lat":48.4515302,"elevation":[]},{"distance":12.802,"relativeDirection":"LEFT","streetName":"Boulevard Sainte-Geneviève","absoluteDirection":"SOUTHEAST","stayOn":false,"area":false,"bogusName":false,"lon":-71.0859009,"lat":48.4492245,"elevation":[]}]},{"startTime":1522685719000,"endTime":1522685838000,"departureDelay":0,"arrivalDelay":0,"realTime":false,"distance":1687.131145398565,"pathway":false,"mode":"BUS","route":"65","agencyName":"Société de Transport du Saguenay","agencyUrl":"http://ville.saguenay.ca/fr/services-aux-citoyens/transport-sts","agencyTimeZoneOffset":-14400000,"routeColor":"00FFFF","routeType":3,"routeId":"1:65","routeTextColor":"000000","interlineWithPreviousLeg":false,"tripBlockId":"75","headsign":"Épicerie culinaire","agencyId":"0","tripId":"1:218626","serviceDate":"20180402","from":{"name":"boul. Ste-Geneviève / Ste-Marie","stopId":"1:708","stopCode":"708","lon":-71.08574,"lat":48.44916,"arrival":1522685718000,"departure":1522685719000,"zoneId":"NA","stopIndex":12,"stopSequence":13,"vertexType":"TRANSIT"},"to":{"name":"boul. Ste-Geneviève / Épervières","stopId":"1:714","stopCode":"714","lon":-71.106978,"lat":48.454249,"arrival":1522685838000,"departure":1522685839000,"zoneId":"NA","stopIndex":18,"stopSequence":19,"vertexType":"TRANSIT"},"legGeometry":{"points":"_vufHj}zpLMP}@jAY`@q@jAm@jA}@rBmArD?Tu@|CYzAEToB`SmBzRyBbUoAlM_C~UIl@WhC","length":19},"routeShortName":"65","routeLongName":"Term. Chic / Shipshaw","rentedBike":false,"transitLeg":true,"duration":119.0,"steps":[]},{"startTime":1522685839000,"endTime":1522686411000,"departureDelay":0,"arrivalDelay":0,"realTime":false,"distance":737.8259999999999,"pathway":false,"mode":"WALK","route":"","agencyTimeZoneOffset":-14400000,"interlineWithPreviousLeg":false,"from":{"name":"boul. Ste-Geneviève / Épervières","stopId":"1:714","stopCode":"714","lon":-71.106978,"lat":48.454249,"arrival":1522685838000,"departure":1522685839000,"zoneId":"NA","stopIndex":18,"stopSequence":19,"vertexType":"TRANSIT"},"to":{"name":"Destination","lon":-71.10299,"lat":48.457944,"arrival":1522686411000,"orig":"","vertexType":"NORMAL"},"legGeometry":{"points":"quvfHxa_qLFk@N_B[I]IMGEAIGEGOOQMGGKGm@]yA_@GA{A]OEe@YaAiAQk@gBaIq@uC[sASu@eBjAYzB","length":27},"rentedBike":false,"transitLeg":false,"duration":572.0,"steps":[{"distance":52.994,"relativeDirection":"DEPART","streetName":"Boulevard Sainte-Geneviève","absoluteDirection":"EAST","stayOn":false,"area":false,"bogusName":false,"lon":-71.10700587445747,"lat":48.45417408807853,"elevation":[]},{"distance":573.709,"relativeDirection":"LEFT","streetName":"Rue des Épervières","absoluteDirection":"NORTH","stayOn":false,"area":false,"bogusName":false,"lon":-71.1063082,"lat":48.454059900000004,"elevation":[]},{"distance":63.203,"relativeDirection":"LEFT","streetName":"Rue des Fougères","absoluteDirection":"NORTHWEST","stayOn":false,"area":false,"bogusName":false,"lon":-71.1015776,"lat":48.4576739,"elevation":[]},{"distance":47.92,"relativeDirection":"LEFT","streetName":"service road","absoluteDirection":"WEST","stayOn":false,"area":false,"bogusName":false,"lon":-71.10195200000001,"lat":48.4581852,"elevation":[]}]}],"tooSloped":false}]},"debugOutput":{"precalculationTime":8,"pathCalculationTime":19,"pathTimes":[12,5,2],"renderingTime":0,"totalTime":27,"timedOut":false},"elevationMetadata":{"ellipsoidToGeoidDifference":-28.885904201182168,"geoidElevation":false}}