{"requestParameters":{"date":"2018/04/02","walkSpeed":"1.33","walkReluctance":"2.0","fromPlace":"48.45417,-71.062855","maxWalkDistance":"3000","waitReluctance":"1.0","carSpeed":"33","numItineraries":"3","waitAtBeginningFactor":"0.4","mode":"TRANSIT,WALK","ignoreRealtimeUpdates":"false","stairsReluctance":"2.0","toPlace":"48.406351,-71.05878699","time":"12:0:00"},"plan":{"date":1522684800000,"from":{"name":"Origin","lon":-71.062855,"lat":48.45417,"orig":"","vertexType":"NORMAL"},"to":{"name":"Destination","lon":-71.05878699,"lat":48.406351,"orig":"","vertexType":"NORMAL"},"itineraries":[{"duration":2630,"startTime":1522686445000,"endTime":1522689075000,"walkTime":466,"transitTime":1862,"waitingTime":302,"walkDistance":600.0687894715613,"walkLimitExceeded":false,"elevationLost":0.0,"elevationGained":0.0,"transfers":1,"legs":[{"startTime":1522686445000,"endTime":1522686596000,"departureDelay":0,"arrivalDelay":0,"realTime":false,"distance":191.44600000000003,"pathway":false,"mode":"WALK","route":"","agencyTimeZoneOffset":-14400000,"interlineWithPreviousLeg":false,"from":{"name":"Origin","lon":-71.062855,"lat":48.45417,"departure":1522686445000,"orig":"","vertexType":"NORMAL"},"to":{"name":"Delisle / Vimy","stopId":"1:759","stopCode":"759","lon":-71.061215,"lat":48.453534,"arrival":1522686596000,"departure":1522686597000,"zoneId":"NA","stopIndex":22,"stopSequence":23,"vertexType":"TRANSIT"},"legGeometry":{"points":"awvfH|lvpLf@uCNu@Li@d@wBbA`@DB","length":7},"rentedBike":false,"transitLeg":false,"duration":151.0,"steps":[{"distance":147.596,"relativeDirection":"DEPART","streetName":"Rue de Vimy","absoluteDirection":"EAST","stayOn":false,"area":false,"bogusName":false,"lon":-71.06270238315675,"lat":48.454417421786715,"elevation":[]},{"distance":43.85,"relativeDirection":"RIGHT","streetName":"Rue Delisle","absoluteDirection":"SOUTH","stayOn":false,"area":false,"bogusName":false,"lon":-71.0608763,"lat":48.4538754,"elevation":[]}]},{"startTime":1522686597000,"endTime":1522687200000,"departureDelay":0,"arrivalDelay":0,"realTime":false,"distance":3775.0068685921115,"pathway":false,"mode":"BUS","route":"22","agencyName":"Société de Transport du Saguenay","agencyUrl":"http://ville.saguenay.ca/fr/services-aux-citoyens/transport-sts","agencyTimeZoneOffset":-14400000,"routeColor":"C0C000","routeType":3,"routeId":"1:22","routeTextColor":"000000","interlineWithPreviousLeg":false,"tripBlockId":"3","headsign":"Terminus Chicoutimi","agencyId":"0","tripId":"1:217198","serviceDate":"20180402","from":{"name":"Delisle / Vimy","stopId":"1:759","stopCode":"759","lon":-71.061215,"lat":48.453534,"arrival":1522686596000,"departure":1522686597000,"zoneId":"NA","stopIndex":22,"stopSequence":23,"vertexType":"TRANSIT"},"to":{"name":"Terminus Chicoutimi","stopId":"1:1289","stopCode":"1289","lon":-71.066163,"lat":48.428677,"arrival":1522687200000,"departure":1522687500000,"zoneId":"NA","stopIndex":35,"stopSequence":36,"vertexType":"TRANSIT"},"legGeometry":{"points":"kqvfHvbvpL|IrDhAb@qAfJSzAMr@Yz@xAhDFNpBdFRp@Hl@Jz@BXXrCHl@Lh@Nf@r@nAr@r@`@PLFbAVH_AXeC@IdB_Mh@_EJk@x@x@bA`A|BrBnDrCl@f@|BlBrAbAj@d@ZTXNd@@lA[ZxDN|Ad@fAz@tB~AzDZ|@Zv@x@vBP\\h@~@PVrCmFhHqN~@eBr@cAt@_Av@}@RQPMz@k@tAe@REZG^Af@@X@VF`@Jn@XbClAr@Xt\\`PrAb@pA^hBTjAFj@Pb@JPHLLJNJRFXDT?X?ZEVEVKTMNMHMFOB}DWSGOSYcAN}FFkAF}DJyDd@wPV_HjAN~ALIzBQb@e@@","length":109},"routeShortName":"22","routeLongName":"Vanier","rentedBike":false,"transitLeg":true,"duration":603.0,"steps":[]},{"startTime":1522687500000,"endTime":1522688759000,"departureDelay":0,"arrivalDelay":0,"realTime":false,"distance":5344.788688857265,"pathway":false,"mode":"BUS","route":"15","agencyName":"Société de Transport du Saguenay","agencyUrl":"http://ville.saguenay.ca/fr/services-aux-citoyens/transport-sts","agencyTimeZoneOffset":-14400000,"routeColor":"FF00FF","routeType":3,"routeId":"1:15","routeTextColor":"FFFFFF","interlineWithPreviousLeg":false,"tripBlockId":"31","headsign":"Talbot / Barrette","agencyId":"0","tripId":"1:218134","serviceDate":"20180402","from":{"name":"Terminus Chicoutimi","stopId":"1:1289","stopCode":"1289","lon":-71.066163,"lat":48.428677,"arrival":1522687200000,"departure":1522687500000,"zoneId":"NA","stopIndex":0,"stopSequence":1,"vertexType":"TRANSIT"},"to":{"name":"Saguenéens  / Bach","stopId":"1:575","stopCode":"575","lon":-71.061104,"lat":48.403689,"arrival":1522688759000,"departure":1522688760000,"zoneId":"NA","stopIndex":23,"stopSequence":24,"vertexType":"TRANSIT"},"legGeometry":{"points":"evqfHpbwpLPiCjKx@HiEZkS\\aSN_K^eIrBpBvIpIr@r@\\mBfAaA`@gBOkB_@uF|DyL|DpDQ|@|@z@bA`ATw@dD~Ch@fA@`E~AjGuH`Iy@bBi@dCbEdEjJlJ`HbHlJpJ|J~JdAfALzDNzDrAdBrEKvBEbCv@d@TvFlC|DlBpMlGrB`AM}@hAwEC{B]oBiBmBsH_@_K{H`EgIvCaGfEoItDsH~DeI","length":58},"routeShortName":"15","routeLongName":"Term. Chic / Costco","rentedBike":false,"transitLeg":true,"duration":1259.0,"steps":[]},{"startTime":1522688760000,"endTime":1522689075000,"departureDelay":0,"arrivalDelay":0,"realTime":false,"distance":408.557,"pathway":false,"mode":"WALK","route":"","agencyTimeZoneOffset":-14400000,"interlineWithPreviousLeg":false,"from":{"name":"Saguenéens  / Bach","stopId":"1:575","stopCode":"575","lon":-71.061104,"lat":48.403689,"arrival":1522688759000,"departure":1522688760000,"zoneId":"NA","stopIndex":23,"stopSequence":24,"vertexType":"TRANSIT"},"to":{"name":"Destination","lon":-71.05878699,"lat":48.406351,"arrival":1522689075000,"orig":"","vertexType":"NORMAL"},"legGeometry":{"points":"wylfHfcvpLgAnC}EuEeE}Dw@q@k@g@","length":6},"rentedBike":false,"transitLeg":false,"duration":315.0,"steps":[{"distance":66.956,"relativeDirection":"DEPART","streetName":"Rue des Saguenéens","absoluteDirection":"NORTHWEST","stayOn":false,"area":false,"bogusName":false,"lon":-71.0611521754673,"lat":48.403646208471976,"elevation":[]},{"distance":341.601,"relativeDirection":"RIGHT","streetName":"Rue Bach","absoluteDirection":"NORTHEAST","stayOn":false,"area":false,"bogusName":false,"lon":-71.06187870000001,"lat":48.404006700000004,"elevation":[]}]}],"tooSloped":false},{"duration":3322,"startTime":1522685754000,"endTime":1522689076000,"walkTime":1104,"transitTime":1616,"waitingTime":602,"walkDistance":1431.0236992439352,"walkLimitExceeded":false,"elevationLost":0.0,"elevationGained":0.0,"transfers":1,"legs":[{"startTime":1522685754000,"endTime":1522686359000,"departureDelay":0,"arrivalDelay":0,"realTime":false,"distance":783.833,"pathway":false,"mode":"WALK","route":"","agencyTimeZoneOffset":-14400000,"interlineWithPreviousLeg":false,"from":{"name":"Origin","lon":-71.062855,"lat":48.45417,"departure":1522685754000,"orig":"","vertexType":"NORMAL"},"to":{"name":"Verdun / Riviera","stopId":"1:2023","stopCode":"2023","lon":-71.057875,"lat":48.449739,"arrival":1522686359000,"departure":1522686360000,"zoneId":"NA","stopIndex":14,"stopSequence":15,"vertexType":"TRANSIT"},"legGeometry":{"points":"awvfH|lvpLf@uCNu@Li@d@wBjB}CTa@Pa@Ne@F[Hc@F_@lAcINFxCdAvCfAVHbBp@~@sAf@y@","length":20},"rentedBike":false,"transitLeg":false,"duration":605.0,"steps":[{"distance":446.39099999999996,"relativeDirection":"DEPART","streetName":"Rue de Vimy","absoluteDirection":"EAST","stayOn":false,"area":false,"bogusName":false,"lon":-71.06270238315675,"lat":48.454417421786715,"elevation":[]},{"distance":260.302,"relativeDirection":"RIGHT","streetName":"Rue Richelieu","absoluteDirection":"SOUTH","stayOn":false,"area":false,"bogusName":false,"lon":-71.0574594,"lat":48.4525377,"elevation":[]},{"distance":77.14,"relativeDirection":"LEFT","streetName":"Rue de Verdun","absoluteDirection":"SOUTHEAST","stayOn":false,"area":false,"bogusName":false,"lon":-71.05850140000001,"lat":48.450301200000006,"elevation":[]}]},{"startTime":1522686360000,"endTime":1522686900000,"departureDelay":0,"arrivalDelay":0,"realTime":false,"distance":3566.9301798582574,"pathway":false,"mode":"BUS","route":"23","agencyName":"Société de Transport du Saguenay","agencyUrl":"http://ville.saguenay.ca/fr/services-aux-citoyens/transport-sts","agencyTimeZoneOffset":-14400000,"routeColor":"FF00FF","routeType":3,"routeId":"1:23","routeTextColor":"FFFFFF","interlineWithPreviousLeg":false,"tripBlockId":"4","headsign":"Terminus Chicoutimi","agencyId":"0","tripId":"1:217234","serviceDate":"20180402","from":{"name":"Verdun / Riviera","stopId":"1:2023","stopCode":"2023","lon":-71.057875,"lat":48.449739,"arrival":1522686359000,"departure":1522686360000,"zoneId":"NA","stopIndex":14,"stopSequence":15,"vertexType":"TRANSIT"},"to":{"name":"Terminus Chicoutimi","stopId":"1:1289","stopCode":"1289","lon":-71.066163,"lat":48.428677,"arrival":1522686900000,"departure":1522687500000,"zoneId":"NA","stopIndex":26,"stopSequence":27,"vertexType":"TRANSIT"},"legGeometry":{"points":"czufHhnupLT[~CkFf@s@\\e@x@}@jAeAXQZStBaAh@]`@]`@i@l@kDF_@R{AFWFMPIPC`@BT@V?TAVKLENCLCJ@J@xAb@x@Zz@\\CP?R@N@NFLFF`GtBx@Xw@pG@l@B\\DXL\\RZDFXPf@N@v@Bp@Dr@l@~HNlAH\\@HLd@\\z@Xd@X\\RTXRr@Zn@PfExAvDpALnBJt@Pp@|@`DHZPn@`@rBNnAFr@DbA?bB@jABzA?p@A???A???A?A???A@??A?A@??A@?@A??@A@???@A@?@?@A@?@?@?@?@???@?@?@?@?@?@@@?@?@@@?@@@?@@@?@@?@@??@@@?E`@Kr@]rACVEl@I|AAr@JbAWJe@FUAM?a@Ke@YYWWa@v@}@RQPMz@k@tAe@REZG^Af@@X@VF`@Jn@XbClAr@Xt\\`PrAb@pA^hBTjAFj@Pb@JPHLLJNJRFXDT?X?ZEVEVKTMNMHMFOB}DWSGOSYcAN}FFkAF}DJyDd@wPV_HjAN~ALI`C","length":195},"routeShortName":"23","routeLongName":"Côte Verdun via Aréna du Plateau","rentedBike":false,"transitLeg":true,"duration":540.0,"steps":[]},{"startTime":1522687500000,"endTime":1522688576000,"departureDelay":0,"arrivalDelay":0,"realTime":false,"distance":5408.791385525205,"pathway":false,"mode":"BUS","route":"175","agencyName":"Société de Transport du Saguenay","agencyUrl":"http://ville.saguenay.ca/fr/services-aux-citoyens/transport-sts","agencyTimeZoneOffset":-14400000,"routeColor":"FF00FF","routeType":3,"routeId":"1:175","routeTextColor":"FFFFFF","interlineWithPreviousLeg":false,"tripBlockId":"6","headsign":"Costco","agencyId":"0","tripId":"1:217297","serviceDate":"20180402","from":{"name":"Terminus Chicoutimi","stopId":"1:1289","stopCode":"1289","lon":-71.066163,"lat":48.428677,"arrival":1522686900000,"departure":1522687500000,"zoneId":"NA","stopIndex":0,"stopSequence":1,"vertexType":"TRANSIT"},"to":{"name":"boul. Talbot (no. 1494) (Tim-Horton)","stopId":"1:1854","stopCode":"1854","lon":-71.060941,"lat":48.402118,"arrival":1522688576000,"departure":1522688577000,"zoneId":"NA","stopIndex":21,"stopSequence":22,"vertexType":"TRANSIT"},"legGeometry":{"points":"kvqfH~awpL~CgBbAqa@FwCBkAOsHAg@bAYUwMKoE@mB@kJ@iFbEf@xEj@iCtYp@r@z@`ABBvHtHXRx@l@VwAvAgB\\qBIuAC]g@yEzDuLbBbBvAxAMx@|@v@`A~@Xw@~D~DPxFZtA~ApE`N{LpFmEb@[ROl@[vDQXKfA[|@q@fAsBlEmMr@sBhCsKz@dAjB|@dM`GzCvAXrCr@~Gx@]PEr@ObACn@FrBb@|@Ch@Kx@U~HsB^KZ|DJpII~Fa@rFUzBi@bDUxAm@nCcAlDM^RTfD`D","length":81},"routeShortName":"175","routeLongName":"Term. Chic / Costco","rentedBike":false,"transitLeg":true,"duration":1076.0,"steps":[]},{"startTime":1522688577000,"endTime":1522689076000,"departureDelay":0,"arrivalDelay":0,"realTime":false,"distance":647.0609999999999,"pathway":false,"mode":"WALK","route":"","agencyTimeZoneOffset":-14400000,"interlineWithPreviousLeg":false,"from":{"name":"boul. Talbot (no. 1494) (Tim-Horton)","stopId":"1:1854","stopCode":"1854","lon":-71.060941,"lat":48.402118,"arrival":1522688576000,"departure":1522688577000,"zoneId":"NA","stopIndex":21,"stopSequence":22,"vertexType":"TRANSIT"},"to":{"name":"Destination","lon":-71.05878699,"lat":48.406351,"arrival":1522689076000,"orig":"","vertexType":"NORMAL"},"legGeometry":{"points":"}olfHhavpLgDcDMV_ArBwBxFSS}EuEeE}Dw@q@k@g@","length":10},"rentedBike":false,"transitLeg":false,"duration":499.0,"steps":[{"distance":111.149,"relativeDirection":"DEPART","streetName":"Boulevard Talbot","absoluteDirection":"NORTHEAST","stayOn":false,"area":false,"bogusName":false,"lon":-71.06084575275527,"lat":48.40207691199218,"elevation":[]},{"distance":181.411,"relativeDirection":"LEFT","streetName":"Rue des Saguenéens","absoluteDirection":"NORTHWEST","stayOn":false,"area":false,"bogusName":false,"lon":-71.0600254,"lat":48.4029151,"elevation":[]},{"distance":354.50100000000003,"relativeDirection":"RIGHT","streetName":"Rue Bach","absoluteDirection":"NORTHEAST","stayOn":false,"area":false,"bogusName":false,"lon":-71.0619727,"lat":48.403908900000005,"elevation":[]}]}],"tooSloped":false},{"duration":2630,"startTime":1522688245000,"endTime":1522690875000,"walkTime":466,"transitTime":1862,"waitingTime":302,"walkDistance":600.0687894715613,"walkLimitExceeded":false,"elevationLost":0.0,"elevationGained":0.0,"transfers":1,"legs":[{"startTime":1522688245000,"endTime":1522688396000,"departureDelay":0,"arrivalDelay":0,"realTime":false,"distance":191.44600000000003,"pathway":false,"mode":"WALK","route":"","agencyTimeZoneOffset":-14400000,"interlineWithPreviousLeg":false,"from":{"name":"Origin","lon":-71.062855,"lat":48.45417,"departure":1522688245000,"orig":"","vertexType":"NORMAL"},"to":{"name":"Delisle / Vimy","stopId":"1:759","stopCode":"759","lon":-71.061215,"lat":48.453534,"arrival":1522688396000,"departure":1522688397000,"zoneId":"NA","stopIndex":22,"stopSequence":23,"vertexType":"TRANSIT"},"legGeometry":{"points":"awvfH|lvpLf@uCNu@Li@d@wBbA`@DB","length":7},"rentedBike":false,"transitLeg":false,"duration":151.0,"steps":[{"distance":147.596,"relativeDirection":"DEPART","streetName":"Rue de Vimy","absoluteDirection":"EAST","stayOn":false,"area":false,"bogusName":false,"lon":-71.06270238315675,"lat":48.454417421786715,"elevation":[]},{"distance":43.85,"relativeDirection":"RIGHT","streetName":"Rue Delisle","absoluteDirection":"SOUTH","stayOn":false,"area":false,"bogusName":false,"lon":-71.0608763,"lat":48.4538754,"elevation":[]}]},{"startTime":1522688397000,"endTime":1522689000000,"departureDelay":0,"arrivalDelay":0,"realTime":false,"distance":3775.0068685921115,"pathway":false,"mode":"BUS","route":"22","agencyName":"Société de Transport du Saguenay","agencyUrl":"http://ville.saguenay.ca/fr/services-aux-citoyens/transport-sts","agencyTimeZoneOffset":-14400000,"routeColor":"C0C000","routeType":3,"routeId":"1:22","routeTextColor":"000000","interlineWithPreviousLeg":false,"tripBlockId":"1","headsign":"Terminus Chicoutimi","agencyId":"0","tripId":"1:217142","serviceDate":"20180402","from":{"name":"Delisle / Vimy","stopId":"1:759","stopCode":"759","lon":-71.061215,"lat":48.453534,"arrival":1522688396000,"departure":1522688397000,"zoneId":"NA","stopIndex":22,"stopSequence":23,"vertexType":"TRANSIT"},"to":{"name":"Terminus Chicoutimi","stopId":"1:1289","stopCode":"1289","lon":-71.066163,"lat":48.428677,"arrival":1522689000000,"departure":1522689300000,"zoneId":"NA","stopIndex":35,"stopSequence":36,"vertexType":"TRANSIT"},"legGeometry":{"points":"kqvfHvbvpL|IrDhAb@qAfJSzAMr@Yz@xAhDFNpBdFRp@Hl@Jz@BXXrCHl@Lh@Nf@r@nAr@r@`@PLFbAVH_AXeC@IdB_Mh@_EJk@x@x@bA`A|BrBnDrCl@f@|BlBrAbAj@d@ZTXNd@@lA[ZxDN|Ad@fAz@tB~AzDZ|@Zv@x@vBP\\h@~@PVrCmFhHqN~@eBr@cAt@_Av@}@RQPMz@k@tAe@REZG^Af@@X@VF`@Jn@XbClAr@Xt\\`PrAb@pA^hBTjAFj@Pb@JPHLLJNJRFXDT?X?ZEVEVKTMNMHMFOB}DWSGOSYcAN}FFkAF}DJyDd@wPV_HjAN~ALIzBQb@e@@","length":109},"routeShortName":"22","routeLongName":"Vanier","rentedBike":false,"transitLeg":true,"duration":603.0,"steps":[]},{"startTime":1522689300000,"endTime":1522690559000,"departureDelay":0,"arrivalDelay":0,"realTime":false,"distance":5344.788688857265,"pathway":false,"mode":"BUS","route":"15","agencyName":"Société de Transport du Saguenay","agencyUrl":"http://ville.saguenay.ca/fr/services-aux-citoyens/transport-sts","agencyTimeZoneOffset":-14400000,"routeColor":"FF00FF","routeType":3,"routeId":"1:15","routeTextColor":"FFFFFF","interlineWithPreviousLeg":false,"tripBlockId":"33","headsign":"Talbot / Barrette","agencyId":"0","tripId":"1:218185","serviceDate":"20180402","from":{"name":"Terminus Chicoutimi","stopId":"1:1289","stopCode":"1289","lon":-71.066163,"lat":48.428677,"arrival":1522689000000,"departure":1522689300000,"zoneId":"NA","stopIndex":0,"stopSequence":1,"vertexType":"TRANSIT"},"to":{"name":"Saguenéens  / Bach","stopId":"1:575","stopCode":"575","lon":-71.061104,"lat":48.403689,"arrival":1522690559000,"departure":1522690560000,"zoneId":"NA","stopIndex":23,"stopSequence":24,"vertexType":"TRANSIT"},"legGeometry":{"points":"evqfHpbwpLPiCjKx@HiEZkS\\aSN_K^eIrBpBvIpIr@r@\\mBfAaA`@gBOkB_@uF|DyL|DpDQ|@|@z@bA`ATw@dD~Ch@fA@`E~AjGuH`Iy@bBi@dCbEdEjJlJ`HbHlJpJ|J~JdAfALzDNzDrAdBrEKvBEbCv@d@TvFlC|DlBpMlGrB`AM}@hAwEC{B]oBiBmBsH_@_K{H`EgIvCaGfEoItDsH~DeI","length":58},"routeShortName":"15","routeLongName":"Term. Chic / Costco","rentedBike":false,"transitLeg":true,"duration":1259.0,"steps":[]},{"startTime":1522690560000,"endTime":1522690875000,"departureDelay":0,"arrivalDelay":0,"realTime":false,"distance":408.557,"pathway":false,"mode":"WALK","route":"","agencyTimeZoneOffset":-14400000,"interlineWithPreviousLeg":false,"from":{"name":"Saguenéens  / Bach","stopId":"1:575","stopCode":"575","lon":-71.061104,"lat":48.403689,"arrival":1522690559000,"departure":1522690560000,"zoneId":"NA","stopIndex":23,"stopSequence":24,"vertexType":"TRANSIT"},"to":{"name":"Destination","lon":-71.05878699,"lat":48.406351,"arrival":1522690875000,"orig":"","vertexType":"NORMAL"},"legGeometry":{"points":"wylfHfcvpLgAnC}EuEeE}Dw@q@k@g@","length":6},"rentedBike":false,"transitLeg":false,"duration":315.0,"steps":[{"distance":66.956,"relativeDirection":"DEPART","streetName":"Rue des Saguenéens","absoluteDirection":"NORTHWEST","stayOn":false,"area":false,"bogusName":false,"lon":-71.0611521754673,"lat":48.403646208471976,"elevation":[]},{"distance":341.601,"relativeDirection":"RIGHT","streetName":"Rue Bach","absoluteDirection":"NORTHEAST","stayOn":false,"area":false,"bogusName":false,"lon":-71.06187870000001,"lat":48.404006700000004,"elevation":[]}]}],"tooSloped":false}]},"debugOutput":{"precalculationTime":30,"pathCalculationTime":27,"pathTimes":[18,4,5],"renderingTime":1,"totalTime":58,"timedOut":false},"elevationMetadata":{"ellipsoidToGeoidDifference":-28.885904201182168,"geoidElevation":false}}