{"requestParameters":{"date":"2018/04/02","walkSpeed":"1.33","walkReluctance":"2.0","fromPlace":"48.422638,-71.059381","maxWalkDistance":"3000","waitReluctance":"1.0","carSpeed":"33","numItineraries":"3","waitAtBeginningFactor":"0.4","mode":"TRANSIT,WALK","ignoreRealtimeUpdates":"false","stairsReluctance":"2.0","toPlace":"48.454517,-71.052407","time":"16:0:00"},"plan":{"date":1522699200000,"from":{"name":"Origin","lon":-71.059381,"lat":48.422638,"orig":"","vertexType":"NORMAL"},"to":{"name":"Destination","lon":-71.052407,"lat":48.454517,"orig":"","vertexType":"NORMAL"},"itineraries":[{"duration":1828,"startTime":1522700855000,"endTime":1522702683000,"walkTime":1078,"transitTime":748,"waitingTime":2,"walkDistance":1362.9228045041216,"walkLimitExceeded":false,"elevationLost":0.0,"elevationGained":0.0,"transfers":0,"legs":[{"startTime":1522700855000,"endTime":1522701899000,"departureDelay":0,"arrivalDelay":0,"realTime":false,"distance":1318.2000000000003,"pathway":false,"mode":"WALK","route":"","agencyTimeZoneOffset":-14400000,"interlineWithPreviousLeg":false,"from":{"name":"Origin","lon":-71.059381,"lat":48.422638,"departure":1522700855000,"orig":"","vertexType":"NORMAL"},"to":{"name":"Terminus Chicoutimi","stopId":"1:1289","stopCode":"1289","lon":-71.066163,"lat":48.428677,"arrival":1522701899000,"departure":1522701900000,"zoneId":"NA","stopIndex":0,"stopSequence":1,"vertexType":"TRANSIT"},"legGeometry":{"points":"_npfHzrupLe@i@WYiAgAaAcASOWWIIKIOl@EdACd@MLSICAOEk@CG?KACTM\\I\\Ax@Al@g@Zy@\\iG_@IpEAR?\\A|@?TC~C?n@CfBCdAAX?REvBCd@AVA\\CpAAx@A^Ar@EvCkCQQAsBIc@MKESAcAK","length":54},"rentedBike":false,"transitLeg":false,"duration":1044.0,"steps":[{"distance":178.78900000000002,"relativeDirection":"DEPART","streetName":"Rue Bégin","absoluteDirection":"NORTHEAST","stayOn":false,"area":false,"bogusName":false,"lon":-71.05853375745859,"lat":48.42224297166872,"elevation":[]},{"distance":127.559,"relativeDirection":"LEFT","streetName":"alley","absoluteDirection":"NORTHWEST","stayOn":false,"area":false,"bogusName":true,"lon":-71.05719760000001,"lat":48.4235836,"elevation":[]},{"distance":131.454,"relativeDirection":"LEFT","streetName":"path","absoluteDirection":"WEST","stayOn":true,"area":false,"bogusName":true,"lon":-71.0579166,"lat":48.424303900000005,"elevation":[]},{"distance":147.775,"relativeDirection":"SLIGHTLY_RIGHT","streetName":"Rue Maltais","absoluteDirection":"NORTH","stayOn":false,"area":false,"bogusName":false,"lon":-71.0591387,"lat":48.424959400000006,"elevation":[]},{"distance":502.91,"relativeDirection":"LEFT","streetName":"Rue Jacques-Cartier Est","absoluteDirection":"WEST","stayOn":false,"area":false,"bogusName":false,"lon":-71.0589782,"lat":48.426284100000004,"elevation":[]},{"distance":229.713,"relativeDirection":"RIGHT","streetName":"Rue Morin","absoluteDirection":"NORTH","stayOn":false,"area":false,"bogusName":false,"lon":-71.0657774,"lat":48.426577300000005,"elevation":[]}]},{"startTime":1522701900000,"endTime":1522702648000,"departureDelay":0,"arrivalDelay":0,"realTime":false,"distance":4624.446756531511,"pathway":false,"mode":"BUS","route":"22","agencyName":"Société de Transport du Saguenay","agencyUrl":"http://ville.saguenay.ca/fr/services-aux-citoyens/transport-sts","agencyTimeZoneOffset":-14400000,"routeColor":"C0C000","routeType":3,"routeId":"1:22","routeTextColor":"000000","interlineWithPreviousLeg":false,"tripBlockId":"1","headsign":"Terminus Chicoutimi","agencyId":"0","tripId":"1:217150","serviceDate":"20180402","from":{"name":"Terminus Chicoutimi","stopId":"1:1289","stopCode":"1289","lon":-71.066163,"lat":48.428677,"arrival":1522701899000,"departure":1522701900000,"zoneId":"NA","stopIndex":0,"stopSequence":1,"vertexType":"TRANSIT"},"to":{"name":"Lacordaire / Lambert","stopId":"1:754","stopCode":"754","lon":-71.0524,"lat":48.4541,"arrival":1522702648000,"departure":1522702649000,"zoneId":"NA","stopIndex":18,"stopSequence":19,"vertexType":"TRANSIT"},"legGeometry":{"points":"evqfHzcwpLg@?UhKxDVOhHMrH~CYhBBInAKXSNg@L{JHgBMoA[s@Usb@gS}@g@u@Su@Ia@Ck@Dm@HwAf@c@VeAx@iAlAU^[d@eLtTsAvBMJYF[EMIQ]y@wB[y@[{@_B{D{@uBe@gAO}AGw@SaCmAZe@AYOy@o@MKsAcA}BmBuC}BgA}@}BsBaAaA{@y@d@kDp@uEyIkDqHwC_@QmLyEy@]}I_D\\cDBWwCgAcCy@NoAZoCH{@BaA@}AJuBBYTuBaAa@c@QEEACAG?G?G?KAGgE}HGMGOU{@EOp@m@FIHQFSDW^qDJB`@LHDFFFJ^hAFVDZBXBn@@H@RBLFTHNHHJFLBP@j@OLAJAN@@?l@NTwBDQFMFIJGHCL?H@hGjB","length":131},"routeShortName":"22","routeLongName":"Vanier","rentedBike":false,"transitLeg":true,"duration":748.0,"steps":[]},{"startTime":1522702649000,"endTime":1522702683000,"departureDelay":0,"arrivalDelay":0,"realTime":false,"distance":44.501,"pathway":false,"mode":"WALK","route":"","agencyTimeZoneOffset":-14400000,"interlineWithPreviousLeg":false,"from":{"name":"Lacordaire / Lambert","stopId":"1:754","stopCode":"754","lon":-71.0524,"lat":48.4541,"arrival":1522702648000,"departure":1522702649000,"zoneId":"NA","stopIndex":18,"stopSequence":19,"vertexType":"TRANSIT"},"to":{"name":"Destination","lon":-71.052407,"lat":48.454517,"arrival":1522702683000,"orig":"","vertexType":"NORMAL"},"legGeometry":{"points":"}tvfHxktpLmA_@","length":2},"rentedBike":false,"transitLeg":false,"duration":34.0,"steps":[{"distance":44.501,"relativeDirection":"DEPART","streetName":"Rue Lacordaire","absoluteDirection":"NORTH","stayOn":false,"area":false,"bogusName":false,"lon":-71.052286128727,"lat":48.454078789605234,"elevation":[]}]}],"tooSloped":false},{"duration":2401,"startTime":1522700855000,"endTime":1522703256000,"walkTime":1739,"transitTime":660,"waitingTime":2,"walkDistance":2212.81406765862,"walkLimitExceeded":false,"elevationLost":0.0,"elevationGained":0.0,"transfers":0,"legs":[{"startTime":1522700855000,"endTime":1522701899000,"departureDelay":0,"arrivalDelay":0,"realTime":false,"distance":1318.2000000000003,"pathway":false,"mode":"WALK","route":"","agencyTimeZoneOffset":-14400000,"interlineWithPreviousLeg":false,"from":{"name":"Origin","lon":-71.059381,"lat":48.422638,"departure":1522700855000,"orig":"","vertexType":"NORMAL"},"to":{"name":"Terminus Chicoutimi","stopId":"1:1289","stopCode":"1289","lon":-71.066163,"lat":48.428677,"arrival":1522701899000,"departure":1522701900000,"zoneId":"NA","stopIndex":0,"stopSequence":1,"vertexType":"TRANSIT"},"legGeometry":{"points":"_npfHzrupLe@i@WYiAgAaAcASOWWIIKIOl@EdACd@MLSICAOEk@CG?KACTM\\I\\Ax@Al@g@Zy@\\iG_@IpEAR?\\A|@?TC~C?n@CfBCdAAX?REvBCd@AVA\\CpAAx@A^Ar@EvCkCQQAsBIc@MKESAcAK","length":54},"rentedBike":false,"transitLeg":false,"duration":1044.0,"steps":[{"distance":178.78900000000002,"relativeDirection":"DEPART","streetName":"Rue Bégin","absoluteDirection":"NORTHEAST","stayOn":false,"area":false,"bogusName":false,"lon":-71.05853375745859,"lat":48.42224297166872,"elevation":[]},{"distance":127.559,"relativeDirection":"LEFT","streetName":"alley","absoluteDirection":"NORTHWEST","stayOn":false,"area":false,"bogusName":true,"lon":-71.05719760000001,"lat":48.4235836,"elevation":[]},{"distance":131.454,"relativeDirection":"LEFT","streetName":"path","absoluteDirection":"WEST","stayOn":true,"area":false,"bogusName":true,"lon":-71.0579166,"lat":48.424303900000005,"elevation":[]},{"distance":147.775,"relativeDirection":"SLIGHTLY_RIGHT","streetName":"Rue Maltais","absoluteDirection":"NORTH","stayOn":false,"area":false,"bogusName":false,"lon":-71.0591387,"lat":48.424959400000006,"elevation":[]},{"distance":502.91,"relativeDirection":"LEFT","streetName":"Rue Jacques-Cartier Est","absoluteDirection":"WEST","stayOn":false,"area":false,"bogusName":false,"lon":-71.0589782,"lat":48.426284100000004,"elevation":[]},{"distance":229.713,"relativeDirection":"RIGHT","streetName":"Rue Morin","absoluteDirection":"NORTH","stayOn":false,"area":false,"bogusName":false,"lon":-71.0657774,"lat":48.426577300000005,"elevation":[]}]},{"startTime":1522701900000,"endTime":1522702560000,"departureDelay":0,"arrivalDelay":0,"realTime":false,"distance":4846.683748665354,"pathway":false,"mode":"BUS","route":"23","agencyName":"Société de Transport du Saguenay","agencyUrl":"http://ville.saguenay.ca/fr/services-aux-citoyens/transport-sts","agencyTimeZoneOffset":-14400000,"routeColor":"FF00FF","routeType":3,"routeId":"1:23","routeTextColor":"FFFFFF","interlineWithPreviousLeg":false,"tripBlockId":"5","headsign":"Terminus Chicoutimi","agencyId":"0","tripId":"1:217270","serviceDate":"20180402","from":{"name":"Terminus Chicoutimi","stopId":"1:1289","stopCode":"1289","lon":-71.066163,"lat":48.428677,"arrival":1522701899000,"departure":1522701900000,"zoneId":"NA","stopIndex":0,"stopSequence":1,"vertexType":"TRANSIT"},"to":{"name":"Verdun / Riviera","stopId":"1:2023","stopCode":"2023","lon":-71.057875,"lat":48.449739,"arrival":1522702560000,"departure":1522702561000,"zoneId":"NA","stopIndex":14,"stopSequence":15,"vertexType":"TRANSIT"},"legGeometry":{"points":"kwqfHjbwpLF_CkAOYCm@rRO\\WjGOfGCRK^KJMHQB_AMg@Gw`@eR}@g@u@Su@Ia@Ck@Dm@HwAf@c@VeAx@iAlAU^[d@eLtTsAvB_CvEuAnCmBlE}@|B_BvFoC`JCD}@hCo@~Aq@pAs@fA{BlCqH|Iq@Bq@Im@UGCUi@Wm@ScA_@gGSaE@_@@_@@ERoBFe@No@`@gAbCyFNe@Ha@He@Fg@Du@Dg@Hc@Pa@RW\\S`@QZEm@eHM}B?GGi@Is@Ou@Qw@Mo@Kw@ImAGoBAk@aALa@?YEUKc@Yc@_@KOIUGUEWAW?YBqAH_AXeC@IdB_Mh@_EJk@d@kDhAqI`AgHz@oGBU?UAWCWUwAWD]B]AUEoAc@kE}AOIq@g@g@u@]w@b@s@","length":123},"routeShortName":"23","routeLongName":"Côte Verdun via Aréna du Plateau","rentedBike":false,"transitLeg":true,"duration":660.0,"steps":[]},{"startTime":1522702561000,"endTime":1522703256000,"departureDelay":0,"arrivalDelay":0,"realTime":false,"distance":894.287,"pathway":false,"mode":"WALK","route":"","agencyTimeZoneOffset":-14400000,"interlineWithPreviousLeg":false,"from":{"name":"Verdun / Riviera","stopId":"1:2023","stopCode":"2023","lon":-71.057875,"lat":48.449739,"arrival":1522702560000,"departure":1522702561000,"zoneId":"NA","stopIndex":14,"stopSequence":15,"vertexType":"TRANSIT"},"to":{"name":"Destination","lon":-71.052407,"lat":48.454517,"arrival":1522703256000,"orig":"","vertexType":"NORMAL"},"legGeometry":{"points":"czufHfnupLg@x@_ArAcBq@WIwCgAyCeAOGQGcC_AMEOEOGKEOCIEEEAGAC?E?I@Y\\yB@INiBHq@?YC]kBqIAK?I?K?I?Y?IHm@Fm@[KmA_@","length":39},"rentedBike":false,"transitLeg":false,"duration":695.0,"steps":[{"distance":77.14,"relativeDirection":"DEPART","streetName":"Rue de Verdun","absoluteDirection":"NORTHWEST","stayOn":false,"area":false,"bogusName":false,"lon":-71.05779790898674,"lat":48.44978803093983,"elevation":[]},{"distance":260.302,"relativeDirection":"RIGHT","streetName":"Rue Richelieu","absoluteDirection":"NORTH","stayOn":false,"area":false,"bogusName":false,"lon":-71.05850140000001,"lat":48.450301200000006,"elevation":[]},{"distance":145.028,"relativeDirection":"CONTINUE","streetName":"Rue Fabre","absoluteDirection":"NORTH","stayOn":false,"area":false,"bogusName":false,"lon":-71.0574594,"lat":48.4525377,"elevation":[]},{"distance":350.605,"relativeDirection":"RIGHT","streetName":"Rue Lambert","absoluteDirection":"EAST","stayOn":false,"area":false,"bogusName":false,"lon":-71.0568216,"lat":48.4537539,"elevation":[]},{"distance":61.211999999999996,"relativeDirection":"LEFT","streetName":"Rue Lacordaire","absoluteDirection":"NORTH","stayOn":false,"area":false,"bogusName":false,"lon":-71.0523474,"lat":48.453934100000005,"elevation":[]}]}],"tooSloped":false},{"duration":1828,"startTime":1522702655000,"endTime":1522704483000,"walkTime":1078,"transitTime":748,"waitingTime":2,"walkDistance":1362.9228045041216,"walkLimitExceeded":false,"elevationLost":0.0,"elevationGained":0.0,"transfers":0,"legs":[{"startTime":1522702655000,"endTime":1522703699000,"departureDelay":0,"arrivalDelay":0,"realTime":false,"distance":1318.2000000000003,"pathway":false,"mode":"WALK","route":"","agencyTimeZoneOffset":-14400000,"interlineWithPreviousLeg":false,"from":{"name":"Origin","lon":-71.059381,"lat":48.422638,"departure":1522702655000,"orig":"","vertexType":"NORMAL"},"to":{"name":"Terminus Chicoutimi","stopId":"1:1289","stopCode":"1289","lon":-71.066163,"lat":48.428677,"arrival":1522703699000,"departure":1522703700000,"zoneId":"NA","stopIndex":0,"stopSequence":1,"vertexType":"TRANSIT"},"legGeometry":{"points":"_npfHzrupLe@i@WYiAgAaAcASOWWIIKIOl@EdACd@MLSICAOEk@CG?KACTM\\I\\Ax@Al@g@Zy@\\iG_@IpEAR?\\A|@?TC~C?n@CfBCdAAX?REvBCd@AVA\\CpAAx@A^Ar@EvCkCQQAsBIc@MKESAcAK","length":54},"rentedBike":false,"transitLeg":false,"duration":1044.0,"steps":[{"distance":178.78900000000002,"relativeDirection":"DEPART","streetName":"Rue Bégin","absoluteDirection":"NORTHEAST","stayOn":false,"area":false,"bogusName":false,"lon":-71.05853375745859,"lat":48.42224297166872,"elevation":[]},{"distance":127.559,"relativeDirection":"LEFT","streetName":"alley","absoluteDirection":"NORTHWEST","stayOn":false,"area":false,"bogusName":true,"lon":-71.05719760000001,"lat":48.4235836,"elevation":[]},{"distance":131.454,"relativeDirection":"LEFT","streetName":"path","absoluteDirection":"WEST","stayOn":true,"area":false,"bogusName":true,"lon":-71.0579166,"lat":48.424303900000005,"elevation":[]},{"distance":147.775,"relativeDirection":"SLIGHTLY_RIGHT","streetName":"Rue Maltais","absoluteDirection":"NORTH","stayOn":false,"area":false,"bogusName":false,"lon":-71.0591387,"lat":48.424959400000006,"elevation":[]},{"distance":502.91,"relativeDirection":"LEFT","streetName":"Rue Jacques-Cartier Est","absoluteDirection":"WEST","stayOn":false,"area":false,"bogusName":false,"lon":-71.0589782,"lat":48.426284100000004,"elevation":[]},{"distance":229.713,"relativeDirection":"RIGHT","streetName":"Rue Morin","absoluteDirection":"NORTH","stayOn":false,"area":false,"bogusName":false,"lon":-71.0657774,"lat":48.426577300000005,"elevation":[]}]},{"startTime":1522703700000,"endTime":1522704448000,"departureDelay":0,"arrivalDelay":0,"realTime":false,"distance":4624.446756531511,"pathway":false,"mode":"BUS","route":"22","agencyName":"Société de Transport du Saguenay","agencyUrl":"http://ville.saguenay.ca/fr/services-aux-citoyens/transport-sts","agencyTimeZoneOffset":-14400000,"routeColor":"C0C000","routeType":3,"routeId":"1:22","routeTextColor":"000000","interlineWithPreviousLeg":false,"tripBlockId":"3","headsign":"Terminus Chicoutimi","agencyId":"0","tripId":"1:217208","serviceDate":"20180402","from":{"name":"Terminus Chicoutimi","stopId":"1:1289","stopCode":"1289","lon":-71.066163,"lat":48.428677,"arrival":1522703699000,"departure":1522703700000,"zoneId":"NA","stopIndex":0,"stopSequence":1,"vertexType":"TRANSIT"},"to":{"name":"Lacordaire / Lambert","stopId":"1:754","stopCode":"754","lon":-71.0524,"lat":48.4541,"arrival":1522704448000,"departure":1522704449000,"zoneId":"NA","stopIndex":18,"stopSequence":19,"vertexType":"TRANSIT"},"legGeometry":{"points":"evqfHzcwpLg@?UhKxDVOhHMrH~CYhBBInAKXSNg@L{JHgBMoA[s@Usb@gS}@g@u@Su@Ia@Ck@Dm@HwAf@c@VeAx@iAlAU^[d@eLtTsAvBMJYF[EMIQ]y@wB[y@[{@_B{D{@uBe@gAO}AGw@SaCmAZe@AYOy@o@MKsAcA}BmBuC}BgA}@}BsBaAaA{@y@d@kDp@uEyIkDqHwC_@QmLyEy@]}I_D\\cDBWwCgAcCy@NoAZoCH{@BaA@}AJuBBYTuBaAa@c@QEEACAG?G?G?KAGgE}HGMGOU{@EOp@m@FIHQFSDW^qDJB`@LHDFFFJ^hAFVDZBXBn@@H@RBLFTHNHHJFLBP@j@OLAJAN@@?l@NTwBDQFMFIJGHCL?H@hGjB","length":131},"routeShortName":"22","routeLongName":"Vanier","rentedBike":false,"transitLeg":true,"duration":748.0,"steps":[]},{"startTime":1522704449000,"endTime":1522704483000,"departureDelay":0,"arrivalDelay":0,"realTime":false,"distance":44.501,"pathway":false,"mode":"WALK","route":"","agencyTimeZoneOffset":-14400000,"interlineWithPreviousLeg":false,"from":{"name":"Lacordaire / Lambert","stopId":"1:754","stopCode":"754","lon":-71.0524,"lat":48.4541,"arrival":1522704448000,"departure":1522704449000,"zoneId":"NA","stopIndex":18,"stopSequence":19,"vertexType":"TRANSIT"},"to":{"name":"Destination","lon":-71.052407,"lat":48.454517,"arrival":1522704483000,"orig":"","vertexType":"NORMAL"},"legGeometry":{"points":"}tvfHxktpLmA_@","length":2},"rentedBike":false,"transitLeg":false,"duration":34.0,"steps":[{"distance":44.501,"relativeDirection":"DEPART","streetName":"Rue Lacordaire","absoluteDirection":"NORTH","stayOn":false,"area":false,"bogusName":false,"lon":-71.052286128727,"lat":48.454078789605234,"elevation":[]}]}],"tooSloped":false}]},"debugOutput":{"precalculationTime":31,"pathCalculationTime":75,"pathTimes":[29,23,23],"renderingTime":1,"totalTime":107,"timedOut":false},"elevationMetadata":{"ellipsoidToGeoidDifference":-28.885904201182168,"geoidElevation":false}}