{"requestParameters":{"date":"2018/04/02","walkSpeed":"1.33","walkReluctance":"2.0","fromPlace":"48.422447,-71.048602","maxWalkDistance":"3000","waitReluctance":"1.0","carSpeed":"33","numItineraries":"3","waitAtBeginningFactor":"0.4","mode":"TRANSIT,WALK","ignoreRealtimeUpdates":"false","stairsReluctance":"2.0","toPlace":"48.447557,-71.066986","time":"17:30:00"},"plan":{"date":1522704600000,"from":{"name":"Origin","lon":-71.048602,"lat":48.422447,"orig":"","vertexType":"NORMAL"},"to":{"name":"Destination","lon":-71.066986,"lat":48.447557,"orig":"","vertexType":"NORMAL"},"itineraries":[{"duration":1241,"startTime":1522704661000,"endTime":1522705902000,"walkTime":189,"transitTime":750,"waitingTime":302,"walkDistance":245.31017293171215,"walkLimitExceeded":false,"elevationLost":0.0,"elevationGained":0.0,"transfers":1,"legs":[{"startTime":1522704661000,"endTime":1522704784000,"departureDelay":0,"arrivalDelay":0,"realTime":false,"distance":159.35099999999997,"pathway":false,"mode":"WALK","route":"","agencyTimeZoneOffset":-14400000,"interlineWithPreviousLeg":false,"from":{"name":"Origin","lon":-71.048602,"lat":48.422447,"departure":1522704661000,"orig":"","vertexType":"NORMAL"},"to":{"name":"nouveau","stopId":"1:2285","stopCode":"2285","lon":-71.04706,"lat":48.42154,"arrival":1522704784000,"departure":1522704785000,"zoneId":"NA","stopIndex":13,"stopSequence":14,"vertexType":"TRANSIT"},"legGeometry":{"points":"onpfHjvspLHIn@wAl@eBn@cBRk@","length":6},"rentedBike":false,"transitLeg":false,"duration":123.0,"steps":[{"distance":159.35099999999997,"relativeDirection":"DEPART","streetName":"Chemin Sydenham","absoluteDirection":"SOUTHEAST","stayOn":false,"area":false,"bogusName":false,"lon":-71.04885981259426,"lat":48.4223247785639,"elevation":[]}]},{"startTime":1522704785000,"endTime":1522705200000,"departureDelay":0,"arrivalDelay":0,"realTime":false,"distance":1811.7355077182299,"pathway":false,"mode":"BUS","route":"10","agencyName":"Société de Transport du Saguenay","agencyUrl":"http://ville.saguenay.ca/fr/services-aux-citoyens/transport-sts","agencyTimeZoneOffset":-14400000,"routeColor":"0000FF","routeType":3,"routeId":"1:10","routeTextColor":"FFFFFF","interlineWithPreviousLeg":false,"tripBlockId":"27","headsign":"Terminus Chicoutimi","agencyId":"0","tripId":"1:218021","serviceDate":"20180402","from":{"name":"nouveau","stopId":"1:2285","stopCode":"2285","lon":-71.04706,"lat":48.42154,"arrival":1522704784000,"departure":1522704785000,"zoneId":"NA","stopIndex":13,"stopSequence":14,"vertexType":"TRANSIT"},"to":{"name":"Terminus Chicoutimi","stopId":"1:1289","stopCode":"1289","lon":-71.066163,"lat":48.428677,"arrival":1522705200000,"departure":1522705500000,"zoneId":"NA","stopIndex":21,"stopSequence":22,"vertexType":"TRANSIT"},"legGeometry":{"points":"aipfHvkspL_BhE}AfD{BdByBh@iC]oDq@YbF_Ea@AAuEg@MDENF|GAjJDzBDdDLdHFbCo@RUFRbFG|FApAMvFa@tPOnHqBOIjDc@Q","length":30},"routeShortName":"10","routeLongName":"Notre-Dame du Saguenay","rentedBike":false,"transitLeg":true,"duration":415.0,"steps":[]},{"startTime":1522705500000,"endTime":1522705835000,"departureDelay":0,"arrivalDelay":0,"realTime":false,"distance":2248.372288614233,"pathway":false,"mode":"BUS","route":"22","agencyName":"Société de Transport du Saguenay","agencyUrl":"http://ville.saguenay.ca/fr/services-aux-citoyens/transport-sts","agencyTimeZoneOffset":-14400000,"routeColor":"C0C000","routeType":3,"routeId":"1:22","routeTextColor":"000000","interlineWithPreviousLeg":false,"tripBlockId":"1","headsign":"Terminus Chicoutimi","agencyId":"0","tripId":"1:217151","serviceDate":"20180402","from":{"name":"Terminus Chicoutimi","stopId":"1:1289","stopCode":"1289","lon":-71.066163,"lat":48.428677,"arrival":1522705200000,"departure":1522705500000,"zoneId":"NA","stopIndex":0,"stopSequence":1,"vertexType":"TRANSIT"},"to":{"name":"Constantin / Cardinal","stopId":"1:740","stopCode":"740","lon":-71.067189,"lat":48.446739,"arrival":1522705835000,"departure":1522705836000,"zoneId":"NA","stopIndex":4,"stopSequence":5,"vertexType":"TRANSIT"},"legGeometry":{"points":"evqfHzcwpLg@?UhKxDVOhHMrH~CYhBBInAKXSNg@L{JHgBMoA[s@Usb@gS}@g@u@Su@Ia@Ck@Dm@HwAf@c@VeAx@iAlAU^[d@eLtTsAvBMJYF[EMIQ]y@wB[y@[{@_B{D{@uBe@gAO}AGw@SaCmAZe@AYOy@o@MKsAcA}BmBuC}B","length":53},"routeShortName":"22","routeLongName":"Vanier","rentedBike":false,"transitLeg":true,"duration":335.0,"steps":[]},{"startTime":1522705836000,"endTime":1522705902000,"departureDelay":0,"arrivalDelay":0,"realTime":false,"distance":85.94,"pathway":false,"mode":"WALK","route":"","agencyTimeZoneOffset":-14400000,"interlineWithPreviousLeg":false,"from":{"name":"Constantin / Cardinal","stopId":"1:740","stopCode":"740","lon":-71.067189,"lat":48.446739,"arrival":1522705835000,"departure":1522705836000,"zoneId":"NA","stopIndex":4,"stopSequence":5,"vertexType":"TRANSIT"},"to":{"name":"Destination","lon":-71.066986,"lat":48.447557,"arrival":1522705902000,"orig":"","vertexType":"NORMAL"},"legGeometry":{"points":"igufHriwpLkAaAy@s@","length":3},"rentedBike":false,"transitLeg":false,"duration":66.0,"steps":[{"distance":85.94,"relativeDirection":"DEPART","streetName":"Rue Constantin","absoluteDirection":"NORTHEAST","stayOn":false,"area":false,"bogusName":false,"lon":-71.06729139128157,"lat":48.44677847155457,"elevation":[]}]}],"tooSloped":false},{"duration":1241,"startTime":1522706461000,"endTime":1522707702000,"walkTime":189,"transitTime":750,"waitingTime":302,"walkDistance":245.31017293171215,"walkLimitExceeded":false,"elevationLost":0.0,"elevationGained":0.0,"transfers":1,"legs":[{"startTime":1522706461000,"endTime":1522706584000,"departureDelay":0,"arrivalDelay":0,"realTime":false,"distance":159.35099999999997,"pathway":false,"mode":"WALK","route":"","agencyTimeZoneOffset":-14400000,"interlineWithPreviousLeg":false,"from":{"name":"Origin","lon":-71.048602,"lat":48.422447,"departure":1522706461000,"orig":"","vertexType":"NORMAL"},"to":{"name":"nouveau","stopId":"1:2285","stopCode":"2285","lon":-71.04706,"lat":48.42154,"arrival":1522706584000,"departure":1522706585000,"zoneId":"NA","stopIndex":13,"stopSequence":14,"vertexType":"TRANSIT"},"legGeometry":{"points":"onpfHjvspLHIn@wAl@eBn@cBRk@","length":6},"rentedBike":false,"transitLeg":false,"duration":123.0,"steps":[{"distance":159.35099999999997,"relativeDirection":"DEPART","streetName":"Chemin Sydenham","absoluteDirection":"SOUTHEAST","stayOn":false,"area":false,"bogusName":false,"lon":-71.04885981259426,"lat":48.4223247785639,"elevation":[]}]},{"startTime":1522706585000,"endTime":1522707000000,"departureDelay":0,"arrivalDelay":0,"realTime":false,"distance":1811.7355077182299,"pathway":false,"mode":"BUS","route":"10","agencyName":"Société de Transport du Saguenay","agencyUrl":"http://ville.saguenay.ca/fr/services-aux-citoyens/transport-sts","agencyTimeZoneOffset":-14400000,"routeColor":"0000FF","routeType":3,"routeId":"1:10","routeTextColor":"FFFFFF","interlineWithPreviousLeg":false,"tripBlockId":"28","headsign":"Terminus Chicoutimi","agencyId":"0","tripId":"1:218048","serviceDate":"20180402","from":{"name":"nouveau","stopId":"1:2285","stopCode":"2285","lon":-71.04706,"lat":48.42154,"arrival":1522706584000,"departure":1522706585000,"zoneId":"NA","stopIndex":13,"stopSequence":14,"vertexType":"TRANSIT"},"to":{"name":"Terminus Chicoutimi","stopId":"1:1289","stopCode":"1289","lon":-71.066163,"lat":48.428677,"arrival":1522707000000,"departure":1522707300000,"zoneId":"NA","stopIndex":21,"stopSequence":22,"vertexType":"TRANSIT"},"legGeometry":{"points":"aipfHvkspL_BhE}AfD{BdByBh@iC]oDq@YbF_Ea@AAuEg@MDENF|GAjJDzBDdDLdHFbCo@RUFRbFG|FApAMvFa@tPOnHqBOIjDc@Q","length":30},"routeShortName":"10","routeLongName":"Notre-Dame du Saguenay","rentedBike":false,"transitLeg":true,"duration":415.0,"steps":[]},{"startTime":1522707300000,"endTime":1522707635000,"departureDelay":0,"arrivalDelay":0,"realTime":false,"distance":2248.372288614233,"pathway":false,"mode":"BUS","route":"22","agencyName":"Société de Transport du Saguenay","agencyUrl":"http://ville.saguenay.ca/fr/services-aux-citoyens/transport-sts","agencyTimeZoneOffset":-14400000,"routeColor":"C0C000","routeType":3,"routeId":"1:22","routeTextColor":"000000","interlineWithPreviousLeg":false,"tripBlockId":"3","headsign":"Terminus Chicoutimi","agencyId":"0","tripId":"1:217210","serviceDate":"20180402","from":{"name":"Terminus Chicoutimi","stopId":"1:1289","stopCode":"1289","lon":-71.066163,"lat":48.428677,"arrival":1522707000000,"departure":1522707300000,"zoneId":"NA","stopIndex":0,"stopSequence":1,"vertexType":"TRANSIT"},"to":{"name":"Constantin / Cardinal","stopId":"1:740","stopCode":"740","lon":-71.067189,"lat":48.446739,"arrival":1522707635000,"departure":1522707636000,"zoneId":"NA","stopIndex":4,"stopSequence":5,"vertexType":"TRANSIT"},"legGeometry":{"points":"evqfHzcwpLg@?UhKxDVOhHMrH~CYhBBInAKXSNg@L{JHgBMoA[s@Usb@gS}@g@u@Su@Ia@Ck@Dm@HwAf@c@VeAx@iAlAU^[d@eLtTsAvBMJYF[EMIQ]y@wB[y@[{@_B{D{@uBe@gAO}AGw@SaCmAZe@AYOy@o@MKsAcA}BmBuC}B","length":53},"routeShortName":"22","routeLongName":"Vanier","rentedBike":false,"transitLeg":true,"duration":335.0,"steps":[]},{"startTime":1522707636000,"endTime":1522707702000,"departureDelay":0,"arrivalDelay":0,"realTime":false,"distance":85.94,"pathway":false,"mode":"WALK","route":"","agencyTimeZoneOffset":-14400000,"interlineWithPreviousLeg":false,"from":{"name":"Constantin / Cardinal","stopId":"1:740","stopCode":"740","lon":-71.067189,"lat":48.446739,"arrival":1522707635000,"departure":1522707636000,"zoneId":"NA","stopIndex":4,"stopSequence":5,"vertexType":"TRANSIT"},"to":{"name":"Destination","lon":-71.066986,"lat":48.447557,"arrival":1522707702000,"orig":"","vertexType":"NORMAL"},"legGeometry":{"points":"igufHriwpLkAaAy@s@","length":3},"rentedBike":false,"transitLeg":false,"duration":66.0,"steps":[{"distance":85.94,"relativeDirection":"DEPART","streetName":"Rue Constantin","absoluteDirection":"NORTHEAST","stayOn":false,"area":false,"bogusName":false,"lon":-71.06729139128157,"lat":48.44677847155457,"elevation":[]}]}],"tooSloped":false},{"duration":1932,"startTime":1522706094000,"endTime":1522708026000,"walkTime":537,"transitTime":973,"waitingTime":422,"walkDistance":687.4154436065237,"walkLimitExceeded":false,"elevationLost":0.0,"elevationGained":0.0,"transfers":1,"legs":[{"startTime":1522706094000,"endTime":1522706479000,"departureDelay":0,"arrivalDelay":0,"realTime":false,"distance":493.513,"pathway":false,"mode":"WALK","route":"","agencyTimeZoneOffset":-14400000,"interlineWithPreviousLeg":false,"from":{"name":"Origin","lon":-71.048602,"lat":48.422447,"departure":1522706094000,"orig":"","vertexType":"NORMAL"},"to":{"name":"Résidence de l' UQAC","stopId":"1:1928","stopCode":"1928","lon":-71.052293,"lat":48.421532,"arrival":1522706479000,"departure":1522706480000,"zoneId":"NA","stopIndex":30,"stopSequence":31,"vertexType":"TRANSIT"},"legGeometry":{"points":"onpfHjvspLSVaA~@GDi@f@}@Xs@DSx@I`@Cf@JHd@ZJFXNV^h@l@ZVb@`@nAlAVPRPb@^TRLJTT@@","length":26},"rentedBike":false,"transitLeg":false,"duration":385.0,"steps":[{"distance":155.114,"relativeDirection":"DEPART","streetName":"Chemin Sydenham","absoluteDirection":"NORTHWEST","stayOn":false,"area":false,"bogusName":false,"lon":-71.04885981259426,"lat":48.4223247785639,"elevation":[]},{"distance":52.897,"relativeDirection":"LEFT","streetName":"path","absoluteDirection":"NORTHWEST","stayOn":false,"area":false,"bogusName":true,"lon":-71.0496871,"lat":48.42357620000001,"elevation":[]},{"distance":223.10899999999998,"relativeDirection":"LEFT","streetName":"road","absoluteDirection":"SOUTHWEST","stayOn":true,"area":false,"bogusName":true,"lon":-71.0503491,"lat":48.423747000000006,"elevation":[]},{"distance":62.393,"relativeDirection":"CONTINUE","streetName":"Chemin Saint Thomas","absoluteDirection":"SOUTHWEST","stayOn":false,"area":false,"bogusName":false,"lon":-71.051902,"lat":48.4220343,"elevation":[]}]},{"startTime":1522706480000,"endTime":1522706880000,"departureDelay":0,"arrivalDelay":0,"realTime":false,"distance":1587.2339593014672,"pathway":false,"mode":"BUS","route":"14","agencyName":"Société de Transport du Saguenay","agencyUrl":"http://ville.saguenay.ca/fr/services-aux-citoyens/transport-sts","agencyTimeZoneOffset":-14400000,"routeColor":"C0C000","routeType":3,"routeId":"1:14","routeTextColor":"000000","interlineWithPreviousLeg":false,"tripBlockId":"33","headsign":"Terminus Chicoutimi","agencyId":"0","tripId":"1:218194","serviceDate":"20180402","from":{"name":"Résidence de l' UQAC","stopId":"1:1928","stopCode":"1928","lon":-71.052293,"lat":48.421532,"arrival":1522706479000,"departure":1522706480000,"zoneId":"NA","stopIndex":30,"stopSequence":31,"vertexType":"TRANSIT"},"to":{"name":"Terminus Chicoutimi","stopId":"1:1289","stopCode":"1289","lon":-71.066163,"lat":48.428677,"arrival":1522706880000,"departure":1522707300000,"zoneId":"NA","stopIndex":37,"stopSequence":38,"vertexType":"TRANSIT"},"legGeometry":{"points":"wipfHjltpLgBgBsDpLHzBBT`@~COnBQf@gAjAg@bBuDmDmFgFa@_@w@s@CfAOrBEtAGbA?jBQtC?|@ExKMdIG~EUnLEhC}CKkBOkCOYbC","length":30},"routeShortName":"14","routeLongName":"Coopérative","rentedBike":false,"transitLeg":true,"duration":400.0,"steps":[]},{"startTime":1522707300000,"endTime":1522707873000,"departureDelay":0,"arrivalDelay":0,"realTime":false,"distance":4196.583055059013,"pathway":false,"mode":"BUS","route":"23","agencyName":"Société de Transport du Saguenay","agencyUrl":"http://ville.saguenay.ca/fr/services-aux-citoyens/transport-sts","agencyTimeZoneOffset":-14400000,"routeColor":"FF00FF","routeType":3,"routeId":"1:23","routeTextColor":"FFFFFF","interlineWithPreviousLeg":false,"tripBlockId":"4","headsign":"Terminus Chicoutimi","agencyId":"0","tripId":"1:217246","serviceDate":"20180402","from":{"name":"Terminus Chicoutimi","stopId":"1:1289","stopCode":"1289","lon":-71.066163,"lat":48.428677,"arrival":1522706880000,"departure":1522707300000,"zoneId":"NA","stopIndex":0,"stopSequence":1,"vertexType":"TRANSIT"},"to":{"name":"Cabot (no. 575)","stopId":"1:742","stopCode":"742","lon":-71.064972,"lat":48.448145,"arrival":1522707873000,"departure":1522707874000,"zoneId":"NA","stopIndex":10,"stopSequence":11,"vertexType":"TRANSIT"},"legGeometry":{"points":"kwqfHjbwpLF_CkAOYCm@rRO\\WjGOfGCRK^KJMHQB_AMg@Gw`@eR}@g@u@Su@Ia@Ck@Dm@HwAf@c@VeAx@iAlAU^[d@eLtTsAvB_CvEuAnCmBlE}@|B_BvFoC`JCD}@hCo@~Aq@pAs@fA{BlCqH|Iq@Bq@Im@UGCUi@Wm@ScA_@gGSaE@_@@_@@ERoBFe@No@`@gAbCyFNe@Ha@He@Fg@Du@Dg@Hc@Pa@RW\\S`@QZEm@eHM}B?GGi@Is@Ou@Qw@Mo@Kw@ImAGoBAk@aALa@?YEUKc@Yc@_@KOIUGUEWAW?YBqAH_AXeC@IdB_Mh@_EJk@d@kD","length":104},"routeShortName":"23","routeLongName":"Côte Verdun via Aréna du Plateau","rentedBike":false,"transitLeg":true,"duration":573.0,"steps":[]},{"startTime":1522707874000,"endTime":1522708026000,"departureDelay":0,"arrivalDelay":0,"realTime":false,"distance":193.825,"pathway":false,"mode":"WALK","route":"","agencyTimeZoneOffset":-14400000,"interlineWithPreviousLeg":false,"from":{"name":"Cabot (no. 575)","stopId":"1:742","stopCode":"742","lon":-71.064972,"lat":48.448145,"arrival":1522707873000,"departure":1522707874000,"zoneId":"NA","stopIndex":10,"stopSequence":11,"vertexType":"TRANSIT"},"to":{"name":"Destination","lon":-71.066986,"lat":48.447557,"arrival":1522708026000,"orig":"","vertexType":"NORMAL"},"legGeometry":{"points":"ipufHzzvpL]fCId@z@v@@@~@z@bA|@","length":7},"rentedBike":false,"transitLeg":false,"duration":152.0,"steps":[{"distance":67.48,"relativeDirection":"DEPART","streetName":"Rue Cabot","absoluteDirection":"WEST","stayOn":false,"area":false,"bogusName":false,"lon":-71.06493533157504,"lat":48.44821645875971,"elevation":[]},{"distance":126.345,"relativeDirection":"LEFT","streetName":"Rue Constantin","absoluteDirection":"SOUTHWEST","stayOn":false,"area":false,"bogusName":false,"lon":-71.0658016,"lat":48.4484117,"elevation":[]}]}],"tooSloped":false}]},"debugOutput":{"precalculationTime":30,"pathCalculationTime":45,"pathTimes":[20,9,16],"renderingTime":0,"totalTime":75,"timedOut":false},"elevationMetadata":{"ellipsoidToGeoidDifference":-28.885904201182168,"geoidElevation":false}}