{"requestParameters":{"date":"2018/04/02","walkSpeed":"1.33","walkReluctance":"2.0","fromPlace":"48.455494,-71.066101","maxWalkDistance":"3000","waitReluctance":"1.0","carSpeed":"33","numItineraries":"3","waitAtBeginningFactor":"0.4","mode":"TRANSIT,WALK","ignoreRealtimeUpdates":"false","stairsReluctance":"2.0","toPlace":"48.444119,-71.080494","time":"14:0:00"},"plan":{"date":1522692000000,"from":{"name":"Origin","lon":-71.066101,"lat":48.455494,"orig":"","vertexType":"NORMAL"},"to":{"name":"Destination","lon":-71.080494,"lat":48.444119,"orig":"","vertexType":"NORMAL"},"itineraries":[{"duration":1632,"startTime":1522692513000,"endTime":1522694145000,"walkTime":1577,"transitTime":53,"waitingTime":2,"walkDistance":2071.214142853686,"walkLimitExceeded":false,"elevationLost":0.0,"elevationGained":0.0,"transfers":0,"legs":[{"startTime":1522692513000,"endTime":1522694061000,"departureDelay":0,"arrivalDelay":0,"realTime":false,"distance":2032.6920000000002,"pathway":false,"mode":"WALK","route":"","agencyTimeZoneOffset":-14400000,"interlineWithPreviousLeg":false,"from":{"name":"Origin","lon":-71.066101,"lat":48.455494,"departure":1522692513000,"orig":"","vertexType":"NORMAL"},"to":{"name":"boul. Ste-Geneviève / Ste-Marie","stopId":"1:731","stopCode":"731","lon":-71.085744,"lat":48.448746,"arrival":1522694061000,"departure":1522694062000,"zoneId":"NA","stopIndex":29,"stopSequence":30,"vertexType":"TRANSIT"},"legGeometry":{"points":"}|vfHtbwpLIh@a@vGUpAkDfIe@fAi@nBs@~FD`CPnAl@tBtC|EdBhDx@tBjBxHtCjIvAdCrBtAjApAbA`BhB`EVhAHtADbCGrEHl@^d@nDnAnEMRBXb@LZhAmA","length":33},"rentedBike":false,"transitLeg":false,"duration":1548.0,"steps":[{"distance":1698.087,"relativeDirection":"DEPART","streetName":"Rue de Vimy","absoluteDirection":"WEST","stayOn":false,"area":false,"bogusName":false,"lon":-71.06618273089425,"lat":48.455352329004654,"elevation":[]},{"distance":284.425,"relativeDirection":"SLIGHTLY_LEFT","streetName":"Rue Sainte-Marie Nord","absoluteDirection":"SOUTHWEST","stayOn":false,"area":false,"bogusName":false,"lon":-71.08518210000001,"lat":48.4515302,"elevation":[]},{"distance":50.18,"relativeDirection":"LEFT","streetName":"Boulevard Sainte-Geneviève","absoluteDirection":"SOUTHEAST","stayOn":false,"area":false,"bogusName":false,"lon":-71.08604790000001,"lat":48.4491566,"elevation":[]}]},{"startTime":1522694062000,"endTime":1522694115000,"departureDelay":0,"arrivalDelay":0,"realTime":false,"distance":588.117358181693,"pathway":false,"mode":"BUS","route":"21","agencyName":"Société de Transport du Saguenay","agencyUrl":"http://ville.saguenay.ca/fr/services-aux-citoyens/transport-sts","agencyTimeZoneOffset":-14400000,"routeColor":"556B2F","routeType":3,"routeId":"1:21","routeTextColor":"FFFFFF","interlineWithPreviousLeg":false,"tripBlockId":"2","headsign":"Terminus Chicoutimi","agencyId":"0","tripId":"1:217171","serviceDate":"20180402","from":{"name":"boul. Ste-Geneviève / Ste-Marie","stopId":"1:731","stopCode":"731","lon":-71.085744,"lat":48.448746,"arrival":1522694061000,"departure":1522694062000,"zoneId":"NA","stopIndex":29,"stopSequence":30,"vertexType":"TRANSIT"},"to":{"name":"Place de la Colline (boul. Ste-Geneviève)","stopId":"1:2009","stopCode":"2009","lon":-71.080522,"lat":48.444768,"arrival":1522694115000,"departure":1522694116000,"zoneId":"NA","stopIndex":31,"stopSequence":32,"vertexType":"TRANSIT"},"legGeometry":{"points":"}sufHh|zpLrFkG`FgGdBwBt@cAbAmBx@eBj@eB","length":8},"routeShortName":"21","routeLongName":"Boul. Ste-Geneviève/Élie","rentedBike":false,"transitLeg":true,"duration":53.0,"steps":[]},{"startTime":1522694116000,"endTime":1522694145000,"departureDelay":0,"arrivalDelay":0,"realTime":false,"distance":38.415,"pathway":false,"mode":"WALK","route":"","agencyTimeZoneOffset":-14400000,"interlineWithPreviousLeg":false,"from":{"name":"Place de la Colline (boul. Ste-Geneviève)","stopId":"1:2009","stopCode":"2009","lon":-71.080522,"lat":48.444768,"arrival":1522694115000,"departure":1522694116000,"zoneId":"NA","stopIndex":31,"stopSequence":32,"vertexType":"TRANSIT"},"to":{"name":"Destination","lon":-71.080494,"lat":48.444119,"arrival":1522694145000,"orig":"","vertexType":"NORMAL"},"legGeometry":{"points":"_{tfH`|ypL`@gADM","length":3},"rentedBike":false,"transitLeg":false,"duration":29.0,"steps":[{"distance":38.415,"relativeDirection":"DEPART","streetName":"Boulevard Sainte-Geneviève","absoluteDirection":"SOUTHEAST","stayOn":false,"area":false,"bogusName":false,"lon":-71.0804866067989,"lat":48.44480212337132,"elevation":[]}]}],"tooSloped":false},{"duration":1245,"startTime":1522693436000,"endTime":1522694681000,"walkTime":880,"transitTime":363,"waitingTime":2,"walkDistance":1147.998082704086,"walkLimitExceeded":false,"elevationLost":0.0,"elevationGained":0.0,"transfers":0,"legs":[{"startTime":1522693436000,"endTime":1522693796000,"departureDelay":0,"arrivalDelay":0,"realTime":false,"distance":468.41900000000004,"pathway":false,"mode":"WALK","route":"","agencyTimeZoneOffset":-14400000,"interlineWithPreviousLeg":false,"from":{"name":"Origin","lon":-71.066101,"lat":48.455494,"departure":1522693436000,"orig":"","vertexType":"NORMAL"},"to":{"name":"Delisle / Vimy","stopId":"1:759","stopCode":"759","lon":-71.061215,"lat":48.453534,"arrival":1522693796000,"departure":1522693797000,"zoneId":"NA","stopIndex":22,"stopSequence":23,"vertexType":"TRANSIT"},"legGeometry":{"points":"}|vfHtbwpLb@mCrAaHx@gFp@uDNu@Li@d@wBbA`@DB","length":10},"rentedBike":false,"transitLeg":false,"duration":360.0,"steps":[{"distance":424.569,"relativeDirection":"DEPART","streetName":"Rue de Vimy","absoluteDirection":"EAST","stayOn":false,"area":false,"bogusName":false,"lon":-71.06618273089425,"lat":48.455352329004654,"elevation":[]},{"distance":43.85,"relativeDirection":"RIGHT","streetName":"Rue Delisle","absoluteDirection":"SOUTH","stayOn":false,"area":false,"bogusName":false,"lon":-71.0608763,"lat":48.4538754,"elevation":[]}]},{"startTime":1522693797000,"endTime":1522694160000,"departureDelay":0,"arrivalDelay":0,"realTime":false,"distance":2017.3034996021402,"pathway":false,"mode":"BUS","route":"22","agencyName":"Société de Transport du Saguenay","agencyUrl":"http://ville.saguenay.ca/fr/services-aux-citoyens/transport-sts","agencyTimeZoneOffset":-14400000,"routeColor":"C0C000","routeType":3,"routeId":"1:22","routeTextColor":"000000","interlineWithPreviousLeg":false,"tripBlockId":"3","headsign":"Terminus Chicoutimi","agencyId":"0","tripId":"1:217202","serviceDate":"20180402","from":{"name":"Delisle / Vimy","stopId":"1:759","stopCode":"759","lon":-71.061215,"lat":48.453534,"arrival":1522693796000,"departure":1522693797000,"zoneId":"NA","stopIndex":22,"stopSequence":23,"vertexType":"TRANSIT"},"to":{"name":"Champs / Victor","stopId":"1:769","stopCode":"769","lon":-71.07274,"lat":48.442642,"arrival":1522694160000,"departure":1522694161000,"zoneId":"NA","stopIndex":33,"stopSequence":34,"vertexType":"TRANSIT"},"legGeometry":{"points":"kqvfHvbvpL|IrDhAb@qAfJSzAMr@Yz@xAhDFNpBdFRp@Hl@Jz@BXXrCHl@Lh@Nf@r@nAr@r@`@PLFbAVH_AXeC@IdB_Mh@_EJk@x@x@bA`A|BrBnDrCl@f@|BlBrAbAj@d@ZTXNd@@lA[ZxDN|Ad@fAz@tB~AzDZ|@","length":47},"routeShortName":"22","routeLongName":"Vanier","rentedBike":false,"transitLeg":true,"duration":363.0,"steps":[]},{"startTime":1522694161000,"endTime":1522694681000,"departureDelay":0,"arrivalDelay":0,"realTime":false,"distance":679.4959999999999,"pathway":false,"mode":"WALK","route":"","agencyTimeZoneOffset":-14400000,"interlineWithPreviousLeg":false,"from":{"name":"Champs / Victor","stopId":"1:769","stopCode":"769","lon":-71.07274,"lat":48.442642,"arrival":1522694160000,"departure":1522694161000,"zoneId":"NA","stopIndex":33,"stopSequence":34,"vertexType":"TRANSIT"},"to":{"name":"Destination","lon":-71.080494,"lat":48.444119,"arrival":1522694681000,"orig":"","vertexType":"NORMAL"},"legGeometry":{"points":"cmtfHhkxpLrAjDt@lBRRsAhC_DbG}@vBiAhDgBxGmAhE","length":10},"rentedBike":false,"transitLeg":false,"duration":520.0,"steps":[{"distance":143.206,"relativeDirection":"DEPART","streetName":"Rue des Champs","absoluteDirection":"SOUTHWEST","stayOn":false,"area":false,"bogusName":false,"lon":-71.07268048433089,"lat":48.44258835732402,"elevation":[]},{"distance":536.29,"relativeDirection":"RIGHT","streetName":"Boulevard Sainte-Geneviève","absoluteDirection":"NORTHWEST","stayOn":false,"area":false,"bogusName":false,"lon":-71.07419630000001,"lat":48.441794200000004,"elevation":[]}]}],"tooSloped":false},{"duration":1245,"startTime":1522695236000,"endTime":1522696481000,"walkTime":880,"transitTime":363,"waitingTime":2,"walkDistance":1147.998082704086,"walkLimitExceeded":false,"elevationLost":0.0,"elevationGained":0.0,"transfers":0,"legs":[{"startTime":1522695236000,"endTime":1522695596000,"departureDelay":0,"arrivalDelay":0,"realTime":false,"distance":468.41900000000004,"pathway":false,"mode":"WALK","route":"","agencyTimeZoneOffset":-14400000,"interlineWithPreviousLeg":false,"from":{"name":"Origin","lon":-71.066101,"lat":48.455494,"departure":1522695236000,"orig":"","vertexType":"NORMAL"},"to":{"name":"Delisle / Vimy","stopId":"1:759","stopCode":"759","lon":-71.061215,"lat":48.453534,"arrival":1522695596000,"departure":1522695597000,"zoneId":"NA","stopIndex":22,"stopSequence":23,"vertexType":"TRANSIT"},"legGeometry":{"points":"}|vfHtbwpLb@mCrAaHx@gFp@uDNu@Li@d@wBbA`@DB","length":10},"rentedBike":false,"transitLeg":false,"duration":360.0,"steps":[{"distance":424.569,"relativeDirection":"DEPART","streetName":"Rue de Vimy","absoluteDirection":"EAST","stayOn":false,"area":false,"bogusName":false,"lon":-71.06618273089425,"lat":48.455352329004654,"elevation":[]},{"distance":43.85,"relativeDirection":"RIGHT","streetName":"Rue Delisle","absoluteDirection":"SOUTH","stayOn":false,"area":false,"bogusName":false,"lon":-71.0608763,"lat":48.4538754,"elevation":[]}]},{"startTime":1522695597000,"endTime":1522695960000,"departureDelay":0,"arrivalDelay":0,"realTime":false,"distance":2017.3034996021402,"pathway":false,"mode":"BUS","route":"22","agencyName":"Société de Transport du Saguenay","agencyUrl":"http://ville.saguenay.ca/fr/services-aux-citoyens/transport-sts","agencyTimeZoneOffset":-14400000,"routeColor":"C0C000","routeType":3,"routeId":"1:22","routeTextColor":"000000","interlineWithPreviousLeg":false,"tripBlockId":"1","headsign":"Terminus Chicoutimi","agencyId":"0","tripId":"1:217146","serviceDate":"20180402","from":{"name":"Delisle / Vimy","stopId":"1:759","stopCode":"759","lon":-71.061215,"lat":48.453534,"arrival":1522695596000,"departure":1522695597000,"zoneId":"NA","stopIndex":22,"stopSequence":23,"vertexType":"TRANSIT"},"to":{"name":"Champs / Victor","stopId":"1:769","stopCode":"769","lon":-71.07274,"lat":48.442642,"arrival":1522695960000,"departure":1522695961000,"zoneId":"NA","stopIndex":33,"stopSequence":34,"vertexType":"TRANSIT"},"legGeometry":{"points":"kqvfHvbvpL|IrDhAb@qAfJSzAMr@Yz@xAhDFNpBdFRp@Hl@Jz@BXXrCHl@Lh@Nf@r@nAr@r@`@PLFbAVH_AXeC@IdB_Mh@_EJk@x@x@bA`A|BrBnDrCl@f@|BlBrAbAj@d@ZTXNd@@lA[ZxDN|Ad@fAz@tB~AzDZ|@","length":47},"routeShortName":"22","routeLongName":"Vanier","rentedBike":false,"transitLeg":true,"duration":363.0,"steps":[]},{"startTime":1522695961000,"endTime":1522696481000,"departureDelay":0,"arrivalDelay":0,"realTime":false,"distance":679.4959999999999,"pathway":false,"mode":"WALK","route":"","agencyTimeZoneOffset":-14400000,"interlineWithPreviousLeg":false,"from":{"name":"Champs / Victor","stopId":"1:769","stopCode":"769","lon":-71.07274,"lat":48.442642,"arrival":1522695960000,"departure":1522695961000,"zoneId":"NA","stopIndex":33,"stopSequence":34,"vertexType":"TRANSIT"},"to":{"name":"Destination","lon":-71.080494,"lat":48.444119,"arrival":1522696481000,"orig":"","vertexType":"NORMAL"},"legGeometry":{"points":"cmtfHhkxpLrAjDt@lBRRsAhC_DbG}@vBiAhDgBxGmAhE","length":10},"rentedBike":false,"transitLeg":false,"duration":520.0,"steps":[{"distance":143.206,"relativeDirection":"DEPART","streetName":"Rue des Champs","absoluteDirection":"SOUTHWEST","stayOn":false,"area":false,"bogusName":false,"lon":-71.07268048433089,"lat":48.44258835732402,"elevation":[]},{"distance":536.29,"relativeDirection":"RIGHT","streetName":"Boulevard Sainte-Geneviève","absoluteDirection":"NORTHWEST","stayOn":false,"area":false,"bogusName":false,"lon":-71.07419630000001,"lat":48.441794200000004,"elevation":[]}]}],"tooSloped":false}]},"debugOutput":{"precalculationTime":13,"pathCalculationTime":19,"pathTimes":[11,5,2],"renderingTime":0,"totalTime":32,"timedOut":false},"elevationMetadata":{"ellipsoidToGeoidDifference":-28.885904201182168,"geoidElevation":false}}