{"requestParameters":{"date":"2018/04/02","walkSpeed":"1.33","walkReluctance":"2.0","fromPlace":"48.443416,-71.07852499","maxWalkDistance":"3000","waitReluctance":"1.0","carSpeed":"33","numItineraries":"3","waitAtBeginningFactor":"0.4","mode":"TRANSIT,WALK","ignoreRealtimeUpdates":"false","stairsReluctance":"2.0","toPlace":"48.455618,-71.053392","time":"16:40:00"},"plan":{"date":1522701600000,"from":{"name":"Origin","lon":-71.07852499,"lat":48.443416,"orig":"","vertexType":"NORMAL"},"to":{"name":"Destination","lon":-71.053392,"lat":48.455618,"orig":"","vertexType":"NORMAL"},"itineraries":[{"duration":910,"startTime":1522701742000,"endTime":1522702652000,"walkTime":557,"transitTime":351,"waitingTime":2,"walkDistance":721.5535714260361,"walkLimitExceeded":false,"elevationLost":0.0,"elevationGained":0.0,"transfers":0,"legs":[{"startTime":1522701742000,"endTime":1522702139000,"departureDelay":0,"arrivalDelay":0,"realTime":false,"distance":516.75,"pathway":false,"mode":"WALK","route":"","agencyTimeZoneOffset":-14400000,"interlineWithPreviousLeg":false,"from":{"name":"Origin","lon":-71.07852499,"lat":48.443416,"departure":1522701742000,"orig":"","vertexType":"NORMAL"},"to":{"name":"Champs / Victor","stopId":"1:2018","stopCode":"2018","lon":-71.072622,"lat":48.44254,"arrival":1522702139000,"departure":1522702140000,"zoneId":"NA","stopIndex":1,"stopSequence":2,"vertexType":"TRANSIT"},"legGeometry":{"points":"eutfHjmypLb@cBhAiD|@wB~CcGrAiCSSu@mBsAkD?A","length":10},"rentedBike":false,"transitLeg":false,"duration":397.0,"steps":[{"distance":373.25699999999995,"relativeDirection":"DEPART","streetName":"Boulevard Sainte-Geneviève","absoluteDirection":"SOUTHEAST","stayOn":false,"area":false,"bogusName":false,"lon":-71.0781387826346,"lat":48.44387841675082,"elevation":[]},{"distance":143.49300000000002,"relativeDirection":"LEFT","streetName":"Rue des Champs","absoluteDirection":"NORTHEAST","stayOn":false,"area":false,"bogusName":false,"lon":-71.07419630000001,"lat":48.441794200000004,"elevation":[]}]},{"startTime":1522702140000,"endTime":1522702491000,"departureDelay":0,"arrivalDelay":0,"realTime":false,"distance":2158.8384132254796,"pathway":false,"mode":"BUS","route":"22","agencyName":"Société de Transport du Saguenay","agencyUrl":"http://ville.saguenay.ca/fr/services-aux-citoyens/transport-sts","agencyTimeZoneOffset":-14400000,"routeColor":"C0C000","routeType":3,"routeId":"1:22","routeTextColor":"000000","interlineWithPreviousLeg":false,"tripBlockId":"1","headsign":"Terminus Chicoutimi","agencyId":"0","tripId":"1:217150","serviceDate":"20180402","from":{"name":"Champs / Victor","stopId":"1:2018","stopCode":"2018","lon":-71.072622,"lat":48.44254,"arrival":1522702139000,"departure":1522702140000,"zoneId":"NA","stopIndex":1,"stopSequence":2,"vertexType":"TRANSIT"},"to":{"name":"Caroline / Vanier","stopId":"1:748","stopCode":"748","lon":-71.0556,"lat":48.4564,"arrival":1522702491000,"departure":1522702492000,"zoneId":"NA","stopIndex":12,"stopSequence":13,"vertexType":"TRANSIT"},"legGeometry":{"points":"cmtfHdkxpL[{@_B{D{@uBe@gAO}AGw@SaCmAZe@AYOy@o@MKsAcA}BmBuC}BgA}@}BsBaAaA{@y@d@kDp@uEyIkDqHwC_@QmLyEy@]}I_D\\cDBWwCgAcCy@NoAZoCH{@BaA@}AJuBBY","length":39},"routeShortName":"22","routeLongName":"Vanier","rentedBike":false,"transitLeg":true,"duration":351.0,"steps":[]},{"startTime":1522702492000,"endTime":1522702652000,"departureDelay":0,"arrivalDelay":0,"realTime":false,"distance":204.725,"pathway":false,"mode":"WALK","route":"","agencyTimeZoneOffset":-14400000,"interlineWithPreviousLeg":false,"from":{"name":"Caroline / Vanier","stopId":"1:748","stopCode":"748","lon":-71.0556,"lat":48.4564,"arrival":1522702491000,"departure":1522702492000,"zoneId":"NA","stopIndex":12,"stopSequence":13,"vertexType":"TRANSIT"},"to":{"name":"Destination","lon":-71.053392,"lat":48.455618,"arrival":1522702652000,"orig":"","vertexType":"NORMAL"},"legGeometry":{"points":"wcwfHl`upLPiBt@iH@IpA^","length":5},"rentedBike":false,"transitLeg":false,"duration":160.0,"steps":[{"distance":158.102,"relativeDirection":"DEPART","streetName":"Rue Caroline","absoluteDirection":"EAST","stayOn":false,"area":false,"bogusName":false,"lon":-71.0555842849743,"lat":48.45644340121778,"elevation":[]},{"distance":46.623,"relativeDirection":"RIGHT","streetName":"Rue Nérée","absoluteDirection":"SOUTH","stayOn":false,"area":false,"bogusName":false,"lon":-71.05351420000001,"lat":48.4560742,"elevation":[]}]}],"tooSloped":false},{"duration":1374,"startTime":1522702063000,"endTime":1522703437000,"walkTime":1031,"transitTime":341,"waitingTime":2,"walkDistance":1328.1500300699597,"walkLimitExceeded":false,"elevationLost":0.0,"elevationGained":0.0,"transfers":0,"legs":[{"startTime":1522702063000,"endTime":1522702218000,"departureDelay":0,"arrivalDelay":0,"realTime":false,"distance":193.902,"pathway":false,"mode":"WALK","route":"","agencyTimeZoneOffset":-14400000,"interlineWithPreviousLeg":false,"from":{"name":"Origin","lon":-71.07852499,"lat":48.443416,"departure":1522702063000,"orig":"","vertexType":"NORMAL"},"to":{"name":"Place de la Colline (boul. Ste-Geneviève)","stopId":"1:706","stopCode":"706","lon":-71.080094,"lat":48.44485,"arrival":1522702218000,"departure":1522702219000,"zoneId":"NA","stopIndex":2,"stopSequence":3,"vertexType":"TRANSIT"},"legGeometry":{"points":"eutfHjmypLcAtDQSeBjF","length":4},"rentedBike":false,"transitLeg":false,"duration":155.0,"steps":[{"distance":193.902,"relativeDirection":"DEPART","streetName":"Boulevard Sainte-Geneviève","absoluteDirection":"NORTHWEST","stayOn":false,"area":false,"bogusName":false,"lon":-71.0781387826346,"lat":48.44387841675082,"elevation":[]}]},{"startTime":1522702219000,"endTime":1522702560000,"departureDelay":0,"arrivalDelay":0,"realTime":false,"distance":2716.360762699744,"pathway":false,"mode":"BUS","route":"23","agencyName":"Société de Transport du Saguenay","agencyUrl":"http://ville.saguenay.ca/fr/services-aux-citoyens/transport-sts","agencyTimeZoneOffset":-14400000,"routeColor":"FF00FF","routeType":3,"routeId":"1:23","routeTextColor":"FFFFFF","interlineWithPreviousLeg":false,"tripBlockId":"5","headsign":"Terminus Chicoutimi","agencyId":"0","tripId":"1:217270","serviceDate":"20180402","from":{"name":"Place de la Colline (boul. Ste-Geneviève)","stopId":"1:706","stopCode":"706","lon":-71.080094,"lat":48.44485,"arrival":1522702218000,"departure":1522702219000,"zoneId":"NA","stopIndex":2,"stopSequence":3,"vertexType":"TRANSIT"},"to":{"name":"Verdun / Riviera","stopId":"1:2023","stopCode":"2023","lon":-71.057875,"lat":48.449739,"arrival":1522702560000,"departure":1522702561000,"zoneId":"NA","stopIndex":14,"stopSequence":15,"vertexType":"TRANSIT"},"legGeometry":{"points":"{ztfH~yypLCD}@hCo@~Aq@pAs@fA{BlCqH|Iq@Bq@Im@UGCUi@Wm@ScA_@gGSaE@_@@_@@ERoBFe@No@`@gAbCyFNe@Ha@He@Fg@Du@Dg@Hc@Pa@RW\\S`@QZEm@eHM}B?GGi@Is@Ou@Qw@Mo@Kw@ImAGoBAk@aALa@?YEUKc@Yc@_@KOIUGUEWAW?YBqAH_AXeC@IdB_Mh@_EJk@d@kDhAqI`AgHz@oGBU?UAWCWUwAWD]B]AUEoAc@kE}AOIq@g@g@u@]w@b@s@","length":88},"routeShortName":"23","routeLongName":"Côte Verdun via Aréna du Plateau","rentedBike":false,"transitLeg":true,"duration":341.0,"steps":[]},{"startTime":1522702561000,"endTime":1522703437000,"departureDelay":0,"arrivalDelay":0,"realTime":false,"distance":1134.086,"pathway":false,"mode":"WALK","route":"","agencyTimeZoneOffset":-14400000,"interlineWithPreviousLeg":false,"from":{"name":"Verdun / Riviera","stopId":"1:2023","stopCode":"2023","lon":-71.057875,"lat":48.449739,"arrival":1522702560000,"departure":1522702561000,"zoneId":"NA","stopIndex":14,"stopSequence":15,"vertexType":"TRANSIT"},"to":{"name":"Destination","lon":-71.053392,"lat":48.455618,"arrival":1522703437000,"orig":"","vertexType":"NORMAL"},"legGeometry":{"points":"czufHfnupLg@x@_ArAcBq@WIwCgAyCeAOGQGcC_A[nCINIJQ@QCsE}AuAc@VoC?KAOCICIKMyAc@eDgA@Q@IPiBt@iH@IpA^","length":31},"rentedBike":false,"transitLeg":false,"duration":876.0,"steps":[{"distance":77.14,"relativeDirection":"DEPART","streetName":"Rue de Verdun","absoluteDirection":"NORTHWEST","stayOn":false,"area":false,"bogusName":false,"lon":-71.05779790898674,"lat":48.44978803093983,"elevation":[]},{"distance":260.302,"relativeDirection":"RIGHT","streetName":"Rue Richelieu","absoluteDirection":"NORTH","stayOn":false,"area":false,"bogusName":false,"lon":-71.05850140000001,"lat":48.450301200000006,"elevation":[]},{"distance":87.615,"relativeDirection":"CONTINUE","streetName":"Rue Fabre","absoluteDirection":"NORTH","stayOn":false,"area":false,"bogusName":false,"lon":-71.0574594,"lat":48.4525377,"elevation":[]},{"distance":262.836,"relativeDirection":"LEFT","streetName":"Rue Labelle","absoluteDirection":"WEST","stayOn":false,"area":false,"bogusName":false,"lon":-71.05709610000001,"lat":48.45328790000001,"elevation":[]},{"distance":230.55,"relativeDirection":"RIGHT","streetName":"Rue Vanier","absoluteDirection":"EAST","stayOn":false,"area":false,"bogusName":false,"lon":-71.0572977,"lat":48.4551938,"elevation":[]},{"distance":169.02,"relativeDirection":"RIGHT","streetName":"Rue Caroline","absoluteDirection":"EAST","stayOn":false,"area":false,"bogusName":false,"lon":-71.0557276,"lat":48.456468,"elevation":[]},{"distance":46.623,"relativeDirection":"RIGHT","streetName":"Rue Nérée","absoluteDirection":"SOUTH","stayOn":false,"area":false,"bogusName":false,"lon":-71.05351420000001,"lat":48.4560742,"elevation":[]}]}],"tooSloped":false},{"duration":910,"startTime":1522703542000,"endTime":1522704452000,"walkTime":557,"transitTime":351,"waitingTime":2,"walkDistance":721.5535714260361,"walkLimitExceeded":false,"elevationLost":0.0,"elevationGained":0.0,"transfers":0,"legs":[{"startTime":1522703542000,"endTime":1522703939000,"departureDelay":0,"arrivalDelay":0,"realTime":false,"distance":516.75,"pathway":false,"mode":"WALK","route":"","agencyTimeZoneOffset":-14400000,"interlineWithPreviousLeg":false,"from":{"name":"Origin","lon":-71.07852499,"lat":48.443416,"departure":1522703542000,"orig":"","vertexType":"NORMAL"},"to":{"name":"Champs / Victor","stopId":"1:2018","stopCode":"2018","lon":-71.072622,"lat":48.44254,"arrival":1522703939000,"departure":1522703940000,"zoneId":"NA","stopIndex":1,"stopSequence":2,"vertexType":"TRANSIT"},"legGeometry":{"points":"eutfHjmypLb@cBhAiD|@wB~CcGrAiCSSu@mBsAkD?A","length":10},"rentedBike":false,"transitLeg":false,"duration":397.0,"steps":[{"distance":373.25699999999995,"relativeDirection":"DEPART","streetName":"Boulevard Sainte-Geneviève","absoluteDirection":"SOUTHEAST","stayOn":false,"area":false,"bogusName":false,"lon":-71.0781387826346,"lat":48.44387841675082,"elevation":[]},{"distance":143.49300000000002,"relativeDirection":"LEFT","streetName":"Rue des Champs","absoluteDirection":"NORTHEAST","stayOn":false,"area":false,"bogusName":false,"lon":-71.07419630000001,"lat":48.441794200000004,"elevation":[]}]},{"startTime":1522703940000,"endTime":1522704291000,"departureDelay":0,"arrivalDelay":0,"realTime":false,"distance":2158.8384132254796,"pathway":false,"mode":"BUS","route":"22","agencyName":"Société de Transport du Saguenay","agencyUrl":"http://ville.saguenay.ca/fr/services-aux-citoyens/transport-sts","agencyTimeZoneOffset":-14400000,"routeColor":"C0C000","routeType":3,"routeId":"1:22","routeTextColor":"000000","interlineWithPreviousLeg":false,"tripBlockId":"3","headsign":"Terminus Chicoutimi","agencyId":"0","tripId":"1:217208","serviceDate":"20180402","from":{"name":"Champs / Victor","stopId":"1:2018","stopCode":"2018","lon":-71.072622,"lat":48.44254,"arrival":1522703939000,"departure":1522703940000,"zoneId":"NA","stopIndex":1,"stopSequence":2,"vertexType":"TRANSIT"},"to":{"name":"Caroline / Vanier","stopId":"1:748","stopCode":"748","lon":-71.0556,"lat":48.4564,"arrival":1522704291000,"departure":1522704292000,"zoneId":"NA","stopIndex":12,"stopSequence":13,"vertexType":"TRANSIT"},"legGeometry":{"points":"cmtfHdkxpL[{@_B{D{@uBe@gAO}AGw@SaCmAZe@AYOy@o@MKsAcA}BmBuC}BgA}@}BsBaAaA{@y@d@kDp@uEyIkDqHwC_@QmLyEy@]}I_D\\cDBWwCgAcCy@NoAZoCH{@BaA@}AJuBBY","length":39},"routeShortName":"22","routeLongName":"Vanier","rentedBike":false,"transitLeg":true,"duration":351.0,"steps":[]},{"startTime":1522704292000,"endTime":1522704452000,"departureDelay":0,"arrivalDelay":0,"realTime":false,"distance":204.725,"pathway":false,"mode":"WALK","route":"","agencyTimeZoneOffset":-14400000,"interlineWithPreviousLeg":false,"from":{"name":"Caroline / Vanier","stopId":"1:748","stopCode":"748","lon":-71.0556,"lat":48.4564,"arrival":1522704291000,"departure":1522704292000,"zoneId":"NA","stopIndex":12,"stopSequence":13,"vertexType":"TRANSIT"},"to":{"name":"Destination","lon":-71.053392,"lat":48.455618,"arrival":1522704452000,"orig":"","vertexType":"NORMAL"},"legGeometry":{"points":"wcwfHl`upLPiBt@iH@IpA^","length":5},"rentedBike":false,"transitLeg":false,"duration":160.0,"steps":[{"distance":158.102,"relativeDirection":"DEPART","streetName":"Rue Caroline","absoluteDirection":"EAST","stayOn":false,"area":false,"bogusName":false,"lon":-71.0555842849743,"lat":48.45644340121778,"elevation":[]},{"distance":46.623,"relativeDirection":"RIGHT","streetName":"Rue Nérée","absoluteDirection":"SOUTH","stayOn":false,"area":false,"bogusName":false,"lon":-71.05351420000001,"lat":48.4560742,"elevation":[]}]}],"tooSloped":false}]},"debugOutput":{"precalculationTime":12,"pathCalculationTime":19,"pathTimes":[11,3,5],"renderingTime":0,"totalTime":31,"timedOut":false},"elevationMetadata":{"ellipsoidToGeoidDifference":-28.885904201182168,"geoidElevation":false}}