{"requestParameters":{"date":"2018/04/02","walkSpeed":"1.33","walkReluctance":"2.0","fromPlace":"48.452691,-71.062218","maxWalkDistance":"3000","waitReluctance":"1.0","carSpeed":"33","numItineraries":"3","waitAtBeginningFactor":"0.4","mode":"TRANSIT,WALK","ignoreRealtimeUpdates":"false","stairsReluctance":"2.0","toPlace":"48.423419,-71.039377","time":"8:0:00"},"plan":{"date":1522670400000,"from":{"name":"Origin","lon":-71.062218,"lat":48.452691,"orig":"","vertexType":"NORMAL"},"to":{"name":"Destination","lon":-71.039377,"lat":48.423419,"orig":"","vertexType":"NORMAL"},"itineraries":[{"duration":1547,"startTime":1522672158000,"endTime":1522673705000,"walkTime":86,"transitTime":1159,"waitingTime":302,"walkDistance":112.009,"walkLimitExceeded":false,"elevationLost":0.0,"elevationGained":0.0,"transfers":1,"legs":[{"startTime":1522672158000,"endTime":1522672229000,"departureDelay":0,"arrivalDelay":0,"realTime":false,"distance":93.249,"pathway":false,"mode":"WALK","route":"","agencyTimeZoneOffset":-14400000,"interlineWithPreviousLeg":false,"from":{"name":"Origin","lon":-71.062218,"lat":48.452691,"departure":1522672158000,"orig":"","vertexType":"NORMAL"},"to":{"name":"Delisle / Dupré","stopId":"1:106","stopCode":"106","lon":-71.062068,"lat":48.451776,"arrival":1522672229000,"departure":1522672230000,"zoneId":"NA","stopIndex":23,"stopSequence":24,"vertexType":"TRANSIT"},"legGeometry":{"points":"kkvfHrevpL~ClA","length":2},"rentedBike":false,"transitLeg":false,"duration":71.0,"steps":[{"distance":93.249,"relativeDirection":"DEPART","streetName":"Rue Delisle","absoluteDirection":"SOUTH","stayOn":false,"area":false,"bogusName":false,"lon":-71.06153432745567,"lat":48.45254252853581,"elevation":[]}]},{"startTime":1522672230000,"endTime":1522672800000,"departureDelay":0,"arrivalDelay":0,"realTime":false,"distance":3569.6530061332123,"pathway":false,"mode":"BUS","route":"22","agencyName":"Société de Transport du Saguenay","agencyUrl":"http://ville.saguenay.ca/fr/services-aux-citoyens/transport-sts","agencyTimeZoneOffset":-14400000,"routeColor":"C0C000","routeType":3,"routeId":"1:22","routeTextColor":"000000","interlineWithPreviousLeg":false,"tripBlockId":"3","headsign":"Terminus Chicoutimi","agencyId":"0","tripId":"1:217190","serviceDate":"20180402","from":{"name":"Delisle / Dupré","stopId":"1:106","stopCode":"106","lon":-71.062068,"lat":48.451776,"arrival":1522672229000,"departure":1522672230000,"zoneId":"NA","stopIndex":23,"stopSequence":24,"vertexType":"TRANSIT"},"to":{"name":"Terminus Chicoutimi","stopId":"1:1289","stopCode":"1289","lon":-71.066163,"lat":48.428677,"arrival":1522672800000,"departure":1522673100000,"zoneId":"NA","stopIndex":35,"stopSequence":36,"vertexType":"TRANSIT"},"legGeometry":{"points":"mfvfHjhvpLhAb@qAfJSzAMr@Yz@xAhDFNpBdFRp@Hl@Jz@BXXrCHl@Lh@Nf@r@nAr@r@`@PLFbAVH_AXeC@IdB_Mh@_EJk@x@x@bA`A|BrBnDrCl@f@|BlBrAbAj@d@ZTXNd@@lA[ZxDN|Ad@fAz@tB~AzDZ|@Zv@x@vBP\\h@~@PVrCmFhHqN~@eBr@cAt@_Av@}@RQPMz@k@tAe@REZG^Af@@X@VF`@Jn@XbClAr@Xt\\`PrAb@pA^hBTjAFj@Pb@JPHLLJNJRFXDT?X?ZEVEVKTMNMHMFOB}DWSGOSYcAN}FFkAF}DJyDd@wPV_HjAN~ALIzBQb@e@@","length":108},"routeShortName":"22","routeLongName":"Vanier","rentedBike":false,"transitLeg":true,"duration":570.0,"steps":[]},{"startTime":1522673100000,"endTime":1522673689000,"departureDelay":0,"arrivalDelay":0,"realTime":false,"distance":2704.712362975673,"pathway":false,"mode":"BUS","route":"10","agencyName":"Société de Transport du Saguenay","agencyUrl":"http://ville.saguenay.ca/fr/services-aux-citoyens/transport-sts","agencyTimeZoneOffset":-14400000,"routeColor":"0000FF","routeType":3,"routeId":"1:10","routeTextColor":"FFFFFF","interlineWithPreviousLeg":false,"tripBlockId":"26","headsign":"Terminus UQAC","agencyId":"0","tripId":"1:217968","serviceDate":"20180402","from":{"name":"Terminus Chicoutimi","stopId":"1:1289","stopCode":"1289","lon":-71.066163,"lat":48.428677,"arrival":1522672800000,"departure":1522673100000,"zoneId":"NA","stopIndex":0,"stopSequence":1,"vertexType":"TRANSIT"},"to":{"name":"Complexe Sagamie","stopId":"1:1565","stopCode":"1565","lon":-71.039089,"lat":48.423475,"arrival":1522673689000,"departure":1522673690000,"zoneId":"NA","stopIndex":11,"stopSequence":12,"vertexType":"TRANSIT"},"legGeometry":{"points":"svqfHnbwpLDmCdDZ\\kO`@mQBuCD}DQ_ECk@^Cd@QWkL?m@IuF@gA?eH?cAEuEDO^AjD`@B@rEf@T_FjBXpDd@hCObDaCfCaHbFqN`CwG_J_CwMiDGe@T}C\\yELaCJeA","length":38},"routeShortName":"10","routeLongName":"Notre-Dame du Saguenay","rentedBike":false,"transitLeg":true,"duration":589.0,"steps":[]},{"startTime":1522673690000,"endTime":1522673705000,"departureDelay":0,"arrivalDelay":0,"realTime":false,"distance":18.76,"pathway":false,"mode":"WALK","route":"","agencyTimeZoneOffset":-14400000,"interlineWithPreviousLeg":false,"from":{"name":"Complexe Sagamie","stopId":"1:1565","stopCode":"1565","lon":-71.039089,"lat":48.423475,"arrival":1522673689000,"departure":1522673690000,"zoneId":"NA","stopIndex":11,"stopSequence":12,"vertexType":"TRANSIT"},"to":{"name":"Destination","lon":-71.039377,"lat":48.423419,"arrival":1522673705000,"orig":"","vertexType":"NORMAL"},"legGeometry":{"points":"gupfHnyqpLGb@AL","length":3},"rentedBike":false,"transitLeg":false,"duration":15.0,"steps":[{"distance":18.76,"relativeDirection":"DEPART","streetName":"service road","absoluteDirection":"WEST","stayOn":false,"area":false,"bogusName":false,"lon":-71.03911523041273,"lat":48.423409719784964,"elevation":[]}]}],"tooSloped":false},{"duration":2631,"startTime":1522671557000,"endTime":1522674188000,"walkTime":1189,"transitTime":840,"waitingTime":602,"walkDistance":1515.7611353317586,"walkLimitExceeded":false,"elevationLost":0.0,"elevationGained":0.0,"transfers":1,"legs":[{"startTime":1522671557000,"endTime":1522671959000,"departureDelay":0,"arrivalDelay":0,"realTime":false,"distance":519.469,"pathway":false,"mode":"WALK","route":"","agencyTimeZoneOffset":-14400000,"interlineWithPreviousLeg":false,"from":{"name":"Origin","lon":-71.062218,"lat":48.452691,"departure":1522671557000,"orig":"","vertexType":"NORMAL"},"to":{"name":"Verdun / Riviera","stopId":"1:2023","stopCode":"2023","lon":-71.057875,"lat":48.449739,"arrival":1522671959000,"departure":1522671960000,"zoneId":"NA","stopIndex":14,"stopSequence":15,"vertexType":"TRANSIT"},"legGeometry":{"points":"kkvfHrevpL~ClAhAd@VJ\\oBb@mBjAcJn@{C~@sAf@y@","length":10},"rentedBike":false,"transitLeg":false,"duration":402.0,"steps":[{"distance":150.976,"relativeDirection":"DEPART","streetName":"Rue Delisle","absoluteDirection":"SOUTH","stayOn":false,"area":false,"bogusName":false,"lon":-71.06153432745567,"lat":48.45254252853581,"elevation":[]},{"distance":291.353,"relativeDirection":"LEFT","streetName":"path","absoluteDirection":"EAST","stayOn":false,"area":false,"bogusName":true,"lon":-71.0621742,"lat":48.451252800000006,"elevation":[]},{"distance":77.14,"relativeDirection":"SLIGHTLY_RIGHT","streetName":"Rue de Verdun","absoluteDirection":"SOUTHEAST","stayOn":false,"area":false,"bogusName":false,"lon":-71.05850140000001,"lat":48.450301200000006,"elevation":[]}]},{"startTime":1522671960000,"endTime":1522672500000,"departureDelay":0,"arrivalDelay":0,"realTime":false,"distance":3566.9301798582574,"pathway":false,"mode":"BUS","route":"23","agencyName":"Société de Transport du Saguenay","agencyUrl":"http://ville.saguenay.ca/fr/services-aux-citoyens/transport-sts","agencyTimeZoneOffset":-14400000,"routeColor":"FF00FF","routeType":3,"routeId":"1:23","routeTextColor":"FFFFFF","interlineWithPreviousLeg":false,"tripBlockId":"4","headsign":"Terminus Chicoutimi","agencyId":"0","tripId":"1:217226","serviceDate":"20180402","from":{"name":"Verdun / Riviera","stopId":"1:2023","stopCode":"2023","lon":-71.057875,"lat":48.449739,"arrival":1522671959000,"departure":1522671960000,"zoneId":"NA","stopIndex":14,"stopSequence":15,"vertexType":"TRANSIT"},"to":{"name":"Terminus Chicoutimi","stopId":"1:1289","stopCode":"1289","lon":-71.066163,"lat":48.428677,"arrival":1522672500000,"departure":1522673100000,"zoneId":"NA","stopIndex":26,"stopSequence":27,"vertexType":"TRANSIT"},"legGeometry":{"points":"czufHhnupLT[~CkFf@s@\\e@x@}@jAeAXQZStBaAh@]`@]`@i@l@kDF_@R{AFWFMPIPC`@BT@V?TAVKLENCLCJ@J@xAb@x@Zz@\\CP?R@N@NFLFF`GtBx@Xw@pG@l@B\\DXL\\RZDFXPf@N@v@Bp@Dr@l@~HNlAH\\@HLd@\\z@Xd@X\\RTXRr@Zn@PfExAvDpALnBJt@Pp@|@`DHZPn@`@rBNnAFr@DbA?bB@jABzA?p@A???A???A?A???A@??A?A@??A@?@A??@A@???@A@?@?@A@?@?@?@?@???@?@?@?@?@?@@@?@?@@@?@@@?@@@?@@?@@??@@@?E`@Kr@]rACVEl@I|AAr@JbAWJe@FUAM?a@Ke@YYWWa@v@}@RQPMz@k@tAe@REZG^Af@@X@VF`@Jn@XbClAr@Xt\\`PrAb@pA^hBTjAFj@Pb@JPHLLJNJRFXDT?X?ZEVEVKTMNMHMFOB}DWSGOSYcAN}FFkAF}DJyDd@wPV_HjAN~ALI`C","length":195},"routeShortName":"23","routeLongName":"Côte Verdun via Aréna du Plateau","rentedBike":false,"transitLeg":true,"duration":540.0,"steps":[]},{"startTime":1522673100000,"endTime":1522673400000,"departureDelay":0,"arrivalDelay":0,"realTime":false,"distance":1242.678141622333,"pathway":false,"mode":"BUS","route":"175","agencyName":"Société de Transport du Saguenay","agencyUrl":"http://ville.saguenay.ca/fr/services-aux-citoyens/transport-sts","agencyTimeZoneOffset":-14400000,"routeColor":"FF00FF","routeType":3,"routeId":"1:175","routeTextColor":"FFFFFF","interlineWithPreviousLeg":false,"tripBlockId":"7","headsign":"Costco","agencyId":"0","tripId":"1:217325","serviceDate":"20180402","from":{"name":"Terminus Chicoutimi","stopId":"1:1289","stopCode":"1289","lon":-71.066163,"lat":48.428677,"arrival":1522672500000,"departure":1522673100000,"zoneId":"NA","stopIndex":0,"stopSequence":1,"vertexType":"TRANSIT"},"to":{"name":"Hôpital de Chicoutimi (Saint-Vallier)","stopId":"1:342","stopCode":"342","lon":-71.050416,"lat":48.426429,"arrival":1522673400000,"departure":1522673401000,"zoneId":"NA","stopIndex":6,"stopSequence":7,"vertexType":"TRANSIT"},"legGeometry":{"points":"kvqfH~awpL~CgBbAqa@FwCBkAOsHAg@bAYUwMKoE@mB@kJ@iFbEf@","length":14},"routeShortName":"175","routeLongName":"Term. Chic / Costco","rentedBike":false,"transitLeg":true,"duration":300.0,"steps":[]},{"startTime":1522673401000,"endTime":1522674188000,"departureDelay":0,"arrivalDelay":0,"realTime":false,"distance":996.088,"pathway":false,"mode":"WALK","route":"","agencyTimeZoneOffset":-14400000,"interlineWithPreviousLeg":false,"from":{"name":"Hôpital de Chicoutimi (Saint-Vallier)","stopId":"1:342","stopCode":"342","lon":-71.050416,"lat":48.426429,"arrival":1522673400000,"departure":1522673401000,"zoneId":"NA","stopIndex":6,"stopSequence":7,"vertexType":"TRANSIT"},"to":{"name":"Destination","lon":-71.039377,"lat":48.423419,"arrival":1522674188000,"orig":"","vertexType":"NORMAL"},"legGeometry":{"points":"ahqfHd_tpLF?lEt@Du@TyDXwCB_@BWNuB@G~@gLXwCHw@PsBNcB^gD?_AAI?E?G@GBEBCFSFO@cAPuB`@sE@GJqAXHFBD[","length":33},"rentedBike":false,"transitLeg":false,"duration":787.0,"steps":[{"distance":121.256,"relativeDirection":"DEPART","streetName":"Rue Saint-Vallier","absoluteDirection":"SOUTH","stayOn":false,"area":false,"bogusName":false,"lon":-71.05026027647143,"lat":48.426416552989835,"elevation":[]},{"distance":659.7959999999999,"relativeDirection":"LEFT","streetName":"Rue Jacques-Cartier Est","absoluteDirection":"EAST","stayOn":false,"area":false,"bogusName":false,"lon":-71.0505352,"lat":48.4253415,"elevation":[]},{"distance":184.73600000000002,"relativeDirection":"SLIGHTLY_LEFT","streetName":"Rue Jacques Cartier","absoluteDirection":"EAST","stayOn":false,"area":false,"bogusName":false,"lon":-71.0418774,"lat":48.423999300000006,"elevation":[]},{"distance":30.3,"relativeDirection":"RIGHT","streetName":"service road","absoluteDirection":"SOUTH","stayOn":false,"area":false,"bogusName":true,"lon":-71.0394333,"lat":48.4236505,"elevation":[]}]}],"tooSloped":false},{"duration":1547,"startTime":1522673958000,"endTime":1522675505000,"walkTime":86,"transitTime":1159,"waitingTime":302,"walkDistance":112.009,"walkLimitExceeded":false,"elevationLost":0.0,"elevationGained":0.0,"transfers":1,"legs":[{"startTime":1522673958000,"endTime":1522674029000,"departureDelay":0,"arrivalDelay":0,"realTime":false,"distance":93.249,"pathway":false,"mode":"WALK","route":"","agencyTimeZoneOffset":-14400000,"interlineWithPreviousLeg":false,"from":{"name":"Origin","lon":-71.062218,"lat":48.452691,"departure":1522673958000,"orig":"","vertexType":"NORMAL"},"to":{"name":"Delisle / Dupré","stopId":"1:106","stopCode":"106","lon":-71.062068,"lat":48.451776,"arrival":1522674029000,"departure":1522674030000,"zoneId":"NA","stopIndex":23,"stopSequence":24,"vertexType":"TRANSIT"},"legGeometry":{"points":"kkvfHrevpL~ClA","length":2},"rentedBike":false,"transitLeg":false,"duration":71.0,"steps":[{"distance":93.249,"relativeDirection":"DEPART","streetName":"Rue Delisle","absoluteDirection":"SOUTH","stayOn":false,"area":false,"bogusName":false,"lon":-71.06153432745567,"lat":48.45254252853581,"elevation":[]}]},{"startTime":1522674030000,"endTime":1522674600000,"departureDelay":0,"arrivalDelay":0,"realTime":false,"distance":3569.6530061332123,"pathway":false,"mode":"BUS","route":"22","agencyName":"Société de Transport du Saguenay","agencyUrl":"http://ville.saguenay.ca/fr/services-aux-citoyens/transport-sts","agencyTimeZoneOffset":-14400000,"routeColor":"C0C000","routeType":3,"routeId":"1:22","routeTextColor":"000000","interlineWithPreviousLeg":false,"tripBlockId":"1","headsign":"Terminus Chicoutimi","agencyId":"0","tripId":"1:217134","serviceDate":"20180402","from":{"name":"Delisle / Dupré","stopId":"1:106","stopCode":"106","lon":-71.062068,"lat":48.451776,"arrival":1522674029000,"departure":1522674030000,"zoneId":"NA","stopIndex":23,"stopSequence":24,"vertexType":"TRANSIT"},"to":{"name":"Terminus Chicoutimi","stopId":"1:1289","stopCode":"1289","lon":-71.066163,"lat":48.428677,"arrival":1522674600000,"departure":1522674900000,"zoneId":"NA","stopIndex":35,"stopSequence":36,"vertexType":"TRANSIT"},"legGeometry":{"points":"mfvfHjhvpLhAb@qAfJSzAMr@Yz@xAhDFNpBdFRp@Hl@Jz@BXXrCHl@Lh@Nf@r@nAr@r@`@PLFbAVH_AXeC@IdB_Mh@_EJk@x@x@bA`A|BrBnDrCl@f@|BlBrAbAj@d@ZTXNd@@lA[ZxDN|Ad@fAz@tB~AzDZ|@Zv@x@vBP\\h@~@PVrCmFhHqN~@eBr@cAt@_Av@}@RQPMz@k@tAe@REZG^Af@@X@VF`@Jn@XbClAr@Xt\\`PrAb@pA^hBTjAFj@Pb@JPHLLJNJRFXDT?X?ZEVEVKTMNMHMFOB}DWSGOSYcAN}FFkAF}DJyDd@wPV_HjAN~ALIzBQb@e@@","length":108},"routeShortName":"22","routeLongName":"Vanier","rentedBike":false,"transitLeg":true,"duration":570.0,"steps":[]},{"startTime":1522674900000,"endTime":1522675489000,"departureDelay":0,"arrivalDelay":0,"realTime":false,"distance":2704.712362975673,"pathway":false,"mode":"BUS","route":"10","agencyName":"Société de Transport du Saguenay","agencyUrl":"http://ville.saguenay.ca/fr/services-aux-citoyens/transport-sts","agencyTimeZoneOffset":-14400000,"routeColor":"0000FF","routeType":3,"routeId":"1:10","routeTextColor":"FFFFFF","interlineWithPreviousLeg":false,"tripBlockId":"29","headsign":"Terminus UQAC","agencyId":"0","tripId":"1:218057","serviceDate":"20180402","from":{"name":"Terminus Chicoutimi","stopId":"1:1289","stopCode":"1289","lon":-71.066163,"lat":48.428677,"arrival":1522674600000,"departure":1522674900000,"zoneId":"NA","stopIndex":0,"stopSequence":1,"vertexType":"TRANSIT"},"to":{"name":"Complexe Sagamie","stopId":"1:1565","stopCode":"1565","lon":-71.039089,"lat":48.423475,"arrival":1522675489000,"departure":1522675490000,"zoneId":"NA","stopIndex":11,"stopSequence":12,"vertexType":"TRANSIT"},"legGeometry":{"points":"svqfHnbwpLDmCdDZ\\kO`@mQBuCD}DQ_ECk@^Cd@QWkL?m@IuF@gA?eH?cAEuEDO^AjD`@B@rEf@T_FjBXpDd@hCObDaCfCaHbFqN`CwG_J_CwMiDGe@T}C\\yELaCJeA","length":38},"routeShortName":"10","routeLongName":"Notre-Dame du Saguenay","rentedBike":false,"transitLeg":true,"duration":589.0,"steps":[]},{"startTime":1522675490000,"endTime":1522675505000,"departureDelay":0,"arrivalDelay":0,"realTime":false,"distance":18.76,"pathway":false,"mode":"WALK","route":"","agencyTimeZoneOffset":-14400000,"interlineWithPreviousLeg":false,"from":{"name":"Complexe Sagamie","stopId":"1:1565","stopCode":"1565","lon":-71.039089,"lat":48.423475,"arrival":1522675489000,"departure":1522675490000,"zoneId":"NA","stopIndex":11,"stopSequence":12,"vertexType":"TRANSIT"},"to":{"name":"Destination","lon":-71.039377,"lat":48.423419,"arrival":1522675505000,"orig":"","vertexType":"NORMAL"},"legGeometry":{"points":"gupfHnyqpLGb@AL","length":3},"rentedBike":false,"transitLeg":false,"duration":15.0,"steps":[{"distance":18.76,"relativeDirection":"DEPART","streetName":"service road","absoluteDirection":"WEST","stayOn":false,"area":false,"bogusName":false,"lon":-71.03911523041273,"lat":48.423409719784964,"elevation":[]}]}],"tooSloped":false}]},"debugOutput":{"precalculationTime":24,"pathCalculationTime":26,"pathTimes":[15,6,5],"renderingTime":0,"totalTime":50,"timedOut":false},"elevationMetadata":{"ellipsoidToGeoidDifference":-28.885904201182168,"geoidElevation":false}}