{"requestParameters":{"date":"2018/04/02","walkSpeed":"1.33","walkReluctance":"2.0","fromPlace":"48.43745,-71.06138699","maxWalkDistance":"3000","waitReluctance":"1.0","carSpeed":"33","numItineraries":"3","waitAtBeginningFactor":"0.4","mode":"TRANSIT,WALK","ignoreRealtimeUpdates":"false","stairsReluctance":"2.0","toPlace":"48.450092,-71.067231","time":"12:0:00"},"plan":{"date":1522684800000,"from":{"name":"Origin","lon":-71.06138699,"lat":48.43745,"orig":"","vertexType":"NORMAL"},"to":{"name":"Destination","lon":-71.067231,"lat":48.450092,"orig":"","vertexType":"NORMAL"},"itineraries":[{"duration":1524,"startTime":1522684800000,"endTime":1522686324000,"walkTime":1524,"transitTime":0,"waitingTime":0,"walkDistance":1989.9768721756475,"walkLimitExceeded":false,"elevationLost":0.0,"elevationGained":0.0,"transfers":0,"legs":[{"startTime":1522684800000,"endTime":1522686324000,"departureDelay":0,"arrivalDelay":0,"realTime":false,"distance":1989.8280000000002,"pathway":false,"mode":"WALK","route":"","agencyTimeZoneOffset":-14400000,"interlineWithPreviousLeg":false,"from":{"name":"Origin","lon":-71.06138699,"lat":48.43745,"departure":1522684800000,"orig":"","vertexType":"NORMAL"},"to":{"name":"Destination","lon":-71.067231,"lat":48.450092,"arrival":1522686324000,"orig":"","vertexType":"NORMAL"},"legGeometry":{"points":"{ksfHfevpLGh@Vh@@r@cFcBoDmAiA_@CAeC{@{Ao@Mj@AFEDGBKCcD_AGXa@jCk@rEc@|Fc@pAgBv@iANmEqAKB_@ZUr@k@pDqQeHo@pE]fCId@Il@{BcAO@KHCFEHm@hEKVKVILUZWNSLGB","length":46},"alerts":[{"alertHeaderText":"Unpaved surface"}],"rentedBike":false,"transitLeg":false,"duration":1524.0,"steps":[{"distance":56.313,"relativeDirection":"DEPART","streetName":"path","absoluteDirection":"WEST","stayOn":false,"area":false,"bogusName":false,"lon":-71.06147041104263,"lat":48.43726209181293,"elevation":[]},{"distance":410.964,"relativeDirection":"RIGHT","streetName":"Boulevard de Tadoussac","absoluteDirection":"NORTH","stayOn":false,"area":false,"bogusName":false,"lon":-71.0621543,"lat":48.4371765,"elevation":[]},{"distance":131.077,"relativeDirection":"LEFT","streetName":"Rue du Régent","absoluteDirection":"NORTHWEST","stayOn":false,"area":false,"bogusName":false,"lon":-71.06055090000001,"lat":48.4407152,"elevation":[],"alerts":[{"alertHeaderText":"Unpaved surface"}]},{"distance":620.971,"relativeDirection":"LEFT","streetName":"Rue Talon","absoluteDirection":"WEST","stayOn":false,"area":false,"bogusName":false,"lon":-71.0605235,"lat":48.441746900000005,"elevation":[]},{"distance":347.949,"relativeDirection":"RIGHT","streetName":"Rue Delisle","absoluteDirection":"NORTH","stayOn":false,"area":false,"bogusName":false,"lon":-71.065352,"lat":48.445005300000005,"elevation":[]},{"distance":167.276,"relativeDirection":"LEFT","streetName":"Rue Cabot","absoluteDirection":"WEST","stayOn":false,"area":false,"bogusName":false,"lon":-71.06388530000001,"lat":48.4479794,"elevation":[],"alerts":[{"alertHeaderText":"Unpaved surface"}]},{"distance":255.278,"relativeDirection":"RIGHT","streetName":"Rue Beaupré","absoluteDirection":"NORTH","stayOn":false,"area":false,"bogusName":false,"lon":-71.0660326,"lat":48.448463600000004,"elevation":[]}]}],"tooSloped":false},{"duration":1581,"startTime":1522684927000,"endTime":1522686508000,"walkTime":476,"transitTime":1103,"waitingTime":2,"walkDistance":619.0445488699363,"walkLimitExceeded":false,"elevationLost":0.0,"elevationGained":0.0,"transfers":0,"legs":[{"startTime":1522684927000,"endTime":1522685151000,"departureDelay":0,"arrivalDelay":0,"realTime":false,"distance":290.369,"pathway":false,"mode":"WALK","route":"","agencyTimeZoneOffset":-14400000,"interlineWithPreviousLeg":false,"from":{"name":"Origin","lon":-71.06138699,"lat":48.43745,"departure":1522684927000,"orig":"","vertexType":"NORMAL"},"to":{"name":"boul. Tadoussac / Bourget","stopId":"1:831","stopCode":"831","lon":-71.061384,"lat":48.43922,"arrival":1522685151000,"departure":1522685152000,"zoneId":"NA","stopIndex":30,"stopSequence":31,"vertexType":"TRANSIT"},"legGeometry":{"points":"{ksfHfevpLGh@Vh@@r@cFcBoDmA","length":6},"rentedBike":false,"transitLeg":false,"duration":224.0,"steps":[{"distance":56.313,"relativeDirection":"DEPART","streetName":"path","absoluteDirection":"WEST","stayOn":false,"area":false,"bogusName":false,"lon":-71.06147041104263,"lat":48.43726209181293,"elevation":[]},{"distance":234.056,"relativeDirection":"RIGHT","streetName":"Boulevard de Tadoussac","absoluteDirection":"NORTH","stayOn":false,"area":false,"bogusName":false,"lon":-71.0621543,"lat":48.4371765,"elevation":[]}]},{"startTime":1522685152000,"endTime":1522685460000,"departureDelay":0,"arrivalDelay":0,"realTime":false,"distance":1919.7483661497956,"pathway":false,"mode":"BUS","route":"24","agencyName":"Société de Transport du Saguenay","agencyUrl":"http://ville.saguenay.ca/fr/services-aux-citoyens/transport-sts","agencyTimeZoneOffset":-14400000,"routeColor":"00FF00","routeType":3,"routeId":"1:24","routeTextColor":"000000","interlineWithPreviousLeg":false,"tripBlockId":"4","headsign":"Terminus Chicoutimi","agencyId":"0","tripId":"1:217233","serviceDate":"20180402","from":{"name":"boul. Tadoussac / Bourget","stopId":"1:831","stopCode":"831","lon":-71.061384,"lat":48.43922,"arrival":1522685151000,"departure":1522685152000,"zoneId":"NA","stopIndex":30,"stopSequence":31,"vertexType":"TRANSIT"},"to":{"name":"Terminus Chicoutimi","stopId":"1:1289","stopCode":"1289","lon":-71.066163,"lat":48.428677,"arrival":1522685460000,"departure":1522685700000,"zoneId":"NA","stopIndex":35,"stopSequence":36,"vertexType":"TRANSIT"},"legGeometry":{"points":"}wsfHxcvpLvDpALnBJt@Pp@Nj@l@tBHZPn@`@rBNnAFr@DbA?bB@jABzA?p@A???A???A?A???A@??A?A@??A@?@A??@A@???@A@?@?@A@?@?@?@?@???@?@?@?@?@?@@@?@?@@@?@@@?@@@?@@?@@??@@@?E`@Kr@]rACVEl@I|AAr@JbAWJe@FUAM?a@Ke@YYWWa@v@}@RQPMz@k@tAe@REZG^Af@@X@VF`@Jn@XbClAr@Xt\\`PrAb@pA^hBTjAFj@Pb@JPHLLJNJRFXDT?X?ZEVEVKTMNMHMFOB}DWSGOSYcAN}FFkAF}DJyDPwGvAHN_HDiB@m@","length":131},"routeShortName":"24","routeLongName":"Saint-Luc","rentedBike":false,"transitLeg":true,"duration":308.0,"steps":[]},{"startTime":1522685700000,"endTime":1522686255000,"departureDelay":0,"arrivalDelay":0,"realTime":false,"distance":4037.7492727135223,"pathway":false,"mode":"BUS","route":"23","agencyName":"Société de Transport du Saguenay","agencyUrl":"http://ville.saguenay.ca/fr/services-aux-citoyens/transport-sts","agencyTimeZoneOffset":-14400000,"routeColor":"FF00FF","routeType":3,"routeId":"1:23","routeTextColor":"FFFFFF","interlineWithPreviousLeg":true,"tripBlockId":"4","headsign":"Terminus Chicoutimi","agencyId":"0","tripId":"1:217234","serviceDate":"20180402","from":{"name":"Terminus Chicoutimi","stopId":"1:1289","stopCode":"1289","lon":-71.066163,"lat":48.428677,"arrival":1522685460000,"departure":1522685700000,"zoneId":"NA","stopIndex":0,"stopSequence":1,"vertexType":"TRANSIT"},"to":{"name":"Cabot / Ruisseau","stopId":"1:765","stopCode":"765","lon":-71.067028,"lat":48.44857,"arrival":1522686255000,"departure":1522686256000,"zoneId":"NA","stopIndex":9,"stopSequence":10,"vertexType":"TRANSIT"},"legGeometry":{"points":"kwqfHjbwpLF_CkAOYCm@rRO\\WjGOfGCRK^KJMHQB_AMg@Gw`@eR}@g@u@Su@Ia@Ck@Dm@HwAf@c@VeAx@iAlAU^[d@eLtTsAvB_CvEuAnCmBlE}@|B_BvFoC`JCD}@hCo@~Aq@pAs@fA{BlCqH|Iq@Bq@Im@UGCUi@Wm@ScA_@gGSaE@_@@_@@ERoBFe@No@`@gAbCyFNe@Ha@He@Fg@Du@Dg@Hc@Pa@RW\\S`@QZEm@eHM}B?GGi@Is@Ou@Qw@Mo@Kw@ImAGoBAk@aALa@?YEUKc@Yc@_@KOIUGUEWAW?YBqAH_AXeC@IdB_M","length":101},"routeShortName":"23","routeLongName":"Côte Verdun via Aréna du Plateau","rentedBike":false,"transitLeg":true,"duration":555.0,"steps":[]},{"startTime":1522686256000,"endTime":1522686508000,"departureDelay":0,"arrivalDelay":0,"realTime":false,"distance":328.606,"pathway":false,"mode":"WALK","route":"","agencyTimeZoneOffset":-14400000,"interlineWithPreviousLeg":false,"from":{"name":"Cabot / Ruisseau","stopId":"1:765","stopCode":"765","lon":-71.067028,"lat":48.44857,"arrival":1522686255000,"departure":1522686256000,"zoneId":"NA","stopIndex":9,"stopSequence":10,"vertexType":"TRANSIT"},"to":{"name":"Destination","lon":-71.067231,"lat":48.450092,"arrival":1522686508000,"orig":"","vertexType":"NORMAL"},"legGeometry":{"points":"esufHrgwpLh@{D{BcAO@KHCFEHm@hEKVKVILUZWNSLGB","length":15},"rentedBike":false,"transitLeg":false,"duration":252.0,"steps":[{"distance":73.328,"relativeDirection":"DEPART","streetName":"Rue Cabot","absoluteDirection":"EAST","stayOn":false,"area":false,"bogusName":false,"lon":-71.06697420818662,"lat":48.448675275192734,"elevation":[]},{"distance":255.278,"relativeDirection":"LEFT","streetName":"Rue Beaupré","absoluteDirection":"NORTH","stayOn":false,"area":false,"bogusName":false,"lon":-71.0660326,"lat":48.448463600000004,"elevation":[]}]}],"tooSloped":false},{"duration":1581,"startTime":1522686727000,"endTime":1522688308000,"walkTime":476,"transitTime":1103,"waitingTime":2,"walkDistance":619.0445488699363,"walkLimitExceeded":false,"elevationLost":0.0,"elevationGained":0.0,"transfers":0,"legs":[{"startTime":1522686727000,"endTime":1522686951000,"departureDelay":0,"arrivalDelay":0,"realTime":false,"distance":290.369,"pathway":false,"mode":"WALK","route":"","agencyTimeZoneOffset":-14400000,"interlineWithPreviousLeg":false,"from":{"name":"Origin","lon":-71.06138699,"lat":48.43745,"departure":1522686727000,"orig":"","vertexType":"NORMAL"},"to":{"name":"boul. Tadoussac / Bourget","stopId":"1:831","stopCode":"831","lon":-71.061384,"lat":48.43922,"arrival":1522686951000,"departure":1522686952000,"zoneId":"NA","stopIndex":30,"stopSequence":31,"vertexType":"TRANSIT"},"legGeometry":{"points":"{ksfHfevpLGh@Vh@@r@cFcBoDmA","length":6},"rentedBike":false,"transitLeg":false,"duration":224.0,"steps":[{"distance":56.313,"relativeDirection":"DEPART","streetName":"path","absoluteDirection":"WEST","stayOn":false,"area":false,"bogusName":false,"lon":-71.06147041104263,"lat":48.43726209181293,"elevation":[]},{"distance":234.056,"relativeDirection":"RIGHT","streetName":"Boulevard de Tadoussac","absoluteDirection":"NORTH","stayOn":false,"area":false,"bogusName":false,"lon":-71.0621543,"lat":48.4371765,"elevation":[]}]},{"startTime":1522686952000,"endTime":1522687260000,"departureDelay":0,"arrivalDelay":0,"realTime":false,"distance":1919.7483661497956,"pathway":false,"mode":"BUS","route":"24","agencyName":"Société de Transport du Saguenay","agencyUrl":"http://ville.saguenay.ca/fr/services-aux-citoyens/transport-sts","agencyTimeZoneOffset":-14400000,"routeColor":"00FF00","routeType":3,"routeId":"1:24","routeTextColor":"000000","interlineWithPreviousLeg":false,"tripBlockId":"5","headsign":"Terminus Chicoutimi","agencyId":"0","tripId":"1:217261","serviceDate":"20180402","from":{"name":"boul. Tadoussac / Bourget","stopId":"1:831","stopCode":"831","lon":-71.061384,"lat":48.43922,"arrival":1522686951000,"departure":1522686952000,"zoneId":"NA","stopIndex":30,"stopSequence":31,"vertexType":"TRANSIT"},"to":{"name":"Terminus Chicoutimi","stopId":"1:1289","stopCode":"1289","lon":-71.066163,"lat":48.428677,"arrival":1522687260000,"departure":1522687500000,"zoneId":"NA","stopIndex":35,"stopSequence":36,"vertexType":"TRANSIT"},"legGeometry":{"points":"}wsfHxcvpLvDpALnBJt@Pp@Nj@l@tBHZPn@`@rBNnAFr@DbA?bB@jABzA?p@A???A???A?A???A@??A?A@??A@?@A??@A@???@A@?@?@A@?@?@?@?@???@?@?@?@?@?@@@?@?@@@?@@@?@@@?@@?@@??@@@?E`@Kr@]rACVEl@I|AAr@JbAWJe@FUAM?a@Ke@YYWWa@v@}@RQPMz@k@tAe@REZG^Af@@X@VF`@Jn@XbClAr@Xt\\`PrAb@pA^hBTjAFj@Pb@JPHLLJNJRFXDT?X?ZEVEVKTMNMHMFOB}DWSGOSYcAN}FFkAF}DJyDPwGvAHN_HDiB@m@","length":131},"routeShortName":"24","routeLongName":"Saint-Luc","rentedBike":false,"transitLeg":true,"duration":308.0,"steps":[]},{"startTime":1522687500000,"endTime":1522688055000,"departureDelay":0,"arrivalDelay":0,"realTime":false,"distance":4037.7492727135223,"pathway":false,"mode":"BUS","route":"23","agencyName":"Société de Transport du Saguenay","agencyUrl":"http://ville.saguenay.ca/fr/services-aux-citoyens/transport-sts","agencyTimeZoneOffset":-14400000,"routeColor":"FF00FF","routeType":3,"routeId":"1:23","routeTextColor":"FFFFFF","interlineWithPreviousLeg":true,"tripBlockId":"5","headsign":"Terminus Chicoutimi","agencyId":"0","tripId":"1:217262","serviceDate":"20180402","from":{"name":"Terminus Chicoutimi","stopId":"1:1289","stopCode":"1289","lon":-71.066163,"lat":48.428677,"arrival":1522687260000,"departure":1522687500000,"zoneId":"NA","stopIndex":0,"stopSequence":1,"vertexType":"TRANSIT"},"to":{"name":"Cabot / Ruisseau","stopId":"1:765","stopCode":"765","lon":-71.067028,"lat":48.44857,"arrival":1522688055000,"departure":1522688056000,"zoneId":"NA","stopIndex":9,"stopSequence":10,"vertexType":"TRANSIT"},"legGeometry":{"points":"kwqfHjbwpLF_CkAOYCm@rRO\\WjGOfGCRK^KJMHQB_AMg@Gw`@eR}@g@u@Su@Ia@Ck@Dm@HwAf@c@VeAx@iAlAU^[d@eLtTsAvB_CvEuAnCmBlE}@|B_BvFoC`JCD}@hCo@~Aq@pAs@fA{BlCqH|Iq@Bq@Im@UGCUi@Wm@ScA_@gGSaE@_@@_@@ERoBFe@No@`@gAbCyFNe@Ha@He@Fg@Du@Dg@Hc@Pa@RW\\S`@QZEm@eHM}B?GGi@Is@Ou@Qw@Mo@Kw@ImAGoBAk@aALa@?YEUKc@Yc@_@KOIUGUEWAW?YBqAH_AXeC@IdB_M","length":101},"routeShortName":"23","routeLongName":"Côte Verdun via Aréna du Plateau","rentedBike":false,"transitLeg":true,"duration":555.0,"steps":[]},{"startTime":1522688056000,"endTime":1522688308000,"departureDelay":0,"arrivalDelay":0,"realTime":false,"distance":328.606,"pathway":false,"mode":"WALK","route":"","agencyTimeZoneOffset":-14400000,"interlineWithPreviousLeg":false,"from":{"name":"Cabot / Ruisseau","stopId":"1:765","stopCode":"765","lon":-71.067028,"lat":48.44857,"arrival":1522688055000,"departure":1522688056000,"zoneId":"NA","stopIndex":9,"stopSequence":10,"vertexType":"TRANSIT"},"to":{"name":"Destination","lon":-71.067231,"lat":48.450092,"arrival":1522688308000,"orig":"","vertexType":"NORMAL"},"legGeometry":{"points":"esufHrgwpLh@{D{BcAO@KHCFEHm@hEKVKVILUZWNSLGB","length":15},"rentedBike":false,"transitLeg":false,"duration":252.0,"steps":[{"distance":73.328,"relativeDirection":"DEPART","streetName":"Rue Cabot","absoluteDirection":"EAST","stayOn":false,"area":false,"bogusName":false,"lon":-71.06697420818662,"lat":48.448675275192734,"elevation":[]},{"distance":255.278,"relativeDirection":"LEFT","streetName":"Rue Beaupré","absoluteDirection":"NORTH","stayOn":false,"area":false,"bogusName":false,"lon":-71.0660326,"lat":48.448463600000004,"elevation":[]}]}],"tooSloped":false}]},"debugOutput":{"precalculationTime":26,"pathCalculationTime":24,"pathTimes":[15,4,5],"renderingTime":0,"totalTime":50,"timedOut":false},"elevationMetadata":{"ellipsoidToGeoidDifference":-28.885904201182168,"geoidElevation":false}}