{"requestParameters":{"date":"2018/04/02","walkSpeed":"1.33","walkReluctance":"2.0","fromPlace":"48.40001,-71.044398","maxWalkDistance":"3000","waitReluctance":"1.0","carSpeed":"33","numItineraries":"3","waitAtBeginningFactor":"0.4","mode":"TRANSIT,WALK","ignoreRealtimeUpdates":"false","stairsReluctance":"2.0","toPlace":"48.450675,-71.067508","time":"15:45:00"},"plan":{"date":1522698300000,"from":{"name":"Origin","lon":-71.044398,"lat":48.40001,"orig":"","vertexType":"NORMAL"},"to":{"name":"Destination","lon":-71.067508,"lat":48.450675,"orig":"","vertexType":"NORMAL"},"itineraries":[{"duration":5561,"startTime":1522698795000,"endTime":1522704356000,"walkTime":2583,"transitTime":1596,"waitingTime":1382,"walkDistance":3359.006661640755,"walkLimitExceeded":false,"elevationLost":0.0,"elevationGained":0.0,"transfers":2,"legs":[{"startTime":1522698795000,"endTime":1522701082000,"departureDelay":0,"arrivalDelay":0,"realTime":false,"distance":2977.9049999999997,"pathway":false,"mode":"WALK","route":"","agencyTimeZoneOffset":-14400000,"interlineWithPreviousLeg":false,"from":{"name":"Origin","lon":-71.044398,"lat":48.40001,"departure":1522698795000,"orig":"","vertexType":"NORMAL"},"to":{"name":"nouveau","stopId":"1:2297","stopCode":"2297","lon":-71.02468,"lat":48.413593,"arrival":1522701082000,"departure":1522701083000,"zoneId":"NA","stopIndex":25,"stopSequence":26,"vertexType":"TRANSIT"},"legGeometry":{"points":"}clfH|wrpLA@SNg@Pw@UUs@GcAAaAo@cAkCmDs@uASe@k@}@y@aAMkGSmBDmCOoCa@aCIQUAUN]dAyBxEQt@Ev@?`AIn@YN[Ce@Eq@kCM}AcAiA{@c@q@e@}Ba@Us@Qm@Uc@Q_@[I[OQc@_@[S[Ug@B_ADa@?QQg@Kk@MGOeAc@]_@SSOULSI?YGO[KOc@KGG]@GBEt@_@EqACWGiB[UKdA_@b@SRYLu@d@}@Ni@A]Jw@Cc@N}AAg@r@y@NIqA[wEA_@Ei@MaCC]g@yEUsAIm@yB}Mk@uKq@JUD","length":98},"alerts":[{"alertHeaderText":"Unpaved surface"}],"rentedBike":false,"transitLeg":false,"duration":2287.0,"steps":[{"distance":1750.5240000000001,"relativeDirection":"DEPART","streetName":"path","absoluteDirection":"NORTHWEST","stayOn":false,"area":false,"bogusName":false,"lon":-71.0439825575643,"lat":48.40015161754005,"elevation":[]},{"distance":63.259,"relativeDirection":"RIGHT","streetName":"steps","absoluteDirection":"SOUTH","stayOn":false,"area":false,"bogusName":true,"lon":-71.0331419,"lat":48.4089727,"elevation":[]},{"distance":386.934,"relativeDirection":"LEFT","streetName":"Sentier des Moulins","absoluteDirection":"EAST","stayOn":false,"area":false,"bogusName":false,"lon":-71.03298500000001,"lat":48.408708000000004,"elevation":[],"alerts":[{"alertHeaderText":"Unpaved surface"}]},{"distance":62.209,"relativeDirection":"LEFT","streetName":"path","absoluteDirection":"NORTHWEST","stayOn":false,"area":false,"bogusName":true,"lon":-71.0328834,"lat":48.4112566,"elevation":[],"alerts":[{"alertHeaderText":"Unpaved surface"}]},{"distance":674.7560000000001,"relativeDirection":"RIGHT","streetName":"Boulevard de l'Université","absoluteDirection":"EAST","stayOn":false,"area":false,"bogusName":false,"lon":-71.0332252,"lat":48.411744500000005,"elevation":[]},{"distance":40.223,"relativeDirection":"LEFT","streetName":"Boulevard du Saguenay Est","absoluteDirection":"NORTH","stayOn":false,"area":false,"bogusName":false,"lon":-71.0244078,"lat":48.413254800000004,"elevation":[]}]},{"startTime":1522701083000,"endTime":1522701780000,"departureDelay":0,"arrivalDelay":0,"realTime":false,"distance":5088.739460799068,"pathway":false,"mode":"BUS","route":"12","agencyName":"Société de Transport du Saguenay","agencyUrl":"http://ville.saguenay.ca/fr/services-aux-citoyens/transport-sts","agencyTimeZoneOffset":-14400000,"routeColor":"556B2F","routeType":3,"routeId":"1:12","routeTextColor":"FFFFFF","interlineWithPreviousLeg":false,"tripBlockId":"28","headsign":"Terminus UQAC","agencyId":"0","tripId":"1:218045","serviceDate":"20180402","from":{"name":"nouveau","stopId":"1:2297","stopCode":"2297","lon":-71.02468,"lat":48.413593,"arrival":1522701082000,"departure":1522701083000,"zoneId":"NA","stopIndex":25,"stopSequence":26,"vertexType":"TRANSIT"},"to":{"name":"Terminus UQAC","stopId":"1:1670","stopCode":"1670","lon":-71.053369,"lat":48.420903,"arrival":1522701780000,"departure":1522701960000,"zoneId":"NA","stopIndex":39,"stopSequence":40,"vertexType":"TRANSIT"},"legGeometry":{"points":"}wnfHf_opLvVvrCdRvMcAjKcP~b@iHhDaGz@uSl[uCYmIeIeJ_J{J{JwCiThFaQhC`E","length":15},"routeShortName":"12","routeLongName":"Rivière du Moulin","rentedBike":false,"transitLeg":true,"duration":697.0,"steps":[]},{"startTime":1522701960000,"endTime":1522702500000,"departureDelay":0,"arrivalDelay":0,"realTime":false,"distance":2324.3264239577584,"pathway":false,"mode":"BUS","route":"175","agencyName":"Société de Transport du Saguenay","agencyUrl":"http://ville.saguenay.ca/fr/services-aux-citoyens/transport-sts","agencyTimeZoneOffset":-14400000,"routeColor":"FF00FF","routeType":3,"routeId":"1:175","routeTextColor":"FFFFFF","interlineWithPreviousLeg":false,"tripBlockId":"80","headsign":"Terminus Chicoutimi","agencyId":"0","tripId":"1:218655","serviceDate":"20180402","from":{"name":"Terminus UQAC","stopId":"1:1670","stopCode":"1670","lon":-71.053369,"lat":48.420903,"arrival":1522701780000,"departure":1522701960000,"zoneId":"NA","stopIndex":14,"stopSequence":15,"vertexType":"TRANSIT"},"to":{"name":"Terminus Chicoutimi","stopId":"1:1289","stopCode":"1289","lon":-71.066163,"lat":48.428677,"arrival":1522702500000,"departure":1522703700000,"zoneId":"NA","stopIndex":27,"stopSequence":28,"vertexType":"TRANSIT"},"legGeometry":{"points":"sepfHprtpL_A_ATm@yAwAgBeBqDnL@nBF`@f@|C[dCuAfB]xAs@OmCmCmEkE]a@g@i@ZiGTmEl@oLaEe@cFk@?pH?tJDvBPjMB~Bo@PQDRbFKdGMhIOvIK|EQpHoCQEdC","length":37},"routeShortName":"175","routeLongName":"Term. Chic / Costco","rentedBike":false,"transitLeg":true,"duration":540.0,"steps":[]},{"startTime":1522703700000,"endTime":1522704059000,"departureDelay":0,"arrivalDelay":0,"realTime":false,"distance":2420.2783982822816,"pathway":false,"mode":"BUS","route":"22","agencyName":"Société de Transport du Saguenay","agencyUrl":"http://ville.saguenay.ca/fr/services-aux-citoyens/transport-sts","agencyTimeZoneOffset":-14400000,"routeColor":"C0C000","routeType":3,"routeId":"1:22","routeTextColor":"000000","interlineWithPreviousLeg":false,"tripBlockId":"3","headsign":"Terminus Chicoutimi","agencyId":"0","tripId":"1:217208","serviceDate":"20180402","from":{"name":"Terminus Chicoutimi","stopId":"1:1289","stopCode":"1289","lon":-71.066163,"lat":48.428677,"arrival":1522702500000,"departure":1522703700000,"zoneId":"NA","stopIndex":0,"stopSequence":1,"vertexType":"TRANSIT"},"to":{"name":"Constantin / Cabot","stopId":"1:741","stopCode":"741","lon":-71.065961,"lat":48.448053,"arrival":1522704059000,"departure":1522704060000,"zoneId":"NA","stopIndex":5,"stopSequence":6,"vertexType":"TRANSIT"},"legGeometry":{"points":"evqfHzcwpLg@?UhKxDVOhHMrH~CYhBBInAKXSNg@L{JHgBMoA[s@Usb@gS}@g@u@Su@Ia@Ck@Dm@HwAf@c@VeAx@iAlAU^[d@eLtTsAvBMJYF[EMIQ]y@wB[y@[{@_B{D{@uBe@gAO}AGw@SaCmAZe@AYOy@o@MKsAcA}BmBuC}BgA}@}BsBaAaA","length":56},"routeShortName":"22","routeLongName":"Vanier","rentedBike":false,"transitLeg":true,"duration":359.0,"steps":[]},{"startTime":1522704060000,"endTime":1522704356000,"departureDelay":0,"arrivalDelay":0,"realTime":false,"distance":380.68699999999995,"pathway":false,"mode":"WALK","route":"","agencyTimeZoneOffset":-14400000,"interlineWithPreviousLeg":false,"from":{"name":"Constantin / Cabot","stopId":"1:741","stopCode":"741","lon":-71.065961,"lat":48.448053,"arrival":1522704059000,"departure":1522704060000,"zoneId":"NA","stopIndex":5,"stopSequence":6,"vertexType":"TRANSIT"},"to":{"name":"Destination","lon":-71.067508,"lat":48.450675,"arrival":1522704356000,"orig":"","vertexType":"NORMAL"},"legGeometry":{"points":"soufHbbwpLAA{@w@Il@{BcAO@KHCFEHm@hEKVKVILUZWNSLMDQFm@Vm@R","length":20},"alerts":[{"alertHeaderText":"Unpaved surface"}],"rentedBike":false,"transitLeg":false,"duration":296.0,"steps":[{"distance":40.008,"relativeDirection":"DEPART","streetName":"Rue Constantin","absoluteDirection":"NORTHEAST","stayOn":false,"area":false,"bogusName":false,"lon":-71.06609099534103,"lat":48.44810739037834,"elevation":[]},{"distance":17.988,"relativeDirection":"LEFT","streetName":"Rue Cabot","absoluteDirection":"WEST","stayOn":false,"area":false,"bogusName":false,"lon":-71.0658016,"lat":48.4484117,"elevation":[],"alerts":[{"alertHeaderText":"Unpaved surface"}]},{"distance":322.691,"relativeDirection":"RIGHT","streetName":"Rue Beaupré","absoluteDirection":"NORTH","stayOn":false,"area":false,"bogusName":false,"lon":-71.0660326,"lat":48.448463600000004,"elevation":[]}]}],"tooSloped":false},{"duration":4875,"startTime":1522700595000,"endTime":1522705470000,"walkTime":3386,"transitTime":993,"waitingTime":496,"walkDistance":4391.540263141591,"walkLimitExceeded":false,"elevationLost":0.0,"elevationGained":0.0,"transfers":1,"legs":[{"startTime":1522700595000,"endTime":1522702882000,"departureDelay":0,"arrivalDelay":0,"realTime":false,"distance":2977.9049999999997,"pathway":false,"mode":"WALK","route":"","agencyTimeZoneOffset":-14400000,"interlineWithPreviousLeg":false,"from":{"name":"Origin","lon":-71.044398,"lat":48.40001,"departure":1522700595000,"orig":"","vertexType":"NORMAL"},"to":{"name":"nouveau","stopId":"1:2297","stopCode":"2297","lon":-71.02468,"lat":48.413593,"arrival":1522702882000,"departure":1522702883000,"zoneId":"NA","stopIndex":25,"stopSequence":26,"vertexType":"TRANSIT"},"legGeometry":{"points":"}clfH|wrpLA@SNg@Pw@UUs@GcAAaAo@cAkCmDs@uASe@k@}@y@aAMkGSmBDmCOoCa@aCIQUAUN]dAyBxEQt@Ev@?`AIn@YN[Ce@Eq@kCM}AcAiA{@c@q@e@}Ba@Us@Qm@Uc@Q_@[I[OQc@_@[S[Ug@B_ADa@?QQg@Kk@MGOeAc@]_@SSOULSI?YGO[KOc@KGG]@GBEt@_@EqACWGiB[UKdA_@b@SRYLu@d@}@Ni@A]Jw@Cc@N}AAg@r@y@NIqA[wEA_@Ei@MaCC]g@yEUsAIm@yB}Mk@uKq@JUD","length":98},"alerts":[{"alertHeaderText":"Unpaved surface"}],"rentedBike":false,"transitLeg":false,"duration":2287.0,"steps":[{"distance":1750.5240000000001,"relativeDirection":"DEPART","streetName":"path","absoluteDirection":"NORTHWEST","stayOn":false,"area":false,"bogusName":false,"lon":-71.0439825575643,"lat":48.40015161754005,"elevation":[]},{"distance":63.259,"relativeDirection":"RIGHT","streetName":"steps","absoluteDirection":"SOUTH","stayOn":false,"area":false,"bogusName":true,"lon":-71.0331419,"lat":48.4089727,"elevation":[]},{"distance":386.934,"relativeDirection":"LEFT","streetName":"Sentier des Moulins","absoluteDirection":"EAST","stayOn":false,"area":false,"bogusName":false,"lon":-71.03298500000001,"lat":48.408708000000004,"elevation":[],"alerts":[{"alertHeaderText":"Unpaved surface"}]},{"distance":62.209,"relativeDirection":"LEFT","streetName":"path","absoluteDirection":"NORTHWEST","stayOn":false,"area":false,"bogusName":true,"lon":-71.0328834,"lat":48.4112566,"elevation":[],"alerts":[{"alertHeaderText":"Unpaved surface"}]},{"distance":674.7560000000001,"relativeDirection":"RIGHT","streetName":"Boulevard de l'Université","absoluteDirection":"EAST","stayOn":false,"area":false,"bogusName":false,"lon":-71.0332252,"lat":48.411744500000005,"elevation":[]},{"distance":40.223,"relativeDirection":"LEFT","streetName":"Boulevard du Saguenay Est","absoluteDirection":"NORTH","stayOn":false,"area":false,"bogusName":false,"lon":-71.0244078,"lat":48.413254800000004,"elevation":[]}]},{"startTime":1522702883000,"endTime":1522703565000,"departureDelay":0,"arrivalDelay":0,"realTime":false,"distance":4983.49509550467,"pathway":false,"mode":"BUS","route":"12","agencyName":"Société de Transport du Saguenay","agencyUrl":"http://ville.saguenay.ca/fr/services-aux-citoyens/transport-sts","agencyTimeZoneOffset":-14400000,"routeColor":"556B2F","routeType":3,"routeId":"1:12","routeTextColor":"FFFFFF","interlineWithPreviousLeg":false,"tripBlockId":"27","headsign":"Terminus UQAC","agencyId":"0","tripId":"1:218020","serviceDate":"20180402","from":{"name":"nouveau","stopId":"1:2297","stopCode":"2297","lon":-71.02468,"lat":48.413593,"arrival":1522702882000,"departure":1522702883000,"zoneId":"NA","stopIndex":25,"stopSequence":26,"vertexType":"TRANSIT"},"to":{"name":"Résidence de l' UQAC","stopId":"1:64","stopCode":"64","lon":-71.052396,"lat":48.421595,"arrival":1522703565000,"departure":1522704059000,"zoneId":"NA","stopIndex":38,"stopSequence":39,"vertexType":"TRANSIT"},"legGeometry":{"points":"}wnfHf_opLvVvrCdRvMcAjKcP~b@iHhDaGz@uSl[uCYmIeIeJ_J{J{JwCiThFaQ","length":14},"routeShortName":"12","routeLongName":"Rivière du Moulin","rentedBike":false,"transitLeg":true,"duration":682.0,"steps":[]},{"startTime":1522704059000,"endTime":1522704370000,"departureDelay":0,"arrivalDelay":0,"realTime":false,"distance":3649.7352043747583,"pathway":false,"mode":"BUS","route":"27","agencyName":"Société de Transport du Saguenay","agencyUrl":"http://ville.saguenay.ca/fr/services-aux-citoyens/transport-sts","agencyTimeZoneOffset":-14400000,"routeColor":"00FFFF","routeType":3,"routeId":"1:27","routeTextColor":"000000","interlineWithPreviousLeg":false,"tripBlockId":"100","headsign":"Terminus Chicoutimi","agencyId":"0","tripId":"1:218761","serviceDate":"20180402","from":{"name":"Résidence de l' UQAC","stopId":"1:64","stopCode":"64","lon":-71.052396,"lat":48.421595,"arrival":1522703565000,"departure":1522704059000,"zoneId":"NA","stopIndex":7,"stopSequence":8,"vertexType":"TRANSIT"},"to":{"name":"boul. Ste-Geneviève / Champs","stopId":"1:705","stopCode":"705","lon":-71.074706,"lat":48.442337,"arrival":1522704370000,"departure":1522704371000,"zoneId":"NA","stopIndex":10,"stopSequence":11,"vertexType":"TRANSIT"},"legGeometry":{"points":"wipfH`ltpLzA|AtCsIFIHAtEpE~B`CVRPl@fDfD~@~@JJt@lAP`@ZP_SbQmApA_@h@Ub@Uh@U|@Qh@[xASlDaBjt@OjKIt@StAOl@Mp@]l@]L]K_A{@{@o@e@OwEa@kBKW?{El@}@D}PNgBM[Is@Qs@Usb@gS}@g@u@Su@Ia@Ck@Dm@HwAf@c@VeAx@iAlAU^[d@eLtTsAvBQ\\Ud@wArC","length":64},"routeShortName":"27","routeLongName":"St-Honoré","rentedBike":false,"transitLeg":true,"duration":311.0,"steps":[]},{"startTime":1522704371000,"endTime":1522705470000,"departureDelay":0,"arrivalDelay":0,"realTime":false,"distance":1413.13,"pathway":false,"mode":"WALK","route":"","agencyTimeZoneOffset":-14400000,"interlineWithPreviousLeg":false,"from":{"name":"boul. Ste-Geneviève / Champs","stopId":"1:705","stopCode":"705","lon":-71.074706,"lat":48.442337,"arrival":1522704370000,"departure":1522704371000,"zoneId":"NA","stopIndex":10,"stopSequence":11,"vertexType":"TRANSIT"},"to":{"name":"Destination","lon":-71.067508,"lat":48.450675,"arrival":1522705470000,"orig":"","vertexType":"NORMAL"},"legGeometry":{"points":"iktfHhxxpLnAeCu@mBsAkD?A]{@_B}Du@oB?AO]M]KYKs@Ea@Gu@O{BeAPc@@KAOAe@a@_@YOMqAgA{BeBm@i@eBwAkAaA}BqB_A{@AA{@w@Il@{BcAO@KHCFEHm@hEKVKVILUZWNSLMDQFm@Vm@R","length":49},"alerts":[{"alertHeaderText":"Unpaved surface"}],"rentedBike":false,"transitLeg":false,"duration":1099.0,"steps":[{"distance":66.393,"relativeDirection":"DEPART","streetName":"Boulevard Sainte-Geneviève","absoluteDirection":"SOUTHEAST","stayOn":false,"area":false,"bogusName":false,"lon":-71.07476154891728,"lat":48.442296311215706,"elevation":[]},{"distance":356.56300000000005,"relativeDirection":"LEFT","streetName":"Rue des Champs","absoluteDirection":"NORTHEAST","stayOn":false,"area":false,"bogusName":false,"lon":-71.0740944,"lat":48.4418955,"elevation":[]},{"distance":80.422,"relativeDirection":"CONTINUE","streetName":"Rue Delisle","absoluteDirection":"EAST","stayOn":false,"area":false,"bogusName":false,"lon":-71.0701683,"lat":48.443755,"elevation":[]},{"distance":569.0730000000001,"relativeDirection":"LEFT","streetName":"Rue Constantin","absoluteDirection":"NORTH","stayOn":false,"area":false,"bogusName":false,"lon":-71.069103,"lat":48.4439088,"elevation":[]},{"distance":17.988,"relativeDirection":"LEFT","streetName":"Rue Cabot","absoluteDirection":"WEST","stayOn":false,"area":false,"bogusName":false,"lon":-71.0658016,"lat":48.4484117,"elevation":[],"alerts":[{"alertHeaderText":"Unpaved surface"}]},{"distance":322.691,"relativeDirection":"RIGHT","streetName":"Rue Beaupré","absoluteDirection":"NORTH","stayOn":false,"area":false,"bogusName":false,"lon":-71.0660326,"lat":48.448463600000004,"elevation":[]}]}],"tooSloped":false},{"duration":5561,"startTime":1522702395000,"endTime":1522707956000,"walkTime":2583,"transitTime":2676,"waitingTime":302,"walkDistance":3359.006661640755,"walkLimitExceeded":false,"elevationLost":0.0,"elevationGained":0.0,"transfers":1,"legs":[{"startTime":1522702395000,"endTime":1522704682000,"departureDelay":0,"arrivalDelay":0,"realTime":false,"distance":2977.9049999999997,"pathway":false,"mode":"WALK","route":"","agencyTimeZoneOffset":-14400000,"interlineWithPreviousLeg":false,"from":{"name":"Origin","lon":-71.044398,"lat":48.40001,"departure":1522702395000,"orig":"","vertexType":"NORMAL"},"to":{"name":"nouveau","stopId":"1:2297","stopCode":"2297","lon":-71.02468,"lat":48.413593,"arrival":1522704682000,"departure":1522704683000,"zoneId":"NA","stopIndex":25,"stopSequence":26,"vertexType":"TRANSIT"},"legGeometry":{"points":"}clfH|wrpLA@SNg@Pw@UUs@GcAAaAo@cAkCmDs@uASe@k@}@y@aAMkGSmBDmCOoCa@aCIQUAUN]dAyBxEQt@Ev@?`AIn@YN[Ce@Eq@kCM}AcAiA{@c@q@e@}Ba@Us@Qm@Uc@Q_@[I[OQc@_@[S[Ug@B_ADa@?QQg@Kk@MGOeAc@]_@SSOULSI?YGO[KOc@KGG]@GBEt@_@EqACWGiB[UKdA_@b@SRYLu@d@}@Ni@A]Jw@Cc@N}AAg@r@y@NIqA[wEA_@Ei@MaCC]g@yEUsAIm@yB}Mk@uKq@JUD","length":98},"alerts":[{"alertHeaderText":"Unpaved surface"}],"rentedBike":false,"transitLeg":false,"duration":2287.0,"steps":[{"distance":1750.5240000000001,"relativeDirection":"DEPART","streetName":"path","absoluteDirection":"NORTHWEST","stayOn":false,"area":false,"bogusName":false,"lon":-71.0439825575643,"lat":48.40015161754005,"elevation":[]},{"distance":63.259,"relativeDirection":"RIGHT","streetName":"steps","absoluteDirection":"SOUTH","stayOn":false,"area":false,"bogusName":true,"lon":-71.0331419,"lat":48.4089727,"elevation":[]},{"distance":386.934,"relativeDirection":"LEFT","streetName":"Sentier des Moulins","absoluteDirection":"EAST","stayOn":false,"area":false,"bogusName":false,"lon":-71.03298500000001,"lat":48.408708000000004,"elevation":[],"alerts":[{"alertHeaderText":"Unpaved surface"}]},{"distance":62.209,"relativeDirection":"LEFT","streetName":"path","absoluteDirection":"NORTHWEST","stayOn":false,"area":false,"bogusName":true,"lon":-71.0328834,"lat":48.4112566,"elevation":[],"alerts":[{"alertHeaderText":"Unpaved surface"}]},{"distance":674.7560000000001,"relativeDirection":"RIGHT","streetName":"Boulevard de l'Université","absoluteDirection":"EAST","stayOn":false,"area":false,"bogusName":false,"lon":-71.0332252,"lat":48.411744500000005,"elevation":[]},{"distance":40.223,"relativeDirection":"LEFT","streetName":"Boulevard du Saguenay Est","absoluteDirection":"NORTH","stayOn":false,"area":false,"bogusName":false,"lon":-71.0244078,"lat":48.413254800000004,"elevation":[]}]},{"startTime":1522704683000,"endTime":1522705380000,"departureDelay":0,"arrivalDelay":0,"realTime":false,"distance":5088.739460799068,"pathway":false,"mode":"BUS","route":"12","agencyName":"Société de Transport du Saguenay","agencyUrl":"http://ville.saguenay.ca/fr/services-aux-citoyens/transport-sts","agencyTimeZoneOffset":-14400000,"routeColor":"556B2F","routeType":3,"routeId":"1:12","routeTextColor":"FFFFFF","interlineWithPreviousLeg":false,"tripBlockId":"28","headsign":"Terminus UQAC","agencyId":"0","tripId":"1:218047","serviceDate":"20180402","from":{"name":"nouveau","stopId":"1:2297","stopCode":"2297","lon":-71.02468,"lat":48.413593,"arrival":1522704682000,"departure":1522704683000,"zoneId":"NA","stopIndex":25,"stopSequence":26,"vertexType":"TRANSIT"},"to":{"name":"Terminus UQAC","stopId":"1:1670","stopCode":"1670","lon":-71.053369,"lat":48.420903,"arrival":1522705380000,"departure":1522705680000,"zoneId":"NA","stopIndex":39,"stopSequence":40,"vertexType":"TRANSIT"},"legGeometry":{"points":"}wnfHf_opLvVvrCdRvMcAjKcP~b@iHhDaGz@uSl[uCYmIeIeJ_J{J{JwCiThFaQhC`E","length":15},"routeShortName":"12","routeLongName":"Rivière du Moulin","rentedBike":false,"transitLeg":true,"duration":697.0,"steps":[]},{"startTime":1522705680000,"endTime":1522707000000,"departureDelay":0,"arrivalDelay":0,"realTime":false,"distance":5312.4769988938415,"pathway":false,"mode":"BUS","route":"10","agencyName":"Société de Transport du Saguenay","agencyUrl":"http://ville.saguenay.ca/fr/services-aux-citoyens/transport-sts","agencyTimeZoneOffset":-14400000,"routeColor":"0000FF","routeType":3,"routeId":"1:10","routeTextColor":"FFFFFF","interlineWithPreviousLeg":true,"tripBlockId":"28","headsign":"Terminus Chicoutimi","agencyId":"0","tripId":"1:218048","serviceDate":"20180402","from":{"name":"Terminus UQAC","stopId":"1:1670","stopCode":"1670","lon":-71.053369,"lat":48.420903,"arrival":1522705380000,"departure":1522705680000,"zoneId":"NA","stopIndex":0,"stopSequence":1,"vertexType":"TRANSIT"},"to":{"name":"Terminus Chicoutimi","stopId":"1:1289","stopCode":"1289","lon":-71.066163,"lat":48.428677,"arrival":1522707000000,"departure":1522707300000,"zoneId":"NA","stopIndex":21,"stopSequence":22,"vertexType":"TRANSIT"},"legGeometry":{"points":"sepfHtrtpLbA`ATs@hEnDRlGbBbHtMcLsBsDkBcBkD}CvDkK`IuU`WjXhCsHqJ_K{BaCsB{B}AeCu@oAXu@hAoDP_BP{AQmCg@mB_BiBeBaBqFeFmCgC{A_BmBoBk@iAw@}CU[o@y@k@Io@MqC@}@k@_@[aAw@_BoCMOKcAQUu@s@AAu@[k@xGg@pFc@~EO`@KHCVDP?hAa@nEKdAi@pGAr@GXMRG^Bb@`CV~IxB~ElAhChAsBtFaEvK_BhE}AfD{BdByBh@iC]oDq@YbF_Ea@AAuEg@MDENF|GAjJDzBDdDLdHFbCo@RUFRbFG|FApAMvFa@tPOnHqBOIjDc@Q","length":99},"routeShortName":"10","routeLongName":"Notre-Dame du Saguenay","rentedBike":false,"transitLeg":true,"duration":1320.0,"steps":[]},{"startTime":1522707300000,"endTime":1522707659000,"departureDelay":0,"arrivalDelay":0,"realTime":false,"distance":2420.2783982822816,"pathway":false,"mode":"BUS","route":"22","agencyName":"Société de Transport du Saguenay","agencyUrl":"http://ville.saguenay.ca/fr/services-aux-citoyens/transport-sts","agencyTimeZoneOffset":-14400000,"routeColor":"C0C000","routeType":3,"routeId":"1:22","routeTextColor":"000000","interlineWithPreviousLeg":false,"tripBlockId":"3","headsign":"Terminus Chicoutimi","agencyId":"0","tripId":"1:217210","serviceDate":"20180402","from":{"name":"Terminus Chicoutimi","stopId":"1:1289","stopCode":"1289","lon":-71.066163,"lat":48.428677,"arrival":1522707000000,"departure":1522707300000,"zoneId":"NA","stopIndex":0,"stopSequence":1,"vertexType":"TRANSIT"},"to":{"name":"Constantin / Cabot","stopId":"1:741","stopCode":"741","lon":-71.065961,"lat":48.448053,"arrival":1522707659000,"departure":1522707660000,"zoneId":"NA","stopIndex":5,"stopSequence":6,"vertexType":"TRANSIT"},"legGeometry":{"points":"evqfHzcwpLg@?UhKxDVOhHMrH~CYhBBInAKXSNg@L{JHgBMoA[s@Usb@gS}@g@u@Su@Ia@Ck@Dm@HwAf@c@VeAx@iAlAU^[d@eLtTsAvBMJYF[EMIQ]y@wB[y@[{@_B{D{@uBe@gAO}AGw@SaCmAZe@AYOy@o@MKsAcA}BmBuC}BgA}@}BsBaAaA","length":56},"routeShortName":"22","routeLongName":"Vanier","rentedBike":false,"transitLeg":true,"duration":359.0,"steps":[]},{"startTime":1522707660000,"endTime":1522707956000,"departureDelay":0,"arrivalDelay":0,"realTime":false,"distance":380.68699999999995,"pathway":false,"mode":"WALK","route":"","agencyTimeZoneOffset":-14400000,"interlineWithPreviousLeg":false,"from":{"name":"Constantin / Cabot","stopId":"1:741","stopCode":"741","lon":-71.065961,"lat":48.448053,"arrival":1522707659000,"departure":1522707660000,"zoneId":"NA","stopIndex":5,"stopSequence":6,"vertexType":"TRANSIT"},"to":{"name":"Destination","lon":-71.067508,"lat":48.450675,"arrival":1522707956000,"orig":"","vertexType":"NORMAL"},"legGeometry":{"points":"soufHbbwpLAA{@w@Il@{BcAO@KHCFEHm@hEKVKVILUZWNSLMDQFm@Vm@R","length":20},"alerts":[{"alertHeaderText":"Unpaved surface"}],"rentedBike":false,"transitLeg":false,"duration":296.0,"steps":[{"distance":40.008,"relativeDirection":"DEPART","streetName":"Rue Constantin","absoluteDirection":"NORTHEAST","stayOn":false,"area":false,"bogusName":false,"lon":-71.06609099534103,"lat":48.44810739037834,"elevation":[]},{"distance":17.988,"relativeDirection":"LEFT","streetName":"Rue Cabot","absoluteDirection":"WEST","stayOn":false,"area":false,"bogusName":false,"lon":-71.0658016,"lat":48.4484117,"elevation":[],"alerts":[{"alertHeaderText":"Unpaved surface"}]},{"distance":322.691,"relativeDirection":"RIGHT","streetName":"Rue Beaupré","absoluteDirection":"NORTH","stayOn":false,"area":false,"bogusName":false,"lon":-71.0660326,"lat":48.448463600000004,"elevation":[]}]}],"tooSloped":false}]},"debugOutput":{"precalculationTime":8,"pathCalculationTime":21,"pathTimes":[11,6,4],"renderingTime":1,"totalTime":30,"timedOut":false},"elevationMetadata":{"ellipsoidToGeoidDifference":-28.885904201182168,"geoidElevation":false}}