{"requestParameters":{"date":"2018/04/02","walkSpeed":"1.33","walkReluctance":"2.0","fromPlace":"48.43923,-71.08117199","maxWalkDistance":"3000","waitReluctance":"1.0","carSpeed":"33","numItineraries":"3","waitAtBeginningFactor":"0.4","mode":"TRANSIT,WALK","ignoreRealtimeUpdates":"false","stairsReluctance":"2.0","toPlace":"48.456619,-71.118252","time":"15:55:00"},"plan":{"date":1522698900000,"from":{"name":"Origin","lon":-71.08117199,"lat":48.43923,"orig":"","vertexType":"NORMAL"},"to":{"name":"Destination","lon":-71.118252,"lat":48.456619,"orig":"","vertexType":"NORMAL"},"itineraries":[{"duration":1142,"startTime":1522699781000,"endTime":1522700923000,"walkTime":758,"transitTime":382,"waitingTime":2,"walkDistance":961.9135488650962,"walkLimitExceeded":false,"elevationLost":0.0,"elevationGained":0.0,"transfers":0,"legs":[{"startTime":1522699781000,"endTime":1522700437000,"departureDelay":0,"arrivalDelay":0,"realTime":false,"distance":836.8800000000001,"pathway":false,"mode":"WALK","route":"","agencyTimeZoneOffset":-14400000,"interlineWithPreviousLeg":false,"from":{"name":"Origin","lon":-71.08117199,"lat":48.43923,"departure":1522699781000,"orig":"","vertexType":"NORMAL"},"to":{"name":"Place de la Colline (boul. Ste-Geneviève)","stopId":"1:706","stopCode":"706","lon":-71.080094,"lat":48.44485,"arrival":1522700437000,"departure":1522700438000,"zoneId":"NA","stopIndex":2,"stopSequence":3,"vertexType":"TRANSIT"},"legGeometry":{"points":"cxsfH``zpLsAc@Da@p@_DaCeB[g@IQaC|CMPi@ME??AMA]?_@?a@Bc@?Y@e@E[EOEQGoBo@iCw@]MUKc@a@QSeBjF","length":29},"rentedBike":false,"transitLeg":false,"duration":656.0,"steps":[{"distance":49.493,"relativeDirection":"DEPART","streetName":"Rue Saint-Roch","absoluteDirection":"NORTH","stayOn":false,"area":false,"bogusName":false,"lon":-71.08112881700431,"lat":48.43922167720646,"elevation":[]},{"distance":78.102,"relativeDirection":"RIGHT","streetName":"Rue Sainte-Élisabeth","absoluteDirection":"EAST","stayOn":false,"area":false,"bogusName":false,"lon":-71.0809416,"lat":48.439649100000004,"elevation":[]},{"distance":111.76,"relativeDirection":"LEFT","streetName":"Rue Hoffman","absoluteDirection":"NORTHEAST","stayOn":false,"area":false,"bogusName":false,"lon":-71.07997660000001,"lat":48.4393625,"elevation":[]},{"distance":103.24,"relativeDirection":"LEFT","streetName":"Rue Roussel","absoluteDirection":"NORTHWEST","stayOn":false,"area":false,"bogusName":false,"lon":-71.07917420000001,"lat":48.4402035,"elevation":[]},{"distance":390.311,"relativeDirection":"RIGHT","streetName":"Rue Saint-Albert","absoluteDirection":"NORTH","stayOn":false,"area":false,"bogusName":false,"lon":-71.0800502,"lat":48.4409276,"elevation":[]},{"distance":103.974,"relativeDirection":"LEFT","streetName":"Boulevard Sainte-Geneviève","absoluteDirection":"NORTHWEST","stayOn":false,"area":false,"bogusName":false,"lon":-71.07894370000001,"lat":48.444307900000005,"elevation":[]}]},{"startTime":1522700438000,"endTime":1522700820000,"departureDelay":0,"arrivalDelay":0,"realTime":false,"distance":4207.2657894938275,"pathway":false,"mode":"BUS","route":"21","agencyName":"Société de Transport du Saguenay","agencyUrl":"http://ville.saguenay.ca/fr/services-aux-citoyens/transport-sts","agencyTimeZoneOffset":-14400000,"routeColor":"556B2F","routeType":3,"routeId":"1:21","routeTextColor":"FFFFFF","interlineWithPreviousLeg":false,"tripBlockId":"2","headsign":"Terminus Chicoutimi","agencyId":"0","tripId":"1:217175","serviceDate":"20180402","from":{"name":"Place de la Colline (boul. Ste-Geneviève)","stopId":"1:706","stopCode":"706","lon":-71.080094,"lat":48.44485,"arrival":1522700437000,"departure":1522700438000,"zoneId":"NA","stopIndex":2,"stopSequence":3,"vertexType":"TRANSIT"},"to":{"name":"Élie / Roger","stopId":"1:718","stopCode":"718","lon":-71.119216,"lat":48.45754,"arrival":1522700820000,"departure":1522700821000,"zoneId":"NA","stopIndex":18,"stopSequence":19,"vertexType":"TRANSIT"},"legGeometry":{"points":"{ztfH~yypLCD}@hCo@~Aq@pAs@fAWs@IUC[AI?QCeGAs@Gy@Ks@Ou@OcAIcAIgAWgCG_@Og@IQS]UWYQWIUA[Da@P]RSVQ`@Ib@Ef@Et@Gf@Id@I`@Od@cCxFQOgAwA_FqGO[`BcEY_@MOaBtDLTh@bATZpGlIPNa@fAOn@Gd@UtBA^A^R`E^fGRbAVl@P`@BFNb@t@xAiCvCMP}@jAY`@q@jAm@jA}@rBmArD?Tu@|CYzAET{AxOQhBQ~Aa@~DQ~A[xCM~AiAjLo@vGk@tFe@vEu@xHgAdLIl@UhCyAnPQhBK`Ae@fFm@vGS`Co@`HQhBQlBAHo@fHc@fEc@`FiDiAOSIMOQOa@GQ","length":114},"routeShortName":"21","routeLongName":"Boul. Ste-Geneviève/Élie","rentedBike":false,"transitLeg":true,"duration":382.0,"steps":[]},{"startTime":1522700821000,"endTime":1522700923000,"departureDelay":0,"arrivalDelay":0,"realTime":false,"distance":124.81400000000002,"pathway":false,"mode":"WALK","route":"","agencyTimeZoneOffset":-14400000,"interlineWithPreviousLeg":false,"from":{"name":"Élie / Roger","stopId":"1:718","stopCode":"718","lon":-71.119216,"lat":48.45754,"arrival":1522700820000,"departure":1522700821000,"zoneId":"NA","stopIndex":18,"stopSequence":19,"vertexType":"TRANSIT"},"to":{"name":"Destination","lon":-71.118252,"lat":48.456619,"arrival":1522700923000,"orig":"","vertexType":"NORMAL"},"legGeometry":{"points":"kjwfHzmaqLDHBF|AmAXs@LuA","length":6},"rentedBike":false,"transitLeg":false,"duration":102.0,"steps":[{"distance":8.662,"relativeDirection":"DEPART","streetName":"Rue Élie","absoluteDirection":"SOUTHWEST","stayOn":false,"area":false,"bogusName":false,"lon":-71.11917277645296,"lat":48.4575007379064,"elevation":[]},{"distance":116.15200000000002,"relativeDirection":"LEFT","streetName":"Rue Roger","absoluteDirection":"SOUTHEAST","stayOn":false,"area":false,"bogusName":false,"lon":-71.11926840000001,"lat":48.4574555,"elevation":[]}]}],"tooSloped":false},{"duration":1142,"startTime":1522701581000,"endTime":1522702723000,"walkTime":758,"transitTime":382,"waitingTime":2,"walkDistance":961.9135488650962,"walkLimitExceeded":false,"elevationLost":0.0,"elevationGained":0.0,"transfers":0,"legs":[{"startTime":1522701581000,"endTime":1522702237000,"departureDelay":0,"arrivalDelay":0,"realTime":false,"distance":836.8800000000001,"pathway":false,"mode":"WALK","route":"","agencyTimeZoneOffset":-14400000,"interlineWithPreviousLeg":false,"from":{"name":"Origin","lon":-71.08117199,"lat":48.43923,"departure":1522701581000,"orig":"","vertexType":"NORMAL"},"to":{"name":"Place de la Colline (boul. Ste-Geneviève)","stopId":"1:706","stopCode":"706","lon":-71.080094,"lat":48.44485,"arrival":1522702237000,"departure":1522702238000,"zoneId":"NA","stopIndex":2,"stopSequence":3,"vertexType":"TRANSIT"},"legGeometry":{"points":"cxsfH``zpLsAc@Da@p@_DaCeB[g@IQaC|CMPi@ME??AMA]?_@?a@Bc@?Y@e@E[EOEQGoBo@iCw@]MUKc@a@QSeBjF","length":29},"rentedBike":false,"transitLeg":false,"duration":656.0,"steps":[{"distance":49.493,"relativeDirection":"DEPART","streetName":"Rue Saint-Roch","absoluteDirection":"NORTH","stayOn":false,"area":false,"bogusName":false,"lon":-71.08112881700431,"lat":48.43922167720646,"elevation":[]},{"distance":78.102,"relativeDirection":"RIGHT","streetName":"Rue Sainte-Élisabeth","absoluteDirection":"EAST","stayOn":false,"area":false,"bogusName":false,"lon":-71.0809416,"lat":48.439649100000004,"elevation":[]},{"distance":111.76,"relativeDirection":"LEFT","streetName":"Rue Hoffman","absoluteDirection":"NORTHEAST","stayOn":false,"area":false,"bogusName":false,"lon":-71.07997660000001,"lat":48.4393625,"elevation":[]},{"distance":103.24,"relativeDirection":"LEFT","streetName":"Rue Roussel","absoluteDirection":"NORTHWEST","stayOn":false,"area":false,"bogusName":false,"lon":-71.07917420000001,"lat":48.4402035,"elevation":[]},{"distance":390.311,"relativeDirection":"RIGHT","streetName":"Rue Saint-Albert","absoluteDirection":"NORTH","stayOn":false,"area":false,"bogusName":false,"lon":-71.0800502,"lat":48.4409276,"elevation":[]},{"distance":103.974,"relativeDirection":"LEFT","streetName":"Boulevard Sainte-Geneviève","absoluteDirection":"NORTHWEST","stayOn":false,"area":false,"bogusName":false,"lon":-71.07894370000001,"lat":48.444307900000005,"elevation":[]}]},{"startTime":1522702238000,"endTime":1522702620000,"departureDelay":0,"arrivalDelay":0,"realTime":false,"distance":4207.2657894938275,"pathway":false,"mode":"BUS","route":"21","agencyName":"Société de Transport du Saguenay","agencyUrl":"http://ville.saguenay.ca/fr/services-aux-citoyens/transport-sts","agencyTimeZoneOffset":-14400000,"routeColor":"556B2F","routeType":3,"routeId":"1:21","routeTextColor":"FFFFFF","interlineWithPreviousLeg":false,"tripBlockId":"2","headsign":"Terminus Chicoutimi","agencyId":"0","tripId":"1:217176","serviceDate":"20180402","from":{"name":"Place de la Colline (boul. Ste-Geneviève)","stopId":"1:706","stopCode":"706","lon":-71.080094,"lat":48.44485,"arrival":1522702237000,"departure":1522702238000,"zoneId":"NA","stopIndex":2,"stopSequence":3,"vertexType":"TRANSIT"},"to":{"name":"Élie / Roger","stopId":"1:718","stopCode":"718","lon":-71.119216,"lat":48.45754,"arrival":1522702620000,"departure":1522702621000,"zoneId":"NA","stopIndex":18,"stopSequence":19,"vertexType":"TRANSIT"},"legGeometry":{"points":"{ztfH~yypLCD}@hCo@~Aq@pAs@fAWs@IUC[AI?QCeGAs@Gy@Ks@Ou@OcAIcAIgAWgCG_@Og@IQS]UWYQWIUA[Da@P]RSVQ`@Ib@Ef@Et@Gf@Id@I`@Od@cCxFQOgAwA_FqGO[`BcEY_@MOaBtDLTh@bATZpGlIPNa@fAOn@Gd@UtBA^A^R`E^fGRbAVl@P`@BFNb@t@xAiCvCMP}@jAY`@q@jAm@jA}@rBmArD?Tu@|CYzAET{AxOQhBQ~Aa@~DQ~A[xCM~AiAjLo@vGk@tFe@vEu@xHgAdLIl@UhCyAnPQhBK`Ae@fFm@vGS`Co@`HQhBQlBAHo@fHc@fEc@`FiDiAOSIMOQOa@GQ","length":114},"routeShortName":"21","routeLongName":"Boul. Ste-Geneviève/Élie","rentedBike":false,"transitLeg":true,"duration":382.0,"steps":[]},{"startTime":1522702621000,"endTime":1522702723000,"departureDelay":0,"arrivalDelay":0,"realTime":false,"distance":124.81400000000002,"pathway":false,"mode":"WALK","route":"","agencyTimeZoneOffset":-14400000,"interlineWithPreviousLeg":false,"from":{"name":"Élie / Roger","stopId":"1:718","stopCode":"718","lon":-71.119216,"lat":48.45754,"arrival":1522702620000,"departure":1522702621000,"zoneId":"NA","stopIndex":18,"stopSequence":19,"vertexType":"TRANSIT"},"to":{"name":"Destination","lon":-71.118252,"lat":48.456619,"arrival":1522702723000,"orig":"","vertexType":"NORMAL"},"legGeometry":{"points":"kjwfHzmaqLDHBF|AmAXs@LuA","length":6},"rentedBike":false,"transitLeg":false,"duration":102.0,"steps":[{"distance":8.662,"relativeDirection":"DEPART","streetName":"Rue Élie","absoluteDirection":"SOUTHWEST","stayOn":false,"area":false,"bogusName":false,"lon":-71.11917277645296,"lat":48.4575007379064,"elevation":[]},{"distance":116.15200000000002,"relativeDirection":"LEFT","streetName":"Rue Roger","absoluteDirection":"SOUTHEAST","stayOn":false,"area":false,"bogusName":false,"lon":-71.11926840000001,"lat":48.4574555,"elevation":[]}]}],"tooSloped":false},{"duration":1142,"startTime":1522703381000,"endTime":1522704523000,"walkTime":758,"transitTime":382,"waitingTime":2,"walkDistance":961.9135488650962,"walkLimitExceeded":false,"elevationLost":0.0,"elevationGained":0.0,"transfers":0,"legs":[{"startTime":1522703381000,"endTime":1522704037000,"departureDelay":0,"arrivalDelay":0,"realTime":false,"distance":836.8800000000001,"pathway":false,"mode":"WALK","route":"","agencyTimeZoneOffset":-14400000,"interlineWithPreviousLeg":false,"from":{"name":"Origin","lon":-71.08117199,"lat":48.43923,"departure":1522703381000,"orig":"","vertexType":"NORMAL"},"to":{"name":"Place de la Colline (boul. Ste-Geneviève)","stopId":"1:706","stopCode":"706","lon":-71.080094,"lat":48.44485,"arrival":1522704037000,"departure":1522704038000,"zoneId":"NA","stopIndex":2,"stopSequence":3,"vertexType":"TRANSIT"},"legGeometry":{"points":"cxsfH``zpLsAc@Da@p@_DaCeB[g@IQaC|CMPi@ME??AMA]?_@?a@Bc@?Y@e@E[EOEQGoBo@iCw@]MUKc@a@QSeBjF","length":29},"rentedBike":false,"transitLeg":false,"duration":656.0,"steps":[{"distance":49.493,"relativeDirection":"DEPART","streetName":"Rue Saint-Roch","absoluteDirection":"NORTH","stayOn":false,"area":false,"bogusName":false,"lon":-71.08112881700431,"lat":48.43922167720646,"elevation":[]},{"distance":78.102,"relativeDirection":"RIGHT","streetName":"Rue Sainte-Élisabeth","absoluteDirection":"EAST","stayOn":false,"area":false,"bogusName":false,"lon":-71.0809416,"lat":48.439649100000004,"elevation":[]},{"distance":111.76,"relativeDirection":"LEFT","streetName":"Rue Hoffman","absoluteDirection":"NORTHEAST","stayOn":false,"area":false,"bogusName":false,"lon":-71.07997660000001,"lat":48.4393625,"elevation":[]},{"distance":103.24,"relativeDirection":"LEFT","streetName":"Rue Roussel","absoluteDirection":"NORTHWEST","stayOn":false,"area":false,"bogusName":false,"lon":-71.07917420000001,"lat":48.4402035,"elevation":[]},{"distance":390.311,"relativeDirection":"RIGHT","streetName":"Rue Saint-Albert","absoluteDirection":"NORTH","stayOn":false,"area":false,"bogusName":false,"lon":-71.0800502,"lat":48.4409276,"elevation":[]},{"distance":103.974,"relativeDirection":"LEFT","streetName":"Boulevard Sainte-Geneviève","absoluteDirection":"NORTHWEST","stayOn":false,"area":false,"bogusName":false,"lon":-71.07894370000001,"lat":48.444307900000005,"elevation":[]}]},{"startTime":1522704038000,"endTime":1522704420000,"departureDelay":0,"arrivalDelay":0,"realTime":false,"distance":4207.2657894938275,"pathway":false,"mode":"BUS","route":"21","agencyName":"Société de Transport du Saguenay","agencyUrl":"http://ville.saguenay.ca/fr/services-aux-citoyens/transport-sts","agencyTimeZoneOffset":-14400000,"routeColor":"556B2F","routeType":3,"routeId":"1:21","routeTextColor":"FFFFFF","interlineWithPreviousLeg":false,"tripBlockId":"2","headsign":"Terminus Chicoutimi","agencyId":"0","tripId":"1:217177","serviceDate":"20180402","from":{"name":"Place de la Colline (boul. Ste-Geneviève)","stopId":"1:706","stopCode":"706","lon":-71.080094,"lat":48.44485,"arrival":1522704037000,"departure":1522704038000,"zoneId":"NA","stopIndex":2,"stopSequence":3,"vertexType":"TRANSIT"},"to":{"name":"Élie / Roger","stopId":"1:718","stopCode":"718","lon":-71.119216,"lat":48.45754,"arrival":1522704420000,"departure":1522704421000,"zoneId":"NA","stopIndex":18,"stopSequence":19,"vertexType":"TRANSIT"},"legGeometry":{"points":"{ztfH~yypLCD}@hCo@~Aq@pAs@fAWs@IUC[AI?QCeGAs@Gy@Ks@Ou@OcAIcAIgAWgCG_@Og@IQS]UWYQWIUA[Da@P]RSVQ`@Ib@Ef@Et@Gf@Id@I`@Od@cCxFQOgAwA_FqGO[`BcEY_@MOaBtDLTh@bATZpGlIPNa@fAOn@Gd@UtBA^A^R`E^fGRbAVl@P`@BFNb@t@xAiCvCMP}@jAY`@q@jAm@jA}@rBmArD?Tu@|CYzAET{AxOQhBQ~Aa@~DQ~A[xCM~AiAjLo@vGk@tFe@vEu@xHgAdLIl@UhCyAnPQhBK`Ae@fFm@vGS`Co@`HQhBQlBAHo@fHc@fEc@`FiDiAOSIMOQOa@GQ","length":114},"routeShortName":"21","routeLongName":"Boul. Ste-Geneviève/Élie","rentedBike":false,"transitLeg":true,"duration":382.0,"steps":[]},{"startTime":1522704421000,"endTime":1522704523000,"departureDelay":0,"arrivalDelay":0,"realTime":false,"distance":124.81400000000002,"pathway":false,"mode":"WALK","route":"","agencyTimeZoneOffset":-14400000,"interlineWithPreviousLeg":false,"from":{"name":"Élie / Roger","stopId":"1:718","stopCode":"718","lon":-71.119216,"lat":48.45754,"arrival":1522704420000,"departure":1522704421000,"zoneId":"NA","stopIndex":18,"stopSequence":19,"vertexType":"TRANSIT"},"to":{"name":"Destination","lon":-71.118252,"lat":48.456619,"arrival":1522704523000,"orig":"","vertexType":"NORMAL"},"legGeometry":{"points":"kjwfHzmaqLDHBF|AmAXs@LuA","length":6},"rentedBike":false,"transitLeg":false,"duration":102.0,"steps":[{"distance":8.662,"relativeDirection":"DEPART","streetName":"Rue Élie","absoluteDirection":"SOUTHWEST","stayOn":false,"area":false,"bogusName":false,"lon":-71.11917277645296,"lat":48.4575007379064,"elevation":[]},{"distance":116.15200000000002,"relativeDirection":"LEFT","streetName":"Rue Roger","absoluteDirection":"SOUTHEAST","stayOn":false,"area":false,"bogusName":false,"lon":-71.11926840000001,"lat":48.4574555,"elevation":[]}]}],"tooSloped":false}]},"debugOutput":{"precalculationTime":8,"pathCalculationTime":22,"pathTimes":[13,3,6],"renderingTime":0,"totalTime":30,"timedOut":false},"elevationMetadata":{"ellipsoidToGeoidDifference":-28.885904201182168,"geoidElevation":false}}