{"requestParameters":{"date":"2018/04/02","walkSpeed":"1.33","walkReluctance":"2.0","fromPlace":"48.425326,-71.051911","maxWalkDistance":"3000","waitReluctance":"1.0","carSpeed":"33","numItineraries":"3","waitAtBeginningFactor":"0.4","mode":"TRANSIT,WALK","ignoreRealtimeUpdates":"false","stairsReluctance":"2.0","toPlace":"48.449161,-71.068194","time":"21:0:00"},"plan":{"date":1522717200000,"from":{"name":"Origin","lon":-71.051911,"lat":48.425326,"orig":"","vertexType":"NORMAL"},"to":{"name":"Destination","lon":-71.068194,"lat":48.449161,"orig":"","vertexType":"NORMAL"},"itineraries":[{"duration":1241,"startTime":1522717404000,"endTime":1522718645000,"walkTime":233,"transitTime":706,"waitingTime":302,"walkDistance":292.1619398471737,"walkLimitExceeded":false,"elevationLost":0.0,"elevationGained":0.0,"transfers":1,"legs":[{"startTime":1522717404000,"endTime":1522717452000,"departureDelay":0,"arrivalDelay":0,"realTime":false,"distance":57.804,"pathway":false,"mode":"WALK","route":"","agencyTimeZoneOffset":-14400000,"interlineWithPreviousLeg":false,"from":{"name":"Origin","lon":-71.051911,"lat":48.425326,"departure":1522717404000,"orig":"","vertexType":"NORMAL"},"to":{"name":"Jacques-Cartier / Séminaire","stopId":"1:1918","stopCode":"1918","lon":-71.052669,"lat":48.425403,"arrival":1522717452000,"departure":1522717453000,"zoneId":"NA","stopIndex":19,"stopSequence":20,"vertexType":"TRANSIT"},"legGeometry":{"points":"maqfHrjtpLWGItB","length":3},"rentedBike":false,"transitLeg":false,"duration":48.0,"steps":[{"distance":13.969,"relativeDirection":"DEPART","streetName":"service road","absoluteDirection":"NORTH","stayOn":false,"area":false,"bogusName":false,"lon":-71.05209836603548,"lat":48.42535405283685,"elevation":[]},{"distance":43.835,"relativeDirection":"LEFT","streetName":"Rue Jacques-Cartier Est","absoluteDirection":"WEST","stayOn":false,"area":false,"bogusName":false,"lon":-71.05205670000001,"lat":48.4254766,"elevation":[]}]},{"startTime":1522717453000,"endTime":1522717800000,"departureDelay":0,"arrivalDelay":0,"realTime":false,"distance":1443.19399685449,"pathway":false,"mode":"BUS","route":"175","agencyName":"Société de Transport du Saguenay","agencyUrl":"http://ville.saguenay.ca/fr/services-aux-citoyens/transport-sts","agencyTimeZoneOffset":-14400000,"routeColor":"FF00FF","routeType":3,"routeId":"1:175","routeTextColor":"FFFFFF","interlineWithPreviousLeg":false,"tripBlockId":"9","headsign":"Terminus Chicoutimi","agencyId":"0","tripId":"1:217420","serviceDate":"20180402","from":{"name":"Jacques-Cartier / Séminaire","stopId":"1:1918","stopCode":"1918","lon":-71.052669,"lat":48.425403,"arrival":1522717452000,"departure":1522717453000,"zoneId":"NA","stopIndex":19,"stopSequence":20,"vertexType":"TRANSIT"},"to":{"name":"Terminus Chicoutimi","stopId":"1:1289","stopCode":"1289","lon":-71.066163,"lat":48.428677,"arrival":1522717800000,"departure":1522718100000,"zoneId":"NA","stopIndex":27,"stopSequence":28,"vertexType":"TRANSIT"},"legGeometry":{"points":"sbqfH~mtpLl@oLaEe@cFk@?pH?tJDvBPjMB~Bo@PQDRbFKdGMhIOvIK|EQpHoCQEdC","length":19},"routeShortName":"175","routeLongName":"Term. Chic / Costco","rentedBike":false,"transitLeg":true,"duration":347.0,"steps":[]},{"startTime":1522718100000,"endTime":1522718459000,"departureDelay":0,"arrivalDelay":0,"realTime":false,"distance":2420.2783982822816,"pathway":false,"mode":"BUS","route":"22","agencyName":"Société de Transport du Saguenay","agencyUrl":"http://ville.saguenay.ca/fr/services-aux-citoyens/transport-sts","agencyTimeZoneOffset":-14400000,"routeColor":"C0C000","routeType":3,"routeId":"1:22","routeTextColor":"000000","interlineWithPreviousLeg":false,"tripBlockId":"3","headsign":"Terminus Chicoutimi","agencyId":"0","tripId":"1:217216","serviceDate":"20180402","from":{"name":"Terminus Chicoutimi","stopId":"1:1289","stopCode":"1289","lon":-71.066163,"lat":48.428677,"arrival":1522717800000,"departure":1522718100000,"zoneId":"NA","stopIndex":0,"stopSequence":1,"vertexType":"TRANSIT"},"to":{"name":"Constantin / Cabot","stopId":"1:741","stopCode":"741","lon":-71.065961,"lat":48.448053,"arrival":1522718459000,"departure":1522718460000,"zoneId":"NA","stopIndex":5,"stopSequence":6,"vertexType":"TRANSIT"},"legGeometry":{"points":"evqfHzcwpLg@?UhKxDVOhHMrH~CYhBBInAKXSNg@L{JHgBMoA[s@Usb@gS}@g@u@Su@Ia@Ck@Dm@HwAf@c@VeAx@iAlAU^[d@eLtTsAvBMJYF[EMIQ]y@wB[y@[{@_B{D{@uBe@gAO}AGw@SaCmAZe@AYOy@o@MKsAcA}BmBuC}BgA}@}BsBaAaA","length":56},"routeShortName":"22","routeLongName":"Vanier","rentedBike":false,"transitLeg":true,"duration":359.0,"steps":[]},{"startTime":1522718460000,"endTime":1522718645000,"departureDelay":0,"arrivalDelay":0,"realTime":false,"distance":234.282,"pathway":false,"mode":"WALK","route":"","agencyTimeZoneOffset":-14400000,"interlineWithPreviousLeg":false,"from":{"name":"Constantin / Cabot","stopId":"1:741","stopCode":"741","lon":-71.065961,"lat":48.448053,"arrival":1522718459000,"departure":1522718460000,"zoneId":"NA","stopIndex":5,"stopSequence":6,"vertexType":"TRANSIT"},"to":{"name":"Destination","lon":-71.068194,"lat":48.449161,"arrival":1522718645000,"orig":"","vertexType":"NORMAL"},"legGeometry":{"points":"soufHbbwpLAA{@w@Il@i@zD[|Ba@hC","length":7},"alerts":[{"alertHeaderText":"Unpaved surface"}],"rentedBike":false,"transitLeg":false,"duration":185.0,"steps":[{"distance":40.008,"relativeDirection":"DEPART","streetName":"Rue Constantin","absoluteDirection":"NORTHEAST","stayOn":false,"area":false,"bogusName":false,"lon":-71.06609099534103,"lat":48.44810739037834,"elevation":[]},{"distance":194.274,"relativeDirection":"LEFT","streetName":"Rue Cabot","absoluteDirection":"WEST","stayOn":false,"area":false,"bogusName":false,"lon":-71.0658016,"lat":48.4484117,"elevation":[],"alerts":[{"alertHeaderText":"Unpaved surface"}]}]}],"tooSloped":false},{"duration":2149,"startTime":1522717229000,"endTime":1522719378000,"walkTime":1072,"transitTime":655,"waitingTime":422,"walkDistance":1380.8803007463844,"walkLimitExceeded":false,"elevationLost":0.0,"elevationGained":0.0,"transfers":1,"legs":[{"startTime":1522717229000,"endTime":1522717444000,"departureDelay":0,"arrivalDelay":0,"realTime":false,"distance":263.725,"pathway":false,"mode":"WALK","route":"","agencyTimeZoneOffset":-14400000,"interlineWithPreviousLeg":false,"from":{"name":"Origin","lon":-71.051911,"lat":48.425326,"departure":1522717229000,"orig":"","vertexType":"NORMAL"},"to":{"name":"Bégin / Jacques-Cartier","stopId":"1:561","stopCode":"561","lon":-71.05511,"lat":48.425555,"arrival":1522717444000,"departure":1522717445000,"zoneId":"NA","stopIndex":33,"stopSequence":34,"vertexType":"TRANSIT"},"legGeometry":{"points":"maqfHrjtpLWGItBGxAAf@OfBAFKb@]hA@h@DZJ\\DN`@`@","length":14},"rentedBike":false,"transitLeg":false,"duration":215.0,"steps":[{"distance":13.969,"relativeDirection":"DEPART","streetName":"service road","absoluteDirection":"NORTH","stayOn":false,"area":false,"bogusName":false,"lon":-71.05209836603548,"lat":48.42535405283685,"elevation":[]},{"distance":181.16000000000003,"relativeDirection":"LEFT","streetName":"Rue Jacques-Cartier Est","absoluteDirection":"WEST","stayOn":false,"area":false,"bogusName":false,"lon":-71.05205670000001,"lat":48.4254766,"elevation":[]},{"distance":45.819,"relativeDirection":"SLIGHTLY_LEFT","streetName":"link","absoluteDirection":"WEST","stayOn":false,"area":false,"bogusName":true,"lon":-71.054406,"lat":48.425870200000006,"elevation":[]},{"distance":22.777,"relativeDirection":"SLIGHTLY_LEFT","streetName":"Rue Bégin","absoluteDirection":"SOUTHWEST","stayOn":false,"area":false,"bogusName":false,"lon":-71.05498390000001,"lat":48.425745500000005,"elevation":[]}]},{"startTime":1522717445000,"endTime":1522717680000,"departureDelay":0,"arrivalDelay":0,"realTime":false,"distance":992.8244916363058,"pathway":false,"mode":"BUS","route":"14","agencyName":"Société de Transport du Saguenay","agencyUrl":"http://ville.saguenay.ca/fr/services-aux-citoyens/transport-sts","agencyTimeZoneOffset":-14400000,"routeColor":"C0C000","routeType":3,"routeId":"1:14","routeTextColor":"000000","interlineWithPreviousLeg":false,"tripBlockId":"33","headsign":"Terminus Chicoutimi","agencyId":"0","tripId":"1:218200","serviceDate":"20180402","from":{"name":"Bégin / Jacques-Cartier","stopId":"1:561","stopCode":"561","lon":-71.05511,"lat":48.425555,"arrival":1522717444000,"departure":1522717445000,"zoneId":"NA","stopIndex":33,"stopSequence":34,"vertexType":"TRANSIT"},"to":{"name":"Terminus Chicoutimi","stopId":"1:1289","stopCode":"1289","lon":-71.066163,"lat":48.428677,"arrival":1522717680000,"departure":1522718100000,"zoneId":"NA","stopIndex":37,"stopSequence":38,"vertexType":"TRANSIT"},"legGeometry":{"points":"ybqfHx}tpLa@_@w@s@CfAOrBEtAGbA?jBQtC?|@ExKMdIG~EUnLEhC}CKkBOkCOYbC","length":19},"routeShortName":"14","routeLongName":"Coopérative","rentedBike":false,"transitLeg":true,"duration":235.0,"steps":[]},{"startTime":1522718100000,"endTime":1522718520000,"departureDelay":0,"arrivalDelay":0,"realTime":false,"distance":2713.5858046781586,"pathway":false,"mode":"BUS","route":"21","agencyName":"Société de Transport du Saguenay","agencyUrl":"http://ville.saguenay.ca/fr/services-aux-citoyens/transport-sts","agencyTimeZoneOffset":-14400000,"routeColor":"556B2F","routeType":3,"routeId":"1:21","routeTextColor":"FFFFFF","interlineWithPreviousLeg":false,"tripBlockId":"2","headsign":"Terminus Chicoutimi","agencyId":"0","tripId":"1:217182","serviceDate":"20180402","from":{"name":"Terminus Chicoutimi","stopId":"1:1289","stopCode":"1289","lon":-71.066163,"lat":48.428677,"arrival":1522717680000,"departure":1522718100000,"zoneId":"NA","stopIndex":0,"stopSequence":1,"vertexType":"TRANSIT"},"to":{"name":"Pinel / St-Gérard","stopId":"1:99","stopCode":"99","lon":-71.079002,"lat":48.449332,"arrival":1522718520000,"departure":1522718521000,"zoneId":"NA","stopIndex":4,"stopSequence":5,"vertexType":"TRANSIT"},"legGeometry":{"points":"kwqfHjbwpLF_CeBSm@rRO\\WjGOfGCRK^KJMHQB_AMg@Gw`@eR}@g@u@Su@Ia@Ck@Dm@HwAf@c@VeAx@iAlAU^[d@eLtTsAvB_CvEuAnCmBlE}@|B_BvFoC`JCD}@hCo@~Aq@pAs@fAWs@IUC[AI?QCeGAs@Gy@Ks@Ou@OcAIcAIgAWgCG_@Og@IQS]UWYQWIUA[Da@P]RSVQ`@Ib@Ef@Et@Gf@Id@I`@Od@cCxFQOgAwA","length":77},"routeShortName":"21","routeLongName":"Boul. Ste-Geneviève/Élie","rentedBike":false,"transitLeg":true,"duration":420.0,"steps":[]},{"startTime":1522718521000,"endTime":1522719378000,"departureDelay":0,"arrivalDelay":0,"realTime":false,"distance":1116.9850000000001,"pathway":false,"mode":"WALK","route":"","agencyTimeZoneOffset":-14400000,"interlineWithPreviousLeg":false,"from":{"name":"Pinel / St-Gérard","stopId":"1:99","stopCode":"99","lon":-71.079002,"lat":48.449332,"arrival":1522718520000,"departure":1522718521000,"zoneId":"NA","stopIndex":4,"stopSequence":5,"vertexType":"TRANSIT"},"to":{"name":"Destination","lon":-71.068194,"lat":48.449161,"arrival":1522719378000,"orig":"","vertexType":"NORMAL"},"legGeometry":{"points":"wwufHvsypLzAfBl@wALW`@eAd@mAVeAF[BMBKFu@BUBUB[BUBK@KFMFMHKFKHGFEHEZGHELAF?O{AWyCG}@MeB?IEk@Ks@I][gBMs@Ig@Cu@Co@AkA?k@y@Ja@B_@Ce@Q]Ua@g@GIQ]GWCQAq@@e@@e@@If@wD@MHu@R}AFc@","length":62},"rentedBike":false,"transitLeg":false,"duration":857.0,"steps":[{"distance":64.055,"relativeDirection":"DEPART","streetName":"Rue Pinel","absoluteDirection":"SOUTHWEST","stayOn":false,"area":false,"bogusName":false,"lon":-71.0791524404459,"lat":48.44940784192698,"elevation":[]},{"distance":316.015,"relativeDirection":"LEFT","streetName":"Rue Saint-Gérard","absoluteDirection":"SOUTHEAST","stayOn":false,"area":false,"bogusName":false,"lon":-71.079678,"lat":48.4489492,"elevation":[]},{"distance":367.39300000000003,"relativeDirection":"LEFT","streetName":"Rue de l'Aréna","absoluteDirection":"EAST","stayOn":false,"area":false,"bogusName":false,"lon":-71.0764515,"lat":48.4473234,"elevation":[]},{"distance":369.522,"relativeDirection":"LEFT","streetName":"Rue Cabot","absoluteDirection":"NORTH","stayOn":false,"area":false,"bogusName":false,"lon":-71.0716385,"lat":48.448087900000004,"elevation":[]}]}],"tooSloped":false},{"duration":1579,"startTime":1522718913000,"endTime":1522720492000,"walkTime":1041,"transitTime":536,"waitingTime":2,"walkDistance":1318.404819541521,"walkLimitExceeded":false,"elevationLost":0.0,"elevationGained":0.0,"transfers":0,"legs":[{"startTime":1522718913000,"endTime":1522719899000,"departureDelay":0,"arrivalDelay":0,"realTime":false,"distance":1246.3139999999999,"pathway":false,"mode":"WALK","route":"","agencyTimeZoneOffset":-14400000,"interlineWithPreviousLeg":false,"from":{"name":"Origin","lon":-71.051911,"lat":48.425326,"departure":1522718913000,"orig":"","vertexType":"NORMAL"},"to":{"name":"Terminus Chicoutimi","stopId":"1:1289","stopCode":"1289","lon":-71.066163,"lat":48.428677,"arrival":1522719899000,"departure":1522719900000,"zoneId":"NA","stopIndex":0,"stopSequence":1,"vertexType":"TRANSIT"},"legGeometry":{"points":"maqfHrjtpLWGItBGxAAf@OfBAFKb@]hACHSv@ERQxAAb@sA]i@xCS|AMtA_@?SBQDo@N]FFj@LhA?lB?JCrBA~@C~@EtAKpFAl@?RCv@IxEAh@GpBAXAj@SzHc@MKESAcAK","length":45},"rentedBike":false,"transitLeg":false,"duration":986.0,"steps":[{"distance":13.969,"relativeDirection":"DEPART","streetName":"service road","absoluteDirection":"NORTH","stayOn":false,"area":false,"bogusName":false,"lon":-71.05209836603548,"lat":48.42535405283685,"elevation":[]},{"distance":265.25000000000006,"relativeDirection":"LEFT","streetName":"Rue Jacques-Cartier Est","absoluteDirection":"WEST","stayOn":false,"area":false,"bogusName":false,"lon":-71.05205670000001,"lat":48.4254766,"elevation":[]},{"distance":48.535,"relativeDirection":"RIGHT","streetName":"Rue Riverin","absoluteDirection":"NORTH","stayOn":false,"area":false,"bogusName":false,"lon":-71.0554652,"lat":48.426123700000005,"elevation":[]},{"distance":130.184,"relativeDirection":"LEFT","streetName":"Rue Lévis","absoluteDirection":"WEST","stayOn":false,"area":false,"bogusName":false,"lon":-71.0553172,"lat":48.426549,"elevation":[]},{"distance":82.783,"relativeDirection":"RIGHT","streetName":"Rue Labrecque","absoluteDirection":"NORTH","stayOn":false,"area":false,"bogusName":false,"lon":-71.05698290000001,"lat":48.426929900000005,"elevation":[]},{"distance":628.3860000000001,"relativeDirection":"LEFT","streetName":"Rue Racine Est","absoluteDirection":"WEST","stayOn":false,"area":false,"bogusName":false,"lon":-71.0571547,"lat":48.427663,"elevation":[]},{"distance":77.207,"relativeDirection":"RIGHT","streetName":"Rue Morin","absoluteDirection":"NORTH","stayOn":false,"area":false,"bogusName":false,"lon":-71.0656238,"lat":48.4279449,"elevation":[]}]},{"startTime":1522719900000,"endTime":1522720436000,"departureDelay":0,"arrivalDelay":0,"realTime":false,"distance":3863.2188813205885,"pathway":false,"mode":"BUS","route":"23","agencyName":"Société de Transport du Saguenay","agencyUrl":"http://ville.saguenay.ca/fr/services-aux-citoyens/transport-sts","agencyTimeZoneOffset":-14400000,"routeColor":"FF00FF","routeType":3,"routeId":"1:23","routeTextColor":"FFFFFF","interlineWithPreviousLeg":false,"tripBlockId":"5","headsign":"Terminus Chicoutimi","agencyId":"0","tripId":"1:217280","serviceDate":"20180402","from":{"name":"Terminus Chicoutimi","stopId":"1:1289","stopCode":"1289","lon":-71.066163,"lat":48.428677,"arrival":1522719899000,"departure":1522719900000,"zoneId":"NA","stopIndex":0,"stopSequence":1,"vertexType":"TRANSIT"},"to":{"name":"Cabot / Bossuet","stopId":"1:785","stopCode":"785","lon":-71.069257,"lat":48.449097,"arrival":1522720436000,"departure":1522720437000,"zoneId":"NA","stopIndex":8,"stopSequence":9,"vertexType":"TRANSIT"},"legGeometry":{"points":"kwqfHjbwpLF_CkAOYCm@rRO\\WjGOfGCRK^KJMHQB_AMg@Gw`@eR}@g@u@Su@Ia@Ck@Dm@HwAf@c@VeAx@iAlAU^[d@eLtTsAvB_CvEuAnCmBlE}@|B_BvFoC`JCD}@hCo@~Aq@pAs@fA{BlCqH|Iq@Bq@Im@UGCUi@Wm@ScA_@gGSaE@_@@_@@ERoBFe@No@`@gAbCyFNe@Ha@He@Fg@Du@Dg@Hc@Pa@RW\\S`@QZEm@eHM}B?GGi@Is@Ou@Qw@Mo@Kw@ImAGoBAk@aALa@?YEUKc@Yc@_@KOIUGUEWAW?YBqAH_AXeC@I","length":100},"routeShortName":"23","routeLongName":"Côte Verdun via Aréna du Plateau","rentedBike":false,"transitLeg":true,"duration":536.0,"steps":[]},{"startTime":1522720437000,"endTime":1522720492000,"departureDelay":0,"arrivalDelay":0,"realTime":false,"distance":71.863,"pathway":false,"mode":"WALK","route":"","agencyTimeZoneOffset":-14400000,"interlineWithPreviousLeg":false,"from":{"name":"Cabot / Bossuet","stopId":"1:785","stopCode":"785","lon":-71.069257,"lat":48.449097,"arrival":1522720436000,"departure":1522720437000,"zoneId":"NA","stopIndex":8,"stopSequence":9,"vertexType":"TRANSIT"},"to":{"name":"Destination","lon":-71.068194,"lat":48.449161,"arrival":1522720492000,"orig":"","vertexType":"NORMAL"},"legGeometry":{"points":"ivufHruwpLHu@R}AFc@","length":4},"rentedBike":false,"transitLeg":false,"duration":55.0,"steps":[{"distance":71.863,"relativeDirection":"DEPART","streetName":"Rue Cabot","absoluteDirection":"EAST","stayOn":false,"area":false,"bogusName":false,"lon":-71.06921997796464,"lat":48.449177280364445,"elevation":[]}]}],"tooSloped":false}]},"debugOutput":{"precalculationTime":27,"pathCalculationTime":47,"pathTimes":[20,12,15],"renderingTime":1,"totalTime":75,"timedOut":false},"elevationMetadata":{"ellipsoidToGeoidDifference":-28.885904201182168,"geoidElevation":false}}