{"requestParameters":{"date":"2018/04/02","walkSpeed":"1.33","walkReluctance":"2.0","fromPlace":"48.457055,-71.053854","maxWalkDistance":"3000","waitReluctance":"1.0","carSpeed":"33","numItineraries":"3","waitAtBeginningFactor":"0.4","mode":"TRANSIT,WALK","ignoreRealtimeUpdates":"false","stairsReluctance":"2.0","toPlace":"48.426899,-71.064687","time":"7:0:00"},"plan":{"date":1522666800000,"from":{"name":"Origin","lon":-71.053854,"lat":48.457055,"orig":"","vertexType":"NORMAL"},"to":{"name":"Destination","lon":-71.064687,"lat":48.426899,"orig":"","vertexType":"NORMAL"},"itineraries":[{"duration":1827,"startTime":1522667514000,"endTime":1522669341000,"walkTime":1105,"transitTime":720,"waitingTime":2,"walkDistance":1423.4112330780856,"walkLimitExceeded":false,"elevationLost":0.0,"elevationGained":0.0,"transfers":0,"legs":[{"startTime":1522667514000,"endTime":1522668359000,"departureDelay":0,"arrivalDelay":0,"realTime":false,"distance":1094.14,"pathway":false,"mode":"WALK","route":"","agencyTimeZoneOffset":-14400000,"interlineWithPreviousLeg":false,"from":{"name":"Origin","lon":-71.053854,"lat":48.457055,"departure":1522667514000,"orig":"","vertexType":"NORMAL"},"to":{"name":"Verdun / Riviera","stopId":"1:2023","stopCode":"2023","lon":-71.057875,"lat":48.449739,"arrival":1522668359000,"departure":1522668360000,"zoneId":"NA","stopIndex":14,"stopSequence":15,"vertexType":"TRANSIT"},"legGeometry":{"points":"ohwfHxvtpLvA`DNF`A^QhBAHAPdDfAxAb@JLBHBH@N?JWnCtAb@rE|APBPAHKHOZoCbC~@PFNFxCdAvCfAVHbBp@~@sAf@y@","length":31},"rentedBike":false,"transitLeg":false,"duration":845.0,"steps":[{"distance":124.91900000000001,"relativeDirection":"DEPART","streetName":"Rue Julie","absoluteDirection":"SOUTHWEST","stayOn":false,"area":false,"bogusName":false,"lon":-71.05404366689237,"lat":48.45720778531738,"elevation":[]},{"distance":50.778,"relativeDirection":"RIGHT","streetName":"Rue Caroline","absoluteDirection":"WEST","stayOn":false,"area":false,"bogusName":false,"lon":-71.0550587,"lat":48.4563597,"elevation":[]},{"distance":230.55,"relativeDirection":"LEFT","streetName":"Rue Vanier","absoluteDirection":"SOUTH","stayOn":false,"area":false,"bogusName":false,"lon":-71.0557276,"lat":48.456468,"elevation":[]},{"distance":262.836,"relativeDirection":"LEFT","streetName":"Rue Labelle","absoluteDirection":"SOUTH","stayOn":false,"area":false,"bogusName":false,"lon":-71.0572977,"lat":48.4551938,"elevation":[]},{"distance":87.615,"relativeDirection":"RIGHT","streetName":"Rue Fabre","absoluteDirection":"SOUTH","stayOn":false,"area":false,"bogusName":false,"lon":-71.05709610000001,"lat":48.45328790000001,"elevation":[]},{"distance":260.302,"relativeDirection":"CONTINUE","streetName":"Rue Richelieu","absoluteDirection":"SOUTH","stayOn":false,"area":false,"bogusName":false,"lon":-71.0574594,"lat":48.4525377,"elevation":[]},{"distance":77.14,"relativeDirection":"LEFT","streetName":"Rue de Verdun","absoluteDirection":"SOUTHEAST","stayOn":false,"area":false,"bogusName":false,"lon":-71.05850140000001,"lat":48.450301200000006,"elevation":[]}]},{"startTime":1522668360000,"endTime":1522669080000,"departureDelay":0,"arrivalDelay":0,"realTime":false,"distance":3566.9301798582574,"pathway":false,"mode":"BUS","route":"23","agencyName":"Société de Transport du Saguenay","agencyUrl":"http://ville.saguenay.ca/fr/services-aux-citoyens/transport-sts","agencyTimeZoneOffset":-14400000,"routeColor":"FF00FF","routeType":3,"routeId":"1:23","routeTextColor":"FFFFFF","interlineWithPreviousLeg":false,"tripBlockId":"4","headsign":"Terminus Chicoutimi","agencyId":"0","tripId":"1:217224","serviceDate":"20180402","from":{"name":"Verdun / Riviera","stopId":"1:2023","stopCode":"2023","lon":-71.057875,"lat":48.449739,"arrival":1522668359000,"departure":1522668360000,"zoneId":"NA","stopIndex":14,"stopSequence":15,"vertexType":"TRANSIT"},"to":{"name":"Terminus Chicoutimi","stopId":"1:1289","stopCode":"1289","lon":-71.066163,"lat":48.428677,"arrival":1522669080000,"departure":1522669081000,"zoneId":"NA","stopIndex":26,"stopSequence":27,"vertexType":"TRANSIT"},"legGeometry":{"points":"czufHhnupLT[~CkFf@s@\\e@x@}@jAeAXQZStBaAh@]`@]`@i@l@kDF_@R{AFWFMPIPC`@BT@V?TAVKLENCLCJ@J@xAb@x@Zz@\\CP?R@N@NFLFF`GtBx@Xw@pG@l@B\\DXL\\RZDFXPf@N@v@Bp@Dr@l@~HNlAH\\@HLd@\\z@Xd@X\\RTXRr@Zn@PfExAvDpALnBJt@Pp@|@`DHZPn@`@rBNnAFr@DbA?bB@jABzA?p@A???A???A?A???A@??A?A@??A@?@A??@A@???@A@?@?@A@?@?@?@?@???@?@?@?@?@?@@@?@?@@@?@@@?@@@?@@?@@??@@@?E`@Kr@]rACVEl@I|AAr@JbAWJe@FUAM?a@Ke@YYWWa@v@}@RQPMz@k@tAe@REZG^Af@@X@VF`@Jn@XbClAr@Xt\\`PrAb@pA^hBTjAFj@Pb@JPHLLJNJRFXDT?X?ZEVEVKTMNMHMFOB}DWSGOSYcAN}FFkAF}DJyDd@wPV_HjAN~ALI`C","length":195},"routeShortName":"23","routeLongName":"Côte Verdun via Aréna du Plateau","rentedBike":false,"transitLeg":true,"duration":720.0,"steps":[]},{"startTime":1522669081000,"endTime":1522669341000,"departureDelay":0,"arrivalDelay":0,"realTime":false,"distance":329.12800000000004,"pathway":false,"mode":"WALK","route":"","agencyTimeZoneOffset":-14400000,"interlineWithPreviousLeg":false,"from":{"name":"Terminus Chicoutimi","stopId":"1:1289","stopCode":"1289","lon":-71.066163,"lat":48.428677,"arrival":1522669080000,"departure":1522669081000,"zoneId":"NA","stopIndex":26,"stopSequence":27,"vertexType":"TRANSIT"},"to":{"name":"Destination","lon":-71.064687,"lat":48.426899,"arrival":1522669341000,"orig":"","vertexType":"NORMAL"},"legGeometry":{"points":"{uqfHb~vpLbAJR@JDb@LrBHP@jCPDwC@s@@_@EKGM","length":13},"rentedBike":false,"transitLeg":false,"duration":260.0,"steps":[{"distance":229.71300000000002,"relativeDirection":"DEPART","streetName":"Rue Morin","absoluteDirection":"SOUTH","stayOn":false,"area":false,"bogusName":false,"lon":-71.0654590096484,"lat":48.428628638946556,"elevation":[]},{"distance":87.542,"relativeDirection":"LEFT","streetName":"Rue Jacques-Cartier Est","absoluteDirection":"EAST","stayOn":false,"area":false,"bogusName":false,"lon":-71.0657774,"lat":48.426577300000005,"elevation":[]},{"distance":11.873,"relativeDirection":"LEFT","streetName":"Rue de l'Hôtel-de-Ville","absoluteDirection":"NORTHEAST","stayOn":false,"area":false,"bogusName":false,"lon":-71.0645932,"lat":48.4265291,"elevation":[]}]}],"tooSloped":false},{"duration":1299,"startTime":1522668162000,"endTime":1522669461000,"walkTime":326,"transitTime":971,"waitingTime":2,"walkDistance":416.1958796975741,"walkLimitExceeded":false,"elevationLost":0.0,"elevationGained":0.0,"transfers":0,"legs":[{"startTime":1522668162000,"endTime":1522668228000,"departureDelay":0,"arrivalDelay":0,"realTime":false,"distance":87.016,"pathway":false,"mode":"WALK","route":"","agencyTimeZoneOffset":-14400000,"interlineWithPreviousLeg":false,"from":{"name":"Origin","lon":-71.053854,"lat":48.457055,"departure":1522668162000,"orig":"","vertexType":"NORMAL"},"to":{"name":"Julie / Caroline","stopId":"1:749","stopCode":"749","lon":-71.054744,"lat":48.456649,"arrival":1522668228000,"departure":1522668229000,"zoneId":"NA","stopIndex":13,"stopSequence":14,"vertexType":"TRANSIT"},"legGeometry":{"points":"ohwfHxvtpLvA`DNF","length":3},"rentedBike":false,"transitLeg":false,"duration":66.0,"steps":[{"distance":87.016,"relativeDirection":"DEPART","streetName":"Rue Julie","absoluteDirection":"SOUTHWEST","stayOn":false,"area":false,"bogusName":false,"lon":-71.05404366689237,"lat":48.45720778531738,"elevation":[]}]},{"startTime":1522668229000,"endTime":1522669200000,"departureDelay":0,"arrivalDelay":0,"realTime":false,"distance":5368.3488938028395,"pathway":false,"mode":"BUS","route":"22","agencyName":"Société de Transport du Saguenay","agencyUrl":"http://ville.saguenay.ca/fr/services-aux-citoyens/transport-sts","agencyTimeZoneOffset":-14400000,"routeColor":"C0C000","routeType":3,"routeId":"1:22","routeTextColor":"000000","interlineWithPreviousLeg":false,"tripBlockId":"3","headsign":"Terminus Chicoutimi","agencyId":"0","tripId":"1:217188","serviceDate":"20180402","from":{"name":"Julie / Caroline","stopId":"1:749","stopCode":"749","lon":-71.054744,"lat":48.456649,"arrival":1522668228000,"departure":1522668229000,"zoneId":"NA","stopIndex":13,"stopSequence":14,"vertexType":"TRANSIT"},"to":{"name":"Terminus Chicoutimi","stopId":"1:1289","stopCode":"1289","lon":-71.066163,"lat":48.428677,"arrival":1522669200000,"departure":1522669201000,"zoneId":"NA","stopIndex":35,"stopSequence":36,"vertexType":"TRANSIT"},"legGeometry":{"points":"cewfHt{tpLc@QEEACAG?G?G?KAGgE}HGMGOU{@EOp@m@FIHQFSDW^qDJB`@LHDFFFJ^hAFVDZBXBn@@H@RBLFTHNHHJFLBP@j@OLAJAN@@?l@NTwBDQFMFIJGHCL?H@hGjB`GjBz@VNJJRBTAVQdAn@XrAh@uCvSeA|He@hCo@|AiBbD~@^|IrDhAb@qAfJSzAMr@Yz@xAhDFNpBdFRp@Hl@Jz@BXXrCHl@Lh@Nf@r@nAr@r@`@PLFbAVH_AXeC@IdB_Mh@_EJk@x@x@bA`A|BrBnDrCl@f@|BlBrAbAj@d@ZTXNd@@lA[ZxDN|Ad@fAz@tB~AzDZ|@Zv@x@vBP\\h@~@PVrCmFhHqN~@eBr@cAt@_Av@}@RQPMz@k@tAe@REZG^Af@@X@VF`@Jn@XbClAr@Xt\\`PrAb@pA^hBTjAFj@Pb@JPHLLJNJRFXDT?X?ZEVEVKTMNMHMFOB}DWSGOSYcAN}FFkAF}DJyDd@wPV_HjAN~ALIzBQb@e@@","length":177},"routeShortName":"22","routeLongName":"Vanier","rentedBike":false,"transitLeg":true,"duration":971.0,"steps":[]},{"startTime":1522669201000,"endTime":1522669461000,"departureDelay":0,"arrivalDelay":0,"realTime":false,"distance":329.12800000000004,"pathway":false,"mode":"WALK","route":"","agencyTimeZoneOffset":-14400000,"interlineWithPreviousLeg":false,"from":{"name":"Terminus Chicoutimi","stopId":"1:1289","stopCode":"1289","lon":-71.066163,"lat":48.428677,"arrival":1522669200000,"departure":1522669201000,"zoneId":"NA","stopIndex":35,"stopSequence":36,"vertexType":"TRANSIT"},"to":{"name":"Destination","lon":-71.064687,"lat":48.426899,"arrival":1522669461000,"orig":"","vertexType":"NORMAL"},"legGeometry":{"points":"{uqfHb~vpLbAJR@JDb@LrBHP@jCPDwC@s@@_@EKGM","length":13},"rentedBike":false,"transitLeg":false,"duration":260.0,"steps":[{"distance":229.71300000000002,"relativeDirection":"DEPART","streetName":"Rue Morin","absoluteDirection":"SOUTH","stayOn":false,"area":false,"bogusName":false,"lon":-71.0654590096484,"lat":48.428628638946556,"elevation":[]},{"distance":87.542,"relativeDirection":"LEFT","streetName":"Rue Jacques-Cartier Est","absoluteDirection":"EAST","stayOn":false,"area":false,"bogusName":false,"lon":-71.0657774,"lat":48.426577300000005,"elevation":[]},{"distance":11.873,"relativeDirection":"LEFT","streetName":"Rue de l'Hôtel-de-Ville","absoluteDirection":"NORTHEAST","stayOn":false,"area":false,"bogusName":false,"lon":-71.0645932,"lat":48.4265291,"elevation":[]}]}],"tooSloped":false},{"duration":1224,"startTime":1522670037000,"endTime":1522671261000,"walkTime":326,"transitTime":896,"waitingTime":2,"walkDistance":416.1958796975741,"walkLimitExceeded":false,"elevationLost":0.0,"elevationGained":0.0,"transfers":0,"legs":[{"startTime":1522670037000,"endTime":1522670103000,"departureDelay":0,"arrivalDelay":0,"realTime":false,"distance":87.016,"pathway":false,"mode":"WALK","route":"","agencyTimeZoneOffset":-14400000,"interlineWithPreviousLeg":false,"from":{"name":"Origin","lon":-71.053854,"lat":48.457055,"departure":1522670037000,"orig":"","vertexType":"NORMAL"},"to":{"name":"Julie / Caroline","stopId":"1:749","stopCode":"749","lon":-71.054744,"lat":48.456649,"arrival":1522670103000,"departure":1522670104000,"zoneId":"NA","stopIndex":13,"stopSequence":14,"vertexType":"TRANSIT"},"legGeometry":{"points":"ohwfHxvtpLvA`DNF","length":3},"rentedBike":false,"transitLeg":false,"duration":66.0,"steps":[{"distance":87.016,"relativeDirection":"DEPART","streetName":"Rue Julie","absoluteDirection":"SOUTHWEST","stayOn":false,"area":false,"bogusName":false,"lon":-71.05404366689237,"lat":48.45720778531738,"elevation":[]}]},{"startTime":1522670104000,"endTime":1522671000000,"departureDelay":0,"arrivalDelay":0,"realTime":false,"distance":5368.3488938028395,"pathway":false,"mode":"BUS","route":"22","agencyName":"Société de Transport du Saguenay","agencyUrl":"http://ville.saguenay.ca/fr/services-aux-citoyens/transport-sts","agencyTimeZoneOffset":-14400000,"routeColor":"C0C000","routeType":3,"routeId":"1:22","routeTextColor":"000000","interlineWithPreviousLeg":false,"tripBlockId":"1","headsign":"Terminus Chicoutimi","agencyId":"0","tripId":"1:217132","serviceDate":"20180402","from":{"name":"Julie / Caroline","stopId":"1:749","stopCode":"749","lon":-71.054744,"lat":48.456649,"arrival":1522670103000,"departure":1522670104000,"zoneId":"NA","stopIndex":13,"stopSequence":14,"vertexType":"TRANSIT"},"to":{"name":"Terminus Chicoutimi","stopId":"1:1289","stopCode":"1289","lon":-71.066163,"lat":48.428677,"arrival":1522671000000,"departure":1522671001000,"zoneId":"NA","stopIndex":35,"stopSequence":36,"vertexType":"TRANSIT"},"legGeometry":{"points":"cewfHt{tpLc@QEEACAG?G?G?KAGgE}HGMGOU{@EOp@m@FIHQFSDW^qDJB`@LHDFFFJ^hAFVDZBXBn@@H@RBLFTHNHHJFLBP@j@OLAJAN@@?l@NTwBDQFMFIJGHCL?H@hGjB`GjBz@VNJJRBTAVQdAn@XrAh@uCvSeA|He@hCo@|AiBbD~@^|IrDhAb@qAfJSzAMr@Yz@xAhDFNpBdFRp@Hl@Jz@BXXrCHl@Lh@Nf@r@nAr@r@`@PLFbAVH_AXeC@IdB_Mh@_EJk@x@x@bA`A|BrBnDrCl@f@|BlBrAbAj@d@ZTXNd@@lA[ZxDN|Ad@fAz@tB~AzDZ|@Zv@x@vBP\\h@~@PVrCmFhHqN~@eBr@cAt@_Av@}@RQPMz@k@tAe@REZG^Af@@X@VF`@Jn@XbClAr@Xt\\`PrAb@pA^hBTjAFj@Pb@JPHLLJNJRFXDT?X?ZEVEVKTMNMHMFOB}DWSGOSYcAN}FFkAF}DJyDd@wPV_HjAN~ALIzBQb@e@@","length":177},"routeShortName":"22","routeLongName":"Vanier","rentedBike":false,"transitLeg":true,"duration":896.0,"steps":[]},{"startTime":1522671001000,"endTime":1522671261000,"departureDelay":0,"arrivalDelay":0,"realTime":false,"distance":329.12800000000004,"pathway":false,"mode":"WALK","route":"","agencyTimeZoneOffset":-14400000,"interlineWithPreviousLeg":false,"from":{"name":"Terminus Chicoutimi","stopId":"1:1289","stopCode":"1289","lon":-71.066163,"lat":48.428677,"arrival":1522671000000,"departure":1522671001000,"zoneId":"NA","stopIndex":35,"stopSequence":36,"vertexType":"TRANSIT"},"to":{"name":"Destination","lon":-71.064687,"lat":48.426899,"arrival":1522671261000,"orig":"","vertexType":"NORMAL"},"legGeometry":{"points":"{uqfHb~vpLbAJR@JDb@LrBHP@jCPDwC@s@@_@EKGM","length":13},"rentedBike":false,"transitLeg":false,"duration":260.0,"steps":[{"distance":229.71300000000002,"relativeDirection":"DEPART","streetName":"Rue Morin","absoluteDirection":"SOUTH","stayOn":false,"area":false,"bogusName":false,"lon":-71.0654590096484,"lat":48.428628638946556,"elevation":[]},{"distance":87.542,"relativeDirection":"LEFT","streetName":"Rue Jacques-Cartier Est","absoluteDirection":"EAST","stayOn":false,"area":false,"bogusName":false,"lon":-71.0657774,"lat":48.426577300000005,"elevation":[]},{"distance":11.873,"relativeDirection":"LEFT","streetName":"Rue de l'Hôtel-de-Ville","absoluteDirection":"NORTHEAST","stayOn":false,"area":false,"bogusName":false,"lon":-71.0645932,"lat":48.4265291,"elevation":[]}]}],"tooSloped":false}]},"debugOutput":{"precalculationTime":25,"pathCalculationTime":14,"pathTimes":[7,6,1],"renderingTime":0,"totalTime":39,"timedOut":false},"elevationMetadata":{"ellipsoidToGeoidDifference":-28.885904201182168,"geoidElevation":false}}