{"requestParameters":{"date":"2018/04/02","walkSpeed":"1.33","walkReluctance":"2.0","fromPlace":"48.444937,-71.090682","maxWalkDistance":"3000","waitReluctance":"1.0","carSpeed":"33","numItineraries":"3","waitAtBeginningFactor":"0.4","mode":"TRANSIT,WALK","ignoreRealtimeUpdates":"false","stairsReluctance":"2.0","toPlace":"48.422691,-71.04566699","time":"7:30:00"},"plan":{"date":1522668600000,"from":{"name":"Origin","lon":-71.090682,"lat":48.444937,"orig":"","vertexType":"NORMAL"},"to":{"name":"Destination","lon":-71.04566699,"lat":48.422691,"orig":"","vertexType":"NORMAL"},"itineraries":[{"duration":1724,"startTime":1522670091000,"endTime":1522671815000,"walkTime":195,"transitTime":1227,"waitingTime":302,"walkDistance":250.44133082602443,"walkLimitExceeded":false,"elevationLost":0.0,"elevationGained":0.0,"transfers":1,"legs":[{"startTime":1522670091000,"endTime":1522670109000,"departureDelay":0,"arrivalDelay":0,"realTime":false,"distance":23.33,"pathway":false,"mode":"WALK","route":"","agencyTimeZoneOffset":-14400000,"interlineWithPreviousLeg":false,"from":{"name":"Origin","lon":-71.090682,"lat":48.444937,"departure":1522670091000,"orig":"","vertexType":"NORMAL"},"to":{"name":"St-Armand / Solange","stopId":"1:685","stopCode":"685","lon":-71.09082,"lat":48.445299,"arrival":1522670109000,"departure":1522670110000,"zoneId":"NA","stopIndex":9,"stopSequence":10,"vertexType":"TRANSIT"},"legGeometry":{"points":"c}tfHd{{pLIl@?@CJ","length":4},"rentedBike":false,"transitLeg":false,"duration":18.0,"steps":[{"distance":23.33,"relativeDirection":"DEPART","streetName":"Rue Saint-Armand","absoluteDirection":"WEST","stayOn":false,"area":false,"bogusName":false,"lon":-71.09058993233357,"lat":48.445148455280744,"elevation":[]}]},{"startTime":1522670110000,"endTime":1522671000000,"departureDelay":0,"arrivalDelay":0,"realTime":false,"distance":5960.116702935813,"pathway":false,"mode":"BUS","route":"20","agencyName":"Société de Transport du Saguenay","agencyUrl":"http://ville.saguenay.ca/fr/services-aux-citoyens/transport-sts","agencyTimeZoneOffset":-14400000,"routeColor":"0000FF","routeType":3,"routeId":"1:20","routeTextColor":"FFFFFF","interlineWithPreviousLeg":false,"tripBlockId":"3","headsign":"Terminus Chicoutimi","agencyId":"0","tripId":"1:217189","serviceDate":"20180402","from":{"name":"St-Armand / Solange","stopId":"1:685","stopCode":"685","lon":-71.09082,"lat":48.445299,"arrival":1522670109000,"departure":1522670110000,"zoneId":"NA","stopIndex":9,"stopSequence":10,"vertexType":"TRANSIT"},"to":{"name":"Terminus Chicoutimi","stopId":"1:1289","stopCode":"1289","lon":-71.066163,"lat":48.428677,"arrival":1522671000000,"departure":1522671300000,"zoneId":"NA","stopIndex":31,"stopSequence":32,"vertexType":"TRANSIT"},"legGeometry":{"points":"q}tfH||{pLCRCFGLKJQNSHaAZa@Pk@\\a@XZrAHp@@FDj@Bp@?~I@fHAd@C`@ERELA@GHMHi@PSBy@BW?YDMDC?OHULWVOXQXSb@~@~BJXF`@Fj@?VAvACv@e@hNGx@MdAQr@ILQ\\a@d@w@aCCQAO@ODOHQDSDWLoDRgGBMFMHIHAfBNDuA@wA?WGk@Ga@KY_A_CRc@PYNYUk@Q[O]KYC]_AaQYwF?W?Y?UBc@D_@d@{DNaAB]@O@]?}BbA?hA?A}I?iEEcEjBCzBEd@Cf@Gj@MZMb@S`Ag@DClAk@f@Qv@Ov@IlBCnBa@TCTBjBPH@LiCDe@Lw@|@cELo@D[Dk@@[@uC@SBUDQFSt@yAHIr@eAjAaB`AqA^i@p@kAVc@\\cAr@eBv@aB|B_CJSDKLe@NeAJaAHeBBi@F{AaFe@c@IcDeAWtBOfAERGLIHIFMBa@NOQSOUGOCW?UFMHa@XUHQ?QIQOIM[g@rCmFhHqN~@eBr@cAt@_Av@}@RQPMz@k@tAe@REZG^Af@@X@VF`@Jn@XbClAr@Xt\\`PrAb@pA^hBTjAFj@Pb@JPHLLJNJRFXDT?X?ZEVEVKTMNMHMFOB}DWSGOSYcAN}FFkAF}DJyDPwGj@_QjAN~ALIpBGVITe@@","length":235},"routeShortName":"20","routeLongName":"Sainte-Claire","rentedBike":false,"transitLeg":true,"duration":890.0,"steps":[]},{"startTime":1522671300000,"endTime":1522671637000,"departureDelay":0,"arrivalDelay":0,"realTime":false,"distance":1687.7336637633966,"pathway":false,"mode":"BUS","route":"203S","agencyName":"Société de Transport du Saguenay","agencyUrl":"http://ville.saguenay.ca/fr/services-aux-citoyens/transport-sts","agencyTimeZoneOffset":-14400000,"routeColor":"8B0000","routeType":3,"routeId":"1:203S","routeTextColor":"FFFFFF","interlineWithPreviousLeg":false,"tripBlockId":"99","headsign":"Séminaire","agencyId":"0","tripId":"1:218751","serviceDate":"20180402","from":{"name":"Terminus Chicoutimi","stopId":"1:1289","stopCode":"1289","lon":-71.066163,"lat":48.428677,"arrival":1522671000000,"departure":1522671300000,"zoneId":"NA","stopIndex":0,"stopSequence":1,"vertexType":"TRANSIT"},"to":{"name":"Jacques Cartier / Bécard","stopId":"1:346","stopCode":"346","lon":-71.045781,"lat":48.424491,"arrival":1522671637000,"departure":1522671638000,"zoneId":"NA","stopIndex":6,"stopSequence":7,"vertexType":"TRANSIT"},"legGeometry":{"points":"_vqfH``wpLe@E@o@zDX|BXfCNF}D@YRcFJgLNuNDkCHkFVoKT}@x@yCPcAFiAJeCHmBBg@ViGLsBLsB`@{ElA_O","length":26},"routeShortName":"203S","routeLongName":"Séminaire - Term. Chic","rentedBike":false,"transitLeg":true,"duration":337.0,"steps":[]},{"startTime":1522671638000,"endTime":1522671815000,"departureDelay":0,"arrivalDelay":0,"realTime":false,"distance":227.079,"pathway":false,"mode":"WALK","route":"","agencyTimeZoneOffset":-14400000,"interlineWithPreviousLeg":false,"from":{"name":"Jacques Cartier / Bécard","stopId":"1:346","stopCode":"346","lon":-71.045781,"lat":48.424491,"arrival":1522671637000,"departure":1522671638000,"zoneId":"NA","stopIndex":6,"stopSequence":7,"vertexType":"TRANSIT"},"to":{"name":"Destination","lon":-71.04566699,"lat":48.422691,"arrival":1522671815000,"orig":"","vertexType":"NORMAL"},"legGeometry":{"points":"{{pfH~aspLrBd@`Ch@vA\\P_B","length":5},"rentedBike":false,"transitLeg":false,"duration":177.0,"steps":[{"distance":190.482,"relativeDirection":"DEPART","streetName":"Rue Bécard","absoluteDirection":"SOUTH","stayOn":false,"area":false,"bogusName":false,"lon":-71.04559873551926,"lat":48.424465140509795,"elevation":[]},{"distance":36.597,"relativeDirection":"LEFT","streetName":"Rue du Cénacle","absoluteDirection":"EAST","stayOn":false,"area":false,"bogusName":false,"lon":-71.04614020000001,"lat":48.4227902,"elevation":[]}]}],"tooSloped":false},{"duration":1894,"startTime":1522669991000,"endTime":1522671885000,"walkTime":750,"transitTime":842,"waitingTime":302,"walkDistance":951.0842932260709,"walkLimitExceeded":false,"elevationLost":0.0,"elevationGained":0.0,"transfers":1,"legs":[{"startTime":1522669991000,"endTime":1522670570000,"departureDelay":0,"arrivalDelay":0,"realTime":false,"distance":730.2909999999999,"pathway":false,"mode":"WALK","route":"","agencyTimeZoneOffset":-14400000,"interlineWithPreviousLeg":false,"from":{"name":"Origin","lon":-71.090682,"lat":48.444937,"departure":1522669991000,"orig":"","vertexType":"NORMAL"},"to":{"name":"boul. Ste-Geneviève / Dieppe","stopId":"1:2010","stopCode":"2010","lon":-71.083056,"lat":48.446404,"arrival":1522670570000,"departure":1522670571000,"zoneId":"NA","stopIndex":30,"stopSequence":31,"vertexType":"TRANSIT"},"legGeometry":{"points":"c}tfHd{{pLp@aGAe@?gDAS?IQs@S[A?e@u@AICqDEyFNIA{A?YUSmAD{BFAkAMiAa@uBj@s@","length":23},"alerts":[{"alertHeaderText":"Unpaved surface"}],"rentedBike":false,"transitLeg":false,"duration":579.0,"steps":[{"distance":182.608,"relativeDirection":"DEPART","streetName":"Rue Saint-Armand","absoluteDirection":"EAST","stayOn":false,"area":false,"bogusName":false,"lon":-71.09058993233357,"lat":48.445148455280744,"elevation":[]},{"distance":70.658,"relativeDirection":"SLIGHTLY_LEFT","streetName":"Rue Saint-Denis","absoluteDirection":"NORTHEAST","stayOn":false,"area":false,"bogusName":false,"lon":-71.08816850000001,"lat":48.4449102,"elevation":[]},{"distance":161.772,"relativeDirection":"RIGHT","streetName":"Rue Saint-Armand","absoluteDirection":"EAST","stayOn":false,"area":false,"bogusName":false,"lon":-71.0874465,"lat":48.445303900000006,"elevation":[]},{"distance":9.852,"relativeDirection":"RIGHT","streetName":"Rue Sainte-Marie Sud","absoluteDirection":"SOUTHEAST","stayOn":false,"area":false,"bogusName":false,"lon":-71.0852564,"lat":48.4453605,"elevation":[],"alerts":[{"alertHeaderText":"Unpaved surface"}]},{"distance":42.909,"relativeDirection":"LEFT","streetName":"Rue Sauvé","absoluteDirection":"EAST","stayOn":false,"area":false,"bogusName":false,"lon":-71.08520060000001,"lat":48.445280000000004,"elevation":[]},{"distance":126.56799999999998,"relativeDirection":"LEFT","streetName":"Rue Pasteur Sud","absoluteDirection":"NORTHEAST","stayOn":false,"area":false,"bogusName":false,"lon":-71.0846193,"lat":48.4452944,"elevation":[]},{"distance":104.537,"relativeDirection":"RIGHT","streetName":"Rue de Dieppe","absoluteDirection":"EAST","stayOn":false,"area":false,"bogusName":false,"lon":-71.0845888,"lat":48.4464106,"elevation":[]},{"distance":31.387,"relativeDirection":"RIGHT","streetName":"Boulevard Sainte-Geneviève","absoluteDirection":"SOUTHEAST","stayOn":false,"area":false,"bogusName":false,"lon":-71.083242,"lat":48.446665800000005,"elevation":[]}]},{"startTime":1522670571000,"endTime":1522671000000,"departureDelay":0,"arrivalDelay":0,"realTime":false,"distance":2506.8372204845045,"pathway":false,"mode":"BUS","route":"21","agencyName":"Société de Transport du Saguenay","agencyUrl":"http://ville.saguenay.ca/fr/services-aux-citoyens/transport-sts","agencyTimeZoneOffset":-14400000,"routeColor":"556B2F","routeType":3,"routeId":"1:21","routeTextColor":"FFFFFF","interlineWithPreviousLeg":false,"tripBlockId":"2","headsign":"Terminus Chicoutimi","agencyId":"0","tripId":"1:217158","serviceDate":"20180402","from":{"name":"boul. Ste-Geneviève / Dieppe","stopId":"1:2010","stopCode":"2010","lon":-71.083056,"lat":48.446404,"arrival":1522670570000,"departure":1522670571000,"zoneId":"NA","stopIndex":30,"stopSequence":31,"vertexType":"TRANSIT"},"to":{"name":"Terminus Chicoutimi","stopId":"1:1289","stopCode":"1289","lon":-71.066163,"lat":48.428677,"arrival":1522671000000,"departure":1522671300000,"zoneId":"NA","stopIndex":34,"stopSequence":35,"vertexType":"TRANSIT"},"legGeometry":{"points":"geufHtkzpLdBwBt@cAbAmBx@eBj@eB`CoHpCyJbAmCtAuCZg@|@gBxAsCrCmFhHqN~@eBr@cAt@_Av@}@RQPMz@k@tAe@REZG^Af@@X@VF`@Jn@XbClAr@Xt\\`PrAb@pA^hBTjAFj@Pb@JPHLLJNJRFXDT?X?ZEVEVKTMNMHMFOB}DWSGOSYcAN}FFkAF}DJyDPwGvAHVyL","length":66},"routeShortName":"21","routeLongName":"Boul. Ste-Geneviève/Élie","rentedBike":false,"transitLeg":true,"duration":429.0,"steps":[]},{"startTime":1522671300000,"endTime":1522671713000,"departureDelay":0,"arrivalDelay":0,"realTime":false,"distance":1831.0175985176802,"pathway":false,"mode":"BUS","route":"10","agencyName":"Société de Transport du Saguenay","agencyUrl":"http://ville.saguenay.ca/fr/services-aux-citoyens/transport-sts","agencyTimeZoneOffset":-14400000,"routeColor":"0000FF","routeType":3,"routeId":"1:10","routeTextColor":"FFFFFF","interlineWithPreviousLeg":false,"tripBlockId":"29","headsign":"Terminus UQAC","agencyId":"0","tripId":"1:218055","serviceDate":"20180402","from":{"name":"Terminus Chicoutimi","stopId":"1:1289","stopCode":"1289","lon":-71.066163,"lat":48.428677,"arrival":1522671000000,"departure":1522671300000,"zoneId":"NA","stopIndex":0,"stopSequence":1,"vertexType":"TRANSIT"},"to":{"name":"nouveau","stopId":"1:2284","stopCode":"2284","lon":-71.04764,"lat":48.421469,"arrival":1522671713000,"departure":1522671714000,"zoneId":"NA","stopIndex":7,"stopSequence":8,"vertexType":"TRANSIT"},"legGeometry":{"points":"svqfHnbwpLDmCdDZ\\kO`@mQBuCD}DQ_ECk@^Cd@QWkL?m@IuF@gA?eH?cAEuEDO^AjD`@B@rEf@T_FjBXpDd@hCObDaCfCaH","length":29},"routeShortName":"10","routeLongName":"Notre-Dame du Saguenay","rentedBike":false,"transitLeg":true,"duration":413.0,"steps":[]},{"startTime":1522671714000,"endTime":1522671885000,"departureDelay":0,"arrivalDelay":0,"realTime":false,"distance":220.576,"pathway":false,"mode":"WALK","route":"","agencyTimeZoneOffset":-14400000,"interlineWithPreviousLeg":false,"from":{"name":"nouveau","stopId":"1:2284","stopCode":"2284","lon":-71.04764,"lat":48.421469,"arrival":1522671713000,"departure":1522671714000,"zoneId":"NA","stopIndex":7,"stopSequence":8,"vertexType":"TRANSIT"},"to":{"name":"Destination","lon":-71.04566699,"lat":48.422691,"arrival":1522671885000,"orig":"","vertexType":"NORMAL"},"legGeometry":{"points":"yhpfH~mspL]_@}CcD_A_AKGKEP_B","length":7},"rentedBike":false,"transitLeg":false,"duration":171.0,"steps":[{"distance":183.97899999999998,"relativeDirection":"DEPART","streetName":"Rue Bécard","absoluteDirection":"NORTHEAST","stayOn":false,"area":false,"bogusName":false,"lon":-71.04751243512605,"lat":48.421412194294994,"elevation":[]},{"distance":36.597,"relativeDirection":"RIGHT","streetName":"Rue du Cénacle","absoluteDirection":"EAST","stayOn":false,"area":false,"bogusName":false,"lon":-71.04614020000001,"lat":48.4227902,"elevation":[]}]}],"tooSloped":false},{"duration":1794,"startTime":1522671891000,"endTime":1522673685000,"walkTime":189,"transitTime":1303,"waitingTime":302,"walkDistance":243.93645112683697,"walkLimitExceeded":false,"elevationLost":0.0,"elevationGained":0.0,"transfers":1,"legs":[{"startTime":1522671891000,"endTime":1522671909000,"departureDelay":0,"arrivalDelay":0,"realTime":false,"distance":23.33,"pathway":false,"mode":"WALK","route":"","agencyTimeZoneOffset":-14400000,"interlineWithPreviousLeg":false,"from":{"name":"Origin","lon":-71.090682,"lat":48.444937,"departure":1522671891000,"orig":"","vertexType":"NORMAL"},"to":{"name":"St-Armand / Solange","stopId":"1:685","stopCode":"685","lon":-71.09082,"lat":48.445299,"arrival":1522671909000,"departure":1522671910000,"zoneId":"NA","stopIndex":9,"stopSequence":10,"vertexType":"TRANSIT"},"legGeometry":{"points":"c}tfHd{{pLIl@?@CJ","length":4},"rentedBike":false,"transitLeg":false,"duration":18.0,"steps":[{"distance":23.33,"relativeDirection":"DEPART","streetName":"Rue Saint-Armand","absoluteDirection":"WEST","stayOn":false,"area":false,"bogusName":false,"lon":-71.09058993233357,"lat":48.445148455280744,"elevation":[]}]},{"startTime":1522671910000,"endTime":1522672800000,"departureDelay":0,"arrivalDelay":0,"realTime":false,"distance":5960.116702935813,"pathway":false,"mode":"BUS","route":"20","agencyName":"Société de Transport du Saguenay","agencyUrl":"http://ville.saguenay.ca/fr/services-aux-citoyens/transport-sts","agencyTimeZoneOffset":-14400000,"routeColor":"0000FF","routeType":3,"routeId":"1:20","routeTextColor":"FFFFFF","interlineWithPreviousLeg":false,"tripBlockId":"1","headsign":"Terminus Chicoutimi","agencyId":"0","tripId":"1:217133","serviceDate":"20180402","from":{"name":"St-Armand / Solange","stopId":"1:685","stopCode":"685","lon":-71.09082,"lat":48.445299,"arrival":1522671909000,"departure":1522671910000,"zoneId":"NA","stopIndex":9,"stopSequence":10,"vertexType":"TRANSIT"},"to":{"name":"Terminus Chicoutimi","stopId":"1:1289","stopCode":"1289","lon":-71.066163,"lat":48.428677,"arrival":1522672800000,"departure":1522673100000,"zoneId":"NA","stopIndex":31,"stopSequence":32,"vertexType":"TRANSIT"},"legGeometry":{"points":"q}tfH||{pLCRCFGLKJQNSHaAZa@Pk@\\a@XZrAHp@@FDj@Bp@?~I@fHAd@C`@ERELA@GHMHi@PSBy@BW?YDMDC?OHULWVOXQXSb@~@~BJXF`@Fj@?VAvACv@e@hNGx@MdAQr@ILQ\\a@d@w@aCCQAO@ODOHQDSDWLoDRgGBMFMHIHAfBNDuA@wA?WGk@Ga@KY_A_CRc@PYNYUk@Q[O]KYC]_AaQYwF?W?Y?UBc@D_@d@{DNaAB]@O@]?}BbA?hA?A}I?iEEcEjBCzBEd@Cf@Gj@MZMb@S`Ag@DClAk@f@Qv@Ov@IlBCnBa@TCTBjBPH@LiCDe@Lw@|@cELo@D[Dk@@[@uC@SBUDQFSt@yAHIr@eAjAaB`AqA^i@p@kAVc@\\cAr@eBv@aB|B_CJSDKLe@NeAJaAHeBBi@F{AaFe@c@IcDeAWtBOfAERGLIHIFMBa@NOQSOUGOCW?UFMHa@XUHQ?QIQOIM[g@rCmFhHqN~@eBr@cAt@_Av@}@RQPMz@k@tAe@REZG^Af@@X@VF`@Jn@XbClAr@Xt\\`PrAb@pA^hBTjAFj@Pb@JPHLLJNJRFXDT?X?ZEVEVKTMNMHMFOB}DWSGOSYcAN}FFkAF}DJyDPwGj@_QjAN~ALIpBGVITe@@","length":235},"routeShortName":"20","routeLongName":"Sainte-Claire","rentedBike":false,"transitLeg":true,"duration":890.0,"steps":[]},{"startTime":1522673100000,"endTime":1522673513000,"departureDelay":0,"arrivalDelay":0,"realTime":false,"distance":1831.0175985176802,"pathway":false,"mode":"BUS","route":"10","agencyName":"Société de Transport du Saguenay","agencyUrl":"http://ville.saguenay.ca/fr/services-aux-citoyens/transport-sts","agencyTimeZoneOffset":-14400000,"routeColor":"0000FF","routeType":3,"routeId":"1:10","routeTextColor":"FFFFFF","interlineWithPreviousLeg":false,"tripBlockId":"26","headsign":"Terminus UQAC","agencyId":"0","tripId":"1:217968","serviceDate":"20180402","from":{"name":"Terminus Chicoutimi","stopId":"1:1289","stopCode":"1289","lon":-71.066163,"lat":48.428677,"arrival":1522672800000,"departure":1522673100000,"zoneId":"NA","stopIndex":0,"stopSequence":1,"vertexType":"TRANSIT"},"to":{"name":"nouveau","stopId":"1:2284","stopCode":"2284","lon":-71.04764,"lat":48.421469,"arrival":1522673513000,"departure":1522673514000,"zoneId":"NA","stopIndex":7,"stopSequence":8,"vertexType":"TRANSIT"},"legGeometry":{"points":"svqfHnbwpLDmCdDZ\\kO`@mQBuCD}DQ_ECk@^Cd@QWkL?m@IuF@gA?eH?cAEuEDO^AjD`@B@rEf@T_FjBXpDd@hCObDaCfCaH","length":29},"routeShortName":"10","routeLongName":"Notre-Dame du Saguenay","rentedBike":false,"transitLeg":true,"duration":413.0,"steps":[]},{"startTime":1522673514000,"endTime":1522673685000,"departureDelay":0,"arrivalDelay":0,"realTime":false,"distance":220.576,"pathway":false,"mode":"WALK","route":"","agencyTimeZoneOffset":-14400000,"interlineWithPreviousLeg":false,"from":{"name":"nouveau","stopId":"1:2284","stopCode":"2284","lon":-71.04764,"lat":48.421469,"arrival":1522673513000,"departure":1522673514000,"zoneId":"NA","stopIndex":7,"stopSequence":8,"vertexType":"TRANSIT"},"to":{"name":"Destination","lon":-71.04566699,"lat":48.422691,"arrival":1522673685000,"orig":"","vertexType":"NORMAL"},"legGeometry":{"points":"yhpfH~mspL]_@}CcD_A_AKGKEP_B","length":7},"rentedBike":false,"transitLeg":false,"duration":171.0,"steps":[{"distance":183.97899999999998,"relativeDirection":"DEPART","streetName":"Rue Bécard","absoluteDirection":"NORTHEAST","stayOn":false,"area":false,"bogusName":false,"lon":-71.04751243512605,"lat":48.421412194294994,"elevation":[]},{"distance":36.597,"relativeDirection":"RIGHT","streetName":"Rue du Cénacle","absoluteDirection":"EAST","stayOn":false,"area":false,"bogusName":false,"lon":-71.04614020000001,"lat":48.4227902,"elevation":[]}]}],"tooSloped":false}]},"debugOutput":{"precalculationTime":27,"pathCalculationTime":22,"pathTimes":[14,4,4],"renderingTime":0,"totalTime":49,"timedOut":false},"elevationMetadata":{"ellipsoidToGeoidDifference":-28.885904201182168,"geoidElevation":false}}