{"requestParameters":{"date":"2018/04/02","walkSpeed":"1.33","walkReluctance":"2.0","fromPlace":"48.426833,-71.060541","maxWalkDistance":"3000","waitReluctance":"1.0","carSpeed":"33","numItineraries":"3","waitAtBeginningFactor":"0.4","mode":"TRANSIT,WALK","ignoreRealtimeUpdates":"false","stairsReluctance":"2.0","toPlace":"48.444955,-71.094237","time":"20:45:00"},"plan":{"date":1522716300000,"from":{"name":"Origin","lon":-71.060541,"lat":48.426833,"orig":"","vertexType":"NORMAL"},"to":{"name":"Destination","lon":-71.094237,"lat":48.444955,"orig":"","vertexType":"NORMAL"},"itineraries":[{"duration":1775,"startTime":1522717629000,"endTime":1522719404000,"walkTime":1277,"transitTime":496,"waitingTime":2,"walkDistance":1625.540864652107,"walkLimitExceeded":false,"elevationLost":0.0,"elevationGained":0.0,"transfers":0,"legs":[{"startTime":1522717629000,"endTime":1522718099000,"departureDelay":0,"arrivalDelay":0,"realTime":false,"distance":602.45,"pathway":false,"mode":"WALK","route":"","agencyTimeZoneOffset":-14400000,"interlineWithPreviousLeg":false,"from":{"name":"Origin","lon":-71.060541,"lat":48.426833,"departure":1522717629000,"orig":"","vertexType":"NORMAL"},"to":{"name":"Terminus Chicoutimi","stopId":"1:1289","stopCode":"1289","lon":-71.066163,"lat":48.428677,"arrival":1522718099000,"departure":1522718100000,"zoneId":"NA","stopIndex":0,"stopSequence":1,"vertexType":"TRANSIT"},"legGeometry":{"points":"qkqfH``vpL@FJb@Hb@F^FtABjA?~@Bt@@j@GAU?Yb@MKkCCAh@GpBAXAj@SzHc@MKESAcAK","length":24},"rentedBike":false,"transitLeg":false,"duration":470.0,"steps":[{"distance":18.243,"relativeDirection":"DEPART","streetName":"service road","absoluteDirection":"SOUTHWEST","stayOn":false,"area":false,"bogusName":false,"lon":-71.06064365662023,"lat":48.42697881644773,"elevation":[]},{"distance":147.02,"relativeDirection":"CONTINUE","streetName":"path","absoluteDirection":"SOUTHWEST","stayOn":false,"area":false,"bogusName":true,"lon":-71.0608679,"lat":48.4269097,"elevation":[]},{"distance":72.307,"relativeDirection":"RIGHT","streetName":"steps","absoluteDirection":"NORTH","stayOn":true,"area":false,"bogusName":true,"lon":-71.0628209,"lat":48.4267206,"elevation":[]},{"distance":86.921,"relativeDirection":"RIGHT","streetName":"Rue de l'Hôtel-de-Ville","absoluteDirection":"NORTH","stayOn":false,"area":false,"bogusName":false,"lon":-71.0629919,"lat":48.4270002,"elevation":[]},{"distance":200.752,"relativeDirection":"LEFT","streetName":"Rue Racine Est","absoluteDirection":"WEST","stayOn":false,"area":false,"bogusName":false,"lon":-71.0629152,"lat":48.4277742,"elevation":[]},{"distance":77.207,"relativeDirection":"RIGHT","streetName":"Rue Morin","absoluteDirection":"NORTH","stayOn":false,"area":false,"bogusName":false,"lon":-71.0656238,"lat":48.4279449,"elevation":[]}]},{"startTime":1522718100000,"endTime":1522718596000,"departureDelay":0,"arrivalDelay":0,"realTime":false,"distance":3559.685247334825,"pathway":false,"mode":"BUS","route":"21","agencyName":"Société de Transport du Saguenay","agencyUrl":"http://ville.saguenay.ca/fr/services-aux-citoyens/transport-sts","agencyTimeZoneOffset":-14400000,"routeColor":"556B2F","routeType":3,"routeId":"1:21","routeTextColor":"FFFFFF","interlineWithPreviousLeg":false,"tripBlockId":"2","headsign":"Terminus Chicoutimi","agencyId":"0","tripId":"1:217182","serviceDate":"20180402","from":{"name":"Terminus Chicoutimi","stopId":"1:1289","stopCode":"1289","lon":-71.066163,"lat":48.428677,"arrival":1522718099000,"departure":1522718100000,"zoneId":"NA","stopIndex":0,"stopSequence":1,"vertexType":"TRANSIT"},"to":{"name":"St-Gérard / Pasteur","stopId":"1:733","stopCode":"733","lon":-71.0845,"lat":48.4489,"arrival":1522718596000,"departure":1522718597000,"zoneId":"NA","stopIndex":7,"stopSequence":8,"vertexType":"TRANSIT"},"legGeometry":{"points":"kwqfHjbwpLF_CeBSm@rRO\\WjGOfGCRK^KJMHQB_AMg@Gw`@eR}@g@u@Su@Ia@Ck@Dm@HwAf@c@VeAx@iAlAU^[d@eLtTsAvB_CvEuAnCmBlE}@|B_BvFoC`JCD}@hCo@~Aq@pAs@fAWs@IUC[AI?QCeGAs@Gy@Ks@Ou@OcAIcAIgAWgCG_@Og@IQS]UWYQWIUA[Da@P]RSVQ`@Ib@Ef@Et@Gf@Id@I`@Od@cCxFQOgAwA_FqGO[`BcEY_@MOaBtDLTh@bATZpGlIPNa@fAOn@Gd@UtBA^A^R`E^fGRbAVl@P`@","length":99},"routeShortName":"21","routeLongName":"Boul. Ste-Geneviève/Élie","rentedBike":false,"transitLeg":true,"duration":496.0,"steps":[]},{"startTime":1522718597000,"endTime":1522719404000,"departureDelay":0,"arrivalDelay":0,"realTime":false,"distance":1022.795,"pathway":false,"mode":"WALK","route":"","agencyTimeZoneOffset":-14400000,"interlineWithPreviousLeg":false,"from":{"name":"St-Gérard / Pasteur","stopId":"1:733","stopCode":"733","lon":-71.0845,"lat":48.4489,"arrival":1522718596000,"departure":1522718597000,"zoneId":"NA","stopIndex":7,"stopSequence":8,"vertexType":"TRANSIT"},"to":{"name":"Destination","lon":-71.094237,"lat":48.444955,"arrival":1522719404000,"orig":"","vertexType":"NORMAL"},"legGeometry":{"points":"qtufHxuzpLH?JGFIv@lBN\\`@z@HF?Z?nDDnEFtIdABdA@@d@Df@DXFPN`@rA|C\\fAZdAJ\\Ld@Lp@Hp@@B@DDf@@p@fC@?`@?`@?VDd@HZJ\\Nd@l@tBh@c@","length":40},"rentedBike":false,"transitLeg":false,"duration":807.0,"steps":[{"distance":18.91,"relativeDirection":"DEPART","streetName":"Rue Pasteur Nord","absoluteDirection":"SOUTH","stayOn":false,"area":false,"bogusName":false,"lon":-71.08460477785076,"lat":48.44889846721524,"elevation":[]},{"distance":65.535,"relativeDirection":"RIGHT","streetName":"Rue Saint-Gérard","absoluteDirection":"SOUTHWEST","stayOn":false,"area":false,"bogusName":false,"lon":-71.0845147,"lat":48.4487454,"elevation":[]},{"distance":35.026,"relativeDirection":"CONTINUE","streetName":"Rue Sainte-Marie Sud","absoluteDirection":"SOUTHWEST","stayOn":false,"area":false,"bogusName":false,"lon":-71.08521470000001,"lat":48.448382800000005,"elevation":[]},{"distance":75.112,"relativeDirection":"RIGHT","streetName":"path","absoluteDirection":"WEST","stayOn":false,"area":false,"bogusName":true,"lon":-71.0855571,"lat":48.448167500000004,"elevation":[]},{"distance":203.02300000000002,"relativeDirection":"CONTINUE","streetName":"Rue Giffard","absoluteDirection":"WEST","stayOn":false,"area":false,"bogusName":false,"lon":-71.08657550000001,"lat":48.4481685,"elevation":[]},{"distance":78.416,"relativeDirection":"LEFT","streetName":"Rue Louis-XIV","absoluteDirection":"SOUTH","stayOn":false,"area":false,"bogusName":false,"lon":-71.0893258,"lat":48.4480966,"elevation":[]},{"distance":304.09900000000005,"relativeDirection":"RIGHT","streetName":"Rue Vallières","absoluteDirection":"WEST","stayOn":false,"area":false,"bogusName":false,"lon":-71.08935740000001,"lat":48.447391700000004,"elevation":[]},{"distance":76.062,"relativeDirection":"LEFT","streetName":"Rue Éric","absoluteDirection":"SOUTH","stayOn":false,"area":false,"bogusName":false,"lon":-71.0929705,"lat":48.446187800000004,"elevation":[]},{"distance":139.915,"relativeDirection":"RIGHT","streetName":"Rue Fillion","absoluteDirection":"WEST","stayOn":false,"area":false,"bogusName":false,"lon":-71.09298290000001,"lat":48.445503800000004,"elevation":[]},{"distance":26.697,"relativeDirection":"LEFT","streetName":"Rue Nadine","absoluteDirection":"SOUTHEAST","stayOn":false,"area":false,"bogusName":false,"lon":-71.09470470000001,"lat":48.4450556,"elevation":[]}]}],"tooSloped":false},{"duration":1343,"startTime":1522719429000,"endTime":1522720772000,"walkTime":695,"transitTime":646,"waitingTime":2,"walkDistance":882.7954811967968,"walkLimitExceeded":false,"elevationLost":0.0,"elevationGained":0.0,"transfers":0,"legs":[{"startTime":1522719429000,"endTime":1522719899000,"departureDelay":0,"arrivalDelay":0,"realTime":false,"distance":602.45,"pathway":false,"mode":"WALK","route":"","agencyTimeZoneOffset":-14400000,"interlineWithPreviousLeg":false,"from":{"name":"Origin","lon":-71.060541,"lat":48.426833,"departure":1522719429000,"orig":"","vertexType":"NORMAL"},"to":{"name":"Terminus Chicoutimi","stopId":"1:1289","stopCode":"1289","lon":-71.066163,"lat":48.428677,"arrival":1522719899000,"departure":1522719900000,"zoneId":"NA","stopIndex":0,"stopSequence":1,"vertexType":"TRANSIT"},"legGeometry":{"points":"qkqfH``vpL@FJb@Hb@F^FtABjA?~@Bt@@j@GAU?Yb@MKkCCAh@GpBAXAj@SzHc@MKESAcAK","length":24},"rentedBike":false,"transitLeg":false,"duration":470.0,"steps":[{"distance":18.243,"relativeDirection":"DEPART","streetName":"service road","absoluteDirection":"SOUTHWEST","stayOn":false,"area":false,"bogusName":false,"lon":-71.06064365662023,"lat":48.42697881644773,"elevation":[]},{"distance":147.02,"relativeDirection":"CONTINUE","streetName":"path","absoluteDirection":"SOUTHWEST","stayOn":false,"area":false,"bogusName":true,"lon":-71.0608679,"lat":48.4269097,"elevation":[]},{"distance":72.307,"relativeDirection":"RIGHT","streetName":"steps","absoluteDirection":"NORTH","stayOn":true,"area":false,"bogusName":true,"lon":-71.0628209,"lat":48.4267206,"elevation":[]},{"distance":86.921,"relativeDirection":"RIGHT","streetName":"Rue de l'Hôtel-de-Ville","absoluteDirection":"NORTH","stayOn":false,"area":false,"bogusName":false,"lon":-71.0629919,"lat":48.4270002,"elevation":[]},{"distance":200.752,"relativeDirection":"LEFT","streetName":"Rue Racine Est","absoluteDirection":"WEST","stayOn":false,"area":false,"bogusName":false,"lon":-71.0629152,"lat":48.4277742,"elevation":[]},{"distance":77.207,"relativeDirection":"RIGHT","streetName":"Rue Morin","absoluteDirection":"NORTH","stayOn":false,"area":false,"bogusName":false,"lon":-71.0656238,"lat":48.4279449,"elevation":[]}]},{"startTime":1522719900000,"endTime":1522720546000,"departureDelay":0,"arrivalDelay":0,"realTime":false,"distance":3812.5154633572365,"pathway":false,"mode":"BUS","route":"20","agencyName":"Société de Transport du Saguenay","agencyUrl":"http://ville.saguenay.ca/fr/services-aux-citoyens/transport-sts","agencyTimeZoneOffset":-14400000,"routeColor":"0000FF","routeType":3,"routeId":"1:20","routeTextColor":"FFFFFF","interlineWithPreviousLeg":false,"tripBlockId":"3","headsign":"Terminus Chicoutimi","agencyId":"0","tripId":"1:217217","serviceDate":"20180402","from":{"name":"Terminus Chicoutimi","stopId":"1:1289","stopCode":"1289","lon":-71.066163,"lat":48.428677,"arrival":1522719899000,"departure":1522719900000,"zoneId":"NA","stopIndex":0,"stopSequence":1,"vertexType":"TRANSIT"},"to":{"name":"Vallières / Éric","stopId":"1:686","stopCode":"686","lon":-71.092505,"lat":48.446308,"arrival":1522720546000,"departure":1522720547000,"zoneId":"NA","stopIndex":10,"stopSequence":11,"vertexType":"TRANSIT"},"legGeometry":{"points":"evqfHzcwpLg@?UhKwAIWACp@O\\WjGOfGCRK^KJMHQB_AMg@Gw`@eR}@g@u@Su@Ia@Ck@Dm@HwAf@c@VeAx@iAlAU^[d@eLtTsAvBg@bAPVd@t@PNNF@@P?TI`@YLITGV?NBTFRNNP`@OLCHGHIFMDSR{ARaBbDdAb@H`Fd@EbAE`AIdBK`AOdAMd@EJKR}B~Bw@`Bs@dB]bAWb@q@jAaB|BkA~A}@nAu@IIAe@Cs@Fy@DWA[EUGyCgAU~@Sx@{A`FyBfHmDjJCDEVE`B?vFBjC@ZFX\\j@T^JVBNBV@RCbE?VCVy@nGCRCFGLKJQNSHaAZa@Pk@\\a@XZrAHp@@F","length":119},"routeShortName":"20","routeLongName":"Sainte-Claire","rentedBike":false,"transitLeg":true,"duration":646.0,"steps":[]},{"startTime":1522720547000,"endTime":1522720772000,"departureDelay":0,"arrivalDelay":0,"realTime":false,"distance":280.15299999999996,"pathway":false,"mode":"WALK","route":"","agencyTimeZoneOffset":-14400000,"interlineWithPreviousLeg":false,"from":{"name":"Vallières / Éric","stopId":"1:686","stopCode":"686","lon":-71.092505,"lat":48.446308,"arrival":1522720546000,"departure":1522720547000,"zoneId":"NA","stopIndex":10,"stopSequence":11,"vertexType":"TRANSIT"},"to":{"name":"Destination","lon":-71.094237,"lat":48.444955,"arrival":1522720772000,"orig":"","vertexType":"NORMAL"},"legGeometry":{"points":"_dufH~f|pL@B@DDf@@p@fC@?`@?`@?VDd@HZJ\\Nd@l@tBh@c@","length":15},"rentedBike":false,"transitLeg":false,"duration":225.0,"steps":[{"distance":37.479,"relativeDirection":"DEPART","streetName":"Rue Vallières","absoluteDirection":"WEST","stayOn":false,"area":false,"bogusName":false,"lon":-71.0924706053318,"lat":48.44624012854088,"elevation":[]},{"distance":76.062,"relativeDirection":"LEFT","streetName":"Rue Éric","absoluteDirection":"SOUTH","stayOn":false,"area":false,"bogusName":false,"lon":-71.0929705,"lat":48.446187800000004,"elevation":[]},{"distance":139.915,"relativeDirection":"RIGHT","streetName":"Rue Fillion","absoluteDirection":"WEST","stayOn":false,"area":false,"bogusName":false,"lon":-71.09298290000001,"lat":48.445503800000004,"elevation":[]},{"distance":26.697,"relativeDirection":"LEFT","streetName":"Rue Nadine","absoluteDirection":"SOUTHEAST","stayOn":false,"area":false,"bogusName":false,"lon":-71.09470470000001,"lat":48.4450556,"elevation":[]}]}],"tooSloped":false},{"duration":1656,"startTime":1522719429000,"endTime":1522721085000,"walkTime":1267,"transitTime":387,"waitingTime":2,"walkDistance":1617.0506766829951,"walkLimitExceeded":false,"elevationLost":0.0,"elevationGained":0.0,"transfers":0,"legs":[{"startTime":1522719429000,"endTime":1522719899000,"departureDelay":0,"arrivalDelay":0,"realTime":false,"distance":602.45,"pathway":false,"mode":"WALK","route":"","agencyTimeZoneOffset":-14400000,"interlineWithPreviousLeg":false,"from":{"name":"Origin","lon":-71.060541,"lat":48.426833,"departure":1522719429000,"orig":"","vertexType":"NORMAL"},"to":{"name":"Terminus Chicoutimi","stopId":"1:1289","stopCode":"1289","lon":-71.066163,"lat":48.428677,"arrival":1522719899000,"departure":1522719900000,"zoneId":"NA","stopIndex":0,"stopSequence":1,"vertexType":"TRANSIT"},"legGeometry":{"points":"qkqfH``vpL@FJb@Hb@F^FtABjA?~@Bt@@j@GAU?Yb@MKkCCAh@GpBAXAj@SzHc@MKESAcAK","length":24},"rentedBike":false,"transitLeg":false,"duration":470.0,"steps":[{"distance":18.243,"relativeDirection":"DEPART","streetName":"service road","absoluteDirection":"SOUTHWEST","stayOn":false,"area":false,"bogusName":false,"lon":-71.06064365662023,"lat":48.42697881644773,"elevation":[]},{"distance":147.02,"relativeDirection":"CONTINUE","streetName":"path","absoluteDirection":"SOUTHWEST","stayOn":false,"area":false,"bogusName":true,"lon":-71.0608679,"lat":48.4269097,"elevation":[]},{"distance":72.307,"relativeDirection":"RIGHT","streetName":"steps","absoluteDirection":"NORTH","stayOn":true,"area":false,"bogusName":true,"lon":-71.0628209,"lat":48.4267206,"elevation":[]},{"distance":86.921,"relativeDirection":"RIGHT","streetName":"Rue de l'Hôtel-de-Ville","absoluteDirection":"NORTH","stayOn":false,"area":false,"bogusName":false,"lon":-71.0629919,"lat":48.4270002,"elevation":[]},{"distance":200.752,"relativeDirection":"LEFT","streetName":"Rue Racine Est","absoluteDirection":"WEST","stayOn":false,"area":false,"bogusName":false,"lon":-71.0629152,"lat":48.4277742,"elevation":[]},{"distance":77.207,"relativeDirection":"RIGHT","streetName":"Rue Morin","absoluteDirection":"NORTH","stayOn":false,"area":false,"bogusName":false,"lon":-71.0656238,"lat":48.4279449,"elevation":[]}]},{"startTime":1522719900000,"endTime":1522720287000,"departureDelay":0,"arrivalDelay":0,"realTime":false,"distance":2669.4064857723333,"pathway":false,"mode":"BUS","route":"23","agencyName":"Société de Transport du Saguenay","agencyUrl":"http://ville.saguenay.ca/fr/services-aux-citoyens/transport-sts","agencyTimeZoneOffset":-14400000,"routeColor":"FF00FF","routeType":3,"routeId":"1:23","routeTextColor":"FFFFFF","interlineWithPreviousLeg":false,"tripBlockId":"5","headsign":"Terminus Chicoutimi","agencyId":"0","tripId":"1:217280","serviceDate":"20180402","from":{"name":"Terminus Chicoutimi","stopId":"1:1289","stopCode":"1289","lon":-71.066163,"lat":48.428677,"arrival":1522719899000,"departure":1522719900000,"zoneId":"NA","stopIndex":0,"stopSequence":1,"vertexType":"TRANSIT"},"to":{"name":"St-Gérard / Pasteur","stopId":"1:727","stopCode":"727","lon":-71.084309,"lat":48.448719,"arrival":1522720287000,"departure":1522720288000,"zoneId":"NA","stopIndex":4,"stopSequence":5,"vertexType":"TRANSIT"},"legGeometry":{"points":"kwqfHjbwpLF_CkAOYCm@rRO\\WjGOfGCRK^KJMHQB_AMg@Gw`@eR}@g@u@Su@Ia@Ck@Dm@HwAf@c@VeAx@iAlAU^[d@eLtTsAvB_CvEuAnCmBlE}@|B_BvFoC`JCD}@hCo@~Aq@pAs@fA{BlCqH|Iq@Bq@Im@U","length":46},"routeShortName":"23","routeLongName":"Côte Verdun via Aréna du Plateau","rentedBike":false,"transitLeg":true,"duration":387.0,"steps":[]},{"startTime":1522720288000,"endTime":1522721085000,"departureDelay":0,"arrivalDelay":0,"realTime":false,"distance":1014.33,"pathway":false,"mode":"WALK","route":"","agencyTimeZoneOffset":-14400000,"interlineWithPreviousLeg":false,"from":{"name":"St-Gérard / Pasteur","stopId":"1:727","stopCode":"727","lon":-71.084309,"lat":48.448719,"arrival":1522720287000,"departure":1522720288000,"zoneId":"NA","stopIndex":4,"stopSequence":5,"vertexType":"TRANSIT"},"to":{"name":"Destination","lon":-71.094237,"lat":48.444955,"arrival":1522721085000,"orig":"","vertexType":"NORMAL"},"legGeometry":{"points":"_tufHptzpLJTv@lBN\\`@z@HF?Z?nDDnEFtIdABdA@@d@Df@DXFPN`@rA|C\\fAZdAJ\\Ld@Lp@Hp@@B@DDf@@p@fC@?`@?`@?VDd@HZJ\\Nd@l@tBh@c@","length":38},"rentedBike":false,"transitLeg":false,"duration":797.0,"steps":[{"distance":75.98,"relativeDirection":"DEPART","streetName":"Rue Saint-Gérard","absoluteDirection":"SOUTHWEST","stayOn":false,"area":false,"bogusName":false,"lon":-71.0844008886955,"lat":48.448801303287965,"elevation":[]},{"distance":35.026,"relativeDirection":"CONTINUE","streetName":"Rue Sainte-Marie Sud","absoluteDirection":"SOUTHWEST","stayOn":false,"area":false,"bogusName":false,"lon":-71.08521470000001,"lat":48.448382800000005,"elevation":[]},{"distance":75.112,"relativeDirection":"RIGHT","streetName":"path","absoluteDirection":"WEST","stayOn":false,"area":false,"bogusName":true,"lon":-71.0855571,"lat":48.448167500000004,"elevation":[]},{"distance":203.02300000000002,"relativeDirection":"CONTINUE","streetName":"Rue Giffard","absoluteDirection":"WEST","stayOn":false,"area":false,"bogusName":false,"lon":-71.08657550000001,"lat":48.4481685,"elevation":[]},{"distance":78.416,"relativeDirection":"LEFT","streetName":"Rue Louis-XIV","absoluteDirection":"SOUTH","stayOn":false,"area":false,"bogusName":false,"lon":-71.0893258,"lat":48.4480966,"elevation":[]},{"distance":304.09900000000005,"relativeDirection":"RIGHT","streetName":"Rue Vallières","absoluteDirection":"WEST","stayOn":false,"area":false,"bogusName":false,"lon":-71.08935740000001,"lat":48.447391700000004,"elevation":[]},{"distance":76.062,"relativeDirection":"LEFT","streetName":"Rue Éric","absoluteDirection":"SOUTH","stayOn":false,"area":false,"bogusName":false,"lon":-71.0929705,"lat":48.446187800000004,"elevation":[]},{"distance":139.915,"relativeDirection":"RIGHT","streetName":"Rue Fillion","absoluteDirection":"WEST","stayOn":false,"area":false,"bogusName":false,"lon":-71.09298290000001,"lat":48.445503800000004,"elevation":[]},{"distance":26.697,"relativeDirection":"LEFT","streetName":"Rue Nadine","absoluteDirection":"SOUTHEAST","stayOn":false,"area":false,"bogusName":false,"lon":-71.09470470000001,"lat":48.4450556,"elevation":[]}]}],"tooSloped":false}]},"debugOutput":{"precalculationTime":32,"pathCalculationTime":56,"pathTimes":[25,14,17],"renderingTime":1,"totalTime":89,"timedOut":false},"elevationMetadata":{"ellipsoidToGeoidDifference":-28.885904201182168,"geoidElevation":false}}