{"requestParameters":{"date":"2018/04/02","walkSpeed":"1.33","walkReluctance":"2.0","fromPlace":"48.443416,-71.07852499","maxWalkDistance":"3000","waitReluctance":"1.0","carSpeed":"33","numItineraries":"3","waitAtBeginningFactor":"0.4","mode":"TRANSIT,WALK","ignoreRealtimeUpdates":"false","stairsReluctance":"2.0","toPlace":"48.445295,-71.092808","time":"13:0:00"},"plan":{"date":1522688400000,"from":{"name":"Origin","lon":-71.07852499,"lat":48.443416,"orig":"","vertexType":"NORMAL"},"to":{"name":"Destination","lon":-71.092808,"lat":48.445295,"orig":"","vertexType":"NORMAL"},"itineraries":[{"duration":1033,"startTime":1522688400000,"endTime":1522689433000,"walkTime":1033,"transitTime":0,"waitingTime":0,"walkDistance":1321.6097293155085,"walkLimitExceeded":false,"elevationLost":0.0,"elevationGained":0.0,"transfers":0,"legs":[{"startTime":1522688400000,"endTime":1522689433000,"departureDelay":0,"arrivalDelay":0,"realTime":false,"distance":1321.3680000000004,"pathway":false,"mode":"WALK","route":"","agencyTimeZoneOffset":-14400000,"interlineWithPreviousLeg":false,"from":{"name":"Origin","lon":-71.07852499,"lat":48.443416,"departure":1522688400000,"orig":"","vertexType":"NORMAL"},"to":{"name":"Destination","lon":-71.092808,"lat":48.445295,"arrival":1522689433000,"orig":"","vertexType":"NORMAL"},"legGeometry":{"points":"eutfHjmypLcAtDsAvEa@fAi@~AdE|DkAnDqDjJ?X@zAOHDxFBpD@Hd@t@@?RZPr@?H@R?fD@d@{@nH?@CJK\\`BrCW\\_@`@UJQFWRMHGN?RAv@","length":36},"alerts":[{"alertHeaderText":"Unpaved surface"}],"rentedBike":false,"transitLeg":false,"duration":1033.0,"steps":[{"distance":243.99900000000002,"relativeDirection":"DEPART","streetName":"Boulevard Sainte-Geneviève","absoluteDirection":"NORTHWEST","stayOn":false,"area":false,"bogusName":false,"lon":-71.0781387826346,"lat":48.44387841675082,"elevation":[]},{"distance":131.132,"relativeDirection":"LEFT","streetName":"Rue David","absoluteDirection":"SOUTHWEST","stayOn":false,"area":false,"bogusName":false,"lon":-71.08096180000001,"lat":48.445019,"elevation":[]},{"distance":287.597,"relativeDirection":"RIGHT","streetName":"Rue Sauvé","absoluteDirection":"NORTHWEST","stayOn":false,"area":false,"bogusName":false,"lon":-71.081913,"lat":48.444022700000005,"elevation":[]},{"distance":9.852,"relativeDirection":"RIGHT","streetName":"Rue Sainte-Marie Sud","absoluteDirection":"NORTHWEST","stayOn":false,"area":false,"bogusName":false,"lon":-71.08520060000001,"lat":48.445280000000004,"elevation":[],"alerts":[{"alertHeaderText":"Unpaved surface"}]},{"distance":161.772,"relativeDirection":"LEFT","streetName":"Rue Saint-Armand","absoluteDirection":"WEST","stayOn":false,"area":false,"bogusName":false,"lon":-71.0852564,"lat":48.4453605,"elevation":[]},{"distance":70.658,"relativeDirection":"LEFT","streetName":"Rue Saint-Denis","absoluteDirection":"SOUTHWEST","stayOn":false,"area":false,"bogusName":false,"lon":-71.0874465,"lat":48.445303900000006,"elevation":[]},{"distance":217.99699999999999,"relativeDirection":"SLIGHTLY_RIGHT","streetName":"Rue Saint-Armand","absoluteDirection":"WEST","stayOn":false,"area":false,"bogusName":false,"lon":-71.08816850000001,"lat":48.4449102,"elevation":[]},{"distance":77.026,"relativeDirection":"LEFT","streetName":"Rue Solange","absoluteDirection":"SOUTHWEST","stayOn":false,"area":false,"bogusName":false,"lon":-71.0910302,"lat":48.4452702,"elevation":[]},{"distance":121.335,"relativeDirection":"RIGHT","streetName":"Rue Fillion","absoluteDirection":"NORTHWEST","stayOn":false,"area":false,"bogusName":false,"lon":-71.0917773,"lat":48.4447862,"elevation":[]}]}],"tooSloped":false},{"duration":475,"startTime":1522689576000,"endTime":1522690051000,"walkTime":292,"transitTime":181,"waitingTime":2,"walkDistance":362.7860977398726,"walkLimitExceeded":false,"elevationLost":0.0,"elevationGained":0.0,"transfers":0,"legs":[{"startTime":1522689576000,"endTime":1522689764000,"departureDelay":0,"arrivalDelay":0,"realTime":false,"distance":235.84199999999998,"pathway":false,"mode":"WALK","route":"","agencyTimeZoneOffset":-14400000,"interlineWithPreviousLeg":false,"from":{"name":"Origin","lon":-71.07852499,"lat":48.443416,"departure":1522689576000,"orig":"","vertexType":"NORMAL"},"to":{"name":"Sauvé / St-Albert","stopId":"1:681","stopCode":"681","lon":-71.079877,"lat":48.443248,"arrival":1522689764000,"departure":1522689765000,"zoneId":"NA","stopIndex":6,"stopSequence":7,"vertexType":"TRANSIT"},"legGeometry":{"points":"eutfHjmypLcAtDb@`@TJ\\LhCv@Wx@","length":7},"rentedBike":false,"transitLeg":false,"duration":188.0,"steps":[{"distance":76.813,"relativeDirection":"DEPART","streetName":"Boulevard Sainte-Geneviève","absoluteDirection":"NORTHWEST","stayOn":false,"area":false,"bogusName":false,"lon":-71.0781387826346,"lat":48.44387841675082,"elevation":[]},{"distance":133.438,"relativeDirection":"LEFT","streetName":"Rue Saint-Albert","absoluteDirection":"SOUTHWEST","stayOn":false,"area":false,"bogusName":false,"lon":-71.0790497,"lat":48.4442132,"elevation":[]},{"distance":25.591,"relativeDirection":"RIGHT","streetName":"Rue Sauvé","absoluteDirection":"NORTHWEST","stayOn":false,"area":false,"bogusName":false,"lon":-71.07962210000001,"lat":48.4430824,"elevation":[]}]},{"startTime":1522689765000,"endTime":1522689946000,"departureDelay":0,"arrivalDelay":0,"realTime":false,"distance":1014.6960108263203,"pathway":false,"mode":"BUS","route":"20","agencyName":"Société de Transport du Saguenay","agencyUrl":"http://ville.saguenay.ca/fr/services-aux-citoyens/transport-sts","agencyTimeZoneOffset":-14400000,"routeColor":"0000FF","routeType":3,"routeId":"1:20","routeTextColor":"FFFFFF","interlineWithPreviousLeg":false,"tripBlockId":"1","headsign":"Terminus Chicoutimi","agencyId":"0","tripId":"1:217143","serviceDate":"20180402","from":{"name":"Sauvé / St-Albert","stopId":"1:681","stopCode":"681","lon":-71.079877,"lat":48.443248,"arrival":1522689764000,"departure":1522689765000,"zoneId":"NA","stopIndex":6,"stopSequence":7,"vertexType":"TRANSIT"},"to":{"name":"Vallières / Éric","stopId":"1:686","stopCode":"686","lon":-71.092505,"lat":48.446308,"arrival":1522689946000,"departure":1522689947000,"zoneId":"NA","stopIndex":10,"stopSequence":11,"vertexType":"TRANSIT"},"legGeometry":{"points":"_qtfHnxypLSx@{A`FyBfHmDjJCDEVE`B?vFBjC@ZFX\\j@T^JVBNBV@RCbE?VCVy@nGCRCFGLKJQNSHaAZa@Pk@\\a@XZrAHp@@F","length":35},"routeShortName":"20","routeLongName":"Sainte-Claire","rentedBike":false,"transitLeg":true,"duration":181.0,"steps":[]},{"startTime":1522689947000,"endTime":1522690051000,"departureDelay":0,"arrivalDelay":0,"realTime":false,"distance":126.80499999999999,"pathway":false,"mode":"WALK","route":"","agencyTimeZoneOffset":-14400000,"interlineWithPreviousLeg":false,"from":{"name":"Vallières / Éric","stopId":"1:686","stopCode":"686","lon":-71.092505,"lat":48.446308,"arrival":1522689946000,"departure":1522689947000,"zoneId":"NA","stopIndex":10,"stopSequence":11,"vertexType":"TRANSIT"},"to":{"name":"Destination","lon":-71.092808,"lat":48.445295,"arrival":1522690051000,"orig":"","vertexType":"NORMAL"},"legGeometry":{"points":"_dufH~f|pL@B@DDf@@p@fC@?c@","length":7},"rentedBike":false,"transitLeg":false,"duration":104.0,"steps":[{"distance":37.479,"relativeDirection":"DEPART","streetName":"Rue Vallières","absoluteDirection":"WEST","stayOn":false,"area":false,"bogusName":false,"lon":-71.0924706053318,"lat":48.44624012854088,"elevation":[]},{"distance":76.062,"relativeDirection":"LEFT","streetName":"Rue Éric","absoluteDirection":"SOUTH","stayOn":false,"area":false,"bogusName":false,"lon":-71.0929705,"lat":48.446187800000004,"elevation":[]},{"distance":13.264,"relativeDirection":"LEFT","streetName":"Rue Fillion","absoluteDirection":"EAST","stayOn":false,"area":false,"bogusName":false,"lon":-71.09298290000001,"lat":48.445503800000004,"elevation":[]}]}],"tooSloped":false},{"duration":475,"startTime":1522691376000,"endTime":1522691851000,"walkTime":292,"transitTime":181,"waitingTime":2,"walkDistance":362.7860977398726,"walkLimitExceeded":false,"elevationLost":0.0,"elevationGained":0.0,"transfers":0,"legs":[{"startTime":1522691376000,"endTime":1522691564000,"departureDelay":0,"arrivalDelay":0,"realTime":false,"distance":235.84199999999998,"pathway":false,"mode":"WALK","route":"","agencyTimeZoneOffset":-14400000,"interlineWithPreviousLeg":false,"from":{"name":"Origin","lon":-71.07852499,"lat":48.443416,"departure":1522691376000,"orig":"","vertexType":"NORMAL"},"to":{"name":"Sauvé / St-Albert","stopId":"1:681","stopCode":"681","lon":-71.079877,"lat":48.443248,"arrival":1522691564000,"departure":1522691565000,"zoneId":"NA","stopIndex":6,"stopSequence":7,"vertexType":"TRANSIT"},"legGeometry":{"points":"eutfHjmypLcAtDb@`@TJ\\LhCv@Wx@","length":7},"rentedBike":false,"transitLeg":false,"duration":188.0,"steps":[{"distance":76.813,"relativeDirection":"DEPART","streetName":"Boulevard Sainte-Geneviève","absoluteDirection":"NORTHWEST","stayOn":false,"area":false,"bogusName":false,"lon":-71.0781387826346,"lat":48.44387841675082,"elevation":[]},{"distance":133.438,"relativeDirection":"LEFT","streetName":"Rue Saint-Albert","absoluteDirection":"SOUTHWEST","stayOn":false,"area":false,"bogusName":false,"lon":-71.0790497,"lat":48.4442132,"elevation":[]},{"distance":25.591,"relativeDirection":"RIGHT","streetName":"Rue Sauvé","absoluteDirection":"NORTHWEST","stayOn":false,"area":false,"bogusName":false,"lon":-71.07962210000001,"lat":48.4430824,"elevation":[]}]},{"startTime":1522691565000,"endTime":1522691746000,"departureDelay":0,"arrivalDelay":0,"realTime":false,"distance":1014.6960108263203,"pathway":false,"mode":"BUS","route":"20","agencyName":"Société de Transport du Saguenay","agencyUrl":"http://ville.saguenay.ca/fr/services-aux-citoyens/transport-sts","agencyTimeZoneOffset":-14400000,"routeColor":"0000FF","routeType":3,"routeId":"1:20","routeTextColor":"FFFFFF","interlineWithPreviousLeg":false,"tripBlockId":"3","headsign":"Terminus Chicoutimi","agencyId":"0","tripId":"1:217201","serviceDate":"20180402","from":{"name":"Sauvé / St-Albert","stopId":"1:681","stopCode":"681","lon":-71.079877,"lat":48.443248,"arrival":1522691564000,"departure":1522691565000,"zoneId":"NA","stopIndex":6,"stopSequence":7,"vertexType":"TRANSIT"},"to":{"name":"Vallières / Éric","stopId":"1:686","stopCode":"686","lon":-71.092505,"lat":48.446308,"arrival":1522691746000,"departure":1522691747000,"zoneId":"NA","stopIndex":10,"stopSequence":11,"vertexType":"TRANSIT"},"legGeometry":{"points":"_qtfHnxypLSx@{A`FyBfHmDjJCDEVE`B?vFBjC@ZFX\\j@T^JVBNBV@RCbE?VCVy@nGCRCFGLKJQNSHaAZa@Pk@\\a@XZrAHp@@F","length":35},"routeShortName":"20","routeLongName":"Sainte-Claire","rentedBike":false,"transitLeg":true,"duration":181.0,"steps":[]},{"startTime":1522691747000,"endTime":1522691851000,"departureDelay":0,"arrivalDelay":0,"realTime":false,"distance":126.80499999999999,"pathway":false,"mode":"WALK","route":"","agencyTimeZoneOffset":-14400000,"interlineWithPreviousLeg":false,"from":{"name":"Vallières / Éric","stopId":"1:686","stopCode":"686","lon":-71.092505,"lat":48.446308,"arrival":1522691746000,"departure":1522691747000,"zoneId":"NA","stopIndex":10,"stopSequence":11,"vertexType":"TRANSIT"},"to":{"name":"Destination","lon":-71.092808,"lat":48.445295,"arrival":1522691851000,"orig":"","vertexType":"NORMAL"},"legGeometry":{"points":"_dufH~f|pL@B@DDf@@p@fC@?c@","length":7},"rentedBike":false,"transitLeg":false,"duration":104.0,"steps":[{"distance":37.479,"relativeDirection":"DEPART","streetName":"Rue Vallières","absoluteDirection":"WEST","stayOn":false,"area":false,"bogusName":false,"lon":-71.0924706053318,"lat":48.44624012854088,"elevation":[]},{"distance":76.062,"relativeDirection":"LEFT","streetName":"Rue Éric","absoluteDirection":"SOUTH","stayOn":false,"area":false,"bogusName":false,"lon":-71.0929705,"lat":48.446187800000004,"elevation":[]},{"distance":13.264,"relativeDirection":"LEFT","streetName":"Rue Fillion","absoluteDirection":"EAST","stayOn":false,"area":false,"bogusName":false,"lon":-71.09298290000001,"lat":48.445503800000004,"elevation":[]}]}],"tooSloped":false}]},"debugOutput":{"precalculationTime":15,"pathCalculationTime":16,"pathTimes":[11,2,3],"renderingTime":0,"totalTime":31,"timedOut":false},"elevationMetadata":{"ellipsoidToGeoidDifference":-28.885904201182168,"geoidElevation":false}}