{"requestParameters":{"date":"2018/04/02","walkSpeed":"1.33","walkReluctance":"2.0","fromPlace":"48.444937,-71.090682","maxWalkDistance":"3000","waitReluctance":"1.0","carSpeed":"33","numItineraries":"3","waitAtBeginningFactor":"0.4","mode":"TRANSIT,WALK","ignoreRealtimeUpdates":"false","stairsReluctance":"2.0","toPlace":"48.403727,-71.056775","time":"9:0:00"},"plan":{"date":1522674000000,"from":{"name":"Origin","lon":-71.090682,"lat":48.444937,"orig":"","vertexType":"NORMAL"},"to":{"name":"Destination","lon":-71.056775,"lat":48.403727,"orig":"","vertexType":"NORMAL"},"itineraries":[{"duration":2434,"startTime":1522675491000,"endTime":1522677925000,"walkTime":222,"transitTime":1910,"waitingTime":302,"walkDistance":279.86387217887415,"walkLimitExceeded":false,"elevationLost":0.0,"elevationGained":0.0,"transfers":1,"legs":[{"startTime":1522675491000,"endTime":1522675509000,"departureDelay":0,"arrivalDelay":0,"realTime":false,"distance":23.33,"pathway":false,"mode":"WALK","route":"","agencyTimeZoneOffset":-14400000,"interlineWithPreviousLeg":false,"from":{"name":"Origin","lon":-71.090682,"lat":48.444937,"departure":1522675491000,"orig":"","vertexType":"NORMAL"},"to":{"name":"St-Armand / Solange","stopId":"1:685","stopCode":"685","lon":-71.09082,"lat":48.445299,"arrival":1522675509000,"departure":1522675510000,"zoneId":"NA","stopIndex":9,"stopSequence":10,"vertexType":"TRANSIT"},"legGeometry":{"points":"c}tfHd{{pLIl@?@CJ","length":4},"rentedBike":false,"transitLeg":false,"duration":18.0,"steps":[{"distance":23.33,"relativeDirection":"DEPART","streetName":"Rue Saint-Armand","absoluteDirection":"WEST","stayOn":false,"area":false,"bogusName":false,"lon":-71.09058993233357,"lat":48.445148455280744,"elevation":[]}]},{"startTime":1522675510000,"endTime":1522676400000,"departureDelay":0,"arrivalDelay":0,"realTime":false,"distance":5960.116702935813,"pathway":false,"mode":"BUS","route":"20","agencyName":"Société de Transport du Saguenay","agencyUrl":"http://ville.saguenay.ca/fr/services-aux-citoyens/transport-sts","agencyTimeZoneOffset":-14400000,"routeColor":"0000FF","routeType":3,"routeId":"1:20","routeTextColor":"FFFFFF","interlineWithPreviousLeg":false,"tripBlockId":"1","headsign":"Terminus Chicoutimi","agencyId":"0","tripId":"1:217135","serviceDate":"20180402","from":{"name":"St-Armand / Solange","stopId":"1:685","stopCode":"685","lon":-71.09082,"lat":48.445299,"arrival":1522675509000,"departure":1522675510000,"zoneId":"NA","stopIndex":9,"stopSequence":10,"vertexType":"TRANSIT"},"to":{"name":"Terminus Chicoutimi","stopId":"1:1289","stopCode":"1289","lon":-71.066163,"lat":48.428677,"arrival":1522676400000,"departure":1522676700000,"zoneId":"NA","stopIndex":31,"stopSequence":32,"vertexType":"TRANSIT"},"legGeometry":{"points":"q}tfH||{pLCRCFGLKJQNSHaAZa@Pk@\\a@XZrAHp@@FDj@Bp@?~I@fHAd@C`@ERELA@GHMHi@PSBy@BW?YDMDC?OHULWVOXQXSb@~@~BJXF`@Fj@?VAvACv@e@hNGx@MdAQr@ILQ\\a@d@w@aCCQAO@ODOHQDSDWLoDRgGBMFMHIHAfBNDuA@wA?WGk@Ga@KY_A_CRc@PYNYUk@Q[O]KYC]_AaQYwF?W?Y?UBc@D_@d@{DNaAB]@O@]?}BbA?hA?A}I?iEEcEjBCzBEd@Cf@Gj@MZMb@S`Ag@DClAk@f@Qv@Ov@IlBCnBa@TCTBjBPH@LiCDe@Lw@|@cELo@D[Dk@@[@uC@SBUDQFSt@yAHIr@eAjAaB`AqA^i@p@kAVc@\\cAr@eBv@aB|B_CJSDKLe@NeAJaAHeBBi@F{AaFe@c@IcDeAWtBOfAERGLIHIFMBa@NOQSOUGOCW?UFMHa@XUHQ?QIQOIM[g@rCmFhHqN~@eBr@cAt@_Av@}@RQPMz@k@tAe@REZG^Af@@X@VF`@Jn@XbClAr@Xt\\`PrAb@pA^hBTjAFj@Pb@JPHLLJNJRFXDT?X?ZEVEVKTMNMHMFOB}DWSGOSYcAN}FFkAF}DJyDPwGj@_QjAN~ALIpBGVITe@@","length":235},"routeShortName":"20","routeLongName":"Sainte-Claire","rentedBike":false,"transitLeg":true,"duration":890.0,"steps":[]},{"startTime":1522676700000,"endTime":1522677720000,"departureDelay":0,"arrivalDelay":0,"realTime":false,"distance":5167.426578717567,"pathway":false,"mode":"BUS","route":"175","agencyName":"Société de Transport du Saguenay","agencyUrl":"http://ville.saguenay.ca/fr/services-aux-citoyens/transport-sts","agencyTimeZoneOffset":-14400000,"routeColor":"FF00FF","routeType":3,"routeId":"1:175","routeTextColor":"FFFFFF","interlineWithPreviousLeg":false,"tripBlockId":"6","headsign":"Costco","agencyId":"0","tripId":"1:217291","serviceDate":"20180402","from":{"name":"Terminus Chicoutimi","stopId":"1:1289","stopCode":"1289","lon":-71.066163,"lat":48.428677,"arrival":1522676400000,"departure":1522676700000,"zoneId":"NA","stopIndex":0,"stopSequence":1,"vertexType":"TRANSIT"},"to":{"name":"Place du Royaume (Saguenéens)","stopId":"1:1294","stopCode":"1294","lon":-71.057691,"lat":48.402355,"arrival":1522677720000,"departure":1522677721000,"zoneId":"NA","stopIndex":20,"stopSequence":21,"vertexType":"TRANSIT"},"legGeometry":{"points":"kvqfH~awpL~CgBbAqa@FwCBkAOsHAg@bAYUwMKoE@mB@kJ@iFbEf@xEj@iCtYp@r@z@`ABBvHtHXRx@l@VwAvAgB\\qBIuAC]g@yEzDuLbBbBvAxAMx@|@v@`A~@Xw@~D~DPxFZtA~ApE`N{LpFmEb@[ROl@[vDQXKfA[|@q@fAsBlEmMr@sBhCsKz@dAjB|@dM`GzCvAXrCr@~Gx@]PEr@ObACn@FrBb@|@Ch@Kx@U~HsB^KZ|DJpII~Fa@rFUzBi@bD","length":75},"routeShortName":"175","routeLongName":"Term. Chic / Costco","rentedBike":false,"transitLeg":true,"duration":1020.0,"steps":[]},{"startTime":1522677721000,"endTime":1522677925000,"departureDelay":0,"arrivalDelay":0,"realTime":false,"distance":256.485,"pathway":false,"mode":"WALK","route":"","agencyTimeZoneOffset":-14400000,"interlineWithPreviousLeg":false,"from":{"name":"Place du Royaume (Saguenéens)","stopId":"1:1294","stopCode":"1294","lon":-71.057691,"lat":48.402355,"arrival":1522677720000,"departure":1522677721000,"zoneId":"NA","stopIndex":20,"stopSequence":21,"vertexType":"TRANSIT"},"to":{"name":"Destination","lon":-71.056775,"lat":48.403727,"arrival":1522677925000,"orig":"","vertexType":"NORMAL"},"legGeometry":{"points":"iqlfHxmupLa@dCMh@GM[m@i@aAc@a@YYYWs@q@YYSS","length":12},"rentedBike":false,"transitLeg":false,"duration":204.0,"steps":[{"distance":70.008,"relativeDirection":"DEPART","streetName":"Rue des Saguenéens","absoluteDirection":"WEST","stayOn":false,"area":false,"bogusName":false,"lon":-71.05772328170832,"lat":48.402297506554895,"elevation":[]},{"distance":186.477,"relativeDirection":"RIGHT","streetName":"service road","absoluteDirection":"NORTHEAST","stayOn":false,"area":false,"bogusName":true,"lon":-71.0586019,"lat":48.4025327,"elevation":[]}]}],"tooSloped":false},{"duration":2714,"startTime":1522675511000,"endTime":1522678225000,"walkTime":783,"transitTime":1629,"waitingTime":302,"walkDistance":987.0117142781083,"walkLimitExceeded":false,"elevationLost":0.0,"elevationGained":0.0,"transfers":1,"legs":[{"startTime":1522675511000,"endTime":1522676090000,"departureDelay":0,"arrivalDelay":0,"realTime":false,"distance":730.2909999999999,"pathway":false,"mode":"WALK","route":"","agencyTimeZoneOffset":-14400000,"interlineWithPreviousLeg":false,"from":{"name":"Origin","lon":-71.090682,"lat":48.444937,"departure":1522675511000,"orig":"","vertexType":"NORMAL"},"to":{"name":"boul. Ste-Geneviève / Dieppe","stopId":"1:2010","stopCode":"2010","lon":-71.083056,"lat":48.446404,"arrival":1522676090000,"departure":1522676091000,"zoneId":"NA","stopIndex":30,"stopSequence":31,"vertexType":"TRANSIT"},"legGeometry":{"points":"c}tfHd{{pLp@aGAe@?gDAS?IQs@S[A?e@u@AICqDEyFNIA{A?YUSmAD{BFAkAMiAa@uBj@s@","length":23},"alerts":[{"alertHeaderText":"Unpaved surface"}],"rentedBike":false,"transitLeg":false,"duration":579.0,"steps":[{"distance":182.608,"relativeDirection":"DEPART","streetName":"Rue Saint-Armand","absoluteDirection":"EAST","stayOn":false,"area":false,"bogusName":false,"lon":-71.09058993233357,"lat":48.445148455280744,"elevation":[]},{"distance":70.658,"relativeDirection":"SLIGHTLY_LEFT","streetName":"Rue Saint-Denis","absoluteDirection":"NORTHEAST","stayOn":false,"area":false,"bogusName":false,"lon":-71.08816850000001,"lat":48.4449102,"elevation":[]},{"distance":161.772,"relativeDirection":"RIGHT","streetName":"Rue Saint-Armand","absoluteDirection":"EAST","stayOn":false,"area":false,"bogusName":false,"lon":-71.0874465,"lat":48.445303900000006,"elevation":[]},{"distance":9.852,"relativeDirection":"RIGHT","streetName":"Rue Sainte-Marie Sud","absoluteDirection":"SOUTHEAST","stayOn":false,"area":false,"bogusName":false,"lon":-71.0852564,"lat":48.4453605,"elevation":[],"alerts":[{"alertHeaderText":"Unpaved surface"}]},{"distance":42.909,"relativeDirection":"LEFT","streetName":"Rue Sauvé","absoluteDirection":"EAST","stayOn":false,"area":false,"bogusName":false,"lon":-71.08520060000001,"lat":48.445280000000004,"elevation":[]},{"distance":126.56799999999998,"relativeDirection":"LEFT","streetName":"Rue Pasteur Sud","absoluteDirection":"NORTHEAST","stayOn":false,"area":false,"bogusName":false,"lon":-71.0846193,"lat":48.4452944,"elevation":[]},{"distance":104.537,"relativeDirection":"RIGHT","streetName":"Rue de Dieppe","absoluteDirection":"EAST","stayOn":false,"area":false,"bogusName":false,"lon":-71.0845888,"lat":48.4464106,"elevation":[]},{"distance":31.387,"relativeDirection":"RIGHT","streetName":"Boulevard Sainte-Geneviève","absoluteDirection":"SOUTHEAST","stayOn":false,"area":false,"bogusName":false,"lon":-71.083242,"lat":48.446665800000005,"elevation":[]}]},{"startTime":1522676091000,"endTime":1522676400000,"departureDelay":0,"arrivalDelay":0,"realTime":false,"distance":2506.8372204845045,"pathway":false,"mode":"BUS","route":"21","agencyName":"Société de Transport du Saguenay","agencyUrl":"http://ville.saguenay.ca/fr/services-aux-citoyens/transport-sts","agencyTimeZoneOffset":-14400000,"routeColor":"556B2F","routeType":3,"routeId":"1:21","routeTextColor":"FFFFFF","interlineWithPreviousLeg":false,"tripBlockId":"2","headsign":"Terminus Chicoutimi","agencyId":"0","tripId":"1:217161","serviceDate":"20180402","from":{"name":"boul. Ste-Geneviève / Dieppe","stopId":"1:2010","stopCode":"2010","lon":-71.083056,"lat":48.446404,"arrival":1522676090000,"departure":1522676091000,"zoneId":"NA","stopIndex":30,"stopSequence":31,"vertexType":"TRANSIT"},"to":{"name":"Terminus Chicoutimi","stopId":"1:1289","stopCode":"1289","lon":-71.066163,"lat":48.428677,"arrival":1522676400000,"departure":1522676700000,"zoneId":"NA","stopIndex":34,"stopSequence":35,"vertexType":"TRANSIT"},"legGeometry":{"points":"geufHtkzpLdBwBt@cAbAmBx@eBj@eB`CoHpCyJbAmCtAuCZg@|@gBxAsCrCmFhHqN~@eBr@cAt@_Av@}@RQPMz@k@tAe@REZG^Af@@X@VF`@Jn@XbClAr@Xt\\`PrAb@pA^hBTjAFj@Pb@JPHLLJNJRFXDT?X?ZEVEVKTMNMHMFOB}DWSGOSYcAN}FFkAF}DJyDPwGvAHVyL","length":66},"routeShortName":"21","routeLongName":"Boul. Ste-Geneviève/Élie","rentedBike":false,"transitLeg":true,"duration":309.0,"steps":[]},{"startTime":1522676700000,"endTime":1522678020000,"departureDelay":0,"arrivalDelay":0,"realTime":false,"distance":5637.162289945865,"pathway":false,"mode":"BUS","route":"15","agencyName":"Société de Transport du Saguenay","agencyUrl":"http://ville.saguenay.ca/fr/services-aux-citoyens/transport-sts","agencyTimeZoneOffset":-14400000,"routeColor":"FF00FF","routeType":3,"routeId":"1:15","routeTextColor":"FFFFFF","interlineWithPreviousLeg":false,"tripBlockId":"31","headsign":"Talbot / Barrette","agencyId":"0","tripId":"1:218128","serviceDate":"20180402","from":{"name":"Terminus Chicoutimi","stopId":"1:1289","stopCode":"1289","lon":-71.066163,"lat":48.428677,"arrival":1522676400000,"departure":1522676700000,"zoneId":"NA","stopIndex":0,"stopSequence":1,"vertexType":"TRANSIT"},"to":{"name":"Place du Royaume (Saguenéens)","stopId":"1:1294","stopCode":"1294","lon":-71.057691,"lat":48.402355,"arrival":1522678020000,"departure":1522678021000,"zoneId":"NA","stopIndex":24,"stopSequence":25,"vertexType":"TRANSIT"},"legGeometry":{"points":"evqfHpbwpLPiCjKx@HiEZkS\\aSN_K^eIrBpBvIpIr@r@\\mBfAaA`@gBOkB_@uF|DyL|DpDQ|@|@z@bA`ATw@dD~Ch@fA@`E~AjGuH`Iy@bBi@dCbEdEjJlJ`HbHlJpJ|J~JdAfALzDNzDrAdBrEKvBEbCv@d@TvFlC|DlBpMlGrB`AM}@hAwEC{B]oBiBmBsH_@_K{H`EgIvCaGfEoItDsH~DeItC{FnBoL","length":60},"routeShortName":"15","routeLongName":"Term. Chic / Costco","rentedBike":false,"transitLeg":true,"duration":1320.0,"steps":[]},{"startTime":1522678021000,"endTime":1522678225000,"departureDelay":0,"arrivalDelay":0,"realTime":false,"distance":256.485,"pathway":false,"mode":"WALK","route":"","agencyTimeZoneOffset":-14400000,"interlineWithPreviousLeg":false,"from":{"name":"Place du Royaume (Saguenéens)","stopId":"1:1294","stopCode":"1294","lon":-71.057691,"lat":48.402355,"arrival":1522678020000,"departure":1522678021000,"zoneId":"NA","stopIndex":24,"stopSequence":25,"vertexType":"TRANSIT"},"to":{"name":"Destination","lon":-71.056775,"lat":48.403727,"arrival":1522678225000,"orig":"","vertexType":"NORMAL"},"legGeometry":{"points":"iqlfHxmupLa@dCMh@GM[m@i@aAc@a@YYYWs@q@YYSS","length":12},"rentedBike":false,"transitLeg":false,"duration":204.0,"steps":[{"distance":70.008,"relativeDirection":"DEPART","streetName":"Rue des Saguenéens","absoluteDirection":"WEST","stayOn":false,"area":false,"bogusName":false,"lon":-71.05772328170832,"lat":48.402297506554895,"elevation":[]},{"distance":186.477,"relativeDirection":"RIGHT","streetName":"service road","absoluteDirection":"NORTHEAST","stayOn":false,"area":false,"bogusName":true,"lon":-71.0586019,"lat":48.4025327,"elevation":[]}]}],"tooSloped":false},{"duration":2434,"startTime":1522677291000,"endTime":1522679725000,"walkTime":222,"transitTime":1910,"waitingTime":302,"walkDistance":279.86387217887415,"walkLimitExceeded":false,"elevationLost":0.0,"elevationGained":0.0,"transfers":1,"legs":[{"startTime":1522677291000,"endTime":1522677309000,"departureDelay":0,"arrivalDelay":0,"realTime":false,"distance":23.33,"pathway":false,"mode":"WALK","route":"","agencyTimeZoneOffset":-14400000,"interlineWithPreviousLeg":false,"from":{"name":"Origin","lon":-71.090682,"lat":48.444937,"departure":1522677291000,"orig":"","vertexType":"NORMAL"},"to":{"name":"St-Armand / Solange","stopId":"1:685","stopCode":"685","lon":-71.09082,"lat":48.445299,"arrival":1522677309000,"departure":1522677310000,"zoneId":"NA","stopIndex":9,"stopSequence":10,"vertexType":"TRANSIT"},"legGeometry":{"points":"c}tfHd{{pLIl@?@CJ","length":4},"rentedBike":false,"transitLeg":false,"duration":18.0,"steps":[{"distance":23.33,"relativeDirection":"DEPART","streetName":"Rue Saint-Armand","absoluteDirection":"WEST","stayOn":false,"area":false,"bogusName":false,"lon":-71.09058993233357,"lat":48.445148455280744,"elevation":[]}]},{"startTime":1522677310000,"endTime":1522678200000,"departureDelay":0,"arrivalDelay":0,"realTime":false,"distance":5960.116702935813,"pathway":false,"mode":"BUS","route":"20","agencyName":"Société de Transport du Saguenay","agencyUrl":"http://ville.saguenay.ca/fr/services-aux-citoyens/transport-sts","agencyTimeZoneOffset":-14400000,"routeColor":"0000FF","routeType":3,"routeId":"1:20","routeTextColor":"FFFFFF","interlineWithPreviousLeg":false,"tripBlockId":"3","headsign":"Terminus Chicoutimi","agencyId":"0","tripId":"1:217193","serviceDate":"20180402","from":{"name":"St-Armand / Solange","stopId":"1:685","stopCode":"685","lon":-71.09082,"lat":48.445299,"arrival":1522677309000,"departure":1522677310000,"zoneId":"NA","stopIndex":9,"stopSequence":10,"vertexType":"TRANSIT"},"to":{"name":"Terminus Chicoutimi","stopId":"1:1289","stopCode":"1289","lon":-71.066163,"lat":48.428677,"arrival":1522678200000,"departure":1522678500000,"zoneId":"NA","stopIndex":31,"stopSequence":32,"vertexType":"TRANSIT"},"legGeometry":{"points":"q}tfH||{pLCRCFGLKJQNSHaAZa@Pk@\\a@XZrAHp@@FDj@Bp@?~I@fHAd@C`@ERELA@GHMHi@PSBy@BW?YDMDC?OHULWVOXQXSb@~@~BJXF`@Fj@?VAvACv@e@hNGx@MdAQr@ILQ\\a@d@w@aCCQAO@ODOHQDSDWLoDRgGBMFMHIHAfBNDuA@wA?WGk@Ga@KY_A_CRc@PYNYUk@Q[O]KYC]_AaQYwF?W?Y?UBc@D_@d@{DNaAB]@O@]?}BbA?hA?A}I?iEEcEjBCzBEd@Cf@Gj@MZMb@S`Ag@DClAk@f@Qv@Ov@IlBCnBa@TCTBjBPH@LiCDe@Lw@|@cELo@D[Dk@@[@uC@SBUDQFSt@yAHIr@eAjAaB`AqA^i@p@kAVc@\\cAr@eBv@aB|B_CJSDKLe@NeAJaAHeBBi@F{AaFe@c@IcDeAWtBOfAERGLIHIFMBa@NOQSOUGOCW?UFMHa@XUHQ?QIQOIM[g@rCmFhHqN~@eBr@cAt@_Av@}@RQPMz@k@tAe@REZG^Af@@X@VF`@Jn@XbClAr@Xt\\`PrAb@pA^hBTjAFj@Pb@JPHLLJNJRFXDT?X?ZEVEVKTMNMHMFOB}DWSGOSYcAN}FFkAF}DJyDPwGj@_QjAN~ALIpBGVITe@@","length":235},"routeShortName":"20","routeLongName":"Sainte-Claire","rentedBike":false,"transitLeg":true,"duration":890.0,"steps":[]},{"startTime":1522678500000,"endTime":1522679520000,"departureDelay":0,"arrivalDelay":0,"realTime":false,"distance":5167.426578717567,"pathway":false,"mode":"BUS","route":"175","agencyName":"Société de Transport du Saguenay","agencyUrl":"http://ville.saguenay.ca/fr/services-aux-citoyens/transport-sts","agencyTimeZoneOffset":-14400000,"routeColor":"FF00FF","routeType":3,"routeId":"1:175","routeTextColor":"FFFFFF","interlineWithPreviousLeg":false,"tripBlockId":"7","headsign":"Costco","agencyId":"0","tripId":"1:217328","serviceDate":"20180402","from":{"name":"Terminus Chicoutimi","stopId":"1:1289","stopCode":"1289","lon":-71.066163,"lat":48.428677,"arrival":1522678200000,"departure":1522678500000,"zoneId":"NA","stopIndex":0,"stopSequence":1,"vertexType":"TRANSIT"},"to":{"name":"Place du Royaume (Saguenéens)","stopId":"1:1294","stopCode":"1294","lon":-71.057691,"lat":48.402355,"arrival":1522679520000,"departure":1522679521000,"zoneId":"NA","stopIndex":20,"stopSequence":21,"vertexType":"TRANSIT"},"legGeometry":{"points":"kvqfH~awpL~CgBbAqa@FwCBkAOsHAg@bAYUwMKoE@mB@kJ@iFbEf@xEj@iCtYp@r@z@`ABBvHtHXRx@l@VwAvAgB\\qBIuAC]g@yEzDuLbBbBvAxAMx@|@v@`A~@Xw@~D~DPxFZtA~ApE`N{LpFmEb@[ROl@[vDQXKfA[|@q@fAsBlEmMr@sBhCsKz@dAjB|@dM`GzCvAXrCr@~Gx@]PEr@ObACn@FrBb@|@Ch@Kx@U~HsB^KZ|DJpII~Fa@rFUzBi@bD","length":75},"routeShortName":"175","routeLongName":"Term. Chic / Costco","rentedBike":false,"transitLeg":true,"duration":1020.0,"steps":[]},{"startTime":1522679521000,"endTime":1522679725000,"departureDelay":0,"arrivalDelay":0,"realTime":false,"distance":256.485,"pathway":false,"mode":"WALK","route":"","agencyTimeZoneOffset":-14400000,"interlineWithPreviousLeg":false,"from":{"name":"Place du Royaume (Saguenéens)","stopId":"1:1294","stopCode":"1294","lon":-71.057691,"lat":48.402355,"arrival":1522679520000,"departure":1522679521000,"zoneId":"NA","stopIndex":20,"stopSequence":21,"vertexType":"TRANSIT"},"to":{"name":"Destination","lon":-71.056775,"lat":48.403727,"arrival":1522679725000,"orig":"","vertexType":"NORMAL"},"legGeometry":{"points":"iqlfHxmupLa@dCMh@GM[m@i@aAc@a@YYYWs@q@YYSS","length":12},"rentedBike":false,"transitLeg":false,"duration":204.0,"steps":[{"distance":70.008,"relativeDirection":"DEPART","streetName":"Rue des Saguenéens","absoluteDirection":"WEST","stayOn":false,"area":false,"bogusName":false,"lon":-71.05772328170832,"lat":48.402297506554895,"elevation":[]},{"distance":186.477,"relativeDirection":"RIGHT","streetName":"service road","absoluteDirection":"NORTHEAST","stayOn":false,"area":false,"bogusName":true,"lon":-71.0586019,"lat":48.4025327,"elevation":[]}]}],"tooSloped":false}]},"debugOutput":{"precalculationTime":24,"pathCalculationTime":23,"pathTimes":[14,4,5],"renderingTime":0,"totalTime":47,"timedOut":false},"elevationMetadata":{"ellipsoidToGeoidDifference":-28.885904201182168,"geoidElevation":false}}