{"requestParameters":{"date":"2018/04/02","walkSpeed":"1.33","walkReluctance":"2.0","fromPlace":"48.457944,-71.10299","maxWalkDistance":"3000","waitReluctance":"1.0","carSpeed":"33","numItineraries":"3","waitAtBeginningFactor":"0.4","mode":"TRANSIT,WALK","ignoreRealtimeUpdates":"false","stairsReluctance":"2.0","toPlace":"48.44718,-71.10228","time":"15:15:00"},"plan":{"date":1522696500000,"from":{"name":"Origin","lon":-71.10299,"lat":48.457944,"orig":"","vertexType":"NORMAL"},"to":{"name":"Destination","lon":-71.10228,"lat":48.44718,"orig":"","vertexType":"NORMAL"},"itineraries":[{"duration":1465,"startTime":1522696500000,"endTime":1522697965000,"walkTime":1465,"transitTime":0,"waitingTime":0,"walkDistance":1882.4847819431816,"walkLimitExceeded":false,"elevationLost":0.0,"elevationGained":0.0,"transfers":0,"legs":[{"startTime":1522696500000,"endTime":1522697965000,"departureDelay":0,"arrivalDelay":0,"realTime":false,"distance":1882.1220000000003,"pathway":false,"mode":"WALK","route":"","agencyTimeZoneOffset":-14400000,"interlineWithPreviousLeg":false,"from":{"name":"Origin","lon":-71.10299,"lat":48.457944,"departure":1522696500000,"orig":"","vertexType":"NORMAL"},"to":{"name":"Destination","lon":-71.10228,"lat":48.44718,"arrival":1522697965000,"orig":"","vertexType":"NORMAL"},"legGeometry":{"points":"mowfHbf~pLX{BdBkARt@ZrAp@tCfB`IPj@`AhAd@XNDzA\\F@xA^l@\\JFFFPLNNDFHFD@LF\\HZHl@{G`@uD~Br@r@}FhA`@nCdAfCd@xBRb@c@|An@`@\\PtARDn@o@zAqA\\OVOPMJEDEFCDGLSPULU?ADK~@~@JHJDHBPBd@@x@@?Y@gD@IMAEEGMEOCS","length":67},"rentedBike":false,"transitLeg":false,"duration":1465.0,"steps":[{"distance":47.92,"relativeDirection":"DEPART","streetName":"service road","absoluteDirection":"EAST","stayOn":false,"area":false,"bogusName":false,"lon":-71.102574,"lat":48.45831,"elevation":[]},{"distance":63.203,"relativeDirection":"RIGHT","streetName":"Rue des Fougères","absoluteDirection":"SOUTHEAST","stayOn":false,"area":false,"bogusName":false,"lon":-71.10195200000001,"lat":48.4581852,"elevation":[]},{"distance":573.7090000000001,"relativeDirection":"RIGHT","streetName":"Rue des Épervières","absoluteDirection":"SOUTHWEST","stayOn":false,"area":false,"bogusName":false,"lon":-71.1015776,"lat":48.4576739,"elevation":[]},{"distance":177.544,"relativeDirection":"LEFT","streetName":"Boulevard Sainte-Geneviève","absoluteDirection":"EAST","stayOn":false,"area":false,"bogusName":false,"lon":-71.1063082,"lat":48.454059900000004,"elevation":[]},{"distance":73.975,"relativeDirection":"RIGHT","streetName":"Rue Dumais","absoluteDirection":"SOUTH","stayOn":false,"area":false,"bogusName":false,"lon":-71.10397780000001,"lat":48.453659200000004,"elevation":[]},{"distance":515.768,"relativeDirection":"LEFT","streetName":"path","absoluteDirection":"EAST","stayOn":false,"area":false,"bogusName":true,"lon":-71.1042335,"lat":48.453015900000004,"elevation":[]},{"distance":195.954,"relativeDirection":"LEFT","streetName":"Rue Chapleau","absoluteDirection":"SOUTHEAST","stayOn":false,"area":false,"bogusName":false,"lon":-71.10444170000001,"lat":48.449363700000006,"elevation":[]},{"distance":125.85199999999999,"relativeDirection":"RIGHT","streetName":"Rue Sainte-Catherine","absoluteDirection":"SOUTHWEST","stayOn":false,"area":false,"bogusName":false,"lon":-71.1030571,"lat":48.447883000000004,"elevation":[]},{"distance":75.697,"relativeDirection":"LEFT","streetName":"path","absoluteDirection":"EAST","stayOn":false,"area":false,"bogusName":true,"lon":-71.10351870000001,"lat":48.4468297,"elevation":[]},{"distance":32.5,"relativeDirection":"LEFT","streetName":"Rue de Courcelette","absoluteDirection":"NORTH","stayOn":false,"area":false,"bogusName":false,"lon":-71.1024929,"lat":48.4468085,"elevation":[]}]}],"tooSloped":false},{"duration":1390,"startTime":1522696947000,"endTime":1522698337000,"walkTime":1318,"transitTime":70,"waitingTime":2,"walkDistance":1694.9923759301569,"walkLimitExceeded":false,"elevationLost":0.0,"elevationGained":0.0,"transfers":0,"legs":[{"startTime":1522696947000,"endTime":1522697509000,"departureDelay":0,"arrivalDelay":0,"realTime":false,"distance":721.3439999999998,"pathway":false,"mode":"WALK","route":"","agencyTimeZoneOffset":-14400000,"interlineWithPreviousLeg":false,"from":{"name":"Origin","lon":-71.10299,"lat":48.457944,"departure":1522696947000,"orig":"","vertexType":"NORMAL"},"to":{"name":"boul. Ste-Geneviève / Épervières","stopId":"1:722","stopCode":"722","lon":-71.106817,"lat":48.454063,"arrival":1522697509000,"departure":1522697510000,"zoneId":"NA","stopIndex":23,"stopSequence":24,"vertexType":"TRANSIT"},"legGeometry":{"points":"mowfHbf~pLX{BdBkARt@ZrAp@tCfB`IPj@`AhAd@XNDzA\\F@xA^l@\\JFFFPLNNDFHFD@LF\\HZHO~A","length":26},"rentedBike":false,"transitLeg":false,"duration":562.0,"steps":[{"distance":47.92,"relativeDirection":"DEPART","streetName":"service road","absoluteDirection":"EAST","stayOn":false,"area":false,"bogusName":false,"lon":-71.102574,"lat":48.45831,"elevation":[]},{"distance":63.203,"relativeDirection":"RIGHT","streetName":"Rue des Fougères","absoluteDirection":"SOUTHEAST","stayOn":false,"area":false,"bogusName":false,"lon":-71.10195200000001,"lat":48.4581852,"elevation":[]},{"distance":573.7090000000001,"relativeDirection":"RIGHT","streetName":"Rue des Épervières","absoluteDirection":"SOUTHWEST","stayOn":false,"area":false,"bogusName":false,"lon":-71.1015776,"lat":48.4576739,"elevation":[]},{"distance":36.512,"relativeDirection":"RIGHT","streetName":"Boulevard Sainte-Geneviève","absoluteDirection":"WEST","stayOn":false,"area":false,"bogusName":false,"lon":-71.1063082,"lat":48.454059900000004,"elevation":[]}]},{"startTime":1522697510000,"endTime":1522697580000,"departureDelay":0,"arrivalDelay":0,"realTime":false,"distance":785.5619810190636,"pathway":false,"mode":"BUS","route":"21","agencyName":"Société de Transport du Saguenay","agencyUrl":"http://ville.saguenay.ca/fr/services-aux-citoyens/transport-sts","agencyTimeZoneOffset":-14400000,"routeColor":"556B2F","routeType":3,"routeId":"1:21","routeTextColor":"FFFFFF","interlineWithPreviousLeg":false,"tripBlockId":"2","headsign":"Terminus Chicoutimi","agencyId":"0","tripId":"1:217173","serviceDate":"20180402","from":{"name":"boul. Ste-Geneviève / Épervières","stopId":"1:722","stopCode":"722","lon":-71.106817,"lat":48.454063,"arrival":1522697509000,"departure":1522697510000,"zoneId":"NA","stopIndex":23,"stopSequence":24,"vertexType":"TRANSIT"},"to":{"name":"boul. Ste-Geneviève / Ste-Agnès","stopId":"1:724","stopCode":"724","lon":-71.096512,"lat":48.452279,"arrival":1522697580000,"departure":1522697581000,"zoneId":"NA","stopIndex":26,"stopSequence":27,"vertexType":"TRANSIT"},"legGeometry":{"points":"iuvfHn`_qLN_BHm@fAeLd@{Et@uHZyC~@sJjAyL","length":9},"routeShortName":"21","routeLongName":"Boul. Ste-Geneviève/Élie","rentedBike":false,"transitLeg":true,"duration":70.0,"steps":[]},{"startTime":1522697581000,"endTime":1522698337000,"departureDelay":0,"arrivalDelay":0,"realTime":false,"distance":973.3480000000002,"pathway":false,"mode":"WALK","route":"","agencyTimeZoneOffset":-14400000,"interlineWithPreviousLeg":false,"from":{"name":"boul. Ste-Geneviève / Ste-Agnès","stopId":"1:724","stopCode":"724","lon":-71.096512,"lat":48.452279,"arrival":1522697580000,"departure":1522697581000,"zoneId":"NA","stopIndex":26,"stopSequence":27,"vertexType":"TRANSIT"},"to":{"name":"Destination","lon":-71.10228,"lat":48.44718,"arrival":1522698337000,"orig":"","vertexType":"NORMAL"},"legGeometry":{"points":"gjvfH~_}pLLoA^H|AHx@NrAvAd@f@rBbBhAp@l@Tn@P`@d@NVf@Vd@?n@APELGPSt@kApA~CHZDPD\\A^Cf@GxAAd@|@HNBPJJHHPFR?XA^?PUtH?@","length":39},"alerts":[{"alertHeaderText":"Unpaved surface"}],"rentedBike":false,"transitLeg":false,"duration":756.0,"steps":[{"distance":30.494,"relativeDirection":"DEPART","streetName":"Boulevard Sainte-Geneviève","absoluteDirection":"EAST","stayOn":false,"area":false,"bogusName":false,"lon":-71.0964782268788,"lat":48.45236365230264,"elevation":[]},{"distance":382.70799999999997,"relativeDirection":"RIGHT","streetName":"Rue Sainte-Agnès","absoluteDirection":"SOUTH","stayOn":false,"area":false,"bogusName":false,"lon":-71.0960785,"lat":48.4522935,"elevation":[]},{"distance":157.036,"relativeDirection":"CONTINUE","streetName":"Rue Vallières","absoluteDirection":"SOUTHWEST","stayOn":false,"area":false,"bogusName":false,"lon":-71.09803070000001,"lat":48.449175800000006,"elevation":[],"alerts":[{"alertHeaderText":"Unpaved surface"}]},{"distance":179.559,"relativeDirection":"RIGHT","streetName":"Rue Chapleau","absoluteDirection":"SOUTHWEST","stayOn":false,"area":false,"bogusName":false,"lon":-71.09771520000001,"lat":48.4479428,"elevation":[]},{"distance":223.551,"relativeDirection":"LEFT","streetName":"Rue de Courcelette","absoluteDirection":"SOUTH","stayOn":false,"area":false,"bogusName":false,"lon":-71.09989730000001,"lat":48.4475081,"elevation":[]}]}],"tooSloped":false},{"duration":1390,"startTime":1522698747000,"endTime":1522700137000,"walkTime":1318,"transitTime":70,"waitingTime":2,"walkDistance":1694.9923759301569,"walkLimitExceeded":false,"elevationLost":0.0,"elevationGained":0.0,"transfers":0,"legs":[{"startTime":1522698747000,"endTime":1522699309000,"departureDelay":0,"arrivalDelay":0,"realTime":false,"distance":721.3439999999998,"pathway":false,"mode":"WALK","route":"","agencyTimeZoneOffset":-14400000,"interlineWithPreviousLeg":false,"from":{"name":"Origin","lon":-71.10299,"lat":48.457944,"departure":1522698747000,"orig":"","vertexType":"NORMAL"},"to":{"name":"boul. Ste-Geneviève / Épervières","stopId":"1:722","stopCode":"722","lon":-71.106817,"lat":48.454063,"arrival":1522699309000,"departure":1522699310000,"zoneId":"NA","stopIndex":23,"stopSequence":24,"vertexType":"TRANSIT"},"legGeometry":{"points":"mowfHbf~pLX{BdBkARt@ZrAp@tCfB`IPj@`AhAd@XNDzA\\F@xA^l@\\JFFFPLNNDFHFD@LF\\HZHO~A","length":26},"rentedBike":false,"transitLeg":false,"duration":562.0,"steps":[{"distance":47.92,"relativeDirection":"DEPART","streetName":"service road","absoluteDirection":"EAST","stayOn":false,"area":false,"bogusName":false,"lon":-71.102574,"lat":48.45831,"elevation":[]},{"distance":63.203,"relativeDirection":"RIGHT","streetName":"Rue des Fougères","absoluteDirection":"SOUTHEAST","stayOn":false,"area":false,"bogusName":false,"lon":-71.10195200000001,"lat":48.4581852,"elevation":[]},{"distance":573.7090000000001,"relativeDirection":"RIGHT","streetName":"Rue des Épervières","absoluteDirection":"SOUTHWEST","stayOn":false,"area":false,"bogusName":false,"lon":-71.1015776,"lat":48.4576739,"elevation":[]},{"distance":36.512,"relativeDirection":"RIGHT","streetName":"Boulevard Sainte-Geneviève","absoluteDirection":"WEST","stayOn":false,"area":false,"bogusName":false,"lon":-71.1063082,"lat":48.454059900000004,"elevation":[]}]},{"startTime":1522699310000,"endTime":1522699380000,"departureDelay":0,"arrivalDelay":0,"realTime":false,"distance":785.5619810190636,"pathway":false,"mode":"BUS","route":"21","agencyName":"Société de Transport du Saguenay","agencyUrl":"http://ville.saguenay.ca/fr/services-aux-citoyens/transport-sts","agencyTimeZoneOffset":-14400000,"routeColor":"556B2F","routeType":3,"routeId":"1:21","routeTextColor":"FFFFFF","interlineWithPreviousLeg":false,"tripBlockId":"2","headsign":"Terminus Chicoutimi","agencyId":"0","tripId":"1:217174","serviceDate":"20180402","from":{"name":"boul. Ste-Geneviève / Épervières","stopId":"1:722","stopCode":"722","lon":-71.106817,"lat":48.454063,"arrival":1522699309000,"departure":1522699310000,"zoneId":"NA","stopIndex":23,"stopSequence":24,"vertexType":"TRANSIT"},"to":{"name":"boul. Ste-Geneviève / Ste-Agnès","stopId":"1:724","stopCode":"724","lon":-71.096512,"lat":48.452279,"arrival":1522699380000,"departure":1522699381000,"zoneId":"NA","stopIndex":26,"stopSequence":27,"vertexType":"TRANSIT"},"legGeometry":{"points":"iuvfHn`_qLN_BHm@fAeLd@{Et@uHZyC~@sJjAyL","length":9},"routeShortName":"21","routeLongName":"Boul. Ste-Geneviève/Élie","rentedBike":false,"transitLeg":true,"duration":70.0,"steps":[]},{"startTime":1522699381000,"endTime":1522700137000,"departureDelay":0,"arrivalDelay":0,"realTime":false,"distance":973.3480000000002,"pathway":false,"mode":"WALK","route":"","agencyTimeZoneOffset":-14400000,"interlineWithPreviousLeg":false,"from":{"name":"boul. Ste-Geneviève / Ste-Agnès","stopId":"1:724","stopCode":"724","lon":-71.096512,"lat":48.452279,"arrival":1522699380000,"departure":1522699381000,"zoneId":"NA","stopIndex":26,"stopSequence":27,"vertexType":"TRANSIT"},"to":{"name":"Destination","lon":-71.10228,"lat":48.44718,"arrival":1522700137000,"orig":"","vertexType":"NORMAL"},"legGeometry":{"points":"gjvfH~_}pLLoA^H|AHx@NrAvAd@f@rBbBhAp@l@Tn@P`@d@NVf@Vd@?n@APELGPSt@kApA~CHZDPD\\A^Cf@GxAAd@|@HNBPJJHHPFR?XA^?PUtH?@","length":39},"alerts":[{"alertHeaderText":"Unpaved surface"}],"rentedBike":false,"transitLeg":false,"duration":756.0,"steps":[{"distance":30.494,"relativeDirection":"DEPART","streetName":"Boulevard Sainte-Geneviève","absoluteDirection":"EAST","stayOn":false,"area":false,"bogusName":false,"lon":-71.0964782268788,"lat":48.45236365230264,"elevation":[]},{"distance":382.70799999999997,"relativeDirection":"RIGHT","streetName":"Rue Sainte-Agnès","absoluteDirection":"SOUTH","stayOn":false,"area":false,"bogusName":false,"lon":-71.0960785,"lat":48.4522935,"elevation":[]},{"distance":157.036,"relativeDirection":"CONTINUE","streetName":"Rue Vallières","absoluteDirection":"SOUTHWEST","stayOn":false,"area":false,"bogusName":false,"lon":-71.09803070000001,"lat":48.449175800000006,"elevation":[],"alerts":[{"alertHeaderText":"Unpaved surface"}]},{"distance":179.559,"relativeDirection":"RIGHT","streetName":"Rue Chapleau","absoluteDirection":"SOUTHWEST","stayOn":false,"area":false,"bogusName":false,"lon":-71.09771520000001,"lat":48.4479428,"elevation":[]},{"distance":223.551,"relativeDirection":"LEFT","streetName":"Rue de Courcelette","absoluteDirection":"SOUTH","stayOn":false,"area":false,"bogusName":false,"lon":-71.09989730000001,"lat":48.4475081,"elevation":[]}]}],"tooSloped":false}]},"debugOutput":{"precalculationTime":5,"pathCalculationTime":13,"pathTimes":[3,5,5],"renderingTime":0,"totalTime":18,"timedOut":false},"elevationMetadata":{"ellipsoidToGeoidDifference":-28.885904201182168,"geoidElevation":false}}