{"requestParameters":{"date":"2018/04/02","walkSpeed":"1.33","walkReluctance":"2.0","fromPlace":"48.443416,-71.07852499","maxWalkDistance":"3000","waitReluctance":"1.0","carSpeed":"33","numItineraries":"3","waitAtBeginningFactor":"0.4","mode":"TRANSIT,WALK","ignoreRealtimeUpdates":"false","stairsReluctance":"2.0","toPlace":"48.452088,-71.065428","time":"11:30:00"},"plan":{"date":1522683000000,"from":{"name":"Origin","lon":-71.07852499,"lat":48.443416,"orig":"","vertexType":"NORMAL"},"to":{"name":"Destination","lon":-71.065428,"lat":48.452088,"orig":"","vertexType":"NORMAL"},"itineraries":[{"duration":1335,"startTime":1522683000000,"endTime":1522684335000,"walkTime":1335,"transitTime":0,"waitingTime":0,"walkDistance":1740.329781949635,"walkLimitExceeded":false,"elevationLost":0.0,"elevationGained":0.0,"transfers":0,"legs":[{"startTime":1522683000000,"endTime":1522684335000,"departureDelay":0,"arrivalDelay":0,"realTime":false,"distance":1740.167,"pathway":false,"mode":"WALK","route":"","agencyTimeZoneOffset":-14400000,"interlineWithPreviousLeg":false,"from":{"name":"Origin","lon":-71.07852499,"lat":48.443416,"departure":1522683000000,"orig":"","vertexType":"NORMAL"},"to":{"name":"Destination","lon":-71.065428,"lat":48.452088,"arrival":1522684335000,"orig":"","vertexType":"NORMAL"},"legGeometry":{"points":"eutfHjmypLcAtDQSj@gBSSc@k@g@eBEeAJaBS_@m@JeFtEOuDC]Ig@GYG[s@_CSm@aAsCIg@Ee@Aa@?K?IBWDi@Hc@?I?K?MAOAOCOAQCQGOIIGGISMa@IWESISK_@Q]SQWE[ASBS@y@Ja@B_@Ce@Q]Ua@g@GIQ]GWCQAq@@e@@e@@Iq@GYICAUMSQUQ]e@[c@M]Qe@Ka@e@iEEWUaBKe@EQGSM[Qc@gAoCKUw@qB","length":87},"alerts":[{"alertHeaderText":"Unpaved surface"}],"rentedBike":false,"transitLeg":false,"duration":1335.0,"steps":[{"distance":76.813,"relativeDirection":"DEPART","streetName":"Boulevard Sainte-Geneviève","absoluteDirection":"NORTHWEST","stayOn":false,"area":false,"bogusName":false,"lon":-71.0781387826346,"lat":48.44387841675082,"elevation":[]},{"distance":58.727000000000004,"relativeDirection":"UTURN_RIGHT","streetName":"Boulevard Sainte-Geneviève","absoluteDirection":"SOUTHEAST","stayOn":true,"area":false,"bogusName":false,"lon":-71.07894370000001,"lat":48.444307900000005,"elevation":[]},{"distance":338.059,"relativeDirection":"LEFT","streetName":"Rue de la Promenade","absoluteDirection":"NORTHEAST","stayOn":false,"area":false,"bogusName":false,"lon":-71.0784213,"lat":48.444088400000005,"elevation":[],"alerts":[{"alertHeaderText":"Unpaved surface"}]},{"distance":778.941,"relativeDirection":"RIGHT","streetName":"Rue Cabot","absoluteDirection":"EAST","stayOn":false,"area":false,"bogusName":false,"lon":-71.0777226,"lat":48.446015700000004,"elevation":[],"alerts":[{"alertHeaderText":"Unpaved surface"}]},{"distance":487.62700000000007,"relativeDirection":"LEFT","streetName":"Rue de Boischatel","absoluteDirection":"NORTH","stayOn":false,"area":false,"bogusName":false,"lon":-71.0702047,"lat":48.449388000000006,"elevation":[],"alerts":[{"alertHeaderText":"Unpaved surface"}]}]}],"tooSloped":false},{"duration":814,"startTime":1522683742000,"endTime":1522684556000,"walkTime":611,"transitTime":201,"waitingTime":2,"walkDistance":787.2852556357982,"walkLimitExceeded":false,"elevationLost":0.0,"elevationGained":0.0,"transfers":0,"legs":[{"startTime":1522683742000,"endTime":1522684139000,"departureDelay":0,"arrivalDelay":0,"realTime":false,"distance":516.75,"pathway":false,"mode":"WALK","route":"","agencyTimeZoneOffset":-14400000,"interlineWithPreviousLeg":false,"from":{"name":"Origin","lon":-71.07852499,"lat":48.443416,"departure":1522683742000,"orig":"","vertexType":"NORMAL"},"to":{"name":"Champs / Victor","stopId":"1:2018","stopCode":"2018","lon":-71.072622,"lat":48.44254,"arrival":1522684139000,"departure":1522684140000,"zoneId":"NA","stopIndex":1,"stopSequence":2,"vertexType":"TRANSIT"},"legGeometry":{"points":"eutfHjmypLb@cBhAiD|@wB~CcGrAiCSSu@mBsAkD?A","length":10},"rentedBike":false,"transitLeg":false,"duration":397.0,"steps":[{"distance":373.25699999999995,"relativeDirection":"DEPART","streetName":"Boulevard Sainte-Geneviève","absoluteDirection":"SOUTHEAST","stayOn":false,"area":false,"bogusName":false,"lon":-71.0781387826346,"lat":48.44387841675082,"elevation":[]},{"distance":143.49300000000002,"relativeDirection":"LEFT","streetName":"Rue des Champs","absoluteDirection":"NORTHEAST","stayOn":false,"area":false,"bogusName":false,"lon":-71.07419630000001,"lat":48.441794200000004,"elevation":[]}]},{"startTime":1522684140000,"endTime":1522684341000,"departureDelay":0,"arrivalDelay":0,"realTime":false,"distance":1286.808136661771,"pathway":false,"mode":"BUS","route":"22","agencyName":"Société de Transport du Saguenay","agencyUrl":"http://ville.saguenay.ca/fr/services-aux-citoyens/transport-sts","agencyTimeZoneOffset":-14400000,"routeColor":"C0C000","routeType":3,"routeId":"1:22","routeTextColor":"000000","interlineWithPreviousLeg":false,"tripBlockId":"1","headsign":"Terminus Chicoutimi","agencyId":"0","tripId":"1:217140","serviceDate":"20180402","from":{"name":"Champs / Victor","stopId":"1:2018","stopCode":"2018","lon":-71.072622,"lat":48.44254,"arrival":1522684139000,"departure":1522684140000,"zoneId":"NA","stopIndex":1,"stopSequence":2,"vertexType":"TRANSIT"},"to":{"name":"Delisle / Dupré","stopId":"1:744","stopCode":"744","lon":-71.062144,"lat":48.451199,"arrival":1522684341000,"departure":1522684342000,"zoneId":"NA","stopIndex":8,"stopSequence":9,"vertexType":"TRANSIT"},"legGeometry":{"points":"cmtfHdkxpL[{@_B{D{@uBe@gAO}AGw@SaCmAZe@AYOy@o@MKsAcA}BmBuC}BgA}@}BsBaAaA{@y@d@kDp@uEyIkDqHwC","length":24},"routeShortName":"22","routeLongName":"Vanier","rentedBike":false,"transitLeg":true,"duration":201.0,"steps":[]},{"startTime":1522684342000,"endTime":1522684556000,"departureDelay":0,"arrivalDelay":0,"realTime":false,"distance":270.433,"pathway":false,"mode":"WALK","route":"","agencyTimeZoneOffset":-14400000,"interlineWithPreviousLeg":false,"from":{"name":"Delisle / Dupré","stopId":"1:744","stopCode":"744","lon":-71.062144,"lat":48.451199,"arrival":1522684341000,"departure":1522684342000,"zoneId":"NA","stopIndex":8,"stopSequence":9,"vertexType":"TRANSIT"},"to":{"name":"Destination","lon":-71.065428,"lat":48.452088,"arrival":1522684556000,"orig":"","vertexType":"NORMAL"},"legGeometry":{"points":"acvfHvivpLGCWKwAlJW`B]fB\\z@","length":7},"rentedBike":false,"transitLeg":false,"duration":214.0,"steps":[{"distance":18.808,"relativeDirection":"DEPART","streetName":"Rue Delisle","absoluteDirection":"NORTH","stayOn":false,"area":false,"bogusName":false,"lon":-71.06219601135356,"lat":48.451210914725365,"elevation":[]},{"distance":224.285,"relativeDirection":"LEFT","streetName":"Rue Dupré","absoluteDirection":"WEST","stayOn":false,"area":false,"bogusName":false,"lon":-71.06211280000001,"lat":48.45137080000001,"elevation":[]},{"distance":27.34,"relativeDirection":"LEFT","streetName":"Rue de Boischatel","absoluteDirection":"SOUTHWEST","stayOn":false,"area":false,"bogusName":false,"lon":-71.064958,"lat":48.452082100000005,"elevation":[]}]}],"tooSloped":false},{"duration":809,"startTime":1522684063000,"endTime":1522684872000,"walkTime":590,"transitTime":217,"waitingTime":2,"walkDistance":757.9540300715729,"walkLimitExceeded":false,"elevationLost":0.0,"elevationGained":0.0,"transfers":0,"legs":[{"startTime":1522684063000,"endTime":1522684218000,"departureDelay":0,"arrivalDelay":0,"realTime":false,"distance":193.902,"pathway":false,"mode":"WALK","route":"","agencyTimeZoneOffset":-14400000,"interlineWithPreviousLeg":false,"from":{"name":"Origin","lon":-71.07852499,"lat":48.443416,"departure":1522684063000,"orig":"","vertexType":"NORMAL"},"to":{"name":"Place de la Colline (boul. Ste-Geneviève)","stopId":"1:706","stopCode":"706","lon":-71.080094,"lat":48.44485,"arrival":1522684218000,"departure":1522684219000,"zoneId":"NA","stopIndex":2,"stopSequence":3,"vertexType":"TRANSIT"},"legGeometry":{"points":"eutfHjmypLcAtDQSeBjF","length":4},"rentedBike":false,"transitLeg":false,"duration":155.0,"steps":[{"distance":193.902,"relativeDirection":"DEPART","streetName":"Boulevard Sainte-Geneviève","absoluteDirection":"NORTHWEST","stayOn":false,"area":false,"bogusName":false,"lon":-71.0781387826346,"lat":48.44387841675082,"elevation":[]}]},{"startTime":1522684219000,"endTime":1522684436000,"departureDelay":0,"arrivalDelay":0,"realTime":false,"distance":1732.895895354977,"pathway":false,"mode":"BUS","route":"23","agencyName":"Société de Transport du Saguenay","agencyUrl":"http://ville.saguenay.ca/fr/services-aux-citoyens/transport-sts","agencyTimeZoneOffset":-14400000,"routeColor":"FF00FF","routeType":3,"routeId":"1:23","routeTextColor":"FFFFFF","interlineWithPreviousLeg":false,"tripBlockId":"5","headsign":"Terminus Chicoutimi","agencyId":"0","tripId":"1:217260","serviceDate":"20180402","from":{"name":"Place de la Colline (boul. Ste-Geneviève)","stopId":"1:706","stopCode":"706","lon":-71.080094,"lat":48.44485,"arrival":1522684218000,"departure":1522684219000,"zoneId":"NA","stopIndex":2,"stopSequence":3,"vertexType":"TRANSIT"},"to":{"name":"Cabot / Bossuet","stopId":"1:785","stopCode":"785","lon":-71.069257,"lat":48.449097,"arrival":1522684436000,"departure":1522684437000,"zoneId":"NA","stopIndex":8,"stopSequence":9,"vertexType":"TRANSIT"},"legGeometry":{"points":"{ztfH~yypLCD}@hCo@~Aq@pAs@fA{BlCqH|Iq@Bq@Im@UGCUi@Wm@ScA_@gGSaE@_@@_@@ERoBFe@No@`@gAbCyFNe@Ha@He@Fg@Du@Dg@Hc@Pa@RW\\S`@QZEm@eHM}B?GGi@Is@Ou@Qw@Mo@Kw@ImAGoBAk@aALa@?YEUKc@Yc@_@KOIUGUEWAW?YBqAH_AXeC@I","length":65},"routeShortName":"23","routeLongName":"Côte Verdun via Aréna du Plateau","rentedBike":false,"transitLeg":true,"duration":217.0,"steps":[]},{"startTime":1522684437000,"endTime":1522684872000,"departureDelay":0,"arrivalDelay":0,"realTime":false,"distance":563.9399999999999,"pathway":false,"mode":"WALK","route":"","agencyTimeZoneOffset":-14400000,"interlineWithPreviousLeg":false,"from":{"name":"Cabot / Bossuet","stopId":"1:785","stopCode":"785","lon":-71.069257,"lat":48.449097,"arrival":1522684436000,"departure":1522684437000,"zoneId":"NA","stopIndex":8,"stopSequence":9,"vertexType":"TRANSIT"},"to":{"name":"Destination","lon":-71.065428,"lat":48.452088,"arrival":1522684872000,"orig":"","vertexType":"NORMAL"},"legGeometry":{"points":"ivufHruwpLALg@vDq@GYICAUMSQUQ]e@[c@M]Qe@Ka@e@iEEWUaBKe@EQGSM[Qc@gAoCKUw@qB","length":25},"alerts":[{"alertHeaderText":"Unpaved surface"}],"rentedBike":false,"transitLeg":false,"duration":435.0,"steps":[{"distance":76.31299999999999,"relativeDirection":"DEPART","streetName":"Rue Cabot","absoluteDirection":"WEST","stayOn":false,"area":false,"bogusName":false,"lon":-71.06921997796464,"lat":48.449177280364445,"elevation":[]},{"distance":487.62700000000007,"relativeDirection":"RIGHT","streetName":"Rue de Boischatel","absoluteDirection":"NORTH","stayOn":false,"area":false,"bogusName":false,"lon":-71.0702047,"lat":48.449388000000006,"elevation":[],"alerts":[{"alertHeaderText":"Unpaved surface"}]}]}],"tooSloped":false}]},"debugOutput":{"precalculationTime":13,"pathCalculationTime":19,"pathTimes":[15,2,2],"renderingTime":0,"totalTime":32,"timedOut":false},"elevationMetadata":{"ellipsoidToGeoidDifference":-28.885904201182168,"geoidElevation":false}}