{"requestParameters":{"date":"2018/04/02","walkSpeed":"1.33","walkReluctance":"2.0","fromPlace":"48.452088,-71.065428","maxWalkDistance":"3000","waitReluctance":"1.0","carSpeed":"33","numItineraries":"3","waitAtBeginningFactor":"0.4","mode":"TRANSIT,WALK","ignoreRealtimeUpdates":"false","stairsReluctance":"2.0","toPlace":"48.448829,-71.06723599","time":"18:30:00"},"plan":{"date":1522708200000,"from":{"name":"Origin","lon":-71.065428,"lat":48.452088,"orig":"","vertexType":"NORMAL"},"to":{"name":"Destination","lon":-71.06723599,"lat":48.448829,"orig":"","vertexType":"NORMAL"},"itineraries":[{"duration":174,"startTime":1522708245000,"endTime":1522708419000,"walkTime":58,"transitTime":114,"waitingTime":2,"walkDistance":76.477,"walkLimitExceeded":false,"elevationLost":0.0,"elevationGained":0.0,"transfers":0,"legs":[{"startTime":1522708245000,"endTime":1522708285000,"departureDelay":0,"arrivalDelay":0,"realTime":false,"distance":52.705,"pathway":false,"mode":"WALK","route":"","agencyTimeZoneOffset":-14400000,"interlineWithPreviousLeg":false,"from":{"name":"Origin","lon":-71.065428,"lat":48.452088,"departure":1522708245000,"orig":"","vertexType":"NORMAL"},"to":{"name":"Boischatel / Boulogne","stopId":"1:761","stopCode":"761","lon":-71.065886,"lat":48.451703,"arrival":1522708285000,"departure":1522708286000,"zoneId":"NA","stopIndex":25,"stopSequence":26,"vertexType":"TRANSIT"},"legGeometry":{"points":"qgvfHz|vpLv@pB","length":2},"rentedBike":false,"transitLeg":false,"duration":40.0,"steps":[{"distance":52.705,"relativeDirection":"DEPART","streetName":"Rue de Boischatel","absoluteDirection":"SOUTHWEST","stayOn":false,"area":false,"bogusName":false,"lon":-71.06525461634999,"lat":48.45193461120719,"elevation":[]}]},{"startTime":1522708286000,"endTime":1522708400000,"departureDelay":0,"arrivalDelay":0,"realTime":false,"distance":655.6945779097243,"pathway":false,"mode":"BUS","route":"22","agencyName":"Société de Transport du Saguenay","agencyUrl":"http://ville.saguenay.ca/fr/services-aux-citoyens/transport-sts","agencyTimeZoneOffset":-14400000,"routeColor":"C0C000","routeType":3,"routeId":"1:22","routeTextColor":"000000","interlineWithPreviousLeg":false,"tripBlockId":"3","headsign":"Terminus Chicoutimi","agencyId":"0","tripId":"1:217210","serviceDate":"20180402","from":{"name":"Boischatel / Boulogne","stopId":"1:761","stopCode":"761","lon":-71.065886,"lat":48.451703,"arrival":1522708285000,"departure":1522708286000,"zoneId":"NA","stopIndex":25,"stopSequence":26,"vertexType":"TRANSIT"},"to":{"name":"Cabot / Ruisseau","stopId":"1:765","stopCode":"765","lon":-71.067028,"lat":48.44857,"arrival":1522708400000,"departure":1522708401000,"zoneId":"NA","stopIndex":29,"stopSequence":30,"vertexType":"TRANSIT"},"legGeometry":{"points":"wevfHl`wpLFNpBdFRp@Hl@Jz@BXXrCHl@Lh@Nf@r@nAr@r@`@PLFbAVH_AXeC@IdB_M","length":20},"routeShortName":"22","routeLongName":"Vanier","rentedBike":false,"transitLeg":true,"duration":114.0,"steps":[]},{"startTime":1522708401000,"endTime":1522708419000,"departureDelay":0,"arrivalDelay":0,"realTime":false,"distance":23.772,"pathway":false,"mode":"WALK","route":"","agencyTimeZoneOffset":-14400000,"interlineWithPreviousLeg":false,"from":{"name":"Cabot / Ruisseau","stopId":"1:765","stopCode":"765","lon":-71.067028,"lat":48.44857,"arrival":1522708400000,"departure":1522708401000,"zoneId":"NA","stopIndex":29,"stopSequence":30,"vertexType":"TRANSIT"},"to":{"name":"Destination","lon":-71.06723599,"lat":48.448829,"arrival":1522708419000,"orig":"","vertexType":"NORMAL"},"legGeometry":{"points":"esufHrgwpLMz@","length":2},"rentedBike":false,"transitLeg":false,"duration":18.0,"steps":[{"distance":23.772,"relativeDirection":"DEPART","streetName":"Rue Cabot","absoluteDirection":"WEST","stayOn":false,"area":false,"bogusName":false,"lon":-71.06697420818662,"lat":48.448675275192734,"elevation":[]}]}],"tooSloped":false},{"duration":517,"startTime":1522708200000,"endTime":1522708717000,"walkTime":517,"transitTime":0,"waitingTime":0,"walkDistance":672.0149248097738,"walkLimitExceeded":false,"elevationLost":0.0,"elevationGained":0.0,"transfers":0,"legs":[{"startTime":1522708200000,"endTime":1522708717000,"departureDelay":0,"arrivalDelay":0,"realTime":false,"distance":671.945,"pathway":false,"mode":"WALK","route":"","agencyTimeZoneOffset":-14400000,"interlineWithPreviousLeg":false,"from":{"name":"Origin","lon":-71.065428,"lat":48.452088,"departure":1522708200000,"orig":"","vertexType":"NORMAL"},"to":{"name":"Destination","lon":-71.06723599,"lat":48.448829,"arrival":1522708717000,"orig":"","vertexType":"NORMAL"},"legGeometry":{"points":"qgvfHz|vpLv@pBJTfAnCPb@LZFRDPJd@T`BvAg@l@WPGLERMVOT[HMJWJWl@iEDIBGJINAzBbAi@zDMz@","length":28},"alerts":[{"alertHeaderText":"Unpaved surface"}],"rentedBike":false,"transitLeg":false,"duration":517.0,"steps":[{"distance":228.397,"relativeDirection":"DEPART","streetName":"Rue de Boischatel","absoluteDirection":"SOUTHWEST","stayOn":false,"area":false,"bogusName":false,"lon":-71.06525461634999,"lat":48.45193461120719,"elevation":[],"alerts":[{"alertHeaderText":"Unpaved surface"}]},{"distance":346.448,"relativeDirection":"LEFT","streetName":"Rue Beaupré","absoluteDirection":"SOUTH","stayOn":false,"area":false,"bogusName":false,"lon":-71.06784040000001,"lat":48.4508317,"elevation":[]},{"distance":97.1,"relativeDirection":"RIGHT","streetName":"Rue Cabot","absoluteDirection":"WEST","stayOn":false,"area":false,"bogusName":false,"lon":-71.0660326,"lat":48.448463600000004,"elevation":[]}]}],"tooSloped":false},{"duration":474,"startTime":1522709200000,"endTime":1522709674000,"walkTime":453,"transitTime":19,"waitingTime":2,"walkDistance":587.7556090211493,"walkLimitExceeded":false,"elevationLost":0.0,"elevationGained":0.0,"transfers":0,"legs":[{"startTime":1522709200000,"endTime":1522709635000,"departureDelay":0,"arrivalDelay":0,"realTime":false,"distance":563.9399999999999,"pathway":false,"mode":"WALK","route":"","agencyTimeZoneOffset":-14400000,"interlineWithPreviousLeg":false,"from":{"name":"Origin","lon":-71.065428,"lat":48.452088,"departure":1522709200000,"orig":"","vertexType":"NORMAL"},"to":{"name":"Cabot / Bossuet","stopId":"1:785","stopCode":"785","lon":-71.069257,"lat":48.449097,"arrival":1522709635000,"departure":1522709636000,"zoneId":"NA","stopIndex":8,"stopSequence":9,"vertexType":"TRANSIT"},"legGeometry":{"points":"qgvfHz|vpLv@pBJTfAnCPb@LZFRDPJd@T`BDVd@hEJ`@Pd@L\\Zb@\\d@TPRPTLB@XHp@Ff@wD@M","length":25},"alerts":[{"alertHeaderText":"Unpaved surface"}],"rentedBike":false,"transitLeg":false,"duration":435.0,"steps":[{"distance":487.62699999999995,"relativeDirection":"DEPART","streetName":"Rue de Boischatel","absoluteDirection":"SOUTHWEST","stayOn":false,"area":false,"bogusName":false,"lon":-71.06525461634999,"lat":48.45193461120719,"elevation":[],"alerts":[{"alertHeaderText":"Unpaved surface"}]},{"distance":76.31299999999999,"relativeDirection":"LEFT","streetName":"Rue Cabot","absoluteDirection":"EAST","stayOn":false,"area":false,"bogusName":false,"lon":-71.0702047,"lat":48.449388000000006,"elevation":[]}]},{"startTime":1522709636000,"endTime":1522709655000,"departureDelay":0,"arrivalDelay":0,"realTime":false,"distance":174.530391392934,"pathway":false,"mode":"BUS","route":"23","agencyName":"Société de Transport du Saguenay","agencyUrl":"http://ville.saguenay.ca/fr/services-aux-citoyens/transport-sts","agencyTimeZoneOffset":-14400000,"routeColor":"FF00FF","routeType":3,"routeId":"1:23","routeTextColor":"FFFFFF","interlineWithPreviousLeg":false,"tripBlockId":"5","headsign":"Terminus Chicoutimi","agencyId":"0","tripId":"1:217274","serviceDate":"20180402","from":{"name":"Cabot / Bossuet","stopId":"1:785","stopCode":"785","lon":-71.069257,"lat":48.449097,"arrival":1522709635000,"departure":1522709636000,"zoneId":"NA","stopIndex":8,"stopSequence":9,"vertexType":"TRANSIT"},"to":{"name":"Cabot / Ruisseau","stopId":"1:765","stopCode":"765","lon":-71.067028,"lat":48.44857,"arrival":1522709655000,"departure":1522709656000,"zoneId":"NA","stopIndex":9,"stopSequence":10,"vertexType":"TRANSIT"},"legGeometry":{"points":"kvufHruwpLdB_M","length":2},"routeShortName":"23","routeLongName":"Côte Verdun via Aréna du Plateau","rentedBike":false,"transitLeg":true,"duration":19.0,"steps":[]},{"startTime":1522709656000,"endTime":1522709674000,"departureDelay":0,"arrivalDelay":0,"realTime":false,"distance":23.772,"pathway":false,"mode":"WALK","route":"","agencyTimeZoneOffset":-14400000,"interlineWithPreviousLeg":false,"from":{"name":"Cabot / Ruisseau","stopId":"1:765","stopCode":"765","lon":-71.067028,"lat":48.44857,"arrival":1522709655000,"departure":1522709656000,"zoneId":"NA","stopIndex":9,"stopSequence":10,"vertexType":"TRANSIT"},"to":{"name":"Destination","lon":-71.06723599,"lat":48.448829,"arrival":1522709674000,"orig":"","vertexType":"NORMAL"},"legGeometry":{"points":"esufHrgwpLMz@","length":2},"rentedBike":false,"transitLeg":false,"duration":18.0,"steps":[{"distance":23.772,"relativeDirection":"DEPART","streetName":"Rue Cabot","absoluteDirection":"WEST","stayOn":false,"area":false,"bogusName":false,"lon":-71.06697420818662,"lat":48.448675275192734,"elevation":[]}]}],"tooSloped":false}]},"debugOutput":{"precalculationTime":12,"pathCalculationTime":11,"pathTimes":[2,2,7],"renderingTime":0,"totalTime":23,"timedOut":false},"elevationMetadata":{"ellipsoidToGeoidDifference":-28.885904201182168,"geoidElevation":false}}