{"requestParameters":{"date":"2018/04/02","walkSpeed":"1.33","walkReluctance":"2.0","fromPlace":"48.457472,-71.051411","maxWalkDistance":"3000","waitReluctance":"1.0","carSpeed":"33","numItineraries":"3","waitAtBeginningFactor":"0.4","mode":"TRANSIT,WALK","ignoreRealtimeUpdates":"false","stairsReluctance":"2.0","toPlace":"48.406351,-71.05878699","time":"15:15:00"},"plan":{"date":1522696500000,"from":{"name":"Origin","lon":-71.051411,"lat":48.457472,"orig":"","vertexType":"NORMAL"},"to":{"name":"Destination","lon":-71.05878699,"lat":48.406351,"orig":"","vertexType":"NORMAL"},"itineraries":[{"duration":2751,"startTime":1522697124000,"endTime":1522699875000,"walkTime":357,"transitTime":2092,"waitingTime":302,"walkDistance":459.7946315772491,"walkLimitExceeded":false,"elevationLost":0.0,"elevationGained":0.0,"transfers":1,"legs":[{"startTime":1522697124000,"endTime":1522697166000,"departureDelay":0,"arrivalDelay":0,"realTime":false,"distance":51.185,"pathway":false,"mode":"WALK","route":"","agencyTimeZoneOffset":-14400000,"interlineWithPreviousLeg":false,"from":{"name":"Origin","lon":-71.051411,"lat":48.457472,"departure":1522697124000,"orig":"","vertexType":"NORMAL"},"to":{"name":"Isabelle / Marco","stopId":"1:751","stopCode":"751","lon":-71.050975,"lat":48.457507,"arrival":1522697166000,"departure":1522697167000,"zoneId":"NA","stopIndex":15,"stopSequence":16,"vertexType":"TRANSIT"},"legGeometry":{"points":"okwfHvetpLPcBPFB@","length":4},"rentedBike":false,"transitLeg":false,"duration":42.0,"steps":[{"distance":38.723,"relativeDirection":"DEPART","streetName":"Rue Isabelle","absoluteDirection":"EAST","stayOn":false,"area":false,"bogusName":false,"lon":-71.05131537740225,"lat":48.45768807187734,"elevation":[]},{"distance":12.462,"relativeDirection":"RIGHT","streetName":"Rue Marco","absoluteDirection":"SOUTH","stayOn":false,"area":false,"bogusName":false,"lon":-71.05081150000001,"lat":48.45759,"elevation":[]}]},{"startTime":1522697167000,"endTime":1522698000000,"departureDelay":0,"arrivalDelay":0,"realTime":false,"distance":5014.968877073836,"pathway":false,"mode":"BUS","route":"22","agencyName":"Société de Transport du Saguenay","agencyUrl":"http://ville.saguenay.ca/fr/services-aux-citoyens/transport-sts","agencyTimeZoneOffset":-14400000,"routeColor":"C0C000","routeType":3,"routeId":"1:22","routeTextColor":"000000","interlineWithPreviousLeg":false,"tripBlockId":"3","headsign":"Terminus Chicoutimi","agencyId":"0","tripId":"1:217204","serviceDate":"20180402","from":{"name":"Isabelle / Marco","stopId":"1:751","stopCode":"751","lon":-71.050975,"lat":48.457507,"arrival":1522697166000,"departure":1522697167000,"zoneId":"NA","stopIndex":15,"stopSequence":16,"vertexType":"TRANSIT"},"to":{"name":"Terminus Chicoutimi","stopId":"1:1289","stopCode":"1289","lon":-71.066163,"lat":48.428677,"arrival":1522698000000,"departure":1522698300000,"zoneId":"NA","stopIndex":35,"stopSequence":36,"vertexType":"TRANSIT"},"legGeometry":{"points":"ijwfH`ctpL`@LHDFFFJ^hAFVDZBXBn@@H@RBLFTHNHHJFLBP@j@OLAJAN@@?l@NTwBDQFMFIJGHCL?H@hGjB`GjBz@VNJJRBTAVQdAn@XrAh@uCvSeA|He@hCo@|AiBbD~@^|IrDhAb@qAfJSzAMr@Yz@xAhDFNpBdFRp@Hl@Jz@BXXrCHl@Lh@Nf@r@nAr@r@`@PLFbAVH_AXeC@IdB_Mh@_EJk@x@x@bA`A|BrBnDrCl@f@|BlBrAbAj@d@ZTXNd@@lA[ZxDN|Ad@fAz@tB~AzDZ|@Zv@x@vBP\\h@~@PVrCmFhHqN~@eBr@cAt@_Av@}@RQPMz@k@tAe@REZG^Af@@X@VF`@Jn@XbClAr@Xt\\`PrAb@pA^hBTjAFj@Pb@JPHLLJNJRFXDT?X?ZEVEVKTMNMHMFOB}DWSGOSYcAN}FFkAF}DJyDd@wPV_HjAN~ALIzBQb@e@@","length":157},"routeShortName":"22","routeLongName":"Vanier","rentedBike":false,"transitLeg":true,"duration":833.0,"steps":[]},{"startTime":1522698300000,"endTime":1522699559000,"departureDelay":0,"arrivalDelay":0,"realTime":false,"distance":5344.788688857265,"pathway":false,"mode":"BUS","route":"15","agencyName":"Société de Transport du Saguenay","agencyUrl":"http://ville.saguenay.ca/fr/services-aux-citoyens/transport-sts","agencyTimeZoneOffset":-14400000,"routeColor":"FF00FF","routeType":3,"routeId":"1:15","routeTextColor":"FFFFFF","interlineWithPreviousLeg":false,"tripBlockId":"31","headsign":"Talbot / Barrette","agencyId":"0","tripId":"1:218140","serviceDate":"20180402","from":{"name":"Terminus Chicoutimi","stopId":"1:1289","stopCode":"1289","lon":-71.066163,"lat":48.428677,"arrival":1522698000000,"departure":1522698300000,"zoneId":"NA","stopIndex":0,"stopSequence":1,"vertexType":"TRANSIT"},"to":{"name":"Saguenéens  / Bach","stopId":"1:575","stopCode":"575","lon":-71.061104,"lat":48.403689,"arrival":1522699559000,"departure":1522699560000,"zoneId":"NA","stopIndex":23,"stopSequence":24,"vertexType":"TRANSIT"},"legGeometry":{"points":"evqfHpbwpLPiCjKx@HiEZkS\\aSN_K^eIrBpBvIpIr@r@\\mBfAaA`@gBOkB_@uF|DyL|DpDQ|@|@z@bA`ATw@dD~Ch@fA@`E~AjGuH`Iy@bBi@dCbEdEjJlJ`HbHlJpJ|J~JdAfALzDNzDrAdBrEKvBEbCv@d@TvFlC|DlBpMlGrB`AM}@hAwEC{B]oBiBmBsH_@_K{H`EgIvCaGfEoItDsH~DeI","length":58},"routeShortName":"15","routeLongName":"Term. Chic / Costco","rentedBike":false,"transitLeg":true,"duration":1259.0,"steps":[]},{"startTime":1522699560000,"endTime":1522699875000,"departureDelay":0,"arrivalDelay":0,"realTime":false,"distance":408.557,"pathway":false,"mode":"WALK","route":"","agencyTimeZoneOffset":-14400000,"interlineWithPreviousLeg":false,"from":{"name":"Saguenéens  / Bach","stopId":"1:575","stopCode":"575","lon":-71.061104,"lat":48.403689,"arrival":1522699559000,"departure":1522699560000,"zoneId":"NA","stopIndex":23,"stopSequence":24,"vertexType":"TRANSIT"},"to":{"name":"Destination","lon":-71.05878699,"lat":48.406351,"arrival":1522699875000,"orig":"","vertexType":"NORMAL"},"legGeometry":{"points":"wylfHfcvpLgAnC}EuEeE}Dw@q@k@g@","length":6},"rentedBike":false,"transitLeg":false,"duration":315.0,"steps":[{"distance":66.956,"relativeDirection":"DEPART","streetName":"Rue des Saguenéens","absoluteDirection":"NORTHWEST","stayOn":false,"area":false,"bogusName":false,"lon":-71.0611521754673,"lat":48.403646208471976,"elevation":[]},{"distance":341.601,"relativeDirection":"RIGHT","streetName":"Rue Bach","absoluteDirection":"NORTHEAST","stayOn":false,"area":false,"bogusName":false,"lon":-71.06187870000001,"lat":48.404006700000004,"elevation":[]}]}],"tooSloped":false},{"duration":2000,"startTime":1522698924000,"endTime":1522700924000,"walkTime":398,"transitTime":1540,"waitingTime":62,"walkDistance":512.9046541333489,"walkLimitExceeded":false,"elevationLost":0.0,"elevationGained":0.0,"transfers":1,"legs":[{"startTime":1522698924000,"endTime":1522698966000,"departureDelay":0,"arrivalDelay":0,"realTime":false,"distance":51.185,"pathway":false,"mode":"WALK","route":"","agencyTimeZoneOffset":-14400000,"interlineWithPreviousLeg":false,"from":{"name":"Origin","lon":-71.051411,"lat":48.457472,"departure":1522698924000,"orig":"","vertexType":"NORMAL"},"to":{"name":"Isabelle / Marco","stopId":"1:751","stopCode":"751","lon":-71.050975,"lat":48.457507,"arrival":1522698966000,"departure":1522698967000,"zoneId":"NA","stopIndex":15,"stopSequence":16,"vertexType":"TRANSIT"},"legGeometry":{"points":"okwfHvetpLPcBPFB@","length":4},"rentedBike":false,"transitLeg":false,"duration":42.0,"steps":[{"distance":38.723,"relativeDirection":"DEPART","streetName":"Rue Isabelle","absoluteDirection":"EAST","stayOn":false,"area":false,"bogusName":false,"lon":-71.05131537740225,"lat":48.45768807187734,"elevation":[]},{"distance":12.462,"relativeDirection":"RIGHT","streetName":"Rue Marco","absoluteDirection":"SOUTH","stayOn":false,"area":false,"bogusName":false,"lon":-71.05081150000001,"lat":48.45759,"elevation":[]}]},{"startTime":1522698967000,"endTime":1522699800000,"departureDelay":0,"arrivalDelay":0,"realTime":false,"distance":5014.968877073836,"pathway":false,"mode":"BUS","route":"22","agencyName":"Société de Transport du Saguenay","agencyUrl":"http://ville.saguenay.ca/fr/services-aux-citoyens/transport-sts","agencyTimeZoneOffset":-14400000,"routeColor":"C0C000","routeType":3,"routeId":"1:22","routeTextColor":"000000","interlineWithPreviousLeg":false,"tripBlockId":"1","headsign":"Terminus Chicoutimi","agencyId":"0","tripId":"1:217148","serviceDate":"20180402","from":{"name":"Isabelle / Marco","stopId":"1:751","stopCode":"751","lon":-71.050975,"lat":48.457507,"arrival":1522698966000,"departure":1522698967000,"zoneId":"NA","stopIndex":15,"stopSequence":16,"vertexType":"TRANSIT"},"to":{"name":"Terminus Chicoutimi","stopId":"1:1289","stopCode":"1289","lon":-71.066163,"lat":48.428677,"arrival":1522699800000,"departure":1522699860000,"zoneId":"NA","stopIndex":35,"stopSequence":36,"vertexType":"TRANSIT"},"legGeometry":{"points":"ijwfH`ctpL`@LHDFFFJ^hAFVDZBXBn@@H@RBLFTHNHHJFLBP@j@OLAJAN@@?l@NTwBDQFMFIJGHCL?H@hGjB`GjBz@VNJJRBTAVQdAn@XrAh@uCvSeA|He@hCo@|AiBbD~@^|IrDhAb@qAfJSzAMr@Yz@xAhDFNpBdFRp@Hl@Jz@BXXrCHl@Lh@Nf@r@nAr@r@`@PLFbAVH_AXeC@IdB_Mh@_EJk@x@x@bA`A|BrBnDrCl@f@|BlBrAbAj@d@ZTXNd@@lA[ZxDN|Ad@fAz@tB~AzDZ|@Zv@x@vBP\\h@~@PVrCmFhHqN~@eBr@cAt@_Av@}@RQPMz@k@tAe@REZG^Af@@X@VF`@Jn@XbClAr@Xt\\`PrAb@pA^hBTjAFj@Pb@JPHLLJNJRFXDT?X?ZEVEVKTMNMHMFOB}DWSGOSYcAN}FFkAF}DJyDd@wPV_HjAN~ALIzBQb@e@@","length":157},"routeShortName":"22","routeLongName":"Vanier","rentedBike":false,"transitLeg":true,"duration":833.0,"steps":[]},{"startTime":1522699860000,"endTime":1522700567000,"departureDelay":0,"arrivalDelay":0,"realTime":false,"distance":3763.569448257212,"pathway":false,"mode":"BUS","route":"415S","agencyName":"Société de Transport du Saguenay","agencyUrl":"http://ville.saguenay.ca/fr/services-aux-citoyens/transport-sts","agencyTimeZoneOffset":-14400000,"routeColor":"8B0000","routeType":3,"routeId":"1:415S","routeTextColor":"FFFFFF","interlineWithPreviousLeg":false,"tripBlockId":"68","headsign":"Costco","agencyId":"0","tripId":"1:218587","serviceDate":"20180402","from":{"name":"Terminus Chicoutimi","stopId":"1:1289","stopCode":"1289","lon":-71.066163,"lat":48.428677,"arrival":1522699800000,"departure":1522699860000,"zoneId":"NA","stopIndex":0,"stopSequence":1,"vertexType":"TRANSIT"},"to":{"name":"Saguenéens (no. 250)","stopId":"1:2107","stopCode":"2107","lon":-71.063122,"lat":48.40452,"arrival":1522700567000,"departure":1522700568000,"zoneId":"NA","stopIndex":15,"stopSequence":16,"vertexType":"TRANSIT"},"legGeometry":{"points":"kwqfHjbwpLF_CzDX|BXfCNF}D@YRcFJgLNuNDkCHkFVoKT}@dBnBBBpInIdG`GtFrFv@p@hCvCf@f@lJjJpLpLj@n@nAlA`BbBxD~DnBvBvBjBd@Tv@FzBD^Bt@Pd@TRLNJZXj@\\p@Rd@D~CEtBIh@@D@XFXHh@_B`CmGhC{GlBcFXm@^e@RQdA}@PAzCmC","length":58},"routeShortName":"415S","routeLongName":"Term. Chic / Costco","rentedBike":false,"transitLeg":true,"duration":707.0,"steps":[]},{"startTime":1522700568000,"endTime":1522700924000,"departureDelay":0,"arrivalDelay":0,"realTime":false,"distance":461.658,"pathway":false,"mode":"WALK","route":"","agencyTimeZoneOffset":-14400000,"interlineWithPreviousLeg":false,"from":{"name":"Saguenéens (no. 250)","stopId":"1:2107","stopCode":"2107","lon":-71.063122,"lat":48.40452,"arrival":1522700567000,"departure":1522700568000,"zoneId":"NA","stopIndex":15,"stopSequence":16,"vertexType":"TRANSIT"},"to":{"name":"Destination","lon":-71.05878699,"lat":48.406351,"arrival":1522700924000,"orig":"","vertexType":"NORMAL"},"legGeometry":{"points":"s_mfHvnvpL`AkAdA_CSS}EuEeE}Dw@q@k@g@","length":8},"rentedBike":false,"transitLeg":false,"duration":356.0,"steps":[{"distance":107.157,"relativeDirection":"DEPART","streetName":"Rue des Saguenéens","absoluteDirection":"SOUTHEAST","stayOn":false,"area":false,"bogusName":false,"lon":-71.0629911627914,"lat":48.404585857466685,"elevation":[]},{"distance":354.50100000000003,"relativeDirection":"LEFT","streetName":"Rue Bach","absoluteDirection":"NORTHEAST","stayOn":false,"area":false,"bogusName":false,"lon":-71.0619727,"lat":48.403908900000005,"elevation":[]}]}],"tooSloped":false},{"duration":2751,"startTime":1522700724000,"endTime":1522703475000,"walkTime":357,"transitTime":2092,"waitingTime":302,"walkDistance":459.7946315772491,"walkLimitExceeded":false,"elevationLost":0.0,"elevationGained":0.0,"transfers":1,"legs":[{"startTime":1522700724000,"endTime":1522700766000,"departureDelay":0,"arrivalDelay":0,"realTime":false,"distance":51.185,"pathway":false,"mode":"WALK","route":"","agencyTimeZoneOffset":-14400000,"interlineWithPreviousLeg":false,"from":{"name":"Origin","lon":-71.051411,"lat":48.457472,"departure":1522700724000,"orig":"","vertexType":"NORMAL"},"to":{"name":"Isabelle / Marco","stopId":"1:751","stopCode":"751","lon":-71.050975,"lat":48.457507,"arrival":1522700766000,"departure":1522700767000,"zoneId":"NA","stopIndex":15,"stopSequence":16,"vertexType":"TRANSIT"},"legGeometry":{"points":"okwfHvetpLPcBPFB@","length":4},"rentedBike":false,"transitLeg":false,"duration":42.0,"steps":[{"distance":38.723,"relativeDirection":"DEPART","streetName":"Rue Isabelle","absoluteDirection":"EAST","stayOn":false,"area":false,"bogusName":false,"lon":-71.05131537740225,"lat":48.45768807187734,"elevation":[]},{"distance":12.462,"relativeDirection":"RIGHT","streetName":"Rue Marco","absoluteDirection":"SOUTH","stayOn":false,"area":false,"bogusName":false,"lon":-71.05081150000001,"lat":48.45759,"elevation":[]}]},{"startTime":1522700767000,"endTime":1522701600000,"departureDelay":0,"arrivalDelay":0,"realTime":false,"distance":5014.968877073836,"pathway":false,"mode":"BUS","route":"22","agencyName":"Société de Transport du Saguenay","agencyUrl":"http://ville.saguenay.ca/fr/services-aux-citoyens/transport-sts","agencyTimeZoneOffset":-14400000,"routeColor":"C0C000","routeType":3,"routeId":"1:22","routeTextColor":"000000","interlineWithPreviousLeg":false,"tripBlockId":"3","headsign":"Terminus Chicoutimi","agencyId":"0","tripId":"1:217206","serviceDate":"20180402","from":{"name":"Isabelle / Marco","stopId":"1:751","stopCode":"751","lon":-71.050975,"lat":48.457507,"arrival":1522700766000,"departure":1522700767000,"zoneId":"NA","stopIndex":15,"stopSequence":16,"vertexType":"TRANSIT"},"to":{"name":"Terminus Chicoutimi","stopId":"1:1289","stopCode":"1289","lon":-71.066163,"lat":48.428677,"arrival":1522701600000,"departure":1522701900000,"zoneId":"NA","stopIndex":35,"stopSequence":36,"vertexType":"TRANSIT"},"legGeometry":{"points":"ijwfH`ctpL`@LHDFFFJ^hAFVDZBXBn@@H@RBLFTHNHHJFLBP@j@OLAJAN@@?l@NTwBDQFMFIJGHCL?H@hGjB`GjBz@VNJJRBTAVQdAn@XrAh@uCvSeA|He@hCo@|AiBbD~@^|IrDhAb@qAfJSzAMr@Yz@xAhDFNpBdFRp@Hl@Jz@BXXrCHl@Lh@Nf@r@nAr@r@`@PLFbAVH_AXeC@IdB_Mh@_EJk@x@x@bA`A|BrBnDrCl@f@|BlBrAbAj@d@ZTXNd@@lA[ZxDN|Ad@fAz@tB~AzDZ|@Zv@x@vBP\\h@~@PVrCmFhHqN~@eBr@cAt@_Av@}@RQPMz@k@tAe@REZG^Af@@X@VF`@Jn@XbClAr@Xt\\`PrAb@pA^hBTjAFj@Pb@JPHLLJNJRFXDT?X?ZEVEVKTMNMHMFOB}DWSGOSYcAN}FFkAF}DJyDd@wPV_HjAN~ALIzBQb@e@@","length":157},"routeShortName":"22","routeLongName":"Vanier","rentedBike":false,"transitLeg":true,"duration":833.0,"steps":[]},{"startTime":1522701900000,"endTime":1522703159000,"departureDelay":0,"arrivalDelay":0,"realTime":false,"distance":5344.788688857265,"pathway":false,"mode":"BUS","route":"15","agencyName":"Société de Transport du Saguenay","agencyUrl":"http://ville.saguenay.ca/fr/services-aux-citoyens/transport-sts","agencyTimeZoneOffset":-14400000,"routeColor":"FF00FF","routeType":3,"routeId":"1:15","routeTextColor":"FFFFFF","interlineWithPreviousLeg":false,"tripBlockId":"31","headsign":"Talbot / Barrette","agencyId":"0","tripId":"1:218142","serviceDate":"20180402","from":{"name":"Terminus Chicoutimi","stopId":"1:1289","stopCode":"1289","lon":-71.066163,"lat":48.428677,"arrival":1522701600000,"departure":1522701900000,"zoneId":"NA","stopIndex":0,"stopSequence":1,"vertexType":"TRANSIT"},"to":{"name":"Saguenéens  / Bach","stopId":"1:575","stopCode":"575","lon":-71.061104,"lat":48.403689,"arrival":1522703159000,"departure":1522703160000,"zoneId":"NA","stopIndex":23,"stopSequence":24,"vertexType":"TRANSIT"},"legGeometry":{"points":"evqfHpbwpLPiCjKx@HiEZkS\\aSN_K^eIrBpBvIpIr@r@\\mBfAaA`@gBOkB_@uF|DyL|DpDQ|@|@z@bA`ATw@dD~Ch@fA@`E~AjGuH`Iy@bBi@dCbEdEjJlJ`HbHlJpJ|J~JdAfALzDNzDrAdBrEKvBEbCv@d@TvFlC|DlBpMlGrB`AM}@hAwEC{B]oBiBmBsH_@_K{H`EgIvCaGfEoItDsH~DeI","length":58},"routeShortName":"15","routeLongName":"Term. Chic / Costco","rentedBike":false,"transitLeg":true,"duration":1259.0,"steps":[]},{"startTime":1522703160000,"endTime":1522703475000,"departureDelay":0,"arrivalDelay":0,"realTime":false,"distance":408.557,"pathway":false,"mode":"WALK","route":"","agencyTimeZoneOffset":-14400000,"interlineWithPreviousLeg":false,"from":{"name":"Saguenéens  / Bach","stopId":"1:575","stopCode":"575","lon":-71.061104,"lat":48.403689,"arrival":1522703159000,"departure":1522703160000,"zoneId":"NA","stopIndex":23,"stopSequence":24,"vertexType":"TRANSIT"},"to":{"name":"Destination","lon":-71.05878699,"lat":48.406351,"arrival":1522703475000,"orig":"","vertexType":"NORMAL"},"legGeometry":{"points":"wylfHfcvpLgAnC}EuEeE}Dw@q@k@g@","length":6},"rentedBike":false,"transitLeg":false,"duration":315.0,"steps":[{"distance":66.956,"relativeDirection":"DEPART","streetName":"Rue des Saguenéens","absoluteDirection":"NORTHWEST","stayOn":false,"area":false,"bogusName":false,"lon":-71.0611521754673,"lat":48.403646208471976,"elevation":[]},{"distance":341.601,"relativeDirection":"RIGHT","streetName":"Rue Bach","absoluteDirection":"NORTHEAST","stayOn":false,"area":false,"bogusName":false,"lon":-71.06187870000001,"lat":48.404006700000004,"elevation":[]}]}],"tooSloped":false}]},"debugOutput":{"precalculationTime":47,"pathCalculationTime":44,"pathTimes":[31,4,9],"renderingTime":1,"totalTime":92,"timedOut":false},"elevationMetadata":{"ellipsoidToGeoidDifference":-28.885904201182168,"geoidElevation":false}}