{"requestParameters":{"date":"2018/04/02","walkSpeed":"1.33","walkReluctance":"2.0","fromPlace":"48.412628,-71.066376","maxWalkDistance":"3000","waitReluctance":"1.0","carSpeed":"33","numItineraries":"3","waitAtBeginningFactor":"0.4","mode":"TRANSIT,WALK","ignoreRealtimeUpdates":"false","stairsReluctance":"2.0","toPlace":"48.420173,-71.074303","time":"10:15:00"},"plan":{"date":1522678500000,"from":{"name":"Origin","lon":-71.066376,"lat":48.412628,"orig":"","vertexType":"NORMAL"},"to":{"name":"Destination","lon":-71.074303,"lat":48.420173,"orig":"","vertexType":"NORMAL"},"itineraries":[{"duration":1033,"startTime":1522678500000,"endTime":1522679533000,"walkTime":1033,"transitTime":0,"waitingTime":0,"walkDistance":1329.9923533788976,"walkLimitExceeded":false,"elevationLost":0.0,"elevationGained":0.0,"transfers":0,"legs":[{"startTime":1522678500000,"endTime":1522679533000,"departureDelay":0,"arrivalDelay":0,"realTime":false,"distance":1329.851,"pathway":false,"mode":"WALK","route":"","agencyTimeZoneOffset":-14400000,"interlineWithPreviousLeg":false,"from":{"name":"Origin","lon":-71.066376,"lat":48.412628,"departure":1522678500000,"orig":"","vertexType":"NORMAL"},"to":{"name":"Destination","lon":-71.074303,"lat":48.420173,"arrival":1522679533000,"orig":"","vertexType":"NORMAL"},"legGeometry":{"points":"konfHnfwpLyAdGMUs@m@{@u@UIIP}AhEi@xAc@jA{@`C_DrIaC`HQ`@iCnHe@pAi@tA{@rBCC{@{@SQSQg@i@WYuAsAyA{Ao@q@a@a@IT_@bA","length":30},"rentedBike":false,"transitLeg":false,"duration":1033.0,"steps":[{"distance":109.258,"relativeDirection":"DEPART","streetName":"Rue Georges-Vanier","absoluteDirection":"NORTHWEST","stayOn":false,"area":false,"bogusName":false,"lon":-71.066793,"lat":48.41222,"elevation":[]},{"distance":96.293,"relativeDirection":"RIGHT","streetName":"Rue Bégin","absoluteDirection":"NORTHEAST","stayOn":false,"area":false,"bogusName":false,"lon":-71.0681022,"lat":48.4126786,"elevation":[]},{"distance":798.6230000000002,"relativeDirection":"LEFT","streetName":"Rue Des Oblats Est","absoluteDirection":"NORTHWEST","stayOn":false,"area":false,"bogusName":false,"lon":-71.06744280000001,"lat":48.413416500000004,"elevation":[]},{"distance":285.305,"relativeDirection":"RIGHT","streetName":"Rue Caron","absoluteDirection":"NORTHEAST","stayOn":false,"area":false,"bogusName":false,"lon":-71.0762876,"lat":48.4175528,"elevation":[]},{"distance":40.372,"relativeDirection":"LEFT","streetName":"Rue François-Rénald","absoluteDirection":"NORTHWEST","stayOn":false,"area":false,"bogusName":false,"lon":-71.0741407,"lat":48.4196864,"elevation":[]}]}],"tooSloped":false},{"duration":1026,"startTime":1522679065000,"endTime":1522680091000,"walkTime":984,"transitTime":40,"waitingTime":2,"walkDistance":1262.246729317122,"walkLimitExceeded":false,"elevationLost":0.0,"elevationGained":0.0,"transfers":0,"legs":[{"startTime":1522679065000,"endTime":1522679186000,"departureDelay":0,"arrivalDelay":0,"realTime":false,"distance":153.329,"pathway":false,"mode":"WALK","route":"","agencyTimeZoneOffset":-14400000,"interlineWithPreviousLeg":false,"from":{"name":"Origin","lon":-71.066376,"lat":48.412628,"departure":1522679065000,"orig":"","vertexType":"NORMAL"},"to":{"name":"École secondaire de l'Odyssé Dominique-Racine","stopId":"1:580","stopCode":"580","lon":-71.067703,"lat":48.412977,"arrival":1522679186000,"departure":1522679187000,"zoneId":"NA","stopIndex":24,"stopSequence":25,"vertexType":"TRANSIT"},"legGeometry":{"points":"konfHnfwpLyAdGMUs@m@","length":4},"rentedBike":false,"transitLeg":false,"duration":121.0,"steps":[{"distance":109.258,"relativeDirection":"DEPART","streetName":"Rue Georges-Vanier","absoluteDirection":"NORTHWEST","stayOn":false,"area":false,"bogusName":false,"lon":-71.066793,"lat":48.41222,"elevation":[]},{"distance":44.071,"relativeDirection":"RIGHT","streetName":"Rue Bégin","absoluteDirection":"NORTHEAST","stayOn":false,"area":false,"bogusName":false,"lon":-71.0681022,"lat":48.4126786,"elevation":[]}]},{"startTime":1522679187000,"endTime":1522679227000,"departureDelay":0,"arrivalDelay":0,"realTime":false,"distance":258.5132244143843,"pathway":false,"mode":"BUS","route":"15","agencyName":"Société de Transport du Saguenay","agencyUrl":"http://ville.saguenay.ca/fr/services-aux-citoyens/transport-sts","agencyTimeZoneOffset":-14400000,"routeColor":"FF00FF","routeType":3,"routeId":"1:15","routeTextColor":"FFFFFF","interlineWithPreviousLeg":false,"tripBlockId":"30","headsign":"Terminus Chicoutimi","agencyId":"0","tripId":"1:218094","serviceDate":"20180402","from":{"name":"École secondaire de l'Odyssé Dominique-Racine","stopId":"1:580","stopCode":"580","lon":-71.067703,"lat":48.412977,"arrival":1522679186000,"departure":1522679187000,"zoneId":"NA","stopIndex":24,"stopSequence":25,"vertexType":"TRANSIT"},"to":{"name":"Bégin / Youville","stopId":"1:581","stopCode":"581","lon":-71.065739,"lat":48.414902,"arrival":1522679227000,"departure":1522679228000,"zoneId":"NA","stopIndex":25,"stopSequence":26,"vertexType":"TRANSIT"},"legGeometry":{"points":"ktnfH~lwpLsAkAoBwB_EcE","length":4},"routeShortName":"15","routeLongName":"Term. Chic / Costco","rentedBike":false,"transitLeg":true,"duration":40.0,"steps":[]},{"startTime":1522679228000,"endTime":1522680091000,"departureDelay":0,"arrivalDelay":0,"realTime":false,"distance":1108.7260000000003,"pathway":false,"mode":"WALK","route":"","agencyTimeZoneOffset":-14400000,"interlineWithPreviousLeg":false,"from":{"name":"Bégin / Youville","stopId":"1:581","stopCode":"581","lon":-71.065739,"lat":48.414902,"arrival":1522679227000,"departure":1522679228000,"zoneId":"NA","stopIndex":25,"stopSequence":26,"vertexType":"TRANSIT"},"to":{"name":"Destination","lon":-71.074303,"lat":48.420173,"arrival":1522680091000,"orig":"","vertexType":"NORMAL"},"legGeometry":{"points":"i`ofHj`wpLGGsCqCMOkAdDGReAvCu@xBeAT]x@o@nBe@nBYx@o@L_@J_@X]XGDWZW`@QR[h@gBvEo@|A|A|AJLdAjAkCvHIT_@bA","length":30},"rentedBike":false,"transitLeg":false,"duration":863.0,"steps":[{"distance":113.747,"relativeDirection":"DEPART","streetName":"Rue Bégin","absoluteDirection":"NORTHEAST","stayOn":false,"area":false,"bogusName":false,"lon":-71.06581464642983,"lat":48.41493511820995,"elevation":[]},{"distance":205.419,"relativeDirection":"LEFT","streetName":"Rue Dubé","absoluteDirection":"NORTHWEST","stayOn":false,"area":false,"bogusName":false,"lon":-71.06496530000001,"lat":48.4157887,"elevation":[]},{"distance":188.869,"relativeDirection":"RIGHT","streetName":"path","absoluteDirection":"NORTH","stayOn":false,"area":false,"bogusName":true,"lon":-71.0672681,"lat":48.416826400000005,"elevation":[]},{"distance":301.75699999999995,"relativeDirection":"RIGHT","streetName":"Rue Jolliet","absoluteDirection":"NORTH","stayOn":false,"area":false,"bogusName":false,"lon":-71.069079,"lat":48.417887500000006,"elevation":[]},{"distance":119.479,"relativeDirection":"LEFT","streetName":"Rue Des Eudistes","absoluteDirection":"SOUTHWEST","stayOn":false,"area":false,"bogusName":false,"lon":-71.07166600000001,"lat":48.4198673,"elevation":[]},{"distance":179.45499999999998,"relativeDirection":"RIGHT","streetName":"Rue François-Rénald","absoluteDirection":"NORTHWEST","stayOn":false,"area":false,"bogusName":false,"lon":-71.0725833,"lat":48.418982,"elevation":[]}]}],"tooSloped":false},{"duration":842,"startTime":1522680087000,"endTime":1522680929000,"walkTime":769,"transitTime":71,"waitingTime":2,"walkDistance":990.3940977398727,"walkLimitExceeded":false,"elevationLost":0.0,"elevationGained":0.0,"transfers":0,"legs":[{"startTime":1522680087000,"endTime":1522680804000,"departureDelay":0,"arrivalDelay":0,"realTime":false,"distance":927.3610000000001,"pathway":false,"mode":"WALK","route":"","agencyTimeZoneOffset":-14400000,"interlineWithPreviousLeg":false,"from":{"name":"Origin","lon":-71.066376,"lat":48.412628,"departure":1522680087000,"orig":"","vertexType":"NORMAL"},"to":{"name":"Boily / Oblats","stopId":"1:549","stopCode":"549","lon":-71.075339,"lat":48.416894,"arrival":1522680804000,"departure":1522680805000,"zoneId":"NA","stopIndex":24,"stopSequence":25,"vertexType":"TRANSIT"},"legGeometry":{"points":"konfHnfwpLyAdGMUs@m@{@u@UIIP}AhEi@xAc@jA{@`C_DrIaC`HQ`@iCnHe@pAXV","length":17},"rentedBike":false,"transitLeg":false,"duration":717.0,"steps":[{"distance":109.258,"relativeDirection":"DEPART","streetName":"Rue Georges-Vanier","absoluteDirection":"NORTHWEST","stayOn":false,"area":false,"bogusName":false,"lon":-71.066793,"lat":48.41222,"elevation":[]},{"distance":96.293,"relativeDirection":"RIGHT","streetName":"Rue Bégin","absoluteDirection":"NORTHEAST","stayOn":false,"area":false,"bogusName":false,"lon":-71.0681022,"lat":48.4126786,"elevation":[]},{"distance":705.0190000000001,"relativeDirection":"LEFT","streetName":"Rue Des Oblats Est","absoluteDirection":"NORTHWEST","stayOn":false,"area":false,"bogusName":false,"lon":-71.06744280000001,"lat":48.413416500000004,"elevation":[]},{"distance":16.791,"relativeDirection":"LEFT","streetName":"Rue Boily","absoluteDirection":"SOUTHWEST","stayOn":false,"area":false,"bogusName":false,"lon":-71.07527490000001,"lat":48.4170462,"elevation":[]}]},{"startTime":1522680805000,"endTime":1522680876000,"departureDelay":0,"arrivalDelay":0,"realTime":false,"distance":332.2168576921758,"pathway":false,"mode":"BUS","route":"14","agencyName":"Société de Transport du Saguenay","agencyUrl":"http://ville.saguenay.ca/fr/services-aux-citoyens/transport-sts","agencyTimeZoneOffset":-14400000,"routeColor":"C0C000","routeType":3,"routeId":"1:14","routeTextColor":"000000","interlineWithPreviousLeg":false,"tripBlockId":"33","headsign":"Terminus Chicoutimi","agencyId":"0","tripId":"1:218180","serviceDate":"20180402","from":{"name":"Boily / Oblats","stopId":"1:549","stopCode":"549","lon":-71.075339,"lat":48.416894,"arrival":1522680804000,"departure":1522680805000,"zoneId":"NA","stopIndex":24,"stopSequence":25,"vertexType":"TRANSIT"},"to":{"name":"Caron / François Rénald","stopId":"1:551","stopCode":"551","lon":-71.074183,"lat":48.41946,"arrival":1522680876000,"departure":1522680877000,"zoneId":"NA","stopIndex":26,"stopSequence":27,"vertexType":"TRANSIT"},"legGeometry":{"points":"wlofHh|xpL][aBhE}@}@oBmBwE{E","length":6},"routeShortName":"14","routeLongName":"Coopérative","rentedBike":false,"transitLeg":true,"duration":71.0,"steps":[]},{"startTime":1522680877000,"endTime":1522680929000,"departureDelay":0,"arrivalDelay":0,"realTime":false,"distance":62.89399999999999,"pathway":false,"mode":"WALK","route":"","agencyTimeZoneOffset":-14400000,"interlineWithPreviousLeg":false,"from":{"name":"Caron / François Rénald","stopId":"1:551","stopCode":"551","lon":-71.074183,"lat":48.41946,"arrival":1522680876000,"departure":1522680877000,"zoneId":"NA","stopIndex":26,"stopSequence":27,"vertexType":"TRANSIT"},"to":{"name":"Destination","lon":-71.074303,"lat":48.420173,"arrival":1522680929000,"orig":"","vertexType":"NORMAL"},"legGeometry":{"points":"}|ofHnuxpLa@a@IT_@bA","length":4},"rentedBike":false,"transitLeg":false,"duration":52.0,"steps":[{"distance":22.522,"relativeDirection":"DEPART","streetName":"Rue Caron","absoluteDirection":"NORTHEAST","stayOn":false,"area":false,"bogusName":false,"lon":-71.07431340190298,"lat":48.419519396896064,"elevation":[]},{"distance":40.372,"relativeDirection":"LEFT","streetName":"Rue François-Rénald","absoluteDirection":"NORTHWEST","stayOn":false,"area":false,"bogusName":false,"lon":-71.0741407,"lat":48.4196864,"elevation":[]}]}],"tooSloped":false}]},"debugOutput":{"precalculationTime":57,"pathCalculationTime":36,"pathTimes":[17,10,9],"renderingTime":0,"totalTime":93,"timedOut":false},"elevationMetadata":{"ellipsoidToGeoidDifference":-28.885904201182168,"geoidElevation":false}}