{"requestParameters":{"date":"2018/04/02","walkSpeed":"1.33","walkReluctance":"2.0","fromPlace":"48.44911,-71.08157599","maxWalkDistance":"3000","waitReluctance":"1.0","carSpeed":"33","numItineraries":"3","waitAtBeginningFactor":"0.4","mode":"TRANSIT,WALK","ignoreRealtimeUpdates":"false","stairsReluctance":"2.0","toPlace":"48.443857,-71.104687","time":"16:0:00"},"plan":{"date":1522699200000,"from":{"name":"Origin","lon":-71.08157599,"lat":48.44911,"orig":"","vertexType":"NORMAL"},"to":{"name":"Destination","lon":-71.104687,"lat":48.443857,"orig":"","vertexType":"NORMAL"},"itineraries":[{"duration":1622,"startTime":1522699200000,"endTime":1522700822000,"walkTime":1622,"transitTime":0,"waitingTime":0,"walkDistance":2098.5985263089965,"walkLimitExceeded":false,"elevationLost":0.0,"elevationGained":0.0,"transfers":0,"legs":[{"startTime":1522699200000,"endTime":1522700822000,"departureDelay":0,"arrivalDelay":0,"realTime":false,"distance":2098.388,"pathway":false,"mode":"WALK","route":"","agencyTimeZoneOffset":-14400000,"interlineWithPreviousLeg":false,"from":{"name":"Origin","lon":-71.08157599,"lat":48.44911,"departure":1522699200000,"orig":"","vertexType":"NORMAL"},"to":{"name":"Destination","lon":-71.104687,"lat":48.443857,"arrival":1522700822000,"orig":"","vertexType":"NORMAL"},"legGeometry":{"points":"wuufHpczpLo@TNpCLpCDl@Fn@H^JV\\|@FPJTv@lBN\\`@z@HF?Z?nDDnEFtICjCOrBCR_@rCOdC@l@TvF@TD`@XdE@X`@xH@HBHBJBHBFBFVf@Zl@aAvApA~CHZDPD\\A^Cf@GxAAd@|@HNBPJJHHPFR?XA^?PUtHBTDNFLDDL@F?V@vENFBHDLTJNBHHTFT@F@H?j@?l@`@@VFJJJNFRBFDJH`@lB[HE","length":87},"rentedBike":false,"transitLeg":false,"duration":1622.0,"steps":[{"distance":27.586,"relativeDirection":"DEPART","streetName":"path","absoluteDirection":"NORTH","stayOn":false,"area":false,"bogusName":false,"lon":-71.0816896317806,"lat":48.449087594991916,"elevation":[]},{"distance":280.95,"relativeDirection":"LEFT","streetName":"Rue Saint-Gérard","absoluteDirection":"WEST","stayOn":false,"area":false,"bogusName":false,"lon":-71.0817962,"lat":48.449325400000006,"elevation":[]},{"distance":35.026,"relativeDirection":"CONTINUE","streetName":"Rue Sainte-Marie Sud","absoluteDirection":"SOUTHWEST","stayOn":false,"area":false,"bogusName":false,"lon":-71.08521470000001,"lat":48.448382800000005,"elevation":[]},{"distance":75.112,"relativeDirection":"RIGHT","streetName":"path","absoluteDirection":"WEST","stayOn":false,"area":false,"bogusName":true,"lon":-71.0855571,"lat":48.448167500000004,"elevation":[]},{"distance":813.2679999999999,"relativeDirection":"CONTINUE","streetName":"Rue Giffard","absoluteDirection":"WEST","stayOn":false,"area":false,"bogusName":false,"lon":-71.08657550000001,"lat":48.4481685,"elevation":[]},{"distance":48.881,"relativeDirection":"RIGHT","streetName":"Rue Vallières","absoluteDirection":"NORTHWEST","stayOn":false,"area":false,"bogusName":false,"lon":-71.0972753,"lat":48.447614,"elevation":[]},{"distance":179.559,"relativeDirection":"LEFT","streetName":"Rue Chapleau","absoluteDirection":"SOUTHWEST","stayOn":false,"area":false,"bogusName":false,"lon":-71.09771520000001,"lat":48.4479428,"elevation":[]},{"distance":488.70799999999997,"relativeDirection":"LEFT","streetName":"Rue de Courcelette","absoluteDirection":"SOUTH","stayOn":false,"area":false,"bogusName":false,"lon":-71.09989730000001,"lat":48.4475081,"elevation":[]},{"distance":80.448,"relativeDirection":"LEFT","streetName":"Rue Sainte-Catherine","absoluteDirection":"SOUTH","stayOn":false,"area":false,"bogusName":false,"lon":-71.1036354,"lat":48.445213800000005,"elevation":[]},{"distance":68.85,"relativeDirection":"LEFT","streetName":"Rue des Ardennes","absoluteDirection":"SOUTH","stayOn":false,"area":false,"bogusName":false,"lon":-71.10419180000001,"lat":48.4446686,"elevation":[]}]}],"tooSloped":false},{"duration":1237,"startTime":1522700020000,"endTime":1522701257000,"walkTime":1006,"transitTime":229,"waitingTime":2,"walkDistance":1289.9184060081836,"walkLimitExceeded":false,"elevationLost":0.0,"elevationGained":0.0,"transfers":0,"legs":[{"startTime":1522700020000,"endTime":1522700668000,"departureDelay":0,"arrivalDelay":0,"realTime":false,"distance":829.1919999999999,"pathway":false,"mode":"WALK","route":"","agencyTimeZoneOffset":-14400000,"interlineWithPreviousLeg":false,"from":{"name":"Origin","lon":-71.08157599,"lat":48.44911,"departure":1522700020000,"orig":"","vertexType":"NORMAL"},"to":{"name":"St-Armand / St-Denis","stopId":"1:683","stopCode":"683","lon":-71.08776,"lat":48.445141,"arrival":1522700668000,"departure":1522700669000,"zoneId":"NA","stopIndex":8,"stopSequence":9,"vertexType":"TRANSIT"},"legGeometry":{"points":"wuufHpczpLo@TNpCLpCDl@Fn@H^JV\\|@FPJTv@lBN\\`@z@HFJHfCEB~DPPjKWBpD@Hd@t@","length":23},"rentedBike":false,"transitLeg":false,"duration":648.0,"steps":[{"distance":27.586,"relativeDirection":"DEPART","streetName":"path","absoluteDirection":"NORTH","stayOn":false,"area":false,"bogusName":false,"lon":-71.0816896317806,"lat":48.449087594991916,"elevation":[]},{"distance":280.95,"relativeDirection":"LEFT","streetName":"Rue Saint-Gérard","absoluteDirection":"WEST","stayOn":false,"area":false,"bogusName":false,"lon":-71.0817962,"lat":48.449325400000006,"elevation":[]},{"distance":35.026,"relativeDirection":"CONTINUE","streetName":"Rue Sainte-Marie Sud","absoluteDirection":"SOUTHWEST","stayOn":false,"area":false,"bogusName":false,"lon":-71.08521470000001,"lat":48.448382800000005,"elevation":[]},{"distance":83.991,"relativeDirection":"LEFT","streetName":"Rue Sainte-Marie Sud","absoluteDirection":"SOUTH","stayOn":true,"area":false,"bogusName":false,"lon":-71.0855571,"lat":48.448167500000004,"elevation":[]},{"distance":70.471,"relativeDirection":"RIGHT","streetName":"Rue Vallières","absoluteDirection":"WEST","stayOn":false,"area":false,"bogusName":false,"lon":-71.0855786,"lat":48.447420400000006,"elevation":[]},{"distance":232.221,"relativeDirection":"LEFT","streetName":"Rue Lasalle","absoluteDirection":"SOUTHWEST","stayOn":false,"area":false,"bogusName":false,"lon":-71.0865339,"lat":48.447408900000006,"elevation":[]},{"distance":69.987,"relativeDirection":"RIGHT","streetName":"Rue Saint-Armand","absoluteDirection":"WEST","stayOn":false,"area":false,"bogusName":false,"lon":-71.0865004,"lat":48.445339800000006,"elevation":[]},{"distance":28.96,"relativeDirection":"LEFT","streetName":"Rue Saint-Denis","absoluteDirection":"SOUTHWEST","stayOn":false,"area":false,"bogusName":false,"lon":-71.0874465,"lat":48.445303900000006,"elevation":[]}]},{"startTime":1522700669000,"endTime":1522700898000,"departureDelay":0,"arrivalDelay":0,"realTime":false,"distance":1274.8928796026994,"pathway":false,"mode":"BUS","route":"20","agencyName":"Société de Transport du Saguenay","agencyUrl":"http://ville.saguenay.ca/fr/services-aux-citoyens/transport-sts","agencyTimeZoneOffset":-14400000,"routeColor":"0000FF","routeType":3,"routeId":"1:20","routeTextColor":"FFFFFF","interlineWithPreviousLeg":false,"tripBlockId":"1","headsign":"Terminus Chicoutimi","agencyId":"0","tripId":"1:217149","serviceDate":"20180402","from":{"name":"St-Armand / St-Denis","stopId":"1:683","stopCode":"683","lon":-71.08776,"lat":48.445141,"arrival":1522700668000,"departure":1522700669000,"zoneId":"NA","stopIndex":8,"stopSequence":9,"vertexType":"TRANSIT"},"to":{"name":"Chapleau / Ste-Catherine","stopId":"1:691","stopCode":"691","lon":-71.103068,"lat":48.447954,"arrival":1522700898000,"departure":1522700899000,"zoneId":"NA","stopIndex":15,"stopSequence":16,"vertexType":"TRANSIT"},"legGeometry":{"points":"{|tfHdi{pLT^JVBNBV@RCbE?VCVy@nGCRCFGLKJQNSHaAZa@Pk@\\a@XZrAHp@@FDj@Bp@?~I@fHAd@C`@ERELA@GHMHi@PSBy@BW?YDMDC?OHULWVOXQXSb@~@~BJXF`@Fj@?VAvACv@e@hNGx@MdAQr@IL","length":59},"routeShortName":"20","routeLongName":"Sainte-Claire","rentedBike":false,"transitLeg":true,"duration":229.0,"steps":[]},{"startTime":1522700899000,"endTime":1522701257000,"departureDelay":0,"arrivalDelay":0,"realTime":false,"distance":460.5139999999999,"pathway":false,"mode":"WALK","route":"","agencyTimeZoneOffset":-14400000,"interlineWithPreviousLeg":false,"from":{"name":"Chapleau / Ste-Catherine","stopId":"1:691","stopCode":"691","lon":-71.103068,"lat":48.447954,"arrival":1522700898000,"departure":1522700899000,"zoneId":"NA","stopIndex":15,"stopSequence":16,"vertexType":"TRANSIT"},"to":{"name":"Destination","lon":-71.104687,"lat":48.443857,"arrival":1522701257000,"orig":"","vertexType":"NORMAL"},"legGeometry":{"points":"mnufHni~pLDK~@~@JHJDHBPBd@@x@@D@zFP~@B`@@VFJJJNFRBFDJH`@lB[HE","length":22},"rentedBike":false,"transitLeg":false,"duration":358.0,"steps":[{"distance":5.478,"relativeDirection":"DEPART","streetName":"Rue Chapleau","absoluteDirection":"SOUTHEAST","stayOn":false,"area":false,"bogusName":false,"lon":-71.10311575854293,"lat":48.44791323636233,"elevation":[]},{"distance":386.186,"relativeDirection":"RIGHT","streetName":"Rue Sainte-Catherine","absoluteDirection":"SOUTHWEST","stayOn":false,"area":false,"bogusName":false,"lon":-71.1030571,"lat":48.447883000000004,"elevation":[]},{"distance":68.85,"relativeDirection":"LEFT","streetName":"Rue des Ardennes","absoluteDirection":"SOUTH","stayOn":false,"area":false,"bogusName":false,"lon":-71.10419180000001,"lat":48.4446686,"elevation":[]}]}],"tooSloped":false},{"duration":1311,"startTime":1522700388000,"endTime":1522701699000,"walkTime":1210,"transitTime":99,"waitingTime":2,"walkDistance":1557.2662631496582,"walkLimitExceeded":false,"elevationLost":0.0,"elevationGained":0.0,"transfers":0,"legs":[{"startTime":1522700388000,"endTime":1522700595000,"departureDelay":0,"arrivalDelay":0,"realTime":false,"distance":261.911,"pathway":false,"mode":"WALK","route":"","agencyTimeZoneOffset":-14400000,"interlineWithPreviousLeg":false,"from":{"name":"Origin","lon":-71.08157599,"lat":48.44911,"departure":1522700388000,"orig":"","vertexType":"NORMAL"},"to":{"name":"St-Gérard / Pasteur","stopId":"1:733","stopCode":"733","lon":-71.0845,"lat":48.4489,"arrival":1522700595000,"departure":1522700596000,"zoneId":"NA","stopIndex":7,"stopSequence":8,"vertexType":"TRANSIT"},"legGeometry":{"points":"wuufHpczpLo@TNpCLpCDl@Fn@H^JV\\|@FPJTGHKFI?","length":14},"rentedBike":false,"transitLeg":false,"duration":207.0,"steps":[{"distance":27.586,"relativeDirection":"DEPART","streetName":"path","absoluteDirection":"NORTH","stayOn":false,"area":false,"bogusName":false,"lon":-71.0816896317806,"lat":48.449087594991916,"elevation":[]},{"distance":215.415,"relativeDirection":"LEFT","streetName":"Rue Saint-Gérard","absoluteDirection":"WEST","stayOn":false,"area":false,"bogusName":false,"lon":-71.0817962,"lat":48.449325400000006,"elevation":[]},{"distance":18.91,"relativeDirection":"RIGHT","streetName":"Rue Pasteur Nord","absoluteDirection":"NORTHWEST","stayOn":false,"area":false,"bogusName":false,"lon":-71.0845147,"lat":48.4487454,"elevation":[]}]},{"startTime":1522700596000,"endTime":1522700695000,"departureDelay":0,"arrivalDelay":0,"realTime":false,"distance":1256.0728690570236,"pathway":false,"mode":"BUS","route":"21","agencyName":"Société de Transport du Saguenay","agencyUrl":"http://ville.saguenay.ca/fr/services-aux-citoyens/transport-sts","agencyTimeZoneOffset":-14400000,"routeColor":"556B2F","routeType":3,"routeId":"1:21","routeTextColor":"FFFFFF","interlineWithPreviousLeg":false,"tripBlockId":"2","headsign":"Terminus Chicoutimi","agencyId":"0","tripId":"1:217175","serviceDate":"20180402","from":{"name":"St-Gérard / Pasteur","stopId":"1:733","stopCode":"733","lon":-71.0845,"lat":48.4489,"arrival":1522700595000,"departure":1522700596000,"zoneId":"NA","stopIndex":7,"stopSequence":8,"vertexType":"TRANSIT"},"to":{"name":"boul. Ste-Geneviève (no. 1400)","stopId":"1:712","stopCode":"712","lon":-71.100066,"lat":48.453047,"arrival":1522700695000,"departure":1522700696000,"zoneId":"NA","stopIndex":12,"stopSequence":13,"vertexType":"TRANSIT"},"legGeometry":{"points":"_tufHltzpLBFNb@t@xAiCvCMP}@jAY`@q@jAm@jA}@rBmArD?Tu@|CYzAET{AxOQhBQ~Aa@~DQ~A[xCM~AiAjLo@vG","length":25},"routeShortName":"21","routeLongName":"Boul. Ste-Geneviève/Élie","rentedBike":false,"transitLeg":true,"duration":99.0,"steps":[]},{"startTime":1522700696000,"endTime":1522701699000,"departureDelay":0,"arrivalDelay":0,"realTime":false,"distance":1295.0999999999997,"pathway":false,"mode":"WALK","route":"","agencyTimeZoneOffset":-14400000,"interlineWithPreviousLeg":false,"from":{"name":"boul. Ste-Geneviève (no. 1400)","stopId":"1:712","stopCode":"712","lon":-71.100066,"lat":48.453047,"arrival":1522700695000,"departure":1522700696000,"zoneId":"NA","stopIndex":12,"stopSequence":13,"vertexType":"TRANSIT"},"to":{"name":"Destination","lon":-71.104687,"lat":48.443857,"arrival":1522701699000,"orig":"","vertexType":"NORMAL"},"legGeometry":{"points":"cnvfHrv}pLOvAPT`B|Bb@VAt@BnDQtBnCdAfCd@xBRb@c@|An@`@\\PtARDn@o@zAqA\\OVOPMJEDEFCDGLSPULU?ADK~@~@JHJDHBPBd@@x@@D@zFP~@B`@@VFJJJNFRBFDJH`@lB[HE","length":50},"rentedBike":false,"transitLeg":false,"duration":1003.0,"steps":[{"distance":34.003,"relativeDirection":"DEPART","streetName":"Boulevard Sainte-Geneviève","absoluteDirection":"WEST","stayOn":false,"area":false,"bogusName":false,"lon":-71.10009072776147,"lat":48.45298360822897,"elevation":[]},{"distance":610.107,"relativeDirection":"LEFT","streetName":"path","absoluteDirection":"SOUTHWEST","stayOn":false,"area":false,"bogusName":true,"lon":-71.10053710000001,"lat":48.4530602,"elevation":[]},{"distance":195.954,"relativeDirection":"LEFT","streetName":"Rue Chapleau","absoluteDirection":"SOUTHEAST","stayOn":false,"area":false,"bogusName":false,"lon":-71.10444170000001,"lat":48.449363700000006,"elevation":[]},{"distance":386.186,"relativeDirection":"RIGHT","streetName":"Rue Sainte-Catherine","absoluteDirection":"SOUTHWEST","stayOn":false,"area":false,"bogusName":false,"lon":-71.1030571,"lat":48.447883000000004,"elevation":[]},{"distance":68.85,"relativeDirection":"LEFT","streetName":"Rue des Ardennes","absoluteDirection":"SOUTH","stayOn":false,"area":false,"bogusName":false,"lon":-71.10419180000001,"lat":48.4446686,"elevation":[]}]}],"tooSloped":false}]},"debugOutput":{"precalculationTime":9,"pathCalculationTime":22,"pathTimes":[14,3,4],"renderingTime":0,"totalTime":31,"timedOut":false},"elevationMetadata":{"ellipsoidToGeoidDifference":-28.885904201182168,"geoidElevation":false}}