{"requestParameters":{"date":"2018/04/02","walkSpeed":"1.33","walkReluctance":"2.0","fromPlace":"48.447307,-71.103768","maxWalkDistance":"3000","waitReluctance":"1.0","carSpeed":"33","numItineraries":"3","waitAtBeginningFactor":"0.4","mode":"TRANSIT,WALK","ignoreRealtimeUpdates":"false","stairsReluctance":"2.0","toPlace":"48.44911,-71.08157599","time":"8:45:00"},"plan":{"date":1522673100000,"from":{"name":"Origin","lon":-71.103768,"lat":48.447307,"orig":"","vertexType":"NORMAL"},"to":{"name":"Destination","lon":-71.08157599,"lat":48.44911,"orig":"","vertexType":"NORMAL"},"itineraries":[{"duration":1372,"startTime":1522673100000,"endTime":1522674472000,"walkTime":1372,"transitTime":0,"waitingTime":0,"walkDistance":1772.859691723622,"walkLimitExceeded":false,"elevationLost":0.0,"elevationGained":0.0,"transfers":0,"legs":[{"startTime":1522673100000,"endTime":1522674472000,"departureDelay":0,"arrivalDelay":0,"realTime":false,"distance":1772.683,"pathway":false,"mode":"WALK","route":"","agencyTimeZoneOffset":-14400000,"interlineWithPreviousLeg":false,"from":{"name":"Origin","lon":-71.103768,"lat":48.447307,"departure":1522673100000,"orig":"","vertexType":"NORMAL"},"to":{"name":"Destination","lon":-71.08157599,"lat":48.44911,"arrival":1522674472000,"orig":"","vertexType":"NORMAL"},"legGeometry":{"points":"sjufHzk~pL??QCICKEKI_A_ADMFWF[FYFi@Fm@ZoL@S@e@FyABg@@_@E]EQI[qA_D`AwA[m@Wg@CGCGCICKCIAIa@yHAYYeEEa@AUUwFAm@NeC^sCBSNsBBkCGuIEoE?oD?[IGa@{@O]w@mBKUGQ]}@KWI_@Go@Em@MqCOqCn@U","length":62},"rentedBike":false,"transitLeg":false,"duration":1372.0,"steps":[{"distance":73.416,"relativeDirection":"DEPART","streetName":"Rue Sainte-Catherine","absoluteDirection":"NORTH","stayOn":false,"area":false,"bogusName":false,"lon":-71.10349110220282,"lat":48.44730094398384,"elevation":[]},{"distance":418.44399999999996,"relativeDirection":"RIGHT","streetName":"Rue Chapleau","absoluteDirection":"SOUTHEAST","stayOn":false,"area":false,"bogusName":false,"lon":-71.1030571,"lat":48.447883000000004,"elevation":[]},{"distance":48.881,"relativeDirection":"RIGHT","streetName":"Rue Vallières","absoluteDirection":"SOUTHEAST","stayOn":false,"area":false,"bogusName":false,"lon":-71.09771520000001,"lat":48.4479428,"elevation":[]},{"distance":813.268,"relativeDirection":"LEFT","streetName":"Rue Giffard","absoluteDirection":"NORTHEAST","stayOn":false,"area":false,"bogusName":false,"lon":-71.0972753,"lat":48.447614,"elevation":[]},{"distance":75.112,"relativeDirection":"CONTINUE","streetName":"path","absoluteDirection":"EAST","stayOn":false,"area":false,"bogusName":true,"lon":-71.08657550000001,"lat":48.4481685,"elevation":[]},{"distance":35.026,"relativeDirection":"LEFT","streetName":"Rue Sainte-Marie Sud","absoluteDirection":"NORTHEAST","stayOn":false,"area":false,"bogusName":false,"lon":-71.0855571,"lat":48.448167500000004,"elevation":[]},{"distance":280.95,"relativeDirection":"CONTINUE","streetName":"Rue Saint-Gérard","absoluteDirection":"NORTHEAST","stayOn":false,"area":false,"bogusName":false,"lon":-71.08521470000001,"lat":48.448382800000005,"elevation":[]},{"distance":27.586,"relativeDirection":"RIGHT","streetName":"path","absoluteDirection":"SOUTH","stayOn":false,"area":false,"bogusName":false,"lon":-71.0817962,"lat":48.449325400000006,"elevation":[]}]}],"tooSloped":false},{"duration":698,"startTime":1522673833000,"endTime":1522674531000,"walkTime":445,"transitTime":251,"waitingTime":2,"walkDistance":567.6419624032735,"walkLimitExceeded":false,"elevationLost":0.0,"elevationGained":0.0,"transfers":0,"legs":[{"startTime":1522673833000,"endTime":1522673897000,"departureDelay":0,"arrivalDelay":0,"realTime":false,"distance":78.89399999999999,"pathway":false,"mode":"WALK","route":"","agencyTimeZoneOffset":-14400000,"interlineWithPreviousLeg":false,"from":{"name":"Origin","lon":-71.103768,"lat":48.447307,"departure":1522673833000,"orig":"","vertexType":"NORMAL"},"to":{"name":"Chapleau / Ste-Catherine","stopId":"1:691","stopCode":"691","lon":-71.103068,"lat":48.447954,"arrival":1522673897000,"departure":1522673898000,"zoneId":"NA","stopIndex":15,"stopSequence":16,"vertexType":"TRANSIT"},"legGeometry":{"points":"sjufHzk~pL??QCICKEKI_A_AEJ","length":8},"rentedBike":false,"transitLeg":false,"duration":64.0,"steps":[{"distance":73.416,"relativeDirection":"DEPART","streetName":"Rue Sainte-Catherine","absoluteDirection":"NORTH","stayOn":false,"area":false,"bogusName":false,"lon":-71.10349110220282,"lat":48.44730094398384,"elevation":[]},{"distance":5.478,"relativeDirection":"LEFT","streetName":"Rue Chapleau","absoluteDirection":"NORTHWEST","stayOn":false,"area":false,"bogusName":false,"lon":-71.1030571,"lat":48.447883000000004,"elevation":[]}]},{"startTime":1522673898000,"endTime":1522674149000,"departureDelay":0,"arrivalDelay":0,"realTime":false,"distance":1315.0374015916589,"pathway":false,"mode":"BUS","route":"20","agencyName":"Société de Transport du Saguenay","agencyUrl":"http://ville.saguenay.ca/fr/services-aux-citoyens/transport-sts","agencyTimeZoneOffset":-14400000,"routeColor":"0000FF","routeType":3,"routeId":"1:20","routeTextColor":"FFFFFF","interlineWithPreviousLeg":false,"tripBlockId":"3","headsign":"Terminus Chicoutimi","agencyId":"0","tripId":"1:217191","serviceDate":"20180402","from":{"name":"Chapleau / Ste-Catherine","stopId":"1:691","stopCode":"691","lon":-71.103068,"lat":48.447954,"arrival":1522673897000,"departure":1522673898000,"zoneId":"NA","stopIndex":15,"stopSequence":16,"vertexType":"TRANSIT"},"to":{"name":"Ste-Marie (no. 224)","stopId":"1:697","stopCode":"697","lon":-71.085685,"lat":48.44687,"arrival":1522674149000,"departure":1522674150000,"zoneId":"NA","stopIndex":21,"stopSequence":22,"vertexType":"TRANSIT"},"legGeometry":{"points":"mnufHpi~pLQ\\a@d@w@aCCQAO@ODOHQDSDWLoDRgGBMFMHIHAfBNDuA@wA?WGk@Ga@KY_A_CRc@PYNYUk@Q[O]KYC]_AaQYwF?W?Y?UBc@D_@d@{DNaAB]@O@]?}BbA?hA?A}I?iEEcEjBC","length":52},"routeShortName":"20","routeLongName":"Sainte-Claire","rentedBike":false,"transitLeg":true,"duration":251.0,"steps":[]},{"startTime":1522674150000,"endTime":1522674531000,"departureDelay":0,"arrivalDelay":0,"realTime":false,"distance":488.663,"pathway":false,"mode":"WALK","route":"","agencyTimeZoneOffset":-14400000,"interlineWithPreviousLeg":false,"from":{"name":"Ste-Marie (no. 224)","stopId":"1:697","stopCode":"697","lon":-71.085685,"lat":48.44687,"arrival":1522674149000,"departure":1522674150000,"zoneId":"NA","stopIndex":21,"stopSequence":22,"vertexType":"TRANSIT"},"to":{"name":"Destination","lon":-71.08157599,"lat":48.44911,"arrival":1522674531000,"orig":"","vertexType":"NORMAL"},"legGeometry":{"points":"}gufHx{zpLmB@gCDKIIGa@{@O]w@mBKUGQ]}@KWI_@Go@Em@MqCOqCn@U","length":18},"rentedBike":false,"transitLeg":false,"duration":381.0,"steps":[{"distance":145.101,"relativeDirection":"DEPART","streetName":"Rue Sainte-Marie Sud","absoluteDirection":"NORTH","stayOn":false,"area":false,"bogusName":false,"lon":-71.0855691296444,"lat":48.44687087860302,"elevation":[]},{"distance":35.026,"relativeDirection":"RIGHT","streetName":"Rue Sainte-Marie Sud","absoluteDirection":"NORTHEAST","stayOn":true,"area":false,"bogusName":false,"lon":-71.0855571,"lat":48.448167500000004,"elevation":[]},{"distance":280.95,"relativeDirection":"CONTINUE","streetName":"Rue Saint-Gérard","absoluteDirection":"NORTHEAST","stayOn":false,"area":false,"bogusName":false,"lon":-71.08521470000001,"lat":48.448382800000005,"elevation":[]},{"distance":27.586,"relativeDirection":"RIGHT","streetName":"path","absoluteDirection":"SOUTH","stayOn":false,"area":false,"bogusName":false,"lon":-71.0817962,"lat":48.449325400000006,"elevation":[]}]}],"tooSloped":false},{"duration":698,"startTime":1522675633000,"endTime":1522676331000,"walkTime":445,"transitTime":251,"waitingTime":2,"walkDistance":567.6419624032735,"walkLimitExceeded":false,"elevationLost":0.0,"elevationGained":0.0,"transfers":0,"legs":[{"startTime":1522675633000,"endTime":1522675697000,"departureDelay":0,"arrivalDelay":0,"realTime":false,"distance":78.89399999999999,"pathway":false,"mode":"WALK","route":"","agencyTimeZoneOffset":-14400000,"interlineWithPreviousLeg":false,"from":{"name":"Origin","lon":-71.103768,"lat":48.447307,"departure":1522675633000,"orig":"","vertexType":"NORMAL"},"to":{"name":"Chapleau / Ste-Catherine","stopId":"1:691","stopCode":"691","lon":-71.103068,"lat":48.447954,"arrival":1522675697000,"departure":1522675698000,"zoneId":"NA","stopIndex":15,"stopSequence":16,"vertexType":"TRANSIT"},"legGeometry":{"points":"sjufHzk~pL??QCICKEKI_A_AEJ","length":8},"rentedBike":false,"transitLeg":false,"duration":64.0,"steps":[{"distance":73.416,"relativeDirection":"DEPART","streetName":"Rue Sainte-Catherine","absoluteDirection":"NORTH","stayOn":false,"area":false,"bogusName":false,"lon":-71.10349110220282,"lat":48.44730094398384,"elevation":[]},{"distance":5.478,"relativeDirection":"LEFT","streetName":"Rue Chapleau","absoluteDirection":"NORTHWEST","stayOn":false,"area":false,"bogusName":false,"lon":-71.1030571,"lat":48.447883000000004,"elevation":[]}]},{"startTime":1522675698000,"endTime":1522675949000,"departureDelay":0,"arrivalDelay":0,"realTime":false,"distance":1315.0374015916589,"pathway":false,"mode":"BUS","route":"20","agencyName":"Société de Transport du Saguenay","agencyUrl":"http://ville.saguenay.ca/fr/services-aux-citoyens/transport-sts","agencyTimeZoneOffset":-14400000,"routeColor":"0000FF","routeType":3,"routeId":"1:20","routeTextColor":"FFFFFF","interlineWithPreviousLeg":false,"tripBlockId":"1","headsign":"Terminus Chicoutimi","agencyId":"0","tripId":"1:217135","serviceDate":"20180402","from":{"name":"Chapleau / Ste-Catherine","stopId":"1:691","stopCode":"691","lon":-71.103068,"lat":48.447954,"arrival":1522675697000,"departure":1522675698000,"zoneId":"NA","stopIndex":15,"stopSequence":16,"vertexType":"TRANSIT"},"to":{"name":"Ste-Marie (no. 224)","stopId":"1:697","stopCode":"697","lon":-71.085685,"lat":48.44687,"arrival":1522675949000,"departure":1522675950000,"zoneId":"NA","stopIndex":21,"stopSequence":22,"vertexType":"TRANSIT"},"legGeometry":{"points":"mnufHpi~pLQ\\a@d@w@aCCQAO@ODOHQDSDWLoDRgGBMFMHIHAfBNDuA@wA?WGk@Ga@KY_A_CRc@PYNYUk@Q[O]KYC]_AaQYwF?W?Y?UBc@D_@d@{DNaAB]@O@]?}BbA?hA?A}I?iEEcEjBC","length":52},"routeShortName":"20","routeLongName":"Sainte-Claire","rentedBike":false,"transitLeg":true,"duration":251.0,"steps":[]},{"startTime":1522675950000,"endTime":1522676331000,"departureDelay":0,"arrivalDelay":0,"realTime":false,"distance":488.663,"pathway":false,"mode":"WALK","route":"","agencyTimeZoneOffset":-14400000,"interlineWithPreviousLeg":false,"from":{"name":"Ste-Marie (no. 224)","stopId":"1:697","stopCode":"697","lon":-71.085685,"lat":48.44687,"arrival":1522675949000,"departure":1522675950000,"zoneId":"NA","stopIndex":21,"stopSequence":22,"vertexType":"TRANSIT"},"to":{"name":"Destination","lon":-71.08157599,"lat":48.44911,"arrival":1522676331000,"orig":"","vertexType":"NORMAL"},"legGeometry":{"points":"}gufHx{zpLmB@gCDKIIGa@{@O]w@mBKUGQ]}@KWI_@Go@Em@MqCOqCn@U","length":18},"rentedBike":false,"transitLeg":false,"duration":381.0,"steps":[{"distance":145.101,"relativeDirection":"DEPART","streetName":"Rue Sainte-Marie Sud","absoluteDirection":"NORTH","stayOn":false,"area":false,"bogusName":false,"lon":-71.0855691296444,"lat":48.44687087860302,"elevation":[]},{"distance":35.026,"relativeDirection":"RIGHT","streetName":"Rue Sainte-Marie Sud","absoluteDirection":"NORTHEAST","stayOn":true,"area":false,"bogusName":false,"lon":-71.0855571,"lat":48.448167500000004,"elevation":[]},{"distance":280.95,"relativeDirection":"CONTINUE","streetName":"Rue Saint-Gérard","absoluteDirection":"NORTHEAST","stayOn":false,"area":false,"bogusName":false,"lon":-71.08521470000001,"lat":48.448382800000005,"elevation":[]},{"distance":27.586,"relativeDirection":"RIGHT","streetName":"path","absoluteDirection":"SOUTH","stayOn":false,"area":false,"bogusName":false,"lon":-71.0817962,"lat":48.449325400000006,"elevation":[]}]}],"tooSloped":false}]},"debugOutput":{"precalculationTime":11,"pathCalculationTime":19,"pathTimes":[8,8,3],"renderingTime":1,"totalTime":31,"timedOut":false},"elevationMetadata":{"ellipsoidToGeoidDifference":-28.885904201182168,"geoidElevation":false}}