{"requestParameters":{"date":"2018/04/02","walkSpeed":"1.33","walkReluctance":"2.0","fromPlace":"48.444119,-71.080494","maxWalkDistance":"3000","waitReluctance":"1.0","carSpeed":"33","numItineraries":"3","waitAtBeginningFactor":"0.4","mode":"TRANSIT,WALK","ignoreRealtimeUpdates":"false","stairsReluctance":"2.0","toPlace":"48.446418,-71.105231","time":"9:30:00"},"plan":{"date":1522675800000,"from":{"name":"Origin","lon":-71.080494,"lat":48.444119,"orig":"","vertexType":"NORMAL"},"to":{"name":"Destination","lon":-71.105231,"lat":48.446418,"orig":"","vertexType":"NORMAL"},"itineraries":[{"duration":739,"startTime":1522676971000,"endTime":1522677710000,"walkTime":404,"transitTime":333,"waitingTime":2,"walkDistance":511.88227067319815,"walkLimitExceeded":false,"elevationLost":0.0,"elevationGained":0.0,"transfers":0,"legs":[{"startTime":1522676971000,"endTime":1522677164000,"departureDelay":0,"arrivalDelay":0,"realTime":false,"distance":245.252,"pathway":false,"mode":"WALK","route":"","agencyTimeZoneOffset":-14400000,"interlineWithPreviousLeg":false,"from":{"name":"Origin","lon":-71.080494,"lat":48.444119,"departure":1522676971000,"orig":"","vertexType":"NORMAL"},"to":{"name":"Sauvé / St-Albert","stopId":"1:681","stopCode":"681","lon":-71.079877,"lat":48.443248,"arrival":1522677164000,"departure":1522677165000,"zoneId":"NA","stopIndex":6,"stopSequence":7,"vertexType":"TRANSIT"},"legGeometry":{"points":"wytfHjyypLlAiEb@`@TJ\\LhCv@Wx@","length":7},"rentedBike":false,"transitLeg":false,"duration":193.0,"steps":[{"distance":86.223,"relativeDirection":"DEPART","streetName":"Boulevard Sainte-Geneviève","absoluteDirection":"SOUTHEAST","stayOn":false,"area":false,"bogusName":false,"lon":-71.08005452675857,"lat":48.4446094224144,"elevation":[]},{"distance":133.438,"relativeDirection":"RIGHT","streetName":"Rue Saint-Albert","absoluteDirection":"SOUTHWEST","stayOn":false,"area":false,"bogusName":false,"lon":-71.0790497,"lat":48.4442132,"elevation":[]},{"distance":25.591,"relativeDirection":"RIGHT","streetName":"Rue Sauvé","absoluteDirection":"NORTHWEST","stayOn":false,"area":false,"bogusName":false,"lon":-71.07962210000001,"lat":48.4430824,"elevation":[]}]},{"startTime":1522677165000,"endTime":1522677498000,"departureDelay":0,"arrivalDelay":0,"realTime":false,"distance":1895.7669084369409,"pathway":false,"mode":"BUS","route":"20","agencyName":"Société de Transport du Saguenay","agencyUrl":"http://ville.saguenay.ca/fr/services-aux-citoyens/transport-sts","agencyTimeZoneOffset":-14400000,"routeColor":"0000FF","routeType":3,"routeId":"1:20","routeTextColor":"FFFFFF","interlineWithPreviousLeg":false,"tripBlockId":"3","headsign":"Terminus Chicoutimi","agencyId":"0","tripId":"1:217193","serviceDate":"20180402","from":{"name":"Sauvé / St-Albert","stopId":"1:681","stopCode":"681","lon":-71.079877,"lat":48.443248,"arrival":1522677164000,"departure":1522677165000,"zoneId":"NA","stopIndex":6,"stopSequence":7,"vertexType":"TRANSIT"},"to":{"name":"Chapleau / Ste-Catherine","stopId":"1:691","stopCode":"691","lon":-71.103068,"lat":48.447954,"arrival":1522677498000,"departure":1522677499000,"zoneId":"NA","stopIndex":15,"stopSequence":16,"vertexType":"TRANSIT"},"legGeometry":{"points":"_qtfHnxypLSx@{A`FyBfHmDjJCDEVE`B?vFBjC@ZFX\\j@T^JVBNBV@RCbE?VCVy@nGCRCFGLKJQNSHaAZa@Pk@\\a@XZrAHp@@FDj@Bp@?~I@fHAd@C`@ERELA@GHMHi@PSBy@BW?YDMDC?OHULWVOXQXSb@~@~BJXF`@Fj@?VAvACv@e@hNGx@MdAQr@IL","length":71},"routeShortName":"20","routeLongName":"Sainte-Claire","rentedBike":false,"transitLeg":true,"duration":333.0,"steps":[]},{"startTime":1522677499000,"endTime":1522677710000,"departureDelay":0,"arrivalDelay":0,"realTime":false,"distance":266.522,"pathway":false,"mode":"WALK","route":"","agencyTimeZoneOffset":-14400000,"interlineWithPreviousLeg":false,"from":{"name":"Chapleau / Ste-Catherine","stopId":"1:691","stopCode":"691","lon":-71.103068,"lat":48.447954,"arrival":1522677498000,"departure":1522677499000,"zoneId":"NA","stopIndex":15,"stopSequence":16,"vertexType":"TRANSIT"},"to":{"name":"Destination","lon":-71.105231,"lat":48.446418,"arrival":1522677710000,"orig":"","vertexType":"NORMAL"},"legGeometry":{"points":"mnufHni~pLDK~@~@JHJDHBPBd@@AdC?JBPHPHJJBLBNAL?Az@@z@F@BJ@J","length":22},"rentedBike":false,"transitLeg":false,"duration":211.0,"steps":[{"distance":5.478,"relativeDirection":"DEPART","streetName":"Rue Chapleau","absoluteDirection":"SOUTHEAST","stayOn":false,"area":false,"bogusName":false,"lon":-71.10311575854293,"lat":48.44791323636233,"elevation":[]},{"distance":94.222,"relativeDirection":"RIGHT","streetName":"Rue Sainte-Catherine","absoluteDirection":"SOUTHWEST","stayOn":false,"area":false,"bogusName":false,"lon":-71.1030571,"lat":48.447883000000004,"elevation":[]},{"distance":108.136,"relativeDirection":"RIGHT","streetName":"Rue Augé","absoluteDirection":"WEST","stayOn":false,"area":false,"bogusName":false,"lon":-71.1035004,"lat":48.447113900000005,"elevation":[]},{"distance":58.68599999999999,"relativeDirection":"RIGHT","streetName":"Rue Forget","absoluteDirection":"WEST","stayOn":false,"area":false,"bogusName":false,"lon":-71.10450660000001,"lat":48.4467264,"elevation":[]}]}],"tooSloped":false},{"duration":1277,"startTime":1522676875000,"endTime":1522678152000,"walkTime":1018,"transitTime":257,"waitingTime":2,"walkDistance":1304.6647368342085,"walkLimitExceeded":false,"elevationLost":0.0,"elevationGained":0.0,"transfers":0,"legs":[{"startTime":1522676875000,"endTime":1522677037000,"departureDelay":0,"arrivalDelay":0,"realTime":false,"distance":203.312,"pathway":false,"mode":"WALK","route":"","agencyTimeZoneOffset":-14400000,"interlineWithPreviousLeg":false,"from":{"name":"Origin","lon":-71.080494,"lat":48.444119,"departure":1522676875000,"orig":"","vertexType":"NORMAL"},"to":{"name":"Place de la Colline (boul. Ste-Geneviève)","stopId":"1:706","stopCode":"706","lon":-71.080094,"lat":48.44485,"arrival":1522677037000,"departure":1522677038000,"zoneId":"NA","stopIndex":2,"stopSequence":3,"vertexType":"TRANSIT"},"legGeometry":{"points":"wytfHjyypLlAiEQSeBjF","length":4},"rentedBike":false,"transitLeg":false,"duration":162.0,"steps":[{"distance":86.223,"relativeDirection":"DEPART","streetName":"Boulevard Sainte-Geneviève","absoluteDirection":"SOUTHEAST","stayOn":false,"area":false,"bogusName":false,"lon":-71.08005452675857,"lat":48.4446094224144,"elevation":[]},{"distance":117.089,"relativeDirection":"UTURN_LEFT","streetName":"Boulevard Sainte-Geneviève","absoluteDirection":"NORTHWEST","stayOn":true,"area":false,"bogusName":false,"lon":-71.07894370000001,"lat":48.444307900000005,"elevation":[]}]},{"startTime":1522677038000,"endTime":1522677295000,"departureDelay":0,"arrivalDelay":0,"realTime":false,"distance":2685.435130426238,"pathway":false,"mode":"BUS","route":"21","agencyName":"Société de Transport du Saguenay","agencyUrl":"http://ville.saguenay.ca/fr/services-aux-citoyens/transport-sts","agencyTimeZoneOffset":-14400000,"routeColor":"556B2F","routeType":3,"routeId":"1:21","routeTextColor":"FFFFFF","interlineWithPreviousLeg":false,"tripBlockId":"2","headsign":"Terminus Chicoutimi","agencyId":"0","tripId":"1:217162","serviceDate":"20180402","from":{"name":"Place de la Colline (boul. Ste-Geneviève)","stopId":"1:706","stopCode":"706","lon":-71.080094,"lat":48.44485,"arrival":1522677037000,"departure":1522677038000,"zoneId":"NA","stopIndex":2,"stopSequence":3,"vertexType":"TRANSIT"},"to":{"name":"boul. Ste-Geneviève (no. 1400)","stopId":"1:712","stopCode":"712","lon":-71.100066,"lat":48.453047,"arrival":1522677295000,"departure":1522677296000,"zoneId":"NA","stopIndex":12,"stopSequence":13,"vertexType":"TRANSIT"},"legGeometry":{"points":"{ztfH~yypLCD}@hCo@~Aq@pAs@fAWs@IUC[AI?QCeGAs@Gy@Ks@Ou@OcAIcAIgAWgCG_@Og@IQS]UWYQWIUA[Da@P]RSVQ`@Ib@Ef@Et@Gf@Id@I`@Od@cCxFQOgAwA_FqGO[`BcEY_@MOaBtDLTh@bATZpGlIPNa@fAOn@Gd@UtBA^A^R`E^fGRbAVl@P`@BFNb@t@xAiCvCMP}@jAY`@q@jAm@jA}@rBmArD?Tu@|CYzAET{AxOQhBQ~Aa@~DQ~A[xCM~AiAjLo@vG","length":89},"routeShortName":"21","routeLongName":"Boul. Ste-Geneviève/Élie","rentedBike":false,"transitLeg":true,"duration":257.0,"steps":[]},{"startTime":1522677296000,"endTime":1522678152000,"departureDelay":0,"arrivalDelay":0,"realTime":false,"distance":1101.1079999999997,"pathway":false,"mode":"WALK","route":"","agencyTimeZoneOffset":-14400000,"interlineWithPreviousLeg":false,"from":{"name":"boul. Ste-Geneviève (no. 1400)","stopId":"1:712","stopCode":"712","lon":-71.100066,"lat":48.453047,"arrival":1522677295000,"departure":1522677296000,"zoneId":"NA","stopIndex":12,"stopSequence":13,"vertexType":"TRANSIT"},"to":{"name":"Destination","lon":-71.105231,"lat":48.446418,"arrival":1522678152000,"orig":"","vertexType":"NORMAL"},"legGeometry":{"points":"cnvfHrv}pLOvAPT`B|Bb@VAt@BnDQtBnCdAfCd@xBRb@c@|An@`@\\PtARDn@o@zAqA\\OVOPMJEDEFCDGLSPULU?ADK~@~@JHJDHBPBd@@AdC?JBPHPHJJBLBNAL?Az@@z@F@BJ@J","length":50},"rentedBike":false,"transitLeg":false,"duration":856.0,"steps":[{"distance":34.003,"relativeDirection":"DEPART","streetName":"Boulevard Sainte-Geneviève","absoluteDirection":"WEST","stayOn":false,"area":false,"bogusName":false,"lon":-71.10009072776147,"lat":48.45298360822897,"elevation":[]},{"distance":610.107,"relativeDirection":"LEFT","streetName":"path","absoluteDirection":"SOUTHWEST","stayOn":false,"area":false,"bogusName":true,"lon":-71.10053710000001,"lat":48.4530602,"elevation":[]},{"distance":195.954,"relativeDirection":"LEFT","streetName":"Rue Chapleau","absoluteDirection":"SOUTHEAST","stayOn":false,"area":false,"bogusName":false,"lon":-71.10444170000001,"lat":48.449363700000006,"elevation":[]},{"distance":94.222,"relativeDirection":"RIGHT","streetName":"Rue Sainte-Catherine","absoluteDirection":"SOUTHWEST","stayOn":false,"area":false,"bogusName":false,"lon":-71.1030571,"lat":48.447883000000004,"elevation":[]},{"distance":108.136,"relativeDirection":"RIGHT","streetName":"Rue Augé","absoluteDirection":"WEST","stayOn":false,"area":false,"bogusName":false,"lon":-71.1035004,"lat":48.447113900000005,"elevation":[]},{"distance":58.68599999999999,"relativeDirection":"RIGHT","streetName":"Rue Forget","absoluteDirection":"WEST","stayOn":false,"area":false,"bogusName":false,"lon":-71.10450660000001,"lat":48.4467264,"elevation":[]}]}],"tooSloped":false},{"duration":739,"startTime":1522678771000,"endTime":1522679510000,"walkTime":404,"transitTime":333,"waitingTime":2,"walkDistance":511.88227067319815,"walkLimitExceeded":false,"elevationLost":0.0,"elevationGained":0.0,"transfers":0,"legs":[{"startTime":1522678771000,"endTime":1522678964000,"departureDelay":0,"arrivalDelay":0,"realTime":false,"distance":245.252,"pathway":false,"mode":"WALK","route":"","agencyTimeZoneOffset":-14400000,"interlineWithPreviousLeg":false,"from":{"name":"Origin","lon":-71.080494,"lat":48.444119,"departure":1522678771000,"orig":"","vertexType":"NORMAL"},"to":{"name":"Sauvé / St-Albert","stopId":"1:681","stopCode":"681","lon":-71.079877,"lat":48.443248,"arrival":1522678964000,"departure":1522678965000,"zoneId":"NA","stopIndex":6,"stopSequence":7,"vertexType":"TRANSIT"},"legGeometry":{"points":"wytfHjyypLlAiEb@`@TJ\\LhCv@Wx@","length":7},"rentedBike":false,"transitLeg":false,"duration":193.0,"steps":[{"distance":86.223,"relativeDirection":"DEPART","streetName":"Boulevard Sainte-Geneviève","absoluteDirection":"SOUTHEAST","stayOn":false,"area":false,"bogusName":false,"lon":-71.08005452675857,"lat":48.4446094224144,"elevation":[]},{"distance":133.438,"relativeDirection":"RIGHT","streetName":"Rue Saint-Albert","absoluteDirection":"SOUTHWEST","stayOn":false,"area":false,"bogusName":false,"lon":-71.0790497,"lat":48.4442132,"elevation":[]},{"distance":25.591,"relativeDirection":"RIGHT","streetName":"Rue Sauvé","absoluteDirection":"NORTHWEST","stayOn":false,"area":false,"bogusName":false,"lon":-71.07962210000001,"lat":48.4430824,"elevation":[]}]},{"startTime":1522678965000,"endTime":1522679298000,"departureDelay":0,"arrivalDelay":0,"realTime":false,"distance":1895.7669084369409,"pathway":false,"mode":"BUS","route":"20","agencyName":"Société de Transport du Saguenay","agencyUrl":"http://ville.saguenay.ca/fr/services-aux-citoyens/transport-sts","agencyTimeZoneOffset":-14400000,"routeColor":"0000FF","routeType":3,"routeId":"1:20","routeTextColor":"FFFFFF","interlineWithPreviousLeg":false,"tripBlockId":"1","headsign":"Terminus Chicoutimi","agencyId":"0","tripId":"1:217137","serviceDate":"20180402","from":{"name":"Sauvé / St-Albert","stopId":"1:681","stopCode":"681","lon":-71.079877,"lat":48.443248,"arrival":1522678964000,"departure":1522678965000,"zoneId":"NA","stopIndex":6,"stopSequence":7,"vertexType":"TRANSIT"},"to":{"name":"Chapleau / Ste-Catherine","stopId":"1:691","stopCode":"691","lon":-71.103068,"lat":48.447954,"arrival":1522679298000,"departure":1522679299000,"zoneId":"NA","stopIndex":15,"stopSequence":16,"vertexType":"TRANSIT"},"legGeometry":{"points":"_qtfHnxypLSx@{A`FyBfHmDjJCDEVE`B?vFBjC@ZFX\\j@T^JVBNBV@RCbE?VCVy@nGCRCFGLKJQNSHaAZa@Pk@\\a@XZrAHp@@FDj@Bp@?~I@fHAd@C`@ERELA@GHMHi@PSBy@BW?YDMDC?OHULWVOXQXSb@~@~BJXF`@Fj@?VAvACv@e@hNGx@MdAQr@IL","length":71},"routeShortName":"20","routeLongName":"Sainte-Claire","rentedBike":false,"transitLeg":true,"duration":333.0,"steps":[]},{"startTime":1522679299000,"endTime":1522679510000,"departureDelay":0,"arrivalDelay":0,"realTime":false,"distance":266.522,"pathway":false,"mode":"WALK","route":"","agencyTimeZoneOffset":-14400000,"interlineWithPreviousLeg":false,"from":{"name":"Chapleau / Ste-Catherine","stopId":"1:691","stopCode":"691","lon":-71.103068,"lat":48.447954,"arrival":1522679298000,"departure":1522679299000,"zoneId":"NA","stopIndex":15,"stopSequence":16,"vertexType":"TRANSIT"},"to":{"name":"Destination","lon":-71.105231,"lat":48.446418,"arrival":1522679510000,"orig":"","vertexType":"NORMAL"},"legGeometry":{"points":"mnufHni~pLDK~@~@JHJDHBPBd@@AdC?JBPHPHJJBLBNAL?Az@@z@F@BJ@J","length":22},"rentedBike":false,"transitLeg":false,"duration":211.0,"steps":[{"distance":5.478,"relativeDirection":"DEPART","streetName":"Rue Chapleau","absoluteDirection":"SOUTHEAST","stayOn":false,"area":false,"bogusName":false,"lon":-71.10311575854293,"lat":48.44791323636233,"elevation":[]},{"distance":94.222,"relativeDirection":"RIGHT","streetName":"Rue Sainte-Catherine","absoluteDirection":"SOUTHWEST","stayOn":false,"area":false,"bogusName":false,"lon":-71.1030571,"lat":48.447883000000004,"elevation":[]},{"distance":108.136,"relativeDirection":"RIGHT","streetName":"Rue Augé","absoluteDirection":"WEST","stayOn":false,"area":false,"bogusName":false,"lon":-71.1035004,"lat":48.447113900000005,"elevation":[]},{"distance":58.68599999999999,"relativeDirection":"RIGHT","streetName":"Rue Forget","absoluteDirection":"WEST","stayOn":false,"area":false,"bogusName":false,"lon":-71.10450660000001,"lat":48.4467264,"elevation":[]}]}],"tooSloped":false}]},"debugOutput":{"precalculationTime":14,"pathCalculationTime":26,"pathTimes":[18,3,5],"renderingTime":1,"totalTime":41,"timedOut":false},"elevationMetadata":{"ellipsoidToGeoidDifference":-28.885904201182168,"geoidElevation":false}}