{"requestParameters":{"date":"2018/04/02","walkSpeed":"1.33","walkReluctance":"2.0","fromPlace":"48.42282,-71.074954","maxWalkDistance":"3000","waitReluctance":"1.0","carSpeed":"33","numItineraries":"3","waitAtBeginningFactor":"0.4","mode":"TRANSIT,WALK","ignoreRealtimeUpdates":"false","stairsReluctance":"2.0","toPlace":"48.453401,-71.065496","time":"21:15:00"},"plan":{"date":1522718100000,"from":{"name":"Origin","lon":-71.074954,"lat":48.42282,"orig":"","vertexType":"NORMAL"},"to":{"name":"Destination","lon":-71.065496,"lat":48.453401,"orig":"","vertexType":"NORMAL"},"itineraries":[{"duration":1759,"startTime":1522719258000,"endTime":1522721017000,"walkTime":720,"transitTime":797,"waitingTime":242,"walkDistance":922.0692030016719,"walkLimitExceeded":false,"elevationLost":0.0,"elevationGained":0.0,"transfers":1,"legs":[{"startTime":1522719258000,"endTime":1522719398000,"departureDelay":0,"arrivalDelay":0,"realTime":false,"distance":174.991,"pathway":false,"mode":"WALK","route":"","agencyTimeZoneOffset":-14400000,"interlineWithPreviousLeg":false,"from":{"name":"Origin","lon":-71.074954,"lat":48.42282,"departure":1522719258000,"orig":"","vertexType":"NORMAL"},"to":{"name":"Bossé / Sainte-Marthe","stopId":"1:1577","stopCode":"1577","lon":-71.074827,"lat":48.424374,"arrival":1522719398000,"departure":1522719399000,"zoneId":"NA","stopIndex":26,"stopSequence":27,"vertexType":"TRANSIT"},"legGeometry":{"points":"}spfHhzxpLEg@CWy@][?{CBAb@","length":7},"rentedBike":false,"transitLeg":false,"duration":140.0,"steps":[{"distance":24.877,"relativeDirection":"DEPART","streetName":"Rue Gilbert","absoluteDirection":"EAST","stayOn":false,"area":false,"bogusName":false,"lon":-71.07508859873886,"lat":48.42319368551535,"elevation":[]},{"distance":136.315,"relativeDirection":"LEFT","streetName":"Rue Sainte-Marthe","absoluteDirection":"NORTH","stayOn":false,"area":false,"bogusName":false,"lon":-71.0747607,"lat":48.4232457,"elevation":[]},{"distance":13.799,"relativeDirection":"LEFT","streetName":"Rue Bossé","absoluteDirection":"WEST","stayOn":false,"area":false,"bogusName":false,"lon":-71.0746309,"lat":48.424456500000005,"elevation":[]}]},{"startTime":1522719399000,"endTime":1522719660000,"departureDelay":0,"arrivalDelay":0,"realTime":false,"distance":967.6979458137391,"pathway":false,"mode":"BUS","route":"11","agencyName":"Société de Transport du Saguenay","agencyUrl":"http://ville.saguenay.ca/fr/services-aux-citoyens/transport-sts","agencyTimeZoneOffset":-14400000,"routeColor":"FF0000","routeType":3,"routeId":"1:11","routeTextColor":"FFFFFF","interlineWithPreviousLeg":false,"tripBlockId":"34","headsign":"Terminus Chicoutimi","agencyId":"0","tripId":"1:218236","serviceDate":"20180402","from":{"name":"Bossé / Sainte-Marthe","stopId":"1:1577","stopCode":"1577","lon":-71.074827,"lat":48.424374,"arrival":1522719398000,"departure":1522719399000,"zoneId":"NA","stopIndex":26,"stopSequence":27,"vertexType":"TRANSIT"},"to":{"name":"Terminus Chicoutimi","stopId":"1:1289","stopCode":"1289","lon":-71.066163,"lat":48.428677,"arrival":1522719660000,"departure":1522719900000,"zoneId":"NA","stopIndex":30,"stopSequence":31,"vertexType":"TRANSIT"},"legGeometry":{"points":"u{pfHtxxpLVsLDaCD_@kBKW?e@Q_BQNuEDuBXmNLgHmKm@}BW{AMCn@o@G??","length":18},"routeShortName":"11","routeLongName":"Chic/Faubourg via St-Paul","rentedBike":false,"transitLeg":true,"duration":261.0,"steps":[]},{"startTime":1522719900000,"endTime":1522720436000,"departureDelay":0,"arrivalDelay":0,"realTime":false,"distance":3863.2188813205885,"pathway":false,"mode":"BUS","route":"23","agencyName":"Société de Transport du Saguenay","agencyUrl":"http://ville.saguenay.ca/fr/services-aux-citoyens/transport-sts","agencyTimeZoneOffset":-14400000,"routeColor":"FF00FF","routeType":3,"routeId":"1:23","routeTextColor":"FFFFFF","interlineWithPreviousLeg":false,"tripBlockId":"5","headsign":"Terminus Chicoutimi","agencyId":"0","tripId":"1:217280","serviceDate":"20180402","from":{"name":"Terminus Chicoutimi","stopId":"1:1289","stopCode":"1289","lon":-71.066163,"lat":48.428677,"arrival":1522719660000,"departure":1522719900000,"zoneId":"NA","stopIndex":0,"stopSequence":1,"vertexType":"TRANSIT"},"to":{"name":"Cabot / Bossuet","stopId":"1:785","stopCode":"785","lon":-71.069257,"lat":48.449097,"arrival":1522720436000,"departure":1522720437000,"zoneId":"NA","stopIndex":8,"stopSequence":9,"vertexType":"TRANSIT"},"legGeometry":{"points":"kwqfHjbwpLF_CkAOYCm@rRO\\WjGOfGCRK^KJMHQB_AMg@Gw`@eR}@g@u@Su@Ia@Ck@Dm@HwAf@c@VeAx@iAlAU^[d@eLtTsAvB_CvEuAnCmBlE}@|B_BvFoC`JCD}@hCo@~Aq@pAs@fA{BlCqH|Iq@Bq@Im@UGCUi@Wm@ScA_@gGSaE@_@@_@@ERoBFe@No@`@gAbCyFNe@Ha@He@Fg@Du@Dg@Hc@Pa@RW\\S`@QZEm@eHM}B?GGi@Is@Ou@Qw@Mo@Kw@ImAGoBAk@aALa@?YEUKc@Yc@_@KOIUGUEWAW?YBqAH_AXeC@I","length":100},"routeShortName":"23","routeLongName":"Côte Verdun via Aréna du Plateau","rentedBike":false,"transitLeg":true,"duration":536.0,"steps":[]},{"startTime":1522720437000,"endTime":1522721017000,"departureDelay":0,"arrivalDelay":0,"realTime":false,"distance":746.8969999999999,"pathway":false,"mode":"WALK","route":"","agencyTimeZoneOffset":-14400000,"interlineWithPreviousLeg":false,"from":{"name":"Cabot / Bossuet","stopId":"1:785","stopCode":"785","lon":-71.069257,"lat":48.449097,"arrival":1522720436000,"departure":1522720437000,"zoneId":"NA","stopIndex":8,"stopSequence":9,"vertexType":"TRANSIT"},"to":{"name":"Destination","lon":-71.065496,"lat":48.453401,"arrival":1522721017000,"orig":"","vertexType":"NORMAL"},"legGeometry":{"points":"ivufHruwpLALg@vDq@GYICAUMSQUQ]e@[c@M]Qe@Ka@e@iEEWUaBKe@EQGSM[Qc@gAoCkBtBkA}COOMIKGQKiBo@","length":30},"alerts":[{"alertHeaderText":"Unpaved surface"}],"rentedBike":false,"transitLeg":false,"duration":580.0,"steps":[{"distance":76.31299999999999,"relativeDirection":"DEPART","streetName":"Rue Cabot","absoluteDirection":"WEST","stayOn":false,"area":false,"bogusName":false,"lon":-71.06921997796464,"lat":48.449177280364445,"elevation":[]},{"distance":424.87700000000007,"relativeDirection":"RIGHT","streetName":"Rue de Boischatel","absoluteDirection":"NORTH","stayOn":false,"area":false,"bogusName":false,"lon":-71.0702047,"lat":48.449388000000006,"elevation":[],"alerts":[{"alertHeaderText":"Unpaved surface"}]},{"distance":74.598,"relativeDirection":"LEFT","streetName":"Rue de Boulogne","absoluteDirection":"NORTHWEST","stayOn":false,"area":false,"bogusName":false,"lon":-71.0659354,"lat":48.4515961,"elevation":[]},{"distance":171.109,"relativeDirection":"RIGHT","streetName":"Rue La Chesnaye","absoluteDirection":"NORTHEAST","stayOn":false,"area":false,"bogusName":false,"lon":-71.06652840000001,"lat":48.4521396,"elevation":[]}]}],"tooSloped":false},{"duration":1950,"startTime":1522720554000,"endTime":1522722504000,"walkTime":1174,"transitTime":774,"waitingTime":2,"walkDistance":1493.1203157805578,"walkLimitExceeded":false,"elevationLost":0.0,"elevationGained":0.0,"transfers":0,"legs":[{"startTime":1522720554000,"endTime":1522721366000,"departureDelay":0,"arrivalDelay":0,"realTime":false,"distance":1034.186,"pathway":false,"mode":"WALK","route":"","agencyTimeZoneOffset":-14400000,"interlineWithPreviousLeg":false,"from":{"name":"Origin","lon":-71.074954,"lat":48.42282,"departure":1522720554000,"orig":"","vertexType":"NORMAL"},"to":{"name":"boul. Saguenay / Ste-Anne","stopId":"1:160","stopCode":"160","lon":-71.069701,"lat":48.429464,"arrival":1522721366000,"departure":1522721367000,"zoneId":"NA","stopIndex":30,"stopSequence":31,"vertexType":"TRANSIT"},"legGeometry":{"points":"}spfHhzxpLEg@CWy@][?{CBeCSs@UFk@Fi@@S?ADcAC[G}@q@iDA[Ec@OMaAYCFKDKCGGKSSYWKkAK}@B_BHuBHo@BqAPo@Bo@_@MOEEQi@Em@FyE@[","length":41},"rentedBike":false,"transitLeg":false,"duration":812.0,"steps":[{"distance":24.877,"relativeDirection":"DEPART","streetName":"Rue Gilbert","absoluteDirection":"EAST","stayOn":false,"area":false,"bogusName":false,"lon":-71.07508859873886,"lat":48.42319368551535,"elevation":[]},{"distance":240.725,"relativeDirection":"LEFT","streetName":"Rue Sainte-Marthe","absoluteDirection":"NORTH","stayOn":false,"area":false,"bogusName":false,"lon":-71.0747607,"lat":48.4232457,"elevation":[]},{"distance":193.44000000000003,"relativeDirection":"RIGHT","streetName":"Rue Price Ouest","absoluteDirection":"EAST","stayOn":false,"area":false,"bogusName":false,"lon":-71.07442610000001,"lat":48.425381900000005,"elevation":[]},{"distance":48.492,"relativeDirection":"LEFT","streetName":"path","absoluteDirection":"NORTH","stayOn":false,"area":false,"bogusName":true,"lon":-71.0719217,"lat":48.425614800000005,"elevation":[]},{"distance":356.79900000000004,"relativeDirection":"SLIGHTLY_LEFT","streetName":"Rue Montcalm","absoluteDirection":"NORTH","stayOn":false,"area":false,"bogusName":false,"lon":-71.0717267,"lat":48.426028200000005,"elevation":[]},{"distance":78.91,"relativeDirection":"SLIGHTLY_RIGHT","streetName":"link","absoluteDirection":"NORTHEAST","stayOn":false,"area":false,"bogusName":true,"lon":-71.07163890000001,"lat":48.4291351,"elevation":[]},{"distance":90.943,"relativeDirection":"CONTINUE","streetName":"Boulevard du Saguenay Ouest","absoluteDirection":"EAST","stayOn":false,"area":false,"bogusName":false,"lon":-71.07092130000001,"lat":48.429599100000004,"elevation":[]}]},{"startTime":1522721367000,"endTime":1522721400000,"departureDelay":0,"arrivalDelay":0,"realTime":false,"distance":275.32247205812763,"pathway":false,"mode":"BUS","route":"20","agencyName":"Société de Transport du Saguenay","agencyUrl":"http://ville.saguenay.ca/fr/services-aux-citoyens/transport-sts","agencyTimeZoneOffset":-14400000,"routeColor":"0000FF","routeType":3,"routeId":"1:20","routeTextColor":"FFFFFF","interlineWithPreviousLeg":false,"tripBlockId":"3","headsign":"Terminus Chicoutimi","agencyId":"0","tripId":"1:217217","serviceDate":"20180402","from":{"name":"boul. Saguenay / Ste-Anne","stopId":"1:160","stopCode":"160","lon":-71.069701,"lat":48.429464,"arrival":1522721366000,"departure":1522721367000,"zoneId":"NA","stopIndex":30,"stopSequence":31,"vertexType":"TRANSIT"},"to":{"name":"Terminus Chicoutimi","stopId":"1:1289","stopCode":"1289","lon":-71.066163,"lat":48.428677,"arrival":1522721400000,"departure":1522721700000,"zoneId":"NA","stopIndex":31,"stopSequence":32,"vertexType":"TRANSIT"},"legGeometry":{"points":"m{qfHrxwpLPwGj@_QjAN~ALIpBGVITe@@","length":9},"routeShortName":"20","routeLongName":"Sainte-Claire","rentedBike":false,"transitLeg":true,"duration":33.0,"steps":[]},{"startTime":1522721700000,"endTime":1522722141000,"departureDelay":0,"arrivalDelay":0,"realTime":false,"distance":2900.273719447381,"pathway":false,"mode":"BUS","route":"22","agencyName":"Société de Transport du Saguenay","agencyUrl":"http://ville.saguenay.ca/fr/services-aux-citoyens/transport-sts","agencyTimeZoneOffset":-14400000,"routeColor":"C0C000","routeType":3,"routeId":"1:22","routeTextColor":"000000","interlineWithPreviousLeg":true,"tripBlockId":"3","headsign":"Terminus Chicoutimi","agencyId":"0","tripId":"1:217218","serviceDate":"20180402","from":{"name":"Terminus Chicoutimi","stopId":"1:1289","stopCode":"1289","lon":-71.066163,"lat":48.428677,"arrival":1522721400000,"departure":1522721700000,"zoneId":"NA","stopIndex":0,"stopSequence":1,"vertexType":"TRANSIT"},"to":{"name":"Delisle / Dupré","stopId":"1:744","stopCode":"744","lon":-71.062144,"lat":48.451199,"arrival":1522722141000,"departure":1522722142000,"zoneId":"NA","stopIndex":8,"stopSequence":9,"vertexType":"TRANSIT"},"legGeometry":{"points":"evqfHzcwpLg@?UhKxDVOhHMrH~CYhBBInAKXSNg@L{JHgBMoA[s@Usb@gS}@g@u@Su@Ia@Ck@Dm@HwAf@c@VeAx@iAlAU^[d@eLtTsAvBMJYF[EMIQ]y@wB[y@[{@_B{D{@uBe@gAO}AGw@SaCmAZe@AYOy@o@MKsAcA}BmBuC}BgA}@}BsBaAaA{@y@d@kDp@uEyIkDqHwC","length":61},"routeShortName":"22","routeLongName":"Vanier","rentedBike":false,"transitLeg":true,"duration":441.0,"steps":[]},{"startTime":1522722142000,"endTime":1522722504000,"departureDelay":0,"arrivalDelay":0,"realTime":false,"distance":458.658,"pathway":false,"mode":"WALK","route":"","agencyTimeZoneOffset":-14400000,"interlineWithPreviousLeg":false,"from":{"name":"Delisle / Dupré","stopId":"1:744","stopCode":"744","lon":-71.062144,"lat":48.451199,"arrival":1522722141000,"departure":1522722142000,"zoneId":"NA","stopIndex":8,"stopSequence":9,"vertexType":"TRANSIT"},"to":{"name":"Destination","lon":-71.065496,"lat":48.453401,"arrival":1522722504000,"orig":"","vertexType":"NORMAL"},"legGeometry":{"points":"acvfHvivpLGCWKwAlJW`B]fBWWOIOIy@YaCs@SlBAR?RBPHN","length":16},"rentedBike":false,"transitLeg":false,"duration":362.0,"steps":[{"distance":18.808,"relativeDirection":"DEPART","streetName":"Rue Delisle","absoluteDirection":"NORTH","stayOn":false,"area":false,"bogusName":false,"lon":-71.06219601135356,"lat":48.451210914725365,"elevation":[]},{"distance":224.285,"relativeDirection":"LEFT","streetName":"Rue Dupré","absoluteDirection":"WEST","stayOn":false,"area":false,"bogusName":false,"lon":-71.06211280000001,"lat":48.45137080000001,"elevation":[]},{"distance":143.787,"relativeDirection":"RIGHT","streetName":"Rue de Boischatel","absoluteDirection":"NORTHEAST","stayOn":false,"area":false,"bogusName":false,"lon":-71.064958,"lat":48.452082100000005,"elevation":[]},{"distance":71.778,"relativeDirection":"LEFT","streetName":"Rue La Chesnaye","absoluteDirection":"WEST","stayOn":false,"area":false,"bogusName":false,"lon":-71.06434750000001,"lat":48.4533025,"elevation":[]}]}],"tooSloped":false},{"duration":2103,"startTime":1522722514000,"endTime":1522724617000,"walkTime":1565,"transitTime":536,"waitingTime":2,"walkDistance":2002.7023533740569,"walkLimitExceeded":false,"elevationLost":0.0,"elevationGained":0.0,"transfers":0,"legs":[{"startTime":1522722514000,"endTime":1522723499000,"departureDelay":0,"arrivalDelay":0,"realTime":false,"distance":1255.5139999999997,"pathway":false,"mode":"WALK","route":"","agencyTimeZoneOffset":-14400000,"interlineWithPreviousLeg":false,"from":{"name":"Origin","lon":-71.074954,"lat":48.42282,"departure":1522722514000,"orig":"","vertexType":"NORMAL"},"to":{"name":"Terminus Chicoutimi","stopId":"1:1289","stopCode":"1289","lon":-71.066163,"lat":48.428677,"arrival":1522723499000,"departure":1522723500000,"zoneId":"NA","stopIndex":0,"stopSequence":1,"vertexType":"TRANSIT"},"legGeometry":{"points":"}spfHhzxpLEg@CWy@][?{CBeCSs@UFk@Fi@@S?ADcAC[G}@q@iDA[Ec@OMaAYCFKDKCGGKSSYWKkAK@aD@k@HoCLsEB_BDoBBwABaAJeEkCQQAsBIc@MKESAcAK","length":44},"rentedBike":false,"transitLeg":false,"duration":985.0,"steps":[{"distance":24.877,"relativeDirection":"DEPART","streetName":"Rue Gilbert","absoluteDirection":"EAST","stayOn":false,"area":false,"bogusName":false,"lon":-71.07508859873886,"lat":48.42319368551535,"elevation":[]},{"distance":240.725,"relativeDirection":"LEFT","streetName":"Rue Sainte-Marthe","absoluteDirection":"NORTH","stayOn":false,"area":false,"bogusName":false,"lon":-71.0747607,"lat":48.4232457,"elevation":[]},{"distance":193.44000000000003,"relativeDirection":"RIGHT","streetName":"Rue Price Ouest","absoluteDirection":"EAST","stayOn":false,"area":false,"bogusName":false,"lon":-71.07442610000001,"lat":48.425381900000005,"elevation":[]},{"distance":48.492,"relativeDirection":"LEFT","streetName":"path","absoluteDirection":"NORTH","stayOn":false,"area":false,"bogusName":true,"lon":-71.0719217,"lat":48.425614800000005,"elevation":[]},{"distance":103.339,"relativeDirection":"SLIGHTLY_LEFT","streetName":"Rue Montcalm","absoluteDirection":"NORTH","stayOn":false,"area":false,"bogusName":false,"lon":-71.0717267,"lat":48.426028200000005,"elevation":[]},{"distance":208.179,"relativeDirection":"RIGHT","streetName":"Rue Jacques-Cartier Ouest","absoluteDirection":"EAST","stayOn":false,"area":false,"bogusName":false,"lon":-71.0713817,"lat":48.426863100000006,"elevation":[]},{"distance":206.74900000000002,"relativeDirection":"CONTINUE","streetName":"Rue Jacques-Cartier Est","absoluteDirection":"EAST","stayOn":false,"area":false,"bogusName":false,"lon":-71.0685709,"lat":48.426721,"elevation":[]},{"distance":229.713,"relativeDirection":"LEFT","streetName":"Rue Morin","absoluteDirection":"NORTH","stayOn":false,"area":false,"bogusName":false,"lon":-71.0657774,"lat":48.426577300000005,"elevation":[]}]},{"startTime":1522723500000,"endTime":1522724036000,"departureDelay":0,"arrivalDelay":0,"realTime":false,"distance":3863.2188813205885,"pathway":false,"mode":"BUS","route":"23","agencyName":"Société de Transport du Saguenay","agencyUrl":"http://ville.saguenay.ca/fr/services-aux-citoyens/transport-sts","agencyTimeZoneOffset":-14400000,"routeColor":"FF00FF","routeType":3,"routeId":"1:23","routeTextColor":"FFFFFF","interlineWithPreviousLeg":false,"tripBlockId":"5","headsign":"Terminus Chicoutimi","agencyId":"0","tripId":"1:217282","serviceDate":"20180402","from":{"name":"Terminus Chicoutimi","stopId":"1:1289","stopCode":"1289","lon":-71.066163,"lat":48.428677,"arrival":1522723499000,"departure":1522723500000,"zoneId":"NA","stopIndex":0,"stopSequence":1,"vertexType":"TRANSIT"},"to":{"name":"Cabot / Bossuet","stopId":"1:785","stopCode":"785","lon":-71.069257,"lat":48.449097,"arrival":1522724036000,"departure":1522724037000,"zoneId":"NA","stopIndex":8,"stopSequence":9,"vertexType":"TRANSIT"},"legGeometry":{"points":"kwqfHjbwpLF_CkAOYCm@rRO\\WjGOfGCRK^KJMHQB_AMg@Gw`@eR}@g@u@Su@Ia@Ck@Dm@HwAf@c@VeAx@iAlAU^[d@eLtTsAvB_CvEuAnCmBlE}@|B_BvFoC`JCD}@hCo@~Aq@pAs@fA{BlCqH|Iq@Bq@Im@UGCUi@Wm@ScA_@gGSaE@_@@_@@ERoBFe@No@`@gAbCyFNe@Ha@He@Fg@Du@Dg@Hc@Pa@RW\\S`@QZEm@eHM}B?GGi@Is@Ou@Qw@Mo@Kw@ImAGoBAk@aALa@?YEUKc@Yc@_@KOIUGUEWAW?YBqAH_AXeC@I","length":100},"routeShortName":"23","routeLongName":"Côte Verdun via Aréna du Plateau","rentedBike":false,"transitLeg":true,"duration":536.0,"steps":[]},{"startTime":1522724037000,"endTime":1522724617000,"departureDelay":0,"arrivalDelay":0,"realTime":false,"distance":746.8969999999999,"pathway":false,"mode":"WALK","route":"","agencyTimeZoneOffset":-14400000,"interlineWithPreviousLeg":false,"from":{"name":"Cabot / Bossuet","stopId":"1:785","stopCode":"785","lon":-71.069257,"lat":48.449097,"arrival":1522724036000,"departure":1522724037000,"zoneId":"NA","stopIndex":8,"stopSequence":9,"vertexType":"TRANSIT"},"to":{"name":"Destination","lon":-71.065496,"lat":48.453401,"arrival":1522724617000,"orig":"","vertexType":"NORMAL"},"legGeometry":{"points":"ivufHruwpLALg@vDq@GYICAUMSQUQ]e@[c@M]Qe@Ka@e@iEEWUaBKe@EQGSM[Qc@gAoCkBtBkA}COOMIKGQKiBo@","length":30},"alerts":[{"alertHeaderText":"Unpaved surface"}],"rentedBike":false,"transitLeg":false,"duration":580.0,"steps":[{"distance":76.31299999999999,"relativeDirection":"DEPART","streetName":"Rue Cabot","absoluteDirection":"WEST","stayOn":false,"area":false,"bogusName":false,"lon":-71.06921997796464,"lat":48.449177280364445,"elevation":[]},{"distance":424.87700000000007,"relativeDirection":"RIGHT","streetName":"Rue de Boischatel","absoluteDirection":"NORTH","stayOn":false,"area":false,"bogusName":false,"lon":-71.0702047,"lat":48.449388000000006,"elevation":[],"alerts":[{"alertHeaderText":"Unpaved surface"}]},{"distance":74.598,"relativeDirection":"LEFT","streetName":"Rue de Boulogne","absoluteDirection":"NORTHWEST","stayOn":false,"area":false,"bogusName":false,"lon":-71.0659354,"lat":48.4515961,"elevation":[]},{"distance":171.109,"relativeDirection":"RIGHT","streetName":"Rue La Chesnaye","absoluteDirection":"NORTHEAST","stayOn":false,"area":false,"bogusName":false,"lon":-71.06652840000001,"lat":48.4521396,"elevation":[]}]}],"tooSloped":false}]},"debugOutput":{"precalculationTime":33,"pathCalculationTime":89,"pathTimes":[40,23,26],"renderingTime":0,"totalTime":122,"timedOut":false},"elevationMetadata":{"ellipsoidToGeoidDifference":-28.885904201182168,"geoidElevation":false}}