{"requestParameters":{"date":"2018/04/02","walkSpeed":"1.33","walkReluctance":"2.0","fromPlace":"48.40513,-71.06202999","maxWalkDistance":"3000","waitReluctance":"1.0","carSpeed":"33","numItineraries":"3","waitAtBeginningFactor":"0.4","mode":"TRANSIT,WALK","ignoreRealtimeUpdates":"false","stairsReluctance":"2.0","toPlace":"48.383492,-71.08352999","time":"10:40:00"},"plan":{"date":1522680000000,"from":{"name":"Origin","lon":-71.06202999,"lat":48.40513,"orig":"","vertexType":"NORMAL"},"to":{"name":"Destination","lon":-71.08352999,"lat":48.383492,"orig":"","vertexType":"NORMAL"},"itineraries":[{"duration":1018,"startTime":1522680964000,"endTime":1522681982000,"walkTime":564,"transitTime":452,"waitingTime":2,"walkDistance":724.701548868323,"walkLimitExceeded":false,"elevationLost":0.0,"elevationGained":0.0,"transfers":0,"legs":[{"startTime":1522680964000,"endTime":1522681375000,"departureDelay":0,"arrivalDelay":0,"realTime":false,"distance":526.09,"pathway":false,"mode":"WALK","route":"","agencyTimeZoneOffset":-14400000,"interlineWithPreviousLeg":false,"from":{"name":"Origin","lon":-71.06202999,"lat":48.40513,"departure":1522680964000,"orig":"","vertexType":"NORMAL"},"to":{"name":"boul. Talbot (no. 1494) (Tim-Horton)","stopId":"1:1854","stopCode":"1854","lon":-71.060941,"lat":48.402118,"arrival":1522681375000,"departure":1522681376000,"zoneId":"NA","stopIndex":21,"stopSequence":22,"vertexType":"TRANSIT"},"legGeometry":{"points":"kemfHdfvpL|@aCNa@|EtERRvByF~@sBLWfDbD","length":9},"rentedBike":false,"transitLeg":false,"duration":411.0,"steps":[{"distance":73.87899999999999,"relativeDirection":"DEPART","streetName":"Rue Des Maristes","absoluteDirection":"SOUTHEAST","stayOn":false,"area":false,"bogusName":false,"lon":-71.06162332321281,"lat":48.40550660167406,"elevation":[]},{"distance":159.651,"relativeDirection":"RIGHT","streetName":"Rue Bach","absoluteDirection":"SOUTHWEST","stayOn":false,"area":false,"bogusName":false,"lon":-71.06080990000001,"lat":48.405119500000005,"elevation":[]},{"distance":181.411,"relativeDirection":"LEFT","streetName":"Rue des Saguenéens","absoluteDirection":"SOUTHEAST","stayOn":false,"area":false,"bogusName":false,"lon":-71.0619727,"lat":48.403908900000005,"elevation":[]},{"distance":111.149,"relativeDirection":"RIGHT","streetName":"Boulevard Talbot","absoluteDirection":"SOUTHWEST","stayOn":false,"area":false,"bogusName":false,"lon":-71.0600254,"lat":48.4029151,"elevation":[]}]},{"startTime":1522681376000,"endTime":1522681828000,"departureDelay":0,"arrivalDelay":0,"realTime":false,"distance":2536.0586719175662,"pathway":false,"mode":"BUS","route":"175","agencyName":"Société de Transport du Saguenay","agencyUrl":"http://ville.saguenay.ca/fr/services-aux-citoyens/transport-sts","agencyTimeZoneOffset":-14400000,"routeColor":"FF00FF","routeType":3,"routeId":"1:175","routeTextColor":"FFFFFF","interlineWithPreviousLeg":false,"tripBlockId":"8","headsign":"Costco","agencyId":"0","tripId":"1:217365","serviceDate":"20180402","from":{"name":"boul. Talbot (no. 1494) (Tim-Horton)","stopId":"1:1854","stopCode":"1854","lon":-71.060941,"lat":48.402118,"arrival":1522681375000,"departure":1522681376000,"zoneId":"NA","stopIndex":21,"stopSequence":22,"vertexType":"TRANSIT"},"to":{"name":"boul. Talbot (no. 2406)","stopId":"1:76","stopCode":"76","lon":-71.081157,"lat":48.38457,"arrival":1522681828000,"departure":1522681829000,"zoneId":"NA","stopIndex":29,"stopSequence":30,"vertexType":"TRANSIT"},"legGeometry":{"points":"_plfHjavpLjF`FjCrCrAvAbCfDjIfMdAzAfFpHd@n@nC`DlXv[b@f@mCtHv@v@p@r@_@p@uAcBjDoJhAzApBrBrFvGjDdEbD|DZb@~DrEbDfDrA~A","length":27},"routeShortName":"175","routeLongName":"Term. Chic / Costco","rentedBike":false,"transitLeg":true,"duration":452.0,"steps":[]},{"startTime":1522681829000,"endTime":1522681982000,"departureDelay":0,"arrivalDelay":0,"realTime":false,"distance":198.49200000000002,"pathway":false,"mode":"WALK","route":"","agencyTimeZoneOffset":-14400000,"interlineWithPreviousLeg":false,"from":{"name":"boul. Talbot (no. 2406)","stopId":"1:76","stopCode":"76","lon":-71.081157,"lat":48.38457,"arrival":1522681828000,"departure":1522681829000,"zoneId":"NA","stopIndex":29,"stopSequence":30,"vertexType":"TRANSIT"},"to":{"name":"Destination","lon":-71.08352999,"lat":48.383492,"arrival":1522681982000,"orig":"","vertexType":"NORMAL"},"legGeometry":{"points":"k}hfHbfzpLABwBpFPt@rAlB","length":5},"rentedBike":false,"transitLeg":false,"duration":153.0,"steps":[{"distance":113.958,"relativeDirection":"DEPART","streetName":"Rue des Routiers","absoluteDirection":"NORTHWEST","stayOn":false,"area":false,"bogusName":false,"lon":-71.08209375094117,"lat":48.3837423917909,"elevation":[]},{"distance":84.534,"relativeDirection":"LEFT","streetName":"service road","absoluteDirection":"SOUTHWEST","stayOn":false,"area":false,"bogusName":false,"lon":-71.083326,"lat":48.3843593,"elevation":[]}]}],"tooSloped":false},{"duration":1018,"startTime":1522682764000,"endTime":1522683782000,"walkTime":564,"transitTime":452,"waitingTime":2,"walkDistance":724.701548868323,"walkLimitExceeded":false,"elevationLost":0.0,"elevationGained":0.0,"transfers":0,"legs":[{"startTime":1522682764000,"endTime":1522683175000,"departureDelay":0,"arrivalDelay":0,"realTime":false,"distance":526.09,"pathway":false,"mode":"WALK","route":"","agencyTimeZoneOffset":-14400000,"interlineWithPreviousLeg":false,"from":{"name":"Origin","lon":-71.06202999,"lat":48.40513,"departure":1522682764000,"orig":"","vertexType":"NORMAL"},"to":{"name":"boul. Talbot (no. 1494) (Tim-Horton)","stopId":"1:1854","stopCode":"1854","lon":-71.060941,"lat":48.402118,"arrival":1522683175000,"departure":1522683176000,"zoneId":"NA","stopIndex":21,"stopSequence":22,"vertexType":"TRANSIT"},"legGeometry":{"points":"kemfHdfvpL|@aCNa@|EtERRvByF~@sBLWfDbD","length":9},"rentedBike":false,"transitLeg":false,"duration":411.0,"steps":[{"distance":73.87899999999999,"relativeDirection":"DEPART","streetName":"Rue Des Maristes","absoluteDirection":"SOUTHEAST","stayOn":false,"area":false,"bogusName":false,"lon":-71.06162332321281,"lat":48.40550660167406,"elevation":[]},{"distance":159.651,"relativeDirection":"RIGHT","streetName":"Rue Bach","absoluteDirection":"SOUTHWEST","stayOn":false,"area":false,"bogusName":false,"lon":-71.06080990000001,"lat":48.405119500000005,"elevation":[]},{"distance":181.411,"relativeDirection":"LEFT","streetName":"Rue des Saguenéens","absoluteDirection":"SOUTHEAST","stayOn":false,"area":false,"bogusName":false,"lon":-71.0619727,"lat":48.403908900000005,"elevation":[]},{"distance":111.149,"relativeDirection":"RIGHT","streetName":"Boulevard Talbot","absoluteDirection":"SOUTHWEST","stayOn":false,"area":false,"bogusName":false,"lon":-71.0600254,"lat":48.4029151,"elevation":[]}]},{"startTime":1522683176000,"endTime":1522683628000,"departureDelay":0,"arrivalDelay":0,"realTime":false,"distance":2536.0586719175662,"pathway":false,"mode":"BUS","route":"175","agencyName":"Société de Transport du Saguenay","agencyUrl":"http://ville.saguenay.ca/fr/services-aux-citoyens/transport-sts","agencyTimeZoneOffset":-14400000,"routeColor":"FF00FF","routeType":3,"routeId":"1:175","routeTextColor":"FFFFFF","interlineWithPreviousLeg":false,"tripBlockId":"6","headsign":"Costco","agencyId":"0","tripId":"1:217294","serviceDate":"20180402","from":{"name":"boul. Talbot (no. 1494) (Tim-Horton)","stopId":"1:1854","stopCode":"1854","lon":-71.060941,"lat":48.402118,"arrival":1522683175000,"departure":1522683176000,"zoneId":"NA","stopIndex":21,"stopSequence":22,"vertexType":"TRANSIT"},"to":{"name":"boul. Talbot (no. 2406)","stopId":"1:76","stopCode":"76","lon":-71.081157,"lat":48.38457,"arrival":1522683628000,"departure":1522683629000,"zoneId":"NA","stopIndex":29,"stopSequence":30,"vertexType":"TRANSIT"},"legGeometry":{"points":"_plfHjavpLjF`FjCrCrAvAbCfDjIfMdAzAfFpHd@n@nC`DlXv[b@f@mCtHv@v@p@r@_@p@uAcBjDoJhAzApBrBrFvGjDdEbD|DZb@~DrEbDfDrA~A","length":27},"routeShortName":"175","routeLongName":"Term. Chic / Costco","rentedBike":false,"transitLeg":true,"duration":452.0,"steps":[]},{"startTime":1522683629000,"endTime":1522683782000,"departureDelay":0,"arrivalDelay":0,"realTime":false,"distance":198.49200000000002,"pathway":false,"mode":"WALK","route":"","agencyTimeZoneOffset":-14400000,"interlineWithPreviousLeg":false,"from":{"name":"boul. Talbot (no. 2406)","stopId":"1:76","stopCode":"76","lon":-71.081157,"lat":48.38457,"arrival":1522683628000,"departure":1522683629000,"zoneId":"NA","stopIndex":29,"stopSequence":30,"vertexType":"TRANSIT"},"to":{"name":"Destination","lon":-71.08352999,"lat":48.383492,"arrival":1522683782000,"orig":"","vertexType":"NORMAL"},"legGeometry":{"points":"k}hfHbfzpLABwBpFPt@rAlB","length":5},"rentedBike":false,"transitLeg":false,"duration":153.0,"steps":[{"distance":113.958,"relativeDirection":"DEPART","streetName":"Rue des Routiers","absoluteDirection":"NORTHWEST","stayOn":false,"area":false,"bogusName":false,"lon":-71.08209375094117,"lat":48.3837423917909,"elevation":[]},{"distance":84.534,"relativeDirection":"LEFT","streetName":"service road","absoluteDirection":"SOUTHWEST","stayOn":false,"area":false,"bogusName":false,"lon":-71.083326,"lat":48.3843593,"elevation":[]}]}],"tooSloped":false},{"duration":1018,"startTime":1522684564000,"endTime":1522685582000,"walkTime":564,"transitTime":452,"waitingTime":2,"walkDistance":724.701548868323,"walkLimitExceeded":false,"elevationLost":0.0,"elevationGained":0.0,"transfers":0,"legs":[{"startTime":1522684564000,"endTime":1522684975000,"departureDelay":0,"arrivalDelay":0,"realTime":false,"distance":526.09,"pathway":false,"mode":"WALK","route":"","agencyTimeZoneOffset":-14400000,"interlineWithPreviousLeg":false,"from":{"name":"Origin","lon":-71.06202999,"lat":48.40513,"departure":1522684564000,"orig":"","vertexType":"NORMAL"},"to":{"name":"boul. Talbot (no. 1494) (Tim-Horton)","stopId":"1:1854","stopCode":"1854","lon":-71.060941,"lat":48.402118,"arrival":1522684975000,"departure":1522684976000,"zoneId":"NA","stopIndex":21,"stopSequence":22,"vertexType":"TRANSIT"},"legGeometry":{"points":"kemfHdfvpL|@aCNa@|EtERRvByF~@sBLWfDbD","length":9},"rentedBike":false,"transitLeg":false,"duration":411.0,"steps":[{"distance":73.87899999999999,"relativeDirection":"DEPART","streetName":"Rue Des Maristes","absoluteDirection":"SOUTHEAST","stayOn":false,"area":false,"bogusName":false,"lon":-71.06162332321281,"lat":48.40550660167406,"elevation":[]},{"distance":159.651,"relativeDirection":"RIGHT","streetName":"Rue Bach","absoluteDirection":"SOUTHWEST","stayOn":false,"area":false,"bogusName":false,"lon":-71.06080990000001,"lat":48.405119500000005,"elevation":[]},{"distance":181.411,"relativeDirection":"LEFT","streetName":"Rue des Saguenéens","absoluteDirection":"SOUTHEAST","stayOn":false,"area":false,"bogusName":false,"lon":-71.0619727,"lat":48.403908900000005,"elevation":[]},{"distance":111.149,"relativeDirection":"RIGHT","streetName":"Boulevard Talbot","absoluteDirection":"SOUTHWEST","stayOn":false,"area":false,"bogusName":false,"lon":-71.0600254,"lat":48.4029151,"elevation":[]}]},{"startTime":1522684976000,"endTime":1522685428000,"departureDelay":0,"arrivalDelay":0,"realTime":false,"distance":2536.0586719175662,"pathway":false,"mode":"BUS","route":"175","agencyName":"Société de Transport du Saguenay","agencyUrl":"http://ville.saguenay.ca/fr/services-aux-citoyens/transport-sts","agencyTimeZoneOffset":-14400000,"routeColor":"FF00FF","routeType":3,"routeId":"1:175","routeTextColor":"FFFFFF","interlineWithPreviousLeg":false,"tripBlockId":"7","headsign":"Costco","agencyId":"0","tripId":"1:217331","serviceDate":"20180402","from":{"name":"boul. Talbot (no. 1494) (Tim-Horton)","stopId":"1:1854","stopCode":"1854","lon":-71.060941,"lat":48.402118,"arrival":1522684975000,"departure":1522684976000,"zoneId":"NA","stopIndex":21,"stopSequence":22,"vertexType":"TRANSIT"},"to":{"name":"boul. Talbot (no. 2406)","stopId":"1:76","stopCode":"76","lon":-71.081157,"lat":48.38457,"arrival":1522685428000,"departure":1522685429000,"zoneId":"NA","stopIndex":29,"stopSequence":30,"vertexType":"TRANSIT"},"legGeometry":{"points":"_plfHjavpLjF`FjCrCrAvAbCfDjIfMdAzAfFpHd@n@nC`DlXv[b@f@mCtHv@v@p@r@_@p@uAcBjDoJhAzApBrBrFvGjDdEbD|DZb@~DrEbDfDrA~A","length":27},"routeShortName":"175","routeLongName":"Term. Chic / Costco","rentedBike":false,"transitLeg":true,"duration":452.0,"steps":[]},{"startTime":1522685429000,"endTime":1522685582000,"departureDelay":0,"arrivalDelay":0,"realTime":false,"distance":198.49200000000002,"pathway":false,"mode":"WALK","route":"","agencyTimeZoneOffset":-14400000,"interlineWithPreviousLeg":false,"from":{"name":"boul. Talbot (no. 2406)","stopId":"1:76","stopCode":"76","lon":-71.081157,"lat":48.38457,"arrival":1522685428000,"departure":1522685429000,"zoneId":"NA","stopIndex":29,"stopSequence":30,"vertexType":"TRANSIT"},"to":{"name":"Destination","lon":-71.08352999,"lat":48.383492,"arrival":1522685582000,"orig":"","vertexType":"NORMAL"},"legGeometry":{"points":"k}hfHbfzpLABwBpFPt@rAlB","length":5},"rentedBike":false,"transitLeg":false,"duration":153.0,"steps":[{"distance":113.958,"relativeDirection":"DEPART","streetName":"Rue des Routiers","absoluteDirection":"NORTHWEST","stayOn":false,"area":false,"bogusName":false,"lon":-71.08209375094117,"lat":48.3837423917909,"elevation":[]},{"distance":84.534,"relativeDirection":"LEFT","streetName":"service road","absoluteDirection":"SOUTHWEST","stayOn":false,"area":false,"bogusName":false,"lon":-71.083326,"lat":48.3843593,"elevation":[]}]}],"tooSloped":false}]},"debugOutput":{"precalculationTime":24,"pathCalculationTime":48,"pathTimes":[21,11,16],"renderingTime":0,"totalTime":72,"timedOut":false},"elevationMetadata":{"ellipsoidToGeoidDifference":-28.885904201182168,"geoidElevation":false}}