{"requestParameters":{"date":"2018/04/02","walkSpeed":"1.33","walkReluctance":"2.0","fromPlace":"48.452347,-71.06397","maxWalkDistance":"3000","waitReluctance":"1.0","carSpeed":"33","numItineraries":"3","waitAtBeginningFactor":"0.4","mode":"TRANSIT,WALK","ignoreRealtimeUpdates":"false","stairsReluctance":"2.0","toPlace":"48.414926,-71.04712899","time":"8:0:00"},"plan":{"date":1522670400000,"from":{"name":"Origin","lon":-71.06397,"lat":48.452347,"orig":"","vertexType":"NORMAL"},"to":{"name":"Destination","lon":-71.04712899,"lat":48.414926,"orig":"","vertexType":"NORMAL"},"itineraries":[{"duration":2042,"startTime":1522672124000,"endTime":1522674166000,"walkTime":311,"transitTime":1429,"waitingTime":302,"walkDistance":389.37818044718534,"walkLimitExceeded":false,"elevationLost":0.0,"elevationGained":0.0,"transfers":1,"legs":[{"startTime":1522672124000,"endTime":1522672285000,"departureDelay":0,"arrivalDelay":0,"realTime":false,"distance":203.541,"pathway":false,"mode":"WALK","route":"","agencyTimeZoneOffset":-14400000,"interlineWithPreviousLeg":false,"from":{"name":"Origin","lon":-71.06397,"lat":48.452347,"departure":1522672124000,"orig":"","vertexType":"NORMAL"},"to":{"name":"Boischatel / Boulogne","stopId":"1:761","stopCode":"761","lon":-71.065886,"lat":48.451703,"arrival":1522672285000,"departure":1522672286000,"zoneId":"NA","stopIndex":25,"stopSequence":26,"vertexType":"TRANSIT"},"legGeometry":{"points":"ekvfHjtvpL[lCx@XNHNHVVtAlD","length":7},"rentedBike":false,"transitLeg":false,"duration":161.0,"steps":[{"distance":54.462,"relativeDirection":"DEPART","streetName":"Rue La Chesnaye","absoluteDirection":"WEST","stayOn":false,"area":false,"bogusName":false,"lon":-71.0638959875322,"lat":48.45251430278326,"elevation":[]},{"distance":149.079,"relativeDirection":"LEFT","streetName":"Rue de Boischatel","absoluteDirection":"SOUTH","stayOn":false,"area":false,"bogusName":false,"lon":-71.06460460000001,"lat":48.4526522,"elevation":[]}]},{"startTime":1522672286000,"endTime":1522672800000,"departureDelay":0,"arrivalDelay":0,"realTime":false,"distance":3285.7443512849486,"pathway":false,"mode":"BUS","route":"22","agencyName":"Société de Transport du Saguenay","agencyUrl":"http://ville.saguenay.ca/fr/services-aux-citoyens/transport-sts","agencyTimeZoneOffset":-14400000,"routeColor":"C0C000","routeType":3,"routeId":"1:22","routeTextColor":"000000","interlineWithPreviousLeg":false,"tripBlockId":"3","headsign":"Terminus Chicoutimi","agencyId":"0","tripId":"1:217190","serviceDate":"20180402","from":{"name":"Boischatel / Boulogne","stopId":"1:761","stopCode":"761","lon":-71.065886,"lat":48.451703,"arrival":1522672285000,"departure":1522672286000,"zoneId":"NA","stopIndex":25,"stopSequence":26,"vertexType":"TRANSIT"},"to":{"name":"Terminus Chicoutimi","stopId":"1:1289","stopCode":"1289","lon":-71.066163,"lat":48.428677,"arrival":1522672800000,"departure":1522673100000,"zoneId":"NA","stopIndex":35,"stopSequence":36,"vertexType":"TRANSIT"},"legGeometry":{"points":"wevfHl`wpLFNpBdFRp@Hl@Jz@BXXrCHl@Lh@Nf@r@nAr@r@`@PLFbAVH_AXeC@IdB_Mh@_EJk@x@x@bA`A|BrBnDrCl@f@|BlBrAbAj@d@ZTXNd@@lA[ZxDN|Ad@fAz@tB~AzDZ|@Zv@x@vBP\\h@~@PVrCmFhHqN~@eBr@cAt@_Av@}@RQPMz@k@tAe@REZG^Af@@X@VF`@Jn@XbClAr@Xt\\`PrAb@pA^hBTjAFj@Pb@JPHLLJNJRFXDT?X?ZEVEVKTMNMHMFOB}DWSGOSYcAN}FFkAF}DJyDd@wPV_HjAN~ALIzBQb@e@@","length":102},"routeShortName":"22","routeLongName":"Vanier","rentedBike":false,"transitLeg":true,"duration":514.0,"steps":[]},{"startTime":1522673100000,"endTime":1522674015000,"departureDelay":0,"arrivalDelay":0,"realTime":false,"distance":4509.057156776643,"pathway":false,"mode":"BUS","route":"10","agencyName":"Société de Transport du Saguenay","agencyUrl":"http://ville.saguenay.ca/fr/services-aux-citoyens/transport-sts","agencyTimeZoneOffset":-14400000,"routeColor":"0000FF","routeType":3,"routeId":"1:10","routeTextColor":"FFFFFF","interlineWithPreviousLeg":false,"tripBlockId":"26","headsign":"Terminus UQAC","agencyId":"0","tripId":"1:217968","serviceDate":"20180402","from":{"name":"Terminus Chicoutimi","stopId":"1:1289","stopCode":"1289","lon":-71.066163,"lat":48.428677,"arrival":1522672800000,"departure":1522673100000,"zoneId":"NA","stopIndex":0,"stopSequence":1,"vertexType":"TRANSIT"},"to":{"name":"Murdock / Baillargeon","stopId":"1:3562","stopCode":"3562","lon":-71.047409,"lat":48.413956,"arrival":1522674015000,"departure":1522674016000,"zoneId":"NA","stopIndex":20,"stopSequence":21,"vertexType":"TRANSIT"},"legGeometry":{"points":"svqfHnbwpLDmCdDZ\\kO`@mQBuCD}DQ_ECk@^Cd@QWkL?m@IuF@gA?eH?cAEuEDO^AjD`@B@rEf@T_FjBXpDd@hCObDaCfCaHbFqN`CwG_J_CwMiDGe@T}C\\yELaCJeAJcAXw@Fk@M_@xBwVr@^LJ|@z@HdAlBbD`Av@b@\\v@d@`@BpBAzAXl@t@XZt@lCl@tAnBpB~@~@lDjDr@r@zDrDnAlAjBrBl@pBPlBCj@KrAAHSpAe@jB_A|Bz@xAvA~BvB|B","length":76},"routeShortName":"10","routeLongName":"Notre-Dame du Saguenay","rentedBike":false,"transitLeg":true,"duration":915.0,"steps":[]},{"startTime":1522674016000,"endTime":1522674166000,"departureDelay":0,"arrivalDelay":0,"realTime":false,"distance":185.715,"pathway":false,"mode":"WALK","route":"","agencyTimeZoneOffset":-14400000,"interlineWithPreviousLeg":false,"from":{"name":"Murdock / Baillargeon","stopId":"1:3562","stopCode":"3562","lon":-71.047409,"lat":48.413956,"arrival":1522674015000,"departure":1522674016000,"zoneId":"NA","stopIndex":20,"stopSequence":21,"vertexType":"TRANSIT"},"to":{"name":"Destination","lon":-71.04712899,"lat":48.414926,"arrival":1522674166000,"orig":"","vertexType":"NORMAL"},"legGeometry":{"points":"{ynfHtlspLh@j@Up@Sl@Sn@MZ_@a@s@w@a@c@","length":9},"rentedBike":false,"transitLeg":false,"duration":150.0,"steps":[{"distance":28.879,"relativeDirection":"DEPART","streetName":"Rue Murdock","absoluteDirection":"SOUTHWEST","stayOn":false,"area":false,"bogusName":false,"lon":-71.04730164209217,"lat":48.41390649315532,"elevation":[]},{"distance":156.836,"relativeDirection":"RIGHT","streetName":"service road","absoluteDirection":"NORTHWEST","stayOn":false,"area":false,"bogusName":true,"lon":-71.0475249,"lat":48.413693200000004,"elevation":[]}]}],"tooSloped":false},{"duration":2882,"startTime":1522671385000,"endTime":1522674267000,"walkTime":957,"transitTime":1323,"waitingTime":602,"walkDistance":1212.6193984878705,"walkLimitExceeded":false,"elevationLost":0.0,"elevationGained":0.0,"transfers":1,"legs":[{"startTime":1522671385000,"endTime":1522671959000,"departureDelay":0,"arrivalDelay":0,"realTime":false,"distance":730.1529999999999,"pathway":false,"mode":"WALK","route":"","agencyTimeZoneOffset":-14400000,"interlineWithPreviousLeg":false,"from":{"name":"Origin","lon":-71.06397,"lat":48.452347,"departure":1522671385000,"orig":"","vertexType":"NORMAL"},"to":{"name":"Verdun / Riviera","stopId":"1:2023","stopCode":"2023","lon":-71.057875,"lat":48.449739,"arrival":1522671959000,"departure":1522671960000,"zoneId":"NA","stopIndex":14,"stopSequence":15,"vertexType":"TRANSIT"},"legGeometry":{"points":"ekvfHjtvpL[lCx@XNHNHVV\\gBVaBvAmJVJ\\oBb@mBjAcJn@{C~@sAf@y@","length":16},"rentedBike":false,"transitLeg":false,"duration":574.0,"steps":[{"distance":54.462,"relativeDirection":"DEPART","streetName":"Rue La Chesnaye","absoluteDirection":"WEST","stayOn":false,"area":false,"bogusName":false,"lon":-71.0638959875322,"lat":48.45251430278326,"elevation":[]},{"distance":69.033,"relativeDirection":"LEFT","streetName":"Rue de Boischatel","absoluteDirection":"SOUTH","stayOn":false,"area":false,"bogusName":false,"lon":-71.06460460000001,"lat":48.4526522,"elevation":[]},{"distance":224.285,"relativeDirection":"LEFT","streetName":"Rue Dupré","absoluteDirection":"SOUTHEAST","stayOn":false,"area":false,"bogusName":false,"lon":-71.064958,"lat":48.452082100000005,"elevation":[]},{"distance":13.88,"relativeDirection":"RIGHT","streetName":"Rue Delisle","absoluteDirection":"SOUTH","stayOn":false,"area":false,"bogusName":false,"lon":-71.06211280000001,"lat":48.45137080000001,"elevation":[]},{"distance":291.353,"relativeDirection":"LEFT","streetName":"path","absoluteDirection":"EAST","stayOn":false,"area":false,"bogusName":true,"lon":-71.0621742,"lat":48.451252800000006,"elevation":[]},{"distance":77.14,"relativeDirection":"SLIGHTLY_RIGHT","streetName":"Rue de Verdun","absoluteDirection":"SOUTHEAST","stayOn":false,"area":false,"bogusName":false,"lon":-71.05850140000001,"lat":48.450301200000006,"elevation":[]}]},{"startTime":1522671960000,"endTime":1522672500000,"departureDelay":0,"arrivalDelay":0,"realTime":false,"distance":3566.9301798582574,"pathway":false,"mode":"BUS","route":"23","agencyName":"Société de Transport du Saguenay","agencyUrl":"http://ville.saguenay.ca/fr/services-aux-citoyens/transport-sts","agencyTimeZoneOffset":-14400000,"routeColor":"FF00FF","routeType":3,"routeId":"1:23","routeTextColor":"FFFFFF","interlineWithPreviousLeg":false,"tripBlockId":"4","headsign":"Terminus Chicoutimi","agencyId":"0","tripId":"1:217226","serviceDate":"20180402","from":{"name":"Verdun / Riviera","stopId":"1:2023","stopCode":"2023","lon":-71.057875,"lat":48.449739,"arrival":1522671959000,"departure":1522671960000,"zoneId":"NA","stopIndex":14,"stopSequence":15,"vertexType":"TRANSIT"},"to":{"name":"Terminus Chicoutimi","stopId":"1:1289","stopCode":"1289","lon":-71.066163,"lat":48.428677,"arrival":1522672500000,"departure":1522673100000,"zoneId":"NA","stopIndex":26,"stopSequence":27,"vertexType":"TRANSIT"},"legGeometry":{"points":"czufHhnupLT[~CkFf@s@\\e@x@}@jAeAXQZStBaAh@]`@]`@i@l@kDF_@R{AFWFMPIPC`@BT@V?TAVKLENCLCJ@J@xAb@x@Zz@\\CP?R@N@NFLFF`GtBx@Xw@pG@l@B\\DXL\\RZDFXPf@N@v@Bp@Dr@l@~HNlAH\\@HLd@\\z@Xd@X\\RTXRr@Zn@PfExAvDpALnBJt@Pp@|@`DHZPn@`@rBNnAFr@DbA?bB@jABzA?p@A???A???A?A???A@??A?A@??A@?@A??@A@???@A@?@?@A@?@?@?@?@???@?@?@?@?@?@@@?@?@@@?@@@?@@@?@@?@@??@@@?E`@Kr@]rACVEl@I|AAr@JbAWJe@FUAM?a@Ke@YYWWa@v@}@RQPMz@k@tAe@REZG^Af@@X@VF`@Jn@XbClAr@Xt\\`PrAb@pA^hBTjAFj@Pb@JPHLLJNJRFXDT?X?ZEVEVKTMNMHMFOB}DWSGOSYcAN}FFkAF}DJyDd@wPV_HjAN~ALI`C","length":195},"routeShortName":"23","routeLongName":"Côte Verdun via Aréna du Plateau","rentedBike":false,"transitLeg":true,"duration":540.0,"steps":[]},{"startTime":1522673100000,"endTime":1522673883000,"departureDelay":0,"arrivalDelay":0,"realTime":false,"distance":3542.2693364457004,"pathway":false,"mode":"BUS","route":"175","agencyName":"Société de Transport du Saguenay","agencyUrl":"http://ville.saguenay.ca/fr/services-aux-citoyens/transport-sts","agencyTimeZoneOffset":-14400000,"routeColor":"FF00FF","routeType":3,"routeId":"1:175","routeTextColor":"FFFFFF","interlineWithPreviousLeg":false,"tripBlockId":"7","headsign":"Costco","agencyId":"0","tripId":"1:217325","serviceDate":"20180402","from":{"name":"Terminus Chicoutimi","stopId":"1:1289","stopCode":"1289","lon":-71.066163,"lat":48.428677,"arrival":1522672500000,"departure":1522673100000,"zoneId":"NA","stopIndex":0,"stopSequence":1,"vertexType":"TRANSIT"},"to":{"name":"boul. Université / Murdock","stopId":"1:80","stopCode":"80","lon":-71.050111,"lat":48.411498,"arrival":1522673883000,"departure":1522673884000,"zoneId":"NA","stopIndex":14,"stopSequence":15,"vertexType":"TRANSIT"},"legGeometry":{"points":"kvqfH~awpL~CgBbAqa@FwCBkAOsHAg@bAYUwMKoE@mB@kJ@iFbEf@xEj@iCtYp@r@z@`ABBvHtHXRx@l@VwAvAgB\\qBIuAC]g@yEzDuLbBbBvAxAMx@|@v@`A~@Xw@~D~DPxFZtA~ApE`N{LpFmEb@[ROl@[vDQXKfA[|@q@fAsBlEmM","length":50},"routeShortName":"175","routeLongName":"Term. Chic / Costco","rentedBike":false,"transitLeg":true,"duration":783.0,"steps":[]},{"startTime":1522673884000,"endTime":1522674267000,"departureDelay":0,"arrivalDelay":0,"realTime":false,"distance":482.20699999999994,"pathway":false,"mode":"WALK","route":"","agencyTimeZoneOffset":-14400000,"interlineWithPreviousLeg":false,"from":{"name":"boul. Université / Murdock","stopId":"1:80","stopCode":"80","lon":-71.050111,"lat":48.411498,"arrival":1522673883000,"departure":1522673884000,"zoneId":"NA","stopIndex":14,"stopSequence":15,"vertexType":"TRANSIT"},"to":{"name":"Destination","lon":-71.04712899,"lat":48.414926,"arrival":1522674267000,"orig":"","vertexType":"NORMAL"},"legGeometry":{"points":"aknfH|}spLTo@WQoBsBeEcEeBmBQSUp@Sl@Sn@MZ_@a@s@w@a@c@","length":14},"rentedBike":false,"transitLeg":false,"duration":383.0,"steps":[{"distance":21.602,"relativeDirection":"DEPART","streetName":"Boulevard de l'Université","absoluteDirection":"SOUTHEAST","stayOn":false,"area":false,"bogusName":false,"lon":-71.05006857152243,"lat":48.41153928216614,"elevation":[]},{"distance":303.769,"relativeDirection":"LEFT","streetName":"Rue Murdock","absoluteDirection":"NORTHEAST","stayOn":false,"area":false,"bogusName":false,"lon":-71.0498268,"lat":48.4114298,"elevation":[]},{"distance":156.836,"relativeDirection":"LEFT","streetName":"service road","absoluteDirection":"NORTHWEST","stayOn":false,"area":false,"bogusName":true,"lon":-71.0475249,"lat":48.413693200000004,"elevation":[]}]}],"tooSloped":false},{"duration":2042,"startTime":1522673924000,"endTime":1522675966000,"walkTime":311,"transitTime":1429,"waitingTime":302,"walkDistance":389.37818044718534,"walkLimitExceeded":false,"elevationLost":0.0,"elevationGained":0.0,"transfers":1,"legs":[{"startTime":1522673924000,"endTime":1522674085000,"departureDelay":0,"arrivalDelay":0,"realTime":false,"distance":203.541,"pathway":false,"mode":"WALK","route":"","agencyTimeZoneOffset":-14400000,"interlineWithPreviousLeg":false,"from":{"name":"Origin","lon":-71.06397,"lat":48.452347,"departure":1522673924000,"orig":"","vertexType":"NORMAL"},"to":{"name":"Boischatel / Boulogne","stopId":"1:761","stopCode":"761","lon":-71.065886,"lat":48.451703,"arrival":1522674085000,"departure":1522674086000,"zoneId":"NA","stopIndex":25,"stopSequence":26,"vertexType":"TRANSIT"},"legGeometry":{"points":"ekvfHjtvpL[lCx@XNHNHVVtAlD","length":7},"rentedBike":false,"transitLeg":false,"duration":161.0,"steps":[{"distance":54.462,"relativeDirection":"DEPART","streetName":"Rue La Chesnaye","absoluteDirection":"WEST","stayOn":false,"area":false,"bogusName":false,"lon":-71.0638959875322,"lat":48.45251430278326,"elevation":[]},{"distance":149.079,"relativeDirection":"LEFT","streetName":"Rue de Boischatel","absoluteDirection":"SOUTH","stayOn":false,"area":false,"bogusName":false,"lon":-71.06460460000001,"lat":48.4526522,"elevation":[]}]},{"startTime":1522674086000,"endTime":1522674600000,"departureDelay":0,"arrivalDelay":0,"realTime":false,"distance":3285.7443512849486,"pathway":false,"mode":"BUS","route":"22","agencyName":"Société de Transport du Saguenay","agencyUrl":"http://ville.saguenay.ca/fr/services-aux-citoyens/transport-sts","agencyTimeZoneOffset":-14400000,"routeColor":"C0C000","routeType":3,"routeId":"1:22","routeTextColor":"000000","interlineWithPreviousLeg":false,"tripBlockId":"1","headsign":"Terminus Chicoutimi","agencyId":"0","tripId":"1:217134","serviceDate":"20180402","from":{"name":"Boischatel / Boulogne","stopId":"1:761","stopCode":"761","lon":-71.065886,"lat":48.451703,"arrival":1522674085000,"departure":1522674086000,"zoneId":"NA","stopIndex":25,"stopSequence":26,"vertexType":"TRANSIT"},"to":{"name":"Terminus Chicoutimi","stopId":"1:1289","stopCode":"1289","lon":-71.066163,"lat":48.428677,"arrival":1522674600000,"departure":1522674900000,"zoneId":"NA","stopIndex":35,"stopSequence":36,"vertexType":"TRANSIT"},"legGeometry":{"points":"wevfHl`wpLFNpBdFRp@Hl@Jz@BXXrCHl@Lh@Nf@r@nAr@r@`@PLFbAVH_AXeC@IdB_Mh@_EJk@x@x@bA`A|BrBnDrCl@f@|BlBrAbAj@d@ZTXNd@@lA[ZxDN|Ad@fAz@tB~AzDZ|@Zv@x@vBP\\h@~@PVrCmFhHqN~@eBr@cAt@_Av@}@RQPMz@k@tAe@REZG^Af@@X@VF`@Jn@XbClAr@Xt\\`PrAb@pA^hBTjAFj@Pb@JPHLLJNJRFXDT?X?ZEVEVKTMNMHMFOB}DWSGOSYcAN}FFkAF}DJyDd@wPV_HjAN~ALIzBQb@e@@","length":102},"routeShortName":"22","routeLongName":"Vanier","rentedBike":false,"transitLeg":true,"duration":514.0,"steps":[]},{"startTime":1522674900000,"endTime":1522675815000,"departureDelay":0,"arrivalDelay":0,"realTime":false,"distance":4509.057156776643,"pathway":false,"mode":"BUS","route":"10","agencyName":"Société de Transport du Saguenay","agencyUrl":"http://ville.saguenay.ca/fr/services-aux-citoyens/transport-sts","agencyTimeZoneOffset":-14400000,"routeColor":"0000FF","routeType":3,"routeId":"1:10","routeTextColor":"FFFFFF","interlineWithPreviousLeg":false,"tripBlockId":"29","headsign":"Terminus UQAC","agencyId":"0","tripId":"1:218057","serviceDate":"20180402","from":{"name":"Terminus Chicoutimi","stopId":"1:1289","stopCode":"1289","lon":-71.066163,"lat":48.428677,"arrival":1522674600000,"departure":1522674900000,"zoneId":"NA","stopIndex":0,"stopSequence":1,"vertexType":"TRANSIT"},"to":{"name":"Murdock / Baillargeon","stopId":"1:3562","stopCode":"3562","lon":-71.047409,"lat":48.413956,"arrival":1522675815000,"departure":1522675816000,"zoneId":"NA","stopIndex":20,"stopSequence":21,"vertexType":"TRANSIT"},"legGeometry":{"points":"svqfHnbwpLDmCdDZ\\kO`@mQBuCD}DQ_ECk@^Cd@QWkL?m@IuF@gA?eH?cAEuEDO^AjD`@B@rEf@T_FjBXpDd@hCObDaCfCaHbFqN`CwG_J_CwMiDGe@T}C\\yELaCJeAJcAXw@Fk@M_@xBwVr@^LJ|@z@HdAlBbD`Av@b@\\v@d@`@BpBAzAXl@t@XZt@lCl@tAnBpB~@~@lDjDr@r@zDrDnAlAjBrBl@pBPlBCj@KrAAHSpAe@jB_A|Bz@xAvA~BvB|B","length":76},"routeShortName":"10","routeLongName":"Notre-Dame du Saguenay","rentedBike":false,"transitLeg":true,"duration":915.0,"steps":[]},{"startTime":1522675816000,"endTime":1522675966000,"departureDelay":0,"arrivalDelay":0,"realTime":false,"distance":185.715,"pathway":false,"mode":"WALK","route":"","agencyTimeZoneOffset":-14400000,"interlineWithPreviousLeg":false,"from":{"name":"Murdock / Baillargeon","stopId":"1:3562","stopCode":"3562","lon":-71.047409,"lat":48.413956,"arrival":1522675815000,"departure":1522675816000,"zoneId":"NA","stopIndex":20,"stopSequence":21,"vertexType":"TRANSIT"},"to":{"name":"Destination","lon":-71.04712899,"lat":48.414926,"arrival":1522675966000,"orig":"","vertexType":"NORMAL"},"legGeometry":{"points":"{ynfHtlspLh@j@Up@Sl@Sn@MZ_@a@s@w@a@c@","length":9},"rentedBike":false,"transitLeg":false,"duration":150.0,"steps":[{"distance":28.879,"relativeDirection":"DEPART","streetName":"Rue Murdock","absoluteDirection":"SOUTHWEST","stayOn":false,"area":false,"bogusName":false,"lon":-71.04730164209217,"lat":48.41390649315532,"elevation":[]},{"distance":156.836,"relativeDirection":"RIGHT","streetName":"service road","absoluteDirection":"NORTHWEST","stayOn":false,"area":false,"bogusName":true,"lon":-71.0475249,"lat":48.413693200000004,"elevation":[]}]}],"tooSloped":false}]},"debugOutput":{"precalculationTime":44,"pathCalculationTime":35,"pathTimes":[22,5,8],"renderingTime":1,"totalTime":80,"timedOut":false},"elevationMetadata":{"ellipsoidToGeoidDifference":-28.885904201182168,"geoidElevation":false}}