{"requestParameters":{"date":"2018/04/02","walkSpeed":"1.33","walkReluctance":"2.0","fromPlace":"48.423148,-71.052406","maxWalkDistance":"3000","waitReluctance":"1.0","carSpeed":"33","numItineraries":"3","waitAtBeginningFactor":"0.4","mode":"TRANSIT,WALK","ignoreRealtimeUpdates":"false","stairsReluctance":"2.0","toPlace":"48.45283,-71.062813","time":"16:0:00"},"plan":{"date":1522699200000,"from":{"name":"Origin","lon":-71.052406,"lat":48.423148,"orig":"","vertexType":"NORMAL"},"to":{"name":"Destination","lon":-71.062813,"lat":48.45283,"orig":"","vertexType":"NORMAL"},"itineraries":[{"duration":1970,"startTime":1522700735000,"endTime":1522702705000,"walkTime":1527,"transitTime":441,"waitingTime":2,"walkDistance":1952.9227744260943,"walkLimitExceeded":false,"elevationLost":0.0,"elevationGained":0.0,"transfers":0,"legs":[{"startTime":1522700735000,"endTime":1522701899000,"departureDelay":0,"arrivalDelay":0,"realTime":false,"distance":1490.0399999999995,"pathway":false,"mode":"WALK","route":"","agencyTimeZoneOffset":-14400000,"interlineWithPreviousLeg":false,"from":{"name":"Origin","lon":-71.052406,"lat":48.423148,"departure":1522700735000,"orig":"","vertexType":"NORMAL"},"to":{"name":"Terminus Chicoutimi","stopId":"1:1289","stopCode":"1289","lon":-71.066163,"lat":48.428677,"arrival":1522701899000,"departure":1522701900000,"zoneId":"NA","stopIndex":0,"stopSequence":1,"vertexType":"TRANSIT"},"legGeometry":{"points":"qspfHpltpL?n@CVWrBOpAKv@e@~DECOGwBKMAY`@_@hAa@jBC~ACvCiAAgBOuAIoCK_@?SBQDo@N]FFj@LhA?lB?JCrBA~@C~@EtAKpFAl@?RCv@IxEAh@GpBAXAj@SzHc@MKESAcAK","length":47},"rentedBike":false,"transitLeg":false,"duration":1164.0,"steps":[{"distance":278.31600000000003,"relativeDirection":"DEPART","streetName":"service road","absoluteDirection":"WEST","stayOn":false,"area":false,"bogusName":false,"lon":-71.05240568397582,"lat":48.423135724671475,"elevation":[]},{"distance":195.33299999999997,"relativeDirection":"CONTINUE","streetName":"Rue Price Est","absoluteDirection":"NORTH","stayOn":false,"area":false,"bogusName":false,"lon":-71.0548701,"lat":48.424313700000006,"elevation":[]},{"distance":310.798,"relativeDirection":"RIGHT","streetName":"Rue Labrecque","absoluteDirection":"NORTH","stayOn":false,"area":false,"bogusName":false,"lon":-71.0571863,"lat":48.424884500000005,"elevation":[]},{"distance":628.3860000000001,"relativeDirection":"LEFT","streetName":"Rue Racine Est","absoluteDirection":"WEST","stayOn":false,"area":false,"bogusName":false,"lon":-71.0571547,"lat":48.427663,"elevation":[]},{"distance":77.207,"relativeDirection":"RIGHT","streetName":"Rue Morin","absoluteDirection":"NORTH","stayOn":false,"area":false,"bogusName":false,"lon":-71.0656238,"lat":48.4279449,"elevation":[]}]},{"startTime":1522701900000,"endTime":1522702341000,"departureDelay":0,"arrivalDelay":0,"realTime":false,"distance":2900.273719447381,"pathway":false,"mode":"BUS","route":"22","agencyName":"Société de Transport du Saguenay","agencyUrl":"http://ville.saguenay.ca/fr/services-aux-citoyens/transport-sts","agencyTimeZoneOffset":-14400000,"routeColor":"C0C000","routeType":3,"routeId":"1:22","routeTextColor":"000000","interlineWithPreviousLeg":false,"tripBlockId":"1","headsign":"Terminus Chicoutimi","agencyId":"0","tripId":"1:217150","serviceDate":"20180402","from":{"name":"Terminus Chicoutimi","stopId":"1:1289","stopCode":"1289","lon":-71.066163,"lat":48.428677,"arrival":1522701899000,"departure":1522701900000,"zoneId":"NA","stopIndex":0,"stopSequence":1,"vertexType":"TRANSIT"},"to":{"name":"Delisle / Dupré","stopId":"1:744","stopCode":"744","lon":-71.062144,"lat":48.451199,"arrival":1522702341000,"departure":1522702342000,"zoneId":"NA","stopIndex":8,"stopSequence":9,"vertexType":"TRANSIT"},"legGeometry":{"points":"evqfHzcwpLg@?UhKxDVOhHMrH~CYhBBInAKXSNg@L{JHgBMoA[s@Usb@gS}@g@u@Su@Ia@Ck@Dm@HwAf@c@VeAx@iAlAU^[d@eLtTsAvBMJYF[EMIQ]y@wB[y@[{@_B{D{@uBe@gAO}AGw@SaCmAZe@AYOy@o@MKsAcA}BmBuC}BgA}@}BsBaAaA{@y@d@kDp@uEyIkDqHwC","length":61},"routeShortName":"22","routeLongName":"Vanier","rentedBike":false,"transitLeg":true,"duration":441.0,"steps":[]},{"startTime":1522702342000,"endTime":1522702705000,"departureDelay":0,"arrivalDelay":0,"realTime":false,"distance":462.573,"pathway":false,"mode":"WALK","route":"","agencyTimeZoneOffset":-14400000,"interlineWithPreviousLeg":false,"from":{"name":"Delisle / Dupré","stopId":"1:744","stopCode":"744","lon":-71.062144,"lat":48.451199,"arrival":1522702341000,"departure":1522702342000,"zoneId":"NA","stopIndex":8,"stopSequence":9,"vertexType":"TRANSIT"},"to":{"name":"Destination","lon":-71.062813,"lat":48.45283,"arrival":1522702705000,"orig":"","vertexType":"NORMAL"},"legGeometry":{"points":"acvfHvivpLGCWKwAlJW`B]fBWWOIOIy@Yh@sE?I@IEa@CGMQKESGMCMC","length":20},"rentedBike":false,"transitLeg":false,"duration":363.0,"steps":[{"distance":18.808,"relativeDirection":"DEPART","streetName":"Rue Delisle","absoluteDirection":"NORTH","stayOn":false,"area":false,"bogusName":false,"lon":-71.06219601135356,"lat":48.451210914725365,"elevation":[]},{"distance":224.285,"relativeDirection":"LEFT","streetName":"Rue Dupré","absoluteDirection":"WEST","stayOn":false,"area":false,"bogusName":false,"lon":-71.06211280000001,"lat":48.45137080000001,"elevation":[]},{"distance":69.033,"relativeDirection":"RIGHT","streetName":"Rue de Boischatel","absoluteDirection":"NORTHEAST","stayOn":false,"area":false,"bogusName":false,"lon":-71.064958,"lat":48.452082100000005,"elevation":[]},{"distance":150.447,"relativeDirection":"RIGHT","streetName":"Rue La Chesnaye","absoluteDirection":"EAST","stayOn":false,"area":false,"bogusName":false,"lon":-71.06460460000001,"lat":48.4526522,"elevation":[]}]}],"tooSloped":false},{"duration":2329,"startTime":1522700735000,"endTime":1522703064000,"walkTime":1791,"transitTime":536,"waitingTime":2,"walkDistance":2301.101751869994,"walkLimitExceeded":false,"elevationLost":0.0,"elevationGained":0.0,"transfers":0,"legs":[{"startTime":1522700735000,"endTime":1522701899000,"departureDelay":0,"arrivalDelay":0,"realTime":false,"distance":1490.0399999999995,"pathway":false,"mode":"WALK","route":"","agencyTimeZoneOffset":-14400000,"interlineWithPreviousLeg":false,"from":{"name":"Origin","lon":-71.052406,"lat":48.423148,"departure":1522700735000,"orig":"","vertexType":"NORMAL"},"to":{"name":"Terminus Chicoutimi","stopId":"1:1289","stopCode":"1289","lon":-71.066163,"lat":48.428677,"arrival":1522701899000,"departure":1522701900000,"zoneId":"NA","stopIndex":0,"stopSequence":1,"vertexType":"TRANSIT"},"legGeometry":{"points":"qspfHpltpL?n@CVWrBOpAKv@e@~DECOGwBKMAY`@_@hAa@jBC~ACvCiAAgBOuAIoCK_@?SBQDo@N]FFj@LhA?lB?JCrBA~@C~@EtAKpFAl@?RCv@IxEAh@GpBAXAj@SzHc@MKESAcAK","length":47},"rentedBike":false,"transitLeg":false,"duration":1164.0,"steps":[{"distance":278.31600000000003,"relativeDirection":"DEPART","streetName":"service road","absoluteDirection":"WEST","stayOn":false,"area":false,"bogusName":false,"lon":-71.05240568397582,"lat":48.423135724671475,"elevation":[]},{"distance":195.33299999999997,"relativeDirection":"CONTINUE","streetName":"Rue Price Est","absoluteDirection":"NORTH","stayOn":false,"area":false,"bogusName":false,"lon":-71.0548701,"lat":48.424313700000006,"elevation":[]},{"distance":310.798,"relativeDirection":"RIGHT","streetName":"Rue Labrecque","absoluteDirection":"NORTH","stayOn":false,"area":false,"bogusName":false,"lon":-71.0571863,"lat":48.424884500000005,"elevation":[]},{"distance":628.3860000000001,"relativeDirection":"LEFT","streetName":"Rue Racine Est","absoluteDirection":"WEST","stayOn":false,"area":false,"bogusName":false,"lon":-71.0571547,"lat":48.427663,"elevation":[]},{"distance":77.207,"relativeDirection":"RIGHT","streetName":"Rue Morin","absoluteDirection":"NORTH","stayOn":false,"area":false,"bogusName":false,"lon":-71.0656238,"lat":48.4279449,"elevation":[]}]},{"startTime":1522701900000,"endTime":1522702436000,"departureDelay":0,"arrivalDelay":0,"realTime":false,"distance":3863.2188813205885,"pathway":false,"mode":"BUS","route":"23","agencyName":"Société de Transport du Saguenay","agencyUrl":"http://ville.saguenay.ca/fr/services-aux-citoyens/transport-sts","agencyTimeZoneOffset":-14400000,"routeColor":"FF00FF","routeType":3,"routeId":"1:23","routeTextColor":"FFFFFF","interlineWithPreviousLeg":false,"tripBlockId":"5","headsign":"Terminus Chicoutimi","agencyId":"0","tripId":"1:217270","serviceDate":"20180402","from":{"name":"Terminus Chicoutimi","stopId":"1:1289","stopCode":"1289","lon":-71.066163,"lat":48.428677,"arrival":1522701899000,"departure":1522701900000,"zoneId":"NA","stopIndex":0,"stopSequence":1,"vertexType":"TRANSIT"},"to":{"name":"Cabot / Bossuet","stopId":"1:785","stopCode":"785","lon":-71.069257,"lat":48.449097,"arrival":1522702436000,"departure":1522702437000,"zoneId":"NA","stopIndex":8,"stopSequence":9,"vertexType":"TRANSIT"},"legGeometry":{"points":"kwqfHjbwpLF_CkAOYCm@rRO\\WjGOfGCRK^KJMHQB_AMg@Gw`@eR}@g@u@Su@Ia@Ck@Dm@HwAf@c@VeAx@iAlAU^[d@eLtTsAvB_CvEuAnCmBlE}@|B_BvFoC`JCD}@hCo@~Aq@pAs@fA{BlCqH|Iq@Bq@Im@UGCUi@Wm@ScA_@gGSaE@_@@_@@ERoBFe@No@`@gAbCyFNe@Ha@He@Fg@Du@Dg@Hc@Pa@RW\\S`@QZEm@eHM}B?GGi@Is@Ou@Qw@Mo@Kw@ImAGoBAk@aALa@?YEUKc@Yc@_@KOIUGUEWAW?YBqAH_AXeC@I","length":100},"routeShortName":"23","routeLongName":"Côte Verdun via Aréna du Plateau","rentedBike":false,"transitLeg":true,"duration":536.0,"steps":[]},{"startTime":1522702437000,"endTime":1522703064000,"departureDelay":0,"arrivalDelay":0,"realTime":false,"distance":810.761,"pathway":false,"mode":"WALK","route":"","agencyTimeZoneOffset":-14400000,"interlineWithPreviousLeg":false,"from":{"name":"Cabot / Bossuet","stopId":"1:785","stopCode":"785","lon":-71.069257,"lat":48.449097,"arrival":1522702436000,"departure":1522702437000,"zoneId":"NA","stopIndex":8,"stopSequence":9,"vertexType":"TRANSIT"},"to":{"name":"Destination","lon":-71.062813,"lat":48.45283,"arrival":1522703064000,"orig":"","vertexType":"NORMAL"},"legGeometry":{"points":"ivufHruwpLALg@vDq@GYICAUMSQUQ]e@[c@M]Qe@Ka@e@iEEWUaBKe@EQGSM[Qc@gAoCKUuAmDWWOIOIy@Yh@sE?I@IEa@CGMQKESGMCMC","length":39},"alerts":[{"alertHeaderText":"Unpaved surface"}],"rentedBike":false,"transitLeg":false,"duration":627.0,"steps":[{"distance":76.31299999999999,"relativeDirection":"DEPART","streetName":"Rue Cabot","absoluteDirection":"WEST","stayOn":false,"area":false,"bogusName":false,"lon":-71.06921997796464,"lat":48.449177280364445,"elevation":[]},{"distance":584.0010000000001,"relativeDirection":"RIGHT","streetName":"Rue de Boischatel","absoluteDirection":"NORTH","stayOn":false,"area":false,"bogusName":false,"lon":-71.0702047,"lat":48.449388000000006,"elevation":[],"alerts":[{"alertHeaderText":"Unpaved surface"}]},{"distance":150.447,"relativeDirection":"RIGHT","streetName":"Rue La Chesnaye","absoluteDirection":"EAST","stayOn":false,"area":false,"bogusName":false,"lon":-71.06460460000001,"lat":48.4526522,"elevation":[]}]}],"tooSloped":false},{"duration":1970,"startTime":1522702535000,"endTime":1522704505000,"walkTime":1527,"transitTime":441,"waitingTime":2,"walkDistance":1952.9227744260943,"walkLimitExceeded":false,"elevationLost":0.0,"elevationGained":0.0,"transfers":0,"legs":[{"startTime":1522702535000,"endTime":1522703699000,"departureDelay":0,"arrivalDelay":0,"realTime":false,"distance":1490.0399999999995,"pathway":false,"mode":"WALK","route":"","agencyTimeZoneOffset":-14400000,"interlineWithPreviousLeg":false,"from":{"name":"Origin","lon":-71.052406,"lat":48.423148,"departure":1522702535000,"orig":"","vertexType":"NORMAL"},"to":{"name":"Terminus Chicoutimi","stopId":"1:1289","stopCode":"1289","lon":-71.066163,"lat":48.428677,"arrival":1522703699000,"departure":1522703700000,"zoneId":"NA","stopIndex":0,"stopSequence":1,"vertexType":"TRANSIT"},"legGeometry":{"points":"qspfHpltpL?n@CVWrBOpAKv@e@~DECOGwBKMAY`@_@hAa@jBC~ACvCiAAgBOuAIoCK_@?SBQDo@N]FFj@LhA?lB?JCrBA~@C~@EtAKpFAl@?RCv@IxEAh@GpBAXAj@SzHc@MKESAcAK","length":47},"rentedBike":false,"transitLeg":false,"duration":1164.0,"steps":[{"distance":278.31600000000003,"relativeDirection":"DEPART","streetName":"service road","absoluteDirection":"WEST","stayOn":false,"area":false,"bogusName":false,"lon":-71.05240568397582,"lat":48.423135724671475,"elevation":[]},{"distance":195.33299999999997,"relativeDirection":"CONTINUE","streetName":"Rue Price Est","absoluteDirection":"NORTH","stayOn":false,"area":false,"bogusName":false,"lon":-71.0548701,"lat":48.424313700000006,"elevation":[]},{"distance":310.798,"relativeDirection":"RIGHT","streetName":"Rue Labrecque","absoluteDirection":"NORTH","stayOn":false,"area":false,"bogusName":false,"lon":-71.0571863,"lat":48.424884500000005,"elevation":[]},{"distance":628.3860000000001,"relativeDirection":"LEFT","streetName":"Rue Racine Est","absoluteDirection":"WEST","stayOn":false,"area":false,"bogusName":false,"lon":-71.0571547,"lat":48.427663,"elevation":[]},{"distance":77.207,"relativeDirection":"RIGHT","streetName":"Rue Morin","absoluteDirection":"NORTH","stayOn":false,"area":false,"bogusName":false,"lon":-71.0656238,"lat":48.4279449,"elevation":[]}]},{"startTime":1522703700000,"endTime":1522704141000,"departureDelay":0,"arrivalDelay":0,"realTime":false,"distance":2900.273719447381,"pathway":false,"mode":"BUS","route":"22","agencyName":"Société de Transport du Saguenay","agencyUrl":"http://ville.saguenay.ca/fr/services-aux-citoyens/transport-sts","agencyTimeZoneOffset":-14400000,"routeColor":"C0C000","routeType":3,"routeId":"1:22","routeTextColor":"000000","interlineWithPreviousLeg":false,"tripBlockId":"3","headsign":"Terminus Chicoutimi","agencyId":"0","tripId":"1:217208","serviceDate":"20180402","from":{"name":"Terminus Chicoutimi","stopId":"1:1289","stopCode":"1289","lon":-71.066163,"lat":48.428677,"arrival":1522703699000,"departure":1522703700000,"zoneId":"NA","stopIndex":0,"stopSequence":1,"vertexType":"TRANSIT"},"to":{"name":"Delisle / Dupré","stopId":"1:744","stopCode":"744","lon":-71.062144,"lat":48.451199,"arrival":1522704141000,"departure":1522704142000,"zoneId":"NA","stopIndex":8,"stopSequence":9,"vertexType":"TRANSIT"},"legGeometry":{"points":"evqfHzcwpLg@?UhKxDVOhHMrH~CYhBBInAKXSNg@L{JHgBMoA[s@Usb@gS}@g@u@Su@Ia@Ck@Dm@HwAf@c@VeAx@iAlAU^[d@eLtTsAvBMJYF[EMIQ]y@wB[y@[{@_B{D{@uBe@gAO}AGw@SaCmAZe@AYOy@o@MKsAcA}BmBuC}BgA}@}BsBaAaA{@y@d@kDp@uEyIkDqHwC","length":61},"routeShortName":"22","routeLongName":"Vanier","rentedBike":false,"transitLeg":true,"duration":441.0,"steps":[]},{"startTime":1522704142000,"endTime":1522704505000,"departureDelay":0,"arrivalDelay":0,"realTime":false,"distance":462.573,"pathway":false,"mode":"WALK","route":"","agencyTimeZoneOffset":-14400000,"interlineWithPreviousLeg":false,"from":{"name":"Delisle / Dupré","stopId":"1:744","stopCode":"744","lon":-71.062144,"lat":48.451199,"arrival":1522704141000,"departure":1522704142000,"zoneId":"NA","stopIndex":8,"stopSequence":9,"vertexType":"TRANSIT"},"to":{"name":"Destination","lon":-71.062813,"lat":48.45283,"arrival":1522704505000,"orig":"","vertexType":"NORMAL"},"legGeometry":{"points":"acvfHvivpLGCWKwAlJW`B]fBWWOIOIy@Yh@sE?I@IEa@CGMQKESGMCMC","length":20},"rentedBike":false,"transitLeg":false,"duration":363.0,"steps":[{"distance":18.808,"relativeDirection":"DEPART","streetName":"Rue Delisle","absoluteDirection":"NORTH","stayOn":false,"area":false,"bogusName":false,"lon":-71.06219601135356,"lat":48.451210914725365,"elevation":[]},{"distance":224.285,"relativeDirection":"LEFT","streetName":"Rue Dupré","absoluteDirection":"WEST","stayOn":false,"area":false,"bogusName":false,"lon":-71.06211280000001,"lat":48.45137080000001,"elevation":[]},{"distance":69.033,"relativeDirection":"RIGHT","streetName":"Rue de Boischatel","absoluteDirection":"NORTHEAST","stayOn":false,"area":false,"bogusName":false,"lon":-71.064958,"lat":48.452082100000005,"elevation":[]},{"distance":150.447,"relativeDirection":"RIGHT","streetName":"Rue La Chesnaye","absoluteDirection":"EAST","stayOn":false,"area":false,"bogusName":false,"lon":-71.06460460000001,"lat":48.4526522,"elevation":[]}]}],"tooSloped":false}]},"debugOutput":{"precalculationTime":32,"pathCalculationTime":78,"pathTimes":[30,25,23],"renderingTime":1,"totalTime":111,"timedOut":false},"elevationMetadata":{"ellipsoidToGeoidDifference":-28.885904201182168,"geoidElevation":false}}