{"requestParameters":{"date":"2018/04/02","walkSpeed":"1.33","walkReluctance":"2.0","fromPlace":"48.45283,-71.062813","maxWalkDistance":"3000","waitReluctance":"1.0","carSpeed":"33","numItineraries":"3","waitAtBeginningFactor":"0.4","mode":"TRANSIT,WALK","ignoreRealtimeUpdates":"false","stairsReluctance":"2.0","toPlace":"48.454216,-71.06113899","time":"6:30:00"},"plan":{"date":1522665000000,"from":{"name":"Origin","lon":-71.062813,"lat":48.45283,"orig":"","vertexType":"NORMAL"},"to":{"name":"Destination","lon":-71.06113899,"lat":48.454216,"orig":"","vertexType":"NORMAL"},"itineraries":[{"duration":602,"startTime":1522665000000,"endTime":1522665602000,"walkTime":602,"transitTime":0,"waitingTime":0,"walkDistance":770.9453458601976,"walkLimitExceeded":false,"elevationLost":0.0,"elevationGained":0.0,"transfers":0,"legs":[{"startTime":1522665000000,"endTime":1522665602000,"departureDelay":0,"arrivalDelay":0,"realTime":false,"distance":770.807,"pathway":false,"mode":"WALK","route":"","agencyTimeZoneOffset":-14400000,"interlineWithPreviousLeg":false,"from":{"name":"Origin","lon":-71.062813,"lat":48.45283,"departure":1522665000000,"orig":"","vertexType":"NORMAL"},"to":{"name":"Destination","lon":-71.06113899,"lat":48.454216,"arrival":1522665602000,"orig":"","vertexType":"NORMAL"},"legGeometry":{"points":"imvfH~nvpLLBLBRFJDLPBFD`@AH?Hi@rEx@XNHNHVV\\gBVaBvAmJiAe@_JkDECcAa@YrA","length":23},"rentedBike":false,"transitLeg":false,"duration":602.0,"steps":[{"distance":150.447,"relativeDirection":"DEPART","streetName":"Rue La Chesnaye","absoluteDirection":"SOUTH","stayOn":false,"area":false,"bogusName":false,"lon":-71.0630307184102,"lat":48.45285766704158,"elevation":[]},{"distance":69.033,"relativeDirection":"LEFT","streetName":"Rue de Boischatel","absoluteDirection":"SOUTH","stayOn":false,"area":false,"bogusName":false,"lon":-71.06460460000001,"lat":48.4526522,"elevation":[]},{"distance":224.285,"relativeDirection":"LEFT","streetName":"Rue Dupré","absoluteDirection":"SOUTHEAST","stayOn":false,"area":false,"bogusName":false,"lon":-71.064958,"lat":48.452082100000005,"elevation":[]},{"distance":293.048,"relativeDirection":"LEFT","streetName":"Rue Delisle","absoluteDirection":"NORTH","stayOn":false,"area":false,"bogusName":false,"lon":-71.06211280000001,"lat":48.45137080000001,"elevation":[]},{"distance":33.994,"relativeDirection":"LEFT","streetName":"Rue de Vimy","absoluteDirection":"NORTHWEST","stayOn":false,"area":false,"bogusName":false,"lon":-71.0608763,"lat":48.4538754,"elevation":[]}]}],"tooSloped":false},{"duration":467,"startTime":1522665975000,"endTime":1522666442000,"walkTime":426,"transitTime":39,"waitingTime":2,"walkDistance":536.9635939805227,"walkLimitExceeded":false,"elevationLost":0.0,"elevationGained":0.0,"transfers":0,"legs":[{"startTime":1522665975000,"endTime":1522666340000,"departureDelay":0,"arrivalDelay":0,"realTime":false,"distance":462.573,"pathway":false,"mode":"WALK","route":"","agencyTimeZoneOffset":-14400000,"interlineWithPreviousLeg":false,"from":{"name":"Origin","lon":-71.062813,"lat":48.45283,"departure":1522665975000,"orig":"","vertexType":"NORMAL"},"to":{"name":"Delisle / Dupré","stopId":"1:744","stopCode":"744","lon":-71.062144,"lat":48.451199,"arrival":1522666340000,"departure":1522666341000,"zoneId":"NA","stopIndex":8,"stopSequence":9,"vertexType":"TRANSIT"},"legGeometry":{"points":"imvfH~nvpLLBLBRFJDLPBFD`@AH?Hi@rEx@XNHNHVV\\gBVaBvAmJVJFB","length":20},"rentedBike":false,"transitLeg":false,"duration":365.0,"steps":[{"distance":150.447,"relativeDirection":"DEPART","streetName":"Rue La Chesnaye","absoluteDirection":"SOUTH","stayOn":false,"area":false,"bogusName":false,"lon":-71.0630307184102,"lat":48.45285766704158,"elevation":[]},{"distance":69.033,"relativeDirection":"LEFT","streetName":"Rue de Boischatel","absoluteDirection":"SOUTH","stayOn":false,"area":false,"bogusName":false,"lon":-71.06460460000001,"lat":48.4526522,"elevation":[]},{"distance":224.285,"relativeDirection":"LEFT","streetName":"Rue Dupré","absoluteDirection":"SOUTHEAST","stayOn":false,"area":false,"bogusName":false,"lon":-71.064958,"lat":48.452082100000005,"elevation":[]},{"distance":18.808,"relativeDirection":"RIGHT","streetName":"Rue Delisle","absoluteDirection":"SOUTH","stayOn":false,"area":false,"bogusName":false,"lon":-71.06211280000001,"lat":48.45137080000001,"elevation":[]}]},{"startTime":1522666341000,"endTime":1522666380000,"departureDelay":0,"arrivalDelay":0,"realTime":false,"distance":271.6882909146791,"pathway":false,"mode":"BUS","route":"22","agencyName":"Société de Transport du Saguenay","agencyUrl":"http://ville.saguenay.ca/fr/services-aux-citoyens/transport-sts","agencyTimeZoneOffset":-14400000,"routeColor":"C0C000","routeType":3,"routeId":"1:22","routeTextColor":"000000","interlineWithPreviousLeg":false,"tripBlockId":"1","headsign":"Terminus Chicoutimi","agencyId":"0","tripId":"1:217130","serviceDate":"20180402","from":{"name":"Delisle / Dupré","stopId":"1:744","stopCode":"744","lon":-71.062144,"lat":48.451199,"arrival":1522666340000,"departure":1522666341000,"zoneId":"NA","stopIndex":8,"stopSequence":9,"vertexType":"TRANSIT"},"to":{"name":"Delisle / Vimy","stopId":"1:2016","stopCode":"2016","lon":-71.060948,"lat":48.45351,"arrival":1522666380000,"departure":1522666381000,"zoneId":"NA","stopIndex":9,"stopSequence":10,"vertexType":"TRANSIT"},"legGeometry":{"points":"ccvfH`jvpL_@QmLyE","length":3},"routeShortName":"22","routeLongName":"Vanier","rentedBike":false,"transitLeg":true,"duration":39.0,"steps":[]},{"startTime":1522666381000,"endTime":1522666442000,"departureDelay":0,"arrivalDelay":0,"realTime":false,"distance":74.253,"pathway":false,"mode":"WALK","route":"","agencyTimeZoneOffset":-14400000,"interlineWithPreviousLeg":false,"from":{"name":"Delisle / Vimy","stopId":"1:2016","stopCode":"2016","lon":-71.060948,"lat":48.45351,"arrival":1522666380000,"departure":1522666381000,"zoneId":"NA","stopIndex":9,"stopSequence":10,"vertexType":"TRANSIT"},"to":{"name":"Destination","lon":-71.06113899,"lat":48.454216,"arrival":1522666442000,"orig":"","vertexType":"NORMAL"},"legGeometry":{"points":"qqvfHpbvpLcAa@YrA","length":3},"rentedBike":false,"transitLeg":false,"duration":61.0,"steps":[{"distance":40.259,"relativeDirection":"DEPART","streetName":"Rue Delisle","absoluteDirection":"NORTH","stayOn":false,"area":false,"bogusName":false,"lon":-71.061046170069,"lat":48.4535313186617,"elevation":[]},{"distance":33.994,"relativeDirection":"LEFT","streetName":"Rue de Vimy","absoluteDirection":"NORTHWEST","stayOn":false,"area":false,"bogusName":false,"lon":-71.0608763,"lat":48.4538754,"elevation":[]}]}],"tooSloped":false}]},"debugOutput":{"precalculationTime":11,"pathCalculationTime":14,"pathTimes":[2,5,7],"renderingTime":1,"totalTime":26,"timedOut":false},"elevationMetadata":{"ellipsoidToGeoidDifference":-28.885904201182168,"geoidElevation":false}}