{"requestParameters":{"date":"2018/04/02","walkSpeed":"1.33","walkReluctance":"2.0","fromPlace":"48.444505,-71.102924","maxWalkDistance":"3000","waitReluctance":"1.0","carSpeed":"33","numItineraries":"3","waitAtBeginningFactor":"0.4","mode":"TRANSIT,WALK","ignoreRealtimeUpdates":"false","stairsReluctance":"2.0","toPlace":"48.427869,-71.05567499","time":"7:30:00"},"plan":{"date":1522668600000,"from":{"name":"Origin","lon":-71.102924,"lat":48.444505,"orig":"","vertexType":"NORMAL"},"to":{"name":"Destination","lon":-71.05567499,"lat":48.427869,"orig":"","vertexType":"NORMAL"},"itineraries":[{"duration":1657,"startTime":1522669835000,"endTime":1522671492000,"walkTime":558,"transitTime":797,"waitingTime":302,"walkDistance":713.6319699203601,"walkLimitExceeded":false,"elevationLost":0.0,"elevationGained":0.0,"transfers":1,"legs":[{"startTime":1522669835000,"endTime":1522670297000,"departureDelay":0,"arrivalDelay":0,"realTime":false,"distance":588.2889999999999,"pathway":false,"mode":"WALK","route":"","agencyTimeZoneOffset":-14400000,"interlineWithPreviousLeg":false,"from":{"name":"Origin","lon":-71.102924,"lat":48.444505,"departure":1522669835000,"orig":"","vertexType":"NORMAL"},"to":{"name":"Chapleau / Ste-Catherine","stopId":"1:691","stopCode":"691","lon":-71.103068,"lat":48.447954,"arrival":1522670297000,"departure":1522670298000,"zoneId":"NA","stopIndex":15,"stopSequence":16,"vertexType":"TRANSIT"},"legGeometry":{"points":"{wtfHbg~pLDHDDF@HAZr@Lb@J\\D`@C\\IZUZOHmBZIa@EKCGGSKOKKWGa@A_AC{FQEAy@Ae@AQCICKEKI_A_AEJ","length":33},"rentedBike":false,"transitLeg":false,"duration":462.0,"steps":[{"distance":196.625,"relativeDirection":"DEPART","streetName":"Rue des Ardennes","absoluteDirection":"SOUTHWEST","stayOn":false,"area":false,"bogusName":false,"lon":-71.10274,"lat":48.444309,"elevation":[]},{"distance":386.1859999999999,"relativeDirection":"RIGHT","streetName":"Rue Sainte-Catherine","absoluteDirection":"NORTHEAST","stayOn":false,"area":false,"bogusName":false,"lon":-71.10419180000001,"lat":48.4446686,"elevation":[]},{"distance":5.478,"relativeDirection":"LEFT","streetName":"Rue Chapleau","absoluteDirection":"NORTHWEST","stayOn":false,"area":false,"bogusName":false,"lon":-71.1030571,"lat":48.447883000000004,"elevation":[]}]},{"startTime":1522670298000,"endTime":1522671000000,"departureDelay":0,"arrivalDelay":0,"realTime":false,"distance":4911.61122931723,"pathway":false,"mode":"BUS","route":"20","agencyName":"Société de Transport du Saguenay","agencyUrl":"http://ville.saguenay.ca/fr/services-aux-citoyens/transport-sts","agencyTimeZoneOffset":-14400000,"routeColor":"0000FF","routeType":3,"routeId":"1:20","routeTextColor":"FFFFFF","interlineWithPreviousLeg":false,"tripBlockId":"3","headsign":"Terminus Chicoutimi","agencyId":"0","tripId":"1:217189","serviceDate":"20180402","from":{"name":"Chapleau / Ste-Catherine","stopId":"1:691","stopCode":"691","lon":-71.103068,"lat":48.447954,"arrival":1522670297000,"departure":1522670298000,"zoneId":"NA","stopIndex":15,"stopSequence":16,"vertexType":"TRANSIT"},"to":{"name":"Terminus Chicoutimi","stopId":"1:1289","stopCode":"1289","lon":-71.066163,"lat":48.428677,"arrival":1522671000000,"departure":1522671300000,"zoneId":"NA","stopIndex":31,"stopSequence":32,"vertexType":"TRANSIT"},"legGeometry":{"points":"mnufHpi~pLQ\\a@d@w@aCCQAO@ODOHQDSDWLoDRgGBMFMHIHAfBNDuA@wA?WGk@Ga@KY_A_CRc@PYNYUk@Q[O]KYC]_AaQYwF?W?Y?UBc@D_@d@{DNaAB]@O@]?}BbA?hA?A}I?iEEcEjBCzBEd@Cf@Gj@MZMb@S`Ag@DClAk@f@Qv@Ov@IlBCnBa@TCTBjBPH@LiCDe@Lw@|@cELo@D[Dk@@[@uC@SBUDQFSt@yAHIr@eAjAaB`AqA^i@p@kAVc@\\cAr@eBv@aB|B_CJSDKLe@NeAJaAHeBBi@F{AaFe@c@IcDeAWtBOfAERGLIHIFMBa@NOQSOUGOCW?UFMHa@XUHQ?QIQOIM[g@rCmFhHqN~@eBr@cAt@_Av@}@RQPMz@k@tAe@REZG^Af@@X@VF`@Jn@XbClAr@Xt\\`PrAb@pA^hBTjAFj@Pb@JPHLLJNJRFXDT?X?ZEVEVKTMNMHMFOB}DWSGOSYcAN}FFkAF}DJyDPwGj@_QjAN~ALIpBGVITe@@","length":186},"routeShortName":"20","routeLongName":"Sainte-Claire","rentedBike":false,"transitLeg":true,"duration":702.0,"steps":[]},{"startTime":1522671300000,"endTime":1522671395000,"departureDelay":0,"arrivalDelay":0,"realTime":false,"distance":669.0312154213282,"pathway":false,"mode":"BUS","route":"12","agencyName":"Société de Transport du Saguenay","agencyUrl":"http://ville.saguenay.ca/fr/services-aux-citoyens/transport-sts","agencyTimeZoneOffset":-14400000,"routeColor":"556B2F","routeType":3,"routeId":"1:12","routeTextColor":"FFFFFF","interlineWithPreviousLeg":false,"tripBlockId":"28","headsign":"Terminus UQAC","agencyId":"0","tripId":"1:218029","serviceDate":"20180402","from":{"name":"Terminus Chicoutimi","stopId":"1:1289","stopCode":"1289","lon":-71.066163,"lat":48.428677,"arrival":1522671000000,"departure":1522671300000,"zoneId":"NA","stopIndex":0,"stopSequence":1,"vertexType":"TRANSIT"},"to":{"name":"Racine / Labrecque","stopId":"1:515","stopCode":"515","lon":-71.057333,"lat":48.427512,"arrival":1522671395000,"departure":1522671396000,"zoneId":"NA","stopIndex":2,"stopSequence":3,"vertexType":"TRANSIT"},"legGeometry":{"points":"evqfHpbwpLpFcj@IaK","length":3},"routeShortName":"12","routeLongName":"Rivière du Moulin","rentedBike":false,"transitLeg":true,"duration":95.0,"steps":[]},{"startTime":1522671396000,"endTime":1522671492000,"departureDelay":0,"arrivalDelay":0,"realTime":false,"distance":125.20500000000001,"pathway":false,"mode":"WALK","route":"","agencyTimeZoneOffset":-14400000,"interlineWithPreviousLeg":false,"from":{"name":"Racine / Labrecque","stopId":"1:515","stopCode":"515","lon":-71.057333,"lat":48.427512,"arrival":1522671395000,"departure":1522671396000,"zoneId":"NA","stopIndex":2,"stopSequence":3,"vertexType":"TRANSIT"},"to":{"name":"Destination","lon":-71.05567499,"lat":48.427869,"arrival":1522671492000,"orig":"","vertexType":"NORMAL"},"legGeometry":{"points":"soqfHrkupLGk@uAeG","length":3},"rentedBike":false,"transitLeg":false,"duration":96.0,"steps":[{"distance":125.20500000000001,"relativeDirection":"DEPART","streetName":"Rue Racine Est","absoluteDirection":"EAST","stayOn":false,"area":false,"bogusName":false,"lon":-71.05737919931526,"lat":48.42762116546726,"elevation":[]}]}],"tooSloped":false},{"duration":2266,"startTime":1522669364000,"endTime":1522671630000,"walkTime":1697,"transitTime":567,"waitingTime":2,"walkDistance":2189.8900826976324,"walkLimitExceeded":false,"elevationLost":0.0,"elevationGained":0.0,"transfers":0,"legs":[{"startTime":1522669364000,"endTime":1522670432000,"departureDelay":0,"arrivalDelay":0,"realTime":false,"distance":1376.0159999999998,"pathway":false,"mode":"WALK","route":"","agencyTimeZoneOffset":-14400000,"interlineWithPreviousLeg":false,"from":{"name":"Origin","lon":-71.102924,"lat":48.444505,"departure":1522669364000,"orig":"","vertexType":"NORMAL"},"to":{"name":"boul. Ste-Geneviève (no. 1425)","stopId":"1:97","stopCode":"97","lon":-71.100593,"lat":48.45294,"arrival":1522670432000,"departure":1522670433000,"zoneId":"NA","stopIndex":25,"stopSequence":26,"vertexType":"TRANSIT"},"legGeometry":{"points":"{wtfHbg~pLDHDDF@HAZr@Lb@J\\D`@C\\IZUZOHmBZIa@EKCGGSKOKKWGa@A_AC{FQEAy@Ae@AQCICKEKI_A_AEJ?@MTQTMREFGBEDKDQLWN]N{ApAo@n@SEQuAa@]}Ao@c@b@yBSgCe@oCeAPuBCoD@u@c@WaB}B","length":59},"rentedBike":false,"transitLeg":false,"duration":1068.0,"steps":[{"distance":196.625,"relativeDirection":"DEPART","streetName":"Rue des Ardennes","absoluteDirection":"SOUTHWEST","stayOn":false,"area":false,"bogusName":false,"lon":-71.10274,"lat":48.444309,"elevation":[]},{"distance":386.1859999999999,"relativeDirection":"RIGHT","streetName":"Rue Sainte-Catherine","absoluteDirection":"NORTHEAST","stayOn":false,"area":false,"bogusName":false,"lon":-71.10419180000001,"lat":48.4446686,"elevation":[]},{"distance":195.954,"relativeDirection":"LEFT","streetName":"Rue Chapleau","absoluteDirection":"NORTHWEST","stayOn":false,"area":false,"bogusName":false,"lon":-71.1030571,"lat":48.447883000000004,"elevation":[]},{"distance":597.251,"relativeDirection":"RIGHT","streetName":"path","absoluteDirection":"NORTH","stayOn":false,"area":false,"bogusName":true,"lon":-71.10444170000001,"lat":48.449363700000006,"elevation":[]}]},{"startTime":1522670433000,"endTime":1522671000000,"departureDelay":0,"arrivalDelay":0,"realTime":false,"distance":4047.7871857794808,"pathway":false,"mode":"BUS","route":"21","agencyName":"Société de Transport du Saguenay","agencyUrl":"http://ville.saguenay.ca/fr/services-aux-citoyens/transport-sts","agencyTimeZoneOffset":-14400000,"routeColor":"556B2F","routeType":3,"routeId":"1:21","routeTextColor":"FFFFFF","interlineWithPreviousLeg":false,"tripBlockId":"2","headsign":"Terminus Chicoutimi","agencyId":"0","tripId":"1:217158","serviceDate":"20180402","from":{"name":"boul. Ste-Geneviève (no. 1425)","stopId":"1:97","stopCode":"97","lon":-71.100593,"lat":48.45294,"arrival":1522670432000,"departure":1522670433000,"zoneId":"NA","stopIndex":25,"stopSequence":26,"vertexType":"TRANSIT"},"to":{"name":"Terminus Chicoutimi","stopId":"1:1289","stopCode":"1289","lon":-71.066163,"lat":48.428677,"arrival":1522671000000,"departure":1522671001000,"zoneId":"NA","stopIndex":34,"stopSequence":35,"vertexType":"TRANSIT"},"legGeometry":{"points":"onvfHny}pL~@sJjAyLJqAZyCP_BZuCDi@b@iExAsO@E^qBt@}CJGnAmDx@iBpAcCb@o@Zi@h@o@`AiArFkG`FgGdBwBt@cAbAmBx@eBj@eB`CoHpCyJbAmCtAuCZg@|@gBxAsCrCmFhHqN~@eBr@cAt@_Av@}@RQPMz@k@tAe@REZG^Af@@X@VF`@Jn@XbClAr@Xt\\`PrAb@pA^hBTjAFj@Pb@JPHLLJNJRFXDT?X?ZEVEVKTMNMHMFOB}DWSGOSYcAN}FFkAF}DJyDPwGvAHVyL","length":88},"routeShortName":"21","routeLongName":"Boul. Ste-Geneviève/Élie","rentedBike":false,"transitLeg":true,"duration":567.0,"steps":[]},{"startTime":1522671001000,"endTime":1522671630000,"departureDelay":0,"arrivalDelay":0,"realTime":false,"distance":813.5910000000001,"pathway":false,"mode":"WALK","route":"","agencyTimeZoneOffset":-14400000,"interlineWithPreviousLeg":false,"from":{"name":"Terminus Chicoutimi","stopId":"1:1289","stopCode":"1289","lon":-71.066163,"lat":48.428677,"arrival":1522671000000,"departure":1522671001000,"zoneId":"NA","stopIndex":34,"stopSequence":35,"vertexType":"TRANSIT"},"to":{"name":"Destination","lon":-71.05567499,"lat":48.427869,"arrival":1522671630000,"orig":"","vertexType":"NORMAL"},"legGeometry":{"points":"{uqfHb~vpLbAJR@JDb@LR{H@k@@YFqB@i@HyEBw@?S@m@JqFDuAB_A@_ABsB?K?mBMiAGk@uAeG","length":24},"rentedBike":false,"transitLeg":false,"duration":629.0,"steps":[{"distance":77.207,"relativeDirection":"DEPART","streetName":"Rue Morin","absoluteDirection":"SOUTH","stayOn":false,"area":false,"bogusName":false,"lon":-71.0654590096484,"lat":48.428628638946556,"elevation":[]},{"distance":736.3840000000001,"relativeDirection":"LEFT","streetName":"Rue Racine Est","absoluteDirection":"EAST","stayOn":false,"area":false,"bogusName":false,"lon":-71.0656238,"lat":48.4279449,"elevation":[]}]}],"tooSloped":false},{"duration":1657,"startTime":1522671635000,"endTime":1522673292000,"walkTime":558,"transitTime":797,"waitingTime":302,"walkDistance":713.6319699203601,"walkLimitExceeded":false,"elevationLost":0.0,"elevationGained":0.0,"transfers":1,"legs":[{"startTime":1522671635000,"endTime":1522672097000,"departureDelay":0,"arrivalDelay":0,"realTime":false,"distance":588.2889999999999,"pathway":false,"mode":"WALK","route":"","agencyTimeZoneOffset":-14400000,"interlineWithPreviousLeg":false,"from":{"name":"Origin","lon":-71.102924,"lat":48.444505,"departure":1522671635000,"orig":"","vertexType":"NORMAL"},"to":{"name":"Chapleau / Ste-Catherine","stopId":"1:691","stopCode":"691","lon":-71.103068,"lat":48.447954,"arrival":1522672097000,"departure":1522672098000,"zoneId":"NA","stopIndex":15,"stopSequence":16,"vertexType":"TRANSIT"},"legGeometry":{"points":"{wtfHbg~pLDHDDF@HAZr@Lb@J\\D`@C\\IZUZOHmBZIa@EKCGGSKOKKWGa@A_AC{FQEAy@Ae@AQCICKEKI_A_AEJ","length":33},"rentedBike":false,"transitLeg":false,"duration":462.0,"steps":[{"distance":196.625,"relativeDirection":"DEPART","streetName":"Rue des Ardennes","absoluteDirection":"SOUTHWEST","stayOn":false,"area":false,"bogusName":false,"lon":-71.10274,"lat":48.444309,"elevation":[]},{"distance":386.1859999999999,"relativeDirection":"RIGHT","streetName":"Rue Sainte-Catherine","absoluteDirection":"NORTHEAST","stayOn":false,"area":false,"bogusName":false,"lon":-71.10419180000001,"lat":48.4446686,"elevation":[]},{"distance":5.478,"relativeDirection":"LEFT","streetName":"Rue Chapleau","absoluteDirection":"NORTHWEST","stayOn":false,"area":false,"bogusName":false,"lon":-71.1030571,"lat":48.447883000000004,"elevation":[]}]},{"startTime":1522672098000,"endTime":1522672800000,"departureDelay":0,"arrivalDelay":0,"realTime":false,"distance":4911.61122931723,"pathway":false,"mode":"BUS","route":"20","agencyName":"Société de Transport du Saguenay","agencyUrl":"http://ville.saguenay.ca/fr/services-aux-citoyens/transport-sts","agencyTimeZoneOffset":-14400000,"routeColor":"0000FF","routeType":3,"routeId":"1:20","routeTextColor":"FFFFFF","interlineWithPreviousLeg":false,"tripBlockId":"1","headsign":"Terminus Chicoutimi","agencyId":"0","tripId":"1:217133","serviceDate":"20180402","from":{"name":"Chapleau / Ste-Catherine","stopId":"1:691","stopCode":"691","lon":-71.103068,"lat":48.447954,"arrival":1522672097000,"departure":1522672098000,"zoneId":"NA","stopIndex":15,"stopSequence":16,"vertexType":"TRANSIT"},"to":{"name":"Terminus Chicoutimi","stopId":"1:1289","stopCode":"1289","lon":-71.066163,"lat":48.428677,"arrival":1522672800000,"departure":1522673100000,"zoneId":"NA","stopIndex":31,"stopSequence":32,"vertexType":"TRANSIT"},"legGeometry":{"points":"mnufHpi~pLQ\\a@d@w@aCCQAO@ODOHQDSDWLoDRgGBMFMHIHAfBNDuA@wA?WGk@Ga@KY_A_CRc@PYNYUk@Q[O]KYC]_AaQYwF?W?Y?UBc@D_@d@{DNaAB]@O@]?}BbA?hA?A}I?iEEcEjBCzBEd@Cf@Gj@MZMb@S`Ag@DClAk@f@Qv@Ov@IlBCnBa@TCTBjBPH@LiCDe@Lw@|@cELo@D[Dk@@[@uC@SBUDQFSt@yAHIr@eAjAaB`AqA^i@p@kAVc@\\cAr@eBv@aB|B_CJSDKLe@NeAJaAHeBBi@F{AaFe@c@IcDeAWtBOfAERGLIHIFMBa@NOQSOUGOCW?UFMHa@XUHQ?QIQOIM[g@rCmFhHqN~@eBr@cAt@_Av@}@RQPMz@k@tAe@REZG^Af@@X@VF`@Jn@XbClAr@Xt\\`PrAb@pA^hBTjAFj@Pb@JPHLLJNJRFXDT?X?ZEVEVKTMNMHMFOB}DWSGOSYcAN}FFkAF}DJyDPwGj@_QjAN~ALIpBGVITe@@","length":186},"routeShortName":"20","routeLongName":"Sainte-Claire","rentedBike":false,"transitLeg":true,"duration":702.0,"steps":[]},{"startTime":1522673100000,"endTime":1522673195000,"departureDelay":0,"arrivalDelay":0,"realTime":false,"distance":669.0312154213282,"pathway":false,"mode":"BUS","route":"12","agencyName":"Société de Transport du Saguenay","agencyUrl":"http://ville.saguenay.ca/fr/services-aux-citoyens/transport-sts","agencyTimeZoneOffset":-14400000,"routeColor":"556B2F","routeType":3,"routeId":"1:12","routeTextColor":"FFFFFF","interlineWithPreviousLeg":false,"tripBlockId":"27","headsign":"Terminus UQAC","agencyId":"0","tripId":"1:218004","serviceDate":"20180402","from":{"name":"Terminus Chicoutimi","stopId":"1:1289","stopCode":"1289","lon":-71.066163,"lat":48.428677,"arrival":1522672800000,"departure":1522673100000,"zoneId":"NA","stopIndex":0,"stopSequence":1,"vertexType":"TRANSIT"},"to":{"name":"Racine / Labrecque","stopId":"1:515","stopCode":"515","lon":-71.057333,"lat":48.427512,"arrival":1522673195000,"departure":1522673196000,"zoneId":"NA","stopIndex":2,"stopSequence":3,"vertexType":"TRANSIT"},"legGeometry":{"points":"evqfHpbwpLpFcj@IaK","length":3},"routeShortName":"12","routeLongName":"Rivière du Moulin","rentedBike":false,"transitLeg":true,"duration":95.0,"steps":[]},{"startTime":1522673196000,"endTime":1522673292000,"departureDelay":0,"arrivalDelay":0,"realTime":false,"distance":125.20500000000001,"pathway":false,"mode":"WALK","route":"","agencyTimeZoneOffset":-14400000,"interlineWithPreviousLeg":false,"from":{"name":"Racine / Labrecque","stopId":"1:515","stopCode":"515","lon":-71.057333,"lat":48.427512,"arrival":1522673195000,"departure":1522673196000,"zoneId":"NA","stopIndex":2,"stopSequence":3,"vertexType":"TRANSIT"},"to":{"name":"Destination","lon":-71.05567499,"lat":48.427869,"arrival":1522673292000,"orig":"","vertexType":"NORMAL"},"legGeometry":{"points":"soqfHrkupLGk@uAeG","length":3},"rentedBike":false,"transitLeg":false,"duration":96.0,"steps":[{"distance":125.20500000000001,"relativeDirection":"DEPART","streetName":"Rue Racine Est","absoluteDirection":"EAST","stayOn":false,"area":false,"bogusName":false,"lon":-71.05737919931526,"lat":48.42762116546726,"elevation":[]}]}],"tooSloped":false}]},"debugOutput":{"precalculationTime":21,"pathCalculationTime":16,"pathTimes":[10,3,3],"renderingTime":0,"totalTime":37,"timedOut":false},"elevationMetadata":{"ellipsoidToGeoidDifference":-28.885904201182168,"geoidElevation":false}}