{"requestParameters":{"date":"2018/04/02","walkSpeed":"1.33","walkReluctance":"2.0","fromPlace":"48.443409,-71.078607","maxWalkDistance":"3000","waitReluctance":"1.0","carSpeed":"33","numItineraries":"3","waitAtBeginningFactor":"0.4","mode":"TRANSIT,WALK","ignoreRealtimeUpdates":"false","stairsReluctance":"2.0","toPlace":"48.443844,-71.09478","time":"14:40:00"},"plan":{"date":1522694400000,"from":{"name":"Origin","lon":-71.078607,"lat":48.443409,"orig":"","vertexType":"NORMAL"},"to":{"name":"Destination","lon":-71.09478,"lat":48.443844,"orig":"","vertexType":"NORMAL"},"itineraries":[{"duration":1124,"startTime":1522694400000,"endTime":1522695524000,"walkTime":1124,"transitTime":0,"waitingTime":0,"walkDistance":1443.5771729252588,"walkLimitExceeded":false,"elevationLost":0.0,"elevationGained":0.0,"transfers":0,"legs":[{"startTime":1522694400000,"endTime":1522695524000,"departureDelay":0,"arrivalDelay":0,"realTime":false,"distance":1443.3580000000004,"pathway":false,"mode":"WALK","route":"","agencyTimeZoneOffset":-14400000,"interlineWithPreviousLeg":false,"from":{"name":"Origin","lon":-71.078607,"lat":48.443409,"departure":1522694400000,"orig":"","vertexType":"NORMAL"},"to":{"name":"Destination","lon":-71.09478,"lat":48.443844,"arrival":1522695524000,"orig":"","vertexType":"NORMAL"},"legGeometry":{"points":"iutfHvmypL_AhDsAvEa@fAi@~AdE|DkAnDqDjJ?X@zAOHDxFBpD@Hd@t@@?RZPr@?H@R?fD@d@{@nH?@CJK\\`BrCrAlDb@lAFNBH@D@Db@bEB^?`@An@","length":37},"alerts":[{"alertHeaderText":"Unpaved surface"}],"rentedBike":false,"transitLeg":false,"duration":1124.0,"steps":[{"distance":239.08500000000004,"relativeDirection":"DEPART","streetName":"Boulevard Sainte-Geneviève","absoluteDirection":"NORTHWEST","stayOn":false,"area":false,"bogusName":false,"lon":-71.078197058461,"lat":48.443899834468006,"elevation":[]},{"distance":131.132,"relativeDirection":"LEFT","streetName":"Rue David","absoluteDirection":"SOUTHWEST","stayOn":false,"area":false,"bogusName":false,"lon":-71.08096180000001,"lat":48.445019,"elevation":[]},{"distance":287.597,"relativeDirection":"RIGHT","streetName":"Rue Sauvé","absoluteDirection":"NORTHWEST","stayOn":false,"area":false,"bogusName":false,"lon":-71.081913,"lat":48.444022700000005,"elevation":[]},{"distance":9.852,"relativeDirection":"RIGHT","streetName":"Rue Sainte-Marie Sud","absoluteDirection":"NORTHWEST","stayOn":false,"area":false,"bogusName":false,"lon":-71.08520060000001,"lat":48.445280000000004,"elevation":[],"alerts":[{"alertHeaderText":"Unpaved surface"}]},{"distance":161.772,"relativeDirection":"LEFT","streetName":"Rue Saint-Armand","absoluteDirection":"WEST","stayOn":false,"area":false,"bogusName":false,"lon":-71.0852564,"lat":48.4453605,"elevation":[]},{"distance":70.658,"relativeDirection":"LEFT","streetName":"Rue Saint-Denis","absoluteDirection":"SOUTHWEST","stayOn":false,"area":false,"bogusName":false,"lon":-71.0874465,"lat":48.445303900000006,"elevation":[]},{"distance":217.99699999999999,"relativeDirection":"SLIGHTLY_RIGHT","streetName":"Rue Saint-Armand","absoluteDirection":"WEST","stayOn":false,"area":false,"bogusName":false,"lon":-71.08816850000001,"lat":48.4449102,"elevation":[]},{"distance":325.265,"relativeDirection":"LEFT","streetName":"Rue Solange","absoluteDirection":"SOUTHWEST","stayOn":false,"area":false,"bogusName":false,"lon":-71.0910302,"lat":48.4452702,"elevation":[]}]}],"tooSloped":false},{"duration":593,"startTime":1522694979000,"endTime":1522695572000,"walkTime":446,"transitTime":145,"waitingTime":2,"walkDistance":568.374293229298,"walkLimitExceeded":false,"elevationLost":0.0,"elevationGained":0.0,"transfers":0,"legs":[{"startTime":1522694979000,"endTime":1522695164000,"departureDelay":0,"arrivalDelay":0,"realTime":false,"distance":230.928,"pathway":false,"mode":"WALK","route":"","agencyTimeZoneOffset":-14400000,"interlineWithPreviousLeg":false,"from":{"name":"Origin","lon":-71.078607,"lat":48.443409,"departure":1522694979000,"orig":"","vertexType":"NORMAL"},"to":{"name":"Sauvé / St-Albert","stopId":"1:681","stopCode":"681","lon":-71.079877,"lat":48.443248,"arrival":1522695164000,"departure":1522695165000,"zoneId":"NA","stopIndex":6,"stopSequence":7,"vertexType":"TRANSIT"},"legGeometry":{"points":"iutfHvmypL_AhDb@`@TJ\\LhCv@Wx@","length":7},"rentedBike":false,"transitLeg":false,"duration":185.0,"steps":[{"distance":71.899,"relativeDirection":"DEPART","streetName":"Boulevard Sainte-Geneviève","absoluteDirection":"NORTHWEST","stayOn":false,"area":false,"bogusName":false,"lon":-71.078197058461,"lat":48.443899834468006,"elevation":[]},{"distance":133.438,"relativeDirection":"LEFT","streetName":"Rue Saint-Albert","absoluteDirection":"SOUTHWEST","stayOn":false,"area":false,"bogusName":false,"lon":-71.0790497,"lat":48.4442132,"elevation":[]},{"distance":25.591,"relativeDirection":"RIGHT","streetName":"Rue Sauvé","absoluteDirection":"NORTHWEST","stayOn":false,"area":false,"bogusName":false,"lon":-71.07962210000001,"lat":48.4430824,"elevation":[]}]},{"startTime":1522695165000,"endTime":1522695310000,"departureDelay":0,"arrivalDelay":0,"realTime":false,"distance":847.2614348183577,"pathway":false,"mode":"BUS","route":"20","agencyName":"Société de Transport du Saguenay","agencyUrl":"http://ville.saguenay.ca/fr/services-aux-citoyens/transport-sts","agencyTimeZoneOffset":-14400000,"routeColor":"0000FF","routeType":3,"routeId":"1:20","routeTextColor":"FFFFFF","interlineWithPreviousLeg":false,"tripBlockId":"3","headsign":"Terminus Chicoutimi","agencyId":"0","tripId":"1:217203","serviceDate":"20180402","from":{"name":"Sauvé / St-Albert","stopId":"1:681","stopCode":"681","lon":-71.079877,"lat":48.443248,"arrival":1522695164000,"departure":1522695165000,"zoneId":"NA","stopIndex":6,"stopSequence":7,"vertexType":"TRANSIT"},"to":{"name":"St-Armand / Solange","stopId":"1:685","stopCode":"685","lon":-71.09082,"lat":48.445299,"arrival":1522695310000,"departure":1522695311000,"zoneId":"NA","stopIndex":9,"stopSequence":10,"vertexType":"TRANSIT"},"legGeometry":{"points":"_qtfHnxypLSx@{A`FyBfHmDjJCDEVE`B?vFBjC@ZFX\\j@T^JVBNBV@RCbE?VCVy@nG","length":22},"routeShortName":"20","routeLongName":"Sainte-Claire","rentedBike":false,"transitLeg":true,"duration":145.0,"steps":[]},{"startTime":1522695311000,"endTime":1522695572000,"departureDelay":0,"arrivalDelay":0,"realTime":false,"distance":337.329,"pathway":false,"mode":"WALK","route":"","agencyTimeZoneOffset":-14400000,"interlineWithPreviousLeg":false,"from":{"name":"St-Armand / Solange","stopId":"1:685","stopCode":"685","lon":-71.09082,"lat":48.445299,"arrival":1522695310000,"departure":1522695311000,"zoneId":"NA","stopIndex":9,"stopSequence":10,"vertexType":"TRANSIT"},"to":{"name":"Destination","lon":-71.09478,"lat":48.443844,"arrival":1522695572000,"orig":"","vertexType":"NORMAL"},"legGeometry":{"points":"q}tfH`}{pLK\\`BrCrAlDb@lAFNBH@D@Db@bEB^?`@An@","length":13},"rentedBike":false,"transitLeg":false,"duration":261.0,"steps":[{"distance":12.064,"relativeDirection":"DEPART","streetName":"Rue Saint-Armand","absoluteDirection":"NORTHWEST","stayOn":false,"area":false,"bogusName":false,"lon":-71.09088671811922,"lat":48.445218120417245,"elevation":[]},{"distance":325.265,"relativeDirection":"LEFT","streetName":"Rue Solange","absoluteDirection":"SOUTHWEST","stayOn":false,"area":false,"bogusName":false,"lon":-71.0910302,"lat":48.4452702,"elevation":[]}]}],"tooSloped":false},{"duration":593,"startTime":1522696779000,"endTime":1522697372000,"walkTime":446,"transitTime":145,"waitingTime":2,"walkDistance":568.374293229298,"walkLimitExceeded":false,"elevationLost":0.0,"elevationGained":0.0,"transfers":0,"legs":[{"startTime":1522696779000,"endTime":1522696964000,"departureDelay":0,"arrivalDelay":0,"realTime":false,"distance":230.928,"pathway":false,"mode":"WALK","route":"","agencyTimeZoneOffset":-14400000,"interlineWithPreviousLeg":false,"from":{"name":"Origin","lon":-71.078607,"lat":48.443409,"departure":1522696779000,"orig":"","vertexType":"NORMAL"},"to":{"name":"Sauvé / St-Albert","stopId":"1:681","stopCode":"681","lon":-71.079877,"lat":48.443248,"arrival":1522696964000,"departure":1522696965000,"zoneId":"NA","stopIndex":6,"stopSequence":7,"vertexType":"TRANSIT"},"legGeometry":{"points":"iutfHvmypL_AhDb@`@TJ\\LhCv@Wx@","length":7},"rentedBike":false,"transitLeg":false,"duration":185.0,"steps":[{"distance":71.899,"relativeDirection":"DEPART","streetName":"Boulevard Sainte-Geneviève","absoluteDirection":"NORTHWEST","stayOn":false,"area":false,"bogusName":false,"lon":-71.078197058461,"lat":48.443899834468006,"elevation":[]},{"distance":133.438,"relativeDirection":"LEFT","streetName":"Rue Saint-Albert","absoluteDirection":"SOUTHWEST","stayOn":false,"area":false,"bogusName":false,"lon":-71.0790497,"lat":48.4442132,"elevation":[]},{"distance":25.591,"relativeDirection":"RIGHT","streetName":"Rue Sauvé","absoluteDirection":"NORTHWEST","stayOn":false,"area":false,"bogusName":false,"lon":-71.07962210000001,"lat":48.4430824,"elevation":[]}]},{"startTime":1522696965000,"endTime":1522697110000,"departureDelay":0,"arrivalDelay":0,"realTime":false,"distance":847.2614348183577,"pathway":false,"mode":"BUS","route":"20","agencyName":"Société de Transport du Saguenay","agencyUrl":"http://ville.saguenay.ca/fr/services-aux-citoyens/transport-sts","agencyTimeZoneOffset":-14400000,"routeColor":"0000FF","routeType":3,"routeId":"1:20","routeTextColor":"FFFFFF","interlineWithPreviousLeg":false,"tripBlockId":"1","headsign":"Terminus Chicoutimi","agencyId":"0","tripId":"1:217147","serviceDate":"20180402","from":{"name":"Sauvé / St-Albert","stopId":"1:681","stopCode":"681","lon":-71.079877,"lat":48.443248,"arrival":1522696964000,"departure":1522696965000,"zoneId":"NA","stopIndex":6,"stopSequence":7,"vertexType":"TRANSIT"},"to":{"name":"St-Armand / Solange","stopId":"1:685","stopCode":"685","lon":-71.09082,"lat":48.445299,"arrival":1522697110000,"departure":1522697111000,"zoneId":"NA","stopIndex":9,"stopSequence":10,"vertexType":"TRANSIT"},"legGeometry":{"points":"_qtfHnxypLSx@{A`FyBfHmDjJCDEVE`B?vFBjC@ZFX\\j@T^JVBNBV@RCbE?VCVy@nG","length":22},"routeShortName":"20","routeLongName":"Sainte-Claire","rentedBike":false,"transitLeg":true,"duration":145.0,"steps":[]},{"startTime":1522697111000,"endTime":1522697372000,"departureDelay":0,"arrivalDelay":0,"realTime":false,"distance":337.329,"pathway":false,"mode":"WALK","route":"","agencyTimeZoneOffset":-14400000,"interlineWithPreviousLeg":false,"from":{"name":"St-Armand / Solange","stopId":"1:685","stopCode":"685","lon":-71.09082,"lat":48.445299,"arrival":1522697110000,"departure":1522697111000,"zoneId":"NA","stopIndex":9,"stopSequence":10,"vertexType":"TRANSIT"},"to":{"name":"Destination","lon":-71.09478,"lat":48.443844,"arrival":1522697372000,"orig":"","vertexType":"NORMAL"},"legGeometry":{"points":"q}tfH`}{pLK\\`BrCrAlDb@lAFNBH@D@Db@bEB^?`@An@","length":13},"rentedBike":false,"transitLeg":false,"duration":261.0,"steps":[{"distance":12.064,"relativeDirection":"DEPART","streetName":"Rue Saint-Armand","absoluteDirection":"NORTHWEST","stayOn":false,"area":false,"bogusName":false,"lon":-71.09088671811922,"lat":48.445218120417245,"elevation":[]},{"distance":325.265,"relativeDirection":"LEFT","streetName":"Rue Solange","absoluteDirection":"SOUTHWEST","stayOn":false,"area":false,"bogusName":false,"lon":-71.0910302,"lat":48.4452702,"elevation":[]}]}],"tooSloped":false}]},"debugOutput":{"precalculationTime":12,"pathCalculationTime":17,"pathTimes":[13,2,2],"renderingTime":1,"totalTime":30,"timedOut":false},"elevationMetadata":{"ellipsoidToGeoidDifference":-28.885904201182168,"geoidElevation":false}}