{"requestParameters":{"date":"2018/04/02","walkSpeed":"1.33","walkReluctance":"2.0","fromPlace":"48.416027,-71.08494398","maxWalkDistance":"3000","waitReluctance":"1.0","carSpeed":"33","numItineraries":"3","waitAtBeginningFactor":"0.4","mode":"TRANSIT,WALK","ignoreRealtimeUpdates":"false","stairsReluctance":"2.0","toPlace":"48.416167,-71.060316","time":"12:30:00"},"plan":{"date":1522686600000,"from":{"name":"Origin","lon":-71.08494398,"lat":48.416027,"orig":"","vertexType":"NORMAL"},"to":{"name":"Destination","lon":-71.060316,"lat":48.416167,"orig":"","vertexType":"NORMAL"},"itineraries":[{"duration":2439,"startTime":1522687489000,"endTime":1522689928000,"walkTime":2259,"transitTime":178,"waitingTime":2,"walkDistance":2925.9046917203946,"walkLimitExceeded":false,"elevationLost":0.0,"elevationGained":0.0,"transfers":0,"legs":[{"startTime":1522687489000,"endTime":1522688461000,"departureDelay":0,"arrivalDelay":0,"realTime":false,"distance":1277.866,"pathway":false,"mode":"WALK","route":"","agencyTimeZoneOffset":-14400000,"interlineWithPreviousLeg":false,"from":{"name":"Origin","lon":-71.08494398,"lat":48.416027,"departure":1522687489000,"orig":"","vertexType":"NORMAL"},"to":{"name":"boul. Saint-Paul (no. 1177)","stopId":"1:428","stopCode":"428","lon":-71.08801,"lat":48.411065,"arrival":1522688461000,"departure":1522688462000,"zoneId":"NA","stopIndex":17,"stopSequence":18,"vertexType":"TRANSIT"},"legGeometry":{"points":"wiofHzxzpLWNINOh@]r@a@l@Ml@_@][]SIQAKFEV?ZPlAVz@Vp@`Ah@t@d@pBbAl@`@f@JP?LNJRPRr@b@d@\\j@ZrAN^BVOj@q@RQ`AaAH?BBBJIHGf@ITKXMRQ\\Qf@GV?PDD\\Ih@]\\KZGNDHFHh@JPZVTVLVP@RLn@wCJ?PIXY|A{Dj@j@","length":67},"alerts":[{"alertHeaderText":"Unpaved surface"}],"rentedBike":false,"transitLeg":false,"duration":972.0,"steps":[{"distance":1127.061,"relativeDirection":"DEPART","streetName":"path","absoluteDirection":"NORTH","stayOn":false,"area":false,"bogusName":true,"lon":-71.0850992,"lat":48.4164455,"elevation":[],"alerts":[{"alertHeaderText":"Unpaved surface"}]},{"distance":121.414,"relativeDirection":"RIGHT","streetName":"Rue Martin-Bouvard","absoluteDirection":"SOUTH","stayOn":false,"area":false,"bogusName":false,"lon":-71.08914440000001,"lat":48.4121377,"elevation":[]},{"distance":29.391,"relativeDirection":"RIGHT","streetName":"Boulevard Saint-Paul","absoluteDirection":"SOUTHWEST","stayOn":false,"area":false,"bogusName":false,"lon":-71.088029,"lat":48.4113872,"elevation":[]}]},{"startTime":1522688462000,"endTime":1522688640000,"departureDelay":0,"arrivalDelay":0,"realTime":false,"distance":1518.3050007619236,"pathway":false,"mode":"BUS","route":"11","agencyName":"Société de Transport du Saguenay","agencyUrl":"http://ville.saguenay.ca/fr/services-aux-citoyens/transport-sts","agencyTimeZoneOffset":-14400000,"routeColor":"FF0000","routeType":3,"routeId":"1:11","routeTextColor":"FFFFFF","interlineWithPreviousLeg":false,"tripBlockId":"37","headsign":"Terminus Chicoutimi","agencyId":"0","tripId":"1:218315","serviceDate":"20180402","from":{"name":"boul. Saint-Paul (no. 1177)","stopId":"1:428","stopCode":"428","lon":-71.08801,"lat":48.411065,"arrival":1522688461000,"departure":1522688462000,"zoneId":"NA","stopIndex":17,"stopSequence":18,"vertexType":"TRANSIT"},"to":{"name":"Dubuc / Lapointe","stopId":"1:1578","stopCode":"1578","lon":-71.075709,"lat":48.421825,"arrival":1522688640000,"departure":1522688641000,"zoneId":"NA","stopIndex":23,"stopSequence":24,"vertexType":"TRANSIT"},"legGeometry":{"points":"ohnfHtk{pLsDiF_B_CQYa@cA[_AUy@YcBOgAYHu@\\M`@cAiBuAyBkHgL{C{E}AcCc@o@q@gAOWwCyCyGyG_IaIs@rB","length":24},"routeShortName":"11","routeLongName":"Chic/Faubourg via St-Paul","rentedBike":false,"transitLeg":true,"duration":178.0,"steps":[]},{"startTime":1522688641000,"endTime":1522689928000,"departureDelay":0,"arrivalDelay":0,"realTime":false,"distance":1647.7619999999997,"pathway":false,"mode":"WALK","route":"","agencyTimeZoneOffset":-14400000,"interlineWithPreviousLeg":false,"from":{"name":"Dubuc / Lapointe","stopId":"1:1578","stopCode":"1578","lon":-71.075709,"lat":48.421825,"arrival":1522688640000,"departure":1522688641000,"zoneId":"NA","stopIndex":23,"stopSequence":24,"vertexType":"TRANSIT"},"to":{"name":"Destination","lon":-71.060316,"lat":48.416167,"arrival":1522689928000,"orig":"","vertexType":"NORMAL"},"legGeometry":{"points":"ckpfHn~xpLx@uBf@}AXq@Pa@FEFCDCBG@I@K?MESfA_CNc@`@mAZ}@bAkCn@}AfBwEZi@PSVa@V[FE\\Y^Y^Kn@MXy@d@oBn@oB\\y@dAUt@yBdAwCFSjAeDo@m@j@kB??FQNi@bA}FnAoDd@qA??hAcDSM]C??YCqAq@uA_@u@OMM","length":56},"rentedBike":false,"transitLeg":false,"duration":1287.0,"steps":[{"distance":95.247,"relativeDirection":"DEPART","streetName":"Rue Dubuc","absoluteDirection":"SOUTHEAST","stayOn":false,"area":false,"bogusName":false,"lon":-71.07575486184759,"lat":48.42178360403269,"elevation":[]},{"distance":78.343,"relativeDirection":"CONTINUE","streetName":"path","absoluteDirection":"SOUTHEAST","stayOn":false,"area":false,"bogusName":true,"lon":-71.07469880000001,"lat":48.4212916,"elevation":[]},{"distance":505.5630000000001,"relativeDirection":"RIGHT","streetName":"Rue Jolliet","absoluteDirection":"SOUTHEAST","stayOn":false,"area":false,"bogusName":false,"lon":-71.07388590000001,"lat":48.420954200000004,"elevation":[]},{"distance":188.869,"relativeDirection":"LEFT","streetName":"path","absoluteDirection":"SOUTHEAST","stayOn":false,"area":false,"bogusName":true,"lon":-71.069079,"lat":48.417887500000006,"elevation":[]},{"distance":205.419,"relativeDirection":"LEFT","streetName":"Rue Dubé","absoluteDirection":"SOUTHEAST","stayOn":false,"area":false,"bogusName":false,"lon":-71.0672681,"lat":48.416826400000005,"elevation":[]},{"distance":30.953,"relativeDirection":"LEFT","streetName":"Rue Bégin","absoluteDirection":"NORTHEAST","stayOn":false,"area":false,"bogusName":false,"lon":-71.06496530000001,"lat":48.4157887,"elevation":[]},{"distance":361.80400000000003,"relativeDirection":"RIGHT","streetName":"Rue des Champs-Élysées","absoluteDirection":"SOUTHEAST","stayOn":false,"area":false,"bogusName":false,"lon":-71.0647342,"lat":48.416021,"elevation":[]},{"distance":181.56400000000002,"relativeDirection":"LEFT","streetName":"service road","absoluteDirection":"NORTHEAST","stayOn":false,"area":false,"bogusName":true,"lon":-71.0605199,"lat":48.414386,"elevation":[]}]}],"tooSloped":false},{"duration":3601,"startTime":1522686953000,"endTime":1522690554000,"walkTime":2073,"transitTime":1526,"waitingTime":2,"walkDistance":2693.13194735942,"walkLimitExceeded":false,"elevationLost":0.0,"elevationGained":0.0,"transfers":0,"legs":[{"startTime":1522686953000,"endTime":1522688535000,"departureDelay":0,"arrivalDelay":0,"realTime":false,"distance":2061.393,"pathway":false,"mode":"WALK","route":"","agencyTimeZoneOffset":-14400000,"interlineWithPreviousLeg":false,"from":{"name":"Origin","lon":-71.08494398,"lat":48.416027,"departure":1522686953000,"orig":"","vertexType":"NORMAL"},"to":{"name":"Boily / Garnier","stopId":"1:1567","stopCode":"1567","lon":-71.080057,"lat":48.411756,"arrival":1522688535000,"departure":1522688536000,"zoneId":"NA","stopIndex":15,"stopSequence":16,"vertexType":"TRANSIT"},"legGeometry":{"points":"wiofHzxzpLWNINOh@]r@a@l@Ml@_@][]SIQAKFEV?ZPlAVz@Vp@`Ah@t@d@pBbAl@`@f@JP?LNJRPRr@b@d@\\j@ZrAN^BVOj@q@RQ`AaAH?BBBJIHGf@ITKXMRQ\\Qf@GV?PDD\\Ih@]\\KZGNDHFHh@JPZVTVLVP@RLn@wCJ?PIXY|A{DiBkCk@y@cBcC{@sBi@gBi@qDZQHCnAi@f@YnAoBz@gDXaDV{Bz@wDoAs@","length":82},"alerts":[{"alertHeaderText":"Unpaved surface"}],"rentedBike":false,"transitLeg":false,"duration":1582.0,"steps":[{"distance":1127.061,"relativeDirection":"DEPART","streetName":"path","absoluteDirection":"NORTH","stayOn":false,"area":false,"bogusName":true,"lon":-71.0850992,"lat":48.4164455,"elevation":[],"alerts":[{"alertHeaderText":"Unpaved surface"}]},{"distance":121.414,"relativeDirection":"RIGHT","streetName":"Rue Martin-Bouvard","absoluteDirection":"SOUTH","stayOn":false,"area":false,"bogusName":false,"lon":-71.08914440000001,"lat":48.4121377,"elevation":[]},{"distance":353.491,"relativeDirection":"LEFT","streetName":"Boulevard Saint-Paul","absoluteDirection":"NORTHEAST","stayOn":false,"area":false,"bogusName":false,"lon":-71.088029,"lat":48.4113872,"elevation":[]},{"distance":22.995,"relativeDirection":"RIGHT","streetName":"Rue Saint-Augustin","absoluteDirection":"SOUTH","stayOn":false,"area":false,"bogusName":false,"lon":-71.0843859,"lat":48.413356300000004,"elevation":[]},{"distance":387.072,"relativeDirection":"CONTINUE","streetName":"Rue Garnier","absoluteDirection":"SOUTH","stayOn":false,"area":false,"bogusName":false,"lon":-71.0842714,"lat":48.413164,"elevation":[]},{"distance":49.36,"relativeDirection":"LEFT","streetName":"Rue Boily","absoluteDirection":"NORTHEAST","stayOn":false,"area":false,"bogusName":false,"lon":-71.0801867,"lat":48.41131,"elevation":[]}]},{"startTime":1522688536000,"endTime":1522689060000,"departureDelay":0,"arrivalDelay":0,"realTime":false,"distance":5118.419513091364,"pathway":false,"mode":"BUS","route":"14","agencyName":"Société de Transport du Saguenay","agencyUrl":"http://ville.saguenay.ca/fr/services-aux-citoyens/transport-sts","agencyTimeZoneOffset":-14400000,"routeColor":"C0C000","routeType":3,"routeId":"1:14","routeTextColor":"000000","interlineWithPreviousLeg":false,"tripBlockId":"30","headsign":"Talbot / Barrette","agencyId":"0","tripId":"1:218099","serviceDate":"20180402","from":{"name":"Boily / Garnier","stopId":"1:1567","stopCode":"1567","lon":-71.080057,"lat":48.411756,"arrival":1522688535000,"departure":1522688536000,"zoneId":"NA","stopIndex":15,"stopSequence":16,"vertexType":"TRANSIT"},"to":{"name":"Roitelets / Sapins","stopId":"1:1543","stopCode":"1543","lon":-71.069553,"lat":48.393375,"arrival":1522689060000,"departure":1522689060000,"zoneId":"NA","stopIndex":35,"stopSequence":36,"vertexType":"TRANSIT"},"legGeometry":{"points":"elnfHnxypLvAz@z@{DrCoITTlElEtAnB`@l@pFrD@?fDr@XgAjFuR\\yADm@b@gFd@_B`A}@tEvJBDvC`FtJ|LLNlClC|@^hCYVExCjCb@d@vE`F`BhB?pHaBhRqAbLK~@qBxFqB|FcC~GyC\\aDkDcFsF~CgOtGm[j@oCvEoSl@_CxCmLjAeFpCeKrByHfAqCvH_SLa@","length":53},"routeShortName":"14","routeLongName":"Coopérative","rentedBike":false,"transitLeg":true,"duration":524.0,"steps":[]},{"startTime":1522689060000,"endTime":1522690062000,"departureDelay":0,"arrivalDelay":0,"realTime":false,"distance":6219.216582013835,"pathway":false,"mode":"BUS","route":"15","agencyName":"Société de Transport du Saguenay","agencyUrl":"http://ville.saguenay.ca/fr/services-aux-citoyens/transport-sts","agencyTimeZoneOffset":-14400000,"routeColor":"FF00FF","routeType":3,"routeId":"1:15","routeTextColor":"FFFFFF","interlineWithPreviousLeg":true,"tripBlockId":"30","headsign":"Terminus Chicoutimi","agencyId":"0","tripId":"1:218100","serviceDate":"20180402","from":{"name":"Roitelets / Sapins","stopId":"1:1543","stopCode":"1543","lon":-71.069553,"lat":48.393375,"arrival":1522689060000,"departure":1522689060000,"zoneId":"NA","stopIndex":0,"stopSequence":1,"vertexType":"TRANSIT"},"to":{"name":"Résidence Funéraire (Bégin)","stopId":"1:582","stopCode":"582","lon":-71.063981,"lat":48.416642,"arrival":1522690062000,"departure":1522690063000,"zoneId":"NA","stopIndex":26,"stopSequence":27,"vertexType":"TRANSIT"},"legGeometry":{"points":"_zjfHfwwpLx@}BHa@NaADq@@y@Cy@I{@Ka@O[Sg@c@mAWwAMyA?EC]?wABuABmFB{@BmDFuH@i@F[FsC@c@TuGEGVsHPuDLuBXsFDoA?W@]Cu@GcAKu@Q_ASo@a@y@a@o@MOUUeCqBiDsDqE{EiAcAcB_AqBgA_AQaBSaBG_@Bu@FG?h@fNKnDpCfBkAzDgA}@y@q@sDy@GAeGT~@~KKrKyAnL[hBUxAm@nCcAlDeCvGmA|CUr@}@~A_@\\_DvCEZcA|@UP_@d@Yl@oBdFeCxG_CfGYVQXS\\dK|HlFZbC\\p@zA\\rB@hBiArG{BNw@FiG}@iDwAECcCcBo@y@sEeGe@o@qAa@m@MoB?C@}BZwAc@oA_Bs@gDCKZ{Di@QECc@_@sAkAoBwB_EcE{A_BoAmAk@o@cCaC","length":125},"routeShortName":"15","routeLongName":"Term. Chic / Costco","rentedBike":false,"transitLeg":true,"duration":1002.0,"steps":[]},{"startTime":1522690063000,"endTime":1522690554000,"departureDelay":0,"arrivalDelay":0,"realTime":false,"distance":631.46,"pathway":false,"mode":"WALK","route":"","agencyTimeZoneOffset":-14400000,"interlineWithPreviousLeg":false,"from":{"name":"Résidence Funéraire (Bégin)","stopId":"1:582","stopCode":"582","lon":-71.063981,"lat":48.416642,"arrival":1522690062000,"departure":1522690063000,"zoneId":"NA","stopIndex":26,"stopSequence":27,"vertexType":"TRANSIT"},"to":{"name":"Destination","lon":-71.060316,"lat":48.416167,"arrival":1522690554000,"orig":"","vertexType":"NORMAL"},"legGeometry":{"points":"gkofHpuvpL\\X|A`BFDj@kB??FQNi@bA}FnAoDd@qA??hAcDSM]C??YCqAq@uA_@u@OMM","length":21},"rentedBike":false,"transitLeg":false,"duration":491.0,"steps":[{"distance":88.092,"relativeDirection":"DEPART","streetName":"Rue Bégin","absoluteDirection":"SOUTHWEST","stayOn":false,"area":false,"bogusName":false,"lon":-71.0640821702576,"lat":48.416683565223295,"elevation":[]},{"distance":361.80400000000003,"relativeDirection":"LEFT","streetName":"Rue des Champs-Élysées","absoluteDirection":"SOUTHEAST","stayOn":false,"area":false,"bogusName":false,"lon":-71.0647342,"lat":48.416021,"elevation":[]},{"distance":181.56400000000002,"relativeDirection":"LEFT","streetName":"service road","absoluteDirection":"NORTHEAST","stayOn":false,"area":false,"bogusName":true,"lon":-71.0605199,"lat":48.414386,"elevation":[]}]}],"tooSloped":false},{"duration":2439,"startTime":1522689289000,"endTime":1522691728000,"walkTime":2259,"transitTime":178,"waitingTime":2,"walkDistance":2925.9046917203946,"walkLimitExceeded":false,"elevationLost":0.0,"elevationGained":0.0,"transfers":0,"legs":[{"startTime":1522689289000,"endTime":1522690261000,"departureDelay":0,"arrivalDelay":0,"realTime":false,"distance":1277.866,"pathway":false,"mode":"WALK","route":"","agencyTimeZoneOffset":-14400000,"interlineWithPreviousLeg":false,"from":{"name":"Origin","lon":-71.08494398,"lat":48.416027,"departure":1522689289000,"orig":"","vertexType":"NORMAL"},"to":{"name":"boul. Saint-Paul (no. 1177)","stopId":"1:428","stopCode":"428","lon":-71.08801,"lat":48.411065,"arrival":1522690261000,"departure":1522690262000,"zoneId":"NA","stopIndex":17,"stopSequence":18,"vertexType":"TRANSIT"},"legGeometry":{"points":"wiofHzxzpLWNINOh@]r@a@l@Ml@_@][]SIQAKFEV?ZPlAVz@Vp@`Ah@t@d@pBbAl@`@f@JP?LNJRPRr@b@d@\\j@ZrAN^BVOj@q@RQ`AaAH?BBBJIHGf@ITKXMRQ\\Qf@GV?PDD\\Ih@]\\KZGNDHFHh@JPZVTVLVP@RLn@wCJ?PIXY|A{Dj@j@","length":67},"alerts":[{"alertHeaderText":"Unpaved surface"}],"rentedBike":false,"transitLeg":false,"duration":972.0,"steps":[{"distance":1127.061,"relativeDirection":"DEPART","streetName":"path","absoluteDirection":"NORTH","stayOn":false,"area":false,"bogusName":true,"lon":-71.0850992,"lat":48.4164455,"elevation":[],"alerts":[{"alertHeaderText":"Unpaved surface"}]},{"distance":121.414,"relativeDirection":"RIGHT","streetName":"Rue Martin-Bouvard","absoluteDirection":"SOUTH","stayOn":false,"area":false,"bogusName":false,"lon":-71.08914440000001,"lat":48.4121377,"elevation":[]},{"distance":29.391,"relativeDirection":"RIGHT","streetName":"Boulevard Saint-Paul","absoluteDirection":"SOUTHWEST","stayOn":false,"area":false,"bogusName":false,"lon":-71.088029,"lat":48.4113872,"elevation":[]}]},{"startTime":1522690262000,"endTime":1522690440000,"departureDelay":0,"arrivalDelay":0,"realTime":false,"distance":1518.3050007619236,"pathway":false,"mode":"BUS","route":"11","agencyName":"Société de Transport du Saguenay","agencyUrl":"http://ville.saguenay.ca/fr/services-aux-citoyens/transport-sts","agencyTimeZoneOffset":-14400000,"routeColor":"FF0000","routeType":3,"routeId":"1:11","routeTextColor":"FFFFFF","interlineWithPreviousLeg":false,"tripBlockId":"34","headsign":"Terminus Chicoutimi","agencyId":"0","tripId":"1:218220","serviceDate":"20180402","from":{"name":"boul. Saint-Paul (no. 1177)","stopId":"1:428","stopCode":"428","lon":-71.08801,"lat":48.411065,"arrival":1522690261000,"departure":1522690262000,"zoneId":"NA","stopIndex":17,"stopSequence":18,"vertexType":"TRANSIT"},"to":{"name":"Dubuc / Lapointe","stopId":"1:1578","stopCode":"1578","lon":-71.075709,"lat":48.421825,"arrival":1522690440000,"departure":1522690441000,"zoneId":"NA","stopIndex":23,"stopSequence":24,"vertexType":"TRANSIT"},"legGeometry":{"points":"ohnfHtk{pLsDiF_B_CQYa@cA[_AUy@YcBOgAYHu@\\M`@cAiBuAyBkHgL{C{E}AcCc@o@q@gAOWwCyCyGyG_IaIs@rB","length":24},"routeShortName":"11","routeLongName":"Chic/Faubourg via St-Paul","rentedBike":false,"transitLeg":true,"duration":178.0,"steps":[]},{"startTime":1522690441000,"endTime":1522691728000,"departureDelay":0,"arrivalDelay":0,"realTime":false,"distance":1647.7619999999997,"pathway":false,"mode":"WALK","route":"","agencyTimeZoneOffset":-14400000,"interlineWithPreviousLeg":false,"from":{"name":"Dubuc / Lapointe","stopId":"1:1578","stopCode":"1578","lon":-71.075709,"lat":48.421825,"arrival":1522690440000,"departure":1522690441000,"zoneId":"NA","stopIndex":23,"stopSequence":24,"vertexType":"TRANSIT"},"to":{"name":"Destination","lon":-71.060316,"lat":48.416167,"arrival":1522691728000,"orig":"","vertexType":"NORMAL"},"legGeometry":{"points":"ckpfHn~xpLx@uBf@}AXq@Pa@FEFCDCBG@I@K?MESfA_CNc@`@mAZ}@bAkCn@}AfBwEZi@PSVa@V[FE\\Y^Y^Kn@MXy@d@oBn@oB\\y@dAUt@yBdAwCFSjAeDo@m@j@kB??FQNi@bA}FnAoDd@qA??hAcDSM]C??YCqAq@uA_@u@OMM","length":56},"rentedBike":false,"transitLeg":false,"duration":1287.0,"steps":[{"distance":95.247,"relativeDirection":"DEPART","streetName":"Rue Dubuc","absoluteDirection":"SOUTHEAST","stayOn":false,"area":false,"bogusName":false,"lon":-71.07575486184759,"lat":48.42178360403269,"elevation":[]},{"distance":78.343,"relativeDirection":"CONTINUE","streetName":"path","absoluteDirection":"SOUTHEAST","stayOn":false,"area":false,"bogusName":true,"lon":-71.07469880000001,"lat":48.4212916,"elevation":[]},{"distance":505.5630000000001,"relativeDirection":"RIGHT","streetName":"Rue Jolliet","absoluteDirection":"SOUTHEAST","stayOn":false,"area":false,"bogusName":false,"lon":-71.07388590000001,"lat":48.420954200000004,"elevation":[]},{"distance":188.869,"relativeDirection":"LEFT","streetName":"path","absoluteDirection":"SOUTHEAST","stayOn":false,"area":false,"bogusName":true,"lon":-71.069079,"lat":48.417887500000006,"elevation":[]},{"distance":205.419,"relativeDirection":"LEFT","streetName":"Rue Dubé","absoluteDirection":"SOUTHEAST","stayOn":false,"area":false,"bogusName":false,"lon":-71.0672681,"lat":48.416826400000005,"elevation":[]},{"distance":30.953,"relativeDirection":"LEFT","streetName":"Rue Bégin","absoluteDirection":"NORTHEAST","stayOn":false,"area":false,"bogusName":false,"lon":-71.06496530000001,"lat":48.4157887,"elevation":[]},{"distance":361.80400000000003,"relativeDirection":"RIGHT","streetName":"Rue des Champs-Élysées","absoluteDirection":"SOUTHEAST","stayOn":false,"area":false,"bogusName":false,"lon":-71.0647342,"lat":48.416021,"elevation":[]},{"distance":181.56400000000002,"relativeDirection":"LEFT","streetName":"service road","absoluteDirection":"NORTHEAST","stayOn":false,"area":false,"bogusName":true,"lon":-71.0605199,"lat":48.414386,"elevation":[]}]}],"tooSloped":false}]},"debugOutput":{"precalculationTime":33,"pathCalculationTime":23,"pathTimes":[17,3,3],"renderingTime":1,"totalTime":57,"timedOut":false},"elevationMetadata":{"ellipsoidToGeoidDifference":-28.885904201182168,"geoidElevation":false}}