{"requestParameters":{"date":"2018/04/02","walkSpeed":"1.33","walkReluctance":"2.0","fromPlace":"48.448125,-71.103819","maxWalkDistance":"3000","waitReluctance":"1.0","carSpeed":"33","numItineraries":"3","waitAtBeginningFactor":"0.4","mode":"TRANSIT,WALK","ignoreRealtimeUpdates":"false","stairsReluctance":"2.0","toPlace":"48.439349,-71.05737999","time":"12:30:00"},"plan":{"date":1522686600000,"from":{"name":"Origin","lon":-71.103819,"lat":48.448125,"orig":"","vertexType":"NORMAL"},"to":{"name":"Destination","lon":-71.05737999,"lat":48.439349,"orig":"","vertexType":"NORMAL"},"itineraries":[{"duration":1927,"startTime":1522686711000,"endTime":1522688638000,"walkTime":1452,"transitTime":473,"waitingTime":2,"walkDistance":1866.9261278130584,"walkLimitExceeded":false,"elevationLost":0.0,"elevationGained":0.0,"transfers":0,"legs":[{"startTime":1522686711000,"endTime":1522687886000,"departureDelay":0,"arrivalDelay":0,"realTime":false,"distance":1518.831,"pathway":false,"mode":"WALK","route":"","agencyTimeZoneOffset":-14400000,"interlineWithPreviousLeg":false,"from":{"name":"Origin","lon":-71.103819,"lat":48.448125,"departure":1522686711000,"orig":"","vertexType":"NORMAL"},"to":{"name":"St-Gérard / Pasteur","stopId":"1:727","stopCode":"727","lon":-71.084309,"lat":48.448719,"arrival":1522687886000,"departure":1522687887000,"zoneId":"NA","stopIndex":4,"stopSequence":5,"vertexType":"TRANSIT"},"legGeometry":{"points":"kpufH`l~pL@CFCDGLSPULU?ADKDMFWF[FYFi@Fm@ZoL@S@e@FyABg@@_@E]EQI[qA_D`AwA[m@Wg@CGCGCICKCIAIa@yHAYYeEEa@AUUwFAm@NeC^sCBSNsBBkCGuIEoE?oD?[IGa@{@O]w@mBKU","length":55},"rentedBike":false,"transitLeg":false,"duration":1175.0,"steps":[{"distance":470.56399999999996,"relativeDirection":"DEPART","streetName":"Rue Chapleau","absoluteDirection":"SOUTHEAST","stayOn":false,"area":false,"bogusName":false,"lon":-71.10352358271423,"lat":48.448228978392784,"elevation":[]},{"distance":48.881,"relativeDirection":"RIGHT","streetName":"Rue Vallières","absoluteDirection":"SOUTHEAST","stayOn":false,"area":false,"bogusName":false,"lon":-71.09771520000001,"lat":48.4479428,"elevation":[]},{"distance":813.268,"relativeDirection":"LEFT","streetName":"Rue Giffard","absoluteDirection":"NORTHEAST","stayOn":false,"area":false,"bogusName":false,"lon":-71.0972753,"lat":48.447614,"elevation":[]},{"distance":75.112,"relativeDirection":"CONTINUE","streetName":"path","absoluteDirection":"EAST","stayOn":false,"area":false,"bogusName":true,"lon":-71.08657550000001,"lat":48.4481685,"elevation":[]},{"distance":35.026,"relativeDirection":"LEFT","streetName":"Rue Sainte-Marie Sud","absoluteDirection":"NORTHEAST","stayOn":false,"area":false,"bogusName":false,"lon":-71.0855571,"lat":48.448167500000004,"elevation":[]},{"distance":75.97999999999999,"relativeDirection":"CONTINUE","streetName":"Rue Saint-Gérard","absoluteDirection":"NORTHEAST","stayOn":false,"area":false,"bogusName":false,"lon":-71.08521470000001,"lat":48.448382800000005,"elevation":[]}]},{"startTime":1522687887000,"endTime":1522688360000,"departureDelay":0,"arrivalDelay":0,"realTime":false,"distance":3538.8804858788544,"pathway":false,"mode":"BUS","route":"23","agencyName":"Société de Transport du Saguenay","agencyUrl":"http://ville.saguenay.ca/fr/services-aux-citoyens/transport-sts","agencyTimeZoneOffset":-14400000,"routeColor":"FF00FF","routeType":3,"routeId":"1:23","routeTextColor":"FFFFFF","interlineWithPreviousLeg":false,"tripBlockId":"5","headsign":"Terminus Chicoutimi","agencyId":"0","tripId":"1:217262","serviceDate":"20180402","from":{"name":"St-Gérard / Pasteur","stopId":"1:727","stopCode":"727","lon":-71.084309,"lat":48.448719,"arrival":1522687886000,"departure":1522687887000,"zoneId":"NA","stopIndex":4,"stopSequence":5,"vertexType":"TRANSIT"},"to":{"name":"Église St-Luc (boul. Tadoussac)","stopId":"1:830","stopCode":"830","lon":-71.059501,"lat":48.441464,"arrival":1522688360000,"departure":1522688361000,"zoneId":"NA","stopIndex":20,"stopSequence":21,"vertexType":"TRANSIT"},"legGeometry":{"points":"ssufHxtzpLGCUi@Wm@ScA_@gGSaE@_@@_@@ERoBFe@No@`@gAbCyFNe@Ha@He@Fg@Du@Dg@Hc@Pa@RW\\S`@QZEm@eHM}B?GGi@Is@Ou@Qw@Mo@Kw@ImAGoBAk@aALa@?YEUKc@Yc@_@KOIUGUEWAW?YBqAH_AXeC@IdB_Mh@_EJk@d@kDhAqI`AgHz@oGBU?UAWCWUwAWD]B]AUEoAc@kE}AOIq@g@g@u@]w@b@s@T[~CkFf@s@\\e@x@}@jAeAXQZStBaAh@]`@]`@i@l@kDF_@R{AFWFMPIPC`@BT@V?TAVKLENCLCJ@J@xAb@x@Zz@\\CP?R@N@NFLFF`GtBx@Xw@pG@l@B\\DXL\\RZDFXPf@N@v@Bp@Dr@l@~HNlAH\\","length":133},"routeShortName":"23","routeLongName":"Côte Verdun via Aréna du Plateau","rentedBike":false,"transitLeg":true,"duration":473.0,"steps":[]},{"startTime":1522688361000,"endTime":1522688638000,"departureDelay":0,"arrivalDelay":0,"realTime":false,"distance":347.89399999999995,"pathway":false,"mode":"WALK","route":"","agencyTimeZoneOffset":-14400000,"interlineWithPreviousLeg":false,"from":{"name":"Église St-Luc (boul. Tadoussac)","stopId":"1:830","stopCode":"830","lon":-71.059501,"lat":48.441464,"arrival":1522688360000,"departure":1522688361000,"zoneId":"NA","stopIndex":20,"stopSequence":21,"vertexType":"TRANSIT"},"to":{"name":"Destination","lon":-71.05737999,"lat":48.439349,"arrival":1522688638000,"orig":"","vertexType":"NORMAL"},"legGeometry":{"points":"yetfHrxupLAGCMG]CQRETGHw@ZCbFlBf@}D@MBO@O?O@OAQAOE[","length":19},"rentedBike":false,"transitLeg":false,"duration":277.0,"steps":[{"distance":27.389,"relativeDirection":"DEPART","streetName":"Boulevard de Tadoussac","absoluteDirection":"NORTHEAST","stayOn":false,"area":false,"bogusName":false,"lon":-71.05945543369864,"lat":48.44141337892131,"elevation":[]},{"distance":61.104000000000006,"relativeDirection":"RIGHT","streetName":"path","absoluteDirection":"SOUTH","stayOn":false,"area":false,"bogusName":true,"lon":-71.0591098,"lat":48.4415014,"elevation":[]},{"distance":132.861,"relativeDirection":"SLIGHTLY_RIGHT","streetName":"Rue Napoléon","absoluteDirection":"SOUTH","stayOn":false,"area":false,"bogusName":false,"lon":-71.058738,"lat":48.4411019,"elevation":[]},{"distance":126.53999999999999,"relativeDirection":"LEFT","streetName":"Rue De Bienville","absoluteDirection":"EAST","stayOn":false,"area":false,"bogusName":false,"lon":-71.0592803,"lat":48.4399625,"elevation":[]}]}],"tooSloped":false},{"duration":1974,"startTime":1522686772000,"endTime":1522688746000,"walkTime":1875,"transitTime":97,"waitingTime":2,"walkDistance":2415.685293222845,"walkLimitExceeded":false,"elevationLost":0.0,"elevationGained":0.0,"transfers":0,"legs":[{"startTime":1522686772000,"endTime":1522687342000,"departureDelay":0,"arrivalDelay":0,"realTime":false,"distance":741.0790000000002,"pathway":false,"mode":"WALK","route":"","agencyTimeZoneOffset":-14400000,"interlineWithPreviousLeg":false,"from":{"name":"Origin","lon":-71.103819,"lat":48.448125,"departure":1522686772000,"orig":"","vertexType":"NORMAL"},"to":{"name":"boul. Ste-Geneviève (no. 1425)","stopId":"1:97","stopCode":"97","lon":-71.100593,"lat":48.45294,"arrival":1522687342000,"departure":1522687343000,"zoneId":"NA","stopIndex":17,"stopSequence":18,"vertexType":"TRANSIT"},"legGeometry":{"points":"kpufH`l~pLC@KDQLWN]N{ApAo@n@SEQuAa@]}Ao@c@b@yBSgCe@oCeAPuBCoD@u@c@WaB}B","length":21},"rentedBike":false,"transitLeg":false,"duration":570.0,"steps":[{"distance":143.828,"relativeDirection":"DEPART","streetName":"Rue Chapleau","absoluteDirection":"NORTHWEST","stayOn":false,"area":false,"bogusName":false,"lon":-71.10352358271423,"lat":48.448228978392784,"elevation":[]},{"distance":597.251,"relativeDirection":"RIGHT","streetName":"path","absoluteDirection":"NORTH","stayOn":false,"area":false,"bogusName":true,"lon":-71.10444170000001,"lat":48.449363700000006,"elevation":[]}]},{"startTime":1522687343000,"endTime":1522687440000,"departureDelay":0,"arrivalDelay":0,"realTime":false,"distance":2305.26439276998,"pathway":false,"mode":"BUS","route":"65","agencyName":"Société de Transport du Saguenay","agencyUrl":"http://ville.saguenay.ca/fr/services-aux-citoyens/transport-sts","agencyTimeZoneOffset":-14400000,"routeColor":"00FFFF","routeType":3,"routeId":"1:65","routeTextColor":"000000","interlineWithPreviousLeg":false,"tripBlockId":"75","headsign":"UQAC","agencyId":"0","tripId":"1:218627","serviceDate":"20180402","from":{"name":"boul. Ste-Geneviève (no. 1425)","stopId":"1:97","stopCode":"97","lon":-71.100593,"lat":48.45294,"arrival":1522687342000,"departure":1522687343000,"zoneId":"NA","stopIndex":17,"stopSequence":18,"vertexType":"TRANSIT"},"to":{"name":"boul. Ste-Geneviève (no. 453)","stopId":"1:736","stopCode":"736","lon":-71.0749,"lat":48.4422,"arrival":1522687440000,"departure":1522687441000,"zoneId":"NA","stopIndex":24,"stopSequence":25,"vertexType":"TRANSIT"},"legGeometry":{"points":"onvfHny}pLjCmXrAaNfCgW?E^qBt@}CJGnAmDx@iBpAcCb@o@Zi@h@o@`AiArFkG`FgGdBwBt@cAbAmBx@eBj@eB`CoHpCyJbAmCtAuCZg@|@gB","length":28},"routeShortName":"65","routeLongName":"Term. Chic / Shipshaw","rentedBike":false,"transitLeg":true,"duration":97.0,"steps":[]},{"startTime":1522687441000,"endTime":1522688746000,"departureDelay":0,"arrivalDelay":0,"realTime":false,"distance":1674.2890000000002,"pathway":false,"mode":"WALK","route":"","agencyTimeZoneOffset":-14400000,"interlineWithPreviousLeg":false,"from":{"name":"boul. Ste-Geneviève (no. 453)","stopId":"1:736","stopCode":"736","lon":-71.0749,"lat":48.4422,"arrival":1522687440000,"departure":1522687441000,"zoneId":"NA","stopIndex":24,"stopSequence":25,"vertexType":"TRANSIT"},"to":{"name":"Destination","lon":-71.05737999,"lat":48.439349,"arrival":1522688746000,"orig":"","vertexType":"NORMAL"},"legGeometry":{"points":"yjtfH`yxpLrAiCSS`IiOzAwCvAoCb@{@h@{@Re@Xk@Zm@v@uAvAcCt@y@d@_@J??E@EBC@CBAD?BwC?eAASAyAKqCy@gDMc@I_@Y_AUs@Kc@S{@O}@Eo@Gw@]}FKyBm@FYCKCkEaBf@}D@MBO@O?O@OAQAOE[","length":52},"rentedBike":false,"transitLeg":false,"duration":1305.0,"steps":[{"distance":555.585,"relativeDirection":"DEPART","streetName":"Boulevard Sainte-Geneviève","absoluteDirection":"SOUTHEAST","stayOn":false,"area":false,"bogusName":false,"lon":-71.07488215191115,"lat":48.442212866844194,"elevation":[]},{"distance":243.155,"relativeDirection":"CONTINUE","streetName":"R 172","absoluteDirection":"SOUTHEAST","stayOn":false,"area":false,"bogusName":true,"lon":-71.0694016,"lat":48.4389935,"elevation":[]},{"distance":14.306,"relativeDirection":"CIRCLE_CLOCKWISE","streetName":"Rue Roussel","absoluteDirection":"SOUTHEAST","exit":"1","stayOn":false,"area":false,"bogusName":false,"lon":-71.0672278,"lat":48.4373869,"elevation":[]},{"distance":569.121,"relativeDirection":"LEFT","streetName":"Rue Roussel","absoluteDirection":"EAST","stayOn":false,"area":false,"bogusName":false,"lon":-71.0671123,"lat":48.437299200000005,"elevation":[]},{"distance":165.582,"relativeDirection":"LEFT","streetName":"Rue Napoléon","absoluteDirection":"NORTH","stayOn":false,"area":false,"bogusName":false,"lon":-71.05977750000001,"lat":48.4385289,"elevation":[]},{"distance":126.53999999999999,"relativeDirection":"RIGHT","streetName":"Rue De Bienville","absoluteDirection":"EAST","stayOn":false,"area":false,"bogusName":false,"lon":-71.0592803,"lat":48.4399625,"elevation":[]}]}],"tooSloped":false},{"duration":1401,"startTime":1522688260000,"endTime":1522689661000,"walkTime":61,"transitTime":1038,"waitingTime":302,"walkDistance":78.0763909772374,"walkLimitExceeded":false,"elevationLost":0.0,"elevationGained":0.0,"transfers":1,"legs":[{"startTime":1522688260000,"endTime":1522688297000,"departureDelay":0,"arrivalDelay":0,"realTime":false,"distance":46.642,"pathway":false,"mode":"WALK","route":"","agencyTimeZoneOffset":-14400000,"interlineWithPreviousLeg":false,"from":{"name":"Origin","lon":-71.103819,"lat":48.448125,"departure":1522688260000,"orig":"","vertexType":"NORMAL"},"to":{"name":"Chapleau / Ste-Catherine","stopId":"1:691","stopCode":"691","lon":-71.103068,"lat":48.447954,"arrival":1522688297000,"departure":1522688298000,"zoneId":"NA","stopIndex":15,"stopSequence":16,"vertexType":"TRANSIT"},"legGeometry":{"points":"kpufH`l~pL@CFCDGLSPULU?A","length":8},"rentedBike":false,"transitLeg":false,"duration":37.0,"steps":[{"distance":46.642,"relativeDirection":"DEPART","streetName":"Rue Chapleau","absoluteDirection":"SOUTHEAST","stayOn":false,"area":false,"bogusName":false,"lon":-71.10352358271423,"lat":48.448228978392784,"elevation":[]}]},{"startTime":1522688298000,"endTime":1522689000000,"departureDelay":0,"arrivalDelay":0,"realTime":false,"distance":4911.61122931723,"pathway":false,"mode":"BUS","route":"20","agencyName":"Société de Transport du Saguenay","agencyUrl":"http://ville.saguenay.ca/fr/services-aux-citoyens/transport-sts","agencyTimeZoneOffset":-14400000,"routeColor":"0000FF","routeType":3,"routeId":"1:20","routeTextColor":"FFFFFF","interlineWithPreviousLeg":false,"tripBlockId":"3","headsign":"Terminus Chicoutimi","agencyId":"0","tripId":"1:217199","serviceDate":"20180402","from":{"name":"Chapleau / Ste-Catherine","stopId":"1:691","stopCode":"691","lon":-71.103068,"lat":48.447954,"arrival":1522688297000,"departure":1522688298000,"zoneId":"NA","stopIndex":15,"stopSequence":16,"vertexType":"TRANSIT"},"to":{"name":"Terminus Chicoutimi","stopId":"1:1289","stopCode":"1289","lon":-71.066163,"lat":48.428677,"arrival":1522689000000,"departure":1522689300000,"zoneId":"NA","stopIndex":31,"stopSequence":32,"vertexType":"TRANSIT"},"legGeometry":{"points":"mnufHpi~pLQ\\a@d@w@aCCQAO@ODOHQDSDWLoDRgGBMFMHIHAfBNDuA@wA?WGk@Ga@KY_A_CRc@PYNYUk@Q[O]KYC]_AaQYwF?W?Y?UBc@D_@d@{DNaAB]@O@]?}BbA?hA?A}I?iEEcEjBCzBEd@Cf@Gj@MZMb@S`Ag@DClAk@f@Qv@Ov@IlBCnBa@TCTBjBPH@LiCDe@Lw@|@cELo@D[Dk@@[@uC@SBUDQFSt@yAHIr@eAjAaB`AqA^i@p@kAVc@\\cAr@eBv@aB|B_CJSDKLe@NeAJaAHeBBi@F{AaFe@c@IcDeAWtBOfAERGLIHIFMBa@NOQSOUGOCW?UFMHa@XUHQ?QIQOIM[g@rCmFhHqN~@eBr@cAt@_Av@}@RQPMz@k@tAe@REZG^Af@@X@VF`@Jn@XbClAr@Xt\\`PrAb@pA^hBTjAFj@Pb@JPHLLJNJRFXDT?X?ZEVEVKTMNMHMFOB}DWSGOSYcAN}FFkAF}DJyDPwGj@_QjAN~ALIpBGVITe@@","length":186},"routeShortName":"20","routeLongName":"Sainte-Claire","rentedBike":false,"transitLeg":true,"duration":702.0,"steps":[]},{"startTime":1522689300000,"endTime":1522689636000,"departureDelay":0,"arrivalDelay":0,"realTime":false,"distance":1655.7582002786908,"pathway":false,"mode":"BUS","route":"24","agencyName":"Société de Transport du Saguenay","agencyUrl":"http://ville.saguenay.ca/fr/services-aux-citoyens/transport-sts","agencyTimeZoneOffset":-14400000,"routeColor":"00FF00","routeType":3,"routeId":"1:24","routeTextColor":"000000","interlineWithPreviousLeg":false,"tripBlockId":"5","headsign":"Terminus Chicoutimi","agencyId":"0","tripId":"1:217263","serviceDate":"20180402","from":{"name":"Terminus Chicoutimi","stopId":"1:1289","stopCode":"1289","lon":-71.066163,"lat":48.428677,"arrival":1522689000000,"departure":1522689300000,"zoneId":"NA","stopIndex":0,"stopSequence":1,"vertexType":"TRANSIT"},"to":{"name":"École le Roseau (Bienville)","stopId":"1:806","stopCode":"806","lon":-71.057164,"lat":48.439798,"arrival":1522689636000,"departure":1522689637000,"zoneId":"NA","stopIndex":4,"stopSequence":5,"vertexType":"TRANSIT"},"legGeometry":{"points":"evqfHzcwpLg@?EhBO~GoBKCp@O\\WjGOfGCRK^KJMHQB_AMg@Gm\\wO]i@wAyA_@WUKMEwEm@Js@Da@??@@??@?@???@???@?@??A@???@A@??A@??A@A??@A?A??@A?A?A?A@A?A???A?A?A???A?A?A?A???A?AAA?A???AAA?A??AA?AA??AA??A??AA??A??AA?A???A????q@C{AAaB?mAEcAGs@OoAa@sB[kAYcASq@Ok@Qq@Ku@MoBKmAa@eHi@FKC_@I??iE}Ah@}DH}@?c@Ea@[_B","length":116},"routeShortName":"24","routeLongName":"Saint-Luc","rentedBike":false,"transitLeg":true,"duration":336.0,"steps":[]},{"startTime":1522689637000,"endTime":1522689661000,"departureDelay":0,"arrivalDelay":0,"realTime":false,"distance":31.428,"pathway":false,"mode":"WALK","route":"","agencyTimeZoneOffset":-14400000,"interlineWithPreviousLeg":false,"from":{"name":"École le Roseau (Bienville)","stopId":"1:806","stopCode":"806","lon":-71.057164,"lat":48.439798,"arrival":1522689636000,"departure":1522689637000,"zoneId":"NA","stopIndex":4,"stopSequence":5,"vertexType":"TRANSIT"},"to":{"name":"Destination","lon":-71.05737999,"lat":48.439349,"arrival":1522689661000,"orig":"","vertexType":"NORMAL"},"legGeometry":{"points":"g|sfHxjupLHTJn@@F","length":4},"rentedBike":false,"transitLeg":false,"duration":24.0,"steps":[{"distance":31.428,"relativeDirection":"DEPART","streetName":"Rue De Bienville","absoluteDirection":"SOUTHWEST","stayOn":false,"area":false,"bogusName":false,"lon":-71.05724442131621,"lat":48.439881180077734,"elevation":[]}]}],"tooSloped":false}]},"debugOutput":{"precalculationTime":17,"pathCalculationTime":23,"pathTimes":[17,3,3],"renderingTime":0,"totalTime":40,"timedOut":false},"elevationMetadata":{"ellipsoidToGeoidDifference":-28.885904201182168,"geoidElevation":false}}