{"requestParameters":{"date":"2018/04/02","walkSpeed":"1.33","walkReluctance":"2.0","fromPlace":"48.406641,-71.058372","maxWalkDistance":"3000","waitReluctance":"1.0","carSpeed":"33","numItineraries":"3","waitAtBeginningFactor":"0.4","mode":"TRANSIT,WALK","ignoreRealtimeUpdates":"false","stairsReluctance":"2.0","toPlace":"48.403952,-71.054642","time":"12:15:00"},"plan":{"date":1522685700000,"from":{"name":"Origin","lon":-71.058372,"lat":48.406641,"orig":"","vertexType":"NORMAL"},"to":{"name":"Destination","lon":-71.054642,"lat":48.403952,"orig":"","vertexType":"NORMAL"},"itineraries":[{"duration":482,"startTime":1522685700000,"endTime":1522686182000,"walkTime":482,"transitTime":0,"waitingTime":0,"walkDistance":599.3613383398844,"walkLimitExceeded":false,"elevationLost":0.0,"elevationGained":0.0,"transfers":0,"legs":[{"startTime":1522685700000,"endTime":1522686182000,"departureDelay":0,"arrivalDelay":0,"realTime":false,"distance":599.1759999999999,"pathway":false,"mode":"WALK","route":"","agencyTimeZoneOffset":-14400000,"interlineWithPreviousLeg":false,"from":{"name":"Origin","lon":-71.058372,"lat":48.406641,"departure":1522685700000,"orig":"","vertexType":"NORMAL"},"to":{"name":"Destination","lon":-71.054642,"lat":48.403952,"arrival":1522686182000,"orig":"","vertexType":"NORMAL"},"legGeometry":{"points":"kkmfH`oupLBB^V\\CDIFO\\eAJ]HWH[DKn@}Br@qBXTXVZX\\XXTBBTBFFXVlBuGj@wDQBWp@OWKQ","length":28},"rentedBike":false,"transitLeg":false,"duration":482.0,"steps":[{"distance":105.184,"relativeDirection":"DEPART","streetName":"parking aisle","absoluteDirection":"SOUTHWEST","stayOn":false,"area":false,"bogusName":false,"lon":-71.05792823187457,"lat":48.40646381876084,"elevation":[]},{"distance":246.807,"relativeDirection":"CONTINUE","streetName":"service road","absoluteDirection":"SOUTHEAST","stayOn":false,"area":false,"bogusName":true,"lon":-71.05729810000001,"lat":48.4058038,"elevation":[]},{"distance":191.916,"relativeDirection":"LEFT","streetName":"path","absoluteDirection":"SOUTHEAST","stayOn":true,"area":false,"bogusName":true,"lon":-71.0566984,"lat":48.4042426,"elevation":[]},{"distance":55.269,"relativeDirection":"HARD_LEFT","streetName":"parking aisle","absoluteDirection":"NORTHWEST","stayOn":true,"area":false,"bogusName":true,"lon":-71.0543818,"lat":48.403475,"elevation":[]}]}],"tooSloped":false}]},"debugOutput":{"precalculationTime":70,"pathCalculationTime":40,"pathTimes":[16,7,17],"renderingTime":3,"totalTime":113,"timedOut":false},"elevationMetadata":{"ellipsoidToGeoidDifference":-28.885904201182168,"geoidElevation":false}}