{"requestParameters":{"date":"2018/04/02","walkSpeed":"1.33","walkReluctance":"2.0","fromPlace":"48.446173,-71.09069999","maxWalkDistance":"3000","waitReluctance":"1.0","carSpeed":"33","numItineraries":"3","waitAtBeginningFactor":"0.4","mode":"TRANSIT,WALK","ignoreRealtimeUpdates":"false","stairsReluctance":"2.0","toPlace":"48.453381,-71.121782","time":"17:20:00"},"plan":{"date":1522704000000,"from":{"name":"Origin","lon":-71.09069999,"lat":48.446173,"orig":"","vertexType":"NORMAL"},"to":{"name":"Destination","lon":-71.121782,"lat":48.453381,"orig":"","vertexType":"NORMAL"},"itineraries":[{"duration":2272,"startTime":1522704259000,"endTime":1522706531000,"walkTime":2118,"transitTime":152,"waitingTime":2,"walkDistance":2746.204187961045,"walkLimitExceeded":false,"elevationLost":0.0,"elevationGained":0.0,"transfers":0,"legs":[{"startTime":1522704259000,"endTime":1522704345000,"departureDelay":0,"arrivalDelay":0,"realTime":false,"distance":108.143,"pathway":false,"mode":"WALK","route":"","agencyTimeZoneOffset":-14400000,"interlineWithPreviousLeg":false,"from":{"name":"Origin","lon":-71.09069999,"lat":48.446173,"departure":1522704259000,"orig":"","vertexType":"NORMAL"},"to":{"name":"Vallières / Éric","stopId":"1:686","stopCode":"686","lon":-71.092505,"lat":48.446308,"arrival":1522704345000,"departure":1522704346000,"zoneId":"NA","stopIndex":10,"stopSequence":11,"vertexType":"TRANSIT"},"legGeometry":{"points":"sbufHl`|pLE@kAdALd@Lp@Hp@","length":6},"rentedBike":false,"transitLeg":false,"duration":86.0,"steps":[{"distance":53.136,"relativeDirection":"DEPART","streetName":"Rue Saint-Armand","absoluteDirection":"NORTHWEST","stayOn":false,"area":false,"bogusName":false,"lon":-71.09142170621203,"lat":48.446021702586286,"elevation":[]},{"distance":55.007,"relativeDirection":"LEFT","streetName":"Rue Vallières","absoluteDirection":"SOUTHWEST","stayOn":false,"area":false,"bogusName":false,"lon":-71.0917854,"lat":48.446433000000006,"elevation":[]}]},{"startTime":1522704346000,"endTime":1522704498000,"departureDelay":0,"arrivalDelay":0,"realTime":false,"distance":881.0708976106208,"pathway":false,"mode":"BUS","route":"20","agencyName":"Société de Transport du Saguenay","agencyUrl":"http://ville.saguenay.ca/fr/services-aux-citoyens/transport-sts","agencyTimeZoneOffset":-14400000,"routeColor":"0000FF","routeType":3,"routeId":"1:20","routeTextColor":"FFFFFF","interlineWithPreviousLeg":false,"tripBlockId":"102","headsign":"Terminus Chicoutimi","agencyId":"0","tripId":"1:218775","serviceDate":"20180402","from":{"name":"Vallières / Éric","stopId":"1:686","stopCode":"686","lon":-71.092505,"lat":48.446308,"arrival":1522704345000,"departure":1522704346000,"zoneId":"NA","stopIndex":10,"stopSequence":11,"vertexType":"TRANSIT"},"to":{"name":"Chapleau / Ste-Catherine","stopId":"1:691","stopCode":"691","lon":-71.103068,"lat":48.447954,"arrival":1522704498000,"departure":1522704499000,"zoneId":"NA","stopIndex":15,"stopSequence":16,"vertexType":"TRANSIT"},"legGeometry":{"points":"}cufH`g|pLDj@Bp@?~I@fHAd@C`@ERELA@GHMHi@PSBy@BW?YDMDC?OHULWVOXQXSb@~@~BJXF`@Fj@?VAvACv@e@hNGx@MdAQr@IL","length":37},"routeShortName":"20","routeLongName":"Sainte-Claire","rentedBike":false,"transitLeg":true,"duration":152.0,"steps":[]},{"startTime":1522704499000,"endTime":1522706531000,"departureDelay":0,"arrivalDelay":0,"realTime":false,"distance":2637.7859999999996,"pathway":false,"mode":"WALK","route":"","agencyTimeZoneOffset":-14400000,"interlineWithPreviousLeg":false,"from":{"name":"Chapleau / Ste-Catherine","stopId":"1:691","stopCode":"691","lon":-71.103068,"lat":48.447954,"arrival":1522704498000,"departure":1522704499000,"zoneId":"NA","stopIndex":15,"stopSequence":16,"vertexType":"TRANSIT"},"to":{"name":"Destination","lon":-71.121782,"lat":48.453381,"arrival":1522706531000,"orig":"","vertexType":"NORMAL"},"legGeometry":{"points":"mnufHni~pL?@MTQTMREFGBEDKDQLWN]N{ApAo@n@SEQuAa@]}Ao@c@b@yBSgCe@oCeAiAa@s@|F_Cs@a@tDm@zGO~AGj@WpCeA`LObBAJO~AkAvMS~BEb@m@bGObBAHQdBMzASzBO~ACXeAfKyAnOGv@j@Rh@Nr@MbD}BrA{BLMPAJ@JDbD`ARaB","length":59},"rentedBike":false,"transitLeg":false,"duration":2032.0,"steps":[{"distance":190.476,"relativeDirection":"DEPART","streetName":"Rue Chapleau","absoluteDirection":"NORTHWEST","stayOn":false,"area":false,"bogusName":false,"lon":-71.10311575854293,"lat":48.44791323636233,"elevation":[]},{"distance":515.768,"relativeDirection":"RIGHT","streetName":"path","absoluteDirection":"NORTH","stayOn":false,"area":false,"bogusName":true,"lon":-71.10444170000001,"lat":48.449363700000006,"elevation":[]},{"distance":73.975,"relativeDirection":"RIGHT","streetName":"Rue Dumais","absoluteDirection":"NORTH","stayOn":false,"area":false,"bogusName":false,"lon":-71.1042335,"lat":48.453015900000004,"elevation":[]},{"distance":945.1270000000003,"relativeDirection":"LEFT","streetName":"Boulevard Sainte-Geneviève","absoluteDirection":"WEST","stayOn":false,"area":false,"bogusName":false,"lon":-71.10397780000001,"lat":48.453659200000004,"elevation":[]},{"distance":500.19100000000003,"relativeDirection":"CONTINUE","streetName":"Route Sainte-Geneviève","absoluteDirection":"WEST","stayOn":false,"area":false,"bogusName":false,"lon":-71.11640650000001,"lat":48.4557322,"elevation":[]},{"distance":374.777,"relativeDirection":"LEFT","streetName":"Rue Jeanne","absoluteDirection":"SOUTH","stayOn":false,"area":false,"bogusName":false,"lon":-71.1229769,"lat":48.4568482,"elevation":[]},{"distance":37.472,"relativeDirection":"LEFT","streetName":"Rue Louis-Hudon","absoluteDirection":"EAST","stayOn":false,"area":false,"bogusName":false,"lon":-71.1221245,"lat":48.4538103,"elevation":[]}]}],"tooSloped":false},{"duration":1424,"startTime":1522705412000,"endTime":1522706836000,"walkTime":1198,"transitTime":224,"waitingTime":2,"walkDistance":1524.0296090130826,"walkLimitExceeded":false,"elevationLost":0.0,"elevationGained":0.0,"transfers":0,"legs":[{"startTime":1522705412000,"endTime":1522705995000,"departureDelay":0,"arrivalDelay":0,"realTime":false,"distance":740.7710000000001,"pathway":false,"mode":"WALK","route":"","agencyTimeZoneOffset":-14400000,"interlineWithPreviousLeg":false,"from":{"name":"Origin","lon":-71.09069999,"lat":48.446173,"departure":1522705412000,"orig":"","vertexType":"NORMAL"},"to":{"name":"St-Gérard / Pasteur","stopId":"1:733","stopCode":"733","lon":-71.0845,"lat":48.4489,"arrival":1522705995000,"departure":1522705996000,"zoneId":"NA","stopIndex":7,"stopSequence":8,"vertexType":"TRANSIT"},"legGeometry":{"points":"sbufHl`|pLE@kAdAK][eA]gAsA}COa@GQEYEg@Ae@eAAeACGuIEoE?oD?[IGa@{@O]w@mBGHKFI?","length":25},"rentedBike":false,"transitLeg":false,"duration":583.0,"steps":[{"distance":53.136,"relativeDirection":"DEPART","streetName":"Rue Saint-Armand","absoluteDirection":"NORTHWEST","stayOn":false,"area":false,"bogusName":false,"lon":-71.09142170621203,"lat":48.446021702586286,"elevation":[]},{"distance":211.613,"relativeDirection":"RIGHT","streetName":"Rue Vallières","absoluteDirection":"NORTHEAST","stayOn":false,"area":false,"bogusName":false,"lon":-71.0917854,"lat":48.446433000000006,"elevation":[]},{"distance":78.416,"relativeDirection":"LEFT","streetName":"Rue Louis-XIV","absoluteDirection":"NORTH","stayOn":false,"area":false,"bogusName":false,"lon":-71.08935740000001,"lat":48.447391700000004,"elevation":[]},{"distance":203.02300000000002,"relativeDirection":"RIGHT","streetName":"Rue Giffard","absoluteDirection":"EAST","stayOn":false,"area":false,"bogusName":false,"lon":-71.0893258,"lat":48.4480966,"elevation":[]},{"distance":75.112,"relativeDirection":"CONTINUE","streetName":"path","absoluteDirection":"EAST","stayOn":false,"area":false,"bogusName":true,"lon":-71.08657550000001,"lat":48.4481685,"elevation":[]},{"distance":35.026,"relativeDirection":"LEFT","streetName":"Rue Sainte-Marie Sud","absoluteDirection":"NORTHEAST","stayOn":false,"area":false,"bogusName":false,"lon":-71.0855571,"lat":48.448167500000004,"elevation":[]},{"distance":65.535,"relativeDirection":"CONTINUE","streetName":"Rue Saint-Gérard","absoluteDirection":"NORTHEAST","stayOn":false,"area":false,"bogusName":false,"lon":-71.08521470000001,"lat":48.448382800000005,"elevation":[]},{"distance":18.91,"relativeDirection":"LEFT","streetName":"Rue Pasteur Nord","absoluteDirection":"NORTHWEST","stayOn":false,"area":false,"bogusName":false,"lon":-71.0845147,"lat":48.4487454,"elevation":[]}]},{"startTime":1522705996000,"endTime":1522706220000,"departureDelay":0,"arrivalDelay":0,"realTime":false,"distance":2777.903528124614,"pathway":false,"mode":"BUS","route":"21","agencyName":"Société de Transport du Saguenay","agencyUrl":"http://ville.saguenay.ca/fr/services-aux-citoyens/transport-sts","agencyTimeZoneOffset":-14400000,"routeColor":"556B2F","routeType":3,"routeId":"1:21","routeTextColor":"FFFFFF","interlineWithPreviousLeg":false,"tripBlockId":"2","headsign":"Terminus Chicoutimi","agencyId":"0","tripId":"1:217178","serviceDate":"20180402","from":{"name":"St-Gérard / Pasteur","stopId":"1:733","stopCode":"733","lon":-71.0845,"lat":48.4489,"arrival":1522705995000,"departure":1522705996000,"zoneId":"NA","stopIndex":7,"stopSequence":8,"vertexType":"TRANSIT"},"to":{"name":"Élie / Roger","stopId":"1:718","stopCode":"718","lon":-71.119216,"lat":48.45754,"arrival":1522706220000,"departure":1522706221000,"zoneId":"NA","stopIndex":18,"stopSequence":19,"vertexType":"TRANSIT"},"legGeometry":{"points":"_tufHltzpLBFNb@t@xAiCvCMP}@jAY`@q@jAm@jA}@rBmArD?Tu@|CYzAET{AxOQhBQ~Aa@~DQ~A[xCM~AiAjLo@vGk@tFe@vEu@xHgAdLIl@UhCyAnPQhBK`Ae@fFm@vGS`Co@`HQhBQlBAHo@fHc@fEc@`FiDiAOSIMOQOa@GQ","length":50},"routeShortName":"21","routeLongName":"Boul. Ste-Geneviève/Élie","rentedBike":false,"transitLeg":true,"duration":224.0,"steps":[]},{"startTime":1522706221000,"endTime":1522706836000,"departureDelay":0,"arrivalDelay":0,"realTime":false,"distance":782.965,"pathway":false,"mode":"WALK","route":"","agencyTimeZoneOffset":-14400000,"interlineWithPreviousLeg":false,"from":{"name":"Élie / Roger","stopId":"1:718","stopCode":"718","lon":-71.119216,"lat":48.45754,"arrival":1522706220000,"departure":1522706221000,"zoneId":"NA","stopIndex":18,"stopSequence":19,"vertexType":"TRANSIT"},"to":{"name":"Destination","lon":-71.121782,"lat":48.453381,"arrival":1522706836000,"orig":"","vertexType":"NORMAL"},"legGeometry":{"points":"kjwfHzmaqLDHBFFNDRh@p@vAb@f@Pb@PyAnOGv@j@Rh@Nr@MbD}BrA{BLMPAJ@JDbD`ARaB","length":22},"rentedBike":false,"transitLeg":false,"duration":615.0,"steps":[{"distance":148.474,"relativeDirection":"DEPART","streetName":"Rue Élie","absoluteDirection":"SOUTHWEST","stayOn":false,"area":false,"bogusName":false,"lon":-71.11917277645296,"lat":48.4575007379064,"elevation":[]},{"distance":222.242,"relativeDirection":"RIGHT","streetName":"Route Sainte-Geneviève","absoluteDirection":"WEST","stayOn":false,"area":false,"bogusName":false,"lon":-71.12005640000001,"lat":48.4563549,"elevation":[]},{"distance":374.777,"relativeDirection":"LEFT","streetName":"Rue Jeanne","absoluteDirection":"SOUTH","stayOn":false,"area":false,"bogusName":false,"lon":-71.1229769,"lat":48.4568482,"elevation":[]},{"distance":37.472,"relativeDirection":"LEFT","streetName":"Rue Louis-Hudon","absoluteDirection":"EAST","stayOn":false,"area":false,"bogusName":false,"lon":-71.1221245,"lat":48.4538103,"elevation":[]}]}],"tooSloped":false},{"duration":1424,"startTime":1522707332000,"endTime":1522708756000,"walkTime":1198,"transitTime":224,"waitingTime":2,"walkDistance":1524.0296090130826,"walkLimitExceeded":false,"elevationLost":0.0,"elevationGained":0.0,"transfers":0,"legs":[{"startTime":1522707332000,"endTime":1522707915000,"departureDelay":0,"arrivalDelay":0,"realTime":false,"distance":740.7710000000001,"pathway":false,"mode":"WALK","route":"","agencyTimeZoneOffset":-14400000,"interlineWithPreviousLeg":false,"from":{"name":"Origin","lon":-71.09069999,"lat":48.446173,"departure":1522707332000,"orig":"","vertexType":"NORMAL"},"to":{"name":"St-Gérard / Pasteur","stopId":"1:733","stopCode":"733","lon":-71.0845,"lat":48.4489,"arrival":1522707915000,"departure":1522707916000,"zoneId":"NA","stopIndex":7,"stopSequence":8,"vertexType":"TRANSIT"},"legGeometry":{"points":"sbufHl`|pLE@kAdAK][eA]gAsA}COa@GQEYEg@Ae@eAAeACGuIEoE?oD?[IGa@{@O]w@mBGHKFI?","length":25},"rentedBike":false,"transitLeg":false,"duration":583.0,"steps":[{"distance":53.136,"relativeDirection":"DEPART","streetName":"Rue Saint-Armand","absoluteDirection":"NORTHWEST","stayOn":false,"area":false,"bogusName":false,"lon":-71.09142170621203,"lat":48.446021702586286,"elevation":[]},{"distance":211.613,"relativeDirection":"RIGHT","streetName":"Rue Vallières","absoluteDirection":"NORTHEAST","stayOn":false,"area":false,"bogusName":false,"lon":-71.0917854,"lat":48.446433000000006,"elevation":[]},{"distance":78.416,"relativeDirection":"LEFT","streetName":"Rue Louis-XIV","absoluteDirection":"NORTH","stayOn":false,"area":false,"bogusName":false,"lon":-71.08935740000001,"lat":48.447391700000004,"elevation":[]},{"distance":203.02300000000002,"relativeDirection":"RIGHT","streetName":"Rue Giffard","absoluteDirection":"EAST","stayOn":false,"area":false,"bogusName":false,"lon":-71.0893258,"lat":48.4480966,"elevation":[]},{"distance":75.112,"relativeDirection":"CONTINUE","streetName":"path","absoluteDirection":"EAST","stayOn":false,"area":false,"bogusName":true,"lon":-71.08657550000001,"lat":48.4481685,"elevation":[]},{"distance":35.026,"relativeDirection":"LEFT","streetName":"Rue Sainte-Marie Sud","absoluteDirection":"NORTHEAST","stayOn":false,"area":false,"bogusName":false,"lon":-71.0855571,"lat":48.448167500000004,"elevation":[]},{"distance":65.535,"relativeDirection":"CONTINUE","streetName":"Rue Saint-Gérard","absoluteDirection":"NORTHEAST","stayOn":false,"area":false,"bogusName":false,"lon":-71.08521470000001,"lat":48.448382800000005,"elevation":[]},{"distance":18.91,"relativeDirection":"LEFT","streetName":"Rue Pasteur Nord","absoluteDirection":"NORTHWEST","stayOn":false,"area":false,"bogusName":false,"lon":-71.0845147,"lat":48.4487454,"elevation":[]}]},{"startTime":1522707916000,"endTime":1522708140000,"departureDelay":0,"arrivalDelay":0,"realTime":false,"distance":2777.903528124614,"pathway":false,"mode":"BUS","route":"21","agencyName":"Société de Transport du Saguenay","agencyUrl":"http://ville.saguenay.ca/fr/services-aux-citoyens/transport-sts","agencyTimeZoneOffset":-14400000,"routeColor":"556B2F","routeType":3,"routeId":"1:21","routeTextColor":"FFFFFF","interlineWithPreviousLeg":false,"tripBlockId":"2","headsign":"Terminus Chicoutimi","agencyId":"0","tripId":"1:217179","serviceDate":"20180402","from":{"name":"St-Gérard / Pasteur","stopId":"1:733","stopCode":"733","lon":-71.0845,"lat":48.4489,"arrival":1522707915000,"departure":1522707916000,"zoneId":"NA","stopIndex":7,"stopSequence":8,"vertexType":"TRANSIT"},"to":{"name":"Élie / Roger","stopId":"1:718","stopCode":"718","lon":-71.119216,"lat":48.45754,"arrival":1522708140000,"departure":1522708141000,"zoneId":"NA","stopIndex":18,"stopSequence":19,"vertexType":"TRANSIT"},"legGeometry":{"points":"_tufHltzpLBFNb@t@xAiCvCMP}@jAY`@q@jAm@jA}@rBmArD?Tu@|CYzAET{AxOQhBQ~Aa@~DQ~A[xCM~AiAjLo@vGk@tFe@vEu@xHgAdLIl@UhCyAnPQhBK`Ae@fFm@vGS`Co@`HQhBQlBAHo@fHc@fEc@`FiDiAOSIMOQOa@GQ","length":50},"routeShortName":"21","routeLongName":"Boul. Ste-Geneviève/Élie","rentedBike":false,"transitLeg":true,"duration":224.0,"steps":[]},{"startTime":1522708141000,"endTime":1522708756000,"departureDelay":0,"arrivalDelay":0,"realTime":false,"distance":782.965,"pathway":false,"mode":"WALK","route":"","agencyTimeZoneOffset":-14400000,"interlineWithPreviousLeg":false,"from":{"name":"Élie / Roger","stopId":"1:718","stopCode":"718","lon":-71.119216,"lat":48.45754,"arrival":1522708140000,"departure":1522708141000,"zoneId":"NA","stopIndex":18,"stopSequence":19,"vertexType":"TRANSIT"},"to":{"name":"Destination","lon":-71.121782,"lat":48.453381,"arrival":1522708756000,"orig":"","vertexType":"NORMAL"},"legGeometry":{"points":"kjwfHzmaqLDHBFFNDRh@p@vAb@f@Pb@PyAnOGv@j@Rh@Nr@MbD}BrA{BLMPAJ@JDbD`ARaB","length":22},"rentedBike":false,"transitLeg":false,"duration":615.0,"steps":[{"distance":148.474,"relativeDirection":"DEPART","streetName":"Rue Élie","absoluteDirection":"SOUTHWEST","stayOn":false,"area":false,"bogusName":false,"lon":-71.11917277645296,"lat":48.4575007379064,"elevation":[]},{"distance":222.242,"relativeDirection":"RIGHT","streetName":"Route Sainte-Geneviève","absoluteDirection":"WEST","stayOn":false,"area":false,"bogusName":false,"lon":-71.12005640000001,"lat":48.4563549,"elevation":[]},{"distance":374.777,"relativeDirection":"LEFT","streetName":"Rue Jeanne","absoluteDirection":"SOUTH","stayOn":false,"area":false,"bogusName":false,"lon":-71.1229769,"lat":48.4568482,"elevation":[]},{"distance":37.472,"relativeDirection":"LEFT","streetName":"Rue Louis-Hudon","absoluteDirection":"EAST","stayOn":false,"area":false,"bogusName":false,"lon":-71.1221245,"lat":48.4538103,"elevation":[]}]}],"tooSloped":false}]},"debugOutput":{"precalculationTime":7,"pathCalculationTime":26,"pathTimes":[15,7,4],"renderingTime":0,"totalTime":33,"timedOut":false},"elevationMetadata":{"ellipsoidToGeoidDifference":-28.885904201182168,"geoidElevation":false}}