{"requestParameters":{"date":"2018/04/02","walkSpeed":"1.33","walkReluctance":"2.0","fromPlace":"48.443416,-71.07852499","maxWalkDistance":"3000","waitReluctance":"1.0","carSpeed":"33","numItineraries":"3","waitAtBeginningFactor":"0.4","mode":"TRANSIT,WALK","ignoreRealtimeUpdates":"false","stairsReluctance":"2.0","toPlace":"48.460542,-71.145859","time":"15:35:00"},"plan":{"date":1522697700000,"from":{"name":"Origin","lon":-71.07852499,"lat":48.443416,"orig":"","vertexType":"NORMAL"},"to":{"name":"Destination","lon":-71.145859,"lat":48.460542,"orig":"","vertexType":"NORMAL"},"itineraries":[{"duration":2138,"startTime":1522698482000,"endTime":1522700620000,"walkTime":1754,"transitTime":382,"waitingTime":2,"walkDistance":2301.076789469948,"walkLimitExceeded":false,"elevationLost":0.0,"elevationGained":0.0,"transfers":0,"legs":[{"startTime":1522698482000,"endTime":1522698637000,"departureDelay":0,"arrivalDelay":0,"realTime":false,"distance":193.902,"pathway":false,"mode":"WALK","route":"","agencyTimeZoneOffset":-14400000,"interlineWithPreviousLeg":false,"from":{"name":"Origin","lon":-71.07852499,"lat":48.443416,"departure":1522698482000,"orig":"","vertexType":"NORMAL"},"to":{"name":"Place de la Colline (boul. Ste-Geneviève)","stopId":"1:706","stopCode":"706","lon":-71.080094,"lat":48.44485,"arrival":1522698637000,"departure":1522698638000,"zoneId":"NA","stopIndex":2,"stopSequence":3,"vertexType":"TRANSIT"},"legGeometry":{"points":"eutfHjmypLcAtDQSeBjF","length":4},"rentedBike":false,"transitLeg":false,"duration":155.0,"steps":[{"distance":193.902,"relativeDirection":"DEPART","streetName":"Boulevard Sainte-Geneviève","absoluteDirection":"NORTHWEST","stayOn":false,"area":false,"bogusName":false,"lon":-71.0781387826346,"lat":48.44387841675082,"elevation":[]}]},{"startTime":1522698638000,"endTime":1522699020000,"departureDelay":0,"arrivalDelay":0,"realTime":false,"distance":4207.2657894938275,"pathway":false,"mode":"BUS","route":"21","agencyName":"Société de Transport du Saguenay","agencyUrl":"http://ville.saguenay.ca/fr/services-aux-citoyens/transport-sts","agencyTimeZoneOffset":-14400000,"routeColor":"556B2F","routeType":3,"routeId":"1:21","routeTextColor":"FFFFFF","interlineWithPreviousLeg":false,"tripBlockId":"2","headsign":"Terminus Chicoutimi","agencyId":"0","tripId":"1:217174","serviceDate":"20180402","from":{"name":"Place de la Colline (boul. Ste-Geneviève)","stopId":"1:706","stopCode":"706","lon":-71.080094,"lat":48.44485,"arrival":1522698637000,"departure":1522698638000,"zoneId":"NA","stopIndex":2,"stopSequence":3,"vertexType":"TRANSIT"},"to":{"name":"Élie / Roger","stopId":"1:718","stopCode":"718","lon":-71.119216,"lat":48.45754,"arrival":1522699020000,"departure":1522699021000,"zoneId":"NA","stopIndex":18,"stopSequence":19,"vertexType":"TRANSIT"},"legGeometry":{"points":"{ztfH~yypLCD}@hCo@~Aq@pAs@fAWs@IUC[AI?QCeGAs@Gy@Ks@Ou@OcAIcAIgAWgCG_@Og@IQS]UWYQWIUA[Da@P]RSVQ`@Ib@Ef@Et@Gf@Id@I`@Od@cCxFQOgAwA_FqGO[`BcEY_@MOaBtDLTh@bATZpGlIPNa@fAOn@Gd@UtBA^A^R`E^fGRbAVl@P`@BFNb@t@xAiCvCMP}@jAY`@q@jAm@jA}@rBmArD?Tu@|CYzAET{AxOQhBQ~Aa@~DQ~A[xCM~AiAjLo@vGk@tFe@vEu@xHgAdLIl@UhCyAnPQhBK`Ae@fFm@vGS`Co@`HQhBQlBAHo@fHc@fEc@`FiDiAOSIMOQOa@GQ","length":114},"routeShortName":"21","routeLongName":"Boul. Ste-Geneviève/Élie","rentedBike":false,"transitLeg":true,"duration":382.0,"steps":[]},{"startTime":1522699021000,"endTime":1522700620000,"departureDelay":0,"arrivalDelay":0,"realTime":false,"distance":2107.059,"pathway":false,"mode":"WALK","route":"","agencyTimeZoneOffset":-14400000,"interlineWithPreviousLeg":false,"from":{"name":"Élie / Roger","stopId":"1:718","stopCode":"718","lon":-71.119216,"lat":48.45754,"arrival":1522699020000,"departure":1522699021000,"zoneId":"NA","stopIndex":18,"stopSequence":19,"vertexType":"TRANSIT"},"to":{"name":"Destination","lon":-71.145859,"lat":48.460542,"arrival":1522700620000,"orig":"","vertexType":"NORMAL"},"legGeometry":{"points":"kjwfHzmaqLDHBFFNDRh@p@vAb@f@Pb@PyAnOGv@u@~Hq@dHMpAGt@yCb[oB~RAH{BxTk@zFUvBmEbd@","length":22},"rentedBike":false,"transitLeg":false,"duration":1599.0,"steps":[{"distance":148.474,"relativeDirection":"DEPART","streetName":"Rue Élie","absoluteDirection":"SOUTHWEST","stayOn":false,"area":false,"bogusName":false,"lon":-71.11917277645296,"lat":48.4575007379064,"elevation":[]},{"distance":1958.585,"relativeDirection":"RIGHT","streetName":"Route Sainte-Geneviève","absoluteDirection":"WEST","stayOn":false,"area":false,"bogusName":false,"lon":-71.12005640000001,"lat":48.4563549,"elevation":[]}]}],"tooSloped":false},{"duration":2138,"startTime":1522700282000,"endTime":1522702420000,"walkTime":1754,"transitTime":382,"waitingTime":2,"walkDistance":2301.076789469948,"walkLimitExceeded":false,"elevationLost":0.0,"elevationGained":0.0,"transfers":0,"legs":[{"startTime":1522700282000,"endTime":1522700437000,"departureDelay":0,"arrivalDelay":0,"realTime":false,"distance":193.902,"pathway":false,"mode":"WALK","route":"","agencyTimeZoneOffset":-14400000,"interlineWithPreviousLeg":false,"from":{"name":"Origin","lon":-71.07852499,"lat":48.443416,"departure":1522700282000,"orig":"","vertexType":"NORMAL"},"to":{"name":"Place de la Colline (boul. Ste-Geneviève)","stopId":"1:706","stopCode":"706","lon":-71.080094,"lat":48.44485,"arrival":1522700437000,"departure":1522700438000,"zoneId":"NA","stopIndex":2,"stopSequence":3,"vertexType":"TRANSIT"},"legGeometry":{"points":"eutfHjmypLcAtDQSeBjF","length":4},"rentedBike":false,"transitLeg":false,"duration":155.0,"steps":[{"distance":193.902,"relativeDirection":"DEPART","streetName":"Boulevard Sainte-Geneviève","absoluteDirection":"NORTHWEST","stayOn":false,"area":false,"bogusName":false,"lon":-71.0781387826346,"lat":48.44387841675082,"elevation":[]}]},{"startTime":1522700438000,"endTime":1522700820000,"departureDelay":0,"arrivalDelay":0,"realTime":false,"distance":4207.2657894938275,"pathway":false,"mode":"BUS","route":"21","agencyName":"Société de Transport du Saguenay","agencyUrl":"http://ville.saguenay.ca/fr/services-aux-citoyens/transport-sts","agencyTimeZoneOffset":-14400000,"routeColor":"556B2F","routeType":3,"routeId":"1:21","routeTextColor":"FFFFFF","interlineWithPreviousLeg":false,"tripBlockId":"2","headsign":"Terminus Chicoutimi","agencyId":"0","tripId":"1:217175","serviceDate":"20180402","from":{"name":"Place de la Colline (boul. Ste-Geneviève)","stopId":"1:706","stopCode":"706","lon":-71.080094,"lat":48.44485,"arrival":1522700437000,"departure":1522700438000,"zoneId":"NA","stopIndex":2,"stopSequence":3,"vertexType":"TRANSIT"},"to":{"name":"Élie / Roger","stopId":"1:718","stopCode":"718","lon":-71.119216,"lat":48.45754,"arrival":1522700820000,"departure":1522700821000,"zoneId":"NA","stopIndex":18,"stopSequence":19,"vertexType":"TRANSIT"},"legGeometry":{"points":"{ztfH~yypLCD}@hCo@~Aq@pAs@fAWs@IUC[AI?QCeGAs@Gy@Ks@Ou@OcAIcAIgAWgCG_@Og@IQS]UWYQWIUA[Da@P]RSVQ`@Ib@Ef@Et@Gf@Id@I`@Od@cCxFQOgAwA_FqGO[`BcEY_@MOaBtDLTh@bATZpGlIPNa@fAOn@Gd@UtBA^A^R`E^fGRbAVl@P`@BFNb@t@xAiCvCMP}@jAY`@q@jAm@jA}@rBmArD?Tu@|CYzAET{AxOQhBQ~Aa@~DQ~A[xCM~AiAjLo@vGk@tFe@vEu@xHgAdLIl@UhCyAnPQhBK`Ae@fFm@vGS`Co@`HQhBQlBAHo@fHc@fEc@`FiDiAOSIMOQOa@GQ","length":114},"routeShortName":"21","routeLongName":"Boul. Ste-Geneviève/Élie","rentedBike":false,"transitLeg":true,"duration":382.0,"steps":[]},{"startTime":1522700821000,"endTime":1522702420000,"departureDelay":0,"arrivalDelay":0,"realTime":false,"distance":2107.059,"pathway":false,"mode":"WALK","route":"","agencyTimeZoneOffset":-14400000,"interlineWithPreviousLeg":false,"from":{"name":"Élie / Roger","stopId":"1:718","stopCode":"718","lon":-71.119216,"lat":48.45754,"arrival":1522700820000,"departure":1522700821000,"zoneId":"NA","stopIndex":18,"stopSequence":19,"vertexType":"TRANSIT"},"to":{"name":"Destination","lon":-71.145859,"lat":48.460542,"arrival":1522702420000,"orig":"","vertexType":"NORMAL"},"legGeometry":{"points":"kjwfHzmaqLDHBFFNDRh@p@vAb@f@Pb@PyAnOGv@u@~Hq@dHMpAGt@yCb[oB~RAH{BxTk@zFUvBmEbd@","length":22},"rentedBike":false,"transitLeg":false,"duration":1599.0,"steps":[{"distance":148.474,"relativeDirection":"DEPART","streetName":"Rue Élie","absoluteDirection":"SOUTHWEST","stayOn":false,"area":false,"bogusName":false,"lon":-71.11917277645296,"lat":48.4575007379064,"elevation":[]},{"distance":1958.585,"relativeDirection":"RIGHT","streetName":"Route Sainte-Geneviève","absoluteDirection":"WEST","stayOn":false,"area":false,"bogusName":false,"lon":-71.12005640000001,"lat":48.4563549,"elevation":[]}]}],"tooSloped":false},{"duration":523,"startTime":1522704118000,"endTime":1522704641000,"walkTime":190,"transitTime":331,"waitingTime":2,"walkDistance":240.10166917074883,"walkLimitExceeded":false,"elevationLost":0.0,"elevationGained":0.0,"transfers":0,"legs":[{"startTime":1522704118000,"endTime":1522704273000,"departureDelay":0,"arrivalDelay":0,"realTime":false,"distance":193.902,"pathway":false,"mode":"WALK","route":"","agencyTimeZoneOffset":-14400000,"interlineWithPreviousLeg":false,"from":{"name":"Origin","lon":-71.07852499,"lat":48.443416,"departure":1522704118000,"orig":"","vertexType":"NORMAL"},"to":{"name":"Place de la Colline (boul. Ste-Geneviève)","stopId":"1:706","stopCode":"706","lon":-71.080094,"lat":48.44485,"arrival":1522704273000,"departure":1522704274000,"zoneId":"NA","stopIndex":2,"stopSequence":3,"vertexType":"TRANSIT"},"legGeometry":{"points":"eutfHjmypLcAtDQSeBjF","length":4},"rentedBike":false,"transitLeg":false,"duration":155.0,"steps":[{"distance":193.902,"relativeDirection":"DEPART","streetName":"Boulevard Sainte-Geneviève","absoluteDirection":"NORTHWEST","stayOn":false,"area":false,"bogusName":false,"lon":-71.0781387826346,"lat":48.44387841675082,"elevation":[]}]},{"startTime":1522704274000,"endTime":1522704605000,"departureDelay":0,"arrivalDelay":0,"realTime":false,"distance":5320.881984027276,"pathway":false,"mode":"BUS","route":"65","agencyName":"Société de Transport du Saguenay","agencyUrl":"http://ville.saguenay.ca/fr/services-aux-citoyens/transport-sts","agencyTimeZoneOffset":-14400000,"routeColor":"00FFFF","routeType":3,"routeId":"1:65","routeTextColor":"000000","interlineWithPreviousLeg":false,"tripBlockId":"104","headsign":"Épicerie culinaire","agencyId":"0","tripId":"1:218803","serviceDate":"20180402","from":{"name":"Place de la Colline (boul. Ste-Geneviève)","stopId":"1:706","stopCode":"706","lon":-71.080094,"lat":48.44485,"arrival":1522704273000,"departure":1522704274000,"zoneId":"NA","stopIndex":2,"stopSequence":3,"vertexType":"TRANSIT"},"to":{"name":"boul. Ste-Geneviève (no. 2506)","stopId":"1:2178","stopCode":"2178","lon":-71.146352,"lat":48.460931,"arrival":1522704605000,"departure":1522704606000,"zoneId":"NA","stopIndex":17,"stopSequence":18,"vertexType":"TRANSIT"},"legGeometry":{"points":"{ztfH~yypLCD}@hCo@~Aq@pAs@fA{BlCoOrQMP}@jAY`@q@jAm@jA}@rBmArD?Tu@|CYzAEToB`SmBzRyBbUoAlM_C~UIl@WhCqBvSaB`QyAjO{It~@_Hts@wBzT}Gps@","length":33},"routeShortName":"65","routeLongName":"Term. Chic / Shipshaw","rentedBike":false,"transitLeg":true,"duration":331.0,"steps":[]},{"startTime":1522704606000,"endTime":1522704641000,"departureDelay":0,"arrivalDelay":0,"realTime":false,"distance":46.132,"pathway":false,"mode":"WALK","route":"","agencyTimeZoneOffset":-14400000,"interlineWithPreviousLeg":false,"from":{"name":"boul. Ste-Geneviève (no. 2506)","stopId":"1:2178","stopCode":"2178","lon":-71.146352,"lat":48.460931,"arrival":1522704605000,"departure":1522704606000,"zoneId":"NA","stopIndex":17,"stopSequence":18,"vertexType":"TRANSIT"},"to":{"name":"Destination","lon":-71.145859,"lat":48.460542,"arrival":1522704641000,"orig":"","vertexType":"NORMAL"},"legGeometry":{"points":"q_xfHxwfqLRwB","length":2},"rentedBike":false,"transitLeg":false,"duration":35.0,"steps":[{"distance":46.132,"relativeDirection":"DEPART","streetName":"Route Sainte-Geneviève","absoluteDirection":"EAST","stayOn":false,"area":false,"bogusName":false,"lon":-71.14636553994357,"lat":48.460896747020314,"elevation":[]}]}],"tooSloped":false}]},"debugOutput":{"precalculationTime":9,"pathCalculationTime":36,"pathTimes":[16,9,11],"renderingTime":0,"totalTime":45,"timedOut":false},"elevationMetadata":{"ellipsoidToGeoidDifference":-28.885904201182168,"geoidElevation":false}}