{"requestParameters":{"date":"2018/04/02","walkSpeed":"1.33","walkReluctance":"2.0","fromPlace":"48.454432,-71.121741","maxWalkDistance":"3000","waitReluctance":"1.0","carSpeed":"33","numItineraries":"3","waitAtBeginningFactor":"0.4","mode":"TRANSIT,WALK","ignoreRealtimeUpdates":"false","stairsReluctance":"2.0","toPlace":"48.418311,-71.070214","time":"9:30:00"},"plan":{"date":1522675800000,"from":{"name":"Origin","lon":-71.121741,"lat":48.454432,"orig":"","vertexType":"NORMAL"},"to":{"name":"Destination","lon":-71.070214,"lat":48.418311,"orig":"","vertexType":"NORMAL"},"itineraries":[{"duration":2148,"startTime":1522677191000,"endTime":1522679339000,"walkTime":1564,"transitTime":582,"waitingTime":2,"walkDistance":2010.7506917220087,"walkLimitExceeded":false,"elevationLost":0.0,"elevationGained":0.0,"transfers":0,"legs":[{"startTime":1522677191000,"endTime":1522677617000,"departureDelay":0,"arrivalDelay":0,"realTime":false,"distance":543.868,"pathway":false,"mode":"WALK","route":"","agencyTimeZoneOffset":-14400000,"interlineWithPreviousLeg":false,"from":{"name":"Origin","lon":-71.121741,"lat":48.454432,"departure":1522677191000,"orig":"","vertexType":"NORMAL"},"to":{"name":"Élie / boul. Ste-Geneviève","stopId":"1:408","stopCode":"408","lon":-71.120142,"lat":48.456571,"arrival":1522677617000,"departure":1522677618000,"zoneId":"NA","stopIndex":19,"stopSequence":20,"vertexType":"TRANSIT"},"legGeometry":{"points":"iwvfHt~aqLc@MKEKAQ@MLsAzBcD|Bs@Li@Ok@SFw@xAoOc@Q","length":14},"rentedBike":false,"transitLeg":false,"duration":426.0,"steps":[{"distance":300.671,"relativeDirection":"DEPART","streetName":"Rue Jeanne","absoluteDirection":"NORTH","stayOn":false,"area":false,"bogusName":false,"lon":-71.12186320713035,"lat":48.4544538256685,"elevation":[]},{"distance":222.242,"relativeDirection":"RIGHT","streetName":"Route Sainte-Geneviève","absoluteDirection":"EAST","stayOn":false,"area":false,"bogusName":false,"lon":-71.1229769,"lat":48.4568482,"elevation":[]},{"distance":20.955,"relativeDirection":"LEFT","streetName":"Rue Élie","absoluteDirection":"NORTH","stayOn":false,"area":false,"bogusName":false,"lon":-71.12005640000001,"lat":48.4563549,"elevation":[]}]},{"startTime":1522677618000,"endTime":1522678200000,"departureDelay":0,"arrivalDelay":0,"realTime":false,"distance":5547.345620239571,"pathway":false,"mode":"BUS","route":"21","agencyName":"Société de Transport du Saguenay","agencyUrl":"http://ville.saguenay.ca/fr/services-aux-citoyens/transport-sts","agencyTimeZoneOffset":-14400000,"routeColor":"556B2F","routeType":3,"routeId":"1:21","routeTextColor":"FFFFFF","interlineWithPreviousLeg":false,"tripBlockId":"2","headsign":"Terminus Chicoutimi","agencyId":"0","tripId":"1:217162","serviceDate":"20180402","from":{"name":"Élie / boul. Ste-Geneviève","stopId":"1:408","stopCode":"408","lon":-71.120142,"lat":48.456571,"arrival":1522677617000,"departure":1522677618000,"zoneId":"NA","stopIndex":19,"stopSequence":20,"vertexType":"TRANSIT"},"to":{"name":"Terminus Chicoutimi","stopId":"1:1289","stopCode":"1289","lon":-71.066163,"lat":48.428677,"arrival":1522678200000,"departure":1522678201000,"zoneId":"NA","stopIndex":34,"stopSequence":35,"vertexType":"TRANSIT"},"legGeometry":{"points":"idwfHxraqLj@Rb@aF\\eDDa@n@gH@Ib@wEn@aH?A`AwK^}DDi@\\kD~AyQN_BHm@fAeLd@{Et@uHZyC~@sJjAyLJqAZyCP_BZuCDi@b@iExAsO@E^qBt@}CJGnAmDx@iBpAcCb@o@Zi@h@o@`AiArFkG`FgGdBwBt@cAbAmBx@eBj@eB`CoHpCyJbAmCtAuCZg@|@gBxAsCrCmFhHqN~@eBr@cAt@_Av@}@RQPMz@k@tAe@REZG^Af@@X@VF`@Jn@XbClAr@Xt\\`PrAb@pA^hBTjAFj@Pb@JPHLLJNJRFXDT?X?ZEVEVKTMNMHMFOB}DWSGOSYcAN}FFkAF}DJyDPwGvAHVyL","length":108},"routeShortName":"21","routeLongName":"Boul. Ste-Geneviève/Élie","rentedBike":false,"transitLeg":true,"duration":582.0,"steps":[]},{"startTime":1522678201000,"endTime":1522679339000,"departureDelay":0,"arrivalDelay":0,"realTime":false,"distance":1466.6560000000004,"pathway":false,"mode":"WALK","route":"","agencyTimeZoneOffset":-14400000,"interlineWithPreviousLeg":false,"from":{"name":"Terminus Chicoutimi","stopId":"1:1289","stopCode":"1289","lon":-71.066163,"lat":48.428677,"arrival":1522678200000,"departure":1522678201000,"zoneId":"NA","stopIndex":34,"stopSequence":35,"vertexType":"TRANSIT"},"to":{"name":"Destination","lon":-71.070214,"lat":48.418311,"arrival":1522679339000,"orig":"","vertexType":"NORMAL"},"legGeometry":{"points":"{uqfHb~vpLbAJR@JDb@LrBHP@jCPrAFzBT^BPF@n@j@f@n@pBf@dA`BtDh@nALLb@n@l@DzBNd@BxAFt@Dr@DR@P@L@jBNfCPRB\\EhBNd@Cz@AXKx@WFC\\E^Kn@MV?b@BN?APGl@Q`@[l@c@zAEV","length":51},"rentedBike":false,"transitLeg":false,"duration":1138.0,"steps":[{"distance":374.48300000000006,"relativeDirection":"DEPART","streetName":"Rue Morin","absoluteDirection":"SOUTH","stayOn":false,"area":false,"bogusName":false,"lon":-71.0654590096484,"lat":48.428628638946556,"elevation":[]},{"distance":17.515,"relativeDirection":"RIGHT","streetName":"Rue Price Est","absoluteDirection":"WEST","stayOn":false,"area":false,"bogusName":false,"lon":-71.06598410000001,"lat":48.4252842,"elevation":[]},{"distance":272.594,"relativeDirection":"LEFT","streetName":"path","absoluteDirection":"SOUTHWEST","stayOn":false,"area":false,"bogusName":true,"lon":-71.0662212,"lat":48.425276600000004,"elevation":[]},{"distance":547.586,"relativeDirection":"SLIGHTLY_LEFT","streetName":"Rue Sainte-Anne","absoluteDirection":"SOUTH","stayOn":false,"area":false,"bogusName":false,"lon":-71.06896330000001,"lat":48.423667200000004,"elevation":[]},{"distance":142.52,"relativeDirection":"CONTINUE","streetName":"Rue Jolliet","absoluteDirection":"SOUTH","stayOn":false,"area":false,"bogusName":false,"lon":-71.0693796,"lat":48.418765,"elevation":[]},{"distance":111.958,"relativeDirection":"RIGHT","streetName":"service road","absoluteDirection":"WEST","stayOn":false,"area":false,"bogusName":false,"lon":-71.0690988,"lat":48.4175072,"elevation":[]}]}],"tooSloped":false},{"duration":2148,"startTime":1522678991000,"endTime":1522681139000,"walkTime":1564,"transitTime":582,"waitingTime":2,"walkDistance":2010.7506917220087,"walkLimitExceeded":false,"elevationLost":0.0,"elevationGained":0.0,"transfers":0,"legs":[{"startTime":1522678991000,"endTime":1522679417000,"departureDelay":0,"arrivalDelay":0,"realTime":false,"distance":543.868,"pathway":false,"mode":"WALK","route":"","agencyTimeZoneOffset":-14400000,"interlineWithPreviousLeg":false,"from":{"name":"Origin","lon":-71.121741,"lat":48.454432,"departure":1522678991000,"orig":"","vertexType":"NORMAL"},"to":{"name":"Élie / boul. Ste-Geneviève","stopId":"1:408","stopCode":"408","lon":-71.120142,"lat":48.456571,"arrival":1522679417000,"departure":1522679418000,"zoneId":"NA","stopIndex":19,"stopSequence":20,"vertexType":"TRANSIT"},"legGeometry":{"points":"iwvfHt~aqLc@MKEKAQ@MLsAzBcD|Bs@Li@Ok@SFw@xAoOc@Q","length":14},"rentedBike":false,"transitLeg":false,"duration":426.0,"steps":[{"distance":300.671,"relativeDirection":"DEPART","streetName":"Rue Jeanne","absoluteDirection":"NORTH","stayOn":false,"area":false,"bogusName":false,"lon":-71.12186320713035,"lat":48.4544538256685,"elevation":[]},{"distance":222.242,"relativeDirection":"RIGHT","streetName":"Route Sainte-Geneviève","absoluteDirection":"EAST","stayOn":false,"area":false,"bogusName":false,"lon":-71.1229769,"lat":48.4568482,"elevation":[]},{"distance":20.955,"relativeDirection":"LEFT","streetName":"Rue Élie","absoluteDirection":"NORTH","stayOn":false,"area":false,"bogusName":false,"lon":-71.12005640000001,"lat":48.4563549,"elevation":[]}]},{"startTime":1522679418000,"endTime":1522680000000,"departureDelay":0,"arrivalDelay":0,"realTime":false,"distance":5547.345620239571,"pathway":false,"mode":"BUS","route":"21","agencyName":"Société de Transport du Saguenay","agencyUrl":"http://ville.saguenay.ca/fr/services-aux-citoyens/transport-sts","agencyTimeZoneOffset":-14400000,"routeColor":"556B2F","routeType":3,"routeId":"1:21","routeTextColor":"FFFFFF","interlineWithPreviousLeg":false,"tripBlockId":"2","headsign":"Terminus Chicoutimi","agencyId":"0","tripId":"1:217163","serviceDate":"20180402","from":{"name":"Élie / boul. Ste-Geneviève","stopId":"1:408","stopCode":"408","lon":-71.120142,"lat":48.456571,"arrival":1522679417000,"departure":1522679418000,"zoneId":"NA","stopIndex":19,"stopSequence":20,"vertexType":"TRANSIT"},"to":{"name":"Terminus Chicoutimi","stopId":"1:1289","stopCode":"1289","lon":-71.066163,"lat":48.428677,"arrival":1522680000000,"departure":1522680001000,"zoneId":"NA","stopIndex":34,"stopSequence":35,"vertexType":"TRANSIT"},"legGeometry":{"points":"idwfHxraqLj@Rb@aF\\eDDa@n@gH@Ib@wEn@aH?A`AwK^}DDi@\\kD~AyQN_BHm@fAeLd@{Et@uHZyC~@sJjAyLJqAZyCP_BZuCDi@b@iExAsO@E^qBt@}CJGnAmDx@iBpAcCb@o@Zi@h@o@`AiArFkG`FgGdBwBt@cAbAmBx@eBj@eB`CoHpCyJbAmCtAuCZg@|@gBxAsCrCmFhHqN~@eBr@cAt@_Av@}@RQPMz@k@tAe@REZG^Af@@X@VF`@Jn@XbClAr@Xt\\`PrAb@pA^hBTjAFj@Pb@JPHLLJNJRFXDT?X?ZEVEVKTMNMHMFOB}DWSGOSYcAN}FFkAF}DJyDPwGvAHVyL","length":108},"routeShortName":"21","routeLongName":"Boul. Ste-Geneviève/Élie","rentedBike":false,"transitLeg":true,"duration":582.0,"steps":[]},{"startTime":1522680001000,"endTime":1522681139000,"departureDelay":0,"arrivalDelay":0,"realTime":false,"distance":1466.6560000000004,"pathway":false,"mode":"WALK","route":"","agencyTimeZoneOffset":-14400000,"interlineWithPreviousLeg":false,"from":{"name":"Terminus Chicoutimi","stopId":"1:1289","stopCode":"1289","lon":-71.066163,"lat":48.428677,"arrival":1522680000000,"departure":1522680001000,"zoneId":"NA","stopIndex":34,"stopSequence":35,"vertexType":"TRANSIT"},"to":{"name":"Destination","lon":-71.070214,"lat":48.418311,"arrival":1522681139000,"orig":"","vertexType":"NORMAL"},"legGeometry":{"points":"{uqfHb~vpLbAJR@JDb@LrBHP@jCPrAFzBT^BPF@n@j@f@n@pBf@dA`BtDh@nALLb@n@l@DzBNd@BxAFt@Dr@DR@P@L@jBNfCPRB\\EhBNd@Cz@AXKx@WFC\\E^Kn@MV?b@BN?APGl@Q`@[l@c@zAEV","length":51},"rentedBike":false,"transitLeg":false,"duration":1138.0,"steps":[{"distance":374.48300000000006,"relativeDirection":"DEPART","streetName":"Rue Morin","absoluteDirection":"SOUTH","stayOn":false,"area":false,"bogusName":false,"lon":-71.0654590096484,"lat":48.428628638946556,"elevation":[]},{"distance":17.515,"relativeDirection":"RIGHT","streetName":"Rue Price Est","absoluteDirection":"WEST","stayOn":false,"area":false,"bogusName":false,"lon":-71.06598410000001,"lat":48.4252842,"elevation":[]},{"distance":272.594,"relativeDirection":"LEFT","streetName":"path","absoluteDirection":"SOUTHWEST","stayOn":false,"area":false,"bogusName":true,"lon":-71.0662212,"lat":48.425276600000004,"elevation":[]},{"distance":547.586,"relativeDirection":"SLIGHTLY_LEFT","streetName":"Rue Sainte-Anne","absoluteDirection":"SOUTH","stayOn":false,"area":false,"bogusName":false,"lon":-71.06896330000001,"lat":48.423667200000004,"elevation":[]},{"distance":142.52,"relativeDirection":"CONTINUE","streetName":"Rue Jolliet","absoluteDirection":"SOUTH","stayOn":false,"area":false,"bogusName":false,"lon":-71.0693796,"lat":48.418765,"elevation":[]},{"distance":111.958,"relativeDirection":"RIGHT","streetName":"service road","absoluteDirection":"WEST","stayOn":false,"area":false,"bogusName":false,"lon":-71.0690988,"lat":48.4175072,"elevation":[]}]}],"tooSloped":false},{"duration":2148,"startTime":1522680791000,"endTime":1522682939000,"walkTime":1564,"transitTime":582,"waitingTime":2,"walkDistance":2010.7506917220087,"walkLimitExceeded":false,"elevationLost":0.0,"elevationGained":0.0,"transfers":0,"legs":[{"startTime":1522680791000,"endTime":1522681217000,"departureDelay":0,"arrivalDelay":0,"realTime":false,"distance":543.868,"pathway":false,"mode":"WALK","route":"","agencyTimeZoneOffset":-14400000,"interlineWithPreviousLeg":false,"from":{"name":"Origin","lon":-71.121741,"lat":48.454432,"departure":1522680791000,"orig":"","vertexType":"NORMAL"},"to":{"name":"Élie / boul. Ste-Geneviève","stopId":"1:408","stopCode":"408","lon":-71.120142,"lat":48.456571,"arrival":1522681217000,"departure":1522681218000,"zoneId":"NA","stopIndex":19,"stopSequence":20,"vertexType":"TRANSIT"},"legGeometry":{"points":"iwvfHt~aqLc@MKEKAQ@MLsAzBcD|Bs@Li@Ok@SFw@xAoOc@Q","length":14},"rentedBike":false,"transitLeg":false,"duration":426.0,"steps":[{"distance":300.671,"relativeDirection":"DEPART","streetName":"Rue Jeanne","absoluteDirection":"NORTH","stayOn":false,"area":false,"bogusName":false,"lon":-71.12186320713035,"lat":48.4544538256685,"elevation":[]},{"distance":222.242,"relativeDirection":"RIGHT","streetName":"Route Sainte-Geneviève","absoluteDirection":"EAST","stayOn":false,"area":false,"bogusName":false,"lon":-71.1229769,"lat":48.4568482,"elevation":[]},{"distance":20.955,"relativeDirection":"LEFT","streetName":"Rue Élie","absoluteDirection":"NORTH","stayOn":false,"area":false,"bogusName":false,"lon":-71.12005640000001,"lat":48.4563549,"elevation":[]}]},{"startTime":1522681218000,"endTime":1522681800000,"departureDelay":0,"arrivalDelay":0,"realTime":false,"distance":5547.345620239571,"pathway":false,"mode":"BUS","route":"21","agencyName":"Société de Transport du Saguenay","agencyUrl":"http://ville.saguenay.ca/fr/services-aux-citoyens/transport-sts","agencyTimeZoneOffset":-14400000,"routeColor":"556B2F","routeType":3,"routeId":"1:21","routeTextColor":"FFFFFF","interlineWithPreviousLeg":false,"tripBlockId":"2","headsign":"Terminus Chicoutimi","agencyId":"0","tripId":"1:217164","serviceDate":"20180402","from":{"name":"Élie / boul. Ste-Geneviève","stopId":"1:408","stopCode":"408","lon":-71.120142,"lat":48.456571,"arrival":1522681217000,"departure":1522681218000,"zoneId":"NA","stopIndex":19,"stopSequence":20,"vertexType":"TRANSIT"},"to":{"name":"Terminus Chicoutimi","stopId":"1:1289","stopCode":"1289","lon":-71.066163,"lat":48.428677,"arrival":1522681800000,"departure":1522681801000,"zoneId":"NA","stopIndex":34,"stopSequence":35,"vertexType":"TRANSIT"},"legGeometry":{"points":"idwfHxraqLj@Rb@aF\\eDDa@n@gH@Ib@wEn@aH?A`AwK^}DDi@\\kD~AyQN_BHm@fAeLd@{Et@uHZyC~@sJjAyLJqAZyCP_BZuCDi@b@iExAsO@E^qBt@}CJGnAmDx@iBpAcCb@o@Zi@h@o@`AiArFkG`FgGdBwBt@cAbAmBx@eBj@eB`CoHpCyJbAmCtAuCZg@|@gBxAsCrCmFhHqN~@eBr@cAt@_Av@}@RQPMz@k@tAe@REZG^Af@@X@VF`@Jn@XbClAr@Xt\\`PrAb@pA^hBTjAFj@Pb@JPHLLJNJRFXDT?X?ZEVEVKTMNMHMFOB}DWSGOSYcAN}FFkAF}DJyDPwGvAHVyL","length":108},"routeShortName":"21","routeLongName":"Boul. Ste-Geneviève/Élie","rentedBike":false,"transitLeg":true,"duration":582.0,"steps":[]},{"startTime":1522681801000,"endTime":1522682939000,"departureDelay":0,"arrivalDelay":0,"realTime":false,"distance":1466.6560000000004,"pathway":false,"mode":"WALK","route":"","agencyTimeZoneOffset":-14400000,"interlineWithPreviousLeg":false,"from":{"name":"Terminus Chicoutimi","stopId":"1:1289","stopCode":"1289","lon":-71.066163,"lat":48.428677,"arrival":1522681800000,"departure":1522681801000,"zoneId":"NA","stopIndex":34,"stopSequence":35,"vertexType":"TRANSIT"},"to":{"name":"Destination","lon":-71.070214,"lat":48.418311,"arrival":1522682939000,"orig":"","vertexType":"NORMAL"},"legGeometry":{"points":"{uqfHb~vpLbAJR@JDb@LrBHP@jCPrAFzBT^BPF@n@j@f@n@pBf@dA`BtDh@nALLb@n@l@DzBNd@BxAFt@Dr@DR@P@L@jBNfCPRB\\EhBNd@Cz@AXKx@WFC\\E^Kn@MV?b@BN?APGl@Q`@[l@c@zAEV","length":51},"rentedBike":false,"transitLeg":false,"duration":1138.0,"steps":[{"distance":374.48300000000006,"relativeDirection":"DEPART","streetName":"Rue Morin","absoluteDirection":"SOUTH","stayOn":false,"area":false,"bogusName":false,"lon":-71.0654590096484,"lat":48.428628638946556,"elevation":[]},{"distance":17.515,"relativeDirection":"RIGHT","streetName":"Rue Price Est","absoluteDirection":"WEST","stayOn":false,"area":false,"bogusName":false,"lon":-71.06598410000001,"lat":48.4252842,"elevation":[]},{"distance":272.594,"relativeDirection":"LEFT","streetName":"path","absoluteDirection":"SOUTHWEST","stayOn":false,"area":false,"bogusName":true,"lon":-71.0662212,"lat":48.425276600000004,"elevation":[]},{"distance":547.586,"relativeDirection":"SLIGHTLY_LEFT","streetName":"Rue Sainte-Anne","absoluteDirection":"SOUTH","stayOn":false,"area":false,"bogusName":false,"lon":-71.06896330000001,"lat":48.423667200000004,"elevation":[]},{"distance":142.52,"relativeDirection":"CONTINUE","streetName":"Rue Jolliet","absoluteDirection":"SOUTH","stayOn":false,"area":false,"bogusName":false,"lon":-71.0693796,"lat":48.418765,"elevation":[]},{"distance":111.958,"relativeDirection":"RIGHT","streetName":"service road","absoluteDirection":"WEST","stayOn":false,"area":false,"bogusName":false,"lon":-71.0690988,"lat":48.4175072,"elevation":[]}]}],"tooSloped":false}]},"debugOutput":{"precalculationTime":28,"pathCalculationTime":17,"pathTimes":[6,9,2],"renderingTime":1,"totalTime":46,"timedOut":false},"elevationMetadata":{"ellipsoidToGeoidDifference":-28.885904201182168,"geoidElevation":false}}