{"requestParameters":{"date":"2018/04/02","walkSpeed":"1.33","walkReluctance":"2.0","fromPlace":"48.440148,-71.061485","maxWalkDistance":"3000","waitReluctance":"1.0","carSpeed":"33","numItineraries":"3","waitAtBeginningFactor":"0.4","mode":"TRANSIT,WALK","ignoreRealtimeUpdates":"false","stairsReluctance":"2.0","toPlace":"48.439695,-71.037256","time":"15:25:00"},"plan":{"date":1522697100000,"from":{"name":"Origin","lon":-71.061485,"lat":48.440148,"orig":"","vertexType":"NORMAL"},"to":{"name":"Destination","lon":-71.037256,"lat":48.439695,"orig":"","vertexType":"NORMAL"},"itineraries":[{"duration":790,"startTime":1522698396000,"endTime":1522699186000,"walkTime":303,"transitTime":485,"waitingTime":2,"walkDistance":384.62912781628575,"walkLimitExceeded":false,"elevationLost":0.0,"elevationGained":0.0,"transfers":0,"legs":[{"startTime":1522698396000,"endTime":1522698602000,"departureDelay":0,"arrivalDelay":0,"realTime":false,"distance":262.038,"pathway":false,"mode":"WALK","route":"","agencyTimeZoneOffset":-14400000,"interlineWithPreviousLeg":false,"from":{"name":"Origin","lon":-71.061485,"lat":48.440148,"departure":1522698396000,"orig":"","vertexType":"NORMAL"},"to":{"name":"Napoléon / Roussel","stopId":"1:805","stopCode":"805","lon":-71.059698,"lat":48.438926,"arrival":1522698602000,"departure":1522698603000,"zoneId":"NA","stopIndex":3,"stopSequence":4,"vertexType":"TRANSIT"},"legGeometry":{"points":"e}sfHravpLk@Sx@mHjE`B","length":4},"rentedBike":false,"transitLeg":false,"duration":206.0,"steps":[{"distance":26.157,"relativeDirection":"DEPART","streetName":"Boulevard de Tadoussac","absoluteDirection":"NORTH","stayOn":false,"area":false,"bogusName":false,"lon":-71.0608976234176,"lat":48.440033678177144,"elevation":[]},{"distance":116.708,"relativeDirection":"RIGHT","streetName":"Rue De Bienville","absoluteDirection":"EAST","stayOn":false,"area":false,"bogusName":false,"lon":-71.0607978,"lat":48.4402594,"elevation":[]},{"distance":119.173,"relativeDirection":"RIGHT","streetName":"Rue Napoléon","absoluteDirection":"SOUTH","stayOn":false,"area":false,"bogusName":false,"lon":-71.0592803,"lat":48.4399625,"elevation":[]}]},{"startTime":1522698603000,"endTime":1522699088000,"departureDelay":0,"arrivalDelay":0,"realTime":false,"distance":3590.269847329239,"pathway":false,"mode":"BUS","route":"24","agencyName":"Société de Transport du Saguenay","agencyUrl":"http://ville.saguenay.ca/fr/services-aux-citoyens/transport-sts","agencyTimeZoneOffset":-14400000,"routeColor":"00FF00","routeType":3,"routeId":"1:24","routeTextColor":"000000","interlineWithPreviousLeg":false,"tripBlockId":"4","headsign":"Terminus Chicoutimi","agencyId":"0","tripId":"1:217241","serviceDate":"20180402","from":{"name":"Napoléon / Roussel","stopId":"1:805","stopCode":"805","lon":-71.059698,"lat":48.438926,"arrival":1522698602000,"departure":1522698603000,"zoneId":"NA","stopIndex":3,"stopSequence":4,"vertexType":"TRANSIT"},"to":{"name":"Roussel / Sabrina","stopId":"1:821","stopCode":"821","lon":-71.036499,"lat":48.438915,"arrival":1522699088000,"departure":1522699089000,"zoneId":"NA","stopIndex":17,"stopSequence":18,"vertexType":"TRANSIT"},"legGeometry":{"points":"ivsfHpzupLiE}Ah@}DH}@?c@Ea@[_BA?My@Cm@?Y@g@Hu@b@sD\\_DBSyHsC_@MBQA}@IwAUoAcAkCWo@qDgJg@cBk@uBi@sC]aCWwCiKuDwQuGDWbAoGV{AxG~BPFhCdAn@Lx@BxA]QeDI}AzAW~ASQoDg@eKG{A?_@?m@?i@LeCJkAd@yGxAqSBs@p@^VRPRbF~FlCxBxB|B~JjK","length":63},"routeShortName":"24","routeLongName":"Saint-Luc","rentedBike":false,"transitLeg":true,"duration":485.0,"steps":[]},{"startTime":1522699089000,"endTime":1522699186000,"departureDelay":0,"arrivalDelay":0,"realTime":false,"distance":122.49,"pathway":false,"mode":"WALK","route":"","agencyTimeZoneOffset":-14400000,"interlineWithPreviousLeg":false,"from":{"name":"Roussel / Sabrina","stopId":"1:821","stopCode":"821","lon":-71.036499,"lat":48.438915,"arrival":1522699088000,"departure":1522699089000,"zoneId":"NA","stopIndex":17,"stopSequence":18,"vertexType":"TRANSIT"},"to":{"name":"Destination","lon":-71.037256,"lat":48.439695,"arrival":1522699186000,"orig":"","vertexType":"NORMAL"},"legGeometry":{"points":"{usfHjhqpLWW{@`CIR_@lACJ","length":6},"rentedBike":false,"transitLeg":false,"duration":97.0,"steps":[{"distance":16.452,"relativeDirection":"DEPART","streetName":"Rue Roussel","absoluteDirection":"NORTHEAST","stayOn":false,"area":false,"bogusName":false,"lon":-71.03637845087752,"lat":48.43886349987849,"elevation":[]},{"distance":106.038,"relativeDirection":"LEFT","streetName":"Rue Sabrina","absoluteDirection":"NORTHWEST","stayOn":false,"area":false,"bogusName":false,"lon":-71.03625770000001,"lat":48.4389879,"elevation":[]}]}],"tooSloped":false},{"duration":1012,"startTime":1522698483000,"endTime":1522699495000,"walkTime":815,"transitTime":195,"waitingTime":2,"walkDistance":1062.7666917268489,"walkLimitExceeded":false,"elevationLost":0.0,"elevationGained":0.0,"transfers":0,"legs":[{"startTime":1522698483000,"endTime":1522698523000,"departureDelay":0,"arrivalDelay":0,"realTime":false,"distance":51.941,"pathway":false,"mode":"WALK","route":"","agencyTimeZoneOffset":-14400000,"interlineWithPreviousLeg":false,"from":{"name":"Origin","lon":-71.061485,"lat":48.440148,"departure":1522698483000,"orig":"","vertexType":"NORMAL"},"to":{"name":"boul. Tadoussac / Bourget","stopId":"1:772","stopCode":"772","lon":-71.060924,"lat":48.439552,"arrival":1522698523000,"departure":1522698524000,"zoneId":"NA","stopIndex":3,"stopSequence":4,"vertexType":"TRANSIT"},"legGeometry":{"points":"e}sfHravpLxAf@","length":2},"rentedBike":false,"transitLeg":false,"duration":40.0,"steps":[{"distance":51.941,"relativeDirection":"DEPART","streetName":"Boulevard de Tadoussac","absoluteDirection":"SOUTH","stayOn":false,"area":false,"bogusName":false,"lon":-71.0608976234176,"lat":48.440033678177144,"elevation":[]}]},{"startTime":1522698524000,"endTime":1522698719000,"departureDelay":0,"arrivalDelay":0,"realTime":false,"distance":2054.6742681183696,"pathway":false,"mode":"BUS","route":"25","agencyName":"Société de Transport du Saguenay","agencyUrl":"http://ville.saguenay.ca/fr/services-aux-citoyens/transport-sts","agencyTimeZoneOffset":-14400000,"routeColor":"00FFFF","routeType":3,"routeId":"1:25","routeTextColor":"000000","interlineWithPreviousLeg":false,"tripBlockId":"68","headsign":"Terminus Chicoutimi","agencyId":"0","tripId":"1:218586","serviceDate":"20180402","from":{"name":"boul. Tadoussac / Bourget","stopId":"1:772","stopCode":"772","lon":-71.060924,"lat":48.439552,"arrival":1522698523000,"departure":1522698524000,"zoneId":"NA","stopIndex":3,"stopSequence":4,"vertexType":"TRANSIT"},"to":{"name":"boul. Tadoussac (no. 1189)","stopId":"1:818","stopCode":"818","lon":-71.03515,"lat":48.444092,"arrival":1522698719000,"departure":1522698720000,"zoneId":"NA","stopIndex":7,"stopSequence":8,"vertexType":"TRANSIT"},"legGeometry":{"points":"kzsfHtbvpLyBu@o@Qs@[YSSUY]Ye@]{@Me@Kg@K{@CQm@_IEs@Cq@Aw@Do@LyAJ_ADYBUf@wDRaBHqABQA}@IwAUoAcAkCWo@qDgJg@cBk@uBi@sC]aCWwCs@}Mq@_NQoDg@eKG{A?_@?m@?i@LeCJkAd@yG","length":48},"routeShortName":"25","routeLongName":"Valin","rentedBike":false,"transitLeg":true,"duration":195.0,"steps":[]},{"startTime":1522698720000,"endTime":1522699495000,"departureDelay":0,"arrivalDelay":0,"realTime":false,"distance":1010.7490000000001,"pathway":false,"mode":"WALK","route":"","agencyTimeZoneOffset":-14400000,"interlineWithPreviousLeg":false,"from":{"name":"boul. Tadoussac (no. 1189)","stopId":"1:818","stopCode":"818","lon":-71.03515,"lat":48.444092,"arrival":1522698719000,"departure":1522698720000,"zoneId":"NA","stopIndex":7,"stopSequence":8,"vertexType":"TRANSIT"},"to":{"name":"Destination","lon":-71.037256,"lat":48.439695,"arrival":1522699495000,"orig":"","vertexType":"NORMAL"},"legGeometry":{"points":"cwtfHp`qpLB[T}CBc@VkDBQZoEH_B@IvAnAJJFFZb@LNj@r@p@z@b@h@NTFFHDPLNLFF`At@j@f@|@|@RP\\^@@ZVNN~@dA|BbCf@f@dAbAPN{@`CIR_@lACJ","length":40},"rentedBike":false,"transitLeg":false,"duration":775.0,"steps":[{"distance":273.05,"relativeDirection":"DEPART","streetName":"Boulevard de Tadoussac","absoluteDirection":"EAST","stayOn":false,"area":false,"bogusName":false,"lon":-71.03512301599895,"lat":48.44418020282193,"elevation":[]},{"distance":631.6610000000001,"relativeDirection":"RIGHT","streetName":"Rue Roussel","absoluteDirection":"SOUTHWEST","stayOn":false,"area":false,"bogusName":false,"lon":-71.0314937,"lat":48.4436984,"elevation":[]},{"distance":106.038,"relativeDirection":"RIGHT","streetName":"Rue Sabrina","absoluteDirection":"NORTHWEST","stayOn":false,"area":false,"bogusName":false,"lon":-71.03625770000001,"lat":48.4389879,"elevation":[]}]}],"tooSloped":false},{"duration":790,"startTime":1522700196000,"endTime":1522700986000,"walkTime":303,"transitTime":485,"waitingTime":2,"walkDistance":384.62912781628575,"walkLimitExceeded":false,"elevationLost":0.0,"elevationGained":0.0,"transfers":0,"legs":[{"startTime":1522700196000,"endTime":1522700402000,"departureDelay":0,"arrivalDelay":0,"realTime":false,"distance":262.038,"pathway":false,"mode":"WALK","route":"","agencyTimeZoneOffset":-14400000,"interlineWithPreviousLeg":false,"from":{"name":"Origin","lon":-71.061485,"lat":48.440148,"departure":1522700196000,"orig":"","vertexType":"NORMAL"},"to":{"name":"Napoléon / Roussel","stopId":"1:805","stopCode":"805","lon":-71.059698,"lat":48.438926,"arrival":1522700402000,"departure":1522700403000,"zoneId":"NA","stopIndex":3,"stopSequence":4,"vertexType":"TRANSIT"},"legGeometry":{"points":"e}sfHravpLk@Sx@mHjE`B","length":4},"rentedBike":false,"transitLeg":false,"duration":206.0,"steps":[{"distance":26.157,"relativeDirection":"DEPART","streetName":"Boulevard de Tadoussac","absoluteDirection":"NORTH","stayOn":false,"area":false,"bogusName":false,"lon":-71.0608976234176,"lat":48.440033678177144,"elevation":[]},{"distance":116.708,"relativeDirection":"RIGHT","streetName":"Rue De Bienville","absoluteDirection":"EAST","stayOn":false,"area":false,"bogusName":false,"lon":-71.0607978,"lat":48.4402594,"elevation":[]},{"distance":119.173,"relativeDirection":"RIGHT","streetName":"Rue Napoléon","absoluteDirection":"SOUTH","stayOn":false,"area":false,"bogusName":false,"lon":-71.0592803,"lat":48.4399625,"elevation":[]}]},{"startTime":1522700403000,"endTime":1522700888000,"departureDelay":0,"arrivalDelay":0,"realTime":false,"distance":3590.269847329239,"pathway":false,"mode":"BUS","route":"24","agencyName":"Société de Transport du Saguenay","agencyUrl":"http://ville.saguenay.ca/fr/services-aux-citoyens/transport-sts","agencyTimeZoneOffset":-14400000,"routeColor":"00FF00","routeType":3,"routeId":"1:24","routeTextColor":"000000","interlineWithPreviousLeg":false,"tripBlockId":"5","headsign":"Terminus Chicoutimi","agencyId":"0","tripId":"1:217269","serviceDate":"20180402","from":{"name":"Napoléon / Roussel","stopId":"1:805","stopCode":"805","lon":-71.059698,"lat":48.438926,"arrival":1522700402000,"departure":1522700403000,"zoneId":"NA","stopIndex":3,"stopSequence":4,"vertexType":"TRANSIT"},"to":{"name":"Roussel / Sabrina","stopId":"1:821","stopCode":"821","lon":-71.036499,"lat":48.438915,"arrival":1522700888000,"departure":1522700889000,"zoneId":"NA","stopIndex":17,"stopSequence":18,"vertexType":"TRANSIT"},"legGeometry":{"points":"ivsfHpzupLiE}Ah@}DH}@?c@Ea@[_BA?My@Cm@?Y@g@Hu@b@sD\\_DBSyHsC_@MBQA}@IwAUoAcAkCWo@qDgJg@cBk@uBi@sC]aCWwCiKuDwQuGDWbAoGV{AxG~BPFhCdAn@Lx@BxA]QeDI}AzAW~ASQoDg@eKG{A?_@?m@?i@LeCJkAd@yGxAqSBs@p@^VRPRbF~FlCxBxB|B~JjK","length":63},"routeShortName":"24","routeLongName":"Saint-Luc","rentedBike":false,"transitLeg":true,"duration":485.0,"steps":[]},{"startTime":1522700889000,"endTime":1522700986000,"departureDelay":0,"arrivalDelay":0,"realTime":false,"distance":122.49,"pathway":false,"mode":"WALK","route":"","agencyTimeZoneOffset":-14400000,"interlineWithPreviousLeg":false,"from":{"name":"Roussel / Sabrina","stopId":"1:821","stopCode":"821","lon":-71.036499,"lat":48.438915,"arrival":1522700888000,"departure":1522700889000,"zoneId":"NA","stopIndex":17,"stopSequence":18,"vertexType":"TRANSIT"},"to":{"name":"Destination","lon":-71.037256,"lat":48.439695,"arrival":1522700986000,"orig":"","vertexType":"NORMAL"},"legGeometry":{"points":"{usfHjhqpLWW{@`CIR_@lACJ","length":6},"rentedBike":false,"transitLeg":false,"duration":97.0,"steps":[{"distance":16.452,"relativeDirection":"DEPART","streetName":"Rue Roussel","absoluteDirection":"NORTHEAST","stayOn":false,"area":false,"bogusName":false,"lon":-71.03637845087752,"lat":48.43886349987849,"elevation":[]},{"distance":106.038,"relativeDirection":"LEFT","streetName":"Rue Sabrina","absoluteDirection":"NORTHWEST","stayOn":false,"area":false,"bogusName":false,"lon":-71.03625770000001,"lat":48.4389879,"elevation":[]}]}],"tooSloped":false}]},"debugOutput":{"precalculationTime":18,"pathCalculationTime":22,"pathTimes":[12,6,4],"renderingTime":0,"totalTime":40,"timedOut":false},"elevationMetadata":{"ellipsoidToGeoidDifference":-28.885904201182168,"geoidElevation":false}}