{"requestParameters":{"date":"2018/04/02","walkSpeed":"1.33","walkReluctance":"2.0","fromPlace":"48.403188,-71.06165199","maxWalkDistance":"3000","waitReluctance":"1.0","carSpeed":"33","numItineraries":"3","waitAtBeginningFactor":"0.4","mode":"TRANSIT,WALK","ignoreRealtimeUpdates":"false","stairsReluctance":"2.0","toPlace":"48.428197,-71.06305199","time":"14:30:00"},"plan":{"date":1522693800000,"from":{"name":"Origin","lon":-71.06165199,"lat":48.403188,"orig":"","vertexType":"NORMAL"},"to":{"name":"Destination","lon":-71.06305199,"lat":48.428197,"orig":"","vertexType":"NORMAL"},"itineraries":[{"duration":1334,"startTime":1522694865000,"endTime":1522696199000,"walkTime":356,"transitTime":976,"waitingTime":2,"walkDistance":444.4745864618227,"walkLimitExceeded":false,"elevationLost":0.0,"elevationGained":0.0,"transfers":0,"legs":[{"startTime":1522694865000,"endTime":1522694984000,"departureDelay":0,"arrivalDelay":0,"realTime":false,"distance":146.209,"pathway":false,"mode":"WALK","route":"","agencyTimeZoneOffset":-14400000,"interlineWithPreviousLeg":false,"from":{"name":"Origin","lon":-71.06165199,"lat":48.403188,"departure":1522694865000,"orig":"","vertexType":"NORMAL"},"to":{"name":"Saguenéens  / Bach","stopId":"1:575","stopCode":"575","lon":-71.061104,"lat":48.403689,"arrival":1522694984000,"departure":1522694985000,"zoneId":"NA","stopIndex":12,"stopSequence":13,"vertexType":"TRANSIT"},"legGeometry":{"points":"eylfHxcvpLeApCSSfAoC","length":4},"rentedBike":false,"transitLeg":false,"duration":119.0,"steps":[{"distance":66.353,"relativeDirection":"DEPART","streetName":"Rue des Saguenéens","absoluteDirection":"NORTHWEST","stayOn":false,"area":false,"bogusName":false,"lon":-71.06124637807851,"lat":48.403557352505906,"elevation":[]},{"distance":79.85600000000001,"relativeDirection":"UTURN_RIGHT","streetName":"Rue des Saguenéens","absoluteDirection":"SOUTHEAST","stayOn":true,"area":false,"bogusName":false,"lon":-71.06187870000001,"lat":48.404006700000004,"elevation":[]}]},{"startTime":1522694985000,"endTime":1522695961000,"departureDelay":0,"arrivalDelay":0,"realTime":false,"distance":5229.784572379671,"pathway":false,"mode":"BUS","route":"15","agencyName":"Société de Transport du Saguenay","agencyUrl":"http://ville.saguenay.ca/fr/services-aux-citoyens/transport-sts","agencyTimeZoneOffset":-14400000,"routeColor":"FF00FF","routeType":3,"routeId":"1:15","routeTextColor":"FFFFFF","interlineWithPreviousLeg":false,"tripBlockId":"32","headsign":"Terminus Chicoutimi","agencyId":"0","tripId":"1:218163","serviceDate":"20180402","from":{"name":"Saguenéens  / Bach","stopId":"1:575","stopCode":"575","lon":-71.061104,"lat":48.403689,"arrival":1522694984000,"departure":1522694985000,"zoneId":"NA","stopIndex":12,"stopSequence":13,"vertexType":"TRANSIT"},"to":{"name":"Jacques-Cartier / Morin","stopId":"1:1930","stopCode":"1930","lon":-71.065007,"lat":48.426603,"arrival":1522695961000,"departure":1522695962000,"zoneId":"NA","stopIndex":36,"stopSequence":37,"vertexType":"TRANSIT"},"legGeometry":{"points":"sylfHjcvpLmA|CUr@}@~A_@\\_DvCEZcA|@UP_@d@Yl@oBdFeCxG_CfGYVQXS\\dK|HlFZbC\\p@zA\\rB@hBiArG{BNw@FiG}@iDwAECcCcBo@y@sEeGe@o@qAa@m@MoB?C@}BZwAc@oA_Bs@gDCKZ{Di@QECc@_@sAkAoBwB_EcE{A_BoAmAk@o@cCaCkIkIaJaJUUwBaCj@wCjAsCzGoG_CoHL{D_@kAqD{CQr@iAcAy@w@L{@wAuA_B_B_EpLDh@NbBVvCIxBg@`Am@l@Sb@a@rAqDqDmEkE]a@kAqAU|@WnKG|DGxDOdPKvJU|F?X","length":91},"routeShortName":"15","routeLongName":"Term. Chic / Costco","rentedBike":false,"transitLeg":true,"duration":976.0,"steps":[]},{"startTime":1522695962000,"endTime":1522696199000,"departureDelay":0,"arrivalDelay":0,"realTime":false,"distance":298.13100000000003,"pathway":false,"mode":"WALK","route":"","agencyTimeZoneOffset":-14400000,"interlineWithPreviousLeg":false,"from":{"name":"Jacques-Cartier / Morin","stopId":"1:1930","stopCode":"1930","lon":-71.065007,"lat":48.426603,"arrival":1522695961000,"departure":1522695962000,"zoneId":"NA","stopIndex":36,"stopSequence":37,"vertexType":"TRANSIT"},"to":{"name":"Destination","lon":-71.06305199,"lat":48.428197,"arrival":1522696199000,"orig":"","vertexType":"NORMAL"},"legGeometry":{"points":"{hqfHj{vpL@s@@_@EKGMEWw@cFG[KMMKkCC[@I?c@@?V","length":15},"rentedBike":false,"transitLeg":false,"duration":237.0,"steps":[{"distance":30.978,"relativeDirection":"DEPART","streetName":"Rue Jacques-Cartier Est","absoluteDirection":"EAST","stayOn":false,"area":false,"bogusName":false,"lon":-71.06501225432459,"lat":48.42654615659386,"elevation":[]},{"distance":130.592,"relativeDirection":"LEFT","streetName":"Rue de l'Hôtel-de-Ville","absoluteDirection":"NORTHEAST","stayOn":false,"area":false,"bogusName":false,"lon":-71.0645932,"lat":48.4265291,"elevation":[]},{"distance":128.049,"relativeDirection":"LEFT","streetName":"Rue de l'Hôtel-de-Ville","absoluteDirection":"NORTH","stayOn":true,"area":false,"bogusName":false,"lon":-71.0629919,"lat":48.4270002,"elevation":[]},{"distance":8.512,"relativeDirection":"LEFT","streetName":"path","absoluteDirection":"WEST","stayOn":false,"area":false,"bogusName":false,"lon":-71.06293600000001,"lat":48.4281438,"elevation":[]}]}],"tooSloped":false},{"duration":1387,"startTime":1522694833000,"endTime":1522696220000,"walkTime":580,"transitTime":805,"waitingTime":2,"walkDistance":732.7491428520723,"walkLimitExceeded":false,"elevationLost":0.0,"elevationGained":0.0,"transfers":0,"legs":[{"startTime":1522694833000,"endTime":1522695299000,"departureDelay":0,"arrivalDelay":0,"realTime":false,"distance":586.489,"pathway":false,"mode":"WALK","route":"","agencyTimeZoneOffset":-14400000,"interlineWithPreviousLeg":false,"from":{"name":"Origin","lon":-71.06165199,"lat":48.403188,"departure":1522694833000,"orig":"","vertexType":"NORMAL"},"to":{"name":"Place Royaume","stopId":"1:1801","stopCode":"1801","lon":-71.057017,"lat":48.405588,"arrival":1522695299000,"departure":1522695300000,"zoneId":"NA","stopIndex":10,"stopSequence":11,"vertexType":"TRANSIT"},"legGeometry":{"points":"eylfHxcvpLp@gB~@sBLWL[WWkBeBiFwEt@aC[YUU][Y[[YY[[[a@zA","length":17},"rentedBike":false,"transitLeg":false,"duration":466.0,"steps":[{"distance":128.03300000000002,"relativeDirection":"DEPART","streetName":"Rue des Saguenéens","absoluteDirection":"SOUTHEAST","stayOn":false,"area":false,"bogusName":false,"lon":-71.06124637807851,"lat":48.403557352505906,"elevation":[]},{"distance":239.022,"relativeDirection":"LEFT","streetName":"Boulevard Talbot","absoluteDirection":"NORTHEAST","stayOn":false,"area":false,"bogusName":false,"lon":-71.0598825,"lat":48.402847200000004,"elevation":[]},{"distance":219.43400000000003,"relativeDirection":"RIGHT","streetName":"parking aisle","absoluteDirection":"SOUTHEAST","stayOn":false,"area":false,"bogusName":true,"lon":-71.0581722,"lat":48.4046724,"elevation":[]}]},{"startTime":1522695300000,"endTime":1522696105000,"departureDelay":0,"arrivalDelay":0,"realTime":false,"distance":3798.671704659499,"pathway":false,"mode":"BUS","route":"175","agencyName":"Société de Transport du Saguenay","agencyUrl":"http://ville.saguenay.ca/fr/services-aux-citoyens/transport-sts","agencyTimeZoneOffset":-14400000,"routeColor":"FF00FF","routeType":3,"routeId":"1:175","routeTextColor":"FFFFFF","interlineWithPreviousLeg":false,"tripBlockId":"9","headsign":"Terminus Chicoutimi","agencyId":"0","tripId":"1:217408","serviceDate":"20180402","from":{"name":"Place Royaume","stopId":"1:1801","stopCode":"1801","lon":-71.057017,"lat":48.405588,"arrival":1522695299000,"departure":1522695300000,"zoneId":"NA","stopIndex":10,"stopSequence":11,"vertexType":"TRANSIT"},"to":{"name":"Palais de Justice de Chicoutimi","stopId":"1:454","stopCode":"454","lon":-71.061218,"lat":48.427706,"arrival":1522696105000,"departure":1522696106000,"zoneId":"NA","stopIndex":25,"stopSequence":26,"vertexType":"TRANSIT"},"legGeometry":{"points":"sfmfH`kupL_U_TcNgNcBcB{E`Jc@x@qG~@{BlAk@XgSrQqB_GAeFiEeEOt@gAeA_A_ATm@yAwAgBeBqDnL@nBF`@f@|C[dCuAfB]xAs@OmCmCmEkE]a@g@i@ZiGTmEl@oLaEe@cFk@?pH?tJDvBPjMB~Bo@PQDRbFKdGMhI","length":46},"routeShortName":"175","routeLongName":"Term. Chic / Costco","rentedBike":false,"transitLeg":true,"duration":805.0,"steps":[]},{"startTime":1522696106000,"endTime":1522696220000,"departureDelay":0,"arrivalDelay":0,"realTime":false,"distance":146.103,"pathway":false,"mode":"WALK","route":"","agencyTimeZoneOffset":-14400000,"interlineWithPreviousLeg":false,"from":{"name":"Palais de Justice de Chicoutimi","stopId":"1:454","stopCode":"454","lon":-71.061218,"lat":48.427706,"arrival":1522696105000,"departure":1522696106000,"zoneId":"NA","stopIndex":25,"stopSequence":26,"vertexType":"TRANSIT"},"to":{"name":"Destination","lon":-71.06305199,"lat":48.428197,"arrival":1522696220000,"orig":"","vertexType":"NORMAL"},"legGeometry":{"points":"apqfHrcvpLAl@?RwAtG?V","length":5},"rentedBike":false,"transitLeg":false,"duration":114.0,"steps":[{"distance":23.924999999999997,"relativeDirection":"DEPART","streetName":"Rue Racine Est","absoluteDirection":"WEST","stayOn":false,"area":false,"bogusName":false,"lon":-71.06121960116612,"lat":48.42769155356611,"elevation":[]},{"distance":122.178,"relativeDirection":"SLIGHTLY_RIGHT","streetName":"path","absoluteDirection":"NORTHWEST","stayOn":false,"area":false,"bogusName":true,"lon":-71.061543,"lat":48.4277073,"elevation":[]}]}],"tooSloped":false},{"duration":2211,"startTime":1522694039000,"endTime":1522696250000,"walkTime":356,"transitTime":1853,"waitingTime":2,"walkDistance":444.4745864618227,"walkLimitExceeded":false,"elevationLost":0.0,"elevationGained":0.0,"transfers":0,"legs":[{"startTime":1522694039000,"endTime":1522694158000,"departureDelay":0,"arrivalDelay":0,"realTime":false,"distance":146.209,"pathway":false,"mode":"WALK","route":"","agencyTimeZoneOffset":-14400000,"interlineWithPreviousLeg":false,"from":{"name":"Origin","lon":-71.06165199,"lat":48.403188,"departure":1522694039000,"orig":"","vertexType":"NORMAL"},"to":{"name":"Saguenéens  / Bach","stopId":"1:575","stopCode":"575","lon":-71.061104,"lat":48.403689,"arrival":1522694158000,"departure":1522694159000,"zoneId":"NA","stopIndex":23,"stopSequence":24,"vertexType":"TRANSIT"},"legGeometry":{"points":"eylfHxcvpLeApCSSfAoC","length":4},"rentedBike":false,"transitLeg":false,"duration":119.0,"steps":[{"distance":66.353,"relativeDirection":"DEPART","streetName":"Rue des Saguenéens","absoluteDirection":"NORTHWEST","stayOn":false,"area":false,"bogusName":false,"lon":-71.06124637807851,"lat":48.403557352505906,"elevation":[]},{"distance":79.85600000000001,"relativeDirection":"UTURN_RIGHT","streetName":"Rue des Saguenéens","absoluteDirection":"SOUTHEAST","stayOn":true,"area":false,"bogusName":false,"lon":-71.06187870000001,"lat":48.404006700000004,"elevation":[]}]},{"startTime":1522694159000,"endTime":1522694520000,"departureDelay":0,"arrivalDelay":0,"realTime":false,"distance":3436.0046196032185,"pathway":false,"mode":"BUS","route":"15","agencyName":"Société de Transport du Saguenay","agencyUrl":"http://ville.saguenay.ca/fr/services-aux-citoyens/transport-sts","agencyTimeZoneOffset":-14400000,"routeColor":"FF00FF","routeType":3,"routeId":"1:15","routeTextColor":"FFFFFF","interlineWithPreviousLeg":false,"tripBlockId":"33","headsign":"Talbot / Barrette","agencyId":"0","tripId":"1:218187","serviceDate":"20180402","from":{"name":"Saguenéens  / Bach","stopId":"1:575","stopCode":"575","lon":-71.061104,"lat":48.403689,"arrival":1522694158000,"departure":1522694159000,"zoneId":"NA","stopIndex":23,"stopSequence":24,"vertexType":"TRANSIT"},"to":{"name":"Roitelets / Sapins","stopId":"1:1543","stopCode":"1543","lon":-71.069553,"lat":48.393375,"arrival":1522694520000,"departure":1522694520000,"zoneId":"NA","stopIndex":35,"stopSequence":36,"vertexType":"TRANSIT"},"legGeometry":{"points":"ezlfHvbvpLtC{FnBoLbCaO?qLa@uJzF`ApF~@~@PzAgEeDcBf@qAWcKUqEx@Ef@ExDVjDxAFBrBvAfGjG@BjCzC~DxC@@zA~Cb@fCJlC?BsBre@?DWbOAn@?nEGnM@H\\hCzA~ELvAAlAi@jDo@nB","length":42},"routeShortName":"15","routeLongName":"Term. Chic / Costco","rentedBike":false,"transitLeg":true,"duration":361.0,"steps":[]},{"startTime":1522694520000,"endTime":1522696012000,"departureDelay":0,"arrivalDelay":0,"realTime":false,"distance":9375.159506444093,"pathway":false,"mode":"BUS","route":"14","agencyName":"Société de Transport du Saguenay","agencyUrl":"http://ville.saguenay.ca/fr/services-aux-citoyens/transport-sts","agencyTimeZoneOffset":-14400000,"routeColor":"C0C000","routeType":3,"routeId":"1:14","routeTextColor":"000000","interlineWithPreviousLeg":true,"tripBlockId":"33","headsign":"Terminus Chicoutimi","agencyId":"0","tripId":"1:218188","serviceDate":"20180402","from":{"name":"Roitelets / Sapins","stopId":"1:1513","stopCode":"1513","lon":-71.069396,"lat":48.393523,"arrival":1522694520000,"departure":1522694520000,"zoneId":"NA","stopIndex":0,"stopSequence":1,"vertexType":"TRANSIT"},"to":{"name":"Jacques-Cartier / Morin","stopId":"1:1930","stopCode":"1930","lon":-71.065007,"lat":48.426603,"arrival":1522696012000,"departure":1522696013000,"zoneId":"NA","stopIndex":36,"stopSequence":37,"vertexType":"TRANSIT"},"legGeometry":{"points":"azjfHfwwpLiEfLuBzFsAnDgGzSWfAcD`Mi@dCgChLmCzMwGd\\aDxOdFtFhCtCdDY|F_On@aB`B_GNoBvAyT|@sNuAyAuF}F}AaB_BkAC@qC\\gAWiBwBiKgMiCwEgEyHCGy@uB}@rAa@nAc@lFEf@mGvUYfAqCs@ICMCqFmDc@s@mAkBuEoESUgAhDiAfD}@zDyAcA_@Um@U{AWgB_Au@s@EEsBkCqFgF{IiI][aBhE}@}@oBmBwE{EwE{Ej@mBZeAa@SyEQg@CPcALuCx@{b@t@{[XoDd@sBl@iB~@gA`G{F{A{D_@sBFqDOq@iG{FGIoCkCgBgBsDpLHzBBT`@~COnBQf@gAjAg@bBuDmDmFgFa@_@w@s@CfAOrBEtAGbA?jBQtC?|@ExKMdIG~EUnL","length":112},"routeShortName":"14","routeLongName":"Coopérative","rentedBike":false,"transitLeg":true,"duration":1492.0,"steps":[]},{"startTime":1522696013000,"endTime":1522696250000,"departureDelay":0,"arrivalDelay":0,"realTime":false,"distance":298.13100000000003,"pathway":false,"mode":"WALK","route":"","agencyTimeZoneOffset":-14400000,"interlineWithPreviousLeg":false,"from":{"name":"Jacques-Cartier / Morin","stopId":"1:1930","stopCode":"1930","lon":-71.065007,"lat":48.426603,"arrival":1522696012000,"departure":1522696013000,"zoneId":"NA","stopIndex":36,"stopSequence":37,"vertexType":"TRANSIT"},"to":{"name":"Destination","lon":-71.06305199,"lat":48.428197,"arrival":1522696250000,"orig":"","vertexType":"NORMAL"},"legGeometry":{"points":"{hqfHj{vpL@s@@_@EKGMEWw@cFG[KMMKkCC[@I?c@@?V","length":15},"rentedBike":false,"transitLeg":false,"duration":237.0,"steps":[{"distance":30.978,"relativeDirection":"DEPART","streetName":"Rue Jacques-Cartier Est","absoluteDirection":"EAST","stayOn":false,"area":false,"bogusName":false,"lon":-71.06501225432459,"lat":48.42654615659386,"elevation":[]},{"distance":130.592,"relativeDirection":"LEFT","streetName":"Rue de l'Hôtel-de-Ville","absoluteDirection":"NORTHEAST","stayOn":false,"area":false,"bogusName":false,"lon":-71.0645932,"lat":48.4265291,"elevation":[]},{"distance":128.049,"relativeDirection":"LEFT","streetName":"Rue de l'Hôtel-de-Ville","absoluteDirection":"NORTH","stayOn":true,"area":false,"bogusName":false,"lon":-71.0629919,"lat":48.4270002,"elevation":[]},{"distance":8.512,"relativeDirection":"LEFT","streetName":"path","absoluteDirection":"WEST","stayOn":false,"area":false,"bogusName":false,"lon":-71.06293600000001,"lat":48.4281438,"elevation":[]}]}],"tooSloped":false}]},"debugOutput":{"precalculationTime":63,"pathCalculationTime":58,"pathTimes":[30,10,18],"renderingTime":1,"totalTime":122,"timedOut":false},"elevationMetadata":{"ellipsoidToGeoidDifference":-28.885904201182168,"geoidElevation":false}}