{"requestParameters":{"date":"2018/04/02","walkSpeed":"1.33","walkReluctance":"2.0","fromPlace":"48.427745,-71.062942","maxWalkDistance":"3000","waitReluctance":"1.0","carSpeed":"33","numItineraries":"3","waitAtBeginningFactor":"0.4","mode":"TRANSIT,WALK","ignoreRealtimeUpdates":"false","stairsReluctance":"2.0","toPlace":"48.382739,-71.086723","time":"14:18:00"},"plan":{"date":1522693080000,"from":{"name":"Origin","lon":-71.062942,"lat":48.427745,"orig":"","vertexType":"NORMAL"},"to":{"name":"Destination","lon":-71.086723,"lat":48.382739,"orig":"","vertexType":"NORMAL"},"itineraries":[{"duration":1979,"startTime":1522694476000,"endTime":1522696455000,"walkTime":430,"transitTime":1536,"waitingTime":13,"walkDistance":532.8413233024844,"walkLimitExceeded":false,"elevationLost":0.0,"elevationGained":0.0,"transfers":1,"legs":[{"startTime":1522694476000,"endTime":1522694699000,"departureDelay":0,"arrivalDelay":0,"realTime":false,"distance":281.251,"pathway":false,"mode":"WALK","route":"","agencyTimeZoneOffset":-14400000,"interlineWithPreviousLeg":false,"from":{"name":"Origin","lon":-71.062942,"lat":48.427745,"departure":1522694476000,"orig":"","vertexType":"NORMAL"},"to":{"name":"Terminus Chicoutimi","stopId":"1:1289","stopCode":"1289","lon":-71.066163,"lat":48.428677,"arrival":1522694699000,"departure":1522694700000,"zoneId":"NA","stopIndex":0,"stopSequence":1,"vertexType":"TRANSIT"},"legGeometry":{"points":"kpqfHfnvpLE?Ah@GpBAXAj@SzHc@MKESAcAK","length":11},"rentedBike":false,"transitLeg":false,"duration":223.0,"steps":[{"distance":3.292,"relativeDirection":"DEPART","streetName":"Rue de l'Hôtel-de-Ville","absoluteDirection":"NORTH","stayOn":false,"area":false,"bogusName":false,"lon":-71.06291624844302,"lat":48.42774459839536,"elevation":[]},{"distance":200.752,"relativeDirection":"LEFT","streetName":"Rue Racine Est","absoluteDirection":"WEST","stayOn":false,"area":false,"bogusName":false,"lon":-71.0629152,"lat":48.4277742,"elevation":[]},{"distance":77.207,"relativeDirection":"RIGHT","streetName":"Rue Morin","absoluteDirection":"NORTH","stayOn":false,"area":false,"bogusName":false,"lon":-71.0656238,"lat":48.4279449,"elevation":[]}]},{"startTime":1522694700000,"endTime":1522696016000,"departureDelay":0,"arrivalDelay":0,"realTime":false,"distance":9107.222787515157,"pathway":false,"mode":"BUS","route":"11","agencyName":"Société de Transport du Saguenay","agencyUrl":"http://ville.saguenay.ca/fr/services-aux-citoyens/transport-sts","agencyTimeZoneOffset":-14400000,"routeColor":"FF0000","routeType":3,"routeId":"1:11","routeTextColor":"FFFFFF","interlineWithPreviousLeg":false,"tripBlockId":"34","headsign":"Boul.Royaume/St-Pierre","agencyId":"0","tripId":"1:218223","serviceDate":"20180402","from":{"name":"Terminus Chicoutimi","stopId":"1:1289","stopCode":"1289","lon":-71.066163,"lat":48.428677,"arrival":1522694699000,"departure":1522694700000,"zoneId":"NA","stopIndex":0,"stopSequence":1,"vertexType":"TRANSIT"},"to":{"name":"boul. Royaume (no. 1409)","stopId":"1:264","stopCode":"264","lon":-71.118186,"lat":48.388875,"arrival":1522696016000,"departure":1522696016000,"zoneId":"NA","stopIndex":28,"stopSequence":29,"vertexType":"TRANSIT"},"legGeometry":{"points":"evqfHzcwpLk@?UhKfIh@dKp@GnDIfDOtEE~@Ff@x@rEF~@CbAALO~ADRNJXBr@DfGRPBPJLN@@FPFTBX?TE`BhBR@?J@NELKFOlAiDL[bA`AfIjIbGdGzDzD`A~An@`ApApBpClEvJrOR\\bAfBLa@t@]LjAVvAVbAVv@^bAXj@b@t@xEtGh@r@n@x@FDjA|AlBpCnJ|NNTX`@V`@eCtHpFjH{FhPcB|Ft@|CEAdCnEdHKrBz@lGiQ|CyI~IrJtAzAmKrWsE`LzJjL|P}d@Ri@hCpEpBdCHJzPrR_AhC}Ppd@KZkDxJq@`CyGfZOl@fNzIJ@HAHIDI@CnNco@vE}Sh@kCb@oCXyBTuAFSBMl@iBlHjJxEtGPRbBdBp@r@xDpDrL`LlAtAiBdFOd@oCrH","length":122},"routeShortName":"11","routeLongName":"Chic/Faubourg via St-Paul","rentedBike":false,"transitLeg":true,"duration":1316.0,"steps":[]},{"startTime":1522696016000,"endTime":1522696029000,"departureDelay":0,"arrivalDelay":0,"realTime":false,"distance":13.493,"pathway":false,"mode":"WALK","route":"","agencyTimeZoneOffset":-14400000,"interlineWithPreviousLeg":false,"from":{"name":"boul. Royaume (no. 1409)","stopId":"1:264","stopCode":"264","lon":-71.118186,"lat":48.388875,"arrival":1522696016000,"departure":1522696016000,"zoneId":"NA","stopIndex":28,"stopSequence":29,"vertexType":"TRANSIT"},"to":{"name":"boul. Royaume (no. 1460)","stopId":"1:267","stopCode":"267","lon":-71.1185,"lat":48.388791,"arrival":1522696029000,"departure":1522696040000,"zoneId":"NA","stopIndex":23,"stopSequence":24,"vertexType":"TRANSIT"},"legGeometry":{"points":"a}ifHbhaqLMZ","length":2},"rentedBike":false,"transitLeg":false,"duration":13.0,"steps":[{"distance":13.493,"relativeDirection":"DEPART","streetName":"Boulevard du Royaume Ouest","absoluteDirection":"NORTHWEST","stayOn":false,"area":false,"bogusName":false,"lon":-71.11825025873861,"lat":48.3888149249102,"elevation":[]}]},{"startTime":1522696040000,"endTime":1522696260000,"departureDelay":0,"arrivalDelay":0,"realTime":false,"distance":2570.2679685702965,"pathway":false,"mode":"BUS","route":"2","agencyName":"Société de Transport du Saguenay","agencyUrl":"http://ville.saguenay.ca/fr/services-aux-citoyens/transport-sts","agencyTimeZoneOffset":-14400000,"routeColor":"FF0000","routeType":3,"routeId":"1:2","routeTextColor":"FFFFFF","interlineWithPreviousLeg":false,"tripBlockId":"11","headsign":"Costco","agencyId":"0","tripId":"1:217478","serviceDate":"20180402","from":{"name":"boul. Royaume (no. 1460)","stopId":"1:267","stopCode":"267","lon":-71.1185,"lat":48.388791,"arrival":1522696029000,"departure":1522696040000,"zoneId":"NA","stopIndex":23,"stopSequence":24,"vertexType":"TRANSIT"},"to":{"name":"COSTCO","stopId":"1:1710","stopCode":"1710","lon":-71.085767,"lat":48.382333,"arrival":1522696260000,"departure":1522696261000,"zoneId":"NA","stopIndex":28,"stopSequence":29,"vertexType":"TRANSIT"},"legGeometry":{"points":"e}ifHjiaqL|BaGbDgIz@{B|G}WVyBfB_OrBsTDa]?sD`@uc@tBcJz@yDtI}UaCcC","length":15},"routeShortName":"2","routeLongName":"Chic/Jonq via Boul. Royaume","rentedBike":false,"transitLeg":true,"duration":220.0,"steps":[]},{"startTime":1522696261000,"endTime":1522696455000,"departureDelay":0,"arrivalDelay":0,"realTime":false,"distance":237.918,"pathway":false,"mode":"WALK","route":"","agencyTimeZoneOffset":-14400000,"interlineWithPreviousLeg":false,"from":{"name":"COSTCO","stopId":"1:1710","stopCode":"1710","lon":-71.085767,"lat":48.382333,"arrival":1522696260000,"departure":1522696261000,"zoneId":"NA","stopIndex":28,"stopSequence":29,"vertexType":"TRANSIT"},"to":{"name":"Destination","lon":-71.086723,"lat":48.382739,"arrival":1522696455000,"orig":"","vertexType":"NORMAL"},"legGeometry":{"points":"uthfHh}zpLtB`CoA~Ca@e@Q[Mu@[j@","length":7},"rentedBike":false,"transitLeg":false,"duration":194.0,"steps":[{"distance":81.226,"relativeDirection":"DEPART","streetName":"service road","absoluteDirection":"SOUTHWEST","stayOn":false,"area":false,"bogusName":true,"lon":-71.08580460382532,"lat":48.38235152300571,"elevation":[]},{"distance":73.854,"relativeDirection":"RIGHT","streetName":"Boulevard du Royaume Ouest","absoluteDirection":"NORTHWEST","stayOn":false,"area":false,"bogusName":false,"lon":-71.0864598,"lat":48.381764800000006,"elevation":[]},{"distance":82.838,"relativeDirection":"RIGHT","streetName":"service road","absoluteDirection":"NORTHEAST","stayOn":false,"area":false,"bogusName":true,"lon":-71.0872595,"lat":48.382163600000005,"elevation":[]}]}],"tooSloped":false},{"duration":1910,"startTime":1522694605000,"endTime":1522696515000,"walkTime":410,"transitTime":1498,"waitingTime":2,"walkDistance":512.4754887171099,"walkLimitExceeded":false,"elevationLost":0.0,"elevationGained":0.0,"transfers":0,"legs":[{"startTime":1522694605000,"endTime":1522694821000,"departureDelay":0,"arrivalDelay":0,"realTime":false,"distance":274.412,"pathway":false,"mode":"WALK","route":"","agencyTimeZoneOffset":-14400000,"interlineWithPreviousLeg":false,"from":{"name":"Origin","lon":-71.062942,"lat":48.427745,"departure":1522694605000,"orig":"","vertexType":"NORMAL"},"to":{"name":"Racine / Havre","stopId":"1:1639","stopCode":"1639","lon":-71.059267,"lat":48.427469,"arrival":1522694821000,"departure":1522694822000,"zoneId":"NA","stopIndex":1,"stopSequence":2,"vertexType":"TRANSIT"},"legGeometry":{"points":"kpqfHfnvpLE?HyEBw@?S@m@JqFDuAB_A","length":9},"rentedBike":false,"transitLeg":false,"duration":216.0,"steps":[{"distance":3.292,"relativeDirection":"DEPART","streetName":"Rue de l'Hôtel-de-Ville","absoluteDirection":"NORTH","stayOn":false,"area":false,"bogusName":false,"lon":-71.06291624844302,"lat":48.42774459839536,"elevation":[]},{"distance":271.12,"relativeDirection":"RIGHT","streetName":"Rue Racine Est","absoluteDirection":"EAST","stayOn":false,"area":false,"bogusName":false,"lon":-71.0629152,"lat":48.4277742,"elevation":[]}]},{"startTime":1522694822000,"endTime":1522696320000,"departureDelay":0,"arrivalDelay":0,"realTime":false,"distance":7840.235415974706,"pathway":false,"mode":"BUS","route":"175","agencyName":"Société de Transport du Saguenay","agencyUrl":"http://ville.saguenay.ca/fr/services-aux-citoyens/transport-sts","agencyTimeZoneOffset":-14400000,"routeColor":"FF00FF","routeType":3,"routeId":"1:175","routeTextColor":"FFFFFF","interlineWithPreviousLeg":false,"tripBlockId":"7","headsign":"Costco","agencyId":"0","tripId":"1:217337","serviceDate":"20180402","from":{"name":"Racine / Havre","stopId":"1:1639","stopCode":"1639","lon":-71.059267,"lat":48.427469,"arrival":1522694821000,"departure":1522694822000,"zoneId":"NA","stopIndex":1,"stopSequence":2,"vertexType":"TRANSIT"},"to":{"name":"COSTCO","stopId":"1:1710","stopCode":"1710","lon":-71.085767,"lat":48.382333,"arrival":1522696320000,"departure":1522696321000,"zoneId":"NA","stopIndex":30,"stopSequence":31,"vertexType":"TRANSIT"},"legGeometry":{"points":"_oqfHlwupLBkAOsHAg@bAYUwMKoE@mB@kJ@iFbEf@xEj@iCtYp@r@z@`ABBvHtHXRx@l@VwAvAgB\\qBIuAC]g@yEzDuLbBbBvAxAMx@|@v@`A~@Xw@~D~DPxFZtA~ApE`N{LpFmEb@[ROl@[vDQXKfA[|@q@fAsBlEmMr@sBhCsKz@dAjB|@dM`GzCvAXrCr@~Gx@]PEr@ObACn@FrBb@|@Ch@Kx@U~HsB^KZ|DJpII~Fa@rFUzBi@bDUxAm@nCcAlDM^RTfD`DjF`FjCrCrAvAbCfDjIfMdAzAfFpHd@n@nC`DlXv[b@f@mCtHv@v@p@r@_@p@uAcBjDoJhAzApBrBrFvGjDdEbD|DZb@~DrEbDfDrA~ApLbNpG|GyCtHwBcC","length":108},"routeShortName":"175","routeLongName":"Term. Chic / Costco","rentedBike":false,"transitLeg":true,"duration":1498.0,"steps":[]},{"startTime":1522696321000,"endTime":1522696515000,"departureDelay":0,"arrivalDelay":0,"realTime":false,"distance":237.918,"pathway":false,"mode":"WALK","route":"","agencyTimeZoneOffset":-14400000,"interlineWithPreviousLeg":false,"from":{"name":"COSTCO","stopId":"1:1710","stopCode":"1710","lon":-71.085767,"lat":48.382333,"arrival":1522696320000,"departure":1522696321000,"zoneId":"NA","stopIndex":30,"stopSequence":31,"vertexType":"TRANSIT"},"to":{"name":"Destination","lon":-71.086723,"lat":48.382739,"arrival":1522696515000,"orig":"","vertexType":"NORMAL"},"legGeometry":{"points":"uthfHh}zpLtB`CoA~Ca@e@Q[Mu@[j@","length":7},"rentedBike":false,"transitLeg":false,"duration":194.0,"steps":[{"distance":81.226,"relativeDirection":"DEPART","streetName":"service road","absoluteDirection":"SOUTHWEST","stayOn":false,"area":false,"bogusName":true,"lon":-71.08580460382532,"lat":48.38235152300571,"elevation":[]},{"distance":73.854,"relativeDirection":"RIGHT","streetName":"Boulevard du Royaume Ouest","absoluteDirection":"NORTHWEST","stayOn":false,"area":false,"bogusName":false,"lon":-71.0864598,"lat":48.381764800000006,"elevation":[]},{"distance":82.838,"relativeDirection":"RIGHT","streetName":"service road","absoluteDirection":"NORTHEAST","stayOn":false,"area":false,"bogusName":true,"lon":-71.0872595,"lat":48.382163600000005,"elevation":[]}]}],"tooSloped":false},{"duration":1910,"startTime":1522696405000,"endTime":1522698315000,"walkTime":410,"transitTime":1498,"waitingTime":2,"walkDistance":512.4754887171099,"walkLimitExceeded":false,"elevationLost":0.0,"elevationGained":0.0,"transfers":0,"legs":[{"startTime":1522696405000,"endTime":1522696621000,"departureDelay":0,"arrivalDelay":0,"realTime":false,"distance":274.412,"pathway":false,"mode":"WALK","route":"","agencyTimeZoneOffset":-14400000,"interlineWithPreviousLeg":false,"from":{"name":"Origin","lon":-71.062942,"lat":48.427745,"departure":1522696405000,"orig":"","vertexType":"NORMAL"},"to":{"name":"Racine / Havre","stopId":"1:1639","stopCode":"1639","lon":-71.059267,"lat":48.427469,"arrival":1522696621000,"departure":1522696622000,"zoneId":"NA","stopIndex":1,"stopSequence":2,"vertexType":"TRANSIT"},"legGeometry":{"points":"kpqfHfnvpLE?HyEBw@?S@m@JqFDuAB_A","length":9},"rentedBike":false,"transitLeg":false,"duration":216.0,"steps":[{"distance":3.292,"relativeDirection":"DEPART","streetName":"Rue de l'Hôtel-de-Ville","absoluteDirection":"NORTH","stayOn":false,"area":false,"bogusName":false,"lon":-71.06291624844302,"lat":48.42774459839536,"elevation":[]},{"distance":271.12,"relativeDirection":"RIGHT","streetName":"Rue Racine Est","absoluteDirection":"EAST","stayOn":false,"area":false,"bogusName":false,"lon":-71.0629152,"lat":48.4277742,"elevation":[]}]},{"startTime":1522696622000,"endTime":1522698120000,"departureDelay":0,"arrivalDelay":0,"realTime":false,"distance":7840.235415974706,"pathway":false,"mode":"BUS","route":"175","agencyName":"Société de Transport du Saguenay","agencyUrl":"http://ville.saguenay.ca/fr/services-aux-citoyens/transport-sts","agencyTimeZoneOffset":-14400000,"routeColor":"FF00FF","routeType":3,"routeId":"1:175","routeTextColor":"FFFFFF","interlineWithPreviousLeg":false,"tripBlockId":"8","headsign":"Costco","agencyId":"0","tripId":"1:217374","serviceDate":"20180402","from":{"name":"Racine / Havre","stopId":"1:1639","stopCode":"1639","lon":-71.059267,"lat":48.427469,"arrival":1522696621000,"departure":1522696622000,"zoneId":"NA","stopIndex":1,"stopSequence":2,"vertexType":"TRANSIT"},"to":{"name":"COSTCO","stopId":"1:1710","stopCode":"1710","lon":-71.085767,"lat":48.382333,"arrival":1522698120000,"departure":1522698121000,"zoneId":"NA","stopIndex":30,"stopSequence":31,"vertexType":"TRANSIT"},"legGeometry":{"points":"_oqfHlwupLBkAOsHAg@bAYUwMKoE@mB@kJ@iFbEf@xEj@iCtYp@r@z@`ABBvHtHXRx@l@VwAvAgB\\qBIuAC]g@yEzDuLbBbBvAxAMx@|@v@`A~@Xw@~D~DPxFZtA~ApE`N{LpFmEb@[ROl@[vDQXKfA[|@q@fAsBlEmMr@sBhCsKz@dAjB|@dM`GzCvAXrCr@~Gx@]PEr@ObACn@FrBb@|@Ch@Kx@U~HsB^KZ|DJpII~Fa@rFUzBi@bDUxAm@nCcAlDM^RTfD`DjF`FjCrCrAvAbCfDjIfMdAzAfFpHd@n@nC`DlXv[b@f@mCtHv@v@p@r@_@p@uAcBjDoJhAzApBrBrFvGjDdEbD|DZb@~DrEbDfDrA~ApLbNpG|GyCtHwBcC","length":108},"routeShortName":"175","routeLongName":"Term. Chic / Costco","rentedBike":false,"transitLeg":true,"duration":1498.0,"steps":[]},{"startTime":1522698121000,"endTime":1522698315000,"departureDelay":0,"arrivalDelay":0,"realTime":false,"distance":237.918,"pathway":false,"mode":"WALK","route":"","agencyTimeZoneOffset":-14400000,"interlineWithPreviousLeg":false,"from":{"name":"COSTCO","stopId":"1:1710","stopCode":"1710","lon":-71.085767,"lat":48.382333,"arrival":1522698120000,"departure":1522698121000,"zoneId":"NA","stopIndex":30,"stopSequence":31,"vertexType":"TRANSIT"},"to":{"name":"Destination","lon":-71.086723,"lat":48.382739,"arrival":1522698315000,"orig":"","vertexType":"NORMAL"},"legGeometry":{"points":"uthfHh}zpLtB`CoA~Ca@e@Q[Mu@[j@","length":7},"rentedBike":false,"transitLeg":false,"duration":194.0,"steps":[{"distance":81.226,"relativeDirection":"DEPART","streetName":"service road","absoluteDirection":"SOUTHWEST","stayOn":false,"area":false,"bogusName":true,"lon":-71.08580460382532,"lat":48.38235152300571,"elevation":[]},{"distance":73.854,"relativeDirection":"RIGHT","streetName":"Boulevard du Royaume Ouest","absoluteDirection":"NORTHWEST","stayOn":false,"area":false,"bogusName":false,"lon":-71.0864598,"lat":48.381764800000006,"elevation":[]},{"distance":82.838,"relativeDirection":"RIGHT","streetName":"service road","absoluteDirection":"NORTHEAST","stayOn":false,"area":false,"bogusName":true,"lon":-71.0872595,"lat":48.382163600000005,"elevation":[]}]}],"tooSloped":false}]},"debugOutput":{"precalculationTime":27,"pathCalculationTime":58,"pathTimes":[23,17,18],"renderingTime":1,"totalTime":86,"timedOut":false},"elevationMetadata":{"ellipsoidToGeoidDifference":-28.885904201182168,"geoidElevation":false}}