{"requestParameters":{"date":"2018/04/02","walkSpeed":"1.33","walkReluctance":"2.0","fromPlace":"48.415592,-71.07720299","maxWalkDistance":"3000","waitReluctance":"1.0","carSpeed":"33","numItineraries":"3","waitAtBeginningFactor":"0.4","mode":"TRANSIT,WALK","ignoreRealtimeUpdates":"false","stairsReluctance":"2.0","toPlace":"48.427391,-71.06312699","time":"16:30:00"},"plan":{"date":1522701000000,"from":{"name":"Origin","lon":-71.07720299,"lat":48.415592,"orig":"","vertexType":"NORMAL"},"to":{"name":"Destination","lon":-71.06312699,"lat":48.427391,"orig":"","vertexType":"NORMAL"},"itineraries":[{"duration":1547,"startTime":1522701000000,"endTime":1522702547000,"walkTime":1547,"transitTime":0,"waitingTime":0,"walkDistance":1983.927240591945,"walkLimitExceeded":false,"elevationLost":0.0,"elevationGained":0.0,"transfers":0,"legs":[{"startTime":1522701000000,"endTime":1522702547000,"departureDelay":0,"arrivalDelay":0,"realTime":false,"distance":1983.6309999999999,"pathway":false,"mode":"WALK","route":"","agencyTimeZoneOffset":-14400000,"interlineWithPreviousLeg":false,"from":{"name":"Origin","lon":-71.07720299,"lat":48.415592,"departure":1522701000000,"orig":"","vertexType":"NORMAL"},"to":{"name":"Destination","lon":-71.06312699,"lat":48.427391,"arrival":1522702547000,"orig":"","vertexType":"NORMAL"},"legGeometry":{"points":"mcofHfeypLg@e@o@m@oEkEYWd@qA}AeBkAqAwA{AuA}AqAuAeAkAKM}A}An@}AT{HISgAG[KSCgCQkBOMAQASAs@Eu@EyAGe@C{BOm@Ec@o@MMi@oAaBuDg@eAo@qBk@g@Ao@QGWo@Wo@u@kBcAyBs@qBKQEQS_BIs@GAU?Yb@MK}@A","length":54},"rentedBike":false,"transitLeg":false,"duration":1547.0,"steps":[{"distance":212.869,"relativeDirection":"DEPART","streetName":"Rue Boily","absoluteDirection":"NORTHEAST","stayOn":false,"area":false,"bogusName":false,"lon":-71.0768346434636,"lat":48.41543588430019,"elevation":[]},{"distance":36.581,"relativeDirection":"RIGHT","streetName":"Rue Des Oblats Est","absoluteDirection":"SOUTHEAST","stayOn":false,"area":false,"bogusName":false,"lon":-71.07527490000001,"lat":48.4170462,"elevation":[]},{"distance":409.582,"relativeDirection":"LEFT","streetName":"Rue Des Eudistes","absoluteDirection":"NORTHEAST","stayOn":false,"area":false,"bogusName":false,"lon":-71.07486750000001,"lat":48.4168588,"elevation":[]},{"distance":44.289,"relativeDirection":"RIGHT","streetName":"Rue Jolliet","absoluteDirection":"SOUTHEAST","stayOn":false,"area":false,"bogusName":false,"lon":-71.07166600000001,"lat":48.4198673,"elevation":[]},{"distance":183.554,"relativeDirection":"SLIGHTLY_LEFT","streetName":"Rue de la Cascade","absoluteDirection":"EAST","stayOn":false,"area":false,"bogusName":false,"lon":-71.0711947,"lat":48.4196207,"elevation":[]},{"distance":401.788,"relativeDirection":"CONTINUE","streetName":"Rue Sainte-Anne","absoluteDirection":"NORTH","stayOn":false,"area":false,"bogusName":false,"lon":-71.0694115,"lat":48.4200664,"elevation":[]},{"distance":272.594,"relativeDirection":"SLIGHTLY_RIGHT","streetName":"path","absoluteDirection":"NORTHEAST","stayOn":false,"area":false,"bogusName":true,"lon":-71.06896330000001,"lat":48.423667200000004,"elevation":[]},{"distance":17.515,"relativeDirection":"RIGHT","streetName":"Rue Price Est","absoluteDirection":"EAST","stayOn":false,"area":false,"bogusName":false,"lon":-71.0662212,"lat":48.425276600000004,"elevation":[]},{"distance":10.208,"relativeDirection":"LEFT","streetName":"Rue Morin","absoluteDirection":"NORTH","stayOn":false,"area":false,"bogusName":false,"lon":-71.06598410000001,"lat":48.4252842,"elevation":[]},{"distance":278.37399999999997,"relativeDirection":"SLIGHTLY_RIGHT","streetName":"path","absoluteDirection":"NORTHEAST","stayOn":false,"area":false,"bogusName":true,"lon":-71.0659473,"lat":48.425372700000004,"elevation":[]},{"distance":72.307,"relativeDirection":"LEFT","streetName":"steps","absoluteDirection":"NORTH","stayOn":true,"area":false,"bogusName":true,"lon":-71.0628209,"lat":48.4267206,"elevation":[]},{"distance":43.97,"relativeDirection":"RIGHT","streetName":"Rue de l'Hôtel-de-Ville","absoluteDirection":"NORTH","stayOn":false,"area":false,"bogusName":false,"lon":-71.0629919,"lat":48.4270002,"elevation":[]}]}],"tooSloped":false},{"duration":1041,"startTime":1522702334000,"endTime":1522703375000,"walkTime":188,"transitTime":851,"waitingTime":2,"walkDistance":237.976451126837,"walkLimitExceeded":false,"elevationLost":0.0,"elevationGained":0.0,"transfers":0,"legs":[{"startTime":1522702334000,"endTime":1522702360000,"departureDelay":0,"arrivalDelay":0,"realTime":false,"distance":32.406,"pathway":false,"mode":"WALK","route":"","agencyTimeZoneOffset":-14400000,"interlineWithPreviousLeg":false,"from":{"name":"Origin","lon":-71.07720299,"lat":48.415592,"departure":1522702334000,"orig":"","vertexType":"NORMAL"},"to":{"name":"Parc Saint-Joachim (Boily)","stopId":"1:548","stopCode":"548","lon":-71.076897,"lat":48.415117,"arrival":1522702360000,"departure":1522702361000,"zoneId":"NA","stopIndex":23,"stopSequence":24,"vertexType":"TRANSIT"},"legGeometry":{"points":"mcofHfeypL@@n@j@","length":3},"rentedBike":false,"transitLeg":false,"duration":26.0,"steps":[{"distance":32.406,"relativeDirection":"DEPART","streetName":"Rue Boily","absoluteDirection":"SOUTHWEST","stayOn":false,"area":false,"bogusName":false,"lon":-71.0768346434636,"lat":48.41543588430019,"elevation":[]}]},{"startTime":1522702361000,"endTime":1522703212000,"departureDelay":0,"arrivalDelay":0,"realTime":false,"distance":3669.7993784067826,"pathway":false,"mode":"BUS","route":"14","agencyName":"Société de Transport du Saguenay","agencyUrl":"http://ville.saguenay.ca/fr/services-aux-citoyens/transport-sts","agencyTimeZoneOffset":-14400000,"routeColor":"C0C000","routeType":3,"routeId":"1:14","routeTextColor":"000000","interlineWithPreviousLeg":false,"tripBlockId":"33","headsign":"Terminus Chicoutimi","agencyId":"0","tripId":"1:218192","serviceDate":"20180402","from":{"name":"Parc Saint-Joachim (Boily)","stopId":"1:548","stopCode":"548","lon":-71.076897,"lat":48.415117,"arrival":1522702360000,"departure":1522702361000,"zoneId":"NA","stopIndex":23,"stopSequence":24,"vertexType":"TRANSIT"},"to":{"name":"Jacques-Cartier / Morin","stopId":"1:1930","stopCode":"1930","lon":-71.065007,"lat":48.426603,"arrival":1522703212000,"departure":1522703213000,"zoneId":"NA","stopIndex":36,"stopSequence":37,"vertexType":"TRANSIT"},"legGeometry":{"points":"{aofHrfypL{IiI][aBhE}@}@oBmBwE{EwE{Ej@mBZeAa@SyEQg@CPcALuCx@{b@t@{[XoDd@sBl@iB~@gA`G{F{A{D_@sBFqDOq@iG{FGIoCkCgBgBsDpLHzBBT`@~COnBQf@gAjAg@bBuDmDmFgFa@_@w@s@CfAOrBEtAGbA?jBQtC?|@ExKMdIG~EUnL","length":53},"routeShortName":"14","routeLongName":"Coopérative","rentedBike":false,"transitLeg":true,"duration":851.0,"steps":[]},{"startTime":1522703213000,"endTime":1522703375000,"departureDelay":0,"arrivalDelay":0,"realTime":false,"distance":205.54000000000002,"pathway":false,"mode":"WALK","route":"","agencyTimeZoneOffset":-14400000,"interlineWithPreviousLeg":false,"from":{"name":"Jacques-Cartier / Morin","stopId":"1:1930","stopCode":"1930","lon":-71.065007,"lat":48.426603,"arrival":1522703212000,"departure":1522703213000,"zoneId":"NA","stopIndex":36,"stopSequence":37,"vertexType":"TRANSIT"},"to":{"name":"Destination","lon":-71.06312699,"lat":48.427391,"arrival":1522703375000,"orig":"","vertexType":"NORMAL"},"legGeometry":{"points":"{hqfHj{vpL@s@@_@EKGMEWw@cFG[KMMK}@A","length":11},"rentedBike":false,"transitLeg":false,"duration":162.0,"steps":[{"distance":30.978,"relativeDirection":"DEPART","streetName":"Rue Jacques-Cartier Est","absoluteDirection":"EAST","stayOn":false,"area":false,"bogusName":false,"lon":-71.06501225432459,"lat":48.42654615659386,"elevation":[]},{"distance":130.592,"relativeDirection":"LEFT","streetName":"Rue de l'Hôtel-de-Ville","absoluteDirection":"NORTHEAST","stayOn":false,"area":false,"bogusName":false,"lon":-71.0645932,"lat":48.4265291,"elevation":[]},{"distance":43.97,"relativeDirection":"LEFT","streetName":"Rue de l'Hôtel-de-Ville","absoluteDirection":"NORTH","stayOn":true,"area":false,"bogusName":false,"lon":-71.0629919,"lat":48.4270002,"elevation":[]}]}],"tooSloped":false},{"duration":1041,"startTime":1522704134000,"endTime":1522705175000,"walkTime":188,"transitTime":851,"waitingTime":2,"walkDistance":237.976451126837,"walkLimitExceeded":false,"elevationLost":0.0,"elevationGained":0.0,"transfers":0,"legs":[{"startTime":1522704134000,"endTime":1522704160000,"departureDelay":0,"arrivalDelay":0,"realTime":false,"distance":32.406,"pathway":false,"mode":"WALK","route":"","agencyTimeZoneOffset":-14400000,"interlineWithPreviousLeg":false,"from":{"name":"Origin","lon":-71.07720299,"lat":48.415592,"departure":1522704134000,"orig":"","vertexType":"NORMAL"},"to":{"name":"Parc Saint-Joachim (Boily)","stopId":"1:548","stopCode":"548","lon":-71.076897,"lat":48.415117,"arrival":1522704160000,"departure":1522704161000,"zoneId":"NA","stopIndex":23,"stopSequence":24,"vertexType":"TRANSIT"},"legGeometry":{"points":"mcofHfeypL@@n@j@","length":3},"rentedBike":false,"transitLeg":false,"duration":26.0,"steps":[{"distance":32.406,"relativeDirection":"DEPART","streetName":"Rue Boily","absoluteDirection":"SOUTHWEST","stayOn":false,"area":false,"bogusName":false,"lon":-71.0768346434636,"lat":48.41543588430019,"elevation":[]}]},{"startTime":1522704161000,"endTime":1522705012000,"departureDelay":0,"arrivalDelay":0,"realTime":false,"distance":3669.7993784067826,"pathway":false,"mode":"BUS","route":"14","agencyName":"Société de Transport du Saguenay","agencyUrl":"http://ville.saguenay.ca/fr/services-aux-citoyens/transport-sts","agencyTimeZoneOffset":-14400000,"routeColor":"C0C000","routeType":3,"routeId":"1:14","routeTextColor":"000000","interlineWithPreviousLeg":false,"tripBlockId":"31","headsign":"Terminus Chicoutimi","agencyId":"0","tripId":"1:218143","serviceDate":"20180402","from":{"name":"Parc Saint-Joachim (Boily)","stopId":"1:548","stopCode":"548","lon":-71.076897,"lat":48.415117,"arrival":1522704160000,"departure":1522704161000,"zoneId":"NA","stopIndex":23,"stopSequence":24,"vertexType":"TRANSIT"},"to":{"name":"Jacques-Cartier / Morin","stopId":"1:1930","stopCode":"1930","lon":-71.065007,"lat":48.426603,"arrival":1522705012000,"departure":1522705013000,"zoneId":"NA","stopIndex":36,"stopSequence":37,"vertexType":"TRANSIT"},"legGeometry":{"points":"{aofHrfypL{IiI][aBhE}@}@oBmBwE{EwE{Ej@mBZeAa@SyEQg@CPcALuCx@{b@t@{[XoDd@sBl@iB~@gA`G{F{A{D_@sBFqDOq@iG{FGIoCkCgBgBsDpLHzBBT`@~COnBQf@gAjAg@bBuDmDmFgFa@_@w@s@CfAOrBEtAGbA?jBQtC?|@ExKMdIG~EUnL","length":53},"routeShortName":"14","routeLongName":"Coopérative","rentedBike":false,"transitLeg":true,"duration":851.0,"steps":[]},{"startTime":1522705013000,"endTime":1522705175000,"departureDelay":0,"arrivalDelay":0,"realTime":false,"distance":205.54000000000002,"pathway":false,"mode":"WALK","route":"","agencyTimeZoneOffset":-14400000,"interlineWithPreviousLeg":false,"from":{"name":"Jacques-Cartier / Morin","stopId":"1:1930","stopCode":"1930","lon":-71.065007,"lat":48.426603,"arrival":1522705012000,"departure":1522705013000,"zoneId":"NA","stopIndex":36,"stopSequence":37,"vertexType":"TRANSIT"},"to":{"name":"Destination","lon":-71.06312699,"lat":48.427391,"arrival":1522705175000,"orig":"","vertexType":"NORMAL"},"legGeometry":{"points":"{hqfHj{vpL@s@@_@EKGMEWw@cFG[KMMK}@A","length":11},"rentedBike":false,"transitLeg":false,"duration":162.0,"steps":[{"distance":30.978,"relativeDirection":"DEPART","streetName":"Rue Jacques-Cartier Est","absoluteDirection":"EAST","stayOn":false,"area":false,"bogusName":false,"lon":-71.06501225432459,"lat":48.42654615659386,"elevation":[]},{"distance":130.592,"relativeDirection":"LEFT","streetName":"Rue de l'Hôtel-de-Ville","absoluteDirection":"NORTHEAST","stayOn":false,"area":false,"bogusName":false,"lon":-71.0645932,"lat":48.4265291,"elevation":[]},{"distance":43.97,"relativeDirection":"LEFT","streetName":"Rue de l'Hôtel-de-Ville","absoluteDirection":"NORTH","stayOn":true,"area":false,"bogusName":false,"lon":-71.0629919,"lat":48.4270002,"elevation":[]}]}],"tooSloped":false}]},"debugOutput":{"precalculationTime":56,"pathCalculationTime":39,"pathTimes":[21,6,12],"renderingTime":0,"totalTime":95,"timedOut":false},"elevationMetadata":{"ellipsoidToGeoidDifference":-28.885904201182168,"geoidElevation":false}}