{"requestParameters":{"date":"2018/04/02","walkSpeed":"1.33","walkReluctance":"2.0","fromPlace":"48.420004,-71.02074899","maxWalkDistance":"3000","waitReluctance":"1.0","carSpeed":"33","numItineraries":"3","waitAtBeginningFactor":"0.4","mode":"TRANSIT,WALK","ignoreRealtimeUpdates":"false","stairsReluctance":"2.0","toPlace":"48.416613,-71.04576799","time":"19:30:00"},"plan":{"date":1522711800000,"from":{"name":"Origin","lon":-71.02074899,"lat":48.420004,"orig":"","vertexType":"NORMAL"},"to":{"name":"Destination","lon":-71.04576799,"lat":48.416613,"orig":"","vertexType":"NORMAL"},"itineraries":[{"duration":2219,"startTime":1522711800000,"endTime":1522714019000,"walkTime":2219,"transitTime":0,"waitingTime":0,"walkDistance":2886.720195481358,"walkLimitExceeded":false,"elevationLost":0.0,"elevationGained":0.0,"transfers":0,"legs":[{"startTime":1522711800000,"endTime":1522714019000,"departureDelay":0,"arrivalDelay":0,"realTime":false,"distance":2886.4919999999993,"pathway":false,"mode":"WALK","route":"","agencyTimeZoneOffset":-14400000,"interlineWithPreviousLeg":false,"from":{"name":"Origin","lon":-71.02074899,"lat":48.420004,"departure":1522711800000,"orig":"","vertexType":"NORMAL"},"to":{"name":"Destination","lon":-71.04576799,"lat":48.416613,"arrival":1522714019000,"orig":"","vertexType":"NORMAL"},"legGeometry":{"points":"g`pfHngnpLjTjNfIjF~CTNC`BUTEp@Kj@tKxB|MHl@TrAf@xEB\\L`CDh@@^ZvEHpAQFG[QJc@PIDSDM?QHQAIFOBSFMt@]fB]hAiAvBQ^K@QQMEW@Bp@Ml@yBhDSXGR}AvBMPqBfDQ^g@bB_@fAwAnDwAtEkB|InBtBcAhDo@tBfClCv@x@","length":59},"alerts":[{"alertHeaderText":"Unpaved surface"}],"rentedBike":false,"transitLeg":false,"duration":2219.0,"steps":[{"distance":817.3520000000001,"relativeDirection":"DEPART","streetName":"Boulevard du Saguenay Est","absoluteDirection":"SOUTHWEST","stayOn":false,"area":false,"bogusName":false,"lon":-71.02087695406544,"lat":48.42004443067001,"elevation":[]},{"distance":674.7560000000001,"relativeDirection":"RIGHT","streetName":"Boulevard de l'Université","absoluteDirection":"WEST","stayOn":false,"area":false,"bogusName":false,"lon":-71.0244078,"lat":48.413254800000004,"elevation":[]},{"distance":336.47,"relativeDirection":"RIGHT","streetName":"path","absoluteDirection":"NORTH","stayOn":false,"area":false,"bogusName":true,"lon":-71.0332252,"lat":48.411744500000005,"elevation":[],"alerts":[{"alertHeaderText":"Unpaved surface"}]},{"distance":727.4130000000001,"relativeDirection":"LEFT","streetName":"Rue Pierre-Bédard","absoluteDirection":"WEST","stayOn":false,"area":false,"bogusName":false,"lon":-71.03529920000001,"lat":48.4139415,"elevation":[]},{"distance":76.017,"relativeDirection":"LEFT","streetName":"Rue Murdock","absoluteDirection":"SOUTHWEST","stayOn":false,"area":false,"bogusName":false,"lon":-71.043108,"lat":48.417727500000005,"elevation":[]},{"distance":124.399,"relativeDirection":"RIGHT","streetName":"Rue D'Iberville","absoluteDirection":"NORTHWEST","stayOn":false,"area":false,"bogusName":false,"lon":-71.04369340000001,"lat":48.417165000000004,"elevation":[]},{"distance":130.085,"relativeDirection":"LEFT","streetName":"Boulevard Talbot","absoluteDirection":"SOUTHWEST","stayOn":false,"area":false,"bogusName":false,"lon":-71.0451359,"lat":48.417743800000004,"elevation":[]}]}],"tooSloped":false},{"duration":2166,"startTime":1522713182000,"endTime":1522715348000,"walkTime":634,"transitTime":1530,"waitingTime":2,"walkDistance":808.5622932292981,"walkLimitExceeded":false,"elevationLost":0.0,"elevationGained":0.0,"transfers":0,"legs":[{"startTime":1522713182000,"endTime":1522713419000,"departureDelay":0,"arrivalDelay":0,"realTime":false,"distance":297.784,"pathway":false,"mode":"WALK","route":"","agencyTimeZoneOffset":-14400000,"interlineWithPreviousLeg":false,"from":{"name":"Origin","lon":-71.02074899,"lat":48.420004,"departure":1522713182000,"orig":"","vertexType":"NORMAL"},"to":{"name":"rue Gascogne (face no585)","stopId":"1:1028","stopCode":"1028","lon":-71.022333,"lat":48.419226,"arrival":1522713419000,"departure":1522713420000,"zoneId":"NA","stopIndex":18,"stopSequence":19,"vertexType":"TRANSIT"},"legGeometry":{"points":"g`pfHngnpL{@i@a@~Ac@dANZZn@HPBDTFPGDA`@ODADCPHTLJF\\RNHJB`@N@?","length":22},"rentedBike":false,"transitLeg":false,"duration":237.0,"steps":[{"distance":36.474,"relativeDirection":"DEPART","streetName":"Boulevard du Saguenay Est","absoluteDirection":"NORTHEAST","stayOn":false,"area":false,"bogusName":false,"lon":-71.02087695406544,"lat":48.42004443067001,"elevation":[]},{"distance":73.153,"relativeDirection":"LEFT","streetName":"Rue de Normandie","absoluteDirection":"NORTHWEST","stayOn":false,"area":false,"bogusName":false,"lon":-71.02066450000001,"lat":48.4203406,"elevation":[]},{"distance":188.15699999999998,"relativeDirection":"LEFT","streetName":"Rue de Gascogne","absoluteDirection":"SOUTHWEST","stayOn":false,"area":false,"bogusName":false,"lon":-71.0215,"lat":48.4206914,"elevation":[]}]},{"startTime":1522713420000,"endTime":1522714260000,"departureDelay":0,"arrivalDelay":0,"realTime":false,"distance":5255.868803193618,"pathway":false,"mode":"BUS","route":"12","agencyName":"Société de Transport du Saguenay","agencyUrl":"http://ville.saguenay.ca/fr/services-aux-citoyens/transport-sts","agencyTimeZoneOffset":-14400000,"routeColor":"556B2F","routeType":3,"routeId":"1:12","routeTextColor":"FFFFFF","interlineWithPreviousLeg":false,"tripBlockId":"29","headsign":"Terminus Chicoutimi","agencyId":"0","tripId":"1:218078","serviceDate":"20180402","from":{"name":"rue Gascogne (face no585)","stopId":"1:1028","stopCode":"1028","lon":-71.022333,"lat":48.419226,"arrival":1522713419000,"departure":1522713420000,"zoneId":"NA","stopIndex":18,"stopSequence":19,"vertexType":"TRANSIT"},"to":{"name":"Terminus Chicoutimi","stopId":"1:1289","stopCode":"1289","lon":-71.066163,"lat":48.428677,"arrival":1522714260000,"departure":1522714500000,"zoneId":"NA","stopIndex":33,"stopSequence":34,"vertexType":"TRANSIT"},"legGeometry":{"points":"a{ofHnpnpLfBlAyLtKoGxFcFqDkJaHgEoDmDwC_TqQsBeB{HjWfAvAfM|O|FlHmB`IgA|Cy@`UYzHZvMR~Hr@~ZPvHsCrMFxf@|ApJj@nDDl]BvZdCXJhC","length":30},"routeShortName":"12","routeLongName":"Rivière du Moulin","rentedBike":false,"transitLeg":true,"duration":840.0,"steps":[]},{"startTime":1522714500000,"endTime":1522714950000,"departureDelay":0,"arrivalDelay":0,"realTime":false,"distance":2054.5895961408355,"pathway":false,"mode":"BUS","route":"10","agencyName":"Société de Transport du Saguenay","agencyUrl":"http://ville.saguenay.ca/fr/services-aux-citoyens/transport-sts","agencyTimeZoneOffset":-14400000,"routeColor":"0000FF","routeType":3,"routeId":"1:10","routeTextColor":"FFFFFF","interlineWithPreviousLeg":true,"tripBlockId":"29","headsign":"Terminus UQAC","agencyId":"0","tripId":"1:218079","serviceDate":"20180402","from":{"name":"Terminus Chicoutimi","stopId":"1:1289","stopCode":"1289","lon":-71.066163,"lat":48.428677,"arrival":1522714260000,"departure":1522714500000,"zoneId":"NA","stopIndex":0,"stopSequence":1,"vertexType":"TRANSIT"},"to":{"name":"nouveau","stopId":"1:2286","stopCode":"2286","lon":-71.045129,"lat":48.420344,"arrival":1522714950000,"departure":1522714951000,"zoneId":"NA","stopIndex":8,"stopSequence":9,"vertexType":"TRANSIT"},"legGeometry":{"points":"svqfHnbwpLDmCdDZ\\kO`@mQBuCD}DQ_ECk@^Cd@QWkL?m@IuF@gA?eH?cAEuEDO^AjD`@B@rEf@T_FjBXpDd@hCObDaCfCaHbFqN","length":30},"routeShortName":"10","routeLongName":"Notre-Dame du Saguenay","rentedBike":false,"transitLeg":true,"duration":450.0,"steps":[]},{"startTime":1522714951000,"endTime":1522715348000,"departureDelay":0,"arrivalDelay":0,"realTime":false,"distance":510.66100000000006,"pathway":false,"mode":"WALK","route":"","agencyTimeZoneOffset":-14400000,"interlineWithPreviousLeg":false,"from":{"name":"nouveau","stopId":"1:2286","stopCode":"2286","lon":-71.045129,"lat":48.420344,"arrival":1522714950000,"departure":1522714951000,"zoneId":"NA","stopIndex":8,"stopSequence":9,"vertexType":"TRANSIT"},"to":{"name":"Destination","lon":-71.04576799,"lat":48.416613,"arrival":1522715348000,"orig":"","vertexType":"NORMAL"},"legGeometry":{"points":"{bpfHf~rpLNa@nAoDJ[L_@RJpCxAt@^RRt@h@~BdBfClCv@x@","length":13},"rentedBike":false,"transitLeg":false,"duration":397.0,"steps":[{"distance":120.464,"relativeDirection":"DEPART","streetName":"Chemin Sydenham","absoluteDirection":"SOUTHEAST","stayOn":false,"area":false,"bogusName":false,"lon":-71.04499801128695,"lat":48.42046535770786,"elevation":[]},{"distance":390.19700000000006,"relativeDirection":"RIGHT","streetName":"Boulevard Talbot","absoluteDirection":"SOUTH","stayOn":false,"area":false,"bogusName":false,"lon":-71.04364480000001,"lat":48.4198596,"elevation":[]}]}],"tooSloped":false},{"duration":2166,"startTime":1522714982000,"endTime":1522717148000,"walkTime":634,"transitTime":1530,"waitingTime":2,"walkDistance":808.5622932292981,"walkLimitExceeded":false,"elevationLost":0.0,"elevationGained":0.0,"transfers":0,"legs":[{"startTime":1522714982000,"endTime":1522715219000,"departureDelay":0,"arrivalDelay":0,"realTime":false,"distance":297.784,"pathway":false,"mode":"WALK","route":"","agencyTimeZoneOffset":-14400000,"interlineWithPreviousLeg":false,"from":{"name":"Origin","lon":-71.02074899,"lat":48.420004,"departure":1522714982000,"orig":"","vertexType":"NORMAL"},"to":{"name":"rue Gascogne (face no585)","stopId":"1:1028","stopCode":"1028","lon":-71.022333,"lat":48.419226,"arrival":1522715219000,"departure":1522715220000,"zoneId":"NA","stopIndex":18,"stopSequence":19,"vertexType":"TRANSIT"},"legGeometry":{"points":"g`pfHngnpL{@i@a@~Ac@dANZZn@HPBDTFPGDA`@ODADCPHTLJF\\RNHJB`@N@?","length":22},"rentedBike":false,"transitLeg":false,"duration":237.0,"steps":[{"distance":36.474,"relativeDirection":"DEPART","streetName":"Boulevard du Saguenay Est","absoluteDirection":"NORTHEAST","stayOn":false,"area":false,"bogusName":false,"lon":-71.02087695406544,"lat":48.42004443067001,"elevation":[]},{"distance":73.153,"relativeDirection":"LEFT","streetName":"Rue de Normandie","absoluteDirection":"NORTHWEST","stayOn":false,"area":false,"bogusName":false,"lon":-71.02066450000001,"lat":48.4203406,"elevation":[]},{"distance":188.15699999999998,"relativeDirection":"LEFT","streetName":"Rue de Gascogne","absoluteDirection":"SOUTHWEST","stayOn":false,"area":false,"bogusName":false,"lon":-71.0215,"lat":48.4206914,"elevation":[]}]},{"startTime":1522715220000,"endTime":1522716060000,"departureDelay":0,"arrivalDelay":0,"realTime":false,"distance":5255.868803193618,"pathway":false,"mode":"BUS","route":"12","agencyName":"Société de Transport du Saguenay","agencyUrl":"http://ville.saguenay.ca/fr/services-aux-citoyens/transport-sts","agencyTimeZoneOffset":-14400000,"routeColor":"556B2F","routeType":3,"routeId":"1:12","routeTextColor":"FFFFFF","interlineWithPreviousLeg":false,"tripBlockId":"26","headsign":"Terminus Chicoutimi","agencyId":"0","tripId":"1:217991","serviceDate":"20180402","from":{"name":"rue Gascogne (face no585)","stopId":"1:1028","stopCode":"1028","lon":-71.022333,"lat":48.419226,"arrival":1522715219000,"departure":1522715220000,"zoneId":"NA","stopIndex":18,"stopSequence":19,"vertexType":"TRANSIT"},"to":{"name":"Terminus Chicoutimi","stopId":"1:1289","stopCode":"1289","lon":-71.066163,"lat":48.428677,"arrival":1522716060000,"departure":1522716300000,"zoneId":"NA","stopIndex":33,"stopSequence":34,"vertexType":"TRANSIT"},"legGeometry":{"points":"a{ofHnpnpLfBlAyLtKoGxFcFqDkJaHgEoDmDwC_TqQsBeB{HjWfAvAfM|O|FlHmB`IgA|Cy@`UYzHZvMR~Hr@~ZPvHsCrMFxf@|ApJj@nDDl]BvZdCXJhC","length":30},"routeShortName":"12","routeLongName":"Rivière du Moulin","rentedBike":false,"transitLeg":true,"duration":840.0,"steps":[]},{"startTime":1522716300000,"endTime":1522716750000,"departureDelay":0,"arrivalDelay":0,"realTime":false,"distance":2054.5895961408355,"pathway":false,"mode":"BUS","route":"10","agencyName":"Société de Transport du Saguenay","agencyUrl":"http://ville.saguenay.ca/fr/services-aux-citoyens/transport-sts","agencyTimeZoneOffset":-14400000,"routeColor":"0000FF","routeType":3,"routeId":"1:10","routeTextColor":"FFFFFF","interlineWithPreviousLeg":true,"tripBlockId":"26","headsign":"Terminus UQAC","agencyId":"0","tripId":"1:217992","serviceDate":"20180402","from":{"name":"Terminus Chicoutimi","stopId":"1:1289","stopCode":"1289","lon":-71.066163,"lat":48.428677,"arrival":1522716060000,"departure":1522716300000,"zoneId":"NA","stopIndex":0,"stopSequence":1,"vertexType":"TRANSIT"},"to":{"name":"nouveau","stopId":"1:2286","stopCode":"2286","lon":-71.045129,"lat":48.420344,"arrival":1522716750000,"departure":1522716751000,"zoneId":"NA","stopIndex":8,"stopSequence":9,"vertexType":"TRANSIT"},"legGeometry":{"points":"svqfHnbwpLDmCdDZ\\kO`@mQBuCD}DQ_ECk@^Cd@QWkL?m@IuF@gA?eH?cAEuEDO^AjD`@B@rEf@T_FjBXpDd@hCObDaCfCaHbFqN","length":30},"routeShortName":"10","routeLongName":"Notre-Dame du Saguenay","rentedBike":false,"transitLeg":true,"duration":450.0,"steps":[]},{"startTime":1522716751000,"endTime":1522717148000,"departureDelay":0,"arrivalDelay":0,"realTime":false,"distance":510.66100000000006,"pathway":false,"mode":"WALK","route":"","agencyTimeZoneOffset":-14400000,"interlineWithPreviousLeg":false,"from":{"name":"nouveau","stopId":"1:2286","stopCode":"2286","lon":-71.045129,"lat":48.420344,"arrival":1522716750000,"departure":1522716751000,"zoneId":"NA","stopIndex":8,"stopSequence":9,"vertexType":"TRANSIT"},"to":{"name":"Destination","lon":-71.04576799,"lat":48.416613,"arrival":1522717148000,"orig":"","vertexType":"NORMAL"},"legGeometry":{"points":"{bpfHf~rpLNa@nAoDJ[L_@RJpCxAt@^RRt@h@~BdBfClCv@x@","length":13},"rentedBike":false,"transitLeg":false,"duration":397.0,"steps":[{"distance":120.464,"relativeDirection":"DEPART","streetName":"Chemin Sydenham","absoluteDirection":"SOUTHEAST","stayOn":false,"area":false,"bogusName":false,"lon":-71.04499801128695,"lat":48.42046535770786,"elevation":[]},{"distance":390.19700000000006,"relativeDirection":"RIGHT","streetName":"Boulevard Talbot","absoluteDirection":"SOUTH","stayOn":false,"area":false,"bogusName":false,"lon":-71.04364480000001,"lat":48.4198596,"elevation":[]}]}],"tooSloped":false}]},"debugOutput":{"precalculationTime":49,"pathCalculationTime":30,"pathTimes":[20,3,7],"renderingTime":1,"totalTime":80,"timedOut":false},"elevationMetadata":{"ellipsoidToGeoidDifference":-28.885904201182168,"geoidElevation":false}}