{"requestParameters":{"date":"2018/04/02","walkSpeed":"1.33","walkReluctance":"2.0","fromPlace":"48.415766,-71.06686399","maxWalkDistance":"3000","waitReluctance":"1.0","carSpeed":"33","numItineraries":"3","waitAtBeginningFactor":"0.4","mode":"TRANSIT,WALK","ignoreRealtimeUpdates":"false","stairsReluctance":"2.0","toPlace":"48.393977,-71.067824","time":"11:30:00"},"plan":{"date":1522683000000,"from":{"name":"Origin","lon":-71.06686399,"lat":48.415766,"orig":"","vertexType":"NORMAL"},"to":{"name":"Destination","lon":-71.067824,"lat":48.393977,"orig":"","vertexType":"NORMAL"},"itineraries":[{"duration":1610,"startTime":1522683973000,"endTime":1522685583000,"walkTime":927,"transitTime":681,"waitingTime":2,"walkDistance":1197.8999774390602,"walkLimitExceeded":false,"elevationLost":0.0,"elevationGained":0.0,"transfers":0,"legs":[{"startTime":1522683973000,"endTime":1522684778000,"departureDelay":0,"arrivalDelay":0,"realTime":false,"distance":1043.0069999999998,"pathway":false,"mode":"WALK","route":"","agencyTimeZoneOffset":-14400000,"interlineWithPreviousLeg":false,"from":{"name":"Origin","lon":-71.06686399,"lat":48.415766,"departure":1522683973000,"orig":"","vertexType":"NORMAL"},"to":{"name":"Carrefour 216","stopId":"1:524","stopCode":"524","lon":-71.076345,"lat":48.417612,"arrival":1522684778000,"departure":1522684779000,"zoneId":"NA","stopIndex":12,"stopSequence":13,"vertexType":"TRANSIT"},"legGeometry":{"points":"caofHzgwpL?n@Lb@d@RrCkA`@}@~AvBIP}AhEi@xAc@jA{@`C_DrIaC`HQ`@iCnHe@pAi@tA{@rBCC","length":20},"rentedBike":false,"transitLeg":false,"duration":805.0,"steps":[{"distance":171.623,"relativeDirection":"DEPART","streetName":"Rue D'Youville","absoluteDirection":"WEST","stayOn":false,"area":false,"bogusName":false,"lon":-71.067017,"lat":48.415068,"elevation":[]},{"distance":69.564,"relativeDirection":"RIGHT","streetName":"Rue Bégin","absoluteDirection":"SOUTHWEST","stayOn":false,"area":false,"bogusName":false,"lon":-71.0668443,"lat":48.4138998,"elevation":[]},{"distance":798.6230000000002,"relativeDirection":"RIGHT","streetName":"Rue Des Oblats Est","absoluteDirection":"NORTHWEST","stayOn":false,"area":false,"bogusName":false,"lon":-71.06744280000001,"lat":48.413416500000004,"elevation":[]},{"distance":3.197,"relativeDirection":"RIGHT","streetName":"Rue Caron","absoluteDirection":"NORTHEAST","stayOn":false,"area":false,"bogusName":false,"lon":-71.0762876,"lat":48.4175528,"elevation":[]}]},{"startTime":1522684779000,"endTime":1522685460000,"departureDelay":0,"arrivalDelay":0,"realTime":false,"distance":5834.935319143313,"pathway":false,"mode":"BUS","route":"14","agencyName":"Société de Transport du Saguenay","agencyUrl":"http://ville.saguenay.ca/fr/services-aux-citoyens/transport-sts","agencyTimeZoneOffset":-14400000,"routeColor":"C0C000","routeType":3,"routeId":"1:14","routeTextColor":"000000","interlineWithPreviousLeg":false,"tripBlockId":"30","headsign":"Talbot / Barrette","agencyId":"0","tripId":"1:218097","serviceDate":"20180402","from":{"name":"Carrefour 216","stopId":"1:524","stopCode":"524","lon":-71.076345,"lat":48.417612,"arrival":1522684778000,"departure":1522684779000,"zoneId":"NA","stopIndex":12,"stopSequence":13,"vertexType":"TRANSIT"},"to":{"name":"Roitelets / Sapins","stopId":"1:1543","stopCode":"1543","lon":-71.069553,"lat":48.393375,"arrival":1522685460000,"departure":1522685461000,"zoneId":"NA","stopIndex":35,"stopSequence":36,"vertexType":"TRANSIT"},"legGeometry":{"points":"{pofHvaypLfBeEtK`KhAdAnCbCvBpCNR~BxAxBf@z@h@vAz@z@{DrCoITTlElEtAnB`@l@pFrD@?fDr@XgAjFuR\\yADm@b@gFd@_B`A}@tEvJBDvC`FtJ|LLNlClC|@^hCYVExCjCb@d@vE`F`BhB?pHaBhRqAbLK~@qBxFqB|FcC~GyC\\aDkDcFsF~CgOtGm[j@oCvEoSl@_CxCmLjAeFpCeKrByHfAqCvH_SLa@","length":62},"routeShortName":"14","routeLongName":"Coopérative","rentedBike":false,"transitLeg":true,"duration":681.0,"steps":[]},{"startTime":1522685461000,"endTime":1522685583000,"departureDelay":0,"arrivalDelay":0,"realTime":false,"distance":154.752,"pathway":false,"mode":"WALK","route":"","agencyTimeZoneOffset":-14400000,"interlineWithPreviousLeg":false,"from":{"name":"Roitelets / Sapins","stopId":"1:1543","stopCode":"1543","lon":-71.069553,"lat":48.393375,"arrival":1522685460000,"departure":1522685461000,"zoneId":"NA","stopIndex":35,"stopSequence":36,"vertexType":"TRANSIT"},"to":{"name":"Destination","lon":-71.067824,"lat":48.393977,"arrival":1522685583000,"orig":"","vertexType":"NORMAL"},"legGeometry":{"points":"oyjfHxwwpLTm@QOeDyE","length":4},"rentedBike":false,"transitLeg":false,"duration":122.0,"steps":[{"distance":21.055,"relativeDirection":"DEPART","streetName":"bike path","absoluteDirection":"SOUTHEAST","stayOn":false,"area":false,"bogusName":true,"lon":-71.0695674967601,"lat":48.39336056343373,"elevation":[]},{"distance":11.448,"relativeDirection":"LEFT","streetName":"path","absoluteDirection":"NORTHEAST","stayOn":true,"area":false,"bogusName":true,"lon":-71.06933020000001,"lat":48.3932555,"elevation":[]},{"distance":122.249,"relativeDirection":"CONTINUE","streetName":"Rue des Sapins","absoluteDirection":"NORTHEAST","stayOn":false,"area":false,"bogusName":false,"lon":-71.0692502,"lat":48.3933437,"elevation":[]}]}],"tooSloped":false},{"duration":1164,"startTime":1522684479000,"endTime":1522685643000,"walkTime":218,"transitTime":944,"waitingTime":2,"walkDistance":274.6566766894488,"walkLimitExceeded":false,"elevationLost":0.0,"elevationGained":0.0,"transfers":0,"legs":[{"startTime":1522684479000,"endTime":1522684575000,"departureDelay":0,"arrivalDelay":0,"realTime":false,"distance":119.834,"pathway":false,"mode":"WALK","route":"","agencyTimeZoneOffset":-14400000,"interlineWithPreviousLeg":false,"from":{"name":"Origin","lon":-71.06686399,"lat":48.415766,"departure":1522684479000,"orig":"","vertexType":"NORMAL"},"to":{"name":"Bégin / Youville","stopId":"1:2004","stopCode":"2004","lon":-71.066018,"lat":48.414996,"arrival":1522684575000,"departure":1522684576000,"zoneId":"NA","stopIndex":11,"stopSequence":12,"vertexType":"TRANSIT"},"legGeometry":{"points":"caofHzgwpLh@eBj@mAw@w@","length":4},"rentedBike":false,"transitLeg":false,"duration":96.0,"steps":[{"distance":82.47,"relativeDirection":"DEPART","streetName":"Rue D'Youville","absoluteDirection":"SOUTHEAST","stayOn":false,"area":false,"bogusName":false,"lon":-71.067017,"lat":48.415068,"elevation":[]},{"distance":37.364,"relativeDirection":"LEFT","streetName":"Rue Bégin","absoluteDirection":"NORTHEAST","stayOn":false,"area":false,"bogusName":false,"lon":-71.06611290000001,"lat":48.414635000000004,"elevation":[]}]},{"startTime":1522684576000,"endTime":1522685520000,"departureDelay":0,"arrivalDelay":0,"realTime":false,"distance":5910.794144118206,"pathway":false,"mode":"BUS","route":"15","agencyName":"Société de Transport du Saguenay","agencyUrl":"http://ville.saguenay.ca/fr/services-aux-citoyens/transport-sts","agencyTimeZoneOffset":-14400000,"routeColor":"FF00FF","routeType":3,"routeId":"1:15","routeTextColor":"FFFFFF","interlineWithPreviousLeg":false,"tripBlockId":"31","headsign":"Talbot / Barrette","agencyId":"0","tripId":"1:218132","serviceDate":"20180402","from":{"name":"Bégin / Youville","stopId":"1:2004","stopCode":"2004","lon":-71.066018,"lat":48.414996,"arrival":1522684575000,"departure":1522684576000,"zoneId":"NA","stopIndex":11,"stopSequence":12,"vertexType":"TRANSIT"},"to":{"name":"Roitelets / Sapins","stopId":"1:1543","stopCode":"1543","lon":-71.069553,"lat":48.393375,"arrival":1522685520000,"departure":1522685521000,"zoneId":"NA","stopIndex":35,"stopSequence":36,"vertexType":"TRANSIT"},"legGeometry":{"points":"a`ofHh`wpL|J~JdAfALzDNzDrAdBrEKvBEbCv@d@TvFlC|DlBpMlGrB`AM}@hAwEC{B]oBiBmBsH_@_K{H`EgIvCaGfEoItDsH~DeItC{FnBoLbCaO?qLa@uJzF`ApF~@~@PzAgEeDcBf@qAWcKUqEx@Ef@ExDVjDxAFBrBvAfGjG@BjCzC~DxC@@zA~Cb@fCJlC?BsBre@?DWbOAn@?nEGnM@H\\hCzA~ELvAAlAi@jDo@nB","length":67},"routeShortName":"15","routeLongName":"Term. Chic / Costco","rentedBike":false,"transitLeg":true,"duration":944.0,"steps":[]},{"startTime":1522685521000,"endTime":1522685643000,"departureDelay":0,"arrivalDelay":0,"realTime":false,"distance":154.752,"pathway":false,"mode":"WALK","route":"","agencyTimeZoneOffset":-14400000,"interlineWithPreviousLeg":false,"from":{"name":"Roitelets / Sapins","stopId":"1:1543","stopCode":"1543","lon":-71.069553,"lat":48.393375,"arrival":1522685520000,"departure":1522685521000,"zoneId":"NA","stopIndex":35,"stopSequence":36,"vertexType":"TRANSIT"},"to":{"name":"Destination","lon":-71.067824,"lat":48.393977,"arrival":1522685643000,"orig":"","vertexType":"NORMAL"},"legGeometry":{"points":"oyjfHxwwpLTm@QOeDyE","length":4},"rentedBike":false,"transitLeg":false,"duration":122.0,"steps":[{"distance":21.055,"relativeDirection":"DEPART","streetName":"bike path","absoluteDirection":"SOUTHEAST","stayOn":false,"area":false,"bogusName":true,"lon":-71.0695674967601,"lat":48.39336056343373,"elevation":[]},{"distance":11.448,"relativeDirection":"LEFT","streetName":"path","absoluteDirection":"NORTHEAST","stayOn":true,"area":false,"bogusName":true,"lon":-71.06933020000001,"lat":48.3932555,"elevation":[]},{"distance":122.249,"relativeDirection":"CONTINUE","streetName":"Rue des Sapins","absoluteDirection":"NORTHEAST","stayOn":false,"area":false,"bogusName":false,"lon":-71.0692502,"lat":48.3933437,"elevation":[]}]}],"tooSloped":false},{"duration":1164,"startTime":1522686279000,"endTime":1522687443000,"walkTime":218,"transitTime":944,"waitingTime":2,"walkDistance":274.6566766894488,"walkLimitExceeded":false,"elevationLost":0.0,"elevationGained":0.0,"transfers":0,"legs":[{"startTime":1522686279000,"endTime":1522686375000,"departureDelay":0,"arrivalDelay":0,"realTime":false,"distance":119.834,"pathway":false,"mode":"WALK","route":"","agencyTimeZoneOffset":-14400000,"interlineWithPreviousLeg":false,"from":{"name":"Origin","lon":-71.06686399,"lat":48.415766,"departure":1522686279000,"orig":"","vertexType":"NORMAL"},"to":{"name":"Bégin / Youville","stopId":"1:2004","stopCode":"2004","lon":-71.066018,"lat":48.414996,"arrival":1522686375000,"departure":1522686376000,"zoneId":"NA","stopIndex":11,"stopSequence":12,"vertexType":"TRANSIT"},"legGeometry":{"points":"caofHzgwpLh@eBj@mAw@w@","length":4},"rentedBike":false,"transitLeg":false,"duration":96.0,"steps":[{"distance":82.47,"relativeDirection":"DEPART","streetName":"Rue D'Youville","absoluteDirection":"SOUTHEAST","stayOn":false,"area":false,"bogusName":false,"lon":-71.067017,"lat":48.415068,"elevation":[]},{"distance":37.364,"relativeDirection":"LEFT","streetName":"Rue Bégin","absoluteDirection":"NORTHEAST","stayOn":false,"area":false,"bogusName":false,"lon":-71.06611290000001,"lat":48.414635000000004,"elevation":[]}]},{"startTime":1522686376000,"endTime":1522687320000,"departureDelay":0,"arrivalDelay":0,"realTime":false,"distance":5910.794144118206,"pathway":false,"mode":"BUS","route":"15","agencyName":"Société de Transport du Saguenay","agencyUrl":"http://ville.saguenay.ca/fr/services-aux-citoyens/transport-sts","agencyTimeZoneOffset":-14400000,"routeColor":"FF00FF","routeType":3,"routeId":"1:15","routeTextColor":"FFFFFF","interlineWithPreviousLeg":false,"tripBlockId":"33","headsign":"Talbot / Barrette","agencyId":"0","tripId":"1:218183","serviceDate":"20180402","from":{"name":"Bégin / Youville","stopId":"1:2004","stopCode":"2004","lon":-71.066018,"lat":48.414996,"arrival":1522686375000,"departure":1522686376000,"zoneId":"NA","stopIndex":11,"stopSequence":12,"vertexType":"TRANSIT"},"to":{"name":"Roitelets / Sapins","stopId":"1:1543","stopCode":"1543","lon":-71.069553,"lat":48.393375,"arrival":1522687320000,"departure":1522687321000,"zoneId":"NA","stopIndex":35,"stopSequence":36,"vertexType":"TRANSIT"},"legGeometry":{"points":"a`ofHh`wpL|J~JdAfALzDNzDrAdBrEKvBEbCv@d@TvFlC|DlBpMlGrB`AM}@hAwEC{B]oBiBmBsH_@_K{H`EgIvCaGfEoItDsH~DeItC{FnBoLbCaO?qLa@uJzF`ApF~@~@PzAgEeDcBf@qAWcKUqEx@Ef@ExDVjDxAFBrBvAfGjG@BjCzC~DxC@@zA~Cb@fCJlC?BsBre@?DWbOAn@?nEGnM@H\\hCzA~ELvAAlAi@jDo@nB","length":67},"routeShortName":"15","routeLongName":"Term. Chic / Costco","rentedBike":false,"transitLeg":true,"duration":944.0,"steps":[]},{"startTime":1522687321000,"endTime":1522687443000,"departureDelay":0,"arrivalDelay":0,"realTime":false,"distance":154.752,"pathway":false,"mode":"WALK","route":"","agencyTimeZoneOffset":-14400000,"interlineWithPreviousLeg":false,"from":{"name":"Roitelets / Sapins","stopId":"1:1543","stopCode":"1543","lon":-71.069553,"lat":48.393375,"arrival":1522687320000,"departure":1522687321000,"zoneId":"NA","stopIndex":35,"stopSequence":36,"vertexType":"TRANSIT"},"to":{"name":"Destination","lon":-71.067824,"lat":48.393977,"arrival":1522687443000,"orig":"","vertexType":"NORMAL"},"legGeometry":{"points":"oyjfHxwwpLTm@QOeDyE","length":4},"rentedBike":false,"transitLeg":false,"duration":122.0,"steps":[{"distance":21.055,"relativeDirection":"DEPART","streetName":"bike path","absoluteDirection":"SOUTHEAST","stayOn":false,"area":false,"bogusName":true,"lon":-71.0695674967601,"lat":48.39336056343373,"elevation":[]},{"distance":11.448,"relativeDirection":"LEFT","streetName":"path","absoluteDirection":"NORTHEAST","stayOn":true,"area":false,"bogusName":true,"lon":-71.06933020000001,"lat":48.3932555,"elevation":[]},{"distance":122.249,"relativeDirection":"CONTINUE","streetName":"Rue des Sapins","absoluteDirection":"NORTHEAST","stayOn":false,"area":false,"bogusName":false,"lon":-71.0692502,"lat":48.3933437,"elevation":[]}]}],"tooSloped":false}]},"debugOutput":{"precalculationTime":46,"pathCalculationTime":54,"pathTimes":[21,15,18],"renderingTime":0,"totalTime":100,"timedOut":false},"elevationMetadata":{"ellipsoidToGeoidDifference":-28.885904201182168,"geoidElevation":false}}