{"requestParameters":{"date":"2018/04/02","walkSpeed":"1.33","walkReluctance":"2.0","fromPlace":"48.403727,-71.056775","maxWalkDistance":"3000","waitReluctance":"1.0","carSpeed":"33","numItineraries":"3","waitAtBeginningFactor":"0.4","mode":"TRANSIT,WALK","ignoreRealtimeUpdates":"false","stairsReluctance":"2.0","toPlace":"48.383492,-71.08352999","time":"15:10:00"},"plan":{"date":1522696200000,"from":{"name":"Origin","lon":-71.056775,"lat":48.403727,"orig":"","vertexType":"NORMAL"},"to":{"name":"Destination","lon":-71.08352999,"lat":48.383492,"orig":"","vertexType":"NORMAL"},"itineraries":[{"duration":852,"startTime":1522696898000,"endTime":1522697750000,"walkTime":490,"transitTime":360,"waitingTime":2,"walkDistance":623.2088947333607,"walkLimitExceeded":false,"elevationLost":0.0,"elevationGained":0.0,"transfers":0,"legs":[{"startTime":1522696898000,"endTime":1522697235000,"departureDelay":0,"arrivalDelay":0,"realTime":false,"distance":424.6089999999999,"pathway":false,"mode":"WALK","route":"","agencyTimeZoneOffset":-14400000,"interlineWithPreviousLeg":false,"from":{"name":"Origin","lon":-71.056775,"lat":48.403727,"departure":1522696898000,"orig":"","vertexType":"NORMAL"},"to":{"name":"boul. Talbot (no. 1494) (Tim-Horton)","stopId":"1:1854","stopCode":"1854","lon":-71.060941,"lat":48.402118,"arrival":1522697235000,"departure":1522697236000,"zoneId":"NA","stopIndex":2,"stopSequence":3,"vertexType":"TRANSIT"},"legGeometry":{"points":"a{lfHviupLRRXXr@p@XVXXb@`@h@`AZl@FLTPa@bBq@hCMZfDbD","length":15},"rentedBike":false,"transitLeg":false,"duration":337.0,"steps":[{"distance":186.47699999999998,"relativeDirection":"DEPART","streetName":"service road","absoluteDirection":"SOUTHWEST","stayOn":false,"area":false,"bogusName":false,"lon":-71.05707521889572,"lat":48.40385594353976,"elevation":[]},{"distance":126.983,"relativeDirection":"SLIGHTLY_LEFT","streetName":"Rue des Saguenéens","absoluteDirection":"SOUTHWEST","stayOn":false,"area":false,"bogusName":false,"lon":-71.0586019,"lat":48.4025327,"elevation":[]},{"distance":111.149,"relativeDirection":"LEFT","streetName":"Boulevard Talbot","absoluteDirection":"SOUTHWEST","stayOn":false,"area":false,"bogusName":false,"lon":-71.0600254,"lat":48.4029151,"elevation":[]}]},{"startTime":1522697236000,"endTime":1522697596000,"departureDelay":0,"arrivalDelay":0,"realTime":false,"distance":2458.4214924486805,"pathway":false,"mode":"BUS","route":"208S","agencyName":"Société de Transport du Saguenay","agencyUrl":"http://ville.saguenay.ca/fr/services-aux-citoyens/transport-sts","agencyTimeZoneOffset":-14400000,"routeColor":"8B0000","routeType":3,"routeId":"1:208S","routeTextColor":"FFFFFF","interlineWithPreviousLeg":false,"tripBlockId":"107","headsign":"Costco","agencyId":"0","tripId":"1:218820","serviceDate":"20180402","from":{"name":"boul. Talbot (no. 1494) (Tim-Horton)","stopId":"1:1854","stopCode":"1854","lon":-71.060941,"lat":48.402118,"arrival":1522697235000,"departure":1522697236000,"zoneId":"NA","stopIndex":2,"stopSequence":3,"vertexType":"TRANSIT"},"to":{"name":"boul. Talbot (no. 2406)","stopId":"1:76","stopCode":"76","lon":-71.081157,"lat":48.38457,"arrival":1522697596000,"departure":1522697597000,"zoneId":"NA","stopIndex":9,"stopSequence":10,"vertexType":"TRANSIT"},"legGeometry":{"points":"_plfHjavpLjF`FjCrCrAvAbCfDjIfMdAzAfFpHd@n@nC`DlXv[j@n@dEfErFvGjDdEbD|DZb@~DrEbDfDrA~A","length":20},"routeShortName":"208S","routeLongName":"Séminaire - Laterrière","rentedBike":false,"transitLeg":true,"duration":360.0,"steps":[]},{"startTime":1522697597000,"endTime":1522697750000,"departureDelay":0,"arrivalDelay":0,"realTime":false,"distance":198.49200000000002,"pathway":false,"mode":"WALK","route":"","agencyTimeZoneOffset":-14400000,"interlineWithPreviousLeg":false,"from":{"name":"boul. Talbot (no. 2406)","stopId":"1:76","stopCode":"76","lon":-71.081157,"lat":48.38457,"arrival":1522697596000,"departure":1522697597000,"zoneId":"NA","stopIndex":9,"stopSequence":10,"vertexType":"TRANSIT"},"to":{"name":"Destination","lon":-71.08352999,"lat":48.383492,"arrival":1522697750000,"orig":"","vertexType":"NORMAL"},"legGeometry":{"points":"k}hfHbfzpLABwBpFPt@rAlB","length":5},"rentedBike":false,"transitLeg":false,"duration":153.0,"steps":[{"distance":113.958,"relativeDirection":"DEPART","streetName":"Rue des Routiers","absoluteDirection":"NORTHWEST","stayOn":false,"area":false,"bogusName":false,"lon":-71.08209375094117,"lat":48.3837423917909,"elevation":[]},{"distance":84.534,"relativeDirection":"LEFT","streetName":"service road","absoluteDirection":"SOUTHWEST","stayOn":false,"area":false,"bogusName":false,"lon":-71.083326,"lat":48.3843593,"elevation":[]}]}],"tooSloped":false},{"duration":867,"startTime":1522697315000,"endTime":1522698182000,"walkTime":357,"transitTime":508,"waitingTime":2,"walkDistance":455.0495563886362,"walkLimitExceeded":false,"elevationLost":0.0,"elevationGained":0.0,"transfers":0,"legs":[{"startTime":1522697315000,"endTime":1522697519000,"departureDelay":0,"arrivalDelay":0,"realTime":false,"distance":256.48499999999996,"pathway":false,"mode":"WALK","route":"","agencyTimeZoneOffset":-14400000,"interlineWithPreviousLeg":false,"from":{"name":"Origin","lon":-71.056775,"lat":48.403727,"departure":1522697315000,"orig":"","vertexType":"NORMAL"},"to":{"name":"Place du Royaume (Saguenéens)","stopId":"1:1294","stopCode":"1294","lon":-71.057691,"lat":48.402355,"arrival":1522697519000,"departure":1522697520000,"zoneId":"NA","stopIndex":20,"stopSequence":21,"vertexType":"TRANSIT"},"legGeometry":{"points":"a{lfHviupLRRXXr@p@XVXXb@`@h@`AZl@FLLi@`@eC","length":12},"rentedBike":false,"transitLeg":false,"duration":204.0,"steps":[{"distance":186.47699999999998,"relativeDirection":"DEPART","streetName":"service road","absoluteDirection":"SOUTHWEST","stayOn":false,"area":false,"bogusName":false,"lon":-71.05707521889572,"lat":48.40385594353976,"elevation":[]},{"distance":70.008,"relativeDirection":"LEFT","streetName":"Rue des Saguenéens","absoluteDirection":"SOUTHEAST","stayOn":false,"area":false,"bogusName":false,"lon":-71.0586019,"lat":48.4025327,"elevation":[]}]},{"startTime":1522697520000,"endTime":1522698028000,"departureDelay":0,"arrivalDelay":0,"realTime":false,"distance":2777.4234787252044,"pathway":false,"mode":"BUS","route":"175","agencyName":"Société de Transport du Saguenay","agencyUrl":"http://ville.saguenay.ca/fr/services-aux-citoyens/transport-sts","agencyTimeZoneOffset":-14400000,"routeColor":"FF00FF","routeType":3,"routeId":"1:175","routeTextColor":"FFFFFF","interlineWithPreviousLeg":false,"tripBlockId":"8","headsign":"Costco","agencyId":"0","tripId":"1:217374","serviceDate":"20180402","from":{"name":"Place du Royaume (Saguenéens)","stopId":"1:1294","stopCode":"1294","lon":-71.057691,"lat":48.402355,"arrival":1522697519000,"departure":1522697520000,"zoneId":"NA","stopIndex":20,"stopSequence":21,"vertexType":"TRANSIT"},"to":{"name":"boul. Talbot (no. 2406)","stopId":"1:76","stopCode":"76","lon":-71.081157,"lat":48.38457,"arrival":1522698028000,"departure":1522698029000,"zoneId":"NA","stopIndex":29,"stopSequence":30,"vertexType":"TRANSIT"},"legGeometry":{"points":"eqlfHzmupLUxAm@nCcAlDM^RTfD`DjF`FjCrCrAvAbCfDjIfMdAzAfFpHd@n@nC`DlXv[b@f@mCtHv@v@p@r@_@p@uAcBjDoJhAzApBrBrFvGjDdEbD|DZb@~DrEbDfDrA~A","length":33},"routeShortName":"175","routeLongName":"Term. Chic / Costco","rentedBike":false,"transitLeg":true,"duration":508.0,"steps":[]},{"startTime":1522698029000,"endTime":1522698182000,"departureDelay":0,"arrivalDelay":0,"realTime":false,"distance":198.49200000000002,"pathway":false,"mode":"WALK","route":"","agencyTimeZoneOffset":-14400000,"interlineWithPreviousLeg":false,"from":{"name":"boul. Talbot (no. 2406)","stopId":"1:76","stopCode":"76","lon":-71.081157,"lat":48.38457,"arrival":1522698028000,"departure":1522698029000,"zoneId":"NA","stopIndex":29,"stopSequence":30,"vertexType":"TRANSIT"},"to":{"name":"Destination","lon":-71.08352999,"lat":48.383492,"arrival":1522698182000,"orig":"","vertexType":"NORMAL"},"legGeometry":{"points":"k}hfHbfzpLABwBpFPt@rAlB","length":5},"rentedBike":false,"transitLeg":false,"duration":153.0,"steps":[{"distance":113.958,"relativeDirection":"DEPART","streetName":"Rue des Routiers","absoluteDirection":"NORTHWEST","stayOn":false,"area":false,"bogusName":false,"lon":-71.08209375094117,"lat":48.3837423917909,"elevation":[]},{"distance":84.534,"relativeDirection":"LEFT","streetName":"service road","absoluteDirection":"SOUTHWEST","stayOn":false,"area":false,"bogusName":false,"lon":-71.083326,"lat":48.3843593,"elevation":[]}]}],"tooSloped":false},{"duration":867,"startTime":1522698215000,"endTime":1522699082000,"walkTime":357,"transitTime":508,"waitingTime":2,"walkDistance":455.0495563886362,"walkLimitExceeded":false,"elevationLost":0.0,"elevationGained":0.0,"transfers":0,"legs":[{"startTime":1522698215000,"endTime":1522698419000,"departureDelay":0,"arrivalDelay":0,"realTime":false,"distance":256.48499999999996,"pathway":false,"mode":"WALK","route":"","agencyTimeZoneOffset":-14400000,"interlineWithPreviousLeg":false,"from":{"name":"Origin","lon":-71.056775,"lat":48.403727,"departure":1522698215000,"orig":"","vertexType":"NORMAL"},"to":{"name":"Place du Royaume (Saguenéens)","stopId":"1:1294","stopCode":"1294","lon":-71.057691,"lat":48.402355,"arrival":1522698419000,"departure":1522698420000,"zoneId":"NA","stopIndex":20,"stopSequence":21,"vertexType":"TRANSIT"},"legGeometry":{"points":"a{lfHviupLRRXXr@p@XVXXb@`@h@`AZl@FLLi@`@eC","length":12},"rentedBike":false,"transitLeg":false,"duration":204.0,"steps":[{"distance":186.47699999999998,"relativeDirection":"DEPART","streetName":"service road","absoluteDirection":"SOUTHWEST","stayOn":false,"area":false,"bogusName":false,"lon":-71.05707521889572,"lat":48.40385594353976,"elevation":[]},{"distance":70.008,"relativeDirection":"LEFT","streetName":"Rue des Saguenéens","absoluteDirection":"SOUTHEAST","stayOn":false,"area":false,"bogusName":false,"lon":-71.0586019,"lat":48.4025327,"elevation":[]}]},{"startTime":1522698420000,"endTime":1522698928000,"departureDelay":0,"arrivalDelay":0,"realTime":false,"distance":2777.4234787252044,"pathway":false,"mode":"BUS","route":"175","agencyName":"Société de Transport du Saguenay","agencyUrl":"http://ville.saguenay.ca/fr/services-aux-citoyens/transport-sts","agencyTimeZoneOffset":-14400000,"routeColor":"FF00FF","routeType":3,"routeId":"1:175","routeTextColor":"FFFFFF","interlineWithPreviousLeg":false,"tripBlockId":"77","headsign":"Costco","agencyId":"0","tripId":"1:218635","serviceDate":"20180402","from":{"name":"Place du Royaume (Saguenéens)","stopId":"1:1294","stopCode":"1294","lon":-71.057691,"lat":48.402355,"arrival":1522698419000,"departure":1522698420000,"zoneId":"NA","stopIndex":20,"stopSequence":21,"vertexType":"TRANSIT"},"to":{"name":"boul. Talbot (no. 2406)","stopId":"1:76","stopCode":"76","lon":-71.081157,"lat":48.38457,"arrival":1522698928000,"departure":1522698929000,"zoneId":"NA","stopIndex":29,"stopSequence":30,"vertexType":"TRANSIT"},"legGeometry":{"points":"eqlfHzmupLUxAm@nCcAlDM^RTfD`DjF`FjCrCrAvAbCfDjIfMdAzAfFpHd@n@nC`DlXv[b@f@mCtHv@v@p@r@_@p@uAcBjDoJhAzApBrBrFvGjDdEbD|DZb@~DrEbDfDrA~A","length":33},"routeShortName":"175","routeLongName":"Term. Chic / Costco","rentedBike":false,"transitLeg":true,"duration":508.0,"steps":[]},{"startTime":1522698929000,"endTime":1522699082000,"departureDelay":0,"arrivalDelay":0,"realTime":false,"distance":198.49200000000002,"pathway":false,"mode":"WALK","route":"","agencyTimeZoneOffset":-14400000,"interlineWithPreviousLeg":false,"from":{"name":"boul. Talbot (no. 2406)","stopId":"1:76","stopCode":"76","lon":-71.081157,"lat":48.38457,"arrival":1522698928000,"departure":1522698929000,"zoneId":"NA","stopIndex":29,"stopSequence":30,"vertexType":"TRANSIT"},"to":{"name":"Destination","lon":-71.08352999,"lat":48.383492,"arrival":1522699082000,"orig":"","vertexType":"NORMAL"},"legGeometry":{"points":"k}hfHbfzpLABwBpFPt@rAlB","length":5},"rentedBike":false,"transitLeg":false,"duration":153.0,"steps":[{"distance":113.958,"relativeDirection":"DEPART","streetName":"Rue des Routiers","absoluteDirection":"NORTHWEST","stayOn":false,"area":false,"bogusName":false,"lon":-71.08209375094117,"lat":48.3837423917909,"elevation":[]},{"distance":84.534,"relativeDirection":"LEFT","streetName":"service road","absoluteDirection":"SOUTHWEST","stayOn":false,"area":false,"bogusName":false,"lon":-71.083326,"lat":48.3843593,"elevation":[]}]}],"tooSloped":false}]},"debugOutput":{"precalculationTime":21,"pathCalculationTime":35,"pathTimes":[18,7,10],"renderingTime":0,"totalTime":56,"timedOut":false},"elevationMetadata":{"ellipsoidToGeoidDifference":-28.885904201182168,"geoidElevation":false}}