{"requestParameters":{"date":"2018/04/02","walkSpeed":"1.33","walkReluctance":"2.0","fromPlace":"48.428646,-71.077736","maxWalkDistance":"3000","waitReluctance":"1.0","carSpeed":"33","numItineraries":"3","waitAtBeginningFactor":"0.4","mode":"TRANSIT,WALK","ignoreRealtimeUpdates":"false","stairsReluctance":"2.0","toPlace":"48.428097,-71.06920999","time":"7:25:00"},"plan":{"date":1522668300000,"from":{"name":"Origin","lon":-71.077736,"lat":48.428646,"orig":"","vertexType":"NORMAL"},"to":{"name":"Destination","lon":-71.06920999,"lat":48.428097,"orig":"","vertexType":"NORMAL"},"itineraries":[{"duration":870,"startTime":1522668300000,"endTime":1522669170000,"walkTime":870,"transitTime":0,"waitingTime":0,"walkDistance":1118.2016616504354,"walkLimitExceeded":false,"elevationLost":0.0,"elevationGained":0.0,"transfers":0,"legs":[{"startTime":1522668300000,"endTime":1522669170000,"departureDelay":0,"arrivalDelay":0,"realTime":false,"distance":1118.087,"pathway":false,"mode":"WALK","route":"","agencyTimeZoneOffset":-14400000,"interlineWithPreviousLeg":false,"from":{"name":"Origin","lon":-71.077736,"lat":48.428646,"departure":1522668300000,"orig":"","vertexType":"NORMAL"},"to":{"name":"Destination","lon":-71.06920999,"lat":48.428097,"arrival":1522669170000,"orig":"","vertexType":"NORMAL"},"legGeometry":{"points":"ivqfHhjypLb@k@@Ap@}@n@o@h@a@VKvDaBh@]d@]^YNKr@s@\\k@R]Rc@XsAFk@Fi@@S?ADcAC[G}@q@iDA[Ec@OMaAYCFKDKCGGKSSYWKkAK}@B_BHuBHHeEDwB?MBuA@i@","length":45},"rentedBike":false,"transitLeg":false,"duration":870.0,"steps":[{"distance":642.4649999999999,"relativeDirection":"DEPART","streetName":"Rue Price Ouest","absoluteDirection":"SOUTHEAST","stayOn":false,"area":false,"bogusName":false,"lon":-71.07764776951564,"lat":48.42869383127644,"elevation":[]},{"distance":48.492,"relativeDirection":"LEFT","streetName":"path","absoluteDirection":"NORTH","stayOn":false,"area":false,"bogusName":true,"lon":-71.0719217,"lat":48.425614800000005,"elevation":[]},{"distance":256.886,"relativeDirection":"SLIGHTLY_LEFT","streetName":"Rue Montcalm","absoluteDirection":"NORTH","stayOn":false,"area":false,"bogusName":false,"lon":-71.0717267,"lat":48.426028200000005,"elevation":[]},{"distance":170.244,"relativeDirection":"RIGHT","streetName":"Rue Racine Ouest","absoluteDirection":"EAST","stayOn":false,"area":false,"bogusName":false,"lon":-71.0715065,"lat":48.428241500000006,"elevation":[]}]}],"tooSloped":false},{"duration":308,"startTime":1522668941000,"endTime":1522669249000,"walkTime":94,"transitTime":212,"waitingTime":2,"walkDistance":122.64699999999999,"walkLimitExceeded":false,"elevationLost":0.0,"elevationGained":0.0,"transfers":0,"legs":[{"startTime":1522668941000,"endTime":1522668961000,"departureDelay":0,"arrivalDelay":0,"realTime":false,"distance":25.955,"pathway":false,"mode":"WALK","route":"","agencyTimeZoneOffset":-14400000,"interlineWithPreviousLeg":false,"from":{"name":"Origin","lon":-71.077736,"lat":48.428646,"departure":1522668941000,"orig":"","vertexType":"NORMAL"},"to":{"name":"Price (no. 296)","stopId":"1:627","stopCode":"627","lon":-71.077536,"lat":48.428453,"arrival":1522668961000,"departure":1522668962000,"zoneId":"NA","stopIndex":31,"stopSequence":32,"vertexType":"TRANSIT"},"legGeometry":{"points":"ivqfHhjypLb@k@","length":2},"rentedBike":false,"transitLeg":false,"duration":20.0,"steps":[{"distance":25.955,"relativeDirection":"DEPART","streetName":"Rue Price Ouest","absoluteDirection":"SOUTHEAST","stayOn":false,"area":false,"bogusName":false,"lon":-71.07764776951564,"lat":48.42869383127644,"elevation":[]}]},{"startTime":1522668962000,"endTime":1522669174000,"departureDelay":0,"arrivalDelay":0,"realTime":false,"distance":859.199778928545,"pathway":false,"mode":"BUS","route":"16","agencyName":"Société de Transport du Saguenay","agencyUrl":"http://ville.saguenay.ca/fr/services-aux-citoyens/transport-sts","agencyTimeZoneOffset":-14400000,"routeColor":"00FF00","routeType":3,"routeId":"1:16","routeTextColor":"000000","interlineWithPreviousLeg":false,"tripBlockId":"35","headsign":"Terminus Chicoutimi","agencyId":"0","tripId":"1:218243","serviceDate":"20180402","from":{"name":"Price (no. 296)","stopId":"1:627","stopCode":"627","lon":-71.077536,"lat":48.428453,"arrival":1522668961000,"departure":1522668962000,"zoneId":"NA","stopIndex":31,"stopSequence":32,"vertexType":"TRANSIT"},"to":{"name":"Racine / St-Georges","stopId":"1:91","stopCode":"91","lon":-71.070524,"lat":48.428083,"arrival":1522669174000,"departure":1522669175000,"zoneId":"NA","stopIndex":34,"stopSequence":35,"vertexType":"TRANSIT"},"legGeometry":{"points":"cuqfH~hypLv@cA`@e@TSp@g@nAo@nBm@ZSf@c@PMb@[b@_@b@e@PYP]N_@La@P{@NcB@IBcAG_A{@sEEg@oAP}@DiBDFeBMa@iBCq@FmBPFcE","length":33},"routeShortName":"16","routeLongName":"Côte de la Réserve","rentedBike":false,"transitLeg":true,"duration":212.0,"steps":[]},{"startTime":1522669175000,"endTime":1522669249000,"departureDelay":0,"arrivalDelay":0,"realTime":false,"distance":96.69200000000001,"pathway":false,"mode":"WALK","route":"","agencyTimeZoneOffset":-14400000,"interlineWithPreviousLeg":false,"from":{"name":"Racine / St-Georges","stopId":"1:91","stopCode":"91","lon":-71.070524,"lat":48.428083,"arrival":1522669174000,"departure":1522669175000,"zoneId":"NA","stopIndex":34,"stopSequence":35,"vertexType":"TRANSIT"},"to":{"name":"Destination","lon":-71.06920999,"lat":48.428097,"arrival":1522669249000,"orig":"","vertexType":"NORMAL"},"legGeometry":{"points":"esqfHv}wpLDwB?MBuA@i@","length":5},"rentedBike":false,"transitLeg":false,"duration":74.0,"steps":[{"distance":96.69200000000001,"relativeDirection":"DEPART","streetName":"Rue Racine Ouest","absoluteDirection":"EAST","stayOn":false,"area":false,"bogusName":false,"lon":-71.07051210780567,"lat":48.42819501672578,"elevation":[]}]}],"tooSloped":false},{"duration":308,"startTime":1522670741000,"endTime":1522671049000,"walkTime":94,"transitTime":212,"waitingTime":2,"walkDistance":122.64699999999999,"walkLimitExceeded":false,"elevationLost":0.0,"elevationGained":0.0,"transfers":0,"legs":[{"startTime":1522670741000,"endTime":1522670761000,"departureDelay":0,"arrivalDelay":0,"realTime":false,"distance":25.955,"pathway":false,"mode":"WALK","route":"","agencyTimeZoneOffset":-14400000,"interlineWithPreviousLeg":false,"from":{"name":"Origin","lon":-71.077736,"lat":48.428646,"departure":1522670741000,"orig":"","vertexType":"NORMAL"},"to":{"name":"Price (no. 296)","stopId":"1:627","stopCode":"627","lon":-71.077536,"lat":48.428453,"arrival":1522670761000,"departure":1522670762000,"zoneId":"NA","stopIndex":31,"stopSequence":32,"vertexType":"TRANSIT"},"legGeometry":{"points":"ivqfHhjypLb@k@","length":2},"rentedBike":false,"transitLeg":false,"duration":20.0,"steps":[{"distance":25.955,"relativeDirection":"DEPART","streetName":"Rue Price Ouest","absoluteDirection":"SOUTHEAST","stayOn":false,"area":false,"bogusName":false,"lon":-71.07764776951564,"lat":48.42869383127644,"elevation":[]}]},{"startTime":1522670762000,"endTime":1522670974000,"departureDelay":0,"arrivalDelay":0,"realTime":false,"distance":859.199778928545,"pathway":false,"mode":"BUS","route":"16","agencyName":"Société de Transport du Saguenay","agencyUrl":"http://ville.saguenay.ca/fr/services-aux-citoyens/transport-sts","agencyTimeZoneOffset":-14400000,"routeColor":"00FF00","routeType":3,"routeId":"1:16","routeTextColor":"000000","interlineWithPreviousLeg":false,"tripBlockId":"37","headsign":"Terminus Chicoutimi","agencyId":"0","tripId":"1:218305","serviceDate":"20180402","from":{"name":"Price (no. 296)","stopId":"1:627","stopCode":"627","lon":-71.077536,"lat":48.428453,"arrival":1522670761000,"departure":1522670762000,"zoneId":"NA","stopIndex":31,"stopSequence":32,"vertexType":"TRANSIT"},"to":{"name":"Racine / St-Georges","stopId":"1:91","stopCode":"91","lon":-71.070524,"lat":48.428083,"arrival":1522670974000,"departure":1522670975000,"zoneId":"NA","stopIndex":34,"stopSequence":35,"vertexType":"TRANSIT"},"legGeometry":{"points":"cuqfH~hypLv@cA`@e@TSp@g@nAo@nBm@ZSf@c@PMb@[b@_@b@e@PYP]N_@La@P{@NcB@IBcAG_A{@sEEg@oAP}@DiBDFeBMa@iBCq@FmBPFcE","length":33},"routeShortName":"16","routeLongName":"Côte de la Réserve","rentedBike":false,"transitLeg":true,"duration":212.0,"steps":[]},{"startTime":1522670975000,"endTime":1522671049000,"departureDelay":0,"arrivalDelay":0,"realTime":false,"distance":96.69200000000001,"pathway":false,"mode":"WALK","route":"","agencyTimeZoneOffset":-14400000,"interlineWithPreviousLeg":false,"from":{"name":"Racine / St-Georges","stopId":"1:91","stopCode":"91","lon":-71.070524,"lat":48.428083,"arrival":1522670974000,"departure":1522670975000,"zoneId":"NA","stopIndex":34,"stopSequence":35,"vertexType":"TRANSIT"},"to":{"name":"Destination","lon":-71.06920999,"lat":48.428097,"arrival":1522671049000,"orig":"","vertexType":"NORMAL"},"legGeometry":{"points":"esqfHv}wpLDwB?MBuA@i@","length":5},"rentedBike":false,"transitLeg":false,"duration":74.0,"steps":[{"distance":96.69200000000001,"relativeDirection":"DEPART","streetName":"Rue Racine Ouest","absoluteDirection":"EAST","stayOn":false,"area":false,"bogusName":false,"lon":-71.07051210780567,"lat":48.42819501672578,"elevation":[]}]}],"tooSloped":false}]},"debugOutput":{"precalculationTime":40,"pathCalculationTime":14,"pathTimes":[4,7,3],"renderingTime":0,"totalTime":54,"timedOut":false},"elevationMetadata":{"ellipsoidToGeoidDifference":-28.885904201182168,"geoidElevation":false}}