{"requestParameters":{"date":"2018/04/02","walkSpeed":"1.33","walkReluctance":"2.0","fromPlace":"48.428097,-71.06920999","maxWalkDistance":"3000","waitReluctance":"1.0","carSpeed":"33","numItineraries":"3","waitAtBeginningFactor":"0.4","mode":"TRANSIT,WALK","ignoreRealtimeUpdates":"false","stairsReluctance":"2.0","toPlace":"48.423419,-71.039377","time":"7:30:00"},"plan":{"date":1522668600000,"from":{"name":"Origin","lon":-71.06920999,"lat":48.428097,"orig":"","vertexType":"NORMAL"},"to":{"name":"Destination","lon":-71.039377,"lat":48.423419,"orig":"","vertexType":"NORMAL"},"itineraries":[{"duration":872,"startTime":1522669233000,"endTime":1522670105000,"walkTime":281,"transitTime":589,"waitingTime":2,"walkDistance":361.10971428456185,"walkLimitExceeded":false,"elevationLost":0.0,"elevationGained":0.0,"transfers":0,"legs":[{"startTime":1522669233000,"endTime":1522669499000,"departureDelay":0,"arrivalDelay":0,"realTime":false,"distance":342.314,"pathway":false,"mode":"WALK","route":"","agencyTimeZoneOffset":-14400000,"interlineWithPreviousLeg":false,"from":{"name":"Origin","lon":-71.06920999,"lat":48.428097,"departure":1522669233000,"orig":"","vertexType":"NORMAL"},"to":{"name":"Terminus Chicoutimi","stopId":"1:1289","stopCode":"1289","lon":-71.066163,"lat":48.428677,"arrival":1522669499000,"departure":1522669500000,"zoneId":"NA","stopIndex":0,"stopSequence":1,"vertexType":"TRANSIT"},"legGeometry":{"points":"yrqfHpuwpLBi@?[DsADwD@k@@w@PuGc@MKESAcAK","length":12},"rentedBike":false,"transitLeg":false,"duration":266.0,"steps":[{"distance":57.432,"relativeDirection":"DEPART","streetName":"Rue Racine Ouest","absoluteDirection":"EAST","stayOn":false,"area":false,"bogusName":false,"lon":-71.06920526468741,"lat":48.42813076986226,"elevation":[]},{"distance":207.675,"relativeDirection":"CONTINUE","streetName":"Rue Racine Est","absoluteDirection":"EAST","stayOn":false,"area":false,"bogusName":false,"lon":-71.06843,"lat":48.42808470000001,"elevation":[]},{"distance":77.207,"relativeDirection":"LEFT","streetName":"Rue Morin","absoluteDirection":"NORTH","stayOn":false,"area":false,"bogusName":false,"lon":-71.0656238,"lat":48.4279449,"elevation":[]}]},{"startTime":1522669500000,"endTime":1522670089000,"departureDelay":0,"arrivalDelay":0,"realTime":false,"distance":2704.712362975673,"pathway":false,"mode":"BUS","route":"10","agencyName":"Société de Transport du Saguenay","agencyUrl":"http://ville.saguenay.ca/fr/services-aux-citoyens/transport-sts","agencyTimeZoneOffset":-14400000,"routeColor":"0000FF","routeType":3,"routeId":"1:10","routeTextColor":"FFFFFF","interlineWithPreviousLeg":false,"tripBlockId":"26","headsign":"Terminus UQAC","agencyId":"0","tripId":"1:217966","serviceDate":"20180402","from":{"name":"Terminus Chicoutimi","stopId":"1:1289","stopCode":"1289","lon":-71.066163,"lat":48.428677,"arrival":1522669499000,"departure":1522669500000,"zoneId":"NA","stopIndex":0,"stopSequence":1,"vertexType":"TRANSIT"},"to":{"name":"Complexe Sagamie","stopId":"1:1565","stopCode":"1565","lon":-71.039089,"lat":48.423475,"arrival":1522670089000,"departure":1522670090000,"zoneId":"NA","stopIndex":11,"stopSequence":12,"vertexType":"TRANSIT"},"legGeometry":{"points":"svqfHnbwpLDmCdDZ\\kO`@mQBuCD}DQ_ECk@^Cd@QWkL?m@IuF@gA?eH?cAEuEDO^AjD`@B@rEf@T_FjBXpDd@hCObDaCfCaHbFqN`CwG_J_CwMiDGe@T}C\\yELaCJeA","length":38},"routeShortName":"10","routeLongName":"Notre-Dame du Saguenay","rentedBike":false,"transitLeg":true,"duration":589.0,"steps":[]},{"startTime":1522670090000,"endTime":1522670105000,"departureDelay":0,"arrivalDelay":0,"realTime":false,"distance":18.76,"pathway":false,"mode":"WALK","route":"","agencyTimeZoneOffset":-14400000,"interlineWithPreviousLeg":false,"from":{"name":"Complexe Sagamie","stopId":"1:1565","stopCode":"1565","lon":-71.039089,"lat":48.423475,"arrival":1522670089000,"departure":1522670090000,"zoneId":"NA","stopIndex":11,"stopSequence":12,"vertexType":"TRANSIT"},"to":{"name":"Destination","lon":-71.039377,"lat":48.423419,"arrival":1522670105000,"orig":"","vertexType":"NORMAL"},"legGeometry":{"points":"gupfHnyqpLGb@AL","length":3},"rentedBike":false,"transitLeg":false,"duration":15.0,"steps":[{"distance":18.76,"relativeDirection":"DEPART","streetName":"service road","absoluteDirection":"WEST","stayOn":false,"area":false,"bogusName":false,"lon":-71.03911523041273,"lat":48.423409719784964,"elevation":[]}]}],"tooSloped":false},{"duration":936,"startTime":1522669233000,"endTime":1522670169000,"walkTime":571,"transitTime":363,"waitingTime":2,"walkDistance":716.8430150325598,"walkLimitExceeded":false,"elevationLost":0.0,"elevationGained":0.0,"transfers":0,"legs":[{"startTime":1522669233000,"endTime":1522669499000,"departureDelay":0,"arrivalDelay":0,"realTime":false,"distance":342.314,"pathway":false,"mode":"WALK","route":"","agencyTimeZoneOffset":-14400000,"interlineWithPreviousLeg":false,"from":{"name":"Origin","lon":-71.06920999,"lat":48.428097,"departure":1522669233000,"orig":"","vertexType":"NORMAL"},"to":{"name":"Terminus Chicoutimi","stopId":"1:1289","stopCode":"1289","lon":-71.066163,"lat":48.428677,"arrival":1522669499000,"departure":1522669500000,"zoneId":"NA","stopIndex":0,"stopSequence":1,"vertexType":"TRANSIT"},"legGeometry":{"points":"yrqfHpuwpLBi@?[DsADwD@k@@w@PuGc@MKESAcAK","length":12},"rentedBike":false,"transitLeg":false,"duration":266.0,"steps":[{"distance":57.432,"relativeDirection":"DEPART","streetName":"Rue Racine Ouest","absoluteDirection":"EAST","stayOn":false,"area":false,"bogusName":false,"lon":-71.06920526468741,"lat":48.42813076986226,"elevation":[]},{"distance":207.675,"relativeDirection":"CONTINUE","streetName":"Rue Racine Est","absoluteDirection":"EAST","stayOn":false,"area":false,"bogusName":false,"lon":-71.06843,"lat":48.42808470000001,"elevation":[]},{"distance":77.207,"relativeDirection":"LEFT","streetName":"Rue Morin","absoluteDirection":"NORTH","stayOn":false,"area":false,"bogusName":false,"lon":-71.0656238,"lat":48.4279449,"elevation":[]}]},{"startTime":1522669500000,"endTime":1522669863000,"departureDelay":0,"arrivalDelay":0,"realTime":false,"distance":1824.8582103611247,"pathway":false,"mode":"BUS","route":"203S","agencyName":"Société de Transport du Saguenay","agencyUrl":"http://ville.saguenay.ca/fr/services-aux-citoyens/transport-sts","agencyTimeZoneOffset":-14400000,"routeColor":"8B0000","routeType":3,"routeId":"1:203S","routeTextColor":"FFFFFF","interlineWithPreviousLeg":false,"tripBlockId":"46","headsign":"Séminaire","agencyId":"0","tripId":"1:218386","serviceDate":"20180402","from":{"name":"Terminus Chicoutimi","stopId":"1:1289","stopCode":"1289","lon":-71.066163,"lat":48.428677,"arrival":1522669499000,"departure":1522669500000,"zoneId":"NA","stopIndex":0,"stopSequence":1,"vertexType":"TRANSIT"},"to":{"name":"Jacques-Cartier / de Sales","stopId":"1:344","stopCode":"344","lon":-71.043973,"lat":48.424206,"arrival":1522669863000,"departure":1522669864000,"zoneId":"NA","stopIndex":7,"stopSequence":8,"vertexType":"TRANSIT"},"legGeometry":{"points":"_vqfH``wpLe@E@o@zDX|BXfCNF}D@YRcFJgLNuNDkCHkFVoKT}@x@yCPcAFiAJeCHmBBg@ViGLsBLsB`@{ElA_Od@wFRqB","length":28},"routeShortName":"203S","routeLongName":"Séminaire - Term. Chic","rentedBike":false,"transitLeg":true,"duration":363.0,"steps":[]},{"startTime":1522669864000,"endTime":1522670169000,"departureDelay":0,"arrivalDelay":0,"realTime":false,"distance":374.373,"pathway":false,"mode":"WALK","route":"","agencyTimeZoneOffset":-14400000,"interlineWithPreviousLeg":false,"from":{"name":"Jacques-Cartier / de Sales","stopId":"1:344","stopCode":"344","lon":-71.043973,"lat":48.424206,"arrival":1522669863000,"departure":1522669864000,"zoneId":"NA","stopIndex":7,"stopSequence":8,"vertexType":"TRANSIT"},"to":{"name":"Destination","lon":-71.039377,"lat":48.423419,"arrival":1522670169000,"orig":"","vertexType":"NORMAL"},"legGeometry":{"points":"e{pfHpwrpLNcB^gD?_AAI?E?G@GBEBCFSFO@cAPuB`@sE@GJqAXHFBD[","length":20},"rentedBike":false,"transitLeg":false,"duration":305.0,"steps":[{"distance":159.337,"relativeDirection":"DEPART","streetName":"Rue Jacques-Cartier Est","absoluteDirection":"EAST","stayOn":false,"area":false,"bogusName":false,"lon":-71.04392183118667,"lat":48.424353416635554,"elevation":[]},{"distance":184.73600000000002,"relativeDirection":"SLIGHTLY_LEFT","streetName":"Rue Jacques Cartier","absoluteDirection":"EAST","stayOn":false,"area":false,"bogusName":false,"lon":-71.0418774,"lat":48.423999300000006,"elevation":[]},{"distance":30.3,"relativeDirection":"RIGHT","streetName":"service road","absoluteDirection":"SOUTH","stayOn":false,"area":false,"bogusName":true,"lon":-71.0394333,"lat":48.4236505,"elevation":[]}]}],"tooSloped":false},{"duration":559,"startTime":1522671057000,"endTime":1522671616000,"walkTime":262,"transitTime":295,"waitingTime":2,"walkDistance":332.9640451105863,"walkLimitExceeded":false,"elevationLost":0.0,"elevationGained":0.0,"transfers":0,"legs":[{"startTime":1522671057000,"endTime":1522671304000,"departureDelay":0,"arrivalDelay":0,"realTime":false,"distance":314.13599999999997,"pathway":false,"mode":"WALK","route":"","agencyTimeZoneOffset":-14400000,"interlineWithPreviousLeg":false,"from":{"name":"Origin","lon":-71.06920999,"lat":48.428097,"departure":1522671057000,"orig":"","vertexType":"NORMAL"},"to":{"name":"boul. Saguenay / Ste-Anne","stopId":"1:160","stopCode":"160","lon":-71.069701,"lat":48.429464,"arrival":1522671304000,"departure":1522671305000,"zoneId":"NA","stopIndex":20,"stopSequence":21,"vertexType":"TRANSIT"},"legGeometry":{"points":"yrqfHpuwpLBi@?[DsAsAE[AeAGiAGSAC^KtF","length":11},"rentedBike":false,"transitLeg":false,"duration":247.0,"steps":[{"distance":57.432,"relativeDirection":"DEPART","streetName":"Rue Racine Ouest","absoluteDirection":"EAST","stayOn":false,"area":false,"bogusName":false,"lon":-71.06920526468741,"lat":48.42813076986226,"elevation":[]},{"distance":154.273,"relativeDirection":"LEFT","streetName":"Rue Sainte-Anne","absoluteDirection":"NORTH","stayOn":false,"area":false,"bogusName":false,"lon":-71.06843,"lat":48.42808470000001,"elevation":[]},{"distance":102.431,"relativeDirection":"LEFT","streetName":"Boulevard du Saguenay Ouest","absoluteDirection":"WEST","stayOn":false,"area":false,"bogusName":false,"lon":-71.06830790000001,"lat":48.429469600000004,"elevation":[]}]},{"startTime":1522671305000,"endTime":1522671600000,"departureDelay":0,"arrivalDelay":0,"realTime":false,"distance":2421.4980926919075,"pathway":false,"mode":"BUS","route":"201S","agencyName":"Société de Transport du Saguenay","agencyUrl":"http://ville.saguenay.ca/fr/services-aux-citoyens/transport-sts","agencyTimeZoneOffset":-14400000,"routeColor":"8B0000","routeType":3,"routeId":"1:201S","routeTextColor":"FFFFFF","interlineWithPreviousLeg":false,"tripBlockId":"40","headsign":"Séminaire","agencyId":"0","tripId":"1:218347","serviceDate":"20180402","from":{"name":"boul. Saguenay / Ste-Anne","stopId":"1:160","stopCode":"160","lon":-71.069701,"lat":48.429464,"arrival":1522671304000,"departure":1522671305000,"zoneId":"NA","stopIndex":20,"stopSequence":21,"vertexType":"TRANSIT"},"to":{"name":"Complexe Sagamie","stopId":"1:1565","stopCode":"1565","lon":-71.039089,"lat":48.423475,"arrival":1522671600000,"departure":1522671601000,"zoneId":"NA","stopIndex":29,"stopSequence":30,"vertexType":"TRANSIT"},"legGeometry":{"points":"o{qfHrxwpLd@uPVaHjANzDZ|BVfCNF}D@YRcFJgLNuNDkCHkFVoKT}@x@yCPcAFiAJeCHmBBg@ViGLsBLsB`@{ElAaOd@sFRuBLuAFWNsAHsA`@_AO_ATyCTiC`@sEF}@","length":39},"routeShortName":"201S","routeLongName":"Séminaire - Arvida","rentedBike":false,"transitLeg":true,"duration":295.0,"steps":[]},{"startTime":1522671601000,"endTime":1522671616000,"departureDelay":0,"arrivalDelay":0,"realTime":false,"distance":18.76,"pathway":false,"mode":"WALK","route":"","agencyTimeZoneOffset":-14400000,"interlineWithPreviousLeg":false,"from":{"name":"Complexe Sagamie","stopId":"1:1565","stopCode":"1565","lon":-71.039089,"lat":48.423475,"arrival":1522671600000,"departure":1522671601000,"zoneId":"NA","stopIndex":29,"stopSequence":30,"vertexType":"TRANSIT"},"to":{"name":"Destination","lon":-71.039377,"lat":48.423419,"arrival":1522671616000,"orig":"","vertexType":"NORMAL"},"legGeometry":{"points":"gupfHnyqpLGb@AL","length":3},"rentedBike":false,"transitLeg":false,"duration":15.0,"steps":[{"distance":18.76,"relativeDirection":"DEPART","streetName":"service road","absoluteDirection":"WEST","stayOn":false,"area":false,"bogusName":false,"lon":-71.03911523041273,"lat":48.423409719784964,"elevation":[]}]}],"tooSloped":false}]},"debugOutput":{"precalculationTime":42,"pathCalculationTime":26,"pathTimes":[14,6,6],"renderingTime":0,"totalTime":68,"timedOut":false},"elevationMetadata":{"ellipsoidToGeoidDifference":-28.885904201182168,"geoidElevation":false}}