{"requestParameters":{"date":"2018/04/02","walkSpeed":"1.33","walkReluctance":"2.0","fromPlace":"48.415821,-71.046058","maxWalkDistance":"3000","waitReluctance":"1.0","carSpeed":"33","numItineraries":"3","waitAtBeginningFactor":"0.4","mode":"TRANSIT,WALK","ignoreRealtimeUpdates":"false","stairsReluctance":"2.0","toPlace":"48.403952,-71.054642","time":"9:25:00"},"plan":{"date":1522675500000,"from":{"name":"Origin","lon":-71.046058,"lat":48.415821,"orig":"","vertexType":"NORMAL"},"to":{"name":"Destination","lon":-71.054642,"lat":48.403952,"orig":"","vertexType":"NORMAL"},"itineraries":[{"duration":1410,"startTime":1522675500000,"endTime":1522676910000,"walkTime":1410,"transitTime":0,"waitingTime":0,"walkDistance":1807.2008796927355,"walkLimitExceeded":false,"elevationLost":0.0,"elevationGained":0.0,"transfers":0,"legs":[{"startTime":1522675500000,"endTime":1522676910000,"departureDelay":0,"arrivalDelay":0,"realTime":false,"distance":1806.9990000000012,"pathway":false,"mode":"WALK","route":"","agencyTimeZoneOffset":-14400000,"interlineWithPreviousLeg":false,"from":{"name":"Origin","lon":-71.046058,"lat":48.415821,"departure":1522675500000,"orig":"","vertexType":"NORMAL"},"to":{"name":"Destination","lon":-71.054642,"lat":48.403952,"arrival":1522676910000,"orig":"","vertexType":"NORMAL"},"legGeometry":{"points":"adofHrfspLWx@_@`AIVTV`BdBx@z@vCzCnArArI~ITXLJx@|@bDfDjDlDPRp@p@lAhApF`FLAn@MLe@H_@nAmEZe@\\e@b@p@XVZ@d@@b@@J@V?Z@T?FC\\Qf@sAL[FQ\\cAFIRRZXXXXVVTXVPROf@Wt@Xb@R\\T^R\\JL","length":56},"rentedBike":false,"transitLeg":false,"duration":1410.0,"steps":[{"distance":66.32,"relativeDirection":"DEPART","streetName":"Rue Chabanel","absoluteDirection":"NORTHWEST","stayOn":false,"area":false,"bogusName":false,"lon":-71.04633656038507,"lat":48.415533675726444,"elevation":[]},{"distance":1051.423,"relativeDirection":"LEFT","streetName":"Boulevard Talbot","absoluteDirection":"SOUTHWEST","stayOn":false,"area":false,"bogusName":false,"lon":-71.0470797,"lat":48.415868800000005,"elevation":[]},{"distance":34.36,"relativeDirection":"LEFT","streetName":"path","absoluteDirection":"SOUTH","stayOn":false,"area":false,"bogusName":true,"lon":-71.05502820000001,"lat":48.4080238,"elevation":[]},{"distance":426.668,"relativeDirection":"LEFT","streetName":"parking aisle","absoluteDirection":"SOUTHEAST","stayOn":true,"area":false,"bogusName":true,"lon":-71.0549472,"lat":48.407719500000006,"elevation":[]},{"distance":110.87500000000001,"relativeDirection":"RIGHT","streetName":"service road","absoluteDirection":"SOUTHWEST","stayOn":true,"area":false,"bogusName":true,"lon":-71.05245930000001,"lat":48.4049623,"elevation":[]},{"distance":117.35300000000001,"relativeDirection":"RIGHT","streetName":"parking aisle","absoluteDirection":"NORTHWEST","stayOn":true,"area":false,"bogusName":true,"lon":-71.0532652,"lat":48.4041209,"elevation":[]}]}],"tooSloped":false},{"duration":1662,"startTime":1522675697000,"endTime":1522677359000,"walkTime":510,"transitTime":1150,"waitingTime":2,"walkDistance":631.7775187919098,"walkLimitExceeded":false,"elevationLost":0.0,"elevationGained":0.0,"transfers":0,"legs":[{"startTime":1522675697000,"endTime":1522675789000,"departureDelay":0,"arrivalDelay":0,"realTime":false,"distance":115.25800000000001,"pathway":false,"mode":"WALK","route":"","agencyTimeZoneOffset":-14400000,"interlineWithPreviousLeg":false,"from":{"name":"Origin","lon":-71.046058,"lat":48.415821,"departure":1522675697000,"orig":"","vertexType":"NORMAL"},"to":{"name":"Murdock / Chabanel","stopId":"1:3552","stopCode":"3552","lon":-71.046063,"lat":48.414978,"arrival":1522675789000,"departure":1522675790000,"zoneId":"NA","stopIndex":19,"stopSequence":20,"vertexType":"TRANSIT"},"legGeometry":{"points":"adofHrfspLdAaDt@hABD","length":4},"rentedBike":false,"transitLeg":false,"duration":92.0,"steps":[{"distance":71.382,"relativeDirection":"DEPART","streetName":"Rue Chabanel","absoluteDirection":"SOUTHEAST","stayOn":false,"area":false,"bogusName":false,"lon":-71.04633656038507,"lat":48.415533675726444,"elevation":[]},{"distance":43.876,"relativeDirection":"RIGHT","streetName":"Rue Murdock","absoluteDirection":"SOUTHWEST","stayOn":false,"area":false,"bogusName":false,"lon":-71.0455232,"lat":48.4151863,"elevation":[]}]},{"startTime":1522675790000,"endTime":1522676220000,"departureDelay":0,"arrivalDelay":0,"realTime":false,"distance":1772.2321208598964,"pathway":false,"mode":"BUS","route":"10","agencyName":"Société de Transport du Saguenay","agencyUrl":"http://ville.saguenay.ca/fr/services-aux-citoyens/transport-sts","agencyTimeZoneOffset":-14400000,"routeColor":"0000FF","routeType":3,"routeId":"1:10","routeTextColor":"FFFFFF","interlineWithPreviousLeg":false,"tripBlockId":"29","headsign":"Terminus UQAC","agencyId":"0","tripId":"1:218057","serviceDate":"20180402","from":{"name":"Murdock / Chabanel","stopId":"1:3552","stopCode":"3552","lon":-71.046063,"lat":48.414978,"arrival":1522675789000,"departure":1522675790000,"zoneId":"NA","stopIndex":19,"stopSequence":20,"vertexType":"TRANSIT"},"to":{"name":"Terminus UQAC","stopId":"1:1670","stopCode":"1670","lon":-71.053369,"lat":48.420903,"arrival":1522676220000,"departure":1522676400000,"zoneId":"NA","stopIndex":24,"stopSequence":25,"vertexType":"TRANSIT"},"legGeometry":{"points":"e`ofHhdspLvA~BvB|BdN|Nc@bAuA~C}VeWaEpLeIrU|D~EfDdEwLpKeBgGAsE]gAoD}CUt@a@_@USMM","length":20},"routeShortName":"10","routeLongName":"Notre-Dame du Saguenay","rentedBike":false,"transitLeg":true,"duration":430.0,"steps":[]},{"startTime":1522676400000,"endTime":1522676940000,"departureDelay":0,"arrivalDelay":0,"realTime":false,"distance":2830.950916548183,"pathway":false,"mode":"BUS","route":"12","agencyName":"Société de Transport du Saguenay","agencyUrl":"http://ville.saguenay.ca/fr/services-aux-citoyens/transport-sts","agencyTimeZoneOffset":-14400000,"routeColor":"556B2F","routeType":3,"routeId":"1:12","routeTextColor":"FFFFFF","interlineWithPreviousLeg":true,"tripBlockId":"29","headsign":"Terminus Chicoutimi","agencyId":"0","tripId":"1:218058","serviceDate":"20180402","from":{"name":"Terminus UQAC","stopId":"1:1670","stopCode":"1670","lon":-71.053369,"lat":48.420903,"arrival":1522676220000,"departure":1522676400000,"zoneId":"NA","stopIndex":0,"stopSequence":1,"vertexType":"TRANSIT"},"to":{"name":"Place du Royaume (Champs-Élysées)","stopId":"1:572","stopCode":"572","lon":-71.053302,"lat":48.407097,"arrival":1522676940000,"departure":1522676941000,"zoneId":"NA","stopIndex":13,"stopSequence":14,"vertexType":"TRANSIT"},"legGeometry":{"points":"sepfHprtpL}@y@Pw@wAsAaB{A}DrL?jCv@fCa@nDaC`D~E`F~MfNjJnJ~GbHnCpCv@iBlAgIdCmFbAqDtBeCjFm@`Gs@hFo@xAmBrGcPxFoN","length":26},"routeShortName":"12","routeLongName":"Rivière du Moulin","rentedBike":false,"transitLeg":true,"duration":540.0,"steps":[]},{"startTime":1522676941000,"endTime":1522677359000,"departureDelay":0,"arrivalDelay":0,"realTime":false,"distance":516.362,"pathway":false,"mode":"WALK","route":"","agencyTimeZoneOffset":-14400000,"interlineWithPreviousLeg":false,"from":{"name":"Place du Royaume (Champs-Élysées)","stopId":"1:572","stopCode":"572","lon":-71.053302,"lat":48.407097,"arrival":1522676940000,"departure":1522676941000,"zoneId":"NA","stopIndex":13,"stopSequence":14,"vertexType":"TRANSIT"},"to":{"name":"Destination","lon":-71.054642,"lat":48.403952,"arrival":1522677359000,"orig":"","vertexType":"NORMAL"},"legGeometry":{"points":"aomfHrrtpL\\e@b@p@XVZ@d@@b@@J@V?Z@T?FC\\Qf@sAL[FQ\\cAFIRRZXXXXVVTXVPROf@Wt@Xb@R\\T^R\\JL","length":32},"rentedBike":false,"transitLeg":false,"duration":418.0,"steps":[{"distance":288.134,"relativeDirection":"DEPART","streetName":"service road","absoluteDirection":"SOUTHEAST","stayOn":false,"area":false,"bogusName":true,"lon":-71.05337753367286,"lat":48.40705341309266,"elevation":[]},{"distance":110.87500000000001,"relativeDirection":"RIGHT","streetName":"service road","absoluteDirection":"SOUTHWEST","stayOn":true,"area":false,"bogusName":true,"lon":-71.05245930000001,"lat":48.4049623,"elevation":[]},{"distance":117.35300000000001,"relativeDirection":"RIGHT","streetName":"parking aisle","absoluteDirection":"NORTHWEST","stayOn":true,"area":false,"bogusName":true,"lon":-71.0532652,"lat":48.4041209,"elevation":[]}]}],"tooSloped":false},{"duration":865,"startTime":1522676995000,"endTime":1522677860000,"walkTime":709,"transitTime":154,"waitingTime":2,"walkDistance":884.8109548797332,"walkLimitExceeded":false,"elevationLost":0.0,"elevationGained":0.0,"transfers":0,"legs":[{"startTime":1522676995000,"endTime":1522677482000,"departureDelay":0,"arrivalDelay":0,"realTime":false,"distance":620.505,"pathway":false,"mode":"WALK","route":"","agencyTimeZoneOffset":-14400000,"interlineWithPreviousLeg":false,"from":{"name":"Origin","lon":-71.046058,"lat":48.415821,"departure":1522676995000,"orig":"","vertexType":"NORMAL"},"to":{"name":"boul. Université / Murdock","stopId":"1:80","stopCode":"80","lon":-71.050111,"lat":48.411498,"arrival":1522677482000,"departure":1522677483000,"zoneId":"NA","stopIndex":14,"stopSequence":15,"vertexType":"TRANSIT"},"legGeometry":{"points":"adofHrfspLdAaDt@hABDn@~@b@lA`ArAl@l@@Bh@j@PRdBlBdEbEnBrBVPUn@","length":16},"rentedBike":false,"transitLeg":false,"duration":487.0,"steps":[{"distance":71.382,"relativeDirection":"DEPART","streetName":"Rue Chabanel","absoluteDirection":"SOUTHEAST","stayOn":false,"area":false,"bogusName":false,"lon":-71.04633656038507,"lat":48.415533675726444,"elevation":[]},{"distance":527.521,"relativeDirection":"RIGHT","streetName":"Rue Murdock","absoluteDirection":"SOUTHWEST","stayOn":false,"area":false,"bogusName":false,"lon":-71.0455232,"lat":48.4151863,"elevation":[]},{"distance":21.602,"relativeDirection":"RIGHT","streetName":"Boulevard de l'Université","absoluteDirection":"NORTHWEST","stayOn":false,"area":false,"bogusName":false,"lon":-71.0498268,"lat":48.4114298,"elevation":[]}]},{"startTime":1522677483000,"endTime":1522677637000,"departureDelay":0,"arrivalDelay":0,"realTime":false,"distance":971.509745086079,"pathway":false,"mode":"BUS","route":"175","agencyName":"Société de Transport du Saguenay","agencyUrl":"http://ville.saguenay.ca/fr/services-aux-citoyens/transport-sts","agencyTimeZoneOffset":-14400000,"routeColor":"FF00FF","routeType":3,"routeId":"1:175","routeTextColor":"FFFFFF","interlineWithPreviousLeg":false,"tripBlockId":"6","headsign":"Costco","agencyId":"0","tripId":"1:217291","serviceDate":"20180402","from":{"name":"boul. Université / Murdock","stopId":"1:80","stopCode":"80","lon":-71.050111,"lat":48.411498,"arrival":1522677482000,"departure":1522677483000,"zoneId":"NA","stopIndex":14,"stopSequence":15,"vertexType":"TRANSIT"},"to":{"name":"Champs-Élysées (no. 1415)","stopId":"1:1925","stopCode":"1925","lon":-71.051931,"lat":48.403672,"arrival":1522677637000,"departure":1522677638000,"zoneId":"NA","stopIndex":18,"stopSequence":19,"vertexType":"TRANSIT"},"legGeometry":{"points":"aknfH~}spLr@sBhCsKz@dAjB|@dM`GzCvAXrCr@~Gx@]PEr@ObACn@FrBb@|@Ch@Kx@U","length":18},"routeShortName":"175","routeLongName":"Term. Chic / Costco","rentedBike":false,"transitLeg":true,"duration":154.0,"steps":[]},{"startTime":1522677638000,"endTime":1522677860000,"departureDelay":0,"arrivalDelay":0,"realTime":false,"distance":264.074,"pathway":false,"mode":"WALK","route":"","agencyTimeZoneOffset":-14400000,"interlineWithPreviousLeg":false,"from":{"name":"Champs-Élysées (no. 1415)","stopId":"1:1925","stopCode":"1925","lon":-71.051931,"lat":48.403672,"arrival":1522677637000,"departure":1522677638000,"zoneId":"NA","stopIndex":18,"stopSequence":19,"vertexType":"TRANSIT"},"to":{"name":"Destination","lon":-71.054642,"lat":48.403952,"arrival":1522677860000,"orig":"","vertexType":"NORMAL"},"legGeometry":{"points":"czlfHphtpLOFe@L@zA?p@ELPNk@hBOf@Wt@Xb@R\\T^R\\JL","length":15},"rentedBike":false,"transitLeg":false,"duration":222.0,"steps":[{"distance":31.103,"relativeDirection":"DEPART","streetName":"Rue des Champs-Élysées","absoluteDirection":"NORTH","stayOn":false,"area":false,"bogusName":false,"lon":-71.05176919271997,"lat":48.40370108692007,"elevation":[]},{"distance":232.97099999999998,"relativeDirection":"LEFT","streetName":"parking aisle","absoluteDirection":"WEST","stayOn":false,"area":false,"bogusName":true,"lon":-71.0518792,"lat":48.4039711,"elevation":[]}]}],"tooSloped":false}]},"debugOutput":{"precalculationTime":79,"pathCalculationTime":47,"pathTimes":[25,11,11],"renderingTime":1,"totalTime":127,"timedOut":false},"elevationMetadata":{"ellipsoidToGeoidDifference":-28.885904201182168,"geoidElevation":false}}