{"requestParameters":{"date":"2018/04/02","walkSpeed":"1.33","walkReluctance":"2.0","fromPlace":"48.437514,-71.066767","maxWalkDistance":"3000","waitReluctance":"1.0","carSpeed":"33","numItineraries":"3","waitAtBeginningFactor":"0.4","mode":"TRANSIT,WALK","ignoreRealtimeUpdates":"false","stairsReluctance":"2.0","toPlace":"48.442507,-71.043707","time":"9:30:00"},"plan":{"date":1522675800000,"from":{"name":"Origin","lon":-71.066767,"lat":48.437514,"orig":"","vertexType":"NORMAL"},"to":{"name":"Destination","lon":-71.043707,"lat":48.442507,"orig":"","vertexType":"NORMAL"},"itineraries":[{"duration":1663,"startTime":1522675800000,"endTime":1522677463000,"walkTime":1663,"transitTime":0,"waitingTime":0,"walkDistance":2141.2824210455833,"walkLimitExceeded":false,"elevationLost":0.0,"elevationGained":0.0,"transfers":0,"legs":[{"startTime":1522675800000,"endTime":1522677463000,"departureDelay":0,"arrivalDelay":0,"realTime":false,"distance":2141.0640000000003,"pathway":false,"mode":"WALK","route":"","agencyTimeZoneOffset":-14400000,"interlineWithPreviousLeg":false,"from":{"name":"Origin","lon":-71.066767,"lat":48.437514,"departure":1522675800000,"orig":"","vertexType":"NORMAL"},"to":{"name":"Destination","lon":-71.043707,"lat":48.442507,"arrival":1522677463000,"orig":"","vertexType":"NORMAL"},"legGeometry":{"points":"_lsfHlfwpL@uA?eAASAyAKqCy@gDMc@I_@Y_AUs@Kc@S{@O}@Eo@Gw@oDmAiA_@CAeC{@{Ao@e@i@A?W]U_@ACSe@M[CKMa@AGCMG]CQE_@WcDSeBEq@AMC_@Ck@Ae@Ai@Bw@Fk@Da@F]F_@Hi@VmBPoAD]Fc@Hy@BW@Y@K?k@?G?c@Eu@Gc@AICMAIKc@Oc@o@gBM[IOuAkD_AaCYw@GQUs@]qAc@eBAE[eBWcBAIOoAGc@Iw@IeCCe@xBi@rAiAf@u@d@sAo@S","length":91},"rentedBike":false,"transitLeg":false,"duration":1663.0,"steps":[{"distance":404.669,"relativeDirection":"DEPART","streetName":"Rue Roussel","absoluteDirection":"EAST","stayOn":false,"area":false,"bogusName":false,"lon":-71.06678475262113,"lat":48.437287881244224,"elevation":[]},{"distance":1518.5490000000004,"relativeDirection":"LEFT","streetName":"Boulevard de Tadoussac","absoluteDirection":"NORTH","stayOn":false,"area":false,"bogusName":false,"lon":-71.0616517,"lat":48.4383174,"elevation":[]},{"distance":190.572,"relativeDirection":"RIGHT","streetName":"path","absoluteDirection":"SOUTH","stayOn":false,"area":false,"bogusName":true,"lon":-71.0454189,"lat":48.4437524,"elevation":[]},{"distance":27.274,"relativeDirection":"LEFT","streetName":"Rue de Calais","absoluteDirection":"NORTH","stayOn":false,"area":false,"bogusName":false,"lon":-71.0441495,"lat":48.442336000000005,"elevation":[]}]}],"tooSloped":false},{"duration":703,"startTime":1522676887000,"endTime":1522677590000,"walkTime":453,"transitTime":248,"waitingTime":2,"walkDistance":575.7686691691355,"walkLimitExceeded":false,"elevationLost":0.0,"elevationGained":0.0,"transfers":0,"legs":[{"startTime":1522676887000,"endTime":1522676939000,"departureDelay":0,"arrivalDelay":0,"realTime":false,"distance":65.3,"pathway":false,"mode":"WALK","route":"","agencyTimeZoneOffset":-14400000,"interlineWithPreviousLeg":false,"from":{"name":"Origin","lon":-71.066767,"lat":48.437514,"departure":1522676887000,"orig":"","vertexType":"NORMAL"},"to":{"name":"Roussel / St-François","stopId":"1:1508","stopCode":"1508","lon":-71.065897,"lat":48.437206,"arrival":1522676939000,"departure":1522676940000,"zoneId":"NA","stopIndex":1,"stopSequence":2,"vertexType":"TRANSIT"},"legGeometry":{"points":"_lsfHlfwpL@uA?eAAS","length":4},"rentedBike":false,"transitLeg":false,"duration":52.0,"steps":[{"distance":65.3,"relativeDirection":"DEPART","streetName":"Rue Roussel","absoluteDirection":"EAST","stayOn":false,"area":false,"bogusName":false,"lon":-71.06678475262113,"lat":48.437287881244224,"elevation":[]}]},{"startTime":1522676940000,"endTime":1522677188000,"departureDelay":0,"arrivalDelay":0,"realTime":false,"distance":1898.1046995660897,"pathway":false,"mode":"BUS","route":"24","agencyName":"Société de Transport du Saguenay","agencyUrl":"http://ville.saguenay.ca/fr/services-aux-citoyens/transport-sts","agencyTimeZoneOffset":-14400000,"routeColor":"00FF00","routeType":3,"routeId":"1:24","routeTextColor":"000000","interlineWithPreviousLeg":false,"tripBlockId":"4","headsign":"Terminus Chicoutimi","agencyId":"0","tripId":"1:217229","serviceDate":"20180402","from":{"name":"Roussel / St-François","stopId":"1:1508","stopCode":"1508","lon":-71.065897,"lat":48.437206,"arrival":1522676939000,"departure":1522676940000,"zoneId":"NA","stopIndex":1,"stopSequence":2,"vertexType":"TRANSIT"},"to":{"name":"St-Émile / Madeleine","stopId":"1:811","stopCode":"811","lon":-71.045248,"lat":48.445626,"arrival":1522677188000,"departure":1522677189000,"zoneId":"NA","stopIndex":8,"stopSequence":9,"vertexType":"TRANSIT"},"legGeometry":{"points":"_lsfHz`wpL?mAEcAGs@OoAa@sB[kAYcASq@Ok@Qq@Ku@MoBKmAa@eHi@FKC_@I??iE}Ah@}DH}@?c@Ea@[_BA?My@Cm@?Y@g@Hu@b@sD\\_DBSyHsC_@MBQA}@IwAUoAcAkCWo@qDgJg@cBk@uBi@sC]aCWwCiKuD","length":49},"routeShortName":"24","routeLongName":"Saint-Luc","rentedBike":false,"transitLeg":true,"duration":248.0,"steps":[]},{"startTime":1522677189000,"endTime":1522677590000,"departureDelay":0,"arrivalDelay":0,"realTime":false,"distance":510.351,"pathway":false,"mode":"WALK","route":"","agencyTimeZoneOffset":-14400000,"interlineWithPreviousLeg":false,"from":{"name":"St-Émile / Madeleine","stopId":"1:811","stopCode":"811","lon":-71.045248,"lat":48.445626,"arrival":1522677188000,"departure":1522677189000,"zoneId":"NA","stopIndex":8,"stopSequence":9,"vertexType":"TRANSIT"},"to":{"name":"Destination","lon":-71.043707,"lat":48.442507,"arrival":1522677590000,"orig":"","vertexType":"NORMAL"},"legGeometry":{"points":"g`ufHh`spLrAj@rHpCIeCCe@xBi@rAiAf@u@d@sAo@S","length":10},"rentedBike":false,"transitLeg":false,"duration":401.0,"steps":[{"distance":229.058,"relativeDirection":"DEPART","streetName":"Rue Saint-Émile","absoluteDirection":"SOUTH","stayOn":false,"area":false,"bogusName":false,"lon":-71.04532866561726,"lat":48.44564391364887,"elevation":[]},{"distance":63.447,"relativeDirection":"LEFT","streetName":"Boulevard de Tadoussac","absoluteDirection":"EAST","stayOn":false,"area":false,"bogusName":false,"lon":-71.0462723,"lat":48.4436814,"elevation":[]},{"distance":190.572,"relativeDirection":"RIGHT","streetName":"path","absoluteDirection":"SOUTH","stayOn":false,"area":false,"bogusName":true,"lon":-71.0454189,"lat":48.4437524,"elevation":[]},{"distance":27.274,"relativeDirection":"LEFT","streetName":"Rue de Calais","absoluteDirection":"NORTH","stayOn":false,"area":false,"bogusName":false,"lon":-71.0441495,"lat":48.442336000000005,"elevation":[]}]}],"tooSloped":false},{"duration":703,"startTime":1522678687000,"endTime":1522679390000,"walkTime":453,"transitTime":248,"waitingTime":2,"walkDistance":575.7686691691355,"walkLimitExceeded":false,"elevationLost":0.0,"elevationGained":0.0,"transfers":0,"legs":[{"startTime":1522678687000,"endTime":1522678739000,"departureDelay":0,"arrivalDelay":0,"realTime":false,"distance":65.3,"pathway":false,"mode":"WALK","route":"","agencyTimeZoneOffset":-14400000,"interlineWithPreviousLeg":false,"from":{"name":"Origin","lon":-71.066767,"lat":48.437514,"departure":1522678687000,"orig":"","vertexType":"NORMAL"},"to":{"name":"Roussel / St-François","stopId":"1:1508","stopCode":"1508","lon":-71.065897,"lat":48.437206,"arrival":1522678739000,"departure":1522678740000,"zoneId":"NA","stopIndex":1,"stopSequence":2,"vertexType":"TRANSIT"},"legGeometry":{"points":"_lsfHlfwpL@uA?eAAS","length":4},"rentedBike":false,"transitLeg":false,"duration":52.0,"steps":[{"distance":65.3,"relativeDirection":"DEPART","streetName":"Rue Roussel","absoluteDirection":"EAST","stayOn":false,"area":false,"bogusName":false,"lon":-71.06678475262113,"lat":48.437287881244224,"elevation":[]}]},{"startTime":1522678740000,"endTime":1522678988000,"departureDelay":0,"arrivalDelay":0,"realTime":false,"distance":1898.1046995660897,"pathway":false,"mode":"BUS","route":"24","agencyName":"Société de Transport du Saguenay","agencyUrl":"http://ville.saguenay.ca/fr/services-aux-citoyens/transport-sts","agencyTimeZoneOffset":-14400000,"routeColor":"00FF00","routeType":3,"routeId":"1:24","routeTextColor":"000000","interlineWithPreviousLeg":false,"tripBlockId":"5","headsign":"Terminus Chicoutimi","agencyId":"0","tripId":"1:217257","serviceDate":"20180402","from":{"name":"Roussel / St-François","stopId":"1:1508","stopCode":"1508","lon":-71.065897,"lat":48.437206,"arrival":1522678739000,"departure":1522678740000,"zoneId":"NA","stopIndex":1,"stopSequence":2,"vertexType":"TRANSIT"},"to":{"name":"St-Émile / Madeleine","stopId":"1:811","stopCode":"811","lon":-71.045248,"lat":48.445626,"arrival":1522678988000,"departure":1522678989000,"zoneId":"NA","stopIndex":8,"stopSequence":9,"vertexType":"TRANSIT"},"legGeometry":{"points":"_lsfHz`wpL?mAEcAGs@OoAa@sB[kAYcASq@Ok@Qq@Ku@MoBKmAa@eHi@FKC_@I??iE}Ah@}DH}@?c@Ea@[_BA?My@Cm@?Y@g@Hu@b@sD\\_DBSyHsC_@MBQA}@IwAUoAcAkCWo@qDgJg@cBk@uBi@sC]aCWwCiKuD","length":49},"routeShortName":"24","routeLongName":"Saint-Luc","rentedBike":false,"transitLeg":true,"duration":248.0,"steps":[]},{"startTime":1522678989000,"endTime":1522679390000,"departureDelay":0,"arrivalDelay":0,"realTime":false,"distance":510.351,"pathway":false,"mode":"WALK","route":"","agencyTimeZoneOffset":-14400000,"interlineWithPreviousLeg":false,"from":{"name":"St-Émile / Madeleine","stopId":"1:811","stopCode":"811","lon":-71.045248,"lat":48.445626,"arrival":1522678988000,"departure":1522678989000,"zoneId":"NA","stopIndex":8,"stopSequence":9,"vertexType":"TRANSIT"},"to":{"name":"Destination","lon":-71.043707,"lat":48.442507,"arrival":1522679390000,"orig":"","vertexType":"NORMAL"},"legGeometry":{"points":"g`ufHh`spLrAj@rHpCIeCCe@xBi@rAiAf@u@d@sAo@S","length":10},"rentedBike":false,"transitLeg":false,"duration":401.0,"steps":[{"distance":229.058,"relativeDirection":"DEPART","streetName":"Rue Saint-Émile","absoluteDirection":"SOUTH","stayOn":false,"area":false,"bogusName":false,"lon":-71.04532866561726,"lat":48.44564391364887,"elevation":[]},{"distance":63.447,"relativeDirection":"LEFT","streetName":"Boulevard de Tadoussac","absoluteDirection":"EAST","stayOn":false,"area":false,"bogusName":false,"lon":-71.0462723,"lat":48.4436814,"elevation":[]},{"distance":190.572,"relativeDirection":"RIGHT","streetName":"path","absoluteDirection":"SOUTH","stayOn":false,"area":false,"bogusName":true,"lon":-71.0454189,"lat":48.4437524,"elevation":[]},{"distance":27.274,"relativeDirection":"LEFT","streetName":"Rue de Calais","absoluteDirection":"NORTH","stayOn":false,"area":false,"bogusName":false,"lon":-71.0441495,"lat":48.442336000000005,"elevation":[]}]}],"tooSloped":false}]},"debugOutput":{"precalculationTime":25,"pathCalculationTime":27,"pathTimes":[17,5,5],"renderingTime":0,"totalTime":52,"timedOut":false},"elevationMetadata":{"ellipsoidToGeoidDifference":-28.885904201182168,"geoidElevation":false}}