{"requestParameters":{"date":"2018/04/02","walkSpeed":"1.33","walkReluctance":"2.0","fromPlace":"48.442507,-71.043707","maxWalkDistance":"3000","waitReluctance":"1.0","carSpeed":"33","numItineraries":"3","waitAtBeginningFactor":"0.4","mode":"TRANSIT,WALK","ignoreRealtimeUpdates":"false","stairsReluctance":"2.0","toPlace":"48.416027,-71.08494398","time":"7:45:00"},"plan":{"date":1522669500000,"from":{"name":"Origin","lon":-71.043707,"lat":48.442507,"orig":"","vertexType":"NORMAL"},"to":{"name":"Destination","lon":-71.08494398,"lat":48.416027,"orig":"","vertexType":"NORMAL"},"itineraries":[{"duration":2530,"startTime":1522670289000,"endTime":1522672819000,"walkTime":1228,"transitTime":1060,"waitingTime":242,"walkDistance":1599.8385714228095,"walkLimitExceeded":false,"elevationLost":0.0,"elevationGained":0.0,"transfers":1,"legs":[{"startTime":1522670289000,"endTime":1522670543000,"departureDelay":0,"arrivalDelay":0,"realTime":false,"distance":319.358,"pathway":false,"mode":"WALK","route":"","agencyTimeZoneOffset":-14400000,"interlineWithPreviousLeg":false,"from":{"name":"Origin","lon":-71.043707,"lat":48.442507,"departure":1522670289000,"orig":"","vertexType":"NORMAL"},"to":{"name":"St-Émile / boul. Tadoussac","stopId":"1:828","stopCode":"828","lon":-71.046279,"lat":48.44333,"arrival":1522670543000,"departure":1522670544000,"zoneId":"NA","stopIndex":26,"stopSequence":27,"vertexType":"TRANSIT"},"legGeometry":{"points":"amtfHhxrpLn@Re@rAg@t@sAhAyBh@Bd@HdCbAV","length":9},"rentedBike":false,"transitLeg":false,"duration":254.0,"steps":[{"distance":27.274,"relativeDirection":"DEPART","streetName":"Rue de Calais","absoluteDirection":"SOUTH","stayOn":false,"area":false,"bogusName":false,"lon":-71.04404757639658,"lat":48.44257178640055,"elevation":[]},{"distance":190.572,"relativeDirection":"RIGHT","streetName":"path","absoluteDirection":"NORTHWEST","stayOn":false,"area":false,"bogusName":true,"lon":-71.0441495,"lat":48.442336000000005,"elevation":[]},{"distance":63.447,"relativeDirection":"LEFT","streetName":"Boulevard de Tadoussac","absoluteDirection":"WEST","stayOn":false,"area":false,"bogusName":false,"lon":-71.0454189,"lat":48.4437524,"elevation":[]},{"distance":38.065,"relativeDirection":"LEFT","streetName":"Rue Saint-Émile","absoluteDirection":"SOUTH","stayOn":false,"area":false,"bogusName":false,"lon":-71.0462723,"lat":48.4436814,"elevation":[]}]},{"startTime":1522670544000,"endTime":1522671060000,"departureDelay":0,"arrivalDelay":0,"realTime":false,"distance":3215.2466636012887,"pathway":false,"mode":"BUS","route":"24","agencyName":"Société de Transport du Saguenay","agencyUrl":"http://ville.saguenay.ca/fr/services-aux-citoyens/transport-sts","agencyTimeZoneOffset":-14400000,"routeColor":"00FF00","routeType":3,"routeId":"1:24","routeTextColor":"000000","interlineWithPreviousLeg":false,"tripBlockId":"4","headsign":"Terminus Chicoutimi","agencyId":"0","tripId":"1:217225","serviceDate":"20180402","from":{"name":"St-Émile / boul. Tadoussac","stopId":"1:828","stopCode":"828","lon":-71.046279,"lat":48.44333,"arrival":1522670543000,"departure":1522670544000,"zoneId":"NA","stopIndex":26,"stopSequence":27,"vertexType":"TRANSIT"},"to":{"name":"Terminus Chicoutimi","stopId":"1:1289","stopCode":"1289","lon":-71.066163,"lat":48.428677,"arrival":1522671060000,"departure":1522671300000,"zoneId":"NA","stopIndex":35,"stopSequence":36,"vertexType":"TRANSIT"},"legGeometry":{"points":"}qtfH`gspL_A]VvC\\`Ch@rCj@tBf@bBxDxJN\\bAjCTnAHvA@|@CPIpAe@pDUfBCTEXK~@MxAEn@@v@Bp@Dr@l@~HNlAH\\@HLd@\\z@Xd@X\\RTXRr@Zn@PfExAvDpALnBJt@Pp@Nj@l@tBHZPn@`@rBNnAFr@DbA?bB@jABzA?p@A???A???A?A???A@??A?A@??A@?@A??@A@???@A@?@?@A@?@?@?@?@???@?@?@?@?@?@@@?@?@@@?@@@?@@@?@@?@@??@@@?E`@Kr@]rACVEl@I|AAr@JbAWJe@FUAM?a@Ke@YYWWa@v@}@RQPMz@k@tAe@REZG^Af@@X@VF`@Jn@XbClAr@Xt\\`PrAb@pA^hBTjAFj@Pb@JPHLLJNJRFXDT?X?ZEVEVKTMNMHMFOB}DWSGOSYcAN}FFkAF}DJyDPwGvAHN_HDiB@m@","length":168},"routeShortName":"24","routeLongName":"Saint-Luc","rentedBike":false,"transitLeg":true,"duration":516.0,"steps":[]},{"startTime":1522671300000,"endTime":1522671844000,"departureDelay":0,"arrivalDelay":0,"realTime":false,"distance":2772.726546543816,"pathway":false,"mode":"BUS","route":"11","agencyName":"Société de Transport du Saguenay","agencyUrl":"http://ville.saguenay.ca/fr/services-aux-citoyens/transport-sts","agencyTimeZoneOffset":-14400000,"routeColor":"FF0000","routeType":3,"routeId":"1:11","routeTextColor":"FFFFFF","interlineWithPreviousLeg":false,"tripBlockId":"37","headsign":"Boul.Royaume/St-Pierre","agencyId":"0","tripId":"1:218306","serviceDate":"20180402","from":{"name":"Terminus Chicoutimi","stopId":"1:1289","stopCode":"1289","lon":-71.066163,"lat":48.428677,"arrival":1522671060000,"departure":1522671300000,"zoneId":"NA","stopIndex":0,"stopSequence":1,"vertexType":"TRANSIT"},"to":{"name":"boul. Saint-Paul / Martin Bouvard","stopId":"1:427","stopCode":"427","lon":-71.088402,"lat":48.411206,"arrival":1522671844000,"departure":1522671845000,"zoneId":"NA","stopIndex":13,"stopSequence":14,"vertexType":"TRANSIT"},"legGeometry":{"points":"evqfHzcwpLk@?UhKfIh@dKp@GnDIfDOtEE~@Ff@x@rEF~@CbAALO~ADRNJXBr@DfGRPBPJLN@@FPFTBX?TE`BhBR@?J@NELKFOlAiDL[bA`AfIjIbGdGzDzD`A~An@`ApApBpClEvJrOR\\bAfBLa@t@]LjAVvAVbAVv@^bAXj@b@t@xEtGh@r@","length":59},"routeShortName":"11","routeLongName":"Chic/Faubourg via St-Paul","rentedBike":false,"transitLeg":true,"duration":544.0,"steps":[]},{"startTime":1522671845000,"endTime":1522672819000,"departureDelay":0,"arrivalDelay":0,"realTime":false,"distance":1280.302,"pathway":false,"mode":"WALK","route":"","agencyTimeZoneOffset":-14400000,"interlineWithPreviousLeg":false,"from":{"name":"boul. Saint-Paul / Martin Bouvard","stopId":"1:427","stopCode":"427","lon":-71.088402,"lat":48.411206,"arrival":1522671844000,"departure":1522671845000,"zoneId":"NA","stopIndex":13,"stopSequence":14,"vertexType":"TRANSIT"},"to":{"name":"Destination","lon":-71.08494398,"lat":48.416027,"arrival":1522672819000,"orig":"","vertexType":"NORMAL"},"legGeometry":{"points":"shnfHtl{pLCCk@k@}AzDYXQHK?o@vCSMQAMWUW[WKQIi@IGOE[F]Ji@\\]HEE?QFWPg@P]LSJYHUFg@HICKCCI?aA`ASPk@p@WN_@CsAOk@[e@]s@c@QSKSMOQ?g@Km@a@qBcAu@e@aAi@Wq@W{@QmA?[DWJGP@RHZ\\^\\Lm@`@m@\\s@Ni@HOVO","length":68},"alerts":[{"alertHeaderText":"Unpaved surface"}],"rentedBike":false,"transitLeg":false,"duration":974.0,"steps":[{"distance":31.826999999999998,"relativeDirection":"DEPART","streetName":"Boulevard Saint-Paul","absoluteDirection":"NORTHEAST","stayOn":false,"area":false,"bogusName":false,"lon":-71.08826195247585,"lat":48.41114632424416,"elevation":[]},{"distance":121.414,"relativeDirection":"LEFT","streetName":"Rue Martin-Bouvard","absoluteDirection":"NORTHWEST","stayOn":false,"area":false,"bogusName":false,"lon":-71.088029,"lat":48.4113872,"elevation":[]},{"distance":1127.061,"relativeDirection":"LEFT","streetName":"path","absoluteDirection":"NORTHWEST","stayOn":false,"area":false,"bogusName":true,"lon":-71.08914440000001,"lat":48.4121377,"elevation":[],"alerts":[{"alertHeaderText":"Unpaved surface"}]}]}],"tooSloped":false},{"duration":4333,"startTime":1522669586000,"endTime":1522673919000,"walkTime":2262,"transitTime":1649,"waitingTime":422,"walkDistance":2934.3601353269187,"walkLimitExceeded":false,"elevationLost":0.0,"elevationGained":0.0,"transfers":1,"legs":[{"startTime":1522669586000,"endTime":1522670266000,"departureDelay":0,"arrivalDelay":0,"realTime":false,"distance":872.613,"pathway":false,"mode":"WALK","route":"","agencyTimeZoneOffset":-14400000,"interlineWithPreviousLeg":false,"from":{"name":"Origin","lon":-71.043707,"lat":48.442507,"departure":1522669586000,"orig":"","vertexType":"NORMAL"},"to":{"name":"Verdun / Mgr Laval","stopId":"1:795","stopCode":"795","lon":-71.052912,"lat":48.444125,"arrival":1522670266000,"departure":1522670267000,"zoneId":"NA","stopIndex":17,"stopSequence":18,"vertexType":"TRANSIT"},"legGeometry":{"points":"amtfHhxrpLn@Re@rAg@t@sAhAyBh@Bd@HdCHv@Fb@NnA@HVbBZdB@Db@dB\\pATr@FP}@v@QPKNIXId@WhCs@~GQrB_A_@","length":28},"rentedBike":false,"transitLeg":false,"duration":680.0,"steps":[{"distance":27.274,"relativeDirection":"DEPART","streetName":"Rue de Calais","absoluteDirection":"SOUTH","stayOn":false,"area":false,"bogusName":false,"lon":-71.04404757639658,"lat":48.44257178640055,"elevation":[]},{"distance":190.572,"relativeDirection":"RIGHT","streetName":"path","absoluteDirection":"NORTHWEST","stayOn":false,"area":false,"bogusName":true,"lon":-71.0441495,"lat":48.442336000000005,"elevation":[]},{"distance":323.569,"relativeDirection":"LEFT","streetName":"Boulevard de Tadoussac","absoluteDirection":"WEST","stayOn":false,"area":false,"bogusName":false,"lon":-71.0454189,"lat":48.4437524,"elevation":[]},{"distance":293.978,"relativeDirection":"RIGHT","streetName":"Rue Monseigneur-Laval","absoluteDirection":"NORTHWEST","stayOn":false,"area":false,"bogusName":false,"lon":-71.0494919,"lat":48.442756900000006,"elevation":[]},{"distance":37.22,"relativeDirection":"RIGHT","streetName":"Rue de Verdun","absoluteDirection":"NORTH","stayOn":false,"area":false,"bogusName":false,"lon":-71.05297780000001,"lat":48.4437865,"elevation":[]}]},{"startTime":1522670267000,"endTime":1522670880000,"departureDelay":0,"arrivalDelay":0,"realTime":false,"distance":2824.97357990408,"pathway":false,"mode":"BUS","route":"23","agencyName":"Société de Transport du Saguenay","agencyUrl":"http://ville.saguenay.ca/fr/services-aux-citoyens/transport-sts","agencyTimeZoneOffset":-14400000,"routeColor":"FF00FF","routeType":3,"routeId":"1:23","routeTextColor":"FFFFFF","interlineWithPreviousLeg":false,"tripBlockId":"5","headsign":"Terminus Chicoutimi","agencyId":"0","tripId":"1:217252","serviceDate":"20180402","from":{"name":"Verdun / Mgr Laval","stopId":"1:795","stopCode":"795","lon":-71.052912,"lat":48.444125,"arrival":1522670266000,"departure":1522670267000,"zoneId":"NA","stopIndex":17,"stopSequence":18,"vertexType":"TRANSIT"},"to":{"name":"Terminus Chicoutimi","stopId":"1:1289","stopCode":"1289","lon":-71.066163,"lat":48.428677,"arrival":1522670880000,"departure":1522671300000,"zoneId":"NA","stopIndex":26,"stopSequence":27,"vertexType":"TRANSIT"},"legGeometry":{"points":"svtfHfotpLz@\\CP?R@N@NFLFF`GtBx@Xw@pG@l@B\\DXL\\RZDFXPf@N@v@Bp@Dr@l@~HNlAH\\@HLd@\\z@Xd@X\\RTXRr@Zn@PfExAvDpALnBJt@Pp@|@`DHZPn@`@rBNnAFr@DbA?bB@jABzA?p@A???A???A?A???A@??A?A@??A@?@A??@A@???@A@?@?@A@?@?@?@?@???@?@?@?@?@?@@@?@?@@@?@@@?@@@?@@?@@??@@@?E`@Kr@]rACVEl@I|AAr@JbAWJe@FUAM?a@Ke@YYWWa@v@}@RQPMz@k@tAe@REZG^Af@@X@VF`@Jn@XbClAr@Xt\\`PrAb@pA^hBTjAFj@Pb@JPHLLJNJRFXDT?X?ZEVEVKTMNMHMFOB}DWSGOSYcAN}FFkAF}DJyDd@wPV_HjAN~ALI`C","length":164},"routeShortName":"23","routeLongName":"Côte Verdun via Aréna du Plateau","rentedBike":false,"transitLeg":true,"duration":613.0,"steps":[]},{"startTime":1522671300000,"endTime":1522672336000,"departureDelay":0,"arrivalDelay":0,"realTime":false,"distance":4327.601584691453,"pathway":false,"mode":"BUS","route":"14","agencyName":"Société de Transport du Saguenay","agencyUrl":"http://ville.saguenay.ca/fr/services-aux-citoyens/transport-sts","agencyTimeZoneOffset":-14400000,"routeColor":"C0C000","routeType":3,"routeId":"1:14","routeTextColor":"000000","interlineWithPreviousLeg":false,"tripBlockId":"32","headsign":"Talbot / Barrette","agencyId":"0","tripId":"1:218150","serviceDate":"20180402","from":{"name":"Terminus Chicoutimi","stopId":"1:1289","stopCode":"1289","lon":-71.066163,"lat":48.428677,"arrival":1522670880000,"departure":1522671300000,"zoneId":"NA","stopIndex":0,"stopSequence":1,"vertexType":"TRANSIT"},"to":{"name":"Boily / Garnier","stopId":"1:1567","stopCode":"1567","lon":-71.080057,"lat":48.411756,"arrival":1522672336000,"departure":1522672337000,"zoneId":"NA","stopIndex":15,"stopSequence":16,"vertexType":"TRANSIT"},"legGeometry":{"points":"qvqfHnbwpLJkClLh@DsDTmSHwFB{I@m@@eBH_AF}A@w@Dq@@i@B}B@Y@e@D]F_@@SHQCKnBnBvIrIn@n@\\iATg@v@_ATg@LmABg@Is@c@iEAm@bAcDTcAtA{DJI|AxAvAvAQv@~@z@dA`ATq@`E~DL`@E`Ex@hDd@`B}FtFaAzAm@xAe@jCa@nDiAbm@SpKM`H]vBhDVzCTcAvCO^bEbEzK`LfBeEtK`KhAdAnCbCvBpCNR~BxAxBf@z@h@","length":73},"routeShortName":"14","routeLongName":"Coopérative","rentedBike":false,"transitLeg":true,"duration":1036.0,"steps":[]},{"startTime":1522672337000,"endTime":1522673919000,"departureDelay":0,"arrivalDelay":0,"realTime":false,"distance":2061.393,"pathway":false,"mode":"WALK","route":"","agencyTimeZoneOffset":-14400000,"interlineWithPreviousLeg":false,"from":{"name":"Boily / Garnier","stopId":"1:1567","stopCode":"1567","lon":-71.080057,"lat":48.411756,"arrival":1522672336000,"departure":1522672337000,"zoneId":"NA","stopIndex":15,"stopSequence":16,"vertexType":"TRANSIT"},"to":{"name":"Destination","lon":-71.08494398,"lat":48.416027,"arrival":1522673919000,"orig":"","vertexType":"NORMAL"},"legGeometry":{"points":"elnfHpxypLnAr@{@vDWzBY`D{@fDoAnBg@XoAh@IB[Ph@pDh@fBz@rBbBbCj@x@hBjC}AzDYXQHK?o@vCSMQAMWUW[WKQIi@IGOE[F]Ji@\\]HEE?QFWPg@P]LSJYHUFg@HICKCCI?aA`ASPk@p@WN_@CsAOk@[e@]s@c@QSKSMOQ?g@Km@a@qBcAu@e@aAi@Wq@W{@QmA?[DWJGP@RHZ\\^\\Lm@`@m@\\s@Ni@HOVO","length":82},"alerts":[{"alertHeaderText":"Unpaved surface"}],"rentedBike":false,"transitLeg":false,"duration":1582.0,"steps":[{"distance":49.36,"relativeDirection":"DEPART","streetName":"Rue Boily","absoluteDirection":"SOUTHWEST","stayOn":false,"area":false,"bogusName":false,"lon":-71.07992373269299,"lat":48.41171817126571,"elevation":[]},{"distance":387.072,"relativeDirection":"RIGHT","streetName":"Rue Garnier","absoluteDirection":"NORTHWEST","stayOn":false,"area":false,"bogusName":false,"lon":-71.0801867,"lat":48.41131,"elevation":[]},{"distance":22.995,"relativeDirection":"CONTINUE","streetName":"Rue Saint-Augustin","absoluteDirection":"NORTH","stayOn":false,"area":false,"bogusName":false,"lon":-71.0842714,"lat":48.413164,"elevation":[]},{"distance":353.491,"relativeDirection":"LEFT","streetName":"Boulevard Saint-Paul","absoluteDirection":"WEST","stayOn":false,"area":false,"bogusName":false,"lon":-71.0843859,"lat":48.413356300000004,"elevation":[]},{"distance":121.414,"relativeDirection":"RIGHT","streetName":"Rue Martin-Bouvard","absoluteDirection":"NORTHWEST","stayOn":false,"area":false,"bogusName":false,"lon":-71.088029,"lat":48.4113872,"elevation":[]},{"distance":1127.061,"relativeDirection":"LEFT","streetName":"path","absoluteDirection":"NORTHWEST","stayOn":false,"area":false,"bogusName":true,"lon":-71.08914440000001,"lat":48.4121377,"elevation":[],"alerts":[{"alertHeaderText":"Unpaved surface"}]}]}],"tooSloped":false},{"duration":2530,"startTime":1522672089000,"endTime":1522674619000,"walkTime":1228,"transitTime":1060,"waitingTime":242,"walkDistance":1599.8385714228095,"walkLimitExceeded":false,"elevationLost":0.0,"elevationGained":0.0,"transfers":1,"legs":[{"startTime":1522672089000,"endTime":1522672343000,"departureDelay":0,"arrivalDelay":0,"realTime":false,"distance":319.358,"pathway":false,"mode":"WALK","route":"","agencyTimeZoneOffset":-14400000,"interlineWithPreviousLeg":false,"from":{"name":"Origin","lon":-71.043707,"lat":48.442507,"departure":1522672089000,"orig":"","vertexType":"NORMAL"},"to":{"name":"St-Émile / boul. Tadoussac","stopId":"1:828","stopCode":"828","lon":-71.046279,"lat":48.44333,"arrival":1522672343000,"departure":1522672344000,"zoneId":"NA","stopIndex":26,"stopSequence":27,"vertexType":"TRANSIT"},"legGeometry":{"points":"amtfHhxrpLn@Re@rAg@t@sAhAyBh@Bd@HdCbAV","length":9},"rentedBike":false,"transitLeg":false,"duration":254.0,"steps":[{"distance":27.274,"relativeDirection":"DEPART","streetName":"Rue de Calais","absoluteDirection":"SOUTH","stayOn":false,"area":false,"bogusName":false,"lon":-71.04404757639658,"lat":48.44257178640055,"elevation":[]},{"distance":190.572,"relativeDirection":"RIGHT","streetName":"path","absoluteDirection":"NORTHWEST","stayOn":false,"area":false,"bogusName":true,"lon":-71.0441495,"lat":48.442336000000005,"elevation":[]},{"distance":63.447,"relativeDirection":"LEFT","streetName":"Boulevard de Tadoussac","absoluteDirection":"WEST","stayOn":false,"area":false,"bogusName":false,"lon":-71.0454189,"lat":48.4437524,"elevation":[]},{"distance":38.065,"relativeDirection":"LEFT","streetName":"Rue Saint-Émile","absoluteDirection":"SOUTH","stayOn":false,"area":false,"bogusName":false,"lon":-71.0462723,"lat":48.4436814,"elevation":[]}]},{"startTime":1522672344000,"endTime":1522672860000,"departureDelay":0,"arrivalDelay":0,"realTime":false,"distance":3215.2466636012887,"pathway":false,"mode":"BUS","route":"24","agencyName":"Société de Transport du Saguenay","agencyUrl":"http://ville.saguenay.ca/fr/services-aux-citoyens/transport-sts","agencyTimeZoneOffset":-14400000,"routeColor":"00FF00","routeType":3,"routeId":"1:24","routeTextColor":"000000","interlineWithPreviousLeg":false,"tripBlockId":"5","headsign":"Terminus Chicoutimi","agencyId":"0","tripId":"1:217253","serviceDate":"20180402","from":{"name":"St-Émile / boul. Tadoussac","stopId":"1:828","stopCode":"828","lon":-71.046279,"lat":48.44333,"arrival":1522672343000,"departure":1522672344000,"zoneId":"NA","stopIndex":26,"stopSequence":27,"vertexType":"TRANSIT"},"to":{"name":"Terminus Chicoutimi","stopId":"1:1289","stopCode":"1289","lon":-71.066163,"lat":48.428677,"arrival":1522672860000,"departure":1522673100000,"zoneId":"NA","stopIndex":35,"stopSequence":36,"vertexType":"TRANSIT"},"legGeometry":{"points":"}qtfH`gspL_A]VvC\\`Ch@rCj@tBf@bBxDxJN\\bAjCTnAHvA@|@CPIpAe@pDUfBCTEXK~@MxAEn@@v@Bp@Dr@l@~HNlAH\\@HLd@\\z@Xd@X\\RTXRr@Zn@PfExAvDpALnBJt@Pp@Nj@l@tBHZPn@`@rBNnAFr@DbA?bB@jABzA?p@A???A???A?A???A@??A?A@??A@?@A??@A@???@A@?@?@A@?@?@?@?@???@?@?@?@?@?@@@?@?@@@?@@@?@@@?@@?@@??@@@?E`@Kr@]rACVEl@I|AAr@JbAWJe@FUAM?a@Ke@YYWWa@v@}@RQPMz@k@tAe@REZG^Af@@X@VF`@Jn@XbClAr@Xt\\`PrAb@pA^hBTjAFj@Pb@JPHLLJNJRFXDT?X?ZEVEVKTMNMHMFOB}DWSGOSYcAN}FFkAF}DJyDPwGvAHN_HDiB@m@","length":168},"routeShortName":"24","routeLongName":"Saint-Luc","rentedBike":false,"transitLeg":true,"duration":516.0,"steps":[]},{"startTime":1522673100000,"endTime":1522673644000,"departureDelay":0,"arrivalDelay":0,"realTime":false,"distance":2772.726546543816,"pathway":false,"mode":"BUS","route":"11","agencyName":"Société de Transport du Saguenay","agencyUrl":"http://ville.saguenay.ca/fr/services-aux-citoyens/transport-sts","agencyTimeZoneOffset":-14400000,"routeColor":"FF0000","routeType":3,"routeId":"1:11","routeTextColor":"FFFFFF","interlineWithPreviousLeg":false,"tripBlockId":"34","headsign":"Boul.Royaume/St-Pierre","agencyId":"0","tripId":"1:218211","serviceDate":"20180402","from":{"name":"Terminus Chicoutimi","stopId":"1:1289","stopCode":"1289","lon":-71.066163,"lat":48.428677,"arrival":1522672860000,"departure":1522673100000,"zoneId":"NA","stopIndex":0,"stopSequence":1,"vertexType":"TRANSIT"},"to":{"name":"boul. Saint-Paul / Martin Bouvard","stopId":"1:427","stopCode":"427","lon":-71.088402,"lat":48.411206,"arrival":1522673644000,"departure":1522673645000,"zoneId":"NA","stopIndex":13,"stopSequence":14,"vertexType":"TRANSIT"},"legGeometry":{"points":"evqfHzcwpLk@?UhKfIh@dKp@GnDIfDOtEE~@Ff@x@rEF~@CbAALO~ADRNJXBr@DfGRPBPJLN@@FPFTBX?TE`BhBR@?J@NELKFOlAiDL[bA`AfIjIbGdGzDzD`A~An@`ApApBpClEvJrOR\\bAfBLa@t@]LjAVvAVbAVv@^bAXj@b@t@xEtGh@r@","length":59},"routeShortName":"11","routeLongName":"Chic/Faubourg via St-Paul","rentedBike":false,"transitLeg":true,"duration":544.0,"steps":[]},{"startTime":1522673645000,"endTime":1522674619000,"departureDelay":0,"arrivalDelay":0,"realTime":false,"distance":1280.302,"pathway":false,"mode":"WALK","route":"","agencyTimeZoneOffset":-14400000,"interlineWithPreviousLeg":false,"from":{"name":"boul. Saint-Paul / Martin Bouvard","stopId":"1:427","stopCode":"427","lon":-71.088402,"lat":48.411206,"arrival":1522673644000,"departure":1522673645000,"zoneId":"NA","stopIndex":13,"stopSequence":14,"vertexType":"TRANSIT"},"to":{"name":"Destination","lon":-71.08494398,"lat":48.416027,"arrival":1522674619000,"orig":"","vertexType":"NORMAL"},"legGeometry":{"points":"shnfHtl{pLCCk@k@}AzDYXQHK?o@vCSMQAMWUW[WKQIi@IGOE[F]Ji@\\]HEE?QFWPg@P]LSJYHUFg@HICKCCI?aA`ASPk@p@WN_@CsAOk@[e@]s@c@QSKSMOQ?g@Km@a@qBcAu@e@aAi@Wq@W{@QmA?[DWJGP@RHZ\\^\\Lm@`@m@\\s@Ni@HOVO","length":68},"alerts":[{"alertHeaderText":"Unpaved surface"}],"rentedBike":false,"transitLeg":false,"duration":974.0,"steps":[{"distance":31.826999999999998,"relativeDirection":"DEPART","streetName":"Boulevard Saint-Paul","absoluteDirection":"NORTHEAST","stayOn":false,"area":false,"bogusName":false,"lon":-71.08826195247585,"lat":48.41114632424416,"elevation":[]},{"distance":121.414,"relativeDirection":"LEFT","streetName":"Rue Martin-Bouvard","absoluteDirection":"NORTHWEST","stayOn":false,"area":false,"bogusName":false,"lon":-71.088029,"lat":48.4113872,"elevation":[]},{"distance":1127.061,"relativeDirection":"LEFT","streetName":"path","absoluteDirection":"NORTHWEST","stayOn":false,"area":false,"bogusName":true,"lon":-71.08914440000001,"lat":48.4121377,"elevation":[],"alerts":[{"alertHeaderText":"Unpaved surface"}]}]}],"tooSloped":false}]},"debugOutput":{"precalculationTime":11,"pathCalculationTime":22,"pathTimes":[14,4,4],"renderingTime":0,"totalTime":33,"timedOut":false},"elevationMetadata":{"ellipsoidToGeoidDifference":-28.885904201182168,"geoidElevation":false}}