{"requestParameters":{"date":"2018/04/02","walkSpeed":"1.33","walkReluctance":"2.0","fromPlace":"48.443713,-71.068053","maxWalkDistance":"3000","waitReluctance":"1.0","carSpeed":"33","numItineraries":"3","waitAtBeginningFactor":"0.4","mode":"TRANSIT,WALK","ignoreRealtimeUpdates":"false","stairsReluctance":"2.0","toPlace":"48.444908,-71.064348","time":"11:0:00"},"plan":{"date":1522681200000,"from":{"name":"Origin","lon":-71.068053,"lat":48.443713,"orig":"","vertexType":"NORMAL"},"to":{"name":"Destination","lon":-71.064348,"lat":48.444908,"orig":"","vertexType":"NORMAL"},"itineraries":[{"duration":298,"startTime":1522681200000,"endTime":1522681498000,"walkTime":298,"transitTime":0,"waitingTime":0,"walkDistance":389.17906014959965,"walkLimitExceeded":false,"elevationLost":0.0,"elevationGained":0.0,"transfers":0,"legs":[{"startTime":1522681200000,"endTime":1522681498000,"departureDelay":0,"arrivalDelay":0,"realTime":false,"distance":389.155,"pathway":false,"mode":"WALK","route":"","agencyTimeZoneOffset":-14400000,"interlineWithPreviousLeg":false,"from":{"name":"Origin","lon":-71.068053,"lat":48.443713,"departure":1522681200000,"orig":"","vertexType":"NORMAL"},"to":{"name":"Destination","lon":-71.064348,"lat":48.444908,"arrival":1522681498000,"orig":"","vertexType":"NORMAL"},"legGeometry":{"points":"ystfHrpwpLcAXiA{MIk@GYISIOIKIGKIa@OWIj@qD","length":13},"rentedBike":false,"transitLeg":false,"duration":298.0,"steps":[{"distance":39.52,"relativeDirection":"DEPART","streetName":"path","absoluteDirection":"NORTH","stayOn":false,"area":false,"bogusName":false,"lon":-71.06841057285905,"lat":48.44365191196925,"elevation":[]},{"distance":280.098,"relativeDirection":"RIGHT","streetName":"Rue Delisle","absoluteDirection":"EAST","stayOn":false,"area":false,"bogusName":false,"lon":-71.0685442,"lat":48.4439961,"elevation":[]},{"distance":69.537,"relativeDirection":"RIGHT","streetName":"Rue Talon","absoluteDirection":"EAST","stayOn":false,"area":false,"bogusName":false,"lon":-71.065352,"lat":48.445005300000005,"elevation":[]}]}],"tooSloped":false}]},"debugOutput":{"precalculationTime":23,"pathCalculationTime":17,"pathTimes":[1,14,2],"renderingTime":0,"totalTime":40,"timedOut":false},"elevationMetadata":{"ellipsoidToGeoidDifference":-28.885904201182168,"geoidElevation":false}}