{"requestParameters":{"date":"2018/04/02","walkSpeed":"1.33","walkReluctance":"2.0","fromPlace":"48.444908,-71.064348","maxWalkDistance":"3000","waitReluctance":"1.0","carSpeed":"33","numItineraries":"3","waitAtBeginningFactor":"0.4","mode":"TRANSIT,WALK","ignoreRealtimeUpdates":"false","stairsReluctance":"2.0","toPlace":"48.443713,-71.068053","time":"9:30:00"},"plan":{"date":1522675800000,"from":{"name":"Origin","lon":-71.064348,"lat":48.444908,"orig":"","vertexType":"NORMAL"},"to":{"name":"Destination","lon":-71.068053,"lat":48.443713,"orig":"","vertexType":"NORMAL"},"itineraries":[{"duration":297,"startTime":1522675800000,"endTime":1522676097000,"walkTime":297,"transitTime":0,"waitingTime":0,"walkDistance":389.17567669106216,"walkLimitExceeded":false,"elevationLost":0.0,"elevationGained":0.0,"transfers":0,"legs":[{"startTime":1522675800000,"endTime":1522676097000,"departureDelay":0,"arrivalDelay":0,"realTime":false,"distance":389.155,"pathway":false,"mode":"WALK","route":"","agencyTimeZoneOffset":-14400000,"interlineWithPreviousLeg":false,"from":{"name":"Origin","lon":-71.064348,"lat":48.444908,"departure":1522675800000,"orig":"","vertexType":"NORMAL"},"to":{"name":"Destination","lon":-71.068053,"lat":48.443713,"arrival":1522676097000,"orig":"","vertexType":"NORMAL"},"legGeometry":{"points":"{ztfH|wvpLk@pDVH`@NJHHFHJHNHRFXHj@hAzMbAY","length":13},"rentedBike":false,"transitLeg":false,"duration":297.0,"steps":[{"distance":69.537,"relativeDirection":"DEPART","streetName":"Rue Talon","absoluteDirection":"WEST","stayOn":false,"area":false,"bogusName":false,"lon":-71.064468,"lat":48.444788,"elevation":[]},{"distance":280.098,"relativeDirection":"LEFT","streetName":"Rue Delisle","absoluteDirection":"SOUTH","stayOn":false,"area":false,"bogusName":false,"lon":-71.065352,"lat":48.445005300000005,"elevation":[]},{"distance":39.52,"relativeDirection":"LEFT","streetName":"path","absoluteDirection":"SOUTH","stayOn":false,"area":false,"bogusName":false,"lon":-71.0685442,"lat":48.4439961,"elevation":[]}]}],"tooSloped":false}]},"debugOutput":{"precalculationTime":20,"pathCalculationTime":20,"pathTimes":[0,15,5],"renderingTime":0,"totalTime":40,"timedOut":false},"elevationMetadata":{"ellipsoidToGeoidDifference":-28.885904201182168,"geoidElevation":false}}