{"requestParameters":{"date":"2018/04/02","walkSpeed":"1.33","walkReluctance":"2.0","fromPlace":"48.457944,-71.10299","maxWalkDistance":"3000","waitReluctance":"1.0","carSpeed":"33","numItineraries":"3","waitAtBeginningFactor":"0.4","mode":"TRANSIT,WALK","ignoreRealtimeUpdates":"false","stairsReluctance":"2.0","toPlace":"48.457307,-71.117476","time":"11:20:00"},"plan":{"date":1522682400000,"from":{"name":"Origin","lon":-71.10299,"lat":48.457944,"orig":"","vertexType":"NORMAL"},"to":{"name":"Destination","lon":-71.117476,"lat":48.457307,"orig":"","vertexType":"NORMAL"},"itineraries":[{"duration":1363,"startTime":1522682400000,"endTime":1522683763000,"walkTime":1363,"transitTime":0,"waitingTime":0,"walkDistance":1748.034586455369,"walkLimitExceeded":false,"elevationLost":0.0,"elevationGained":0.0,"transfers":0,"legs":[{"startTime":1522682400000,"endTime":1522683763000,"departureDelay":0,"arrivalDelay":0,"realTime":false,"distance":1747.7,"pathway":false,"mode":"WALK","route":"","agencyTimeZoneOffset":-14400000,"interlineWithPreviousLeg":false,"from":{"name":"Origin","lon":-71.10299,"lat":48.457944,"departure":1522682400000,"orig":"","vertexType":"NORMAL"},"to":{"name":"Destination","lon":-71.117476,"lat":48.457307,"arrival":1522683763000,"orig":"","vertexType":"NORMAL"},"legGeometry":{"points":"mowfHbf~pLX{BdBkARt@ZrAp@tCfB`IPj@KJMLGJIHCDKAKIOGMGk@Qy@UUlAVfBsC|FS^}AtDwBI_@xEg@~BQ`ADf@fAtAfCjIZbADH`@t@l@fAhBvDVTo@lERpAg@pGlBpAFFDe@","length":43},"alerts":[{"alertHeaderText":"Unpaved surface"}],"rentedBike":false,"transitLeg":false,"duration":1363.0,"steps":[{"distance":47.92,"relativeDirection":"DEPART","streetName":"service road","absoluteDirection":"EAST","stayOn":false,"area":false,"bogusName":false,"lon":-71.102574,"lat":48.45831,"elevation":[]},{"distance":63.203,"relativeDirection":"RIGHT","streetName":"Rue des Fougères","absoluteDirection":"SOUTHEAST","stayOn":false,"area":false,"bogusName":false,"lon":-71.10195200000001,"lat":48.4581852,"elevation":[]},{"distance":269.813,"relativeDirection":"RIGHT","streetName":"Rue des Épervières","absoluteDirection":"SOUTHWEST","stayOn":false,"area":false,"bogusName":false,"lon":-71.1015776,"lat":48.4576739,"elevation":[]},{"distance":124.024,"relativeDirection":"RIGHT","streetName":"Chemin de la Carrière","absoluteDirection":"NORTHWEST","stayOn":false,"area":false,"bogusName":false,"lon":-71.1048406,"lat":48.456577100000004,"elevation":[],"alerts":[{"alertHeaderText":"Unpaved surface"}]},{"distance":364.428,"relativeDirection":"LEFT","streetName":"path","absoluteDirection":"WEST","stayOn":false,"area":false,"bogusName":true,"lon":-71.1047752,"lat":48.4575958,"elevation":[]},{"distance":574.823,"relativeDirection":"LEFT","streetName":"Rue du Lis-Blanc","absoluteDirection":"WEST","stayOn":false,"area":false,"bogusName":false,"lon":-71.1079794,"lat":48.4594916,"elevation":[]},{"distance":112.622,"relativeDirection":"RIGHT","streetName":"path","absoluteDirection":"WEST","stayOn":false,"area":false,"bogusName":true,"lon":-71.1143703,"lat":48.4576542,"elevation":[]},{"distance":103.576,"relativeDirection":"SLIGHTLY_RIGHT","streetName":"Rue Marie-France","absoluteDirection":"WEST","stayOn":false,"area":false,"bogusName":false,"lon":-71.11581220000001,"lat":48.4577948,"elevation":[]},{"distance":73.426,"relativeDirection":"LEFT","streetName":"Rue Yvonne","absoluteDirection":"SOUTHWEST","stayOn":false,"area":false,"bogusName":false,"lon":-71.1171831,"lat":48.457997600000006,"elevation":[]},{"distance":13.865,"relativeDirection":"LEFT","streetName":"Rue Candide","absoluteDirection":"EAST","stayOn":false,"area":false,"bogusName":false,"lon":-71.1176303,"lat":48.457408300000004,"elevation":[]}]}],"tooSloped":false},{"duration":829,"startTime":1522683958000,"endTime":1522684787000,"walkTime":741,"transitTime":86,"waitingTime":2,"walkDistance":940.4190902179457,"walkLimitExceeded":false,"elevationLost":0.0,"elevationGained":0.0,"transfers":0,"legs":[{"startTime":1522683958000,"endTime":1522684533000,"departureDelay":0,"arrivalDelay":0,"realTime":false,"distance":737.8259999999998,"pathway":false,"mode":"WALK","route":"","agencyTimeZoneOffset":-14400000,"interlineWithPreviousLeg":false,"from":{"name":"Origin","lon":-71.10299,"lat":48.457944,"departure":1522683958000,"orig":"","vertexType":"NORMAL"},"to":{"name":"boul. Ste-Geneviève / Épervières","stopId":"1:714","stopCode":"714","lon":-71.106978,"lat":48.454249,"arrival":1522684533000,"departure":1522684534000,"zoneId":"NA","stopIndex":14,"stopSequence":15,"vertexType":"TRANSIT"},"legGeometry":{"points":"mowfHbf~pLX{BdBkARt@ZrAp@tCfB`IPj@`AhAd@XNDzA\\F@xA^l@\\JFFFPLNNDFHFD@LF\\HZHO~AGj@","length":27},"rentedBike":false,"transitLeg":false,"duration":575.0,"steps":[{"distance":47.92,"relativeDirection":"DEPART","streetName":"service road","absoluteDirection":"EAST","stayOn":false,"area":false,"bogusName":false,"lon":-71.102574,"lat":48.45831,"elevation":[]},{"distance":63.203,"relativeDirection":"RIGHT","streetName":"Rue des Fougères","absoluteDirection":"SOUTHEAST","stayOn":false,"area":false,"bogusName":false,"lon":-71.10195200000001,"lat":48.4581852,"elevation":[]},{"distance":573.7090000000001,"relativeDirection":"RIGHT","streetName":"Rue des Épervières","absoluteDirection":"SOUTHWEST","stayOn":false,"area":false,"bogusName":false,"lon":-71.1015776,"lat":48.4576739,"elevation":[]},{"distance":52.994,"relativeDirection":"RIGHT","streetName":"Boulevard Sainte-Geneviève","absoluteDirection":"WEST","stayOn":false,"area":false,"bogusName":false,"lon":-71.1063082,"lat":48.454059900000004,"elevation":[]}]},{"startTime":1522684534000,"endTime":1522684620000,"departureDelay":0,"arrivalDelay":0,"realTime":false,"distance":994.8563984802306,"pathway":false,"mode":"BUS","route":"21","agencyName":"Société de Transport du Saguenay","agencyUrl":"http://ville.saguenay.ca/fr/services-aux-citoyens/transport-sts","agencyTimeZoneOffset":-14400000,"routeColor":"556B2F","routeType":3,"routeId":"1:21","routeTextColor":"FFFFFF","interlineWithPreviousLeg":false,"tripBlockId":"2","headsign":"Terminus Chicoutimi","agencyId":"0","tripId":"1:217166","serviceDate":"20180402","from":{"name":"boul. Ste-Geneviève / Épervières","stopId":"1:714","stopCode":"714","lon":-71.106978,"lat":48.454249,"arrival":1522684533000,"departure":1522684534000,"zoneId":"NA","stopIndex":14,"stopSequence":15,"vertexType":"TRANSIT"},"to":{"name":"Élie / Roger","stopId":"1:718","stopCode":"718","lon":-71.119216,"lat":48.45754,"arrival":1522684620000,"departure":1522684621000,"zoneId":"NA","stopIndex":18,"stopSequence":19,"vertexType":"TRANSIT"},"legGeometry":{"points":"ouvfHxa_qLyAnPQhBK`Ae@fFm@vGS`Co@`HQhBQlBAHo@fHc@fEc@`FiDiAOSIMOQOa@GQ","length":20},"routeShortName":"21","routeLongName":"Boul. Ste-Geneviève/Élie","rentedBike":false,"transitLeg":true,"duration":86.0,"steps":[]},{"startTime":1522684621000,"endTime":1522684787000,"departureDelay":0,"arrivalDelay":0,"realTime":false,"distance":202.35700000000003,"pathway":false,"mode":"WALK","route":"","agencyTimeZoneOffset":-14400000,"interlineWithPreviousLeg":false,"from":{"name":"Élie / Roger","stopId":"1:718","stopCode":"718","lon":-71.119216,"lat":48.45754,"arrival":1522684620000,"departure":1522684621000,"zoneId":"NA","stopIndex":18,"stopSequence":19,"vertexType":"TRANSIT"},"to":{"name":"Destination","lon":-71.117476,"lat":48.457307,"arrival":1522684787000,"orig":"","vertexType":"NORMAL"},"legGeometry":{"points":"kjwfHzmaqLDHBF|AmAXs@e@sAUs@q@{@De@","length":9},"rentedBike":false,"transitLeg":false,"duration":166.0,"steps":[{"distance":8.662,"relativeDirection":"DEPART","streetName":"Rue Élie","absoluteDirection":"SOUTHWEST","stayOn":false,"area":false,"bogusName":false,"lon":-71.11917277645296,"lat":48.4575007379064,"elevation":[]},{"distance":83.501,"relativeDirection":"LEFT","streetName":"Rue Roger","absoluteDirection":"SOUTHEAST","stayOn":false,"area":false,"bogusName":false,"lon":-71.11926840000001,"lat":48.4574555,"elevation":[]},{"distance":96.329,"relativeDirection":"LEFT","streetName":"Rue Yvonne","absoluteDirection":"NORTHEAST","stayOn":false,"area":false,"bogusName":false,"lon":-71.11861950000001,"lat":48.456858800000006,"elevation":[]},{"distance":13.865,"relativeDirection":"RIGHT","streetName":"Rue Candide","absoluteDirection":"EAST","stayOn":false,"area":false,"bogusName":false,"lon":-71.1176303,"lat":48.457408300000004,"elevation":[]}]}],"tooSloped":false},{"duration":829,"startTime":1522685758000,"endTime":1522686587000,"walkTime":741,"transitTime":86,"waitingTime":2,"walkDistance":940.4190902179457,"walkLimitExceeded":false,"elevationLost":0.0,"elevationGained":0.0,"transfers":0,"legs":[{"startTime":1522685758000,"endTime":1522686333000,"departureDelay":0,"arrivalDelay":0,"realTime":false,"distance":737.8259999999998,"pathway":false,"mode":"WALK","route":"","agencyTimeZoneOffset":-14400000,"interlineWithPreviousLeg":false,"from":{"name":"Origin","lon":-71.10299,"lat":48.457944,"departure":1522685758000,"orig":"","vertexType":"NORMAL"},"to":{"name":"boul. Ste-Geneviève / Épervières","stopId":"1:714","stopCode":"714","lon":-71.106978,"lat":48.454249,"arrival":1522686333000,"departure":1522686334000,"zoneId":"NA","stopIndex":14,"stopSequence":15,"vertexType":"TRANSIT"},"legGeometry":{"points":"mowfHbf~pLX{BdBkARt@ZrAp@tCfB`IPj@`AhAd@XNDzA\\F@xA^l@\\JFFFPLNNDFHFD@LF\\HZHO~AGj@","length":27},"rentedBike":false,"transitLeg":false,"duration":575.0,"steps":[{"distance":47.92,"relativeDirection":"DEPART","streetName":"service road","absoluteDirection":"EAST","stayOn":false,"area":false,"bogusName":false,"lon":-71.102574,"lat":48.45831,"elevation":[]},{"distance":63.203,"relativeDirection":"RIGHT","streetName":"Rue des Fougères","absoluteDirection":"SOUTHEAST","stayOn":false,"area":false,"bogusName":false,"lon":-71.10195200000001,"lat":48.4581852,"elevation":[]},{"distance":573.7090000000001,"relativeDirection":"RIGHT","streetName":"Rue des Épervières","absoluteDirection":"SOUTHWEST","stayOn":false,"area":false,"bogusName":false,"lon":-71.1015776,"lat":48.4576739,"elevation":[]},{"distance":52.994,"relativeDirection":"RIGHT","streetName":"Boulevard Sainte-Geneviève","absoluteDirection":"WEST","stayOn":false,"area":false,"bogusName":false,"lon":-71.1063082,"lat":48.454059900000004,"elevation":[]}]},{"startTime":1522686334000,"endTime":1522686420000,"departureDelay":0,"arrivalDelay":0,"realTime":false,"distance":994.8563984802306,"pathway":false,"mode":"BUS","route":"21","agencyName":"Société de Transport du Saguenay","agencyUrl":"http://ville.saguenay.ca/fr/services-aux-citoyens/transport-sts","agencyTimeZoneOffset":-14400000,"routeColor":"556B2F","routeType":3,"routeId":"1:21","routeTextColor":"FFFFFF","interlineWithPreviousLeg":false,"tripBlockId":"2","headsign":"Terminus Chicoutimi","agencyId":"0","tripId":"1:217167","serviceDate":"20180402","from":{"name":"boul. Ste-Geneviève / Épervières","stopId":"1:714","stopCode":"714","lon":-71.106978,"lat":48.454249,"arrival":1522686333000,"departure":1522686334000,"zoneId":"NA","stopIndex":14,"stopSequence":15,"vertexType":"TRANSIT"},"to":{"name":"Élie / Roger","stopId":"1:718","stopCode":"718","lon":-71.119216,"lat":48.45754,"arrival":1522686420000,"departure":1522686421000,"zoneId":"NA","stopIndex":18,"stopSequence":19,"vertexType":"TRANSIT"},"legGeometry":{"points":"ouvfHxa_qLyAnPQhBK`Ae@fFm@vGS`Co@`HQhBQlBAHo@fHc@fEc@`FiDiAOSIMOQOa@GQ","length":20},"routeShortName":"21","routeLongName":"Boul. Ste-Geneviève/Élie","rentedBike":false,"transitLeg":true,"duration":86.0,"steps":[]},{"startTime":1522686421000,"endTime":1522686587000,"departureDelay":0,"arrivalDelay":0,"realTime":false,"distance":202.35700000000003,"pathway":false,"mode":"WALK","route":"","agencyTimeZoneOffset":-14400000,"interlineWithPreviousLeg":false,"from":{"name":"Élie / Roger","stopId":"1:718","stopCode":"718","lon":-71.119216,"lat":48.45754,"arrival":1522686420000,"departure":1522686421000,"zoneId":"NA","stopIndex":18,"stopSequence":19,"vertexType":"TRANSIT"},"to":{"name":"Destination","lon":-71.117476,"lat":48.457307,"arrival":1522686587000,"orig":"","vertexType":"NORMAL"},"legGeometry":{"points":"kjwfHzmaqLDHBF|AmAXs@e@sAUs@q@{@De@","length":9},"rentedBike":false,"transitLeg":false,"duration":166.0,"steps":[{"distance":8.662,"relativeDirection":"DEPART","streetName":"Rue Élie","absoluteDirection":"SOUTHWEST","stayOn":false,"area":false,"bogusName":false,"lon":-71.11917277645296,"lat":48.4575007379064,"elevation":[]},{"distance":83.501,"relativeDirection":"LEFT","streetName":"Rue Roger","absoluteDirection":"SOUTHEAST","stayOn":false,"area":false,"bogusName":false,"lon":-71.11926840000001,"lat":48.4574555,"elevation":[]},{"distance":96.329,"relativeDirection":"LEFT","streetName":"Rue Yvonne","absoluteDirection":"NORTHEAST","stayOn":false,"area":false,"bogusName":false,"lon":-71.11861950000001,"lat":48.456858800000006,"elevation":[]},{"distance":13.865,"relativeDirection":"RIGHT","streetName":"Rue Candide","absoluteDirection":"EAST","stayOn":false,"area":false,"bogusName":false,"lon":-71.1176303,"lat":48.457408300000004,"elevation":[]}]}],"tooSloped":false}]},"debugOutput":{"precalculationTime":4,"pathCalculationTime":11,"pathTimes":[3,3,5],"renderingTime":1,"totalTime":16,"timedOut":false},"elevationMetadata":{"ellipsoidToGeoidDifference":-28.885904201182168,"geoidElevation":false}}