{"requestParameters":{"date":"2018/04/02","walkSpeed":"1.33","walkReluctance":"2.0","fromPlace":"48.447771,-71.046967","maxWalkDistance":"3000","waitReluctance":"1.0","carSpeed":"33","numItineraries":"3","waitAtBeginningFactor":"0.4","mode":"TRANSIT,WALK","ignoreRealtimeUpdates":"false","stairsReluctance":"2.0","toPlace":"48.380787,-71.084876","time":"14:0:00"},"plan":{"date":1522692000000,"from":{"name":"Origin","lon":-71.046967,"lat":48.447771,"orig":"","vertexType":"NORMAL"},"to":{"name":"Destination","lon":-71.084876,"lat":48.380787,"orig":"","vertexType":"NORMAL"},"itineraries":[{"duration":3476,"startTime":1522693164000,"endTime":1522696640000,"walkTime":697,"transitTime":2526,"waitingTime":253,"walkDistance":904.7336390959491,"walkLimitExceeded":false,"elevationLost":0.0,"elevationGained":0.0,"transfers":2,"legs":[{"startTime":1522693164000,"endTime":1522693428000,"departureDelay":0,"arrivalDelay":0,"realTime":false,"distance":339.73,"pathway":false,"mode":"WALK","route":"","agencyTimeZoneOffset":-14400000,"interlineWithPreviousLeg":false,"from":{"name":"Origin","lon":-71.046967,"lat":48.447771,"departure":1522693164000,"orig":"","vertexType":"NORMAL"},"to":{"name":"St-Émile / Adam","stopId":"1:813","stopCode":"813","lon":-71.043871,"lat":48.448542,"arrival":1522693428000,"departure":1522693429000,"zoneId":"NA","stopIndex":9,"stopSequence":10,"vertexType":"TRANSIT"},"legGeometry":{"points":"mlufHfjspLKsA?Q@ODYBWLo@Ls@p@eE_DkAoBm@??","length":12},"rentedBike":false,"transitLeg":false,"duration":264.0,"steps":[{"distance":182.13400000000001,"relativeDirection":"DEPART","streetName":"Rue Brûlé","absoluteDirection":"EAST","stayOn":false,"area":false,"bogusName":false,"lon":-71.04691891717773,"lat":48.447599849152674,"elevation":[]},{"distance":157.596,"relativeDirection":"LEFT","streetName":"Rue Saint-Émile","absoluteDirection":"NORTH","stayOn":false,"area":false,"bogusName":false,"lon":-71.04458170000001,"lat":48.4472025,"elevation":[]}]},{"startTime":1522693429000,"endTime":1522694460000,"departureDelay":0,"arrivalDelay":0,"realTime":false,"distance":6855.948677410314,"pathway":false,"mode":"BUS","route":"24","agencyName":"Société de Transport du Saguenay","agencyUrl":"http://ville.saguenay.ca/fr/services-aux-citoyens/transport-sts","agencyTimeZoneOffset":-14400000,"routeColor":"00FF00","routeType":3,"routeId":"1:24","routeTextColor":"000000","interlineWithPreviousLeg":false,"tripBlockId":"5","headsign":"Terminus Chicoutimi","agencyId":"0","tripId":"1:217265","serviceDate":"20180402","from":{"name":"St-Émile / Adam","stopId":"1:813","stopCode":"813","lon":-71.043871,"lat":48.448542,"arrival":1522693428000,"departure":1522693429000,"zoneId":"NA","stopIndex":9,"stopSequence":10,"vertexType":"TRANSIT"},"to":{"name":"Terminus Chicoutimi","stopId":"1:1289","stopCode":"1289","lon":-71.066163,"lat":48.428677,"arrival":1522694460000,"departure":1522694700000,"zoneId":"NA","stopIndex":35,"stopSequence":36,"vertexType":"TRANSIT"},"legGeometry":{"points":"yrufH~vrpLbAoGV{AxG~BPFhCdAn@Lx@BxA]QeDI}AzAW~ASQoDg@eKG{A?_@?m@?i@LeCJkAd@yGxAqSBs@p@^VRPRbF~FlCxBxB|B~JjK`IjIRPb@^r@d@rAp@\\T\\ZNVRd@J\\Nd@Hf@F`@@DFr@LtAJpB@jAAt@ObEIzAKbBUrBMp@Sn@gAlCk@pAw@fCwB|HCNk@jCeDuAq@UC?mG_CaHiCsJqD_A]VvC\\`Ch@rCj@tBf@bBxDxJN\\bAjCTnAHvA@|@CPIpAe@pDUfBCTEXK~@MxAEn@@v@Bp@Dr@l@~HNlAH\\@HLd@\\z@Xd@X\\RTXRr@Zn@PfExAvDpALnBJt@Pp@Nj@l@tBHZPn@`@rBNnAFr@DbA?bB@jABzA?p@A???A???A?A???A@??A?A@??A@?@A??@A@???@A@?@?@A@?@?@?@?@???@?@?@?@?@?@@@?@?@@@?@@@?@@@?@@?@@??@@@?E`@Kr@]rACVEl@I|AAr@JbAWJe@FUAM?a@Ke@YYWWa@v@}@RQPMz@k@tAe@REZG^Af@@X@VF`@Jn@XbClAr@Xt\\`PrAb@pA^hBTjAFj@Pb@JPHLLJNJRFXDT?X?ZEVEVKTMNMHMFOB}DWSGOSYcAN}FFkAF}DJyDPwGvAHN_HDiB@m@","length":235},"routeShortName":"24","routeLongName":"Saint-Luc","rentedBike":false,"transitLeg":true,"duration":1031.0,"steps":[]},{"startTime":1522694700000,"endTime":1522696016000,"departureDelay":0,"arrivalDelay":0,"realTime":false,"distance":9107.222787515157,"pathway":false,"mode":"BUS","route":"11","agencyName":"Société de Transport du Saguenay","agencyUrl":"http://ville.saguenay.ca/fr/services-aux-citoyens/transport-sts","agencyTimeZoneOffset":-14400000,"routeColor":"FF0000","routeType":3,"routeId":"1:11","routeTextColor":"FFFFFF","interlineWithPreviousLeg":false,"tripBlockId":"34","headsign":"Boul.Royaume/St-Pierre","agencyId":"0","tripId":"1:218223","serviceDate":"20180402","from":{"name":"Terminus Chicoutimi","stopId":"1:1289","stopCode":"1289","lon":-71.066163,"lat":48.428677,"arrival":1522694460000,"departure":1522694700000,"zoneId":"NA","stopIndex":0,"stopSequence":1,"vertexType":"TRANSIT"},"to":{"name":"boul. Royaume (no. 1409)","stopId":"1:264","stopCode":"264","lon":-71.118186,"lat":48.388875,"arrival":1522696016000,"departure":1522696016000,"zoneId":"NA","stopIndex":28,"stopSequence":29,"vertexType":"TRANSIT"},"legGeometry":{"points":"evqfHzcwpLk@?UhKfIh@dKp@GnDIfDOtEE~@Ff@x@rEF~@CbAALO~ADRNJXBr@DfGRPBPJLN@@FPFTBX?TE`BhBR@?J@NELKFOlAiDL[bA`AfIjIbGdGzDzD`A~An@`ApApBpClEvJrOR\\bAfBLa@t@]LjAVvAVbAVv@^bAXj@b@t@xEtGh@r@n@x@FDjA|AlBpCnJ|NNTX`@V`@eCtHpFjH{FhPcB|Ft@|CEAdCnEdHKrBz@lGiQ|CyI~IrJtAzAmKrWsE`LzJjL|P}d@Ri@hCpEpBdCHJzPrR_AhC}Ppd@KZkDxJq@`CyGfZOl@fNzIJ@HAHIDI@CnNco@vE}Sh@kCb@oCXyBTuAFSBMl@iBlHjJxEtGPRbBdBp@r@xDpDrL`LlAtAiBdFOd@oCrH","length":122},"routeShortName":"11","routeLongName":"Chic/Faubourg via St-Paul","rentedBike":false,"transitLeg":true,"duration":1316.0,"steps":[]},{"startTime":1522696016000,"endTime":1522696029000,"departureDelay":0,"arrivalDelay":0,"realTime":false,"distance":13.493,"pathway":false,"mode":"WALK","route":"","agencyTimeZoneOffset":-14400000,"interlineWithPreviousLeg":false,"from":{"name":"boul. Royaume (no. 1409)","stopId":"1:264","stopCode":"264","lon":-71.118186,"lat":48.388875,"arrival":1522696016000,"departure":1522696016000,"zoneId":"NA","stopIndex":28,"stopSequence":29,"vertexType":"TRANSIT"},"to":{"name":"boul. Royaume (no. 1460)","stopId":"1:267","stopCode":"267","lon":-71.1185,"lat":48.388791,"arrival":1522696029000,"departure":1522696040000,"zoneId":"NA","stopIndex":23,"stopSequence":24,"vertexType":"TRANSIT"},"legGeometry":{"points":"a}ifHbhaqLMZ","length":2},"rentedBike":false,"transitLeg":false,"duration":13.0,"steps":[{"distance":13.493,"relativeDirection":"DEPART","streetName":"Boulevard du Royaume Ouest","absoluteDirection":"NORTHWEST","stayOn":false,"area":false,"bogusName":false,"lon":-71.11825025873861,"lat":48.3888149249102,"elevation":[]}]},{"startTime":1522696040000,"endTime":1522696219000,"departureDelay":0,"arrivalDelay":0,"realTime":false,"distance":2155.63540972382,"pathway":false,"mode":"BUS","route":"2","agencyName":"Société de Transport du Saguenay","agencyUrl":"http://ville.saguenay.ca/fr/services-aux-citoyens/transport-sts","agencyTimeZoneOffset":-14400000,"routeColor":"FF0000","routeType":3,"routeId":"1:2","routeTextColor":"FFFFFF","interlineWithPreviousLeg":false,"tripBlockId":"11","headsign":"Costco","agencyId":"0","tripId":"1:217478","serviceDate":"20180402","from":{"name":"boul. Royaume (no. 1460)","stopId":"1:267","stopCode":"267","lon":-71.1185,"lat":48.388791,"arrival":1522696029000,"departure":1522696040000,"zoneId":"NA","stopIndex":23,"stopSequence":24,"vertexType":"TRANSIT"},"to":{"name":"nouveau","stopId":"1:2280","stopCode":"2280","lon":-71.091199,"lat":48.383276,"arrival":1522696219000,"departure":1522696220000,"zoneId":"NA","stopIndex":27,"stopSequence":28,"vertexType":"TRANSIT"},"legGeometry":{"points":"e}ifHjiaqL|BaGbDgIz@{B|G}WVyBfB_OrBsTDa]?sD`@uc@tBcJ","length":12},"routeShortName":"2","routeLongName":"Chic/Jonq via Boul. Royaume","rentedBike":false,"transitLeg":true,"duration":179.0,"steps":[]},{"startTime":1522696220000,"endTime":1522696640000,"departureDelay":0,"arrivalDelay":0,"realTime":false,"distance":551.455,"pathway":false,"mode":"WALK","route":"","agencyTimeZoneOffset":-14400000,"interlineWithPreviousLeg":false,"from":{"name":"nouveau","stopId":"1:2280","stopCode":"2280","lon":-71.091199,"lat":48.383276,"arrival":1522696219000,"departure":1522696220000,"zoneId":"NA","stopIndex":27,"stopSequence":28,"vertexType":"TRANSIT"},"to":{"name":"Destination","lon":-71.084876,"lat":48.380787,"arrival":1522696640000,"orig":"","vertexType":"NORMAL"},"legGeometry":{"points":"e}hfH`}{pLLm@rAaE~@yBRa@xC{Hh@wAp@cBpBmFLWLa@FO","length":12},"rentedBike":false,"transitLeg":false,"duration":420.0,"steps":[{"distance":544.8670000000001,"relativeDirection":"DEPART","streetName":"Boulevard du Royaume Ouest","absoluteDirection":"SOUTHEAST","stayOn":false,"area":false,"bogusName":false,"lon":-71.09088813978747,"lat":48.38371741944352,"elevation":[]},{"distance":6.588,"relativeDirection":"CONTINUE","streetName":"Boulevard du Royaume Est","absoluteDirection":"SOUTHEAST","stayOn":false,"area":false,"bogusName":false,"lon":-71.08490040000001,"lat":48.380863700000006,"elevation":[]}]}],"tooSloped":false},{"duration":3776,"startTime":1522693141000,"endTime":1522696917000,"walkTime":1084,"transitTime":2090,"waitingTime":602,"walkDistance":1394.7837217984215,"walkLimitExceeded":false,"elevationLost":0.0,"elevationGained":0.0,"transfers":1,"legs":[{"startTime":1522693141000,"endTime":1522693629000,"departureDelay":0,"arrivalDelay":0,"realTime":false,"distance":627.6360000000001,"pathway":false,"mode":"WALK","route":"","agencyTimeZoneOffset":-14400000,"interlineWithPreviousLeg":false,"from":{"name":"Origin","lon":-71.046967,"lat":48.447771,"departure":1522693141000,"orig":"","vertexType":"NORMAL"},"to":{"name":"Verdun / St-Éloi","stopId":"1:794","stopCode":"794","lon":-71.053519,"lat":48.446152,"arrival":1522693629000,"departure":1522693630000,"zoneId":"NA","stopIndex":16,"stopSequence":17,"vertexType":"TRANSIT"},"legGeometry":{"points":"mlufHfjspLRfDBJDTJZFRJRjAvBH^?VELoAlBr@rAHLFHHBD@H@L@J?RABJHJH?vBhEa@bEBj@EBEJCTE^Gf@CXEX","length":34},"rentedBike":false,"transitLeg":false,"duration":488.0,"steps":[{"distance":256.479,"relativeDirection":"DEPART","streetName":"Rue Brûlé","absoluteDirection":"WEST","stayOn":false,"area":false,"bogusName":false,"lon":-71.04691891717773,"lat":48.447599849152674,"elevation":[]},{"distance":114.16,"relativeDirection":"LEFT","streetName":"Rue Pierre-De La Vérendrye","absoluteDirection":"SOUTHWEST","stayOn":false,"area":false,"bogusName":false,"lon":-71.0497625,"lat":48.4472803,"elevation":[]},{"distance":191.388,"relativeDirection":"SLIGHTLY_RIGHT","streetName":"path","absoluteDirection":"SOUTHWEST","stayOn":false,"area":false,"bogusName":true,"lon":-71.05046250000001,"lat":48.4464551,"elevation":[]},{"distance":65.60900000000001,"relativeDirection":"SLIGHTLY_RIGHT","streetName":"Rue de Verdun","absoluteDirection":"NORTHWEST","stayOn":false,"area":false,"bogusName":false,"lon":-71.05267160000001,"lat":48.446006600000004,"elevation":[]}]},{"startTime":1522693630000,"endTime":1522694100000,"departureDelay":0,"arrivalDelay":0,"realTime":false,"distance":3054.7698287012436,"pathway":false,"mode":"BUS","route":"23","agencyName":"Société de Transport du Saguenay","agencyUrl":"http://ville.saguenay.ca/fr/services-aux-citoyens/transport-sts","agencyTimeZoneOffset":-14400000,"routeColor":"FF00FF","routeType":3,"routeId":"1:23","routeTextColor":"FFFFFF","interlineWithPreviousLeg":false,"tripBlockId":"4","headsign":"Terminus Chicoutimi","agencyId":"0","tripId":"1:217238","serviceDate":"20180402","from":{"name":"Verdun / St-Éloi","stopId":"1:794","stopCode":"794","lon":-71.053519,"lat":48.446152,"arrival":1522693629000,"departure":1522693630000,"zoneId":"NA","stopIndex":16,"stopSequence":17,"vertexType":"TRANSIT"},"to":{"name":"Terminus Chicoutimi","stopId":"1:1289","stopCode":"1289","lon":-71.066163,"lat":48.428677,"arrival":1522694100000,"departure":1522694700000,"zoneId":"NA","stopIndex":26,"stopSequence":27,"vertexType":"TRANSIT"},"legGeometry":{"points":"ycufHhstpLF_@R{AFWFMPIPC`@BT@V?TAVKLENCLCJ@J@xAb@x@Zz@\\CP?R@N@NFLFF`GtBx@Xw@pG@l@B\\DXL\\RZDFXPf@N@v@Bp@Dr@l@~HNlAH\\@HLd@\\z@Xd@X\\RTXRr@Zn@PfExAvDpALnBJt@Pp@|@`DHZPn@`@rBNnAFr@DbA?bB@jABzA?p@A???A???A?A???A@??A?A@??A@?@A??@A@???@A@?@?@A@?@?@?@?@???@?@?@?@?@?@@@?@?@@@?@@@?@@@?@@?@@??@@@?E`@Kr@]rACVEl@I|AAr@JbAWJe@FUAM?a@Ke@YYWWa@v@}@RQPMz@k@tAe@REZG^Af@@X@VF`@Jn@XbClAr@Xt\\`PrAb@pA^hBTjAFj@Pb@JPHLLJNJRFXDT?X?ZEVEVKTMNMHMFOB}DWSGOSYcAN}FFkAF}DJyDd@wPV_HjAN~ALI`C","length":182},"routeShortName":"23","routeLongName":"Côte Verdun via Aréna du Plateau","rentedBike":false,"transitLeg":true,"duration":470.0,"steps":[]},{"startTime":1522694700000,"endTime":1522696320000,"departureDelay":0,"arrivalDelay":0,"realTime":false,"distance":8366.485513672267,"pathway":false,"mode":"BUS","route":"175","agencyName":"Société de Transport du Saguenay","agencyUrl":"http://ville.saguenay.ca/fr/services-aux-citoyens/transport-sts","agencyTimeZoneOffset":-14400000,"routeColor":"FF00FF","routeType":3,"routeId":"1:175","routeTextColor":"FFFFFF","interlineWithPreviousLeg":false,"tripBlockId":"7","headsign":"Costco","agencyId":"0","tripId":"1:217337","serviceDate":"20180402","from":{"name":"Terminus Chicoutimi","stopId":"1:1289","stopCode":"1289","lon":-71.066163,"lat":48.428677,"arrival":1522694100000,"departure":1522694700000,"zoneId":"NA","stopIndex":0,"stopSequence":1,"vertexType":"TRANSIT"},"to":{"name":"COSTCO","stopId":"1:1710","stopCode":"1710","lon":-71.085767,"lat":48.382333,"arrival":1522696320000,"departure":1522696321000,"zoneId":"NA","stopIndex":30,"stopSequence":31,"vertexType":"TRANSIT"},"legGeometry":{"points":"kvqfH~awpL~CgBbAqa@FwCBkAOsHAg@bAYUwMKoE@mB@kJ@iFbEf@xEj@iCtYp@r@z@`ABBvHtHXRx@l@VwAvAgB\\qBIuAC]g@yEzDuLbBbBvAxAMx@|@v@`A~@Xw@~D~DPxFZtA~ApE`N{LpFmEb@[ROl@[vDQXKfA[|@q@fAsBlEmMr@sBhCsKz@dAjB|@dM`GzCvAXrCr@~Gx@]PEr@ObACn@FrBb@|@Ch@Kx@U~HsB^KZ|DJpII~Fa@rFUzBi@bDUxAm@nCcAlDM^RTfD`DjF`FjCrCrAvAbCfDjIfMdAzAfFpHd@n@nC`DlXv[b@f@mCtHv@v@p@r@_@p@uAcBjDoJhAzApBrBrFvGjDdEbD|DZb@~DrEbDfDrA~ApLbNpG|GyCtHwBcC","length":111},"routeShortName":"175","routeLongName":"Term. Chic / Costco","rentedBike":false,"transitLeg":true,"duration":1620.0,"steps":[]},{"startTime":1522696321000,"endTime":1522696917000,"departureDelay":0,"arrivalDelay":0,"realTime":false,"distance":766.9590000000001,"pathway":false,"mode":"WALK","route":"","agencyTimeZoneOffset":-14400000,"interlineWithPreviousLeg":false,"from":{"name":"COSTCO","stopId":"1:1710","stopCode":"1710","lon":-71.085767,"lat":48.382333,"arrival":1522696320000,"departure":1522696321000,"zoneId":"NA","stopIndex":30,"stopSequence":31,"vertexType":"TRANSIT"},"to":{"name":"Destination","lon":-71.084876,"lat":48.380787,"arrival":1522696917000,"orig":"","vertexType":"NORMAL"},"legGeometry":{"points":"uthfHh}zpLtB`ClCcHTi@HO|BeGr@aBz@kBr@sAQt@[bAqA~CsCdH","length":13},"rentedBike":false,"transitLeg":false,"duration":596.0,"steps":[{"distance":81.226,"relativeDirection":"DEPART","streetName":"service road","absoluteDirection":"SOUTHWEST","stayOn":false,"area":false,"bogusName":true,"lon":-71.08580460382532,"lat":48.38235152300571,"elevation":[]},{"distance":134.097,"relativeDirection":"LEFT","streetName":"Boulevard du Royaume Ouest","absoluteDirection":"SOUTHEAST","stayOn":false,"area":false,"bogusName":false,"lon":-71.0864598,"lat":48.381764800000006,"elevation":[]},{"distance":551.636,"relativeDirection":"CONTINUE","streetName":"Boulevard du Royaume Est","absoluteDirection":"SOUTHEAST","stayOn":false,"area":false,"bogusName":false,"lon":-71.0849956,"lat":48.381051600000006,"elevation":[]}]}],"tooSloped":false},{"duration":3776,"startTime":1522694941000,"endTime":1522698717000,"walkTime":1084,"transitTime":2090,"waitingTime":602,"walkDistance":1394.7837217984215,"walkLimitExceeded":false,"elevationLost":0.0,"elevationGained":0.0,"transfers":1,"legs":[{"startTime":1522694941000,"endTime":1522695429000,"departureDelay":0,"arrivalDelay":0,"realTime":false,"distance":627.6360000000001,"pathway":false,"mode":"WALK","route":"","agencyTimeZoneOffset":-14400000,"interlineWithPreviousLeg":false,"from":{"name":"Origin","lon":-71.046967,"lat":48.447771,"departure":1522694941000,"orig":"","vertexType":"NORMAL"},"to":{"name":"Verdun / St-Éloi","stopId":"1:794","stopCode":"794","lon":-71.053519,"lat":48.446152,"arrival":1522695429000,"departure":1522695430000,"zoneId":"NA","stopIndex":16,"stopSequence":17,"vertexType":"TRANSIT"},"legGeometry":{"points":"mlufHfjspLRfDBJDTJZFRJRjAvBH^?VELoAlBr@rAHLFHHBD@H@L@J?RABJHJH?vBhEa@bEBj@EBEJCTE^Gf@CXEX","length":34},"rentedBike":false,"transitLeg":false,"duration":488.0,"steps":[{"distance":256.479,"relativeDirection":"DEPART","streetName":"Rue Brûlé","absoluteDirection":"WEST","stayOn":false,"area":false,"bogusName":false,"lon":-71.04691891717773,"lat":48.447599849152674,"elevation":[]},{"distance":114.16,"relativeDirection":"LEFT","streetName":"Rue Pierre-De La Vérendrye","absoluteDirection":"SOUTHWEST","stayOn":false,"area":false,"bogusName":false,"lon":-71.0497625,"lat":48.4472803,"elevation":[]},{"distance":191.388,"relativeDirection":"SLIGHTLY_RIGHT","streetName":"path","absoluteDirection":"SOUTHWEST","stayOn":false,"area":false,"bogusName":true,"lon":-71.05046250000001,"lat":48.4464551,"elevation":[]},{"distance":65.60900000000001,"relativeDirection":"SLIGHTLY_RIGHT","streetName":"Rue de Verdun","absoluteDirection":"NORTHWEST","stayOn":false,"area":false,"bogusName":false,"lon":-71.05267160000001,"lat":48.446006600000004,"elevation":[]}]},{"startTime":1522695430000,"endTime":1522695900000,"departureDelay":0,"arrivalDelay":0,"realTime":false,"distance":3054.7698287012436,"pathway":false,"mode":"BUS","route":"23","agencyName":"Société de Transport du Saguenay","agencyUrl":"http://ville.saguenay.ca/fr/services-aux-citoyens/transport-sts","agencyTimeZoneOffset":-14400000,"routeColor":"FF00FF","routeType":3,"routeId":"1:23","routeTextColor":"FFFFFF","interlineWithPreviousLeg":false,"tripBlockId":"5","headsign":"Terminus Chicoutimi","agencyId":"0","tripId":"1:217266","serviceDate":"20180402","from":{"name":"Verdun / St-Éloi","stopId":"1:794","stopCode":"794","lon":-71.053519,"lat":48.446152,"arrival":1522695429000,"departure":1522695430000,"zoneId":"NA","stopIndex":16,"stopSequence":17,"vertexType":"TRANSIT"},"to":{"name":"Terminus Chicoutimi","stopId":"1:1289","stopCode":"1289","lon":-71.066163,"lat":48.428677,"arrival":1522695900000,"departure":1522696500000,"zoneId":"NA","stopIndex":26,"stopSequence":27,"vertexType":"TRANSIT"},"legGeometry":{"points":"ycufHhstpLF_@R{AFWFMPIPC`@BT@V?TAVKLENCLCJ@J@xAb@x@Zz@\\CP?R@N@NFLFF`GtBx@Xw@pG@l@B\\DXL\\RZDFXPf@N@v@Bp@Dr@l@~HNlAH\\@HLd@\\z@Xd@X\\RTXRr@Zn@PfExAvDpALnBJt@Pp@|@`DHZPn@`@rBNnAFr@DbA?bB@jABzA?p@A???A???A?A???A@??A?A@??A@?@A??@A@???@A@?@?@A@?@?@?@?@???@?@?@?@?@?@@@?@?@@@?@@@?@@@?@@?@@??@@@?E`@Kr@]rACVEl@I|AAr@JbAWJe@FUAM?a@Ke@YYWWa@v@}@RQPMz@k@tAe@REZG^Af@@X@VF`@Jn@XbClAr@Xt\\`PrAb@pA^hBTjAFj@Pb@JPHLLJNJRFXDT?X?ZEVEVKTMNMHMFOB}DWSGOSYcAN}FFkAF}DJyDd@wPV_HjAN~ALI`C","length":182},"routeShortName":"23","routeLongName":"Côte Verdun via Aréna du Plateau","rentedBike":false,"transitLeg":true,"duration":470.0,"steps":[]},{"startTime":1522696500000,"endTime":1522698120000,"departureDelay":0,"arrivalDelay":0,"realTime":false,"distance":8366.485513672267,"pathway":false,"mode":"BUS","route":"175","agencyName":"Société de Transport du Saguenay","agencyUrl":"http://ville.saguenay.ca/fr/services-aux-citoyens/transport-sts","agencyTimeZoneOffset":-14400000,"routeColor":"FF00FF","routeType":3,"routeId":"1:175","routeTextColor":"FFFFFF","interlineWithPreviousLeg":false,"tripBlockId":"8","headsign":"Costco","agencyId":"0","tripId":"1:217374","serviceDate":"20180402","from":{"name":"Terminus Chicoutimi","stopId":"1:1289","stopCode":"1289","lon":-71.066163,"lat":48.428677,"arrival":1522695900000,"departure":1522696500000,"zoneId":"NA","stopIndex":0,"stopSequence":1,"vertexType":"TRANSIT"},"to":{"name":"COSTCO","stopId":"1:1710","stopCode":"1710","lon":-71.085767,"lat":48.382333,"arrival":1522698120000,"departure":1522698121000,"zoneId":"NA","stopIndex":30,"stopSequence":31,"vertexType":"TRANSIT"},"legGeometry":{"points":"kvqfH~awpL~CgBbAqa@FwCBkAOsHAg@bAYUwMKoE@mB@kJ@iFbEf@xEj@iCtYp@r@z@`ABBvHtHXRx@l@VwAvAgB\\qBIuAC]g@yEzDuLbBbBvAxAMx@|@v@`A~@Xw@~D~DPxFZtA~ApE`N{LpFmEb@[ROl@[vDQXKfA[|@q@fAsBlEmMr@sBhCsKz@dAjB|@dM`GzCvAXrCr@~Gx@]PEr@ObACn@FrBb@|@Ch@Kx@U~HsB^KZ|DJpII~Fa@rFUzBi@bDUxAm@nCcAlDM^RTfD`DjF`FjCrCrAvAbCfDjIfMdAzAfFpHd@n@nC`DlXv[b@f@mCtHv@v@p@r@_@p@uAcBjDoJhAzApBrBrFvGjDdEbD|DZb@~DrEbDfDrA~ApLbNpG|GyCtHwBcC","length":111},"routeShortName":"175","routeLongName":"Term. Chic / Costco","rentedBike":false,"transitLeg":true,"duration":1620.0,"steps":[]},{"startTime":1522698121000,"endTime":1522698717000,"departureDelay":0,"arrivalDelay":0,"realTime":false,"distance":766.9590000000001,"pathway":false,"mode":"WALK","route":"","agencyTimeZoneOffset":-14400000,"interlineWithPreviousLeg":false,"from":{"name":"COSTCO","stopId":"1:1710","stopCode":"1710","lon":-71.085767,"lat":48.382333,"arrival":1522698120000,"departure":1522698121000,"zoneId":"NA","stopIndex":30,"stopSequence":31,"vertexType":"TRANSIT"},"to":{"name":"Destination","lon":-71.084876,"lat":48.380787,"arrival":1522698717000,"orig":"","vertexType":"NORMAL"},"legGeometry":{"points":"uthfHh}zpLtB`ClCcHTi@HO|BeGr@aBz@kBr@sAQt@[bAqA~CsCdH","length":13},"rentedBike":false,"transitLeg":false,"duration":596.0,"steps":[{"distance":81.226,"relativeDirection":"DEPART","streetName":"service road","absoluteDirection":"SOUTHWEST","stayOn":false,"area":false,"bogusName":true,"lon":-71.08580460382532,"lat":48.38235152300571,"elevation":[]},{"distance":134.097,"relativeDirection":"LEFT","streetName":"Boulevard du Royaume Ouest","absoluteDirection":"SOUTHEAST","stayOn":false,"area":false,"bogusName":false,"lon":-71.0864598,"lat":48.381764800000006,"elevation":[]},{"distance":551.636,"relativeDirection":"CONTINUE","streetName":"Boulevard du Royaume Est","absoluteDirection":"SOUTHEAST","stayOn":false,"area":false,"bogusName":false,"lon":-71.0849956,"lat":48.381051600000006,"elevation":[]}]}],"tooSloped":false}]},"debugOutput":{"precalculationTime":10,"pathCalculationTime":31,"pathTimes":[20,3,8],"renderingTime":1,"totalTime":42,"timedOut":false},"elevationMetadata":{"ellipsoidToGeoidDifference":-28.885904201182168,"geoidElevation":false}}