{"requestParameters":{"date":"2018/04/02","walkSpeed":"1.33","walkReluctance":"2.0","fromPlace":"48.439989,-71.061457","maxWalkDistance":"3000","waitReluctance":"1.0","carSpeed":"33","numItineraries":"3","waitAtBeginningFactor":"0.4","mode":"TRANSIT,WALK","ignoreRealtimeUpdates":"false","stairsReluctance":"2.0","toPlace":"48.447687,-71.047561","time":"16:30:00"},"plan":{"date":1522701000000,"from":{"name":"Origin","lon":-71.061457,"lat":48.439989,"orig":"","vertexType":"NORMAL"},"to":{"name":"Destination","lon":-71.047561,"lat":48.447687,"orig":"","vertexType":"NORMAL"},"itineraries":[{"duration":1353,"startTime":1522701000000,"endTime":1522702353000,"walkTime":1353,"transitTime":0,"waitingTime":0,"walkDistance":1721.3708947269076,"walkLimitExceeded":false,"elevationLost":0.0,"elevationGained":0.0,"transfers":0,"legs":[{"startTime":1522701000000,"endTime":1522702353000,"departureDelay":0,"arrivalDelay":0,"realTime":false,"distance":1721.0630000000003,"pathway":false,"mode":"WALK","route":"","agencyTimeZoneOffset":-14400000,"interlineWithPreviousLeg":false,"from":{"name":"Origin","lon":-71.061457,"lat":48.439989,"departure":1522701000000,"orig":"","vertexType":"NORMAL"},"to":{"name":"Destination","lon":-71.047561,"lat":48.447687,"arrival":1522702353000,"orig":"","vertexType":"NORMAL"},"legGeometry":{"points":"{zsfH`fvpLRcBCAeC{@{Ao@e@i@A?W]U_@ACSe@M[CKMa@AGCMG]CQE_@WcDSeBEq@AMC_@Ck@Ae@Ai@YECAIEGEECAAKKMWGOM_@GWCs@@Yz@eG}@YiGsBCECCAOAE?UBQBS_A_@{@]q@W[Ic@CYB_@N]J]?[A]AS@IHCk@`@cEwBiEI?IKCKS@K?MAIAEAICGIIMs@sAnAmBDM?WI_@kAwBKSGSK[EUCKEo@","length":89},"rentedBike":false,"transitLeg":false,"duration":1353.0,"steps":[{"distance":38.367,"relativeDirection":"DEPART","streetName":"Rue Bourget","absoluteDirection":"EAST","stayOn":false,"area":false,"bogusName":false,"lon":-71.06160169954468,"lat":48.43966724525077,"elevation":[]},{"distance":470.499,"relativeDirection":"LEFT","streetName":"Boulevard de Tadoussac","absoluteDirection":"NORTH","stayOn":false,"area":false,"bogusName":false,"lon":-71.0611033,"lat":48.4395686,"elevation":[]},{"distance":214.32100000000003,"relativeDirection":"LEFT","streetName":"Rue Colbert","absoluteDirection":"NORTH","stayOn":false,"area":false,"bogusName":false,"lon":-71.0565172,"lat":48.4418598,"elevation":[]},{"distance":192.197,"relativeDirection":"LEFT","streetName":"Rue Boileau","absoluteDirection":"NORTH","stayOn":false,"area":false,"bogusName":false,"lon":-71.0541475,"lat":48.4421291,"elevation":[]},{"distance":8.555,"relativeDirection":"RIGHT","streetName":"Rue Boileau","absoluteDirection":"NORTHEAST","stayOn":true,"area":false,"bogusName":false,"lon":-71.0534092,"lat":48.4437835,"elevation":[]},{"distance":24.863,"relativeDirection":"SLIGHTLY_RIGHT","streetName":"Rue Monseigneur-Laval","absoluteDirection":"EAST","stayOn":false,"area":false,"bogusName":false,"lon":-71.05330690000001,"lat":48.4438144,"elevation":[]},{"distance":255.01500000000001,"relativeDirection":"LEFT","streetName":"Rue de Verdun","absoluteDirection":"NORTH","stayOn":false,"area":false,"bogusName":false,"lon":-71.05297780000001,"lat":48.4437865,"elevation":[]},{"distance":191.388,"relativeDirection":"RIGHT","streetName":"path","absoluteDirection":"EAST","stayOn":false,"area":false,"bogusName":true,"lon":-71.05267160000001,"lat":48.446006600000004,"elevation":[]},{"distance":114.16,"relativeDirection":"SLIGHTLY_LEFT","streetName":"Rue Pierre-De La Vérendrye","absoluteDirection":"NORTH","stayOn":false,"area":false,"bogusName":false,"lon":-71.05046250000001,"lat":48.4464551,"elevation":[]},{"distance":211.698,"relativeDirection":"RIGHT","streetName":"Rue Brûlé","absoluteDirection":"SOUTHEAST","stayOn":false,"area":false,"bogusName":false,"lon":-71.0497625,"lat":48.4472803,"elevation":[]}]}],"tooSloped":false},{"duration":772,"startTime":1522701934000,"endTime":1522702706000,"walkTime":547,"transitTime":223,"waitingTime":2,"walkDistance":701.6603684179108,"walkLimitExceeded":false,"elevationLost":0.0,"elevationGained":0.0,"transfers":0,"legs":[{"startTime":1522701934000,"endTime":1522702164000,"departureDelay":0,"arrivalDelay":0,"realTime":false,"distance":292.78900000000004,"pathway":false,"mode":"WALK","route":"","agencyTimeZoneOffset":-14400000,"interlineWithPreviousLeg":false,"from":{"name":"Origin","lon":-71.061457,"lat":48.439989,"departure":1522701934000,"orig":"","vertexType":"NORMAL"},"to":{"name":"Roussel / St-Éphrem","stopId":"1:771","stopCode":"771","lon":-71.063155,"lat":48.437822,"arrival":1522702164000,"departure":1522702165000,"zoneId":"NA","stopIndex":2,"stopSequence":3,"vertexType":"TRANSIT"},"legGeometry":{"points":"{zsfH`fvpL_@xCrEvAfBp@NC^OTr@","length":7},"rentedBike":false,"transitLeg":false,"duration":230.0,"steps":[{"distance":59.529,"relativeDirection":"DEPART","streetName":"Rue Bourget","absoluteDirection":"WEST","stayOn":false,"area":false,"bogusName":false,"lon":-71.06160169954468,"lat":48.43966724525077,"elevation":[]},{"distance":209.99900000000002,"relativeDirection":"LEFT","streetName":"Rue Saint-Éphrem","absoluteDirection":"SOUTH","stayOn":false,"area":false,"bogusName":false,"lon":-71.062375,"lat":48.4398203,"elevation":[]},{"distance":23.261,"relativeDirection":"RIGHT","streetName":"Rue Roussel","absoluteDirection":"SOUTHWEST","stayOn":false,"area":false,"bogusName":false,"lon":-71.0629602,"lat":48.4380095,"elevation":[]}]},{"startTime":1522702165000,"endTime":1522702388000,"departureDelay":0,"arrivalDelay":0,"realTime":false,"distance":1684.542461364601,"pathway":false,"mode":"BUS","route":"24","agencyName":"Société de Transport du Saguenay","agencyUrl":"http://ville.saguenay.ca/fr/services-aux-citoyens/transport-sts","agencyTimeZoneOffset":-14400000,"routeColor":"00FF00","routeType":3,"routeId":"1:24","routeTextColor":"000000","interlineWithPreviousLeg":false,"tripBlockId":"4","headsign":"Terminus Chicoutimi","agencyId":"0","tripId":"1:217243","serviceDate":"20180402","from":{"name":"Roussel / St-Éphrem","stopId":"1:771","stopCode":"771","lon":-71.063155,"lat":48.437822,"arrival":1522702164000,"departure":1522702165000,"zoneId":"NA","stopIndex":2,"stopSequence":3,"vertexType":"TRANSIT"},"to":{"name":"St-Émile / Madeleine","stopId":"1:811","stopCode":"811","lon":-71.045248,"lat":48.445626,"arrival":1522702388000,"departure":1522702389000,"zoneId":"NA","stopIndex":8,"stopSequence":9,"vertexType":"TRANSIT"},"legGeometry":{"points":"uosfH`pvpLSq@Ok@Qq@Ku@MoBKmAa@eHi@FKC_@I??iE}Ah@}DH}@?c@Ea@[_BA?My@Cm@?Y@g@Hu@b@sD\\_DBSyHsC_@MBQA}@IwAUoAcAkCWo@qDgJg@cBk@uBi@sC]aCWwCiKuD","length":42},"routeShortName":"24","routeLongName":"Saint-Luc","rentedBike":false,"transitLeg":true,"duration":223.0,"steps":[]},{"startTime":1522702389000,"endTime":1522702706000,"departureDelay":0,"arrivalDelay":0,"realTime":false,"distance":408.774,"pathway":false,"mode":"WALK","route":"","agencyTimeZoneOffset":-14400000,"interlineWithPreviousLeg":false,"from":{"name":"St-Émile / Madeleine","stopId":"1:811","stopCode":"811","lon":-71.045248,"lat":48.445626,"arrival":1522702388000,"departure":1522702389000,"zoneId":"NA","stopIndex":8,"stopSequence":9,"vertexType":"TRANSIT"},"to":{"name":"Destination","lon":-71.047561,"lat":48.447687,"arrival":1522702706000,"orig":"","vertexType":"NORMAL"},"legGeometry":{"points":"g`ufHh`spLa@O{@[yAk@_C{@q@dEMr@Mn@CVEXAN?PXjE","length":13},"rentedBike":false,"transitLeg":false,"duration":317.0,"steps":[{"distance":181.85899999999998,"relativeDirection":"DEPART","streetName":"Rue Saint-Émile","absoluteDirection":"NORTH","stayOn":false,"area":false,"bogusName":false,"lon":-71.04532866561726,"lat":48.44564391364887,"elevation":[]},{"distance":226.91500000000002,"relativeDirection":"LEFT","streetName":"Rue Brûlé","absoluteDirection":"WEST","stayOn":false,"area":false,"bogusName":false,"lon":-71.04458170000001,"lat":48.4472025,"elevation":[]}]}],"tooSloped":false},{"duration":772,"startTime":1522703734000,"endTime":1522704506000,"walkTime":547,"transitTime":223,"waitingTime":2,"walkDistance":701.6603684179108,"walkLimitExceeded":false,"elevationLost":0.0,"elevationGained":0.0,"transfers":0,"legs":[{"startTime":1522703734000,"endTime":1522703964000,"departureDelay":0,"arrivalDelay":0,"realTime":false,"distance":292.78900000000004,"pathway":false,"mode":"WALK","route":"","agencyTimeZoneOffset":-14400000,"interlineWithPreviousLeg":false,"from":{"name":"Origin","lon":-71.061457,"lat":48.439989,"departure":1522703734000,"orig":"","vertexType":"NORMAL"},"to":{"name":"Roussel / St-Éphrem","stopId":"1:771","stopCode":"771","lon":-71.063155,"lat":48.437822,"arrival":1522703964000,"departure":1522703965000,"zoneId":"NA","stopIndex":2,"stopSequence":3,"vertexType":"TRANSIT"},"legGeometry":{"points":"{zsfH`fvpL_@xCrEvAfBp@NC^OTr@","length":7},"rentedBike":false,"transitLeg":false,"duration":230.0,"steps":[{"distance":59.529,"relativeDirection":"DEPART","streetName":"Rue Bourget","absoluteDirection":"WEST","stayOn":false,"area":false,"bogusName":false,"lon":-71.06160169954468,"lat":48.43966724525077,"elevation":[]},{"distance":209.99900000000002,"relativeDirection":"LEFT","streetName":"Rue Saint-Éphrem","absoluteDirection":"SOUTH","stayOn":false,"area":false,"bogusName":false,"lon":-71.062375,"lat":48.4398203,"elevation":[]},{"distance":23.261,"relativeDirection":"RIGHT","streetName":"Rue Roussel","absoluteDirection":"SOUTHWEST","stayOn":false,"area":false,"bogusName":false,"lon":-71.0629602,"lat":48.4380095,"elevation":[]}]},{"startTime":1522703965000,"endTime":1522704188000,"departureDelay":0,"arrivalDelay":0,"realTime":false,"distance":1684.542461364601,"pathway":false,"mode":"BUS","route":"24","agencyName":"Société de Transport du Saguenay","agencyUrl":"http://ville.saguenay.ca/fr/services-aux-citoyens/transport-sts","agencyTimeZoneOffset":-14400000,"routeColor":"00FF00","routeType":3,"routeId":"1:24","routeTextColor":"000000","interlineWithPreviousLeg":false,"tripBlockId":"5","headsign":"Terminus Chicoutimi","agencyId":"0","tripId":"1:217271","serviceDate":"20180402","from":{"name":"Roussel / St-Éphrem","stopId":"1:771","stopCode":"771","lon":-71.063155,"lat":48.437822,"arrival":1522703964000,"departure":1522703965000,"zoneId":"NA","stopIndex":2,"stopSequence":3,"vertexType":"TRANSIT"},"to":{"name":"St-Émile / Madeleine","stopId":"1:811","stopCode":"811","lon":-71.045248,"lat":48.445626,"arrival":1522704188000,"departure":1522704189000,"zoneId":"NA","stopIndex":8,"stopSequence":9,"vertexType":"TRANSIT"},"legGeometry":{"points":"uosfH`pvpLSq@Ok@Qq@Ku@MoBKmAa@eHi@FKC_@I??iE}Ah@}DH}@?c@Ea@[_BA?My@Cm@?Y@g@Hu@b@sD\\_DBSyHsC_@MBQA}@IwAUoAcAkCWo@qDgJg@cBk@uBi@sC]aCWwCiKuD","length":42},"routeShortName":"24","routeLongName":"Saint-Luc","rentedBike":false,"transitLeg":true,"duration":223.0,"steps":[]},{"startTime":1522704189000,"endTime":1522704506000,"departureDelay":0,"arrivalDelay":0,"realTime":false,"distance":408.774,"pathway":false,"mode":"WALK","route":"","agencyTimeZoneOffset":-14400000,"interlineWithPreviousLeg":false,"from":{"name":"St-Émile / Madeleine","stopId":"1:811","stopCode":"811","lon":-71.045248,"lat":48.445626,"arrival":1522704188000,"departure":1522704189000,"zoneId":"NA","stopIndex":8,"stopSequence":9,"vertexType":"TRANSIT"},"to":{"name":"Destination","lon":-71.047561,"lat":48.447687,"arrival":1522704506000,"orig":"","vertexType":"NORMAL"},"legGeometry":{"points":"g`ufHh`spLa@O{@[yAk@_C{@q@dEMr@Mn@CVEXAN?PXjE","length":13},"rentedBike":false,"transitLeg":false,"duration":317.0,"steps":[{"distance":181.85899999999998,"relativeDirection":"DEPART","streetName":"Rue Saint-Émile","absoluteDirection":"NORTH","stayOn":false,"area":false,"bogusName":false,"lon":-71.04532866561726,"lat":48.44564391364887,"elevation":[]},{"distance":226.91500000000002,"relativeDirection":"LEFT","streetName":"Rue Brûlé","absoluteDirection":"WEST","stayOn":false,"area":false,"bogusName":false,"lon":-71.04458170000001,"lat":48.4472025,"elevation":[]}]}],"tooSloped":false}]},"debugOutput":{"precalculationTime":23,"pathCalculationTime":28,"pathTimes":[17,5,6],"renderingTime":1,"totalTime":52,"timedOut":false},"elevationMetadata":{"ellipsoidToGeoidDifference":-28.885904201182168,"geoidElevation":false}}