{"requestParameters":{"date":"2018/04/02","walkSpeed":"1.33","walkReluctance":"2.0","fromPlace":"48.405853,-71.09675","maxWalkDistance":"3000","waitReluctance":"1.0","carSpeed":"33","numItineraries":"3","waitAtBeginningFactor":"0.4","mode":"TRANSIT,WALK","ignoreRealtimeUpdates":"false","stairsReluctance":"2.0","toPlace":"48.388082,-71.08137","time":"10:0:00"},"plan":{"date":1522677600000,"from":{"name":"Origin","lon":-71.09675,"lat":48.405853,"orig":"","vertexType":"NORMAL"},"to":{"name":"Destination","lon":-71.08137,"lat":48.388082,"orig":"","vertexType":"NORMAL"},"itineraries":[{"duration":1737,"startTime":1522679115000,"endTime":1522680852000,"walkTime":574,"transitTime":1150,"waitingTime":13,"walkDistance":737.1197518764484,"walkLimitExceeded":false,"elevationLost":0.0,"elevationGained":0.0,"transfers":1,"legs":[{"startTime":1522679115000,"endTime":1522679282000,"departureDelay":0,"arrivalDelay":0,"realTime":false,"distance":211.708,"pathway":false,"mode":"WALK","route":"","agencyTimeZoneOffset":-14400000,"interlineWithPreviousLeg":false,"from":{"name":"Origin","lon":-71.09675,"lat":48.405853,"departure":1522679115000,"orig":"","vertexType":"NORMAL"},"to":{"name":"boul. Barrette / Estacade","stopId":"1:465","stopCode":"465","lon":-71.098983,"lat":48.40478,"arrival":1522679282000,"departure":1522679283000,"zoneId":"NA","stopIndex":15,"stopSequence":16,"vertexType":"TRANSIT"},"legGeometry":{"points":"}hmfHld}pLbCvCj@r@xAnBJRM\\","length":6},"rentedBike":false,"transitLeg":false,"duration":167.0,"steps":[{"distance":188.22,"relativeDirection":"DEPART","streetName":"Rue de l'Estacade","absoluteDirection":"SOUTHWEST","stayOn":false,"area":false,"bogusName":false,"lon":-71.09718145784186,"lat":48.40607363301524,"elevation":[]},{"distance":10.078,"relativeDirection":"CONTINUE","streetName":"path","absoluteDirection":"SOUTHWEST","stayOn":false,"area":false,"bogusName":true,"lon":-71.0987621,"lat":48.40474570000001,"elevation":[]},{"distance":13.41,"relativeDirection":"RIGHT","streetName":"bike path","absoluteDirection":"NORTHWEST","stayOn":true,"area":false,"bogusName":true,"lon":-71.0988614,"lat":48.404683500000004,"elevation":[]}]},{"startTime":1522679283000,"endTime":1522679816000,"departureDelay":0,"arrivalDelay":0,"realTime":false,"distance":5271.990291164261,"pathway":false,"mode":"BUS","route":"11","agencyName":"Société de Transport du Saguenay","agencyUrl":"http://ville.saguenay.ca/fr/services-aux-citoyens/transport-sts","agencyTimeZoneOffset":-14400000,"routeColor":"FF0000","routeType":3,"routeId":"1:11","routeTextColor":"FFFFFF","interlineWithPreviousLeg":false,"tripBlockId":"37","headsign":"Boul.Royaume/St-Pierre","agencyId":"0","tripId":"1:218310","serviceDate":"20180402","from":{"name":"boul. Barrette / Estacade","stopId":"1:465","stopCode":"465","lon":-71.098983,"lat":48.40478,"arrival":1522679282000,"departure":1522679283000,"zoneId":"NA","stopIndex":15,"stopSequence":16,"vertexType":"TRANSIT"},"to":{"name":"boul. Royaume (no. 1409)","stopId":"1:264","stopCode":"264","lon":-71.118186,"lat":48.388875,"arrival":1522679816000,"departure":1522679816000,"zoneId":"NA","stopIndex":28,"stopSequence":29,"vertexType":"TRANSIT"},"legGeometry":{"points":"i`mfHdp}pL|CyI~IrJtAzAmKrWsE`LzJjL|P}d@Ri@hCpEpBdCHJzPrR_AhC}Ppd@KZkDxJq@`CyGfZOl@fNzIJ@HAHIDI@CnNco@vE}Sh@kCb@oCXyBTuAFSBMl@iBlHjJxEtGPRbBdBp@r@xDpDrL`LlAtAiBdFOd@oCrH","length":46},"routeShortName":"11","routeLongName":"Chic/Faubourg via St-Paul","rentedBike":false,"transitLeg":true,"duration":533.0,"steps":[]},{"startTime":1522679816000,"endTime":1522679829000,"departureDelay":0,"arrivalDelay":0,"realTime":false,"distance":13.493,"pathway":false,"mode":"WALK","route":"","agencyTimeZoneOffset":-14400000,"interlineWithPreviousLeg":false,"from":{"name":"boul. Royaume (no. 1409)","stopId":"1:264","stopCode":"264","lon":-71.118186,"lat":48.388875,"arrival":1522679816000,"departure":1522679816000,"zoneId":"NA","stopIndex":28,"stopSequence":29,"vertexType":"TRANSIT"},"to":{"name":"boul. Royaume (no. 1460)","stopId":"1:267","stopCode":"267","lon":-71.1185,"lat":48.388791,"arrival":1522679829000,"departure":1522679840000,"zoneId":"NA","stopIndex":23,"stopSequence":24,"vertexType":"TRANSIT"},"legGeometry":{"points":"a}ifHbhaqLMZ","length":2},"rentedBike":false,"transitLeg":false,"duration":13.0,"steps":[{"distance":13.493,"relativeDirection":"DEPART","streetName":"Boulevard du Royaume Ouest","absoluteDirection":"NORTHWEST","stayOn":false,"area":false,"bogusName":false,"lon":-71.11825025873861,"lat":48.3888149249102,"elevation":[]}]},{"startTime":1522679840000,"endTime":1522680060000,"departureDelay":0,"arrivalDelay":0,"realTime":false,"distance":2570.2679685702965,"pathway":false,"mode":"BUS","route":"2","agencyName":"Société de Transport du Saguenay","agencyUrl":"http://ville.saguenay.ca/fr/services-aux-citoyens/transport-sts","agencyTimeZoneOffset":-14400000,"routeColor":"FF0000","routeType":3,"routeId":"1:2","routeTextColor":"FFFFFF","interlineWithPreviousLeg":false,"tripBlockId":"11","headsign":"Costco","agencyId":"0","tripId":"1:217469","serviceDate":"20180402","from":{"name":"boul. Royaume (no. 1460)","stopId":"1:267","stopCode":"267","lon":-71.1185,"lat":48.388791,"arrival":1522679829000,"departure":1522679840000,"zoneId":"NA","stopIndex":23,"stopSequence":24,"vertexType":"TRANSIT"},"to":{"name":"COSTCO","stopId":"1:1710","stopCode":"1710","lon":-71.085767,"lat":48.382333,"arrival":1522680060000,"departure":1522680300000,"zoneId":"NA","stopIndex":28,"stopSequence":29,"vertexType":"TRANSIT"},"legGeometry":{"points":"e}ifHjiaqL|BaGbDgIz@{B|G}WVyBfB_OrBsTDa]?sD`@uc@tBcJz@yDtI}UaCcC","length":15},"routeShortName":"2","routeLongName":"Chic/Jonq via Boul. Royaume","rentedBike":false,"transitLeg":true,"duration":220.0,"steps":[]},{"startTime":1522680300000,"endTime":1522680457000,"departureDelay":0,"arrivalDelay":0,"realTime":false,"distance":901.4779415125417,"pathway":false,"mode":"BUS","route":"175","agencyName":"Société de Transport du Saguenay","agencyUrl":"http://ville.saguenay.ca/fr/services-aux-citoyens/transport-sts","agencyTimeZoneOffset":-14400000,"routeColor":"FF00FF","routeType":3,"routeId":"1:175","routeTextColor":"FFFFFF","interlineWithPreviousLeg":true,"tripBlockId":"11","headsign":"Terminus Chicoutimi","agencyId":"0","tripId":"1:217470","serviceDate":"20180402","from":{"name":"COSTCO","stopId":"1:1710","stopCode":"1710","lon":-71.085767,"lat":48.382333,"arrival":1522680060000,"departure":1522680300000,"zoneId":"NA","stopIndex":0,"stopSequence":1,"vertexType":"TRANSIT"},"to":{"name":"Talbot / Néro","stopId":"1:78","stopCode":"78","lon":-71.077222,"lat":48.387713,"arrival":1522680457000,"departure":1522680458000,"zoneId":"NA","stopIndex":3,"stopSequence":4,"vertexType":"TRANSIT"},"legGeometry":{"points":"euhfHt|zpL_BiBsCoDwCqDrCsGN_@uEoFoEiFUWSUqCwC]a@{ByC{@cA","length":14},"routeShortName":"175","routeLongName":"Term. Chic / Costco","rentedBike":false,"transitLeg":true,"duration":157.0,"steps":[]},{"startTime":1522680458000,"endTime":1522680852000,"departureDelay":0,"arrivalDelay":0,"realTime":false,"distance":511.81800000000004,"pathway":false,"mode":"WALK","route":"","agencyTimeZoneOffset":-14400000,"interlineWithPreviousLeg":false,"from":{"name":"Talbot / Néro","stopId":"1:78","stopCode":"78","lon":-71.077222,"lat":48.387713,"arrival":1522680457000,"departure":1522680458000,"zoneId":"NA","stopIndex":3,"stopSequence":4,"vertexType":"TRANSIT"},"to":{"name":"Destination","lon":-71.08137,"lat":48.388082,"arrival":1522680852000,"orig":"","vertexType":"NORMAL"},"legGeometry":{"points":"mvifHdhypL|@dAIRQ`@Uh@uI~S`DtD","length":7},"rentedBike":false,"transitLeg":false,"duration":394.0,"steps":[{"distance":42.827,"relativeDirection":"DEPART","streetName":"Boulevard Talbot","absoluteDirection":"SOUTHWEST","stayOn":false,"area":false,"bogusName":false,"lon":-71.07730273613679,"lat":48.387753588341106,"elevation":[]},{"distance":357.39700000000005,"relativeDirection":"RIGHT","streetName":"Rue Néron","absoluteDirection":"NORTHWEST","stayOn":false,"area":false,"bogusName":false,"lon":-71.07765280000001,"lat":48.3874465,"elevation":[]},{"distance":111.594,"relativeDirection":"LEFT","streetName":"Rue Émile-Couture","absoluteDirection":"SOUTHWEST","stayOn":false,"area":false,"bogusName":false,"lon":-71.0814948,"lat":48.3894013,"elevation":[]}]}],"tooSloped":false},{"duration":1972,"startTime":1522679190000,"endTime":1522681162000,"walkTime":1830,"transitTime":140,"waitingTime":2,"walkDistance":2391.2344285658974,"walkLimitExceeded":false,"elevationLost":0.0,"elevationGained":0.0,"transfers":0,"legs":[{"startTime":1522679190000,"endTime":1522679919000,"departureDelay":0,"arrivalDelay":0,"realTime":false,"distance":948.2160000000001,"pathway":false,"mode":"WALK","route":"","agencyTimeZoneOffset":-14400000,"interlineWithPreviousLeg":false,"from":{"name":"Origin","lon":-71.09675,"lat":48.405853,"departure":1522679190000,"orig":"","vertexType":"NORMAL"},"to":{"name":"Malraux / Pagnol","stopId":"1:1978","stopCode":"1978","lon":-71.093388,"lat":48.400416,"arrival":1522679919000,"departure":1522679920000,"zoneId":"NA","stopIndex":29,"stopSequence":30,"vertexType":"TRANSIT"},"legGeometry":{"points":"}hmfHld}pLbCvCj@r@xAnBr@mBhB{ErCsHFQx@uBzEwM@?`@kAjFzF","length":13},"rentedBike":false,"transitLeg":false,"duration":729.0,"steps":[{"distance":188.22,"relativeDirection":"DEPART","streetName":"Rue de l'Estacade","absoluteDirection":"SOUTHWEST","stayOn":false,"area":false,"bogusName":false,"lon":-71.09718145784186,"lat":48.40607363301524,"elevation":[]},{"distance":599.6949999999999,"relativeDirection":"LEFT","streetName":"Boulevard Barrette","absoluteDirection":"SOUTHEAST","stayOn":false,"area":false,"bogusName":false,"lon":-71.0987621,"lat":48.40474570000001,"elevation":[]},{"distance":160.301,"relativeDirection":"RIGHT","streetName":"Rue Malraux","absoluteDirection":"SOUTHWEST","stayOn":false,"area":false,"bogusName":false,"lon":-71.0921587,"lat":48.401604500000005,"elevation":[]}]},{"startTime":1522679920000,"endTime":1522680060000,"departureDelay":0,"arrivalDelay":0,"realTime":false,"distance":1970.4615229267838,"pathway":false,"mode":"BUS","route":"14","agencyName":"Société de Transport du Saguenay","agencyUrl":"http://ville.saguenay.ca/fr/services-aux-citoyens/transport-sts","agencyTimeZoneOffset":-14400000,"routeColor":"C0C000","routeType":3,"routeId":"1:14","routeTextColor":"000000","interlineWithPreviousLeg":false,"tripBlockId":"32","headsign":"Talbot / Barrette","agencyId":"0","tripId":"1:218154","serviceDate":"20180402","from":{"name":"Malraux / Pagnol","stopId":"1:1978","stopCode":"1978","lon":-71.093388,"lat":48.400416,"arrival":1522679919000,"departure":1522679920000,"zoneId":"NA","stopIndex":29,"stopSequence":30,"vertexType":"TRANSIT"},"to":{"name":"Roitelets / Sapins","stopId":"1:1543","stopCode":"1543","lon":-71.069553,"lat":48.393375,"arrival":1522680060000,"departure":1522680061000,"zoneId":"NA","stopIndex":35,"stopSequence":36,"vertexType":"TRANSIT"},"legGeometry":{"points":"welfH`m|pLcFsF~CgOtGm[j@oCvEoSl@_CxCmLjAeFpCeKrByHfAqCvH_SLa@","length":14},"routeShortName":"14","routeLongName":"Coopérative","rentedBike":false,"transitLeg":true,"duration":140.0,"steps":[]},{"startTime":1522680061000,"endTime":1522681162000,"departureDelay":0,"arrivalDelay":0,"realTime":false,"distance":1442.8470000000002,"pathway":false,"mode":"WALK","route":"","agencyTimeZoneOffset":-14400000,"interlineWithPreviousLeg":false,"from":{"name":"Roitelets / Sapins","stopId":"1:1543","stopCode":"1543","lon":-71.069553,"lat":48.393375,"arrival":1522680060000,"departure":1522680061000,"zoneId":"NA","stopIndex":35,"stopSequence":36,"vertexType":"TRANSIT"},"to":{"name":"Destination","lon":-71.08137,"lat":48.388082,"arrival":1522681162000,"orig":"","vertexType":"NORMAL"},"legGeometry":{"points":"oyjfHxwwpL?@mAzCMHC@JLrEjFlAxAjGjHbAjAzExFfJzK|@dAIRQ`@Uh@uI~S`DtD","length":18},"rentedBike":false,"transitLeg":false,"duration":1101.0,"steps":[{"distance":84.014,"relativeDirection":"DEPART","streetName":"bike path","absoluteDirection":"NORTHWEST","stayOn":false,"area":false,"bogusName":true,"lon":-71.0695674967601,"lat":48.39336056343373,"elevation":[]},{"distance":889.8419999999999,"relativeDirection":"HARD_LEFT","streetName":"Boulevard Talbot","absoluteDirection":"SOUTHWEST","stayOn":false,"area":false,"bogusName":false,"lon":-71.07041720000001,"lat":48.393846,"elevation":[]},{"distance":357.39700000000005,"relativeDirection":"RIGHT","streetName":"Rue Néron","absoluteDirection":"NORTHWEST","stayOn":false,"area":false,"bogusName":false,"lon":-71.07765280000001,"lat":48.3874465,"elevation":[]},{"distance":111.594,"relativeDirection":"LEFT","streetName":"Rue Émile-Couture","absoluteDirection":"SOUTHWEST","stayOn":false,"area":false,"bogusName":false,"lon":-71.0814948,"lat":48.3894013,"elevation":[]}]}],"tooSloped":false},{"duration":1737,"startTime":1522680915000,"endTime":1522682652000,"walkTime":574,"transitTime":1150,"waitingTime":13,"walkDistance":737.1197518764484,"walkLimitExceeded":false,"elevationLost":0.0,"elevationGained":0.0,"transfers":1,"legs":[{"startTime":1522680915000,"endTime":1522681082000,"departureDelay":0,"arrivalDelay":0,"realTime":false,"distance":211.708,"pathway":false,"mode":"WALK","route":"","agencyTimeZoneOffset":-14400000,"interlineWithPreviousLeg":false,"from":{"name":"Origin","lon":-71.09675,"lat":48.405853,"departure":1522680915000,"orig":"","vertexType":"NORMAL"},"to":{"name":"boul. Barrette / Estacade","stopId":"1:465","stopCode":"465","lon":-71.098983,"lat":48.40478,"arrival":1522681082000,"departure":1522681083000,"zoneId":"NA","stopIndex":15,"stopSequence":16,"vertexType":"TRANSIT"},"legGeometry":{"points":"}hmfHld}pLbCvCj@r@xAnBJRM\\","length":6},"rentedBike":false,"transitLeg":false,"duration":167.0,"steps":[{"distance":188.22,"relativeDirection":"DEPART","streetName":"Rue de l'Estacade","absoluteDirection":"SOUTHWEST","stayOn":false,"area":false,"bogusName":false,"lon":-71.09718145784186,"lat":48.40607363301524,"elevation":[]},{"distance":10.078,"relativeDirection":"CONTINUE","streetName":"path","absoluteDirection":"SOUTHWEST","stayOn":false,"area":false,"bogusName":true,"lon":-71.0987621,"lat":48.40474570000001,"elevation":[]},{"distance":13.41,"relativeDirection":"RIGHT","streetName":"bike path","absoluteDirection":"NORTHWEST","stayOn":true,"area":false,"bogusName":true,"lon":-71.0988614,"lat":48.404683500000004,"elevation":[]}]},{"startTime":1522681083000,"endTime":1522681616000,"departureDelay":0,"arrivalDelay":0,"realTime":false,"distance":5271.990291164261,"pathway":false,"mode":"BUS","route":"11","agencyName":"Société de Transport du Saguenay","agencyUrl":"http://ville.saguenay.ca/fr/services-aux-citoyens/transport-sts","agencyTimeZoneOffset":-14400000,"routeColor":"FF0000","routeType":3,"routeId":"1:11","routeTextColor":"FFFFFF","interlineWithPreviousLeg":false,"tripBlockId":"34","headsign":"Boul.Royaume/St-Pierre","agencyId":"0","tripId":"1:218215","serviceDate":"20180402","from":{"name":"boul. Barrette / Estacade","stopId":"1:465","stopCode":"465","lon":-71.098983,"lat":48.40478,"arrival":1522681082000,"departure":1522681083000,"zoneId":"NA","stopIndex":15,"stopSequence":16,"vertexType":"TRANSIT"},"to":{"name":"boul. Royaume (no. 1409)","stopId":"1:264","stopCode":"264","lon":-71.118186,"lat":48.388875,"arrival":1522681616000,"departure":1522681616000,"zoneId":"NA","stopIndex":28,"stopSequence":29,"vertexType":"TRANSIT"},"legGeometry":{"points":"i`mfHdp}pL|CyI~IrJtAzAmKrWsE`LzJjL|P}d@Ri@hCpEpBdCHJzPrR_AhC}Ppd@KZkDxJq@`CyGfZOl@fNzIJ@HAHIDI@CnNco@vE}Sh@kCb@oCXyBTuAFSBMl@iBlHjJxEtGPRbBdBp@r@xDpDrL`LlAtAiBdFOd@oCrH","length":46},"routeShortName":"11","routeLongName":"Chic/Faubourg via St-Paul","rentedBike":false,"transitLeg":true,"duration":533.0,"steps":[]},{"startTime":1522681616000,"endTime":1522681629000,"departureDelay":0,"arrivalDelay":0,"realTime":false,"distance":13.493,"pathway":false,"mode":"WALK","route":"","agencyTimeZoneOffset":-14400000,"interlineWithPreviousLeg":false,"from":{"name":"boul. Royaume (no. 1409)","stopId":"1:264","stopCode":"264","lon":-71.118186,"lat":48.388875,"arrival":1522681616000,"departure":1522681616000,"zoneId":"NA","stopIndex":28,"stopSequence":29,"vertexType":"TRANSIT"},"to":{"name":"boul. Royaume (no. 1460)","stopId":"1:267","stopCode":"267","lon":-71.1185,"lat":48.388791,"arrival":1522681629000,"departure":1522681640000,"zoneId":"NA","stopIndex":23,"stopSequence":24,"vertexType":"TRANSIT"},"legGeometry":{"points":"a}ifHbhaqLMZ","length":2},"rentedBike":false,"transitLeg":false,"duration":13.0,"steps":[{"distance":13.493,"relativeDirection":"DEPART","streetName":"Boulevard du Royaume Ouest","absoluteDirection":"NORTHWEST","stayOn":false,"area":false,"bogusName":false,"lon":-71.11825025873861,"lat":48.3888149249102,"elevation":[]}]},{"startTime":1522681640000,"endTime":1522681860000,"departureDelay":0,"arrivalDelay":0,"realTime":false,"distance":2570.2679685702965,"pathway":false,"mode":"BUS","route":"2","agencyName":"Société de Transport du Saguenay","agencyUrl":"http://ville.saguenay.ca/fr/services-aux-citoyens/transport-sts","agencyTimeZoneOffset":-14400000,"routeColor":"FF0000","routeType":3,"routeId":"1:2","routeTextColor":"FFFFFF","interlineWithPreviousLeg":false,"tripBlockId":"10","headsign":"Costco","agencyId":"0","tripId":"1:217435","serviceDate":"20180402","from":{"name":"boul. Royaume (no. 1460)","stopId":"1:267","stopCode":"267","lon":-71.1185,"lat":48.388791,"arrival":1522681629000,"departure":1522681640000,"zoneId":"NA","stopIndex":23,"stopSequence":24,"vertexType":"TRANSIT"},"to":{"name":"COSTCO","stopId":"1:1710","stopCode":"1710","lon":-71.085767,"lat":48.382333,"arrival":1522681860000,"departure":1522682100000,"zoneId":"NA","stopIndex":28,"stopSequence":29,"vertexType":"TRANSIT"},"legGeometry":{"points":"e}ifHjiaqL|BaGbDgIz@{B|G}WVyBfB_OrBsTDa]?sD`@uc@tBcJz@yDtI}UaCcC","length":15},"routeShortName":"2","routeLongName":"Chic/Jonq via Boul. Royaume","rentedBike":false,"transitLeg":true,"duration":220.0,"steps":[]},{"startTime":1522682100000,"endTime":1522682257000,"departureDelay":0,"arrivalDelay":0,"realTime":false,"distance":901.4779415125417,"pathway":false,"mode":"BUS","route":"175","agencyName":"Société de Transport du Saguenay","agencyUrl":"http://ville.saguenay.ca/fr/services-aux-citoyens/transport-sts","agencyTimeZoneOffset":-14400000,"routeColor":"FF00FF","routeType":3,"routeId":"1:175","routeTextColor":"FFFFFF","interlineWithPreviousLeg":true,"tripBlockId":"10","headsign":"Terminus Chicoutimi","agencyId":"0","tripId":"1:217436","serviceDate":"20180402","from":{"name":"COSTCO","stopId":"1:1710","stopCode":"1710","lon":-71.085767,"lat":48.382333,"arrival":1522681860000,"departure":1522682100000,"zoneId":"NA","stopIndex":0,"stopSequence":1,"vertexType":"TRANSIT"},"to":{"name":"Talbot / Néro","stopId":"1:78","stopCode":"78","lon":-71.077222,"lat":48.387713,"arrival":1522682257000,"departure":1522682258000,"zoneId":"NA","stopIndex":3,"stopSequence":4,"vertexType":"TRANSIT"},"legGeometry":{"points":"euhfHt|zpL_BiBsCoDwCqDrCsGN_@uEoFoEiFUWSUqCwC]a@{ByC{@cA","length":14},"routeShortName":"175","routeLongName":"Term. Chic / Costco","rentedBike":false,"transitLeg":true,"duration":157.0,"steps":[]},{"startTime":1522682258000,"endTime":1522682652000,"departureDelay":0,"arrivalDelay":0,"realTime":false,"distance":511.81800000000004,"pathway":false,"mode":"WALK","route":"","agencyTimeZoneOffset":-14400000,"interlineWithPreviousLeg":false,"from":{"name":"Talbot / Néro","stopId":"1:78","stopCode":"78","lon":-71.077222,"lat":48.387713,"arrival":1522682257000,"departure":1522682258000,"zoneId":"NA","stopIndex":3,"stopSequence":4,"vertexType":"TRANSIT"},"to":{"name":"Destination","lon":-71.08137,"lat":48.388082,"arrival":1522682652000,"orig":"","vertexType":"NORMAL"},"legGeometry":{"points":"mvifHdhypL|@dAIRQ`@Uh@uI~S`DtD","length":7},"rentedBike":false,"transitLeg":false,"duration":394.0,"steps":[{"distance":42.827,"relativeDirection":"DEPART","streetName":"Boulevard Talbot","absoluteDirection":"SOUTHWEST","stayOn":false,"area":false,"bogusName":false,"lon":-71.07730273613679,"lat":48.387753588341106,"elevation":[]},{"distance":357.39700000000005,"relativeDirection":"RIGHT","streetName":"Rue Néron","absoluteDirection":"NORTHWEST","stayOn":false,"area":false,"bogusName":false,"lon":-71.07765280000001,"lat":48.3874465,"elevation":[]},{"distance":111.594,"relativeDirection":"LEFT","streetName":"Rue Émile-Couture","absoluteDirection":"SOUTHWEST","stayOn":false,"area":false,"bogusName":false,"lon":-71.0814948,"lat":48.3894013,"elevation":[]}]}],"tooSloped":false}]},"debugOutput":{"precalculationTime":16,"pathCalculationTime":45,"pathTimes":[26,9,10],"renderingTime":0,"totalTime":61,"timedOut":false},"elevationMetadata":{"ellipsoidToGeoidDifference":-28.885904201182168,"geoidElevation":false}}