{"requestParameters":{"date":"2018/04/02","walkSpeed":"1.33","walkReluctance":"2.0","fromPlace":"48.395542,-71.106464","maxWalkDistance":"3000","waitReluctance":"1.0","carSpeed":"33","numItineraries":"3","waitAtBeginningFactor":"0.4","mode":"TRANSIT,WALK","ignoreRealtimeUpdates":"false","stairsReluctance":"2.0","toPlace":"48.444985,-71.04645","time":"16:0:00"},"plan":{"date":1522699200000,"from":{"name":"Origin","lon":-71.106464,"lat":48.395542,"orig":"","vertexType":"NORMAL"},"to":{"name":"Destination","lon":-71.04645,"lat":48.444985,"orig":"","vertexType":"NORMAL"},"itineraries":[{"duration":2563,"startTime":1522699965000,"endTime":1522702528000,"walkTime":351,"transitTime":1970,"waitingTime":242,"walkDistance":437.11489473174726,"walkLimitExceeded":false,"elevationLost":0.0,"elevationGained":0.0,"transfers":1,"legs":[{"startTime":1522699965000,"endTime":1522700177000,"departureDelay":0,"arrivalDelay":0,"realTime":false,"distance":265.452,"pathway":false,"mode":"WALK","route":"","agencyTimeZoneOffset":-14400000,"interlineWithPreviousLeg":false,"from":{"name":"Origin","lon":-71.106464,"lat":48.395542,"departure":1522699965000,"orig":"","vertexType":"NORMAL"},"to":{"name":"Bersimis / boul. St-Paul","stopId":"1:37","stopCode":"37","lon":-71.108531,"lat":48.39484,"arrival":1522700177000,"departure":1522700178000,"zoneId":"NA","stopIndex":6,"stopSequence":7,"vertexType":"TRANSIT"},"legGeometry":{"points":"_gkfHf~~pLGGUINd@vEhFPRERm@nBK\\","length":9},"rentedBike":false,"transitLeg":false,"duration":212.0,"steps":[{"distance":17.733,"relativeDirection":"DEPART","streetName":"Boulevard Saint-Paul","absoluteDirection":"NORTHEAST","stayOn":false,"area":false,"bogusName":false,"lon":-71.10643584835762,"lat":48.395529475492026,"elevation":[]},{"distance":177.792,"relativeDirection":"HARD_LEFT","streetName":"Boulevard Saint-Paul","absoluteDirection":"SOUTHWEST","stayOn":true,"area":false,"bogusName":false,"lon":-71.1063412,"lat":48.395675000000004,"elevation":[]},{"distance":69.92699999999999,"relativeDirection":"RIGHT","streetName":"Rue Bersimis","absoluteDirection":"NORTHWEST","stayOn":false,"area":false,"bogusName":false,"lon":-71.1078057,"lat":48.394420100000005,"elevation":[]}]},{"startTime":1522700178000,"endTime":1522701660000,"departureDelay":0,"arrivalDelay":0,"realTime":false,"distance":6488.303852495282,"pathway":false,"mode":"BUS","route":"11","agencyName":"Société de Transport du Saguenay","agencyUrl":"http://ville.saguenay.ca/fr/services-aux-citoyens/transport-sts","agencyTimeZoneOffset":-14400000,"routeColor":"FF0000","routeType":3,"routeId":"1:11","routeTextColor":"FFFFFF","interlineWithPreviousLeg":false,"tripBlockId":"35","headsign":"Terminus Chicoutimi","agencyId":"0","tripId":"1:218261","serviceDate":"20180402","from":{"name":"Bersimis / boul. St-Paul","stopId":"1:37","stopCode":"37","lon":-71.108531,"lat":48.39484,"arrival":1522700177000,"departure":1522700178000,"zoneId":"NA","stopIndex":6,"stopSequence":7,"vertexType":"TRANSIT"},"to":{"name":"Terminus Chicoutimi","stopId":"1:1289","stopCode":"1289","lon":-71.066163,"lat":48.428677,"arrival":1522701660000,"departure":1522701900000,"zoneId":"NA","stopIndex":30,"stopSequence":31,"vertexType":"TRANSIT"},"legGeometry":{"points":"cbkfHtk_qLSlAYvBc@nCi@lCyE`T}@dEoLxh@GLIHI@KAgN{IhHu[p@aCjDyJfQie@`AmCJ[kXi[gKsLqMgOmAbDAVSl@y@vBeCuCoCaDkDuE_@g@{FwGOMnA}CnA_DJWu@iAW[S[yI{MmBqC{@wAQUw@gAsDiF_B_CQYa@cA[_AUy@YcBOgAYHu@\\M`@cAiBuAyBkHgL{C{E}AcCc@o@q@gAOWwCyCyGyG_IaIs@rBEHwAtDmBvEOd@[bBK~AIf@YHE@Q@O?OCI_@GMEKI_AB_A?Yo@IKCIEIIKOEKCKe@}BKs@CQAUE_A@yCFcDVsLDaCD_@kBKW?e@Q_BQNuEDuBXmNLgHmKm@}BW{AMCn@o@G??","length":115},"routeShortName":"11","routeLongName":"Chic/Faubourg via St-Paul","rentedBike":false,"transitLeg":true,"duration":1482.0,"steps":[]},{"startTime":1522701900000,"endTime":1522702388000,"departureDelay":0,"arrivalDelay":0,"realTime":false,"distance":2846.690743278249,"pathway":false,"mode":"BUS","route":"24","agencyName":"Société de Transport du Saguenay","agencyUrl":"http://ville.saguenay.ca/fr/services-aux-citoyens/transport-sts","agencyTimeZoneOffset":-14400000,"routeColor":"00FF00","routeType":3,"routeId":"1:24","routeTextColor":"000000","interlineWithPreviousLeg":false,"tripBlockId":"4","headsign":"Terminus Chicoutimi","agencyId":"0","tripId":"1:217243","serviceDate":"20180402","from":{"name":"Terminus Chicoutimi","stopId":"1:1289","stopCode":"1289","lon":-71.066163,"lat":48.428677,"arrival":1522701660000,"departure":1522701900000,"zoneId":"NA","stopIndex":0,"stopSequence":1,"vertexType":"TRANSIT"},"to":{"name":"St-Émile / Madeleine","stopId":"1:811","stopCode":"811","lon":-71.045248,"lat":48.445626,"arrival":1522702388000,"departure":1522702389000,"zoneId":"NA","stopIndex":8,"stopSequence":9,"vertexType":"TRANSIT"},"legGeometry":{"points":"evqfHzcwpLg@?EhBO~GoBKCp@O\\WjGOfGCRK^KJMHQB_AMg@Gm\\wO]i@wAyA_@WUKMEwEm@Js@Da@??@@??@?@???@???@?@??A@???@A@??A@??A@A??@A?A??@A?A?A?A@A?A???A?A?A???A?A?A?A???A?AAA?A???AAA?A??AA?AA??AA??A??AA??A??AA?A???A????q@C{AAaB?mAEcAGs@OoAa@sB[kAYcASq@Ok@Qq@Ku@MoBKmAa@eHi@FKC_@I??iE}Ah@}DH}@?c@Ea@[_BA?My@Cm@?Y@g@Hu@b@sD\\_DBSyHsC_@MBQA}@IwAUoAcAkCWo@qDgJg@cBk@uBi@sC]aCWwCiKuD","length":140},"routeShortName":"24","routeLongName":"Saint-Luc","rentedBike":false,"transitLeg":true,"duration":488.0,"steps":[]},{"startTime":1522702389000,"endTime":1522702528000,"departureDelay":0,"arrivalDelay":0,"realTime":false,"distance":171.505,"pathway":false,"mode":"WALK","route":"","agencyTimeZoneOffset":-14400000,"interlineWithPreviousLeg":false,"from":{"name":"St-Émile / Madeleine","stopId":"1:811","stopCode":"811","lon":-71.045248,"lat":48.445626,"arrival":1522702388000,"departure":1522702389000,"zoneId":"NA","stopIndex":8,"stopSequence":9,"vertexType":"TRANSIT"},"to":{"name":"Destination","lon":-71.04645,"lat":48.444985,"arrival":1522702528000,"orig":"","vertexType":"NORMAL"},"legGeometry":{"points":"g`ufHh`spLrAj@i@`ElAf@","length":4},"rentedBike":false,"transitLeg":false,"duration":139.0,"steps":[{"distance":49.309,"relativeDirection":"DEPART","streetName":"Rue Saint-Émile","absoluteDirection":"SOUTH","stayOn":false,"area":false,"bogusName":false,"lon":-71.04532866561726,"lat":48.44564391364887,"elevation":[]},{"distance":75.991,"relativeDirection":"RIGHT","streetName":"Rue de Saint-Malo","absoluteDirection":"WEST","stayOn":false,"area":false,"bogusName":false,"lon":-71.0455409,"lat":48.4452234,"elevation":[]},{"distance":46.205,"relativeDirection":"LEFT","streetName":"Rue Sainte-Hélène","absoluteDirection":"SOUTH","stayOn":false,"area":false,"bogusName":false,"lon":-71.0465191,"lat":48.4454379,"elevation":[]}]}],"tooSloped":false},{"duration":2563,"startTime":1522701765000,"endTime":1522704328000,"walkTime":351,"transitTime":1970,"waitingTime":242,"walkDistance":437.11489473174726,"walkLimitExceeded":false,"elevationLost":0.0,"elevationGained":0.0,"transfers":1,"legs":[{"startTime":1522701765000,"endTime":1522701977000,"departureDelay":0,"arrivalDelay":0,"realTime":false,"distance":265.452,"pathway":false,"mode":"WALK","route":"","agencyTimeZoneOffset":-14400000,"interlineWithPreviousLeg":false,"from":{"name":"Origin","lon":-71.106464,"lat":48.395542,"departure":1522701765000,"orig":"","vertexType":"NORMAL"},"to":{"name":"Bersimis / boul. St-Paul","stopId":"1:37","stopCode":"37","lon":-71.108531,"lat":48.39484,"arrival":1522701977000,"departure":1522701978000,"zoneId":"NA","stopIndex":6,"stopSequence":7,"vertexType":"TRANSIT"},"legGeometry":{"points":"_gkfHf~~pLGGUINd@vEhFPRERm@nBK\\","length":9},"rentedBike":false,"transitLeg":false,"duration":212.0,"steps":[{"distance":17.733,"relativeDirection":"DEPART","streetName":"Boulevard Saint-Paul","absoluteDirection":"NORTHEAST","stayOn":false,"area":false,"bogusName":false,"lon":-71.10643584835762,"lat":48.395529475492026,"elevation":[]},{"distance":177.792,"relativeDirection":"HARD_LEFT","streetName":"Boulevard Saint-Paul","absoluteDirection":"SOUTHWEST","stayOn":true,"area":false,"bogusName":false,"lon":-71.1063412,"lat":48.395675000000004,"elevation":[]},{"distance":69.92699999999999,"relativeDirection":"RIGHT","streetName":"Rue Bersimis","absoluteDirection":"NORTHWEST","stayOn":false,"area":false,"bogusName":false,"lon":-71.1078057,"lat":48.394420100000005,"elevation":[]}]},{"startTime":1522701978000,"endTime":1522703460000,"departureDelay":0,"arrivalDelay":0,"realTime":false,"distance":6488.303852495282,"pathway":false,"mode":"BUS","route":"11","agencyName":"Société de Transport du Saguenay","agencyUrl":"http://ville.saguenay.ca/fr/services-aux-citoyens/transport-sts","agencyTimeZoneOffset":-14400000,"routeColor":"FF0000","routeType":3,"routeId":"1:11","routeTextColor":"FFFFFF","interlineWithPreviousLeg":false,"tripBlockId":"37","headsign":"Terminus Chicoutimi","agencyId":"0","tripId":"1:218323","serviceDate":"20180402","from":{"name":"Bersimis / boul. St-Paul","stopId":"1:37","stopCode":"37","lon":-71.108531,"lat":48.39484,"arrival":1522701977000,"departure":1522701978000,"zoneId":"NA","stopIndex":6,"stopSequence":7,"vertexType":"TRANSIT"},"to":{"name":"Terminus Chicoutimi","stopId":"1:1289","stopCode":"1289","lon":-71.066163,"lat":48.428677,"arrival":1522703460000,"departure":1522703700000,"zoneId":"NA","stopIndex":30,"stopSequence":31,"vertexType":"TRANSIT"},"legGeometry":{"points":"cbkfHtk_qLSlAYvBc@nCi@lCyE`T}@dEoLxh@GLIHI@KAgN{IhHu[p@aCjDyJfQie@`AmCJ[kXi[gKsLqMgOmAbDAVSl@y@vBeCuCoCaDkDuE_@g@{FwGOMnA}CnA_DJWu@iAW[S[yI{MmBqC{@wAQUw@gAsDiF_B_CQYa@cA[_AUy@YcBOgAYHu@\\M`@cAiBuAyBkHgL{C{E}AcCc@o@q@gAOWwCyCyGyG_IaIs@rBEHwAtDmBvEOd@[bBK~AIf@YHE@Q@O?OCI_@GMEKI_AB_A?Yo@IKCIEIIKOEKCKe@}BKs@CQAUE_A@yCFcDVsLDaCD_@kBKW?e@Q_BQNuEDuBXmNLgHmKm@}BW{AMCn@o@G??","length":115},"routeShortName":"11","routeLongName":"Chic/Faubourg via St-Paul","rentedBike":false,"transitLeg":true,"duration":1482.0,"steps":[]},{"startTime":1522703700000,"endTime":1522704188000,"departureDelay":0,"arrivalDelay":0,"realTime":false,"distance":2846.690743278249,"pathway":false,"mode":"BUS","route":"24","agencyName":"Société de Transport du Saguenay","agencyUrl":"http://ville.saguenay.ca/fr/services-aux-citoyens/transport-sts","agencyTimeZoneOffset":-14400000,"routeColor":"00FF00","routeType":3,"routeId":"1:24","routeTextColor":"000000","interlineWithPreviousLeg":false,"tripBlockId":"5","headsign":"Terminus Chicoutimi","agencyId":"0","tripId":"1:217271","serviceDate":"20180402","from":{"name":"Terminus Chicoutimi","stopId":"1:1289","stopCode":"1289","lon":-71.066163,"lat":48.428677,"arrival":1522703460000,"departure":1522703700000,"zoneId":"NA","stopIndex":0,"stopSequence":1,"vertexType":"TRANSIT"},"to":{"name":"St-Émile / Madeleine","stopId":"1:811","stopCode":"811","lon":-71.045248,"lat":48.445626,"arrival":1522704188000,"departure":1522704189000,"zoneId":"NA","stopIndex":8,"stopSequence":9,"vertexType":"TRANSIT"},"legGeometry":{"points":"evqfHzcwpLg@?EhBO~GoBKCp@O\\WjGOfGCRK^KJMHQB_AMg@Gm\\wO]i@wAyA_@WUKMEwEm@Js@Da@??@@??@?@???@???@?@??A@???@A@??A@??A@A??@A?A??@A?A?A?A@A?A???A?A?A???A?A?A?A???A?AAA?A???AAA?A??AA?AA??AA??A??AA??A??AA?A???A????q@C{AAaB?mAEcAGs@OoAa@sB[kAYcASq@Ok@Qq@Ku@MoBKmAa@eHi@FKC_@I??iE}Ah@}DH}@?c@Ea@[_BA?My@Cm@?Y@g@Hu@b@sD\\_DBSyHsC_@MBQA}@IwAUoAcAkCWo@qDgJg@cBk@uBi@sC]aCWwCiKuD","length":140},"routeShortName":"24","routeLongName":"Saint-Luc","rentedBike":false,"transitLeg":true,"duration":488.0,"steps":[]},{"startTime":1522704189000,"endTime":1522704328000,"departureDelay":0,"arrivalDelay":0,"realTime":false,"distance":171.505,"pathway":false,"mode":"WALK","route":"","agencyTimeZoneOffset":-14400000,"interlineWithPreviousLeg":false,"from":{"name":"St-Émile / Madeleine","stopId":"1:811","stopCode":"811","lon":-71.045248,"lat":48.445626,"arrival":1522704188000,"departure":1522704189000,"zoneId":"NA","stopIndex":8,"stopSequence":9,"vertexType":"TRANSIT"},"to":{"name":"Destination","lon":-71.04645,"lat":48.444985,"arrival":1522704328000,"orig":"","vertexType":"NORMAL"},"legGeometry":{"points":"g`ufHh`spLrAj@i@`ElAf@","length":4},"rentedBike":false,"transitLeg":false,"duration":139.0,"steps":[{"distance":49.309,"relativeDirection":"DEPART","streetName":"Rue Saint-Émile","absoluteDirection":"SOUTH","stayOn":false,"area":false,"bogusName":false,"lon":-71.04532866561726,"lat":48.44564391364887,"elevation":[]},{"distance":75.991,"relativeDirection":"RIGHT","streetName":"Rue de Saint-Malo","absoluteDirection":"WEST","stayOn":false,"area":false,"bogusName":false,"lon":-71.0455409,"lat":48.4452234,"elevation":[]},{"distance":46.205,"relativeDirection":"LEFT","streetName":"Rue Sainte-Hélène","absoluteDirection":"SOUTH","stayOn":false,"area":false,"bogusName":false,"lon":-71.0465191,"lat":48.4454379,"elevation":[]}]}],"tooSloped":false},{"duration":2450,"startTime":1522703855000,"endTime":1522706305000,"walkTime":866,"transitTime":1582,"waitingTime":2,"walkDistance":1123.373421050424,"walkLimitExceeded":false,"elevationLost":0.0,"elevationGained":0.0,"transfers":0,"legs":[{"startTime":1522703855000,"endTime":1522704300000,"departureDelay":0,"arrivalDelay":0,"realTime":false,"distance":578.768,"pathway":false,"mode":"WALK","route":"","agencyTimeZoneOffset":-14400000,"interlineWithPreviousLeg":false,"from":{"name":"Origin","lon":-71.106464,"lat":48.395542,"departure":1522703855000,"orig":"","vertexType":"NORMAL"},"to":{"name":"boul. St-Paul / Actionnaires","stopId":"1:270","stopCode":"270","lon":-71.10171,"lat":48.399676,"arrival":1522704300000,"departure":1522704301000,"zoneId":"NA","stopIndex":28,"stopSequence":29,"vertexType":"TRANSIT"},"legGeometry":{"points":"_gkfHf~~pLGGUI}CoD{@cAaCiC_@a@w@_ACECCkBsBIKSWgFaG","length":14},"rentedBike":false,"transitLeg":false,"duration":445.0,"steps":[{"distance":578.768,"relativeDirection":"DEPART","streetName":"Boulevard Saint-Paul","absoluteDirection":"NORTHEAST","stayOn":false,"area":false,"bogusName":false,"lon":-71.10643584835762,"lat":48.395529475492026,"elevation":[]}]},{"startTime":1522704301000,"endTime":1522704840000,"departureDelay":0,"arrivalDelay":0,"realTime":false,"distance":4243.602006473466,"pathway":false,"mode":"BUS","route":"60","agencyName":"Société de Transport du Saguenay","agencyUrl":"http://ville.saguenay.ca/fr/services-aux-citoyens/transport-sts","agencyTimeZoneOffset":-14400000,"routeColor":"00FFFF","routeType":3,"routeId":"1:60","routeTextColor":"000000","interlineWithPreviousLeg":false,"tripBlockId":"107","headsign":"Terminus Chicoutimi","agencyId":"0","tripId":"1:218824","serviceDate":"20180402","from":{"name":"boul. St-Paul / Actionnaires","stopId":"1:270","stopCode":"270","lon":-71.10171,"lat":48.399676,"arrival":1522704300000,"departure":1522704301000,"zoneId":"NA","stopIndex":28,"stopSequence":29,"vertexType":"TRANSIT"},"to":{"name":"Terminus Chicoutimi","stopId":"1:1289","stopCode":"1289","lon":-71.066163,"lat":48.428677,"arrival":1522704840000,"departure":1522705500000,"zoneId":"NA","stopIndex":34,"stopSequence":35,"vertexType":"TRANSIT"},"legGeometry":{"points":"kalfHpa~pLuGwHoB_C_DqDwGwHkKwLmG{H}D_GoJqNeEkGYc@qFoIcAcBk@_B[mAg@wDo@wDo@mBcBkDwFgI_B{Bw@kAgJsJkJmJwFsFsEuFyA{BwAqAwA_@aDQwNjACmCeDHkBFJiEPiI@kAeAKiAGi@EPmHCoBh@]","length":43},"routeShortName":"60","routeLongName":"Portage des Roches Nord","rentedBike":false,"transitLeg":true,"duration":539.0,"steps":[]},{"startTime":1522705500000,"endTime":1522705883000,"departureDelay":0,"arrivalDelay":0,"realTime":false,"distance":2240.0045718936785,"pathway":false,"mode":"BUS","route":"26","agencyName":"Société de Transport du Saguenay","agencyUrl":"http://ville.saguenay.ca/fr/services-aux-citoyens/transport-sts","agencyTimeZoneOffset":-14400000,"routeColor":"00FFFF","routeType":3,"routeId":"1:26","routeTextColor":"000000","interlineWithPreviousLeg":true,"tripBlockId":"107","headsign":"Terminus Chicoutimi","agencyId":"0","tripId":"1:218825","serviceDate":"20180402","from":{"name":"Terminus Chicoutimi","stopId":"1:1289","stopCode":"1289","lon":-71.066163,"lat":48.428677,"arrival":1522704840000,"departure":1522705500000,"zoneId":"NA","stopIndex":0,"stopSequence":1,"vertexType":"TRANSIT"},"to":{"name":"boul. Tadoussac (no. 1845)","stopId":"1:810","stopCode":"810","lon":-71.051242,"lat":48.441837,"arrival":1522705883000,"departure":1522705884000,"zoneId":"NA","stopIndex":5,"stopSequence":6,"vertexType":"TRANSIT"},"legGeometry":{"points":"avqfH``wpLc@E@o@kAOYCm@rRO\\WjGOfGCRK^KJMHQB_AMg@Gm\\wO]i@wAyA_@WUKMEwEm@Js@Da@??@@??@?@???@???@?@??A@???@A@??A@??A@A??@A?A??@A?A?A?A@A?A???A?A?A???A?A?A?A???A?AAA?A???AAA?A??AA?AA??AA??A??AA??A??AA?A???A????q@C{AAaB?mAEcAGs@OoAa@sB[kAYcASq@Ok@Qq@Ku@MoBiC}@yBu@AAyBu@o@Qs@[YSSUY]Ye@]{@Me@Kg@K{@CQm@_IEs@Cq@Aw@Do@LyAJ_ADYBUf@wDRaBHqABQA}@IwAUoAcAkCWo@","length":137},"routeShortName":"26","routeLongName":"St-Fulgence","rentedBike":false,"transitLeg":true,"duration":383.0,"steps":[]},{"startTime":1522705884000,"endTime":1522706305000,"departureDelay":0,"arrivalDelay":0,"realTime":false,"distance":544.537,"pathway":false,"mode":"WALK","route":"","agencyTimeZoneOffset":-14400000,"interlineWithPreviousLeg":false,"from":{"name":"boul. Tadoussac (no. 1845)","stopId":"1:810","stopCode":"810","lon":-71.051242,"lat":48.441837,"arrival":1522705883000,"departure":1522705884000,"zoneId":"NA","stopIndex":5,"stopSequence":6,"vertexType":"TRANSIT"},"to":{"name":"Destination","lon":-71.04645,"lat":48.444985,"arrival":1522706305000,"orig":"","vertexType":"NORMAL"},"legGeometry":{"points":"uhtfHpetpLuAkD_AaCYw@GQUs@]qAc@eBAE[eBWcBgBl@CQESEKOIwBu@s@Y","length":18},"rentedBike":false,"transitLeg":false,"duration":421.0,"steps":[{"distance":354.526,"relativeDirection":"DEPART","streetName":"Boulevard de Tadoussac","absoluteDirection":"NORTHEAST","stayOn":false,"area":false,"bogusName":false,"lon":-71.05128079749537,"lat":48.44187102242561,"elevation":[]},{"distance":60.309,"relativeDirection":"LEFT","streetName":"path","absoluteDirection":"NORTH","stayOn":false,"area":false,"bogusName":true,"lon":-71.04718650000001,"lat":48.4435043,"elevation":[]},{"distance":129.702,"relativeDirection":"RIGHT","streetName":"Rue Sainte-Hélène","absoluteDirection":"EAST","stayOn":false,"area":false,"bogusName":false,"lon":-71.04741010000001,"lat":48.444026,"elevation":[]}]}],"tooSloped":false}]},"debugOutput":{"precalculationTime":9,"pathCalculationTime":23,"pathTimes":[15,4,4],"renderingTime":0,"totalTime":32,"timedOut":false},"elevationMetadata":{"ellipsoidToGeoidDifference":-28.885904201182168,"geoidElevation":false}}