{"requestParameters":{"date":"2018/04/02","walkSpeed":"1.33","walkReluctance":"2.0","fromPlace":"48.444985,-71.04645","maxWalkDistance":"3000","waitReluctance":"1.0","carSpeed":"33","numItineraries":"3","waitAtBeginningFactor":"0.4","mode":"TRANSIT,WALK","ignoreRealtimeUpdates":"false","stairsReluctance":"2.0","toPlace":"48.440449,-71.060189","time":"18:0:00"},"plan":{"date":1522706400000,"from":{"name":"Origin","lon":-71.04645,"lat":48.444985,"orig":"","vertexType":"NORMAL"},"to":{"name":"Destination","lon":-71.060189,"lat":48.440449,"orig":"","vertexType":"NORMAL"},"itineraries":[{"duration":1079,"startTime":1522706400000,"endTime":1522707479000,"walkTime":1079,"transitTime":0,"waitingTime":0,"walkDistance":1387.1754360845969,"walkLimitExceeded":false,"elevationLost":0.0,"elevationGained":0.0,"transfers":0,"legs":[{"startTime":1522706400000,"endTime":1522707479000,"departureDelay":0,"arrivalDelay":0,"realTime":false,"distance":1387.0009999999997,"pathway":false,"mode":"WALK","route":"","agencyTimeZoneOffset":-14400000,"interlineWithPreviousLeg":false,"from":{"name":"Origin","lon":-71.04645,"lat":48.444985,"departure":1522706400000,"orig":"","vertexType":"NORMAL"},"to":{"name":"Destination","lon":-71.060189,"lat":48.440449,"arrival":1522707479000,"orig":"","vertexType":"NORMAL"},"legGeometry":{"points":"o|tfH~hspLr@XvBt@NHDJDRBPfBm@VbBZdB@Db@dB\\pATr@FPXv@~@`CtAjDHNLZn@fBNb@Jb@@HBL@HFb@Dt@?b@?F?j@AJAXCVIx@Gb@E\\QnAWlBIh@G^G\\E`@Gj@Cv@@h@@d@Bj@B^@LDp@RdBVbDD^BPF\\BL@FL`@BJLZRd@@BT^V\\@?d@h@zAn@P_B","length":69},"rentedBike":false,"transitLeg":false,"duration":1079.0,"steps":[{"distance":129.702,"relativeDirection":"DEPART","streetName":"Rue Sainte-Hélène","absoluteDirection":"SOUTH","stayOn":false,"area":false,"bogusName":false,"lon":-71.04671600441196,"lat":48.44504342452526,"elevation":[]},{"distance":60.309,"relativeDirection":"LEFT","streetName":"path","absoluteDirection":"SOUTH","stayOn":false,"area":false,"bogusName":true,"lon":-71.04741010000001,"lat":48.444026,"elevation":[]},{"distance":1159.879,"relativeDirection":"RIGHT","streetName":"Boulevard de Tadoussac","absoluteDirection":"WEST","stayOn":false,"area":false,"bogusName":false,"lon":-71.04718650000001,"lat":48.4435043,"elevation":[]},{"distance":37.111,"relativeDirection":"LEFT","streetName":"Rue De Bienville","absoluteDirection":"EAST","stayOn":false,"area":false,"bogusName":false,"lon":-71.0607978,"lat":48.4402594,"elevation":[]}]}],"tooSloped":false},{"duration":632,"startTime":1522707891000,"endTime":1522708523000,"walkTime":479,"transitTime":151,"waitingTime":2,"walkDistance":612.4001278162858,"walkLimitExceeded":false,"elevationLost":0.0,"elevationGained":0.0,"transfers":0,"legs":[{"startTime":1522707891000,"endTime":1522708244000,"departureDelay":0,"arrivalDelay":0,"realTime":false,"distance":452.135,"pathway":false,"mode":"WALK","route":"","agencyTimeZoneOffset":-14400000,"interlineWithPreviousLeg":false,"from":{"name":"Origin","lon":-71.04645,"lat":48.444985,"departure":1522707891000,"orig":"","vertexType":"NORMAL"},"to":{"name":"boul. Tadoussac (no. 1528)","stopId":"1:146","stopCode":"146","lon":-71.043731,"lat":48.444067,"arrival":1522708244000,"departure":1522708245000,"zoneId":"NA","stopIndex":29,"stopSequence":30,"vertexType":"TRANSIT"},"legGeometry":{"points":"o|tfH~hspLr@XvBt@NHDJDRBPfBm@AIOoAGc@Iw@IeCCe@AU[cFG{A","length":17},"rentedBike":false,"transitLeg":false,"duration":353.0,"steps":[{"distance":129.702,"relativeDirection":"DEPART","streetName":"Rue Sainte-Hélène","absoluteDirection":"SOUTH","stayOn":false,"area":false,"bogusName":false,"lon":-71.04671600441196,"lat":48.44504342452526,"elevation":[]},{"distance":60.309,"relativeDirection":"LEFT","streetName":"path","absoluteDirection":"SOUTH","stayOn":false,"area":false,"bogusName":true,"lon":-71.04741010000001,"lat":48.444026,"elevation":[]},{"distance":262.124,"relativeDirection":"LEFT","streetName":"Boulevard de Tadoussac","absoluteDirection":"EAST","stayOn":false,"area":false,"bogusName":false,"lon":-71.04718650000001,"lat":48.4435043,"elevation":[]}]},{"startTime":1522708245000,"endTime":1522708396000,"departureDelay":0,"arrivalDelay":0,"realTime":false,"distance":1500.519237106128,"pathway":false,"mode":"BUS","route":"26","agencyName":"Société de Transport du Saguenay","agencyUrl":"http://ville.saguenay.ca/fr/services-aux-citoyens/transport-sts","agencyTimeZoneOffset":-14400000,"routeColor":"00FFFF","routeType":3,"routeId":"1:26","routeTextColor":"000000","interlineWithPreviousLeg":false,"tripBlockId":"107","headsign":"Terminus Chicoutimi","agencyId":"0","tripId":"1:218825","serviceDate":"20180402","from":{"name":"boul. Tadoussac (no. 1528)","stopId":"1:146","stopCode":"146","lon":-71.043731,"lat":48.444067,"arrival":1522708244000,"departure":1522708245000,"zoneId":"NA","stopIndex":29,"stopSequence":30,"vertexType":"TRANSIT"},"to":{"name":"boul. Tadoussac / Bourget","stopId":"1:831","stopCode":"831","lon":-71.061384,"lat":48.43922,"arrival":1522708396000,"departure":1522708397000,"zoneId":"NA","stopIndex":33,"stopSequence":34,"vertexType":"TRANSIT"},"legGeometry":{"points":"sutfHdvrpL@^r@|MVvC\\`Ch@rCj@tBf@bBxDxJN\\bAjCTnAHvA@|@CPIpAS`BQnAUfBCTEXK~@MxAEn@@v@Bp@Dr@l@~HNlAH\\@HLd@\\z@Xd@X\\RTXRr@Zn@PzBv@jA`@","length":41},"routeShortName":"26","routeLongName":"St-Fulgence","rentedBike":false,"transitLeg":true,"duration":151.0,"steps":[]},{"startTime":1522708397000,"endTime":1522708523000,"departureDelay":0,"arrivalDelay":0,"realTime":false,"distance":160.164,"pathway":false,"mode":"WALK","route":"","agencyTimeZoneOffset":-14400000,"interlineWithPreviousLeg":false,"from":{"name":"boul. Tadoussac / Bourget","stopId":"1:831","stopCode":"831","lon":-71.061384,"lat":48.43922,"arrival":1522708396000,"departure":1522708397000,"zoneId":"NA","stopIndex":33,"stopSequence":34,"vertexType":"TRANSIT"},"to":{"name":"Destination","lon":-71.060189,"lat":48.440449,"arrival":1522708523000,"orig":"","vertexType":"NORMAL"},"legGeometry":{"points":"}wsfH|cvpLiA_@CAeC{@P_B","length":5},"rentedBike":false,"transitLeg":false,"duration":126.0,"steps":[{"distance":123.053,"relativeDirection":"DEPART","streetName":"Boulevard de Tadoussac","absoluteDirection":"NORTH","stayOn":false,"area":false,"bogusName":false,"lon":-71.06126606265329,"lat":48.43919724946793,"elevation":[]},{"distance":37.111,"relativeDirection":"RIGHT","streetName":"Rue De Bienville","absoluteDirection":"EAST","stayOn":false,"area":false,"bogusName":false,"lon":-71.0607978,"lat":48.4402594,"elevation":[]}]}],"tooSloped":false},{"duration":575,"startTime":1522708164000,"endTime":1522708739000,"walkTime":365,"transitTime":208,"waitingTime":2,"walkDistance":458.66585713824753,"walkLimitExceeded":false,"elevationLost":0.0,"elevationGained":0.0,"transfers":0,"legs":[{"startTime":1522708164000,"endTime":1522708403000,"departureDelay":0,"arrivalDelay":0,"realTime":false,"distance":298.359,"pathway":false,"mode":"WALK","route":"","agencyTimeZoneOffset":-14400000,"interlineWithPreviousLeg":false,"from":{"name":"Origin","lon":-71.04645,"lat":48.444985,"departure":1522708164000,"orig":"","vertexType":"NORMAL"},"to":{"name":"St-Émile / boul. Tadoussac","stopId":"1:828","stopCode":"828","lon":-71.046279,"lat":48.44333,"arrival":1522708403000,"departure":1522708404000,"zoneId":"NA","stopIndex":26,"stopSequence":27,"vertexType":"TRANSIT"},"legGeometry":{"points":"o|tfH~hspLr@XvBt@NHDJDRBPfBm@AIOoAGc@Iw@bAV","length":13},"rentedBike":false,"transitLeg":false,"duration":239.0,"steps":[{"distance":129.702,"relativeDirection":"DEPART","streetName":"Rue Sainte-Hélène","absoluteDirection":"SOUTH","stayOn":false,"area":false,"bogusName":false,"lon":-71.04671600441196,"lat":48.44504342452526,"elevation":[]},{"distance":60.309,"relativeDirection":"LEFT","streetName":"path","absoluteDirection":"SOUTH","stayOn":false,"area":false,"bogusName":true,"lon":-71.04741010000001,"lat":48.444026,"elevation":[]},{"distance":70.283,"relativeDirection":"LEFT","streetName":"Boulevard de Tadoussac","absoluteDirection":"EAST","stayOn":false,"area":false,"bogusName":false,"lon":-71.04718650000001,"lat":48.4435043,"elevation":[]},{"distance":38.065,"relativeDirection":"HARD_RIGHT","streetName":"Rue Saint-Émile","absoluteDirection":"SOUTH","stayOn":false,"area":false,"bogusName":false,"lon":-71.0462723,"lat":48.4436814,"elevation":[]}]},{"startTime":1522708404000,"endTime":1522708612000,"departureDelay":0,"arrivalDelay":0,"realTime":false,"distance":1295.4982974514933,"pathway":false,"mode":"BUS","route":"24","agencyName":"Société de Transport du Saguenay","agencyUrl":"http://ville.saguenay.ca/fr/services-aux-citoyens/transport-sts","agencyTimeZoneOffset":-14400000,"routeColor":"00FF00","routeType":3,"routeId":"1:24","routeTextColor":"000000","interlineWithPreviousLeg":false,"tripBlockId":"5","headsign":"Terminus Chicoutimi","agencyId":"0","tripId":"1:217273","serviceDate":"20180402","from":{"name":"St-Émile / boul. Tadoussac","stopId":"1:828","stopCode":"828","lon":-71.046279,"lat":48.44333,"arrival":1522708403000,"departure":1522708404000,"zoneId":"NA","stopIndex":26,"stopSequence":27,"vertexType":"TRANSIT"},"to":{"name":"boul. Tadoussac / Bourget","stopId":"1:831","stopCode":"831","lon":-71.061384,"lat":48.43922,"arrival":1522708612000,"departure":1522708613000,"zoneId":"NA","stopIndex":30,"stopSequence":31,"vertexType":"TRANSIT"},"legGeometry":{"points":"}qtfH`gspL_A]VvC\\`Ch@rCj@tBf@bBxDxJN\\bAjCTnAHvA@|@CPIpAe@pDUfBCTEXK~@MxAEn@@v@Bp@Dr@l@~HNlAH\\@HLd@\\z@Xd@X\\RTXRr@Zn@PfExA","length":38},"routeShortName":"24","routeLongName":"Saint-Luc","rentedBike":false,"transitLeg":true,"duration":208.0,"steps":[]},{"startTime":1522708613000,"endTime":1522708739000,"departureDelay":0,"arrivalDelay":0,"realTime":false,"distance":160.164,"pathway":false,"mode":"WALK","route":"","agencyTimeZoneOffset":-14400000,"interlineWithPreviousLeg":false,"from":{"name":"boul. Tadoussac / Bourget","stopId":"1:831","stopCode":"831","lon":-71.061384,"lat":48.43922,"arrival":1522708612000,"departure":1522708613000,"zoneId":"NA","stopIndex":30,"stopSequence":31,"vertexType":"TRANSIT"},"to":{"name":"Destination","lon":-71.060189,"lat":48.440449,"arrival":1522708739000,"orig":"","vertexType":"NORMAL"},"legGeometry":{"points":"}wsfH|cvpLiA_@CAeC{@P_B","length":5},"rentedBike":false,"transitLeg":false,"duration":126.0,"steps":[{"distance":123.053,"relativeDirection":"DEPART","streetName":"Boulevard de Tadoussac","absoluteDirection":"NORTH","stayOn":false,"area":false,"bogusName":false,"lon":-71.06126606265329,"lat":48.43919724946793,"elevation":[]},{"distance":37.111,"relativeDirection":"RIGHT","streetName":"Rue De Bienville","absoluteDirection":"EAST","stayOn":false,"area":false,"bogusName":false,"lon":-71.0607978,"lat":48.4402594,"elevation":[]}]}],"tooSloped":false}]},"debugOutput":{"precalculationTime":19,"pathCalculationTime":17,"pathTimes":[12,4,1],"renderingTime":0,"totalTime":36,"timedOut":false},"elevationMetadata":{"ellipsoidToGeoidDifference":-28.885904201182168,"geoidElevation":false}}