{"requestParameters":{"date":"2018/04/02","walkSpeed":"1.33","walkReluctance":"2.0","fromPlace":"48.443974,-71.049021","maxWalkDistance":"3000","waitReluctance":"1.0","carSpeed":"33","numItineraries":"3","waitAtBeginningFactor":"0.4","mode":"TRANSIT,WALK","ignoreRealtimeUpdates":"false","stairsReluctance":"2.0","toPlace":"48.426905,-71.048929","time":"6:30:00"},"plan":{"date":1522665000000,"from":{"name":"Origin","lon":-71.049021,"lat":48.443974,"orig":"","vertexType":"NORMAL"},"to":{"name":"Destination","lon":-71.048929,"lat":48.426905,"orig":"","vertexType":"NORMAL"},"itineraries":[{"duration":1354,"startTime":1522666697000,"endTime":1522668051000,"walkTime":296,"transitTime":816,"waitingTime":242,"walkDistance":378.04958646343607,"walkLimitExceeded":false,"elevationLost":0.0,"elevationGained":0.0,"transfers":1,"legs":[{"startTime":1522666697000,"endTime":1522666943000,"departureDelay":0,"arrivalDelay":0,"realTime":false,"distance":312.291,"pathway":false,"mode":"WALK","route":"","agencyTimeZoneOffset":-14400000,"interlineWithPreviousLeg":false,"from":{"name":"Origin","lon":-71.049021,"lat":48.443974,"departure":1522666697000,"orig":"","vertexType":"NORMAL"},"to":{"name":"St-Émile / boul. Tadoussac","stopId":"1:828","stopCode":"828","lon":-71.046279,"lat":48.44333,"arrival":1522666943000,"departure":1522666944000,"zoneId":"NA","stopIndex":26,"stopSequence":27,"vertexType":"TRANSIT"},"legGeometry":{"points":"eutfHtxspLBCBEFMBIB[A_@Gm@WeCQmAAIfBm@AIOoAGc@Iw@bAV","length":17},"rentedBike":false,"transitLeg":false,"duration":246.0,"steps":[{"distance":143.634,"relativeDirection":"DEPART","streetName":"Rue Sainte-Hélène","absoluteDirection":"SOUTHEAST","stayOn":false,"area":false,"bogusName":false,"lon":-71.04922825367005,"lat":48.44387942318184,"elevation":[]},{"distance":60.309,"relativeDirection":"RIGHT","streetName":"path","absoluteDirection":"SOUTH","stayOn":false,"area":false,"bogusName":true,"lon":-71.04741010000001,"lat":48.444026,"elevation":[]},{"distance":70.283,"relativeDirection":"LEFT","streetName":"Boulevard de Tadoussac","absoluteDirection":"EAST","stayOn":false,"area":false,"bogusName":false,"lon":-71.04718650000001,"lat":48.4435043,"elevation":[]},{"distance":38.065,"relativeDirection":"HARD_RIGHT","streetName":"Rue Saint-Émile","absoluteDirection":"SOUTH","stayOn":false,"area":false,"bogusName":false,"lon":-71.0462723,"lat":48.4436814,"elevation":[]}]},{"startTime":1522666944000,"endTime":1522667460000,"departureDelay":0,"arrivalDelay":0,"realTime":false,"distance":3215.2466636012887,"pathway":false,"mode":"BUS","route":"24","agencyName":"Société de Transport du Saguenay","agencyUrl":"http://ville.saguenay.ca/fr/services-aux-citoyens/transport-sts","agencyTimeZoneOffset":-14400000,"routeColor":"00FF00","routeType":3,"routeId":"1:24","routeTextColor":"000000","interlineWithPreviousLeg":false,"tripBlockId":"4","headsign":"Terminus Chicoutimi","agencyId":"0","tripId":"1:217223","serviceDate":"20180402","from":{"name":"St-Émile / boul. Tadoussac","stopId":"1:828","stopCode":"828","lon":-71.046279,"lat":48.44333,"arrival":1522666943000,"departure":1522666944000,"zoneId":"NA","stopIndex":26,"stopSequence":27,"vertexType":"TRANSIT"},"to":{"name":"Terminus Chicoutimi","stopId":"1:1289","stopCode":"1289","lon":-71.066163,"lat":48.428677,"arrival":1522667460000,"departure":1522667700000,"zoneId":"NA","stopIndex":35,"stopSequence":36,"vertexType":"TRANSIT"},"legGeometry":{"points":"}qtfH`gspL_A]VvC\\`Ch@rCj@tBf@bBxDxJN\\bAjCTnAHvA@|@CPIpAe@pDUfBCTEXK~@MxAEn@@v@Bp@Dr@l@~HNlAH\\@HLd@\\z@Xd@X\\RTXRr@Zn@PfExAvDpALnBJt@Pp@Nj@l@tBHZPn@`@rBNnAFr@DbA?bB@jABzA?p@A???A???A?A???A@??A?A@??A@?@A??@A@???@A@?@?@A@?@?@?@?@???@?@?@?@?@?@@@?@?@@@?@@@?@@@?@@?@@??@@@?E`@Kr@]rACVEl@I|AAr@JbAWJe@FUAM?a@Ke@YYWWa@v@}@RQPMz@k@tAe@REZG^Af@@X@VF`@Jn@XbClAr@Xt\\`PrAb@pA^hBTjAFj@Pb@JPHLLJNJRFXDT?X?ZEVEVKTMNMHMFOB}DWSGOSYcAN}FFkAF}DJyDPwGvAHN_HDiB@m@","length":168},"routeShortName":"24","routeLongName":"Saint-Luc","rentedBike":false,"transitLeg":true,"duration":516.0,"steps":[]},{"startTime":1522667700000,"endTime":1522668000000,"departureDelay":0,"arrivalDelay":0,"realTime":false,"distance":1242.678141622333,"pathway":false,"mode":"BUS","route":"175","agencyName":"Société de Transport du Saguenay","agencyUrl":"http://ville.saguenay.ca/fr/services-aux-citoyens/transport-sts","agencyTimeZoneOffset":-14400000,"routeColor":"FF00FF","routeType":3,"routeId":"1:175","routeTextColor":"FFFFFF","interlineWithPreviousLeg":false,"tripBlockId":"7","headsign":"Costco","agencyId":"0","tripId":"1:217322","serviceDate":"20180402","from":{"name":"Terminus Chicoutimi","stopId":"1:1289","stopCode":"1289","lon":-71.066163,"lat":48.428677,"arrival":1522667460000,"departure":1522667700000,"zoneId":"NA","stopIndex":0,"stopSequence":1,"vertexType":"TRANSIT"},"to":{"name":"Hôpital de Chicoutimi (Saint-Vallier)","stopId":"1:342","stopCode":"342","lon":-71.050416,"lat":48.426429,"arrival":1522668000000,"departure":1522668001000,"zoneId":"NA","stopIndex":6,"stopSequence":7,"vertexType":"TRANSIT"},"legGeometry":{"points":"kvqfH~awpL~CgBbAqa@FwCBkAOsHAg@bAYUwMKoE@mB@kJ@iFbEf@","length":14},"routeShortName":"175","routeLongName":"Term. Chic / Costco","rentedBike":false,"transitLeg":true,"duration":300.0,"steps":[]},{"startTime":1522668001000,"endTime":1522668051000,"departureDelay":0,"arrivalDelay":0,"realTime":false,"distance":65.674,"pathway":false,"mode":"WALK","route":"","agencyTimeZoneOffset":-14400000,"interlineWithPreviousLeg":false,"from":{"name":"Hôpital de Chicoutimi (Saint-Vallier)","stopId":"1:342","stopCode":"342","lon":-71.050416,"lat":48.426429,"arrival":1522668000000,"departure":1522668001000,"zoneId":"NA","stopIndex":6,"stopSequence":7,"vertexType":"TRANSIT"},"to":{"name":"Destination","lon":-71.048929,"lat":48.426905,"arrival":1522668051000,"orig":"","vertexType":"NORMAL"},"legGeometry":{"points":"ahqfHd_tpLqBUC?","length":3},"rentedBike":false,"transitLeg":false,"duration":50.0,"steps":[{"distance":65.674,"relativeDirection":"DEPART","streetName":"Rue Saint-Vallier","absoluteDirection":"NORTH","stayOn":false,"area":false,"bogusName":false,"lon":-71.05026027647143,"lat":48.426416552989835,"elevation":[]}]}],"tooSloped":false},{"duration":1925,"startTime":1522666126000,"endTime":1522668051000,"walkTime":553,"transitTime":770,"waitingTime":602,"walkDistance":709.7091804471853,"walkLimitExceeded":false,"elevationLost":0.0,"elevationGained":0.0,"transfers":1,"legs":[{"startTime":1522666126000,"endTime":1522666629000,"departureDelay":0,"arrivalDelay":0,"realTime":false,"distance":643.913,"pathway":false,"mode":"WALK","route":"","agencyTimeZoneOffset":-14400000,"interlineWithPreviousLeg":false,"from":{"name":"Origin","lon":-71.049021,"lat":48.443974,"departure":1522666126000,"orig":"","vertexType":"NORMAL"},"to":{"name":"Verdun / St-Éloi","stopId":"1:794","stopCode":"794","lon":-71.053519,"lat":48.446152,"arrival":1522666629000,"departure":1522666630000,"zoneId":"NA","stopIndex":16,"stopSequence":17,"vertexType":"TRANSIT"},"legGeometry":{"points":"eutfHtxspLA@GFE@OBO?[A]?EVO^M^W^cBxAM@OAOMo@gC{@R{AdBDH@NCLGJvBhEa@bEBj@EBEJCTE^Gf@CXEX","length":33},"rentedBike":false,"transitLeg":false,"duration":503.0,"steps":[{"distance":60.044,"relativeDirection":"DEPART","streetName":"Rue Sainte-Hélène","absoluteDirection":"NORTH","stayOn":false,"area":false,"bogusName":false,"lon":-71.04922825367005,"lat":48.44387942318184,"elevation":[]},{"distance":205.326,"relativeDirection":"LEFT","streetName":"Rue Daudet","absoluteDirection":"NORTHWEST","stayOn":false,"area":false,"bogusName":false,"lon":-71.04929030000001,"lat":48.444408,"elevation":[]},{"distance":98.053,"relativeDirection":"LEFT","streetName":"path","absoluteDirection":"NORTH","stayOn":false,"area":false,"bogusName":true,"lon":-71.04959480000001,"lat":48.4456745,"elevation":[]},{"distance":214.881,"relativeDirection":"UTURN_LEFT","streetName":"path","absoluteDirection":"SOUTHWEST","stayOn":true,"area":false,"bogusName":true,"lon":-71.05046250000001,"lat":48.4464551,"elevation":[]},{"distance":65.60900000000001,"relativeDirection":"SLIGHTLY_RIGHT","streetName":"Rue de Verdun","absoluteDirection":"NORTHWEST","stayOn":false,"area":false,"bogusName":false,"lon":-71.05267160000001,"lat":48.446006600000004,"elevation":[]}]},{"startTime":1522666630000,"endTime":1522667100000,"departureDelay":0,"arrivalDelay":0,"realTime":false,"distance":3054.7698287012436,"pathway":false,"mode":"BUS","route":"23","agencyName":"Société de Transport du Saguenay","agencyUrl":"http://ville.saguenay.ca/fr/services-aux-citoyens/transport-sts","agencyTimeZoneOffset":-14400000,"routeColor":"FF00FF","routeType":3,"routeId":"1:23","routeTextColor":"FFFFFF","interlineWithPreviousLeg":false,"tripBlockId":"5","headsign":"Terminus Chicoutimi","agencyId":"0","tripId":"1:217250","serviceDate":"20180402","from":{"name":"Verdun / St-Éloi","stopId":"1:794","stopCode":"794","lon":-71.053519,"lat":48.446152,"arrival":1522666629000,"departure":1522666630000,"zoneId":"NA","stopIndex":16,"stopSequence":17,"vertexType":"TRANSIT"},"to":{"name":"Terminus Chicoutimi","stopId":"1:1289","stopCode":"1289","lon":-71.066163,"lat":48.428677,"arrival":1522667100000,"departure":1522667700000,"zoneId":"NA","stopIndex":26,"stopSequence":27,"vertexType":"TRANSIT"},"legGeometry":{"points":"ycufHhstpLF_@R{AFWFMPIPC`@BT@V?TAVKLENCLCJ@J@xAb@x@Zz@\\CP?R@N@NFLFF`GtBx@Xw@pG@l@B\\DXL\\RZDFXPf@N@v@Bp@Dr@l@~HNlAH\\@HLd@\\z@Xd@X\\RTXRr@Zn@PfExAvDpALnBJt@Pp@|@`DHZPn@`@rBNnAFr@DbA?bB@jABzA?p@A???A???A?A???A@??A?A@??A@?@A??@A@???@A@?@?@A@?@?@?@?@???@?@?@?@?@?@@@?@?@@@?@@@?@@@?@@?@@??@@@?E`@Kr@]rACVEl@I|AAr@JbAWJe@FUAM?a@Ke@YYWWa@v@}@RQPMz@k@tAe@REZG^Af@@X@VF`@Jn@XbClAr@Xt\\`PrAb@pA^hBTjAFj@Pb@JPHLLJNJRFXDT?X?ZEVEVKTMNMHMFOB}DWSGOSYcAN}FFkAF}DJyDd@wPV_HjAN~ALI`C","length":182},"routeShortName":"23","routeLongName":"Côte Verdun via Aréna du Plateau","rentedBike":false,"transitLeg":true,"duration":470.0,"steps":[]},{"startTime":1522667700000,"endTime":1522668000000,"departureDelay":0,"arrivalDelay":0,"realTime":false,"distance":1242.678141622333,"pathway":false,"mode":"BUS","route":"10","agencyName":"Société de Transport du Saguenay","agencyUrl":"http://ville.saguenay.ca/fr/services-aux-citoyens/transport-sts","agencyTimeZoneOffset":-14400000,"routeColor":"0000FF","routeType":3,"routeId":"1:10","routeTextColor":"FFFFFF","interlineWithPreviousLeg":false,"tripBlockId":"29","headsign":"Terminus UQAC","agencyId":"0","tripId":"1:218053","serviceDate":"20180402","from":{"name":"Terminus Chicoutimi","stopId":"1:1289","stopCode":"1289","lon":-71.066163,"lat":48.428677,"arrival":1522667100000,"departure":1522667700000,"zoneId":"NA","stopIndex":0,"stopSequence":1,"vertexType":"TRANSIT"},"to":{"name":"Hôpital de Chicoutimi (Saint-Vallier)","stopId":"1:342","stopCode":"342","lon":-71.050416,"lat":48.426429,"arrival":1522668000000,"departure":1522668001000,"zoneId":"NA","stopIndex":6,"stopSequence":7,"vertexType":"TRANSIT"},"legGeometry":{"points":"svqfHnbwpLDmCdDZ\\kO`@mQBuCD}DQ_ECk@^Cd@QWkL?m@IuF@gA?eH?cAEuEDO^AjD`@","length":21},"routeShortName":"10","routeLongName":"Notre-Dame du Saguenay","rentedBike":false,"transitLeg":true,"duration":300.0,"steps":[]},{"startTime":1522668001000,"endTime":1522668051000,"departureDelay":0,"arrivalDelay":0,"realTime":false,"distance":65.674,"pathway":false,"mode":"WALK","route":"","agencyTimeZoneOffset":-14400000,"interlineWithPreviousLeg":false,"from":{"name":"Hôpital de Chicoutimi (Saint-Vallier)","stopId":"1:342","stopCode":"342","lon":-71.050416,"lat":48.426429,"arrival":1522668000000,"departure":1522668001000,"zoneId":"NA","stopIndex":6,"stopSequence":7,"vertexType":"TRANSIT"},"to":{"name":"Destination","lon":-71.048929,"lat":48.426905,"arrival":1522668051000,"orig":"","vertexType":"NORMAL"},"legGeometry":{"points":"ahqfHd_tpLqBUC?","length":3},"rentedBike":false,"transitLeg":false,"duration":50.0,"steps":[{"distance":65.674,"relativeDirection":"DEPART","streetName":"Rue Saint-Vallier","absoluteDirection":"NORTH","stayOn":false,"area":false,"bogusName":false,"lon":-71.05026027647143,"lat":48.426416552989835,"elevation":[]}]}],"tooSloped":false},{"duration":1474,"startTime":1522668377000,"endTime":1522669851000,"walkTime":296,"transitTime":936,"waitingTime":242,"walkDistance":378.04958646343607,"walkLimitExceeded":false,"elevationLost":0.0,"elevationGained":0.0,"transfers":1,"legs":[{"startTime":1522668377000,"endTime":1522668623000,"departureDelay":0,"arrivalDelay":0,"realTime":false,"distance":312.291,"pathway":false,"mode":"WALK","route":"","agencyTimeZoneOffset":-14400000,"interlineWithPreviousLeg":false,"from":{"name":"Origin","lon":-71.049021,"lat":48.443974,"departure":1522668377000,"orig":"","vertexType":"NORMAL"},"to":{"name":"St-Émile / boul. Tadoussac","stopId":"1:828","stopCode":"828","lon":-71.046279,"lat":48.44333,"arrival":1522668623000,"departure":1522668624000,"zoneId":"NA","stopIndex":26,"stopSequence":27,"vertexType":"TRANSIT"},"legGeometry":{"points":"eutfHtxspLBCBEFMBIB[A_@Gm@WeCQmAAIfBm@AIOoAGc@Iw@bAV","length":17},"rentedBike":false,"transitLeg":false,"duration":246.0,"steps":[{"distance":143.634,"relativeDirection":"DEPART","streetName":"Rue Sainte-Hélène","absoluteDirection":"SOUTHEAST","stayOn":false,"area":false,"bogusName":false,"lon":-71.04922825367005,"lat":48.44387942318184,"elevation":[]},{"distance":60.309,"relativeDirection":"RIGHT","streetName":"path","absoluteDirection":"SOUTH","stayOn":false,"area":false,"bogusName":true,"lon":-71.04741010000001,"lat":48.444026,"elevation":[]},{"distance":70.283,"relativeDirection":"LEFT","streetName":"Boulevard de Tadoussac","absoluteDirection":"EAST","stayOn":false,"area":false,"bogusName":false,"lon":-71.04718650000001,"lat":48.4435043,"elevation":[]},{"distance":38.065,"relativeDirection":"HARD_RIGHT","streetName":"Rue Saint-Émile","absoluteDirection":"SOUTH","stayOn":false,"area":false,"bogusName":false,"lon":-71.0462723,"lat":48.4436814,"elevation":[]}]},{"startTime":1522668624000,"endTime":1522669260000,"departureDelay":0,"arrivalDelay":0,"realTime":false,"distance":3215.2466636012887,"pathway":false,"mode":"BUS","route":"24","agencyName":"Société de Transport du Saguenay","agencyUrl":"http://ville.saguenay.ca/fr/services-aux-citoyens/transport-sts","agencyTimeZoneOffset":-14400000,"routeColor":"00FF00","routeType":3,"routeId":"1:24","routeTextColor":"000000","interlineWithPreviousLeg":false,"tripBlockId":"5","headsign":"Terminus Chicoutimi","agencyId":"0","tripId":"1:217251","serviceDate":"20180402","from":{"name":"St-Émile / boul. Tadoussac","stopId":"1:828","stopCode":"828","lon":-71.046279,"lat":48.44333,"arrival":1522668623000,"departure":1522668624000,"zoneId":"NA","stopIndex":26,"stopSequence":27,"vertexType":"TRANSIT"},"to":{"name":"Terminus Chicoutimi","stopId":"1:1289","stopCode":"1289","lon":-71.066163,"lat":48.428677,"arrival":1522669260000,"departure":1522669500000,"zoneId":"NA","stopIndex":35,"stopSequence":36,"vertexType":"TRANSIT"},"legGeometry":{"points":"}qtfH`gspL_A]VvC\\`Ch@rCj@tBf@bBxDxJN\\bAjCTnAHvA@|@CPIpAe@pDUfBCTEXK~@MxAEn@@v@Bp@Dr@l@~HNlAH\\@HLd@\\z@Xd@X\\RTXRr@Zn@PfExAvDpALnBJt@Pp@Nj@l@tBHZPn@`@rBNnAFr@DbA?bB@jABzA?p@A???A???A?A???A@??A?A@??A@?@A??@A@???@A@?@?@A@?@?@?@?@???@?@?@?@?@?@@@?@?@@@?@@@?@@@?@@?@@??@@@?E`@Kr@]rACVEl@I|AAr@JbAWJe@FUAM?a@Ke@YYWWa@v@}@RQPMz@k@tAe@REZG^Af@@X@VF`@Jn@XbClAr@Xt\\`PrAb@pA^hBTjAFj@Pb@JPHLLJNJRFXDT?X?ZEVEVKTMNMHMFOB}DWSGOSYcAN}FFkAF}DJyDPwGvAHN_HDiB@m@","length":168},"routeShortName":"24","routeLongName":"Saint-Luc","rentedBike":false,"transitLeg":true,"duration":636.0,"steps":[]},{"startTime":1522669500000,"endTime":1522669800000,"departureDelay":0,"arrivalDelay":0,"realTime":false,"distance":1242.678141622333,"pathway":false,"mode":"BUS","route":"10","agencyName":"Société de Transport du Saguenay","agencyUrl":"http://ville.saguenay.ca/fr/services-aux-citoyens/transport-sts","agencyTimeZoneOffset":-14400000,"routeColor":"0000FF","routeType":3,"routeId":"1:10","routeTextColor":"FFFFFF","interlineWithPreviousLeg":false,"tripBlockId":"26","headsign":"Terminus UQAC","agencyId":"0","tripId":"1:217966","serviceDate":"20180402","from":{"name":"Terminus Chicoutimi","stopId":"1:1289","stopCode":"1289","lon":-71.066163,"lat":48.428677,"arrival":1522669260000,"departure":1522669500000,"zoneId":"NA","stopIndex":0,"stopSequence":1,"vertexType":"TRANSIT"},"to":{"name":"Hôpital de Chicoutimi (Saint-Vallier)","stopId":"1:342","stopCode":"342","lon":-71.050416,"lat":48.426429,"arrival":1522669800000,"departure":1522669801000,"zoneId":"NA","stopIndex":6,"stopSequence":7,"vertexType":"TRANSIT"},"legGeometry":{"points":"svqfHnbwpLDmCdDZ\\kO`@mQBuCD}DQ_ECk@^Cd@QWkL?m@IuF@gA?eH?cAEuEDO^AjD`@","length":21},"routeShortName":"10","routeLongName":"Notre-Dame du Saguenay","rentedBike":false,"transitLeg":true,"duration":300.0,"steps":[]},{"startTime":1522669801000,"endTime":1522669851000,"departureDelay":0,"arrivalDelay":0,"realTime":false,"distance":65.674,"pathway":false,"mode":"WALK","route":"","agencyTimeZoneOffset":-14400000,"interlineWithPreviousLeg":false,"from":{"name":"Hôpital de Chicoutimi (Saint-Vallier)","stopId":"1:342","stopCode":"342","lon":-71.050416,"lat":48.426429,"arrival":1522669800000,"departure":1522669801000,"zoneId":"NA","stopIndex":6,"stopSequence":7,"vertexType":"TRANSIT"},"to":{"name":"Destination","lon":-71.048929,"lat":48.426905,"arrival":1522669851000,"orig":"","vertexType":"NORMAL"},"legGeometry":{"points":"ahqfHd_tpLqBUC?","length":3},"rentedBike":false,"transitLeg":false,"duration":50.0,"steps":[{"distance":65.674,"relativeDirection":"DEPART","streetName":"Rue Saint-Vallier","absoluteDirection":"NORTH","stayOn":false,"area":false,"bogusName":false,"lon":-71.05026027647143,"lat":48.426416552989835,"elevation":[]}]}],"tooSloped":false}]},"debugOutput":{"precalculationTime":27,"pathCalculationTime":25,"pathTimes":[17,4,4],"renderingTime":1,"totalTime":53,"timedOut":false},"elevationMetadata":{"ellipsoidToGeoidDifference":-28.885904201182168,"geoidElevation":false}}