{"requestParameters":{"date":"2018/04/02","walkSpeed":"1.33","walkReluctance":"2.0","fromPlace":"48.455618,-71.115482","maxWalkDistance":"3000","waitReluctance":"1.0","carSpeed":"33","numItineraries":"3","waitAtBeginningFactor":"0.4","mode":"TRANSIT,WALK","ignoreRealtimeUpdates":"false","stairsReluctance":"2.0","toPlace":"48.443974,-71.049021","time":"20:30:00"},"plan":{"date":1522715400000,"from":{"name":"Origin","lon":-71.115482,"lat":48.455618,"orig":"","vertexType":"NORMAL"},"to":{"name":"Destination","lon":-71.049021,"lat":48.443974,"orig":"","vertexType":"NORMAL"},"itineraries":[{"duration":3111,"startTime":1522715828000,"endTime":1522718939000,"walkTime":1619,"transitTime":1190,"waitingTime":302,"walkDistance":2101.216338338271,"walkLimitExceeded":false,"elevationLost":0.0,"elevationGained":0.0,"transfers":1,"legs":[{"startTime":1522715828000,"endTime":1522717097000,"departureDelay":0,"arrivalDelay":0,"realTime":false,"distance":1656.1390000000001,"pathway":false,"mode":"WALK","route":"","agencyTimeZoneOffset":-14400000,"interlineWithPreviousLeg":false,"from":{"name":"Origin","lon":-71.115482,"lat":48.455618,"departure":1522715828000,"orig":"","vertexType":"NORMAL"},"to":{"name":"Chapleau / Ste-Catherine","stopId":"1:691","stopCode":"691","lon":-71.103068,"lat":48.447954,"arrival":1522717097000,"departure":1522717098000,"zoneId":"NA","stopIndex":15,"stopSequence":16,"vertexType":"TRANSIT"},"legGeometry":{"points":"k~vfHzv`qLD]l@cGDc@R_CjAwMN_B@KNcBdAaLVqCFk@N_Bl@{G`@uD~Br@r@}FhA`@nCdAfCd@xBRb@c@|An@`@\\PtARDn@o@zAqA\\OVOPMJEDEFCDGLSPULU?A","length":39},"rentedBike":false,"transitLeg":false,"duration":1269.0,"steps":[{"distance":875.92,"relativeDirection":"DEPART","streetName":"Boulevard Sainte-Geneviève","absoluteDirection":"EAST","stayOn":false,"area":false,"bogusName":false,"lon":-71.11549628839957,"lat":48.45558062682918,"elevation":[]},{"distance":73.975,"relativeDirection":"RIGHT","streetName":"Rue Dumais","absoluteDirection":"SOUTH","stayOn":false,"area":false,"bogusName":false,"lon":-71.10397780000001,"lat":48.453659200000004,"elevation":[]},{"distance":515.768,"relativeDirection":"LEFT","streetName":"path","absoluteDirection":"EAST","stayOn":false,"area":false,"bogusName":true,"lon":-71.1042335,"lat":48.453015900000004,"elevation":[]},{"distance":190.476,"relativeDirection":"LEFT","streetName":"Rue Chapleau","absoluteDirection":"SOUTHEAST","stayOn":false,"area":false,"bogusName":false,"lon":-71.10444170000001,"lat":48.449363700000006,"elevation":[]}]},{"startTime":1522717098000,"endTime":1522717800000,"departureDelay":0,"arrivalDelay":0,"realTime":false,"distance":4911.61122931723,"pathway":false,"mode":"BUS","route":"20","agencyName":"Société de Transport du Saguenay","agencyUrl":"http://ville.saguenay.ca/fr/services-aux-citoyens/transport-sts","agencyTimeZoneOffset":-14400000,"routeColor":"0000FF","routeType":3,"routeId":"1:20","routeTextColor":"FFFFFF","interlineWithPreviousLeg":false,"tripBlockId":"3","headsign":"Terminus Chicoutimi","agencyId":"0","tripId":"1:217215","serviceDate":"20180402","from":{"name":"Chapleau / Ste-Catherine","stopId":"1:691","stopCode":"691","lon":-71.103068,"lat":48.447954,"arrival":1522717097000,"departure":1522717098000,"zoneId":"NA","stopIndex":15,"stopSequence":16,"vertexType":"TRANSIT"},"to":{"name":"Terminus Chicoutimi","stopId":"1:1289","stopCode":"1289","lon":-71.066163,"lat":48.428677,"arrival":1522717800000,"departure":1522718100000,"zoneId":"NA","stopIndex":31,"stopSequence":32,"vertexType":"TRANSIT"},"legGeometry":{"points":"mnufHpi~pLQ\\a@d@w@aCCQAO@ODOHQDSDWLoDRgGBMFMHIHAfBNDuA@wA?WGk@Ga@KY_A_CRc@PYNYUk@Q[O]KYC]_AaQYwF?W?Y?UBc@D_@d@{DNaAB]@O@]?}BbA?hA?A}I?iEEcEjBCzBEd@Cf@Gj@MZMb@S`Ag@DClAk@f@Qv@Ov@IlBCnBa@TCTBjBPH@LiCDe@Lw@|@cELo@D[Dk@@[@uC@SBUDQFSt@yAHIr@eAjAaB`AqA^i@p@kAVc@\\cAr@eBv@aB|B_CJSDKLe@NeAJaAHeBBi@F{AaFe@c@IcDeAWtBOfAERGLIHIFMBa@NOQSOUGOCW?UFMHa@XUHQ?QIQOIM[g@rCmFhHqN~@eBr@cAt@_Av@}@RQPMz@k@tAe@REZG^Af@@X@VF`@Jn@XbClAr@Xt\\`PrAb@pA^hBTjAFj@Pb@JPHLLJNJRFXDT?X?ZEVEVKTMNMHMFOB}DWSGOSYcAN}FFkAF}DJyDPwGj@_QjAN~ALIpBGVITe@@","length":186},"routeShortName":"20","routeLongName":"Sainte-Claire","rentedBike":false,"transitLeg":true,"duration":702.0,"steps":[]},{"startTime":1522718100000,"endTime":1522718588000,"departureDelay":0,"arrivalDelay":0,"realTime":false,"distance":2846.690743278249,"pathway":false,"mode":"BUS","route":"24","agencyName":"Société de Transport du Saguenay","agencyUrl":"http://ville.saguenay.ca/fr/services-aux-citoyens/transport-sts","agencyTimeZoneOffset":-14400000,"routeColor":"00FF00","routeType":3,"routeId":"1:24","routeTextColor":"000000","interlineWithPreviousLeg":false,"tripBlockId":"5","headsign":"Terminus Chicoutimi","agencyId":"0","tripId":"1:217279","serviceDate":"20180402","from":{"name":"Terminus Chicoutimi","stopId":"1:1289","stopCode":"1289","lon":-71.066163,"lat":48.428677,"arrival":1522717800000,"departure":1522718100000,"zoneId":"NA","stopIndex":0,"stopSequence":1,"vertexType":"TRANSIT"},"to":{"name":"St-Émile / Madeleine","stopId":"1:811","stopCode":"811","lon":-71.045248,"lat":48.445626,"arrival":1522718588000,"departure":1522718589000,"zoneId":"NA","stopIndex":8,"stopSequence":9,"vertexType":"TRANSIT"},"legGeometry":{"points":"evqfHzcwpLg@?EhBO~GoBKCp@O\\WjGOfGCRK^KJMHQB_AMg@Gm\\wO]i@wAyA_@WUKMEwEm@Js@Da@??@@??@?@???@???@?@??A@???@A@??A@??A@A??@A?A??@A?A?A?A@A?A???A?A?A???A?A?A?A???A?AAA?A???AAA?A??AA?AA??AA??A??AA??A??AA?A???A????q@C{AAaB?mAEcAGs@OoAa@sB[kAYcASq@Ok@Qq@Ku@MoBKmAa@eHi@FKC_@I??iE}Ah@}DH}@?c@Ea@[_BA?My@Cm@?Y@g@Hu@b@sD\\_DBSyHsC_@MBQA}@IwAUoAcAkCWo@qDgJg@cBk@uBi@sC]aCWwCiKuD","length":140},"routeShortName":"24","routeLongName":"Saint-Luc","rentedBike":false,"transitLeg":true,"duration":488.0,"steps":[]},{"startTime":1522718589000,"endTime":1522718939000,"departureDelay":0,"arrivalDelay":0,"realTime":false,"distance":444.842,"pathway":false,"mode":"WALK","route":"","agencyTimeZoneOffset":-14400000,"interlineWithPreviousLeg":false,"from":{"name":"St-Émile / Madeleine","stopId":"1:811","stopCode":"811","lon":-71.045248,"lat":48.445626,"arrival":1522718588000,"departure":1522718589000,"zoneId":"NA","stopIndex":8,"stopSequence":9,"vertexType":"TRANSIT"},"to":{"name":"Destination","lon":-71.049021,"lat":48.443974,"arrival":1522718939000,"orig":"","vertexType":"NORMAL"},"legGeometry":{"points":"g`ufHh`spLrAj@i@`E`C`AvBt@NHDJDRBP@HPlAVdCFl@@^CZCHGLCDCB","length":19},"rentedBike":false,"transitLeg":false,"duration":350.0,"steps":[{"distance":49.309,"relativeDirection":"DEPART","streetName":"Rue Saint-Émile","absoluteDirection":"SOUTH","stayOn":false,"area":false,"bogusName":false,"lon":-71.04532866561726,"lat":48.44564391364887,"elevation":[]},{"distance":75.991,"relativeDirection":"RIGHT","streetName":"Rue de Saint-Malo","absoluteDirection":"WEST","stayOn":false,"area":false,"bogusName":false,"lon":-71.0455409,"lat":48.4452234,"elevation":[]},{"distance":319.54200000000003,"relativeDirection":"LEFT","streetName":"Rue Sainte-Hélène","absoluteDirection":"SOUTH","stayOn":false,"area":false,"bogusName":false,"lon":-71.0465191,"lat":48.4454379,"elevation":[]}]}],"tooSloped":false},{"duration":2162,"startTime":1522718968000,"endTime":1522721130000,"walkTime":593,"transitTime":1267,"waitingTime":302,"walkDistance":768.350075185386,"walkLimitExceeded":false,"elevationLost":0.0,"elevationGained":0.0,"transfers":1,"legs":[{"startTime":1522718968000,"endTime":1522719062000,"departureDelay":0,"arrivalDelay":0,"realTime":false,"distance":124.357,"pathway":false,"mode":"WALK","route":"","agencyTimeZoneOffset":-14400000,"interlineWithPreviousLeg":false,"from":{"name":"Origin","lon":-71.115482,"lat":48.455618,"departure":1522718968000,"orig":"","vertexType":"NORMAL"},"to":{"name":"boul. Ste-Geneviève (no. 1824)","stopId":"1:720","stopCode":"720","lon":-71.113893,"lat":48.455221,"arrival":1522719062000,"departure":1522719063000,"zoneId":"NA","stopIndex":21,"stopSequence":22,"vertexType":"TRANSIT"},"legGeometry":{"points":"k~vfHzv`qLD]l@cGDc@","length":4},"rentedBike":false,"transitLeg":false,"duration":94.0,"steps":[{"distance":124.357,"relativeDirection":"DEPART","streetName":"Boulevard Sainte-Geneviève","absoluteDirection":"EAST","stayOn":false,"area":false,"bogusName":false,"lon":-71.11549628839957,"lat":48.45558062682918,"elevation":[]}]},{"startTime":1522719063000,"endTime":1522719600000,"departureDelay":0,"arrivalDelay":0,"realTime":false,"distance":5061.032953145809,"pathway":false,"mode":"BUS","route":"21","agencyName":"Société de Transport du Saguenay","agencyUrl":"http://ville.saguenay.ca/fr/services-aux-citoyens/transport-sts","agencyTimeZoneOffset":-14400000,"routeColor":"556B2F","routeType":3,"routeId":"1:21","routeTextColor":"FFFFFF","interlineWithPreviousLeg":false,"tripBlockId":"2","headsign":"Terminus Chicoutimi","agencyId":"0","tripId":"1:217182","serviceDate":"20180402","from":{"name":"boul. Ste-Geneviève (no. 1824)","stopId":"1:720","stopCode":"720","lon":-71.113893,"lat":48.455221,"arrival":1522719062000,"departure":1522719063000,"zoneId":"NA","stopIndex":21,"stopSequence":22,"vertexType":"TRANSIT"},"to":{"name":"Terminus Chicoutimi","stopId":"1:1289","stopCode":"1289","lon":-71.066163,"lat":48.428677,"arrival":1522719600000,"departure":1522719900000,"zoneId":"NA","stopIndex":34,"stopSequence":35,"vertexType":"TRANSIT"},"legGeometry":{"points":"o|vfHtl`qL`AwK^}DDi@\\kD~AyQN_BHm@fAeLd@{Et@uHZyC~@sJjAyLJqAZyCP_BZuCDi@b@iExAsO@E^qBt@}CJGnAmDx@iBpAcCb@o@Zi@h@o@`AiArFkG`FgGdBwBt@cAbAmBx@eBj@eB`CoHpCyJbAmCtAuCZg@|@gBxAsCrCmFhHqN~@eBr@cAt@_Av@}@RQPMz@k@tAe@REZG^Af@@X@VF`@Jn@XbClAr@Xt\\`PrAb@pA^hBTjAFj@Pb@JPHLLJNJRFXDT?X?ZEVEVKTMNMHMFOB}DWSGOSYcAN}FFkAF}DJyDPwGvAHVyL","length":99},"routeShortName":"21","routeLongName":"Boul. Ste-Geneviève/Élie","rentedBike":false,"transitLeg":true,"duration":537.0,"steps":[]},{"startTime":1522719900000,"endTime":1522720630000,"departureDelay":0,"arrivalDelay":0,"realTime":false,"distance":5358.844099822367,"pathway":false,"mode":"BUS","route":"23","agencyName":"Société de Transport du Saguenay","agencyUrl":"http://ville.saguenay.ca/fr/services-aux-citoyens/transport-sts","agencyTimeZoneOffset":-14400000,"routeColor":"FF00FF","routeType":3,"routeId":"1:23","routeTextColor":"FFFFFF","interlineWithPreviousLeg":false,"tripBlockId":"5","headsign":"Terminus Chicoutimi","agencyId":"0","tripId":"1:217280","serviceDate":"20180402","from":{"name":"Terminus Chicoutimi","stopId":"1:1289","stopCode":"1289","lon":-71.066163,"lat":48.428677,"arrival":1522719600000,"departure":1522719900000,"zoneId":"NA","stopIndex":0,"stopSequence":1,"vertexType":"TRANSIT"},"to":{"name":"Verdun / St-Éloi","stopId":"1:794","stopCode":"794","lon":-71.053519,"lat":48.446152,"arrival":1522720630000,"departure":1522720631000,"zoneId":"NA","stopIndex":16,"stopSequence":17,"vertexType":"TRANSIT"},"legGeometry":{"points":"kwqfHjbwpLF_CkAOYCm@rRO\\WjGOfGCRK^KJMHQB_AMg@Gw`@eR}@g@u@Su@Ia@Ck@Dm@HwAf@c@VeAx@iAlAU^[d@eLtTsAvB_CvEuAnCmBlE}@|B_BvFoC`JCD}@hCo@~Aq@pAs@fA{BlCqH|Iq@Bq@Im@UGCUi@Wm@ScA_@gGSaE@_@@_@@ERoBFe@No@`@gAbCyFNe@Ha@He@Fg@Du@Dg@Hc@Pa@RW\\S`@QZEm@eHM}B?GGi@Is@Ou@Qw@Mo@Kw@ImAGoBAk@aALa@?YEUKc@Yc@_@KOIUGUEWAW?YBqAH_AXeC@IdB_Mh@_EJk@d@kDhAqI`AgHz@oGBU?UAWCWUwAWD]B]AUEoAc@kE}AOIq@g@g@u@]w@b@s@T[~CkFf@s@\\e@x@}@jAeAXQZStBaAh@]`@]`@i@l@kD","length":136},"routeShortName":"23","routeLongName":"Côte Verdun via Aréna du Plateau","rentedBike":false,"transitLeg":true,"duration":730.0,"steps":[]},{"startTime":1522720631000,"endTime":1522721130000,"departureDelay":0,"arrivalDelay":0,"realTime":false,"distance":643.913,"pathway":false,"mode":"WALK","route":"","agencyTimeZoneOffset":-14400000,"interlineWithPreviousLeg":false,"from":{"name":"Verdun / St-Éloi","stopId":"1:794","stopCode":"794","lon":-71.053519,"lat":48.446152,"arrival":1522720630000,"departure":1522720631000,"zoneId":"NA","stopIndex":16,"stopSequence":17,"vertexType":"TRANSIT"},"to":{"name":"Destination","lon":-71.049021,"lat":48.443974,"arrival":1522721130000,"orig":"","vertexType":"NORMAL"},"legGeometry":{"points":"wcufHhstpLDYBYFg@D_@BUDKDCCk@`@cEwBiEFKBMAOEIzAeBz@Sn@fCNLN@LAbByAV_@L_@N_@DW\\?Z@N?NCDAFG@A","length":33},"rentedBike":false,"transitLeg":false,"duration":499.0,"steps":[{"distance":65.60900000000001,"relativeDirection":"DEPART","streetName":"Rue de Verdun","absoluteDirection":"EAST","stayOn":false,"area":false,"bogusName":false,"lon":-71.05348776384805,"lat":48.4462094810194,"elevation":[]},{"distance":191.388,"relativeDirection":"SLIGHTLY_LEFT","streetName":"path","absoluteDirection":"EAST","stayOn":false,"area":false,"bogusName":true,"lon":-71.05267160000001,"lat":48.446006600000004,"elevation":[]},{"distance":121.54599999999999,"relativeDirection":"UTURN_RIGHT","streetName":"path","absoluteDirection":"SOUTHEAST","stayOn":true,"area":false,"bogusName":true,"lon":-71.05020520000001,"lat":48.4464394,"elevation":[]},{"distance":205.326,"relativeDirection":"RIGHT","streetName":"Rue Daudet","absoluteDirection":"SOUTHWEST","stayOn":false,"area":false,"bogusName":false,"lon":-71.04959480000001,"lat":48.4456745,"elevation":[]},{"distance":60.044,"relativeDirection":"RIGHT","streetName":"Rue Sainte-Hélène","absoluteDirection":"SOUTH","stayOn":false,"area":false,"bogusName":false,"lon":-71.04929030000001,"lat":48.444408,"elevation":[]}]}],"tooSloped":false},{"duration":2088,"startTime":1522722568000,"endTime":1522724656000,"walkTime":525,"transitTime":961,"waitingTime":602,"walkDistance":682.8959248097739,"walkLimitExceeded":false,"elevationLost":0.0,"elevationGained":0.0,"transfers":1,"legs":[{"startTime":1522722568000,"endTime":1522722662000,"departureDelay":0,"arrivalDelay":0,"realTime":false,"distance":124.357,"pathway":false,"mode":"WALK","route":"","agencyTimeZoneOffset":-14400000,"interlineWithPreviousLeg":false,"from":{"name":"Origin","lon":-71.115482,"lat":48.455618,"departure":1522722568000,"orig":"","vertexType":"NORMAL"},"to":{"name":"boul. Ste-Geneviève (no. 1824)","stopId":"1:720","stopCode":"720","lon":-71.113893,"lat":48.455221,"arrival":1522722662000,"departure":1522722663000,"zoneId":"NA","stopIndex":21,"stopSequence":22,"vertexType":"TRANSIT"},"legGeometry":{"points":"k~vfHzv`qLD]l@cGDc@","length":4},"rentedBike":false,"transitLeg":false,"duration":94.0,"steps":[{"distance":124.357,"relativeDirection":"DEPART","streetName":"Boulevard Sainte-Geneviève","absoluteDirection":"EAST","stayOn":false,"area":false,"bogusName":false,"lon":-71.11549628839957,"lat":48.45558062682918,"elevation":[]}]},{"startTime":1522722663000,"endTime":1522723200000,"departureDelay":0,"arrivalDelay":0,"realTime":false,"distance":5061.032953145809,"pathway":false,"mode":"BUS","route":"21","agencyName":"Société de Transport du Saguenay","agencyUrl":"http://ville.saguenay.ca/fr/services-aux-citoyens/transport-sts","agencyTimeZoneOffset":-14400000,"routeColor":"556B2F","routeType":3,"routeId":"1:21","routeTextColor":"FFFFFF","interlineWithPreviousLeg":false,"tripBlockId":"2","headsign":"Terminus Chicoutimi","agencyId":"0","tripId":"1:217183","serviceDate":"20180402","from":{"name":"boul. Ste-Geneviève (no. 1824)","stopId":"1:720","stopCode":"720","lon":-71.113893,"lat":48.455221,"arrival":1522722662000,"departure":1522722663000,"zoneId":"NA","stopIndex":21,"stopSequence":22,"vertexType":"TRANSIT"},"to":{"name":"Terminus Chicoutimi","stopId":"1:1289","stopCode":"1289","lon":-71.066163,"lat":48.428677,"arrival":1522723200000,"departure":1522723800000,"zoneId":"NA","stopIndex":34,"stopSequence":35,"vertexType":"TRANSIT"},"legGeometry":{"points":"o|vfHtl`qL`AwK^}DDi@\\kD~AyQN_BHm@fAeLd@{Et@uHZyC~@sJjAyLJqAZyCP_BZuCDi@b@iExAsO@E^qBt@}CJGnAmDx@iBpAcCb@o@Zi@h@o@`AiArFkG`FgGdBwBt@cAbAmBx@eBj@eB`CoHpCyJbAmCtAuCZg@|@gBxAsCrCmFhHqN~@eBr@cAt@_Av@}@RQPMz@k@tAe@REZG^Af@@X@VF`@Jn@XbClAr@Xt\\`PrAb@pA^hBTjAFj@Pb@JPHLLJNJRFXDT?X?ZEVEVKTMNMHMFOB}DWSGOSYcAN}FFkAF}DJyDPwGvAHVyL","length":99},"routeShortName":"21","routeLongName":"Boul. Ste-Geneviève/Élie","rentedBike":false,"transitLeg":true,"duration":537.0,"steps":[]},{"startTime":1522723800000,"endTime":1522724224000,"departureDelay":0,"arrivalDelay":0,"realTime":false,"distance":2240.0045718936785,"pathway":false,"mode":"BUS","route":"25","agencyName":"Société de Transport du Saguenay","agencyUrl":"http://ville.saguenay.ca/fr/services-aux-citoyens/transport-sts","agencyTimeZoneOffset":-14400000,"routeColor":"00FFFF","routeType":3,"routeId":"1:25","routeTextColor":"000000","interlineWithPreviousLeg":false,"tripBlockId":"21","headsign":"Roussel / Du Pont","agencyId":"0","tripId":"1:217824","serviceDate":"20180402","from":{"name":"Terminus Chicoutimi","stopId":"1:1289","stopCode":"1289","lon":-71.066163,"lat":48.428677,"arrival":1522723200000,"departure":1522723800000,"zoneId":"NA","stopIndex":0,"stopSequence":1,"vertexType":"TRANSIT"},"to":{"name":"boul. Tadoussac (no. 1845)","stopId":"1:810","stopCode":"810","lon":-71.051242,"lat":48.441837,"arrival":1522724224000,"departure":1522724225000,"zoneId":"NA","stopIndex":5,"stopSequence":6,"vertexType":"TRANSIT"},"legGeometry":{"points":"avqfH``wpLc@E@o@kAOYCm@rRO\\WjGOfGCRK^KJMHQB_AMg@Gm\\wO]i@wAyA_@WUKMEwEm@Js@Da@??@@??@?@???@???@?@??A@???@A@??A@??A@A??@A?A??@A?A?A?A@A?A???A?A?A???A?A?A?A???A?AAA?A???AAA?A??AA?AA??AA??A??AA??A??AA?A???A????q@C{AAaB?mAEcAGs@OoAa@sB[kAYcASq@Ok@Qq@Ku@MoBiC}@yBu@AAyBu@o@Qs@[YSSUY]Ye@]{@Me@Kg@K{@CQm@_IEs@Cq@Aw@Do@LyAJ_ADYBUf@wDRaBHqABQA}@IwAUoAcAkCWo@","length":137},"routeShortName":"25","routeLongName":"Valin","rentedBike":false,"transitLeg":true,"duration":424.0,"steps":[]},{"startTime":1522724225000,"endTime":1522724656000,"departureDelay":0,"arrivalDelay":0,"realTime":false,"distance":558.469,"pathway":false,"mode":"WALK","route":"","agencyTimeZoneOffset":-14400000,"interlineWithPreviousLeg":false,"from":{"name":"boul. Tadoussac (no. 1845)","stopId":"1:810","stopCode":"810","lon":-71.051242,"lat":48.441837,"arrival":1522724224000,"departure":1522724225000,"zoneId":"NA","stopIndex":5,"stopSequence":6,"vertexType":"TRANSIT"},"to":{"name":"Destination","lon":-71.049021,"lat":48.443974,"arrival":1522724656000,"orig":"","vertexType":"NORMAL"},"legGeometry":{"points":"uhtfHpetpLuAkD_AaCYw@GQUs@]qAc@eBAE[eBWcBgBl@@HPlAVdCFl@@^CZCHGLCDCB","length":22},"rentedBike":false,"transitLeg":false,"duration":431.0,"steps":[{"distance":354.526,"relativeDirection":"DEPART","streetName":"Boulevard de Tadoussac","absoluteDirection":"NORTHEAST","stayOn":false,"area":false,"bogusName":false,"lon":-71.05128079749537,"lat":48.44187102242561,"elevation":[]},{"distance":60.309,"relativeDirection":"LEFT","streetName":"path","absoluteDirection":"NORTH","stayOn":false,"area":false,"bogusName":true,"lon":-71.04718650000001,"lat":48.4435043,"elevation":[]},{"distance":143.634,"relativeDirection":"LEFT","streetName":"Rue Sainte-Hélène","absoluteDirection":"WEST","stayOn":false,"area":false,"bogusName":false,"lon":-71.04741010000001,"lat":48.444026,"elevation":[]}]}],"tooSloped":false}]},"debugOutput":{"precalculationTime":8,"pathCalculationTime":19,"pathTimes":[14,3,2],"renderingTime":1,"totalTime":28,"timedOut":false},"elevationMetadata":{"ellipsoidToGeoidDifference":-28.885904201182168,"geoidElevation":false}}