{"requestParameters":{"date":"2018/04/02","walkSpeed":"1.33","walkReluctance":"2.0","fromPlace":"48.444985,-71.04645","maxWalkDistance":"3000","waitReluctance":"1.0","carSpeed":"33","numItineraries":"3","waitAtBeginningFactor":"0.4","mode":"TRANSIT,WALK","ignoreRealtimeUpdates":"false","stairsReluctance":"2.0","toPlace":"48.395542,-71.106464","time":"7:15:00"},"plan":{"date":1522667700000,"from":{"name":"Origin","lon":-71.04645,"lat":48.444985,"orig":"","vertexType":"NORMAL"},"to":{"name":"Destination","lon":-71.106464,"lat":48.395542,"orig":"","vertexType":"NORMAL"},"itineraries":[{"duration":2411,"startTime":1522668384000,"endTime":1522670795000,"walkTime":566,"transitTime":1603,"waitingTime":242,"walkDistance":716.4826315740224,"walkLimitExceeded":false,"elevationLost":0.0,"elevationGained":0.0,"transfers":1,"legs":[{"startTime":1522668384000,"endTime":1522668623000,"departureDelay":0,"arrivalDelay":0,"realTime":false,"distance":298.359,"pathway":false,"mode":"WALK","route":"","agencyTimeZoneOffset":-14400000,"interlineWithPreviousLeg":false,"from":{"name":"Origin","lon":-71.04645,"lat":48.444985,"departure":1522668384000,"orig":"","vertexType":"NORMAL"},"to":{"name":"St-Émile / boul. Tadoussac","stopId":"1:828","stopCode":"828","lon":-71.046279,"lat":48.44333,"arrival":1522668623000,"departure":1522668624000,"zoneId":"NA","stopIndex":26,"stopSequence":27,"vertexType":"TRANSIT"},"legGeometry":{"points":"o|tfH~hspLr@XvBt@NHDJDRBPfBm@AIOoAGc@Iw@bAV","length":13},"rentedBike":false,"transitLeg":false,"duration":239.0,"steps":[{"distance":129.702,"relativeDirection":"DEPART","streetName":"Rue Sainte-Hélène","absoluteDirection":"SOUTH","stayOn":false,"area":false,"bogusName":false,"lon":-71.04671600441196,"lat":48.44504342452526,"elevation":[]},{"distance":60.309,"relativeDirection":"LEFT","streetName":"path","absoluteDirection":"SOUTH","stayOn":false,"area":false,"bogusName":true,"lon":-71.04741010000001,"lat":48.444026,"elevation":[]},{"distance":70.283,"relativeDirection":"LEFT","streetName":"Boulevard de Tadoussac","absoluteDirection":"EAST","stayOn":false,"area":false,"bogusName":false,"lon":-71.04718650000001,"lat":48.4435043,"elevation":[]},{"distance":38.065,"relativeDirection":"HARD_RIGHT","streetName":"Rue Saint-Émile","absoluteDirection":"SOUTH","stayOn":false,"area":false,"bogusName":false,"lon":-71.0462723,"lat":48.4436814,"elevation":[]}]},{"startTime":1522668624000,"endTime":1522669260000,"departureDelay":0,"arrivalDelay":0,"realTime":false,"distance":3215.2466636012887,"pathway":false,"mode":"BUS","route":"24","agencyName":"Société de Transport du Saguenay","agencyUrl":"http://ville.saguenay.ca/fr/services-aux-citoyens/transport-sts","agencyTimeZoneOffset":-14400000,"routeColor":"00FF00","routeType":3,"routeId":"1:24","routeTextColor":"000000","interlineWithPreviousLeg":false,"tripBlockId":"5","headsign":"Terminus Chicoutimi","agencyId":"0","tripId":"1:217251","serviceDate":"20180402","from":{"name":"St-Émile / boul. Tadoussac","stopId":"1:828","stopCode":"828","lon":-71.046279,"lat":48.44333,"arrival":1522668623000,"departure":1522668624000,"zoneId":"NA","stopIndex":26,"stopSequence":27,"vertexType":"TRANSIT"},"to":{"name":"Terminus Chicoutimi","stopId":"1:1289","stopCode":"1289","lon":-71.066163,"lat":48.428677,"arrival":1522669260000,"departure":1522669500000,"zoneId":"NA","stopIndex":35,"stopSequence":36,"vertexType":"TRANSIT"},"legGeometry":{"points":"}qtfH`gspL_A]VvC\\`Ch@rCj@tBf@bBxDxJN\\bAjCTnAHvA@|@CPIpAe@pDUfBCTEXK~@MxAEn@@v@Bp@Dr@l@~HNlAH\\@HLd@\\z@Xd@X\\RTXRr@Zn@PfExAvDpALnBJt@Pp@Nj@l@tBHZPn@`@rBNnAFr@DbA?bB@jABzA?p@A???A???A?A???A@??A?A@??A@?@A??@A@???@A@?@?@A@?@?@?@?@???@?@?@?@?@?@@@?@?@@@?@@@?@@@?@@?@@??@@@?E`@Kr@]rACVEl@I|AAr@JbAWJe@FUAM?a@Ke@YYWWa@v@}@RQPMz@k@tAe@REZG^Af@@X@VF`@Jn@XbClAr@Xt\\`PrAb@pA^hBTjAFj@Pb@JPHLLJNJRFXDT?X?ZEVEVKTMNMHMFOB}DWSGOSYcAN}FFkAF}DJyDPwGvAHN_HDiB@m@","length":168},"routeShortName":"24","routeLongName":"Saint-Luc","rentedBike":false,"transitLeg":true,"duration":636.0,"steps":[]},{"startTime":1522669500000,"endTime":1522670467000,"departureDelay":0,"arrivalDelay":0,"realTime":false,"distance":5105.026131228896,"pathway":false,"mode":"BUS","route":"11","agencyName":"Société de Transport du Saguenay","agencyUrl":"http://ville.saguenay.ca/fr/services-aux-citoyens/transport-sts","agencyTimeZoneOffset":-14400000,"routeColor":"FF0000","routeType":3,"routeId":"1:11","routeTextColor":"FFFFFF","interlineWithPreviousLeg":false,"tripBlockId":"35","headsign":"Boul.Royaume/St-Pierre","agencyId":"0","tripId":"1:218244","serviceDate":"20180402","from":{"name":"Terminus Chicoutimi","stopId":"1:1289","stopCode":"1289","lon":-71.066163,"lat":48.428677,"arrival":1522669260000,"departure":1522669500000,"zoneId":"NA","stopIndex":0,"stopSequence":1,"vertexType":"TRANSIT"},"to":{"name":"St-Paul / Cossette","stopId":"1:122","stopCode":"122","lon":-71.103306,"lat":48.398662,"arrival":1522670467000,"departure":1522670468000,"zoneId":"NA","stopIndex":19,"stopSequence":20,"vertexType":"TRANSIT"},"legGeometry":{"points":"evqfHzcwpLk@?UhKfIh@dKp@GnDIfDOtEE~@Ff@x@rEF~@CbAALO~ADRNJXBr@DfGRPBPJLN@@FPFTBX?TE`BhBR@?J@NELKFOlAiDL[bA`AfIjIbGdGzDzD`A~An@`ApApBpClEvJrOR\\bAfBLa@t@]LjAVvAVbAVv@^bAXj@b@t@xEtGh@r@n@x@FDjA|AlBpCnJ|NNTX`@V`@eCtHpFjH{FhPcB|Ft@|CEAdCnEdHKrBz@lGiQ|CyI~IrJtAzAmKrWsE`LzJjL|P}d@Ri@hCpEpBdC","length":87},"routeShortName":"11","routeLongName":"Chic/Faubourg via St-Paul","rentedBike":false,"transitLeg":true,"duration":967.0,"steps":[]},{"startTime":1522670468000,"endTime":1522670795000,"departureDelay":0,"arrivalDelay":0,"realTime":false,"distance":417.971,"pathway":false,"mode":"WALK","route":"","agencyTimeZoneOffset":-14400000,"interlineWithPreviousLeg":false,"from":{"name":"St-Paul / Cossette","stopId":"1:122","stopCode":"122","lon":-71.103306,"lat":48.398662,"arrival":1522670467000,"departure":1522670468000,"zoneId":"NA","stopIndex":19,"stopSequence":20,"vertexType":"TRANSIT"},"to":{"name":"Destination","lon":-71.106464,"lat":48.395542,"arrival":1522670795000,"orig":"","vertexType":"NORMAL"},"legGeometry":{"points":"{ykfHjk~pLJ_@HJjBrBBBBDv@~@^`@`ChCz@bA|CnDTHFF","length":13},"rentedBike":false,"transitLeg":false,"duration":327.0,"steps":[{"distance":13.735,"relativeDirection":"DEPART","streetName":"Rue Cossette","absoluteDirection":"SOUTHEAST","stayOn":false,"area":false,"bogusName":false,"lon":-71.10341204586585,"lat":48.398545146160764,"elevation":[]},{"distance":404.236,"relativeDirection":"RIGHT","streetName":"Boulevard Saint-Paul","absoluteDirection":"SOUTHWEST","stayOn":false,"area":false,"bogusName":false,"lon":-71.1032527,"lat":48.3984814,"elevation":[]}]}],"tooSloped":false},{"duration":4398,"startTime":1522667890000,"endTime":1522672288000,"walkTime":1906,"transitTime":2070,"waitingTime":422,"walkDistance":2460.44867668461,"walkLimitExceeded":false,"elevationLost":0.0,"elevationGained":0.0,"transfers":1,"legs":[{"startTime":1522667890000,"endTime":1522668429000,"departureDelay":0,"arrivalDelay":0,"realTime":false,"distance":687.621,"pathway":false,"mode":"WALK","route":"","agencyTimeZoneOffset":-14400000,"interlineWithPreviousLeg":false,"from":{"name":"Origin","lon":-71.04645,"lat":48.444985,"departure":1522667890000,"orig":"","vertexType":"NORMAL"},"to":{"name":"Verdun / St-Éloi","stopId":"1:794","stopCode":"794","lon":-71.053519,"lat":48.446152,"arrival":1522668429000,"departure":1522668430000,"zoneId":"NA","stopIndex":16,"stopSequence":17,"vertexType":"TRANSIT"},"legGeometry":{"points":"o|tfH~hspLmAg@EXAd@@b@@XDXx@|HAZENGNOPm@d@]\\{@R{AdBDH@NCLGJvBhEa@bEBj@EBEJCTE^Gf@CXEX","length":30},"rentedBike":false,"transitLeg":false,"duration":539.0,"steps":[{"distance":46.205,"relativeDirection":"DEPART","streetName":"Rue Sainte-Hélène","absoluteDirection":"NORTH","stayOn":false,"area":false,"bogusName":false,"lon":-71.04671600441196,"lat":48.44504342452526,"elevation":[]},{"distance":243.343,"relativeDirection":"LEFT","streetName":"Rue de Saint-Malo","absoluteDirection":"WEST","stayOn":false,"area":false,"bogusName":false,"lon":-71.0465191,"lat":48.4454379,"elevation":[]},{"distance":19.53,"relativeDirection":"CONTINUE","streetName":"Rue Daudet","absoluteDirection":"NORTHWEST","stayOn":false,"area":false,"bogusName":false,"lon":-71.0494456,"lat":48.445529400000005,"elevation":[]},{"distance":98.053,"relativeDirection":"SLIGHTLY_RIGHT","streetName":"path","absoluteDirection":"NORTH","stayOn":false,"area":false,"bogusName":true,"lon":-71.04959480000001,"lat":48.4456745,"elevation":[]},{"distance":214.881,"relativeDirection":"UTURN_LEFT","streetName":"path","absoluteDirection":"SOUTHWEST","stayOn":true,"area":false,"bogusName":true,"lon":-71.05046250000001,"lat":48.4464551,"elevation":[]},{"distance":65.60900000000001,"relativeDirection":"SLIGHTLY_RIGHT","streetName":"Rue de Verdun","absoluteDirection":"NORTHWEST","stayOn":false,"area":false,"bogusName":false,"lon":-71.05267160000001,"lat":48.446006600000004,"elevation":[]}]},{"startTime":1522668430000,"endTime":1522669080000,"departureDelay":0,"arrivalDelay":0,"realTime":false,"distance":3054.7698287012436,"pathway":false,"mode":"BUS","route":"23","agencyName":"Société de Transport du Saguenay","agencyUrl":"http://ville.saguenay.ca/fr/services-aux-citoyens/transport-sts","agencyTimeZoneOffset":-14400000,"routeColor":"FF00FF","routeType":3,"routeId":"1:23","routeTextColor":"FFFFFF","interlineWithPreviousLeg":false,"tripBlockId":"4","headsign":"Terminus Chicoutimi","agencyId":"0","tripId":"1:217224","serviceDate":"20180402","from":{"name":"Verdun / St-Éloi","stopId":"1:794","stopCode":"794","lon":-71.053519,"lat":48.446152,"arrival":1522668429000,"departure":1522668430000,"zoneId":"NA","stopIndex":16,"stopSequence":17,"vertexType":"TRANSIT"},"to":{"name":"Terminus Chicoutimi","stopId":"1:1289","stopCode":"1289","lon":-71.066163,"lat":48.428677,"arrival":1522669080000,"departure":1522669500000,"zoneId":"NA","stopIndex":26,"stopSequence":27,"vertexType":"TRANSIT"},"legGeometry":{"points":"ycufHhstpLF_@R{AFWFMPIPC`@BT@V?TAVKLENCLCJ@J@xAb@x@Zz@\\CP?R@N@NFLFF`GtBx@Xw@pG@l@B\\DXL\\RZDFXPf@N@v@Bp@Dr@l@~HNlAH\\@HLd@\\z@Xd@X\\RTXRr@Zn@PfExAvDpALnBJt@Pp@|@`DHZPn@`@rBNnAFr@DbA?bB@jABzA?p@A???A???A?A???A@??A?A@??A@?@A??@A@???@A@?@?@A@?@?@?@?@???@?@?@?@?@?@@@?@?@@@?@@@?@@@?@@?@@??@@@?E`@Kr@]rACVEl@I|AAr@JbAWJe@FUAM?a@Ke@YYWWa@v@}@RQPMz@k@tAe@REZG^Af@@X@VF`@Jn@XbClAr@Xt\\`PrAb@pA^hBTjAFj@Pb@JPHLLJNJRFXDT?X?ZEVEVKTMNMHMFOB}DWSGOSYcAN}FFkAF}DJyDd@wPV_HjAN~ALI`C","length":182},"routeShortName":"23","routeLongName":"Côte Verdun via Aréna du Plateau","rentedBike":false,"transitLeg":true,"duration":650.0,"steps":[]},{"startTime":1522669500000,"endTime":1522670920000,"departureDelay":0,"arrivalDelay":0,"realTime":false,"distance":7475.559574856033,"pathway":false,"mode":"BUS","route":"14","agencyName":"Société de Transport du Saguenay","agencyUrl":"http://ville.saguenay.ca/fr/services-aux-citoyens/transport-sts","agencyTimeZoneOffset":-14400000,"routeColor":"C0C000","routeType":3,"routeId":"1:14","routeTextColor":"000000","interlineWithPreviousLeg":false,"tripBlockId":"30","headsign":"Talbot / Barrette","agencyId":"0","tripId":"1:218089","serviceDate":"20180402","from":{"name":"Terminus Chicoutimi","stopId":"1:1289","stopCode":"1289","lon":-71.066163,"lat":48.428677,"arrival":1522669080000,"departure":1522669500000,"zoneId":"NA","stopIndex":0,"stopSequence":1,"vertexType":"TRANSIT"},"to":{"name":"Malraux / Pagnol","stopId":"1:1978","stopCode":"1978","lon":-71.093388,"lat":48.400416,"arrival":1522670920000,"departure":1522670921000,"zoneId":"NA","stopIndex":29,"stopSequence":30,"vertexType":"TRANSIT"},"legGeometry":{"points":"qvqfHnbwpLJkClLh@DsDTmSHwFB{I@m@@eBH_AF}A@w@Dq@@i@B}B@Y@e@D]F_@@SHQCKnBnBvIrIn@n@\\iATg@v@_ATg@LmABg@Is@c@iEAm@bAcDTcAtA{DJI|AxAvAvAQv@~@z@dA`ATq@`E~DL`@E`Ex@hDd@`B}FtFaAzAm@xAe@jCa@nDiAbm@SpKM`H]vBhDVzCTcAvCO^bEbEzK`LfBeEtK`KhAdAnCbCvBpCNR~BxAxBf@z@h@vAz@z@{DrCoITTlElEtAnB`@l@pFrD@?fDr@XgAjFuR\\yADm@b@gFd@_B`A}@tEvJBDvC`FtJ|LLNlClC|@^hCYVExCjCb@d@vE`F`BhB?pHaBhRqAbLK~@qBxFqB|FcC~GyC\\aDkD","length":112},"routeShortName":"14","routeLongName":"Coopérative","rentedBike":false,"transitLeg":true,"duration":1420.0,"steps":[]},{"startTime":1522670921000,"endTime":1522672288000,"departureDelay":0,"arrivalDelay":0,"realTime":false,"distance":1772.607,"pathway":false,"mode":"WALK","route":"","agencyTimeZoneOffset":-14400000,"interlineWithPreviousLeg":false,"from":{"name":"Malraux / Pagnol","stopId":"1:1978","stopCode":"1978","lon":-71.093388,"lat":48.400416,"arrival":1522670920000,"departure":1522670921000,"zoneId":"NA","stopIndex":29,"stopSequence":30,"vertexType":"TRANSIT"},"to":{"name":"Destination","lon":-71.106464,"lat":48.395542,"arrival":1522672288000,"orig":"","vertexType":"NORMAL"},"legGeometry":{"points":"selfHzl|pLkF{Fa@jAA?{EvMy@tBGPsCrHpA~AbAjAf@h@z@dA~@dAf@j@HJvA`BLNf@l@hAnAvAbBxAdBFFd@h@NPPRBDfF`GRVHJjBrBBBBDv@~@^`@`ChCz@bA|CnDTHFF","length":39},"rentedBike":false,"transitLeg":false,"duration":1367.0,"steps":[{"distance":160.301,"relativeDirection":"DEPART","streetName":"Rue Malraux","absoluteDirection":"NORTHEAST","stayOn":false,"area":false,"bogusName":false,"lon":-71.09341079342245,"lat":48.40042668071038,"elevation":[]},{"distance":449.30899999999997,"relativeDirection":"LEFT","streetName":"Boulevard Barrette","absoluteDirection":"NORTHWEST","stayOn":false,"area":false,"bogusName":false,"lon":-71.0921587,"lat":48.401604500000005,"elevation":[]},{"distance":1162.9969999999998,"relativeDirection":"LEFT","streetName":"Boulevard Saint-Paul","absoluteDirection":"SOUTHWEST","stayOn":false,"area":false,"bogusName":false,"lon":-71.0971116,"lat":48.4039529,"elevation":[]}]}],"tooSloped":false},{"duration":4304,"startTime":1522668291000,"endTime":1522672595000,"walkTime":680,"transitTime":1522,"waitingTime":2102,"walkDistance":870.2169022520607,"walkLimitExceeded":false,"elevationLost":0.0,"elevationGained":0.0,"transfers":1,"legs":[{"startTime":1522668291000,"endTime":1522668644000,"departureDelay":0,"arrivalDelay":0,"realTime":false,"distance":452.135,"pathway":false,"mode":"WALK","route":"","agencyTimeZoneOffset":-14400000,"interlineWithPreviousLeg":false,"from":{"name":"Origin","lon":-71.04645,"lat":48.444985,"departure":1522668291000,"orig":"","vertexType":"NORMAL"},"to":{"name":"boul. Tadoussac (no. 1528)","stopId":"1:146","stopCode":"146","lon":-71.043731,"lat":48.444067,"arrival":1522668644000,"departure":1522668645000,"zoneId":"NA","stopIndex":29,"stopSequence":30,"vertexType":"TRANSIT"},"legGeometry":{"points":"o|tfH~hspLr@XvBt@NHDJDRBPfBm@AIOoAGc@Iw@IeCCe@AU[cFG{A","length":17},"rentedBike":false,"transitLeg":false,"duration":353.0,"steps":[{"distance":129.702,"relativeDirection":"DEPART","streetName":"Rue Sainte-Hélène","absoluteDirection":"SOUTH","stayOn":false,"area":false,"bogusName":false,"lon":-71.04671600441196,"lat":48.44504342452526,"elevation":[]},{"distance":60.309,"relativeDirection":"LEFT","streetName":"path","absoluteDirection":"SOUTH","stayOn":false,"area":false,"bogusName":true,"lon":-71.04741010000001,"lat":48.444026,"elevation":[]},{"distance":262.124,"relativeDirection":"LEFT","streetName":"Boulevard de Tadoussac","absoluteDirection":"EAST","stayOn":false,"area":false,"bogusName":false,"lon":-71.04718650000001,"lat":48.4435043,"elevation":[]}]},{"startTime":1522668645000,"endTime":1522669200000,"departureDelay":0,"arrivalDelay":0,"realTime":false,"distance":3420.2676032559234,"pathway":false,"mode":"BUS","route":"26","agencyName":"Société de Transport du Saguenay","agencyUrl":"http://ville.saguenay.ca/fr/services-aux-citoyens/transport-sts","agencyTimeZoneOffset":-14400000,"routeColor":"00FFFF","routeType":3,"routeId":"1:26","routeTextColor":"000000","interlineWithPreviousLeg":false,"headsign":"Terminus Chicoutimi","agencyId":"0","tripId":"1:218769","serviceDate":"20180402","from":{"name":"boul. Tadoussac (no. 1528)","stopId":"1:146","stopCode":"146","lon":-71.043731,"lat":48.444067,"arrival":1522668644000,"departure":1522668645000,"zoneId":"NA","stopIndex":29,"stopSequence":30,"vertexType":"TRANSIT"},"to":{"name":"Terminus Chicoutimi","stopId":"1:1289","stopCode":"1289","lon":-71.066163,"lat":48.428677,"arrival":1522669200000,"departure":1522671300000,"zoneId":"NA","stopIndex":38,"stopSequence":39,"vertexType":"TRANSIT"},"legGeometry":{"points":"sutfHdvrpL@^r@|MVvC\\`Ch@rCj@tBf@bBxDxJN\\bAjCTnAHvA@|@CPIpAS`BQnAUfBCTEXK~@MxAEn@@v@Bp@Dr@l@~HNlAH\\@HLd@\\z@Xd@X\\RTXRr@Zn@PzBv@jA`@l@RhC|@LnBJt@Pp@Nj@l@tBHZPn@`@rBNnAFr@DbA?bB@jABzA?p@A???A???A?A???A@??A?A@??A@?@A??@A@???@A@?@?@A@?@?@?@?@???@?@?@?@?@?@@@?@?@@@?@@@?@@@?@@?@@??@@@?E`@Kr@]rACVEl@I|AAr@JbAWJe@FUAM?a@Ke@YYWWa@v@}@RQPMz@k@tAe@REZG^Af@@X@VF`@Jn@XbClAr@Xt\\`PrAb@pA^hBTjAFj@Pb@JPHLLJNJRFXDT?X?ZEVEVKTMNMHMFOB}DWSGOSYcAN}FFkAF}DJyDPwGj@_QjANAn@d@D","length":172},"routeShortName":"26","routeLongName":"St-Fulgence","rentedBike":false,"transitLeg":true,"duration":555.0,"steps":[]},{"startTime":1522671300000,"endTime":1522672267000,"departureDelay":0,"arrivalDelay":0,"realTime":false,"distance":5105.026131228896,"pathway":false,"mode":"BUS","route":"11","agencyName":"Société de Transport du Saguenay","agencyUrl":"http://ville.saguenay.ca/fr/services-aux-citoyens/transport-sts","agencyTimeZoneOffset":-14400000,"routeColor":"FF0000","routeType":3,"routeId":"1:11","routeTextColor":"FFFFFF","interlineWithPreviousLeg":false,"tripBlockId":"37","headsign":"Boul.Royaume/St-Pierre","agencyId":"0","tripId":"1:218306","serviceDate":"20180402","from":{"name":"Terminus Chicoutimi","stopId":"1:1289","stopCode":"1289","lon":-71.066163,"lat":48.428677,"arrival":1522669200000,"departure":1522671300000,"zoneId":"NA","stopIndex":0,"stopSequence":1,"vertexType":"TRANSIT"},"to":{"name":"St-Paul / Cossette","stopId":"1:122","stopCode":"122","lon":-71.103306,"lat":48.398662,"arrival":1522672267000,"departure":1522672268000,"zoneId":"NA","stopIndex":19,"stopSequence":20,"vertexType":"TRANSIT"},"legGeometry":{"points":"evqfHzcwpLk@?UhKfIh@dKp@GnDIfDOtEE~@Ff@x@rEF~@CbAALO~ADRNJXBr@DfGRPBPJLN@@FPFTBX?TE`BhBR@?J@NELKFOlAiDL[bA`AfIjIbGdGzDzD`A~An@`ApApBpClEvJrOR\\bAfBLa@t@]LjAVvAVbAVv@^bAXj@b@t@xEtGh@r@n@x@FDjA|AlBpCnJ|NNTX`@V`@eCtHpFjH{FhPcB|Ft@|CEAdCnEdHKrBz@lGiQ|CyI~IrJtAzAmKrWsE`LzJjL|P}d@Ri@hCpEpBdC","length":87},"routeShortName":"11","routeLongName":"Chic/Faubourg via St-Paul","rentedBike":false,"transitLeg":true,"duration":967.0,"steps":[]},{"startTime":1522672268000,"endTime":1522672595000,"departureDelay":0,"arrivalDelay":0,"realTime":false,"distance":417.971,"pathway":false,"mode":"WALK","route":"","agencyTimeZoneOffset":-14400000,"interlineWithPreviousLeg":false,"from":{"name":"St-Paul / Cossette","stopId":"1:122","stopCode":"122","lon":-71.103306,"lat":48.398662,"arrival":1522672267000,"departure":1522672268000,"zoneId":"NA","stopIndex":19,"stopSequence":20,"vertexType":"TRANSIT"},"to":{"name":"Destination","lon":-71.106464,"lat":48.395542,"arrival":1522672595000,"orig":"","vertexType":"NORMAL"},"legGeometry":{"points":"{ykfHjk~pLJ_@HJjBrBBBBDv@~@^`@`ChCz@bA|CnDTHFF","length":13},"rentedBike":false,"transitLeg":false,"duration":327.0,"steps":[{"distance":13.735,"relativeDirection":"DEPART","streetName":"Rue Cossette","absoluteDirection":"SOUTHEAST","stayOn":false,"area":false,"bogusName":false,"lon":-71.10341204586585,"lat":48.398545146160764,"elevation":[]},{"distance":404.236,"relativeDirection":"RIGHT","streetName":"Boulevard Saint-Paul","absoluteDirection":"SOUTHWEST","stayOn":false,"area":false,"bogusName":false,"lon":-71.1032527,"lat":48.3984814,"elevation":[]}]}],"tooSloped":false}]},"debugOutput":{"precalculationTime":9,"pathCalculationTime":27,"pathTimes":[14,5,8],"renderingTime":1,"totalTime":37,"timedOut":false},"elevationMetadata":{"ellipsoidToGeoidDifference":-28.885904201182168,"geoidElevation":false}}