{"requestParameters":{"date":"2018/04/02","walkSpeed":"1.33","walkReluctance":"2.0","fromPlace":"48.441541,-71.053902","maxWalkDistance":"3000","waitReluctance":"1.0","carSpeed":"33","numItineraries":"3","waitAtBeginningFactor":"0.4","mode":"TRANSIT,WALK","ignoreRealtimeUpdates":"false","stairsReluctance":"2.0","toPlace":"48.444449,-71.045901","time":"12:55:00"},"plan":{"date":1522688100000,"from":{"name":"Origin","lon":-71.053902,"lat":48.441541,"orig":"","vertexType":"NORMAL"},"to":{"name":"Destination","lon":-71.045901,"lat":48.444449,"orig":"","vertexType":"NORMAL"},"itineraries":[{"duration":567,"startTime":1522688100000,"endTime":1522688667000,"walkTime":567,"transitTime":0,"waitingTime":0,"walkDistance":733.2230300731865,"walkLimitExceeded":false,"elevationLost":0.0,"elevationGained":0.0,"transfers":0,"legs":[{"startTime":1522688100000,"endTime":1522688667000,"departureDelay":0,"arrivalDelay":0,"realTime":false,"distance":733.1610000000001,"pathway":false,"mode":"WALK","route":"","agencyTimeZoneOffset":-14400000,"interlineWithPreviousLeg":false,"from":{"name":"Origin","lon":-71.053902,"lat":48.441541,"departure":1522688100000,"orig":"","vertexType":"NORMAL"},"to":{"name":"Destination","lon":-71.045901,"lat":48.444449,"arrival":1522688667000,"orig":"","vertexType":"NORMAL"},"legGeometry":{"points":"ketfHjvtpLFk@BW@Y@K?k@?G?c@Eu@Gc@AICMAIKc@Oc@o@gBM[IOuAkD_AaCYw@GQUs@]qAc@eBAE[eBWcBAIOoAGc@Iw@yCiA","length":33},"rentedBike":false,"transitLeg":false,"duration":567.0,"steps":[{"distance":643.523,"relativeDirection":"DEPART","streetName":"Boulevard de Tadoussac","absoluteDirection":"EAST","stayOn":false,"area":false,"bogusName":false,"lon":-71.0539774812423,"lat":48.44134711741564,"elevation":[]},{"distance":89.638,"relativeDirection":"LEFT","streetName":"Rue Saint-Émile","absoluteDirection":"NORTH","stayOn":false,"area":false,"bogusName":false,"lon":-71.0462723,"lat":48.4436814,"elevation":[]}]}],"tooSloped":false},{"duration":258,"startTime":1522689638000,"endTime":1522689896000,"walkTime":153,"transitTime":103,"waitingTime":2,"walkDistance":193.0822105252119,"walkLimitExceeded":false,"elevationLost":0.0,"elevationGained":0.0,"transfers":0,"legs":[{"startTime":1522689638000,"endTime":1522689684000,"departureDelay":0,"arrivalDelay":0,"realTime":false,"distance":53.628,"pathway":false,"mode":"WALK","route":"","agencyTimeZoneOffset":-14400000,"interlineWithPreviousLeg":false,"from":{"name":"Origin","lon":-71.053902,"lat":48.441541,"departure":1522689638000,"orig":"","vertexType":"NORMAL"},"to":{"name":"Viau / boul. Tadoussac","stopId":"1:809","stopCode":"809","lon":-71.053452,"lat":48.441096,"arrival":1522689684000,"departure":1522689685000,"zoneId":"NA","stopIndex":6,"stopSequence":7,"vertexType":"TRANSIT"},"legGeometry":{"points":"ketfHjvtpLFk@BW@Y\\L","length":5},"rentedBike":false,"transitLeg":false,"duration":46.0,"steps":[{"distance":35.941,"relativeDirection":"DEPART","streetName":"Boulevard de Tadoussac","absoluteDirection":"EAST","stayOn":false,"area":false,"bogusName":false,"lon":-71.0539774812423,"lat":48.44134711741564,"elevation":[]},{"distance":17.687,"relativeDirection":"RIGHT","streetName":"Rue Viau","absoluteDirection":"SOUTH","stayOn":false,"area":false,"bogusName":false,"lon":-71.05350340000001,"lat":48.4412736,"elevation":[]}]},{"startTime":1522689685000,"endTime":1522689788000,"departureDelay":0,"arrivalDelay":0,"realTime":false,"distance":793.3869078595055,"pathway":false,"mode":"BUS","route":"24","agencyName":"Société de Transport du Saguenay","agencyUrl":"http://ville.saguenay.ca/fr/services-aux-citoyens/transport-sts","agencyTimeZoneOffset":-14400000,"routeColor":"00FF00","routeType":3,"routeId":"1:24","routeTextColor":"000000","interlineWithPreviousLeg":false,"tripBlockId":"5","headsign":"Terminus Chicoutimi","agencyId":"0","tripId":"1:217263","serviceDate":"20180402","from":{"name":"Viau / boul. Tadoussac","stopId":"1:809","stopCode":"809","lon":-71.053452,"lat":48.441096,"arrival":1522689684000,"departure":1522689685000,"zoneId":"NA","stopIndex":6,"stopSequence":7,"vertexType":"TRANSIT"},"to":{"name":"St-Émile / Madeleine","stopId":"1:811","stopCode":"811","lon":-71.045248,"lat":48.445626,"arrival":1522689788000,"departure":1522689789000,"zoneId":"NA","stopIndex":8,"stopSequence":9,"vertexType":"TRANSIT"},"legGeometry":{"points":"}ctfHtstpL_@MBQA}@IwAUoAcAkCWo@qDgJg@cBk@uBi@sC]aCWwCiKuD","length":15},"routeShortName":"24","routeLongName":"Saint-Luc","rentedBike":false,"transitLeg":true,"duration":103.0,"steps":[]},{"startTime":1522689789000,"endTime":1522689896000,"departureDelay":0,"arrivalDelay":0,"realTime":false,"distance":139.42000000000002,"pathway":false,"mode":"WALK","route":"","agencyTimeZoneOffset":-14400000,"interlineWithPreviousLeg":false,"from":{"name":"St-Émile / Madeleine","stopId":"1:811","stopCode":"811","lon":-71.045248,"lat":48.445626,"arrival":1522689788000,"departure":1522689789000,"zoneId":"NA","stopIndex":8,"stopSequence":9,"vertexType":"TRANSIT"},"to":{"name":"Destination","lon":-71.045901,"lat":48.444449,"arrival":1522689896000,"orig":"","vertexType":"NORMAL"},"legGeometry":{"points":"g`ufHh`spLrAj@xCfA","length":3},"rentedBike":false,"transitLeg":false,"duration":107.0,"steps":[{"distance":139.42000000000002,"relativeDirection":"DEPART","streetName":"Rue Saint-Émile","absoluteDirection":"SOUTH","stayOn":false,"area":false,"bogusName":false,"lon":-71.04532866561726,"lat":48.44564391364887,"elevation":[]}]}],"tooSloped":false}]},"debugOutput":{"precalculationTime":14,"pathCalculationTime":16,"pathTimes":[4,7,5],"renderingTime":0,"totalTime":30,"timedOut":false},"elevationMetadata":{"ellipsoidToGeoidDifference":-28.885904201182168,"geoidElevation":false}}