{"requestParameters":{"date":"2018/04/02","walkSpeed":"1.33","walkReluctance":"2.0","fromPlace":"48.437017,-71.066842","maxWalkDistance":"3000","waitReluctance":"1.0","carSpeed":"33","numItineraries":"3","waitAtBeginningFactor":"0.4","mode":"TRANSIT,WALK","ignoreRealtimeUpdates":"false","stairsReluctance":"2.0","toPlace":"48.441453,-71.057199","time":"15:15:00"},"plan":{"date":1522696500000,"from":{"name":"Origin","lon":-71.066842,"lat":48.437017,"orig":"","vertexType":"NORMAL"},"to":{"name":"Destination","lon":-71.057199,"lat":48.441453,"orig":"","vertexType":"NORMAL"},"itineraries":[{"duration":380,"startTime":1522696685000,"endTime":1522697065000,"walkTime":282,"transitTime":96,"waitingTime":2,"walkDistance":359.02727819351145,"walkLimitExceeded":false,"elevationLost":0.0,"elevationGained":0.0,"transfers":0,"legs":[{"startTime":1522696685000,"endTime":1522696739000,"departureDelay":0,"arrivalDelay":0,"realTime":false,"distance":67.951,"pathway":false,"mode":"WALK","route":"","agencyTimeZoneOffset":-14400000,"interlineWithPreviousLeg":false,"from":{"name":"Origin","lon":-71.066842,"lat":48.437017,"departure":1522696685000,"orig":"","vertexType":"NORMAL"},"to":{"name":"Roussel / St-François","stopId":"1:1508","stopCode":"1508","lon":-71.065897,"lat":48.437206,"arrival":1522696739000,"departure":1522696740000,"zoneId":"NA","stopIndex":1,"stopSequence":2,"vertexType":"TRANSIT"},"legGeometry":{"points":"_lsfHtfwpL@}A?eAAS","length":4},"rentedBike":false,"transitLeg":false,"duration":54.0,"steps":[{"distance":67.951,"relativeDirection":"DEPART","streetName":"Rue Roussel","absoluteDirection":"EAST","stayOn":false,"area":false,"bogusName":false,"lon":-71.06682063613432,"lat":48.43728912123803,"elevation":[]}]},{"startTime":1522696740000,"endTime":1522696836000,"departureDelay":0,"arrivalDelay":0,"realTime":false,"distance":707.1721565665315,"pathway":false,"mode":"BUS","route":"24","agencyName":"Société de Transport du Saguenay","agencyUrl":"http://ville.saguenay.ca/fr/services-aux-citoyens/transport-sts","agencyTimeZoneOffset":-14400000,"routeColor":"00FF00","routeType":3,"routeId":"1:24","routeTextColor":"000000","interlineWithPreviousLeg":false,"tripBlockId":"5","headsign":"Terminus Chicoutimi","agencyId":"0","tripId":"1:217267","serviceDate":"20180402","from":{"name":"Roussel / St-François","stopId":"1:1508","stopCode":"1508","lon":-71.065897,"lat":48.437206,"arrival":1522696739000,"departure":1522696740000,"zoneId":"NA","stopIndex":1,"stopSequence":2,"vertexType":"TRANSIT"},"to":{"name":"École le Roseau (Bienville)","stopId":"1:806","stopCode":"806","lon":-71.057164,"lat":48.439798,"arrival":1522696836000,"departure":1522696837000,"zoneId":"NA","stopIndex":4,"stopSequence":5,"vertexType":"TRANSIT"},"legGeometry":{"points":"_lsfHz`wpL?mAEcAGs@OoAa@sB[kAYcASq@Ok@Qq@Ku@MoBKmAa@eHi@FKC_@I??iE}Ah@}DH}@?c@Ea@[_B","length":25},"routeShortName":"24","routeLongName":"Saint-Luc","rentedBike":false,"transitLeg":true,"duration":96.0,"steps":[]},{"startTime":1522696837000,"endTime":1522697065000,"departureDelay":0,"arrivalDelay":0,"realTime":false,"distance":291.015,"pathway":false,"mode":"WALK","route":"","agencyTimeZoneOffset":-14400000,"interlineWithPreviousLeg":false,"from":{"name":"École le Roseau (Bienville)","stopId":"1:806","stopCode":"806","lon":-71.057164,"lat":48.439798,"arrival":1522696836000,"departure":1522696837000,"zoneId":"NA","stopIndex":4,"stopSequence":5,"vertexType":"TRANSIT"},"to":{"name":"Destination","lon":-71.057199,"lat":48.441453,"arrival":1522697065000,"orig":"","vertexType":"NORMAL"},"legGeometry":{"points":"g|sfHxjupLHTJn@Fb@@N@PAN?NANCNALyFuB]YEE}@i@","length":15},"rentedBike":false,"transitLeg":false,"duration":228.0,"steps":[{"distance":84.798,"relativeDirection":"DEPART","streetName":"Rue De Bienville","absoluteDirection":"SOUTHWEST","stayOn":false,"area":false,"bogusName":false,"lon":-71.05724442131621,"lat":48.439881180077734,"elevation":[]},{"distance":145.694,"relativeDirection":"RIGHT","streetName":"Rue Richard","absoluteDirection":"NORTH","stayOn":false,"area":false,"bogusName":false,"lon":-71.05833220000001,"lat":48.4397692,"elevation":[]},{"distance":60.523,"relativeDirection":"CONTINUE","streetName":"path","absoluteDirection":"NORTHEAST","stayOn":false,"area":false,"bogusName":true,"lon":-71.0577406,"lat":48.4410193,"elevation":[]}]}],"tooSloped":false},{"duration":774,"startTime":1522696500000,"endTime":1522697274000,"walkTime":774,"transitTime":0,"waitingTime":0,"walkDistance":989.9768270634477,"walkLimitExceeded":false,"elevationLost":0.0,"elevationGained":0.0,"transfers":0,"legs":[{"startTime":1522696500000,"endTime":1522697274000,"departureDelay":0,"arrivalDelay":0,"realTime":false,"distance":989.8459999999999,"pathway":false,"mode":"WALK","route":"","agencyTimeZoneOffset":-14400000,"interlineWithPreviousLeg":false,"from":{"name":"Origin","lon":-71.066842,"lat":48.437017,"departure":1522696500000,"orig":"","vertexType":"NORMAL"},"to":{"name":"Destination","lon":-71.057199,"lat":48.441453,"arrival":1522697274000,"orig":"","vertexType":"NORMAL"},"legGeometry":{"points":"_lsfHtfwpL@}A?eAASAyAKqCy@gDMc@I_@Y_AUs@Kc@S{@O}@Eo@Gw@]}FKyBm@FYCKCkEaBcFmB[BA_@?qAPqBEE}@i@","length":29},"rentedBike":false,"transitLeg":false,"duration":774.0,"steps":[{"distance":547.576,"relativeDirection":"DEPART","streetName":"Rue Roussel","absoluteDirection":"EAST","stayOn":false,"area":false,"bogusName":false,"lon":-71.06682063613432,"lat":48.43728912123803,"elevation":[]},{"distance":298.443,"relativeDirection":"LEFT","streetName":"Rue Napoléon","absoluteDirection":"NORTH","stayOn":false,"area":false,"bogusName":false,"lon":-71.05977750000001,"lat":48.4385289,"elevation":[]},{"distance":143.827,"relativeDirection":"SLIGHTLY_LEFT","streetName":"path","absoluteDirection":"NORTH","stayOn":false,"area":false,"bogusName":true,"lon":-71.058738,"lat":48.4411019,"elevation":[]}]}],"tooSloped":false},{"duration":255,"startTime":1522698425000,"endTime":1522698680000,"walkTime":183,"transitTime":70,"waitingTime":2,"walkDistance":229.43174435936166,"walkLimitExceeded":false,"elevationLost":0.0,"elevationGained":0.0,"transfers":0,"legs":[{"startTime":1522698425000,"endTime":1522698479000,"departureDelay":0,"arrivalDelay":0,"realTime":false,"distance":67.951,"pathway":false,"mode":"WALK","route":"","agencyTimeZoneOffset":-14400000,"interlineWithPreviousLeg":false,"from":{"name":"Origin","lon":-71.066842,"lat":48.437017,"departure":1522698425000,"orig":"","vertexType":"NORMAL"},"to":{"name":"Roussel / St-François","stopId":"1:1508","stopCode":"1508","lon":-71.065897,"lat":48.437206,"arrival":1522698479000,"departure":1522698480000,"zoneId":"NA","stopIndex":1,"stopSequence":2,"vertexType":"TRANSIT"},"legGeometry":{"points":"_lsfHtfwpL@}A?eAAS","length":4},"rentedBike":false,"transitLeg":false,"duration":54.0,"steps":[{"distance":67.951,"relativeDirection":"DEPART","streetName":"Rue Roussel","absoluteDirection":"EAST","stayOn":false,"area":false,"bogusName":false,"lon":-71.06682063613432,"lat":48.43728912123803,"elevation":[]}]},{"startTime":1522698480000,"endTime":1522698550000,"departureDelay":0,"arrivalDelay":0,"realTime":false,"distance":719.241974706602,"pathway":false,"mode":"BUS","route":"25","agencyName":"Société de Transport du Saguenay","agencyUrl":"http://ville.saguenay.ca/fr/services-aux-citoyens/transport-sts","agencyTimeZoneOffset":-14400000,"routeColor":"00FFFF","routeType":3,"routeId":"1:25","routeTextColor":"000000","interlineWithPreviousLeg":false,"tripBlockId":"68","headsign":"Terminus Chicoutimi","agencyId":"0","tripId":"1:218586","serviceDate":"20180402","from":{"name":"Roussel / St-François","stopId":"1:1508","stopCode":"1508","lon":-71.065897,"lat":48.437206,"arrival":1522698479000,"departure":1522698480000,"zoneId":"NA","stopIndex":1,"stopSequence":2,"vertexType":"TRANSIT"},"to":{"name":"Église St-Luc (boul. Tadoussac)","stopId":"1:2026","stopCode":"2026","lon":-71.058973,"lat":48.441418,"arrival":1522698550000,"departure":1522698551000,"zoneId":"NA","stopIndex":4,"stopSequence":5,"vertexType":"TRANSIT"},"legGeometry":{"points":"_lsfHz`wpL?mAEcAGs@OoAa@sB[kAYcASq@Ok@Qq@Ku@MoBiC}@yBu@AAyBu@o@Qs@[YSSUY]Ye@]{@Me@Kg@K{@","length":27},"routeShortName":"25","routeLongName":"Valin","rentedBike":false,"transitLeg":true,"duration":70.0,"steps":[]},{"startTime":1522698551000,"endTime":1522698680000,"departureDelay":0,"arrivalDelay":0,"realTime":false,"distance":161.433,"pathway":false,"mode":"WALK","route":"","agencyTimeZoneOffset":-14400000,"interlineWithPreviousLeg":false,"from":{"name":"Église St-Luc (boul. Tadoussac)","stopId":"1:2026","stopCode":"2026","lon":-71.058973,"lat":48.441418,"arrival":1522698550000,"departure":1522698551000,"zoneId":"NA","stopIndex":4,"stopSequence":5,"vertexType":"TRANSIT"},"to":{"name":"Destination","lon":-71.057199,"lat":48.441453,"arrival":1522698680000,"orig":"","vertexType":"NORMAL"},"legGeometry":{"points":"wetfHfvupLTGHw@A_@?qAPqBEE}@i@","length":8},"rentedBike":false,"transitLeg":false,"duration":129.0,"steps":[{"distance":161.433,"relativeDirection":"DEPART","streetName":"path","absoluteDirection":"SOUTH","stayOn":false,"area":false,"bogusName":true,"lon":-71.05907515325818,"lat":48.441402285226026,"elevation":[]}]}],"tooSloped":false}]},"debugOutput":{"precalculationTime":28,"pathCalculationTime":16,"pathTimes":[6,8,2],"renderingTime":0,"totalTime":44,"timedOut":false},"elevationMetadata":{"ellipsoidToGeoidDifference":-28.885904201182168,"geoidElevation":false}}