{"requestParameters":{"date":"2018/04/02","walkSpeed":"1.33","walkReluctance":"2.0","fromPlace":"48.417053,-71.071795","maxWalkDistance":"3000","waitReluctance":"1.0","carSpeed":"33","numItineraries":"3","waitAtBeginningFactor":"0.4","mode":"TRANSIT,WALK","ignoreRealtimeUpdates":"false","stairsReluctance":"2.0","toPlace":"48.414448,-71.06932","time":"7:45:00"},"plan":{"date":1522669500000,"from":{"name":"Origin","lon":-71.071795,"lat":48.417053,"orig":"","vertexType":"NORMAL"},"to":{"name":"Destination","lon":-71.06932,"lat":48.414448,"orig":"","vertexType":"NORMAL"},"itineraries":[{"duration":322,"startTime":1522669500000,"endTime":1522669822000,"walkTime":322,"transitTime":0,"waitingTime":0,"walkDistance":415.8236390959491,"walkLimitExceeded":false,"elevationLost":0.0,"elevationGained":0.0,"transfers":0,"legs":[{"startTime":1522669500000,"endTime":1522669822000,"departureDelay":0,"arrivalDelay":0,"realTime":false,"distance":415.768,"pathway":false,"mode":"WALK","route":"","agencyTimeZoneOffset":-14400000,"interlineWithPreviousLeg":false,"from":{"name":"Origin","lon":-71.071795,"lat":48.417053,"departure":1522669500000,"orig":"","vertexType":"NORMAL"},"to":{"name":"Destination","lon":-71.06932,"lat":48.414448,"arrival":1522669822000,"orig":"","vertexType":"NORMAL"},"legGeometry":{"points":"mmofHhhxpLn@n@jC_HzC{IjDR","length":5},"rentedBike":false,"transitLeg":false,"duration":322.0,"steps":[{"distance":32.55,"relativeDirection":"DEPART","streetName":"Rue McLaren","absoluteDirection":"SOUTHWEST","stayOn":false,"area":false,"bogusName":false,"lon":-71.072207,"lat":48.41703690000001,"elevation":[]},{"distance":286.351,"relativeDirection":"LEFT","streetName":"Rue Jauffret","absoluteDirection":"SOUTHEAST","stayOn":false,"area":false,"bogusName":false,"lon":-71.07244630000001,"lat":48.416791,"elevation":[]},{"distance":96.867,"relativeDirection":"RIGHT","streetName":"Rue Jolliet","absoluteDirection":"SOUTH","stayOn":false,"area":false,"bogusName":false,"lon":-71.0692636,"lat":48.4153188,"elevation":[]}]}],"tooSloped":false}]},"debugOutput":{"precalculationTime":95,"pathCalculationTime":25,"pathTimes":[1,20,4],"renderingTime":0,"totalTime":120,"timedOut":false},"elevationMetadata":{"ellipsoidToGeoidDifference":-28.885904201182168,"geoidElevation":false}}