{"requestParameters":{"date":"2018/04/02","walkSpeed":"1.33","walkReluctance":"2.0","fromPlace":"48.433809,-71.02046199","maxWalkDistance":"3000","waitReluctance":"1.0","carSpeed":"33","numItineraries":"3","waitAtBeginningFactor":"0.4","mode":"TRANSIT,WALK","ignoreRealtimeUpdates":"false","stairsReluctance":"2.0","toPlace":"48.426392,-71.068685","time":"19:30:00"},"plan":{"date":1522711800000,"from":{"name":"Origin","lon":-71.02046199,"lat":48.433809,"orig":"","vertexType":"NORMAL"},"to":{"name":"Destination","lon":-71.068685,"lat":48.426392,"orig":"","vertexType":"NORMAL"},"itineraries":[{"duration":1146,"startTime":1522713486000,"endTime":1522714632000,"walkTime":680,"transitTime":464,"waitingTime":2,"walkDistance":863.8532932276846,"walkLimitExceeded":false,"elevationLost":0.0,"elevationGained":0.0,"transfers":0,"legs":[{"startTime":1522713486000,"endTime":1522713795000,"departureDelay":0,"arrivalDelay":0,"realTime":false,"distance":390.02200000000005,"pathway":false,"mode":"WALK","route":"","agencyTimeZoneOffset":-14400000,"interlineWithPreviousLeg":false,"from":{"name":"Origin","lon":-71.02046199,"lat":48.433809,"departure":1522713486000,"orig":"","vertexType":"NORMAL"},"to":{"name":"nouveau","stopId":"1:2303","stopCode":"2303","lon":-71.02291,"lat":48.432276,"arrival":1522713795000,"departure":1522713796000,"zoneId":"NA","stopIndex":24,"stopSequence":25,"vertexType":"TRANSIT"},"legGeometry":{"points":"wsrfHzenpLMvAq@vDXpAlAxEx@uA\\w@`@kAdAzA@?","length":10},"rentedBike":false,"transitLeg":false,"duration":309.0,"steps":[{"distance":106.984,"relativeDirection":"DEPART","streetName":"Rue de Nantes","absoluteDirection":"WEST","stayOn":false,"area":false,"bogusName":false,"lon":-71.02061383667191,"lat":48.43340486524619,"elevation":[]},{"distance":125.201,"relativeDirection":"LEFT","streetName":"Boulevard Renaud","absoluteDirection":"SOUTHWEST","stayOn":false,"area":false,"bogusName":false,"lon":-71.0219762,"lat":48.4337281,"elevation":[]},{"distance":105.887,"relativeDirection":"LEFT","streetName":"Rue du Perche","absoluteDirection":"SOUTHEAST","stayOn":false,"area":false,"bogusName":false,"lon":-71.0234782,"lat":48.433204200000006,"elevation":[]},{"distance":51.95,"relativeDirection":"RIGHT","streetName":"Rue Arthur-Hamel","absoluteDirection":"SOUTHWEST","stayOn":false,"area":false,"bogusName":false,"lon":-71.02238460000001,"lat":48.4325922,"elevation":[]}]},{"startTime":1522713796000,"endTime":1522714260000,"departureDelay":0,"arrivalDelay":0,"realTime":false,"distance":3308.741766648229,"pathway":false,"mode":"BUS","route":"12","agencyName":"Société de Transport du Saguenay","agencyUrl":"http://ville.saguenay.ca/fr/services-aux-citoyens/transport-sts","agencyTimeZoneOffset":-14400000,"routeColor":"556B2F","routeType":3,"routeId":"1:12","routeTextColor":"FFFFFF","interlineWithPreviousLeg":false,"tripBlockId":"29","headsign":"Terminus Chicoutimi","agencyId":"0","tripId":"1:218078","serviceDate":"20180402","from":{"name":"nouveau","stopId":"1:2303","stopCode":"2303","lon":-71.02291,"lat":48.432276,"arrival":1522713795000,"departure":1522713796000,"zoneId":"NA","stopIndex":24,"stopSequence":25,"vertexType":"TRANSIT"},"to":{"name":"Terminus Chicoutimi","stopId":"1:1289","stopCode":"1289","lon":-71.066163,"lat":48.428677,"arrival":1522714260000,"departure":1522714261000,"zoneId":"NA","stopIndex":33,"stopSequence":34,"vertexType":"TRANSIT"},"legGeometry":{"points":"qlrfH|snpLfM|O|FlHmB`IgA|Cy@`UYzHZvMR~Hr@~ZPvHsCrMFxf@|ApJj@nDDl]BvZdCXJhC","length":19},"routeShortName":"12","routeLongName":"Rivière du Moulin","rentedBike":false,"transitLeg":true,"duration":464.0,"steps":[]},{"startTime":1522714261000,"endTime":1522714632000,"departureDelay":0,"arrivalDelay":0,"realTime":false,"distance":473.664,"pathway":false,"mode":"WALK","route":"","agencyTimeZoneOffset":-14400000,"interlineWithPreviousLeg":false,"from":{"name":"Terminus Chicoutimi","stopId":"1:1289","stopCode":"1289","lon":-71.066163,"lat":48.428677,"arrival":1522714260000,"departure":1522714261000,"zoneId":"NA","stopIndex":33,"stopSequence":34,"vertexType":"TRANSIT"},"to":{"name":"Destination","lon":-71.068685,"lat":48.426392,"arrival":1522714632000,"orig":"","vertexType":"NORMAL"},"legGeometry":{"points":"{uqfHb~vpLbAJR@JDb@LrBHP@jCPKdEC`ACvAEnBC~AbAF","length":14},"rentedBike":false,"transitLeg":false,"duration":371.0,"steps":[{"distance":229.71300000000002,"relativeDirection":"DEPART","streetName":"Rue Morin","absoluteDirection":"SOUTH","stayOn":false,"area":false,"bogusName":false,"lon":-71.0654590096484,"lat":48.428628638946556,"elevation":[]},{"distance":206.749,"relativeDirection":"RIGHT","streetName":"Rue Jacques-Cartier Est","absoluteDirection":"WEST","stayOn":false,"area":false,"bogusName":false,"lon":-71.0657774,"lat":48.426577300000005,"elevation":[]},{"distance":37.202,"relativeDirection":"LEFT","streetName":"Rue Sainte-Anne","absoluteDirection":"SOUTH","stayOn":false,"area":false,"bogusName":false,"lon":-71.0685709,"lat":48.426721,"elevation":[]}]}],"tooSloped":false},{"duration":1146,"startTime":1522715286000,"endTime":1522716432000,"walkTime":680,"transitTime":464,"waitingTime":2,"walkDistance":863.8532932276846,"walkLimitExceeded":false,"elevationLost":0.0,"elevationGained":0.0,"transfers":0,"legs":[{"startTime":1522715286000,"endTime":1522715595000,"departureDelay":0,"arrivalDelay":0,"realTime":false,"distance":390.02200000000005,"pathway":false,"mode":"WALK","route":"","agencyTimeZoneOffset":-14400000,"interlineWithPreviousLeg":false,"from":{"name":"Origin","lon":-71.02046199,"lat":48.433809,"departure":1522715286000,"orig":"","vertexType":"NORMAL"},"to":{"name":"nouveau","stopId":"1:2303","stopCode":"2303","lon":-71.02291,"lat":48.432276,"arrival":1522715595000,"departure":1522715596000,"zoneId":"NA","stopIndex":24,"stopSequence":25,"vertexType":"TRANSIT"},"legGeometry":{"points":"wsrfHzenpLMvAq@vDXpAlAxEx@uA\\w@`@kAdAzA@?","length":10},"rentedBike":false,"transitLeg":false,"duration":309.0,"steps":[{"distance":106.984,"relativeDirection":"DEPART","streetName":"Rue de Nantes","absoluteDirection":"WEST","stayOn":false,"area":false,"bogusName":false,"lon":-71.02061383667191,"lat":48.43340486524619,"elevation":[]},{"distance":125.201,"relativeDirection":"LEFT","streetName":"Boulevard Renaud","absoluteDirection":"SOUTHWEST","stayOn":false,"area":false,"bogusName":false,"lon":-71.0219762,"lat":48.4337281,"elevation":[]},{"distance":105.887,"relativeDirection":"LEFT","streetName":"Rue du Perche","absoluteDirection":"SOUTHEAST","stayOn":false,"area":false,"bogusName":false,"lon":-71.0234782,"lat":48.433204200000006,"elevation":[]},{"distance":51.95,"relativeDirection":"RIGHT","streetName":"Rue Arthur-Hamel","absoluteDirection":"SOUTHWEST","stayOn":false,"area":false,"bogusName":false,"lon":-71.02238460000001,"lat":48.4325922,"elevation":[]}]},{"startTime":1522715596000,"endTime":1522716060000,"departureDelay":0,"arrivalDelay":0,"realTime":false,"distance":3308.741766648229,"pathway":false,"mode":"BUS","route":"12","agencyName":"Société de Transport du Saguenay","agencyUrl":"http://ville.saguenay.ca/fr/services-aux-citoyens/transport-sts","agencyTimeZoneOffset":-14400000,"routeColor":"556B2F","routeType":3,"routeId":"1:12","routeTextColor":"FFFFFF","interlineWithPreviousLeg":false,"tripBlockId":"26","headsign":"Terminus Chicoutimi","agencyId":"0","tripId":"1:217991","serviceDate":"20180402","from":{"name":"nouveau","stopId":"1:2303","stopCode":"2303","lon":-71.02291,"lat":48.432276,"arrival":1522715595000,"departure":1522715596000,"zoneId":"NA","stopIndex":24,"stopSequence":25,"vertexType":"TRANSIT"},"to":{"name":"Terminus Chicoutimi","stopId":"1:1289","stopCode":"1289","lon":-71.066163,"lat":48.428677,"arrival":1522716060000,"departure":1522716061000,"zoneId":"NA","stopIndex":33,"stopSequence":34,"vertexType":"TRANSIT"},"legGeometry":{"points":"qlrfH|snpLfM|O|FlHmB`IgA|Cy@`UYzHZvMR~Hr@~ZPvHsCrMFxf@|ApJj@nDDl]BvZdCXJhC","length":19},"routeShortName":"12","routeLongName":"Rivière du Moulin","rentedBike":false,"transitLeg":true,"duration":464.0,"steps":[]},{"startTime":1522716061000,"endTime":1522716432000,"departureDelay":0,"arrivalDelay":0,"realTime":false,"distance":473.664,"pathway":false,"mode":"WALK","route":"","agencyTimeZoneOffset":-14400000,"interlineWithPreviousLeg":false,"from":{"name":"Terminus Chicoutimi","stopId":"1:1289","stopCode":"1289","lon":-71.066163,"lat":48.428677,"arrival":1522716060000,"departure":1522716061000,"zoneId":"NA","stopIndex":33,"stopSequence":34,"vertexType":"TRANSIT"},"to":{"name":"Destination","lon":-71.068685,"lat":48.426392,"arrival":1522716432000,"orig":"","vertexType":"NORMAL"},"legGeometry":{"points":"{uqfHb~vpLbAJR@JDb@LrBHP@jCPKdEC`ACvAEnBC~AbAF","length":14},"rentedBike":false,"transitLeg":false,"duration":371.0,"steps":[{"distance":229.71300000000002,"relativeDirection":"DEPART","streetName":"Rue Morin","absoluteDirection":"SOUTH","stayOn":false,"area":false,"bogusName":false,"lon":-71.0654590096484,"lat":48.428628638946556,"elevation":[]},{"distance":206.749,"relativeDirection":"RIGHT","streetName":"Rue Jacques-Cartier Est","absoluteDirection":"WEST","stayOn":false,"area":false,"bogusName":false,"lon":-71.0657774,"lat":48.426577300000005,"elevation":[]},{"distance":37.202,"relativeDirection":"LEFT","streetName":"Rue Sainte-Anne","absoluteDirection":"SOUTH","stayOn":false,"area":false,"bogusName":false,"lon":-71.0685709,"lat":48.426721,"elevation":[]}]}],"tooSloped":false},{"duration":1146,"startTime":1522717086000,"endTime":1522718232000,"walkTime":680,"transitTime":464,"waitingTime":2,"walkDistance":863.8532932276846,"walkLimitExceeded":false,"elevationLost":0.0,"elevationGained":0.0,"transfers":0,"legs":[{"startTime":1522717086000,"endTime":1522717395000,"departureDelay":0,"arrivalDelay":0,"realTime":false,"distance":390.02200000000005,"pathway":false,"mode":"WALK","route":"","agencyTimeZoneOffset":-14400000,"interlineWithPreviousLeg":false,"from":{"name":"Origin","lon":-71.02046199,"lat":48.433809,"departure":1522717086000,"orig":"","vertexType":"NORMAL"},"to":{"name":"nouveau","stopId":"1:2303","stopCode":"2303","lon":-71.02291,"lat":48.432276,"arrival":1522717395000,"departure":1522717396000,"zoneId":"NA","stopIndex":24,"stopSequence":25,"vertexType":"TRANSIT"},"legGeometry":{"points":"wsrfHzenpLMvAq@vDXpAlAxEx@uA\\w@`@kAdAzA@?","length":10},"rentedBike":false,"transitLeg":false,"duration":309.0,"steps":[{"distance":106.984,"relativeDirection":"DEPART","streetName":"Rue de Nantes","absoluteDirection":"WEST","stayOn":false,"area":false,"bogusName":false,"lon":-71.02061383667191,"lat":48.43340486524619,"elevation":[]},{"distance":125.201,"relativeDirection":"LEFT","streetName":"Boulevard Renaud","absoluteDirection":"SOUTHWEST","stayOn":false,"area":false,"bogusName":false,"lon":-71.0219762,"lat":48.4337281,"elevation":[]},{"distance":105.887,"relativeDirection":"LEFT","streetName":"Rue du Perche","absoluteDirection":"SOUTHEAST","stayOn":false,"area":false,"bogusName":false,"lon":-71.0234782,"lat":48.433204200000006,"elevation":[]},{"distance":51.95,"relativeDirection":"RIGHT","streetName":"Rue Arthur-Hamel","absoluteDirection":"SOUTHWEST","stayOn":false,"area":false,"bogusName":false,"lon":-71.02238460000001,"lat":48.4325922,"elevation":[]}]},{"startTime":1522717396000,"endTime":1522717860000,"departureDelay":0,"arrivalDelay":0,"realTime":false,"distance":3308.741766648229,"pathway":false,"mode":"BUS","route":"12","agencyName":"Société de Transport du Saguenay","agencyUrl":"http://ville.saguenay.ca/fr/services-aux-citoyens/transport-sts","agencyTimeZoneOffset":-14400000,"routeColor":"556B2F","routeType":3,"routeId":"1:12","routeTextColor":"FFFFFF","interlineWithPreviousLeg":false,"tripBlockId":"29","headsign":"Terminus Chicoutimi","agencyId":"0","tripId":"1:218080","serviceDate":"20180402","from":{"name":"nouveau","stopId":"1:2303","stopCode":"2303","lon":-71.02291,"lat":48.432276,"arrival":1522717395000,"departure":1522717396000,"zoneId":"NA","stopIndex":24,"stopSequence":25,"vertexType":"TRANSIT"},"to":{"name":"Terminus Chicoutimi","stopId":"1:1289","stopCode":"1289","lon":-71.066163,"lat":48.428677,"arrival":1522717860000,"departure":1522717861000,"zoneId":"NA","stopIndex":33,"stopSequence":34,"vertexType":"TRANSIT"},"legGeometry":{"points":"qlrfH|snpLfM|O|FlHmB`IgA|Cy@`UYzHZvMR~Hr@~ZPvHsCrMFxf@|ApJj@nDDl]BvZdCXJhC","length":19},"routeShortName":"12","routeLongName":"Rivière du Moulin","rentedBike":false,"transitLeg":true,"duration":464.0,"steps":[]},{"startTime":1522717861000,"endTime":1522718232000,"departureDelay":0,"arrivalDelay":0,"realTime":false,"distance":473.664,"pathway":false,"mode":"WALK","route":"","agencyTimeZoneOffset":-14400000,"interlineWithPreviousLeg":false,"from":{"name":"Terminus Chicoutimi","stopId":"1:1289","stopCode":"1289","lon":-71.066163,"lat":48.428677,"arrival":1522717860000,"departure":1522717861000,"zoneId":"NA","stopIndex":33,"stopSequence":34,"vertexType":"TRANSIT"},"to":{"name":"Destination","lon":-71.068685,"lat":48.426392,"arrival":1522718232000,"orig":"","vertexType":"NORMAL"},"legGeometry":{"points":"{uqfHb~vpLbAJR@JDb@LrBHP@jCPKdEC`ACvAEnBC~AbAF","length":14},"rentedBike":false,"transitLeg":false,"duration":371.0,"steps":[{"distance":229.71300000000002,"relativeDirection":"DEPART","streetName":"Rue Morin","absoluteDirection":"SOUTH","stayOn":false,"area":false,"bogusName":false,"lon":-71.0654590096484,"lat":48.428628638946556,"elevation":[]},{"distance":206.749,"relativeDirection":"RIGHT","streetName":"Rue Jacques-Cartier Est","absoluteDirection":"WEST","stayOn":false,"area":false,"bogusName":false,"lon":-71.0657774,"lat":48.426577300000005,"elevation":[]},{"distance":37.202,"relativeDirection":"LEFT","streetName":"Rue Sainte-Anne","absoluteDirection":"SOUTH","stayOn":false,"area":false,"bogusName":false,"lon":-71.0685709,"lat":48.426721,"elevation":[]}]}],"tooSloped":false}]},"debugOutput":{"precalculationTime":21,"pathCalculationTime":17,"pathTimes":[8,6,2],"renderingTime":0,"totalTime":38,"timedOut":false},"elevationMetadata":{"ellipsoidToGeoidDifference":-28.885904201182168,"geoidElevation":false}}