{"requestParameters":{"date":"2018/04/02","walkSpeed":"1.33","walkReluctance":"2.0","fromPlace":"48.435232,-71.043372","maxWalkDistance":"3000","waitReluctance":"1.0","carSpeed":"33","numItineraries":"3","waitAtBeginningFactor":"0.4","mode":"TRANSIT,WALK","ignoreRealtimeUpdates":"false","stairsReluctance":"2.0","toPlace":"48.403521,-71.09754599","time":"7:0:00"},"plan":{"date":1522666800000,"from":{"name":"Origin","lon":-71.043372,"lat":48.435232,"orig":"","vertexType":"NORMAL"},"to":{"name":"Destination","lon":-71.09754599,"lat":48.403521,"orig":"","vertexType":"NORMAL"},"itineraries":[{"duration":2109,"startTime":1522668364000,"endTime":1522670473000,"walkTime":244,"transitTime":1623,"waitingTime":242,"walkDistance":301.0486917268487,"walkLimitExceeded":false,"elevationLost":0.0,"elevationGained":0.0,"transfers":1,"legs":[{"startTime":1522668364000,"endTime":1522668455000,"departureDelay":0,"arrivalDelay":0,"realTime":false,"distance":105.50200000000001,"pathway":false,"mode":"WALK","route":"","agencyTimeZoneOffset":-14400000,"interlineWithPreviousLeg":false,"from":{"name":"Origin","lon":-71.043372,"lat":48.435232,"departure":1522668364000,"orig":"","vertexType":"NORMAL"},"to":{"name":"Roussel / Évangéline","stopId":"1:127","stopCode":"127","lon":-71.043408,"lat":48.435638,"arrival":1522668455000,"departure":1522668456000,"zoneId":"NA","stopIndex":20,"stopSequence":21,"vertexType":"TRANSIT"},"legGeometry":{"points":"a~rfH`trpL?c@IWkAYElAOI","length":6},"rentedBike":false,"transitLeg":false,"duration":91.0,"steps":[{"distance":66.784,"relativeDirection":"DEPART","streetName":"Rue Potvin","absoluteDirection":"EAST","stayOn":false,"area":false,"bogusName":false,"lon":-71.04336507835787,"lat":48.43505101888287,"elevation":[]},{"distance":29.35,"relativeDirection":"LEFT","streetName":"Rue Roussel","absoluteDirection":"WEST","stayOn":false,"area":false,"bogusName":false,"lon":-71.0429348,"lat":48.4354815,"elevation":[]},{"distance":9.368,"relativeDirection":"RIGHT","streetName":"Rue Évangéline","absoluteDirection":"NORTHEAST","stayOn":false,"area":false,"bogusName":false,"lon":-71.0433285,"lat":48.435519500000005,"elevation":[]}]},{"startTime":1522668456000,"endTime":1522669260000,"departureDelay":0,"arrivalDelay":0,"realTime":false,"distance":4314.343599102579,"pathway":false,"mode":"BUS","route":"24","agencyName":"Société de Transport du Saguenay","agencyUrl":"http://ville.saguenay.ca/fr/services-aux-citoyens/transport-sts","agencyTimeZoneOffset":-14400000,"routeColor":"00FF00","routeType":3,"routeId":"1:24","routeTextColor":"000000","interlineWithPreviousLeg":false,"tripBlockId":"5","headsign":"Terminus Chicoutimi","agencyId":"0","tripId":"1:217251","serviceDate":"20180402","from":{"name":"Roussel / Évangéline","stopId":"1:127","stopCode":"127","lon":-71.043408,"lat":48.435638,"arrival":1522668455000,"departure":1522668456000,"zoneId":"NA","stopIndex":20,"stopSequence":21,"vertexType":"TRANSIT"},"to":{"name":"Terminus Chicoutimi","stopId":"1:1289","stopCode":"1289","lon":-71.066163,"lat":48.428677,"arrival":1522669260000,"departure":1522669500000,"zoneId":"NA","stopIndex":35,"stopSequence":36,"vertexType":"TRANSIT"},"legGeometry":{"points":"easfHltrpLKbBUrBMp@Sn@gAlCk@pAw@fCwB|HCNk@jCeDuAq@UC?mG_CaHiCsJqD_A]VvC\\`Ch@rCj@tBf@bBxDxJN\\bAjCTnAHvA@|@CPIpAe@pDUfBCTEXK~@MxAEn@@v@Bp@Dr@l@~HNlAH\\@HLd@\\z@Xd@X\\RTXRr@Zn@PfExAvDpALnBJt@Pp@Nj@l@tBHZPn@`@rBNnAFr@DbA?bB@jABzA?p@A???A???A?A???A@??A?A@??A@?@A??@A@???@A@?@?@A@?@?@?@?@???@?@?@?@?@?@@@?@?@@@?@@@?@@@?@@?@@??@@@?E`@Kr@]rACVEl@I|AAr@JbAWJe@FUAM?a@Ke@YYWWa@v@}@RQPMz@k@tAe@REZG^Af@@X@VF`@Jn@XbClAr@Xt\\`PrAb@pA^hBTjAFj@Pb@JPHLLJNJRFXDT?X?ZEVEVKTMNMHMFOB}DWSGOSYcAN}FFkAF}DJyDPwGvAHN_HDiB@m@","length":184},"routeShortName":"24","routeLongName":"Saint-Luc","rentedBike":false,"transitLeg":true,"duration":804.0,"steps":[]},{"startTime":1522669500000,"endTime":1522670319000,"departureDelay":0,"arrivalDelay":0,"realTime":false,"distance":4123.89641559421,"pathway":false,"mode":"BUS","route":"11","agencyName":"Société de Transport du Saguenay","agencyUrl":"http://ville.saguenay.ca/fr/services-aux-citoyens/transport-sts","agencyTimeZoneOffset":-14400000,"routeColor":"FF0000","routeType":3,"routeId":"1:11","routeTextColor":"FFFFFF","interlineWithPreviousLeg":false,"tripBlockId":"35","headsign":"Boul.Royaume/St-Pierre","agencyId":"0","tripId":"1:218244","serviceDate":"20180402","from":{"name":"Terminus Chicoutimi","stopId":"1:1289","stopCode":"1289","lon":-71.066163,"lat":48.428677,"arrival":1522669260000,"departure":1522669500000,"zoneId":"NA","stopIndex":0,"stopSequence":1,"vertexType":"TRANSIT"},"to":{"name":"boul. St-Paul (no. 1600)","stopId":"1:1932","stopCode":"1932","lon":-71.09929,"lat":48.402192,"arrival":1522670319000,"departure":1522670320000,"zoneId":"NA","stopIndex":16,"stopSequence":17,"vertexType":"TRANSIT"},"legGeometry":{"points":"evqfHzcwpLk@?UhKfIh@dKp@GnDIfDOtEE~@Ff@x@rEF~@CbAALO~ADRNJXBr@DfGRPBPJLN@@FPFTBX?TE`BhBR@?J@NELKFOlAiDL[bA`AfIjIbGdGzDzD`A~An@`ApApBpClEvJrOR\\bAfBLa@t@]LjAVvAVbAVv@^bAXj@b@t@xEtGh@r@n@x@FDjA|AlBpCnJ|NNTX`@V`@eCtHpFjH{FhPcB|Ft@|CEAdCnEdHKrBz@lGiQ|CyI~IrJ","length":79},"routeShortName":"11","routeLongName":"Chic/Faubourg via St-Paul","rentedBike":false,"transitLeg":true,"duration":819.0,"steps":[]},{"startTime":1522670320000,"endTime":1522670473000,"departureDelay":0,"arrivalDelay":0,"realTime":false,"distance":195.47,"pathway":false,"mode":"WALK","route":"","agencyTimeZoneOffset":-14400000,"interlineWithPreviousLeg":false,"from":{"name":"boul. St-Paul (no. 1600)","stopId":"1:1932","stopCode":"1932","lon":-71.09929,"lat":48.402192,"arrival":1522670319000,"departure":1522670320000,"zoneId":"NA","stopIndex":16,"stopSequence":17,"vertexType":"TRANSIT"},"to":{"name":"Destination","lon":-71.09754599,"lat":48.403521,"arrival":1522670473000,"orig":"","vertexType":"NORMAL"},"legGeometry":{"points":"iplfHxp}pLIKg@k@_AeA{@eAg@i@cAkA??","length":8},"rentedBike":false,"transitLeg":false,"duration":153.0,"steps":[{"distance":195.47,"relativeDirection":"DEPART","streetName":"Boulevard Saint-Paul","absoluteDirection":"NORTHEAST","stayOn":false,"area":false,"bogusName":false,"lon":-71.09916942737614,"lat":48.40213288118003,"elevation":[]}]}],"tooSloped":false},{"duration":3768,"startTime":1522667667000,"endTime":1522671435000,"walkTime":1552,"transitTime":1914,"waitingTime":302,"walkDistance":1998.3515187870696,"walkLimitExceeded":false,"elevationLost":0.0,"elevationGained":0.0,"transfers":1,"legs":[{"startTime":1522667667000,"endTime":1522668705000,"departureDelay":0,"arrivalDelay":0,"realTime":false,"distance":1330.843,"pathway":false,"mode":"WALK","route":"","agencyTimeZoneOffset":-14400000,"interlineWithPreviousLeg":false,"from":{"name":"Origin","lon":-71.043372,"lat":48.435232,"departure":1522667667000,"orig":"","vertexType":"NORMAL"},"to":{"name":"Tadoussac (no. 1850)","stopId":"1:829","stopCode":"829","lon":-71.051444,"lat":48.441894,"arrival":1522668705000,"departure":1522668706000,"zoneId":"NA","stopIndex":30,"stopSequence":31,"vertexType":"TRANSIT"},"legGeometry":{"points":"a~rfH`trpL@VYpA]Hu@IOlBc@hBqAnCO\\mAxDwB|HER[vAMp@gDyAq@[_@pCMLI@K?G?yEi@MAWWWY[]]Mm@UUrBNpDqDOsAzAtAjDHN","length":34},"rentedBike":false,"transitLeg":false,"duration":1038.0,"steps":[{"distance":88.826,"relativeDirection":"DEPART","streetName":"Rue Potvin","absoluteDirection":"WEST","stayOn":false,"area":false,"bogusName":false,"lon":-71.04336507835787,"lat":48.43505101888287,"elevation":[]},{"distance":450.12100000000004,"relativeDirection":"LEFT","streetName":"Rue Roussel","absoluteDirection":"WEST","stayOn":false,"area":false,"bogusName":false,"lon":-71.0438992,"lat":48.4355903,"elevation":[]},{"distance":128.841,"relativeDirection":"RIGHT","streetName":"Rue Saint-Émile","absoluteDirection":"NORTH","stayOn":false,"area":false,"bogusName":false,"lon":-71.0491575,"lat":48.437575100000004,"elevation":[]},{"distance":308.642,"relativeDirection":"LEFT","streetName":"Rue du Beaujolais","absoluteDirection":"WEST","stayOn":false,"area":false,"bogusName":false,"lon":-71.0485659,"lat":48.438665300000004,"elevation":[]},{"distance":266.884,"relativeDirection":"LEFT","streetName":"path","absoluteDirection":"WEST","stayOn":false,"area":false,"bogusName":true,"lon":-71.0485709,"lat":48.4409676,"elevation":[]},{"distance":87.529,"relativeDirection":"LEFT","streetName":"Boulevard de Tadoussac","absoluteDirection":"SOUTHWEST","stayOn":false,"area":false,"bogusName":false,"lon":-71.0504216,"lat":48.4423022,"elevation":[]}]},{"startTime":1522668706000,"endTime":1522669200000,"departureDelay":0,"arrivalDelay":0,"realTime":false,"distance":2802.1502810992097,"pathway":false,"mode":"BUS","route":"26","agencyName":"Société de Transport du Saguenay","agencyUrl":"http://ville.saguenay.ca/fr/services-aux-citoyens/transport-sts","agencyTimeZoneOffset":-14400000,"routeColor":"00FFFF","routeType":3,"routeId":"1:26","routeTextColor":"000000","interlineWithPreviousLeg":false,"headsign":"Terminus Chicoutimi","agencyId":"0","tripId":"1:218769","serviceDate":"20180402","from":{"name":"Tadoussac (no. 1850)","stopId":"1:829","stopCode":"829","lon":-71.051444,"lat":48.441894,"arrival":1522668705000,"departure":1522668706000,"zoneId":"NA","stopIndex":30,"stopSequence":31,"vertexType":"TRANSIT"},"to":{"name":"Terminus Chicoutimi","stopId":"1:1289","stopCode":"1289","lon":-71.066163,"lat":48.428677,"arrival":1522669200000,"departure":1522669500000,"zoneId":"NA","stopIndex":38,"stopSequence":39,"vertexType":"TRANSIT"},"legGeometry":{"points":"ohtfHdftpLN\\bAjCTnAHvA@|@CPIpAS`BQnAUfBCTEXK~@MxAEn@@v@Bp@Dr@l@~HNlAH\\@HLd@\\z@Xd@X\\RTXRr@Zn@PzBv@jA`@l@RhC|@LnBJt@Pp@Nj@l@tBHZPn@`@rBNnAFr@DbA?bB@jABzA?p@A???A???A?A???A@??A?A@??A@?@A??@A@???@A@?@?@A@?@?@?@?@???@?@?@?@?@?@@@?@?@@@?@@@?@@@?@@?@@??@@@?E`@Kr@]rACVEl@I|AAr@JbAWJe@FUAM?a@Ke@YYWWa@v@}@RQPMz@k@tAe@REZG^Af@@X@VF`@Jn@XbClAr@Xt\\`PrAb@pA^hBTjAFj@Pb@JPHLLJNJRFXDT?X?ZEVEVKTMNMHMFOB}DWSGOSYcAN}FFkAF}DJyDPwGj@_QjANAn@d@D","length":164},"routeShortName":"26","routeLongName":"St-Fulgence","rentedBike":false,"transitLeg":true,"duration":494.0,"steps":[]},{"startTime":1522669500000,"endTime":1522670920000,"departureDelay":0,"arrivalDelay":0,"realTime":false,"distance":7475.559574856033,"pathway":false,"mode":"BUS","route":"14","agencyName":"Société de Transport du Saguenay","agencyUrl":"http://ville.saguenay.ca/fr/services-aux-citoyens/transport-sts","agencyTimeZoneOffset":-14400000,"routeColor":"C0C000","routeType":3,"routeId":"1:14","routeTextColor":"000000","interlineWithPreviousLeg":false,"tripBlockId":"30","headsign":"Talbot / Barrette","agencyId":"0","tripId":"1:218089","serviceDate":"20180402","from":{"name":"Terminus Chicoutimi","stopId":"1:1289","stopCode":"1289","lon":-71.066163,"lat":48.428677,"arrival":1522669200000,"departure":1522669500000,"zoneId":"NA","stopIndex":0,"stopSequence":1,"vertexType":"TRANSIT"},"to":{"name":"Malraux / Pagnol","stopId":"1:1978","stopCode":"1978","lon":-71.093388,"lat":48.400416,"arrival":1522670920000,"departure":1522670921000,"zoneId":"NA","stopIndex":29,"stopSequence":30,"vertexType":"TRANSIT"},"legGeometry":{"points":"qvqfHnbwpLJkClLh@DsDTmSHwFB{I@m@@eBH_AF}A@w@Dq@@i@B}B@Y@e@D]F_@@SHQCKnBnBvIrIn@n@\\iATg@v@_ATg@LmABg@Is@c@iEAm@bAcDTcAtA{DJI|AxAvAvAQv@~@z@dA`ATq@`E~DL`@E`Ex@hDd@`B}FtFaAzAm@xAe@jCa@nDiAbm@SpKM`H]vBhDVzCTcAvCO^bEbEzK`LfBeEtK`KhAdAnCbCvBpCNR~BxAxBf@z@h@vAz@z@{DrCoITTlElEtAnB`@l@pFrD@?fDr@XgAjFuR\\yADm@b@gFd@_B`A}@tEvJBDvC`FtJ|LLNlClC|@^hCYVExCjCb@d@vE`F`BhB?pHaBhRqAbLK~@qBxFqB|FcC~GyC\\aDkD","length":112},"routeShortName":"14","routeLongName":"Coopérative","rentedBike":false,"transitLeg":true,"duration":1420.0,"steps":[]},{"startTime":1522670921000,"endTime":1522671435000,"departureDelay":0,"arrivalDelay":0,"realTime":false,"distance":667.2009999999999,"pathway":false,"mode":"WALK","route":"","agencyTimeZoneOffset":-14400000,"interlineWithPreviousLeg":false,"from":{"name":"Malraux / Pagnol","stopId":"1:1978","stopCode":"1978","lon":-71.093388,"lat":48.400416,"arrival":1522670920000,"departure":1522670921000,"zoneId":"NA","stopIndex":29,"stopSequence":30,"vertexType":"TRANSIT"},"to":{"name":"Destination","lon":-71.09754599,"lat":48.403521,"arrival":1522671435000,"orig":"","vertexType":"NORMAL"},"legGeometry":{"points":"selfHzl|pLkF{Fa@jAA?{EvMy@tBGPsCrHpA~A","length":9},"rentedBike":false,"transitLeg":false,"duration":514.0,"steps":[{"distance":160.301,"relativeDirection":"DEPART","streetName":"Rue Malraux","absoluteDirection":"NORTHEAST","stayOn":false,"area":false,"bogusName":false,"lon":-71.09341079342245,"lat":48.40042668071038,"elevation":[]},{"distance":449.30899999999997,"relativeDirection":"LEFT","streetName":"Boulevard Barrette","absoluteDirection":"NORTHWEST","stayOn":false,"area":false,"bogusName":false,"lon":-71.0921587,"lat":48.401604500000005,"elevation":[]},{"distance":57.591,"relativeDirection":"LEFT","streetName":"Boulevard Saint-Paul","absoluteDirection":"SOUTHWEST","stayOn":false,"area":false,"bogusName":false,"lon":-71.0971116,"lat":48.4039529,"elevation":[]}]}],"tooSloped":false},{"duration":1989,"startTime":1522670284000,"endTime":1522672273000,"walkTime":244,"transitTime":1503,"waitingTime":242,"walkDistance":301.0486917268487,"walkLimitExceeded":false,"elevationLost":0.0,"elevationGained":0.0,"transfers":1,"legs":[{"startTime":1522670284000,"endTime":1522670375000,"departureDelay":0,"arrivalDelay":0,"realTime":false,"distance":105.50200000000001,"pathway":false,"mode":"WALK","route":"","agencyTimeZoneOffset":-14400000,"interlineWithPreviousLeg":false,"from":{"name":"Origin","lon":-71.043372,"lat":48.435232,"departure":1522670284000,"orig":"","vertexType":"NORMAL"},"to":{"name":"Roussel / Évangéline","stopId":"1:127","stopCode":"127","lon":-71.043408,"lat":48.435638,"arrival":1522670375000,"departure":1522670376000,"zoneId":"NA","stopIndex":20,"stopSequence":21,"vertexType":"TRANSIT"},"legGeometry":{"points":"a~rfH`trpL?c@IWkAYElAOI","length":6},"rentedBike":false,"transitLeg":false,"duration":91.0,"steps":[{"distance":66.784,"relativeDirection":"DEPART","streetName":"Rue Potvin","absoluteDirection":"EAST","stayOn":false,"area":false,"bogusName":false,"lon":-71.04336507835787,"lat":48.43505101888287,"elevation":[]},{"distance":29.35,"relativeDirection":"LEFT","streetName":"Rue Roussel","absoluteDirection":"WEST","stayOn":false,"area":false,"bogusName":false,"lon":-71.0429348,"lat":48.4354815,"elevation":[]},{"distance":9.368,"relativeDirection":"RIGHT","streetName":"Rue Évangéline","absoluteDirection":"NORTHEAST","stayOn":false,"area":false,"bogusName":false,"lon":-71.0433285,"lat":48.435519500000005,"elevation":[]}]},{"startTime":1522670376000,"endTime":1522671060000,"departureDelay":0,"arrivalDelay":0,"realTime":false,"distance":4314.343599102579,"pathway":false,"mode":"BUS","route":"24","agencyName":"Société de Transport du Saguenay","agencyUrl":"http://ville.saguenay.ca/fr/services-aux-citoyens/transport-sts","agencyTimeZoneOffset":-14400000,"routeColor":"00FF00","routeType":3,"routeId":"1:24","routeTextColor":"000000","interlineWithPreviousLeg":false,"tripBlockId":"4","headsign":"Terminus Chicoutimi","agencyId":"0","tripId":"1:217225","serviceDate":"20180402","from":{"name":"Roussel / Évangéline","stopId":"1:127","stopCode":"127","lon":-71.043408,"lat":48.435638,"arrival":1522670375000,"departure":1522670376000,"zoneId":"NA","stopIndex":20,"stopSequence":21,"vertexType":"TRANSIT"},"to":{"name":"Terminus Chicoutimi","stopId":"1:1289","stopCode":"1289","lon":-71.066163,"lat":48.428677,"arrival":1522671060000,"departure":1522671300000,"zoneId":"NA","stopIndex":35,"stopSequence":36,"vertexType":"TRANSIT"},"legGeometry":{"points":"easfHltrpLKbBUrBMp@Sn@gAlCk@pAw@fCwB|HCNk@jCeDuAq@UC?mG_CaHiCsJqD_A]VvC\\`Ch@rCj@tBf@bBxDxJN\\bAjCTnAHvA@|@CPIpAe@pDUfBCTEXK~@MxAEn@@v@Bp@Dr@l@~HNlAH\\@HLd@\\z@Xd@X\\RTXRr@Zn@PfExAvDpALnBJt@Pp@Nj@l@tBHZPn@`@rBNnAFr@DbA?bB@jABzA?p@A???A???A?A???A@??A?A@??A@?@A??@A@???@A@?@?@A@?@?@?@?@???@?@?@?@?@?@@@?@?@@@?@@@?@@@?@@?@@??@@@?E`@Kr@]rACVEl@I|AAr@JbAWJe@FUAM?a@Ke@YYWWa@v@}@RQPMz@k@tAe@REZG^Af@@X@VF`@Jn@XbClAr@Xt\\`PrAb@pA^hBTjAFj@Pb@JPHLLJNJRFXDT?X?ZEVEVKTMNMHMFOB}DWSGOSYcAN}FFkAF}DJyDPwGvAHN_HDiB@m@","length":184},"routeShortName":"24","routeLongName":"Saint-Luc","rentedBike":false,"transitLeg":true,"duration":684.0,"steps":[]},{"startTime":1522671300000,"endTime":1522672119000,"departureDelay":0,"arrivalDelay":0,"realTime":false,"distance":4123.89641559421,"pathway":false,"mode":"BUS","route":"11","agencyName":"Société de Transport du Saguenay","agencyUrl":"http://ville.saguenay.ca/fr/services-aux-citoyens/transport-sts","agencyTimeZoneOffset":-14400000,"routeColor":"FF0000","routeType":3,"routeId":"1:11","routeTextColor":"FFFFFF","interlineWithPreviousLeg":false,"tripBlockId":"37","headsign":"Boul.Royaume/St-Pierre","agencyId":"0","tripId":"1:218306","serviceDate":"20180402","from":{"name":"Terminus Chicoutimi","stopId":"1:1289","stopCode":"1289","lon":-71.066163,"lat":48.428677,"arrival":1522671060000,"departure":1522671300000,"zoneId":"NA","stopIndex":0,"stopSequence":1,"vertexType":"TRANSIT"},"to":{"name":"boul. St-Paul (no. 1600)","stopId":"1:1932","stopCode":"1932","lon":-71.09929,"lat":48.402192,"arrival":1522672119000,"departure":1522672120000,"zoneId":"NA","stopIndex":16,"stopSequence":17,"vertexType":"TRANSIT"},"legGeometry":{"points":"evqfHzcwpLk@?UhKfIh@dKp@GnDIfDOtEE~@Ff@x@rEF~@CbAALO~ADRNJXBr@DfGRPBPJLN@@FPFTBX?TE`BhBR@?J@NELKFOlAiDL[bA`AfIjIbGdGzDzD`A~An@`ApApBpClEvJrOR\\bAfBLa@t@]LjAVvAVbAVv@^bAXj@b@t@xEtGh@r@n@x@FDjA|AlBpCnJ|NNTX`@V`@eCtHpFjH{FhPcB|Ft@|CEAdCnEdHKrBz@lGiQ|CyI~IrJ","length":79},"routeShortName":"11","routeLongName":"Chic/Faubourg via St-Paul","rentedBike":false,"transitLeg":true,"duration":819.0,"steps":[]},{"startTime":1522672120000,"endTime":1522672273000,"departureDelay":0,"arrivalDelay":0,"realTime":false,"distance":195.47,"pathway":false,"mode":"WALK","route":"","agencyTimeZoneOffset":-14400000,"interlineWithPreviousLeg":false,"from":{"name":"boul. St-Paul (no. 1600)","stopId":"1:1932","stopCode":"1932","lon":-71.09929,"lat":48.402192,"arrival":1522672119000,"departure":1522672120000,"zoneId":"NA","stopIndex":16,"stopSequence":17,"vertexType":"TRANSIT"},"to":{"name":"Destination","lon":-71.09754599,"lat":48.403521,"arrival":1522672273000,"orig":"","vertexType":"NORMAL"},"legGeometry":{"points":"iplfHxp}pLIKg@k@_AeA{@eAg@i@cAkA??","length":8},"rentedBike":false,"transitLeg":false,"duration":153.0,"steps":[{"distance":195.47,"relativeDirection":"DEPART","streetName":"Boulevard Saint-Paul","absoluteDirection":"NORTHEAST","stayOn":false,"area":false,"bogusName":false,"lon":-71.09916942737614,"lat":48.40213288118003,"elevation":[]}]}],"tooSloped":false}]},"debugOutput":{"precalculationTime":13,"pathCalculationTime":22,"pathTimes":[14,3,5],"renderingTime":1,"totalTime":36,"timedOut":false},"elevationMetadata":{"ellipsoidToGeoidDifference":-28.885904201182168,"geoidElevation":false}}