{"requestParameters":{"date":"2018/04/02","walkSpeed":"1.33","walkReluctance":"2.0","fromPlace":"48.436902,-71.049634","maxWalkDistance":"3000","waitReluctance":"1.0","carSpeed":"33","numItineraries":"3","waitAtBeginningFactor":"0.4","mode":"TRANSIT,WALK","ignoreRealtimeUpdates":"false","stairsReluctance":"2.0","toPlace":"48.42282,-71.074954","time":"20:30:00"},"plan":{"date":1522715400000,"from":{"name":"Origin","lon":-71.049634,"lat":48.436902,"orig":"","vertexType":"NORMAL"},"to":{"name":"Destination","lon":-71.074954,"lat":48.42282,"orig":"","vertexType":"NORMAL"},"itineraries":[{"duration":1956,"startTime":1522716315000,"endTime":1522718271000,"walkTime":1593,"transitTime":361,"waitingTime":2,"walkDistance":2035.4772105155319,"walkLimitExceeded":false,"elevationLost":0.0,"elevationGained":0.0,"transfers":0,"legs":[{"startTime":1522716315000,"endTime":1522717096000,"departureDelay":0,"arrivalDelay":0,"realTime":false,"distance":1000.957,"pathway":false,"mode":"WALK","route":"","agencyTimeZoneOffset":-14400000,"interlineWithPreviousLeg":false,"from":{"name":"Origin","lon":-71.049634,"lat":48.436902,"departure":1522716315000,"orig":"","vertexType":"NORMAL"},"to":{"name":"Boileau / Colbert","stopId":"1:2019","stopCode":"2019","lon":-71.054133,"lat":48.442456,"arrival":1522717096000,"departure":1522717097000,"zoneId":"NA","stopIndex":18,"stopSequence":19,"vertexType":"TRANSIT"},"legGeometry":{"points":"wjsfHtzspLU`BYzC[LUBe@MKCYKMrAe@rOSbEgF{AOEaDmAwCgA]McC_Ae@~D}@Y","length":19},"rentedBike":false,"transitLeg":false,"duration":781.0,"steps":[{"distance":97.494,"relativeDirection":"DEPART","streetName":"Rue de Condé","absoluteDirection":"WEST","stayOn":false,"area":false,"bogusName":false,"lon":-71.04954497168754,"lat":48.43708745998634,"elevation":[]},{"distance":71.403,"relativeDirection":"RIGHT","streetName":"Rue Richmond","absoluteDirection":"NORTH","stayOn":false,"area":false,"bogusName":false,"lon":-71.0508154,"lat":48.4373281,"elevation":[]},{"distance":302.156,"relativeDirection":"LEFT","streetName":"Rue Roussel","absoluteDirection":"WEST","stayOn":false,"area":false,"bogusName":false,"lon":-71.05075740000001,"lat":48.43795,"elevation":[]},{"distance":420.20500000000004,"relativeDirection":"RIGHT","streetName":"Rue Viau","absoluteDirection":"NORTH","stayOn":false,"area":false,"bogusName":false,"lon":-71.0548121,"lat":48.438311000000006,"elevation":[]},{"distance":74.473,"relativeDirection":"LEFT","streetName":"Rue Colbert","absoluteDirection":"WEST","stayOn":false,"area":false,"bogusName":false,"lon":-71.0531831,"lat":48.4419309,"elevation":[]},{"distance":35.226,"relativeDirection":"RIGHT","streetName":"Rue Boileau","absoluteDirection":"NORTH","stayOn":false,"area":false,"bogusName":false,"lon":-71.0541475,"lat":48.4421291,"elevation":[]}]},{"startTime":1522717097000,"endTime":1522717458000,"departureDelay":0,"arrivalDelay":0,"realTime":false,"distance":2343.366891500251,"pathway":false,"mode":"BUS","route":"23","agencyName":"Société de Transport du Saguenay","agencyUrl":"http://ville.saguenay.ca/fr/services-aux-citoyens/transport-sts","agencyTimeZoneOffset":-14400000,"routeColor":"FF00FF","routeType":3,"routeId":"1:23","routeTextColor":"FFFFFF","interlineWithPreviousLeg":false,"tripBlockId":"5","headsign":"Terminus Chicoutimi","agencyId":"0","tripId":"1:217278","serviceDate":"20180402","from":{"name":"Boileau / Colbert","stopId":"1:2019","stopCode":"2019","lon":-71.054133,"lat":48.442456,"arrival":1522717096000,"departure":1522717097000,"zoneId":"NA","stopIndex":18,"stopSequence":19,"vertexType":"TRANSIT"},"to":{"name":"boul. Saguenay / Ste-Anne","stopId":"1:160","stopCode":"160","lon":-71.069701,"lat":48.429464,"arrival":1522717458000,"departure":1522717459000,"zoneId":"NA","stopIndex":25,"stopSequence":26,"vertexType":"TRANSIT"},"legGeometry":{"points":"eltfHvvtpLx@Xw@pG@l@B\\DXL\\RZDFXPf@N@v@Bp@Dr@l@~HNlAH\\@HLd@\\z@Xd@X\\RTXRr@Zn@PfExAvDpALnBJt@Pp@|@`DHZPn@`@rBNnAFr@DbA?bB@jABzA?p@A???A???A?A???A@??A?A@??A@?@A??@A@???@A@?@?@A@?@?@?@?@???@?@?@?@?@?@@@?@?@@@?@@@?@@@?@@?@@??@@@?E`@Kr@]rACVEl@I|AAr@JbAWJe@FUAM?a@Ke@YYWWa@v@}@RQPMz@k@tAe@REZG^Af@@X@VF`@Jn@XbClAr@Xt\\`PrAb@pA^hBTjAFj@Pb@JPHLLJNJRFXDT?X?ZEVEVKTMNMHMFOB}DWSGOSYcAN}FFkAF}DJyD","length":151},"routeShortName":"23","routeLongName":"Côte Verdun via Aréna du Plateau","rentedBike":false,"transitLeg":true,"duration":361.0,"steps":[]},{"startTime":1522717459000,"endTime":1522718271000,"departureDelay":0,"arrivalDelay":0,"realTime":false,"distance":1034.186,"pathway":false,"mode":"WALK","route":"","agencyTimeZoneOffset":-14400000,"interlineWithPreviousLeg":false,"from":{"name":"boul. Saguenay / Ste-Anne","stopId":"1:160","stopCode":"160","lon":-71.069701,"lat":48.429464,"arrival":1522717458000,"departure":1522717459000,"zoneId":"NA","stopIndex":25,"stopSequence":26,"vertexType":"TRANSIT"},"to":{"name":"Destination","lon":-71.074954,"lat":48.42282,"arrival":1522718271000,"orig":"","vertexType":"NORMAL"},"legGeometry":{"points":"s{qfHrxwpLAZGxEDl@Ph@DDLNn@^n@CpAQn@CtBI~AI|@CjAJVJRXJRFFJBJEBG`AXNLDb@@Zp@hDF|@BZEbA?@ARGh@Gj@r@TdCRzCCZ?x@\\BVDf@","length":41},"rentedBike":false,"transitLeg":false,"duration":812.0,"steps":[{"distance":90.943,"relativeDirection":"DEPART","streetName":"Boulevard du Saguenay Ouest","absoluteDirection":"WEST","stayOn":false,"area":false,"bogusName":false,"lon":-71.06969134971845,"lat":48.42954562670822,"elevation":[]},{"distance":78.91,"relativeDirection":"CONTINUE","streetName":"link","absoluteDirection":"WEST","stayOn":false,"area":false,"bogusName":true,"lon":-71.07092130000001,"lat":48.429599100000004,"elevation":[]},{"distance":356.799,"relativeDirection":"SLIGHTLY_LEFT","streetName":"Rue Montcalm","absoluteDirection":"SOUTH","stayOn":false,"area":false,"bogusName":false,"lon":-71.07163890000001,"lat":48.4291351,"elevation":[]},{"distance":48.492,"relativeDirection":"SLIGHTLY_RIGHT","streetName":"path","absoluteDirection":"SOUTH","stayOn":false,"area":false,"bogusName":true,"lon":-71.0717267,"lat":48.426028200000005,"elevation":[]},{"distance":193.44,"relativeDirection":"RIGHT","streetName":"Rue Price Ouest","absoluteDirection":"WEST","stayOn":false,"area":false,"bogusName":false,"lon":-71.0719217,"lat":48.425614800000005,"elevation":[]},{"distance":240.725,"relativeDirection":"LEFT","streetName":"Rue Sainte-Marthe","absoluteDirection":"SOUTH","stayOn":false,"area":false,"bogusName":false,"lon":-71.07442610000001,"lat":48.425381900000005,"elevation":[]},{"distance":24.877,"relativeDirection":"RIGHT","streetName":"Rue Gilbert","absoluteDirection":"WEST","stayOn":false,"area":false,"bogusName":false,"lon":-71.0747607,"lat":48.4232457,"elevation":[]}]}],"tooSloped":false},{"duration":2556,"startTime":1522716024000,"endTime":1522718580000,"walkTime":2339,"transitTime":215,"waitingTime":2,"walkDistance":2993.454323296031,"walkLimitExceeded":false,"elevationLost":0.0,"elevationGained":0.0,"transfers":0,"legs":[{"startTime":1522716024000,"endTime":1522717551000,"departureDelay":0,"arrivalDelay":0,"realTime":false,"distance":1958.889,"pathway":false,"mode":"WALK","route":"","agencyTimeZoneOffset":-14400000,"interlineWithPreviousLeg":false,"from":{"name":"Origin","lon":-71.049634,"lat":48.436902,"departure":1522716024000,"orig":"","vertexType":"NORMAL"},"to":{"name":"Roussel / Carillon","stopId":"1:702","stopCode":"702","lon":-71.074263,"lat":48.437575,"arrival":1522717551000,"departure":1522717552000,"zoneId":"NA","stopIndex":27,"stopSequence":28,"vertexType":"TRANSIT"},"legGeometry":{"points":"wjsfHtzspLU`BYzC[LUBe@MKCYKMrAe@rOSbEKzB?LGt@?H_@tEE~@CzBBhDDhBHnBJxB\\|FFv@Dn@N|@Rz@Jb@Tr@X~@H^Lb@x@fDJpC@xA@R?dACvCE?C@ABCBAD?D?D@F?@@BBBB@Q~Ai@~CGj@Ch@A^@ZFd@F\\HXD\\BLDnAAp@Cr@APKlAEf@A`@@HDn@@p@@v@?L?n@AbAGdB?p@APCV","length":79},"rentedBike":false,"transitLeg":false,"duration":1527.0,"steps":[{"distance":97.494,"relativeDirection":"DEPART","streetName":"Rue de Condé","absoluteDirection":"WEST","stayOn":false,"area":false,"bogusName":false,"lon":-71.04954497168754,"lat":48.43708745998634,"elevation":[]},{"distance":71.403,"relativeDirection":"RIGHT","streetName":"Rue Richmond","absoluteDirection":"NORTH","stayOn":false,"area":false,"bogusName":false,"lon":-71.0508154,"lat":48.4373281,"elevation":[]},{"distance":1789.9919999999997,"relativeDirection":"LEFT","streetName":"Rue Roussel","absoluteDirection":"WEST","stayOn":false,"area":false,"bogusName":false,"lon":-71.05075740000001,"lat":48.43795,"elevation":[]}]},{"startTime":1522717552000,"endTime":1522717767000,"departureDelay":0,"arrivalDelay":0,"realTime":false,"distance":1845.9445684835086,"pathway":false,"mode":"BUS","route":"20","agencyName":"Société de Transport du Saguenay","agencyUrl":"http://ville.saguenay.ca/fr/services-aux-citoyens/transport-sts","agencyTimeZoneOffset":-14400000,"routeColor":"0000FF","routeType":3,"routeId":"1:20","routeTextColor":"FFFFFF","interlineWithPreviousLeg":false,"tripBlockId":"3","headsign":"Terminus Chicoutimi","agencyId":"0","tripId":"1:217215","serviceDate":"20180402","from":{"name":"Roussel / Carillon","stopId":"1:702","stopCode":"702","lon":-71.074263,"lat":48.437575,"arrival":1522717551000,"departure":1522717552000,"zoneId":"NA","stopIndex":27,"stopSequence":28,"vertexType":"TRANSIT"},"to":{"name":"boul. Saguenay / Ste-Anne","stopId":"1:160","stopCode":"160","lon":-71.069701,"lat":48.429464,"arrival":1522717767000,"departure":1522717768000,"zoneId":"NA","stopIndex":30,"stopSequence":31,"vertexType":"TRANSIT"},"legGeometry":{"points":"insfH`uxpLF{AaFe@c@IcDeAWtBOfAERGLIHIFMBa@NOQSOUGOCW?UFMHa@XUHQ?QIQOIM[g@rCmFhHqN~@eBr@cAt@_Av@}@RQPMz@k@tAe@REZG^Af@@X@VF`@Jn@XbClAr@Xt\\`PrAb@pA^hBTjAFj@Pb@JPHLLJNJRFXDT?X?ZEVEVKTMNMHMFOB}DWSGOSYcAN}FFkAF}DJyD","length":77},"routeShortName":"20","routeLongName":"Sainte-Claire","rentedBike":false,"transitLeg":true,"duration":215.0,"steps":[]},{"startTime":1522717768000,"endTime":1522718580000,"departureDelay":0,"arrivalDelay":0,"realTime":false,"distance":1034.186,"pathway":false,"mode":"WALK","route":"","agencyTimeZoneOffset":-14400000,"interlineWithPreviousLeg":false,"from":{"name":"boul. Saguenay / Ste-Anne","stopId":"1:160","stopCode":"160","lon":-71.069701,"lat":48.429464,"arrival":1522717767000,"departure":1522717768000,"zoneId":"NA","stopIndex":30,"stopSequence":31,"vertexType":"TRANSIT"},"to":{"name":"Destination","lon":-71.074954,"lat":48.42282,"arrival":1522718580000,"orig":"","vertexType":"NORMAL"},"legGeometry":{"points":"s{qfHrxwpLAZGxEDl@Ph@DDLNn@^n@CpAQn@CtBI~AI|@CjAJVJRXJRFFJBJEBG`AXNLDb@@Zp@hDF|@BZEbA?@ARGh@Gj@r@TdCRzCCZ?x@\\BVDf@","length":41},"rentedBike":false,"transitLeg":false,"duration":812.0,"steps":[{"distance":90.943,"relativeDirection":"DEPART","streetName":"Boulevard du Saguenay Ouest","absoluteDirection":"WEST","stayOn":false,"area":false,"bogusName":false,"lon":-71.06969134971845,"lat":48.42954562670822,"elevation":[]},{"distance":78.91,"relativeDirection":"CONTINUE","streetName":"link","absoluteDirection":"WEST","stayOn":false,"area":false,"bogusName":true,"lon":-71.07092130000001,"lat":48.429599100000004,"elevation":[]},{"distance":356.799,"relativeDirection":"SLIGHTLY_LEFT","streetName":"Rue Montcalm","absoluteDirection":"SOUTH","stayOn":false,"area":false,"bogusName":false,"lon":-71.07163890000001,"lat":48.4291351,"elevation":[]},{"distance":48.492,"relativeDirection":"SLIGHTLY_RIGHT","streetName":"path","absoluteDirection":"SOUTH","stayOn":false,"area":false,"bogusName":true,"lon":-71.0717267,"lat":48.426028200000005,"elevation":[]},{"distance":193.44,"relativeDirection":"RIGHT","streetName":"Rue Price Ouest","absoluteDirection":"WEST","stayOn":false,"area":false,"bogusName":false,"lon":-71.0719217,"lat":48.425614800000005,"elevation":[]},{"distance":240.725,"relativeDirection":"LEFT","streetName":"Rue Sainte-Marthe","absoluteDirection":"SOUTH","stayOn":false,"area":false,"bogusName":false,"lon":-71.07442610000001,"lat":48.425381900000005,"elevation":[]},{"distance":24.877,"relativeDirection":"RIGHT","streetName":"Rue Gilbert","absoluteDirection":"WEST","stayOn":false,"area":false,"bogusName":false,"lon":-71.0747607,"lat":48.4232457,"elevation":[]}]}],"tooSloped":false},{"duration":1183,"startTime":1522718929000,"endTime":1522720112000,"walkTime":117,"transitTime":824,"waitingTime":242,"walkDistance":143.33803759188638,"walkLimitExceeded":false,"elevationLost":0.0,"elevationGained":0.0,"transfers":1,"legs":[{"startTime":1522718929000,"endTime":1522719034000,"departureDelay":0,"arrivalDelay":0,"realTime":false,"distance":127.48299999999999,"pathway":false,"mode":"WALK","route":"","agencyTimeZoneOffset":-14400000,"interlineWithPreviousLeg":false,"from":{"name":"Origin","lon":-71.049634,"lat":48.436902,"departure":1522718929000,"orig":"","vertexType":"NORMAL"},"to":{"name":"Roussel / Fleury","stopId":"1:128","stopCode":"128","lon":-71.048406,"lat":48.437455,"arrival":1522719034000,"departure":1522719035000,"zoneId":"NA","stopIndex":22,"stopSequence":23,"vertexType":"TRANSIT"},"legGeometry":{"points":"wjsfHtzspLb@iDuAaAER","length":4},"rentedBike":false,"transitLeg":false,"duration":105.0,"steps":[{"distance":65.574,"relativeDirection":"DEPART","streetName":"Rue de Condé","absoluteDirection":"EAST","stayOn":false,"area":false,"bogusName":false,"lon":-71.04954497168754,"lat":48.43708745998634,"elevation":[]},{"distance":53.68,"relativeDirection":"LEFT","streetName":"Rue Fleury","absoluteDirection":"NORTHEAST","stayOn":false,"area":false,"bogusName":false,"lon":-71.048698,"lat":48.4369085,"elevation":[]},{"distance":8.229,"relativeDirection":"LEFT","streetName":"Rue Roussel","absoluteDirection":"NORTHWEST","stayOn":false,"area":false,"bogusName":false,"lon":-71.04836370000001,"lat":48.4373373,"elevation":[]}]},{"startTime":1522719035000,"endTime":1522719660000,"departureDelay":0,"arrivalDelay":0,"realTime":false,"distance":3892.8218499107197,"pathway":false,"mode":"BUS","route":"24","agencyName":"Société de Transport du Saguenay","agencyUrl":"http://ville.saguenay.ca/fr/services-aux-citoyens/transport-sts","agencyTimeZoneOffset":-14400000,"routeColor":"00FF00","routeType":3,"routeId":"1:24","routeTextColor":"000000","interlineWithPreviousLeg":false,"tripBlockId":"5","headsign":"Terminus Chicoutimi","agencyId":"0","tripId":"1:217279","serviceDate":"20180402","from":{"name":"Roussel / Fleury","stopId":"1:128","stopCode":"128","lon":-71.048406,"lat":48.437455,"arrival":1522719034000,"departure":1522719035000,"zoneId":"NA","stopIndex":22,"stopSequence":23,"vertexType":"TRANSIT"},"to":{"name":"Terminus Chicoutimi","stopId":"1:1289","stopCode":"1289","lon":-71.066163,"lat":48.428677,"arrival":1522719660000,"departure":1522719900000,"zoneId":"NA","stopIndex":35,"stopSequence":36,"vertexType":"TRANSIT"},"legGeometry":{"points":"qlsfH|sspLk@jCeDuAq@UC?mG_CaHiCsJqD_A]VvC\\`Ch@rCj@tBf@bBxDxJN\\bAjCTnAHvA@|@CPIpAe@pDUfBCTEXK~@MxAEn@@v@Bp@Dr@l@~HNlAH\\@HLd@\\z@Xd@X\\RTXRr@Zn@PfExAvDpALnBJt@Pp@Nj@l@tBHZPn@`@rBNnAFr@DbA?bB@jABzA?p@A???A???A?A???A@??A?A@??A@?@A??@A@???@A@?@?@A@?@?@?@?@???@?@?@?@?@?@@@?@?@@@?@@@?@@@?@@?@@??@@@?E`@Kr@]rACVEl@I|AAr@JbAWJe@FUAM?a@Ke@YYWWa@v@}@RQPMz@k@tAe@REZG^Af@@X@VF`@Jn@XbClAr@Xt\\`PrAb@pA^hBTjAFj@Pb@JPHLLJNJRFXDT?X?ZEVEVKTMNMHMFOB}DWSGOSYcAN}FFkAF}DJyDPwGvAHN_HDiB@m@","length":175},"routeShortName":"24","routeLongName":"Saint-Luc","rentedBike":false,"transitLeg":true,"duration":625.0,"steps":[]},{"startTime":1522719900000,"endTime":1522720099000,"departureDelay":0,"arrivalDelay":0,"realTime":false,"distance":1015.2641522698273,"pathway":false,"mode":"BUS","route":"11","agencyName":"Société de Transport du Saguenay","agencyUrl":"http://ville.saguenay.ca/fr/services-aux-citoyens/transport-sts","agencyTimeZoneOffset":-14400000,"routeColor":"FF0000","routeType":3,"routeId":"1:11","routeTextColor":"FFFFFF","interlineWithPreviousLeg":false,"tripBlockId":"35","headsign":"Boul.Royaume/St-Pierre","agencyId":"0","tripId":"1:218272","serviceDate":"20180402","from":{"name":"Terminus Chicoutimi","stopId":"1:1289","stopCode":"1289","lon":-71.066163,"lat":48.428677,"arrival":1522719660000,"departure":1522719900000,"zoneId":"NA","stopIndex":0,"stopSequence":1,"vertexType":"TRANSIT"},"to":{"name":"Centre Joseph-Nio (Ste-Marthe)","stopId":"1:418","stopCode":"418","lon":-71.074913,"lat":48.423317,"arrival":1522720099000,"departure":1522720100000,"zoneId":"NA","stopIndex":5,"stopSequence":6,"vertexType":"TRANSIT"},"legGeometry":{"points":"evqfHzcwpLk@?UhKfIh@dKp@GnDIfDOtEE~@Ff@x@rEF~@CbAALO~ADRNJXBr@DfGRPBPJLN@@","length":24},"routeShortName":"11","routeLongName":"Chic/Faubourg via St-Paul","rentedBike":false,"transitLeg":true,"duration":199.0,"steps":[]},{"startTime":1522720100000,"endTime":1522720112000,"departureDelay":0,"arrivalDelay":0,"realTime":false,"distance":15.79,"pathway":false,"mode":"WALK","route":"","agencyTimeZoneOffset":-14400000,"interlineWithPreviousLeg":false,"from":{"name":"Centre Joseph-Nio (Ste-Marthe)","stopId":"1:418","stopCode":"418","lon":-71.074913,"lat":48.423317,"arrival":1522720099000,"departure":1522720100000,"zoneId":"NA","stopIndex":5,"stopSequence":6,"vertexType":"TRANSIT"},"to":{"name":"Destination","lon":-71.074954,"lat":48.42282,"arrival":1522720112000,"orig":"","vertexType":"NORMAL"},"legGeometry":{"points":"ctpfH`yxpLDf@","length":2},"rentedBike":false,"transitLeg":false,"duration":12.0,"steps":[{"distance":15.79,"relativeDirection":"DEPART","streetName":"Rue Gilbert","absoluteDirection":"WEST","stayOn":false,"area":false,"bogusName":false,"lon":-71.07488047407469,"lat":48.423226700272245,"elevation":[]}]}],"tooSloped":false}]},"debugOutput":{"precalculationTime":43,"pathCalculationTime":28,"pathTimes":[17,5,6],"renderingTime":1,"totalTime":72,"timedOut":false},"elevationMetadata":{"ellipsoidToGeoidDifference":-28.885904201182168,"geoidElevation":false}}