{"requestParameters":{"date":"2018/04/02","walkSpeed":"1.33","walkReluctance":"2.0","fromPlace":"48.438643,-71.06208999","maxWalkDistance":"3000","waitReluctance":"1.0","carSpeed":"33","numItineraries":"3","waitAtBeginningFactor":"0.4","mode":"TRANSIT,WALK","ignoreRealtimeUpdates":"false","stairsReluctance":"2.0","toPlace":"48.435203,-71.04571","time":"16:15:00"},"plan":{"date":1522700100000,"from":{"name":"Origin","lon":-71.06208999,"lat":48.438643,"orig":"","vertexType":"NORMAL"},"to":{"name":"Destination","lon":-71.04571,"lat":48.435203,"orig":"","vertexType":"NORMAL"},"itineraries":[{"duration":869,"startTime":1522700242000,"endTime":1522701111000,"walkTime":232,"transitTime":635,"waitingTime":2,"walkDistance":292.54378947156135,"walkLimitExceeded":false,"elevationLost":0.0,"elevationGained":0.0,"transfers":0,"legs":[{"startTime":1522700242000,"endTime":1522700364000,"departureDelay":0,"arrivalDelay":0,"realTime":false,"distance":152.016,"pathway":false,"mode":"WALK","route":"","agencyTimeZoneOffset":-14400000,"interlineWithPreviousLeg":false,"from":{"name":"Origin","lon":-71.06208999,"lat":48.438643,"departure":1522700242000,"orig":"","vertexType":"NORMAL"},"to":{"name":"Roussel / St-Éphrem","stopId":"1:771","stopCode":"771","lon":-71.063155,"lat":48.437822,"arrival":1522700364000,"departure":1522700365000,"zoneId":"NA","stopIndex":2,"stopSequence":3,"vertexType":"TRANSIT"},"legGeometry":{"points":"yssfHvevpLj@RFv@Dn@N|@Rz@Jb@Tr@","length":8},"rentedBike":false,"transitLeg":false,"duration":122.0,"steps":[{"distance":25.737,"relativeDirection":"DEPART","streetName":"Boulevard de Tadoussac","absoluteDirection":"SOUTH","stayOn":false,"area":false,"bogusName":false,"lon":-71.06155428442396,"lat":48.438539658148684,"elevation":[]},{"distance":126.27900000000001,"relativeDirection":"RIGHT","streetName":"Rue Roussel","absoluteDirection":"WEST","stayOn":false,"area":false,"bogusName":false,"lon":-71.0616517,"lat":48.4383174,"elevation":[]}]},{"startTime":1522700365000,"endTime":1522701000000,"departureDelay":0,"arrivalDelay":0,"realTime":false,"distance":4746.966890509569,"pathway":false,"mode":"BUS","route":"24","agencyName":"Société de Transport du Saguenay","agencyUrl":"http://ville.saguenay.ca/fr/services-aux-citoyens/transport-sts","agencyTimeZoneOffset":-14400000,"routeColor":"00FF00","routeType":3,"routeId":"1:24","routeTextColor":"000000","interlineWithPreviousLeg":false,"tripBlockId":"5","headsign":"Terminus Chicoutimi","agencyId":"0","tripId":"1:217269","serviceDate":"20180402","from":{"name":"Roussel / St-Éphrem","stopId":"1:771","stopCode":"771","lon":-71.063155,"lat":48.437822,"arrival":1522700364000,"departure":1522700365000,"zoneId":"NA","stopIndex":2,"stopSequence":3,"vertexType":"TRANSIT"},"to":{"name":"Roussel (no. 1671)","stopId":"1:824","stopCode":"824","lon":-71.04565,"lat":48.4363,"arrival":1522701000000,"departure":1522701001000,"zoneId":"NA","stopIndex":21,"stopSequence":22,"vertexType":"TRANSIT"},"legGeometry":{"points":"uosfH`pvpLSq@Ok@Qq@Ku@MoBKmAa@eHi@FKC_@I??iE}Ah@}DH}@?c@Ea@[_BA?My@Cm@?Y@g@Hu@b@sD\\_DBSyHsC_@MBQA}@IwAUoAcAkCWo@qDgJg@cBk@uBi@sC]aCWwCiKuDwQuGDWbAoGV{AxG~BPFhCdAn@Lx@BxA]QeDI}AzAW~ASQoDg@eKG{A?_@?m@?i@LeCJkAd@yGxAqSBs@p@^VRPRbF~FlCxBxB|B~JjK`IjIRPb@^r@d@rAp@\\T\\ZNVRd@J\\Nd@Hf@F`@@DFr@LtAJpB@jAAt@ObEIzAKbBUrBMp@Sn@gAlC","length":100},"routeShortName":"24","routeLongName":"Saint-Luc","rentedBike":false,"transitLeg":true,"duration":635.0,"steps":[]},{"startTime":1522701001000,"endTime":1522701111000,"departureDelay":0,"arrivalDelay":0,"realTime":false,"distance":140.462,"pathway":false,"mode":"WALK","route":"","agencyTimeZoneOffset":-14400000,"interlineWithPreviousLeg":false,"from":{"name":"Roussel (no. 1671)","stopId":"1:824","stopCode":"824","lon":-71.04565,"lat":48.4363,"arrival":1522701000000,"departure":1522701001000,"zoneId":"NA","stopIndex":21,"stopSequence":22,"vertexType":"TRANSIT"},"to":{"name":"Destination","lon":-71.04571,"lat":48.435203,"arrival":1522701111000,"orig":"","vertexType":"NORMAL"},"legGeometry":{"points":"sesfHrbspLpAoC~@nAL~@","length":4},"rentedBike":false,"transitLeg":false,"duration":110.0,"steps":[{"distance":70.225,"relativeDirection":"DEPART","streetName":"Rue Roussel","absoluteDirection":"SOUTHEAST","stayOn":false,"area":false,"bogusName":false,"lon":-71.04569988842819,"lat":48.43626146290852,"elevation":[]},{"distance":70.237,"relativeDirection":"RIGHT","streetName":"Rue Richmond","absoluteDirection":"SOUTHWEST","stayOn":false,"area":false,"bogusName":false,"lon":-71.0449778,"lat":48.43585,"elevation":[]}]}],"tooSloped":false},{"duration":1055,"startTime":1522700100000,"endTime":1522701155000,"walkTime":1055,"transitTime":0,"waitingTime":0,"walkDistance":1365.0073458601978,"walkLimitExceeded":false,"elevationLost":0.0,"elevationGained":0.0,"transfers":0,"legs":[{"startTime":1522700100000,"endTime":1522701155000,"departureDelay":0,"arrivalDelay":0,"realTime":false,"distance":1364.8690000000001,"pathway":false,"mode":"WALK","route":"","agencyTimeZoneOffset":-14400000,"interlineWithPreviousLeg":false,"from":{"name":"Origin","lon":-71.06208999,"lat":48.438643,"departure":1522700100000,"orig":"","vertexType":"NORMAL"},"to":{"name":"Destination","lon":-71.04571,"lat":48.435203,"arrival":1522701155000,"orig":"","vertexType":"NORMAL"},"legGeometry":{"points":"yssfHvevpLj@R]}FKyBIoBEiBCiDB{BD_A^uE?IFu@?MJ{BRcEd@sOLsAXJJBd@LTCZMzByA^o@RsAFkCf@qFb@mC~A_FNu@","length":30},"rentedBike":false,"transitLeg":false,"duration":1055.0,"steps":[{"distance":25.737,"relativeDirection":"DEPART","streetName":"Boulevard de Tadoussac","absoluteDirection":"SOUTH","stayOn":false,"area":false,"bogusName":false,"lon":-71.06155428442396,"lat":48.438539658148684,"elevation":[]},{"distance":812.2760000000001,"relativeDirection":"HARD_LEFT","streetName":"Rue Roussel","absoluteDirection":"EAST","stayOn":false,"area":false,"bogusName":false,"lon":-71.0616517,"lat":48.4383174,"elevation":[]},{"distance":526.856,"relativeDirection":"RIGHT","streetName":"Rue Richmond","absoluteDirection":"SOUTH","stayOn":false,"area":false,"bogusName":false,"lon":-71.05075740000001,"lat":48.43795,"elevation":[]}]}],"tooSloped":false},{"duration":869,"startTime":1522702042000,"endTime":1522702911000,"walkTime":232,"transitTime":635,"waitingTime":2,"walkDistance":292.54378947156135,"walkLimitExceeded":false,"elevationLost":0.0,"elevationGained":0.0,"transfers":0,"legs":[{"startTime":1522702042000,"endTime":1522702164000,"departureDelay":0,"arrivalDelay":0,"realTime":false,"distance":152.016,"pathway":false,"mode":"WALK","route":"","agencyTimeZoneOffset":-14400000,"interlineWithPreviousLeg":false,"from":{"name":"Origin","lon":-71.06208999,"lat":48.438643,"departure":1522702042000,"orig":"","vertexType":"NORMAL"},"to":{"name":"Roussel / St-Éphrem","stopId":"1:771","stopCode":"771","lon":-71.063155,"lat":48.437822,"arrival":1522702164000,"departure":1522702165000,"zoneId":"NA","stopIndex":2,"stopSequence":3,"vertexType":"TRANSIT"},"legGeometry":{"points":"yssfHvevpLj@RFv@Dn@N|@Rz@Jb@Tr@","length":8},"rentedBike":false,"transitLeg":false,"duration":122.0,"steps":[{"distance":25.737,"relativeDirection":"DEPART","streetName":"Boulevard de Tadoussac","absoluteDirection":"SOUTH","stayOn":false,"area":false,"bogusName":false,"lon":-71.06155428442396,"lat":48.438539658148684,"elevation":[]},{"distance":126.27900000000001,"relativeDirection":"RIGHT","streetName":"Rue Roussel","absoluteDirection":"WEST","stayOn":false,"area":false,"bogusName":false,"lon":-71.0616517,"lat":48.4383174,"elevation":[]}]},{"startTime":1522702165000,"endTime":1522702800000,"departureDelay":0,"arrivalDelay":0,"realTime":false,"distance":4746.966890509569,"pathway":false,"mode":"BUS","route":"24","agencyName":"Société de Transport du Saguenay","agencyUrl":"http://ville.saguenay.ca/fr/services-aux-citoyens/transport-sts","agencyTimeZoneOffset":-14400000,"routeColor":"00FF00","routeType":3,"routeId":"1:24","routeTextColor":"000000","interlineWithPreviousLeg":false,"tripBlockId":"4","headsign":"Terminus Chicoutimi","agencyId":"0","tripId":"1:217243","serviceDate":"20180402","from":{"name":"Roussel / St-Éphrem","stopId":"1:771","stopCode":"771","lon":-71.063155,"lat":48.437822,"arrival":1522702164000,"departure":1522702165000,"zoneId":"NA","stopIndex":2,"stopSequence":3,"vertexType":"TRANSIT"},"to":{"name":"Roussel (no. 1671)","stopId":"1:824","stopCode":"824","lon":-71.04565,"lat":48.4363,"arrival":1522702800000,"departure":1522702801000,"zoneId":"NA","stopIndex":21,"stopSequence":22,"vertexType":"TRANSIT"},"legGeometry":{"points":"uosfH`pvpLSq@Ok@Qq@Ku@MoBKmAa@eHi@FKC_@I??iE}Ah@}DH}@?c@Ea@[_BA?My@Cm@?Y@g@Hu@b@sD\\_DBSyHsC_@MBQA}@IwAUoAcAkCWo@qDgJg@cBk@uBi@sC]aCWwCiKuDwQuGDWbAoGV{AxG~BPFhCdAn@Lx@BxA]QeDI}AzAW~ASQoDg@eKG{A?_@?m@?i@LeCJkAd@yGxAqSBs@p@^VRPRbF~FlCxBxB|B~JjK`IjIRPb@^r@d@rAp@\\T\\ZNVRd@J\\Nd@Hf@F`@@DFr@LtAJpB@jAAt@ObEIzAKbBUrBMp@Sn@gAlC","length":100},"routeShortName":"24","routeLongName":"Saint-Luc","rentedBike":false,"transitLeg":true,"duration":635.0,"steps":[]},{"startTime":1522702801000,"endTime":1522702911000,"departureDelay":0,"arrivalDelay":0,"realTime":false,"distance":140.462,"pathway":false,"mode":"WALK","route":"","agencyTimeZoneOffset":-14400000,"interlineWithPreviousLeg":false,"from":{"name":"Roussel (no. 1671)","stopId":"1:824","stopCode":"824","lon":-71.04565,"lat":48.4363,"arrival":1522702800000,"departure":1522702801000,"zoneId":"NA","stopIndex":21,"stopSequence":22,"vertexType":"TRANSIT"},"to":{"name":"Destination","lon":-71.04571,"lat":48.435203,"arrival":1522702911000,"orig":"","vertexType":"NORMAL"},"legGeometry":{"points":"sesfHrbspLpAoC~@nAL~@","length":4},"rentedBike":false,"transitLeg":false,"duration":110.0,"steps":[{"distance":70.225,"relativeDirection":"DEPART","streetName":"Rue Roussel","absoluteDirection":"SOUTHEAST","stayOn":false,"area":false,"bogusName":false,"lon":-71.04569988842819,"lat":48.43626146290852,"elevation":[]},{"distance":70.237,"relativeDirection":"RIGHT","streetName":"Rue Richmond","absoluteDirection":"SOUTHWEST","stayOn":false,"area":false,"bogusName":false,"lon":-71.0449778,"lat":48.43585,"elevation":[]}]}],"tooSloped":false}]},"debugOutput":{"precalculationTime":28,"pathCalculationTime":17,"pathTimes":[10,5,2],"renderingTime":1,"totalTime":46,"timedOut":false},"elevationMetadata":{"ellipsoidToGeoidDifference":-28.885904201182168,"geoidElevation":false}}