{"requestParameters":{"date":"2018/04/02","walkSpeed":"1.33","walkReluctance":"2.0","fromPlace":"48.447574,-71.08430599","maxWalkDistance":"3000","waitReluctance":"1.0","carSpeed":"33","numItineraries":"3","waitAtBeginningFactor":"0.4","mode":"TRANSIT,WALK","ignoreRealtimeUpdates":"false","stairsReluctance":"2.0","toPlace":"48.44078,-71.072133","time":"15:30:00"},"plan":{"date":1522697400000,"from":{"name":"Origin","lon":-71.08430599,"lat":48.447574,"orig":"","vertexType":"NORMAL"},"to":{"name":"Destination","lon":-71.072133,"lat":48.44078,"orig":"","vertexType":"NORMAL"},"itineraries":[{"duration":414,"startTime":1522697562000,"endTime":1522697976000,"walkTime":343,"transitTime":69,"waitingTime":2,"walkDistance":432.236789469948,"walkLimitExceeded":false,"elevationLost":0.0,"elevationGained":0.0,"transfers":0,"legs":[{"startTime":1522697562000,"endTime":1522697690000,"departureDelay":0,"arrivalDelay":0,"realTime":false,"distance":159.407,"pathway":false,"mode":"WALK","route":"","agencyTimeZoneOffset":-14400000,"interlineWithPreviousLeg":false,"from":{"name":"Origin","lon":-71.08430599,"lat":48.447574,"departure":1522697562000,"orig":"","vertexType":"NORMAL"},"to":{"name":"boul. Ste-Geneviève / Dieppe","stopId":"1:2010","stopCode":"2010","lon":-71.083056,"lat":48.446404,"arrival":1522697690000,"departure":1522697691000,"zoneId":"NA","stopIndex":30,"stopSequence":31,"vertexType":"TRANSIT"},"legGeometry":{"points":"glufHzszpLACtDmEj@s@","length":4},"rentedBike":false,"transitLeg":false,"duration":128.0,"steps":[{"distance":1.582,"relativeDirection":"DEPART","streetName":"path","absoluteDirection":"NORTHEAST","stayOn":false,"area":false,"bogusName":false,"lon":-71.08429534892859,"lat":48.44756379953066,"elevation":[]},{"distance":157.825,"relativeDirection":"RIGHT","streetName":"Boulevard Sainte-Geneviève","absoluteDirection":"SOUTHEAST","stayOn":false,"area":false,"bogusName":false,"lon":-71.0842777,"lat":48.4475719,"elevation":[]}]},{"startTime":1522697691000,"endTime":1522697760000,"departureDelay":0,"arrivalDelay":0,"realTime":false,"distance":764.3144274750036,"pathway":false,"mode":"BUS","route":"21","agencyName":"Société de Transport du Saguenay","agencyUrl":"http://ville.saguenay.ca/fr/services-aux-citoyens/transport-sts","agencyTimeZoneOffset":-14400000,"routeColor":"556B2F","routeType":3,"routeId":"1:21","routeTextColor":"FFFFFF","interlineWithPreviousLeg":false,"tripBlockId":"2","headsign":"Terminus Chicoutimi","agencyId":"0","tripId":"1:217173","serviceDate":"20180402","from":{"name":"boul. Ste-Geneviève / Dieppe","stopId":"1:2010","stopCode":"2010","lon":-71.083056,"lat":48.446404,"arrival":1522697690000,"departure":1522697691000,"zoneId":"NA","stopIndex":30,"stopSequence":31,"vertexType":"TRANSIT"},"to":{"name":"boul. Ste-Geneviève (no. 453)","stopId":"1:736","stopCode":"736","lon":-71.0749,"lat":48.4422,"arrival":1522697760000,"departure":1522697761000,"zoneId":"NA","stopIndex":32,"stopSequence":33,"vertexType":"TRANSIT"},"legGeometry":{"points":"geufHtkzpLdBwBt@cAbAmBx@eBj@eB`CoHpCyJbAmCtAuCZg@|@gB","length":12},"routeShortName":"21","routeLongName":"Boul. Ste-Geneviève/Élie","rentedBike":false,"transitLeg":true,"duration":69.0,"steps":[]},{"startTime":1522697761000,"endTime":1522697976000,"departureDelay":0,"arrivalDelay":0,"realTime":false,"distance":272.714,"pathway":false,"mode":"WALK","route":"","agencyTimeZoneOffset":-14400000,"interlineWithPreviousLeg":false,"from":{"name":"boul. Ste-Geneviève (no. 453)","stopId":"1:736","stopCode":"736","lon":-71.0749,"lat":48.4422,"arrival":1522697760000,"departure":1522697761000,"zoneId":"NA","stopIndex":32,"stopSequence":33,"vertexType":"TRANSIT"},"to":{"name":"Destination","lon":-71.072133,"lat":48.44078,"arrival":1522697976000,"orig":"","vertexType":"NORMAL"},"legGeometry":{"points":"yjtfH`yxpLrAiCSShFyJ","length":4},"rentedBike":false,"transitLeg":false,"duration":215.0,"steps":[{"distance":272.714,"relativeDirection":"DEPART","streetName":"Boulevard Sainte-Geneviève","absoluteDirection":"SOUTHEAST","stayOn":false,"area":false,"bogusName":false,"lon":-71.07488215191115,"lat":48.442212866844194,"elevation":[]}]}],"tooSloped":false},{"duration":583,"startTime":1522697415000,"endTime":1522697998000,"walkTime":310,"transitTime":271,"waitingTime":2,"walkDistance":392.60412029758584,"walkLimitExceeded":false,"elevationLost":0.0,"elevationGained":0.0,"transfers":0,"legs":[{"startTime":1522697415000,"endTime":1522697548000,"departureDelay":0,"arrivalDelay":0,"realTime":false,"distance":166.626,"pathway":false,"mode":"WALK","route":"","agencyTimeZoneOffset":-14400000,"interlineWithPreviousLeg":false,"from":{"name":"Origin","lon":-71.08430599,"lat":48.447574,"departure":1522697415000,"orig":"","vertexType":"NORMAL"},"to":{"name":"Ste-Marie (no. 224)","stopId":"1:697","stopCode":"697","lon":-71.085685,"lat":48.44687,"arrival":1522697548000,"departure":1522697549000,"zoneId":"NA","stopIndex":21,"stopSequence":22,"vertexType":"TRANSIT"},"legGeometry":{"points":"glufHzszpLPf@RREFCN?jDlBA","length":7},"rentedBike":false,"transitLeg":false,"duration":133.0,"steps":[{"distance":31.137,"relativeDirection":"DEPART","streetName":"path","absoluteDirection":"SOUTHWEST","stayOn":false,"area":false,"bogusName":false,"lon":-71.08429534892859,"lat":48.44756379953066,"elevation":[]},{"distance":74.379,"relativeDirection":"RIGHT","streetName":"Rue Pasteur Sud","absoluteDirection":"NORTHWEST","stayOn":false,"area":false,"bogusName":false,"lon":-71.0845956,"lat":48.447373400000004,"elevation":[]},{"distance":61.11,"relativeDirection":"LEFT","streetName":"Rue Sainte-Marie Sud","absoluteDirection":"SOUTH","stayOn":false,"area":false,"bogusName":false,"lon":-71.0855786,"lat":48.447420400000006,"elevation":[]}]},{"startTime":1522697549000,"endTime":1522697820000,"departureDelay":0,"arrivalDelay":0,"realTime":false,"distance":1929.7891478105603,"pathway":false,"mode":"BUS","route":"20","agencyName":"Société de Transport du Saguenay","agencyUrl":"http://ville.saguenay.ca/fr/services-aux-citoyens/transport-sts","agencyTimeZoneOffset":-14400000,"routeColor":"0000FF","routeType":3,"routeId":"1:20","routeTextColor":"FFFFFF","interlineWithPreviousLeg":false,"tripBlockId":"1","headsign":"Terminus Chicoutimi","agencyId":"0","tripId":"1:217147","serviceDate":"20180402","from":{"name":"Ste-Marie (no. 224)","stopId":"1:697","stopCode":"697","lon":-71.085685,"lat":48.44687,"arrival":1522697548000,"departure":1522697549000,"zoneId":"NA","stopIndex":21,"stopSequence":22,"vertexType":"TRANSIT"},"to":{"name":"Des Champs / Ste-Geneviève","stopId":"1:704","stopCode":"704","lon":-71.0743,"lat":48.4416,"arrival":1522697820000,"departure":1522697821000,"zoneId":"NA","stopIndex":29,"stopSequence":30,"vertexType":"TRANSIT"},"legGeometry":{"points":"}gufH`|zpLzBEd@Cf@Gj@MZMb@S`Ag@DClAk@f@Qv@Ov@IlBCnBa@TCTBjBPH@LiCDe@Lw@|@cELo@D[Dk@@[@uC@SBUDQFSt@yAHIr@eAjAaB`AqA^i@p@kAVc@\\cAr@eBv@aB|B_CJSDKLe@NeAJaAHeBBi@F{AaFe@c@IcDeAWtBOfAERGLIHIFMBa@NOQSOUGOCW?UFMHa@XUHQ?QIQOIM","length":76},"routeShortName":"20","routeLongName":"Sainte-Claire","rentedBike":false,"transitLeg":true,"duration":271.0,"steps":[]},{"startTime":1522697821000,"endTime":1522697998000,"departureDelay":0,"arrivalDelay":0,"realTime":false,"distance":225.88,"pathway":false,"mode":"WALK","route":"","agencyTimeZoneOffset":-14400000,"interlineWithPreviousLeg":false,"from":{"name":"Des Champs / Ste-Geneviève","stopId":"1:704","stopCode":"704","lon":-71.0743,"lat":48.4416,"arrival":1522697820000,"departure":1522697821000,"zoneId":"NA","stopIndex":29,"stopSequence":30,"vertexType":"TRANSIT"},"to":{"name":"Destination","lon":-71.072133,"lat":48.44078,"arrival":1522697998000,"orig":"","vertexType":"NORMAL"},"legGeometry":{"points":"egtfHzuxpL_@c@SShFyJ","length":4},"rentedBike":false,"transitLeg":false,"duration":177.0,"steps":[{"distance":35.458,"relativeDirection":"DEPART","streetName":"Rue des Champs","absoluteDirection":"NORTHEAST","stayOn":false,"area":false,"bogusName":false,"lon":-71.0743726335253,"lat":48.441635520596776,"elevation":[]},{"distance":190.422,"relativeDirection":"RIGHT","streetName":"Boulevard Sainte-Geneviève","absoluteDirection":"SOUTHEAST","stayOn":false,"area":false,"bogusName":false,"lon":-71.0740944,"lat":48.4418955,"elevation":[]}]}],"tooSloped":false},{"duration":922,"startTime":1522697400000,"endTime":1522698322000,"walkTime":922,"transitTime":0,"waitingTime":0,"walkDistance":1198.7108120260477,"walkLimitExceeded":false,"elevationLost":0.0,"elevationGained":0.0,"transfers":0,"legs":[{"startTime":1522697400000,"endTime":1522698322000,"departureDelay":0,"arrivalDelay":0,"realTime":false,"distance":1198.586,"pathway":false,"mode":"WALK","route":"","agencyTimeZoneOffset":-14400000,"interlineWithPreviousLeg":false,"from":{"name":"Origin","lon":-71.08430599,"lat":48.447574,"departure":1522697400000,"orig":"","vertexType":"NORMAL"},"to":{"name":"Destination","lon":-71.072133,"lat":48.44078,"arrival":1522698322000,"orig":"","vertexType":"NORMAL"},"legGeometry":{"points":"glufHzszpLACtDmEj@s@|AoB|A_C`BcDh@_B`@gArAwEfByGhAiD|@wB~CcGrAiCSShFyJ","length":17},"rentedBike":false,"transitLeg":false,"duration":922.0,"steps":[{"distance":1.582,"relativeDirection":"DEPART","streetName":"path","absoluteDirection":"NORTHEAST","stayOn":false,"area":false,"bogusName":false,"lon":-71.08429534892859,"lat":48.44756379953066,"elevation":[]},{"distance":1197.004,"relativeDirection":"RIGHT","streetName":"Boulevard Sainte-Geneviève","absoluteDirection":"SOUTHEAST","stayOn":false,"area":false,"bogusName":false,"lon":-71.0842777,"lat":48.4475719,"elevation":[]}]}],"tooSloped":false}]},"debugOutput":{"precalculationTime":19,"pathCalculationTime":14,"pathTimes":[9,4,1],"renderingTime":0,"totalTime":33,"timedOut":false},"elevationMetadata":{"ellipsoidToGeoidDifference":-28.885904201182168,"geoidElevation":false}}