{"requestParameters":{"date":"2018/04/02","walkSpeed":"1.33","walkReluctance":"2.0","fromPlace":"48.438643,-71.06208999","maxWalkDistance":"3000","waitReluctance":"1.0","carSpeed":"33","numItineraries":"3","waitAtBeginningFactor":"0.4","mode":"TRANSIT,WALK","ignoreRealtimeUpdates":"false","stairsReluctance":"2.0","toPlace":"48.437017,-71.06684199","time":"18:15:00"},"plan":{"date":1522707300000,"from":{"name":"Origin","lon":-71.06208999,"lat":48.438643,"orig":"","vertexType":"NORMAL"},"to":{"name":"Destination","lon":-71.06684199,"lat":48.437017,"orig":"","vertexType":"NORMAL"},"itineraries":[{"duration":341,"startTime":1522707300000,"endTime":1522707641000,"walkTime":341,"transitTime":0,"waitingTime":0,"walkDistance":433.10863157724907,"walkLimitExceeded":false,"elevationLost":0.0,"elevationGained":0.0,"transfers":0,"legs":[{"startTime":1522707300000,"endTime":1522707641000,"departureDelay":0,"arrivalDelay":0,"realTime":false,"distance":433.056,"pathway":false,"mode":"WALK","route":"","agencyTimeZoneOffset":-14400000,"interlineWithPreviousLeg":false,"from":{"name":"Origin","lon":-71.06208999,"lat":48.438643,"departure":1522707300000,"orig":"","vertexType":"NORMAL"},"to":{"name":"Destination","lon":-71.06684199,"lat":48.437017,"arrival":1522707641000,"orig":"","vertexType":"NORMAL"},"legGeometry":{"points":"yssfHvevpLj@RFv@Dn@N|@Rz@Jb@Tr@X~@H^Lb@x@fDJpC@xA@R?dAA|A","length":17},"rentedBike":false,"transitLeg":false,"duration":341.0,"steps":[{"distance":25.737,"relativeDirection":"DEPART","streetName":"Boulevard de Tadoussac","absoluteDirection":"SOUTH","stayOn":false,"area":false,"bogusName":false,"lon":-71.06155428442396,"lat":48.438539658148684,"elevation":[]},{"distance":407.319,"relativeDirection":"RIGHT","streetName":"Rue Roussel","absoluteDirection":"WEST","stayOn":false,"area":false,"bogusName":false,"lon":-71.0616517,"lat":48.4383174,"elevation":[]}]}],"tooSloped":false},{"duration":168,"startTime":1522708140000,"endTime":1522708308000,"walkTime":105,"transitTime":61,"waitingTime":2,"walkDistance":136.06150375934996,"walkLimitExceeded":false,"elevationLost":0.0,"elevationGained":0.0,"transfers":0,"legs":[{"startTime":1522708140000,"endTime":1522708198000,"departureDelay":0,"arrivalDelay":0,"realTime":false,"distance":76.149,"pathway":false,"mode":"WALK","route":"","agencyTimeZoneOffset":-14400000,"interlineWithPreviousLeg":false,"from":{"name":"Origin","lon":-71.06208999,"lat":48.438643,"departure":1522708140000,"orig":"","vertexType":"NORMAL"},"to":{"name":"boul. Tadoussac / Bourget","stopId":"1:831","stopCode":"831","lon":-71.061384,"lat":48.43922,"arrival":1522708198000,"departure":1522708199000,"zoneId":"NA","stopIndex":21,"stopSequence":22,"vertexType":"TRANSIT"},"legGeometry":{"points":"yssfHvevpLcCy@","length":2},"rentedBike":false,"transitLeg":false,"duration":58.0,"steps":[{"distance":76.149,"relativeDirection":"DEPART","streetName":"Boulevard de Tadoussac","absoluteDirection":"NORTH","stayOn":false,"area":false,"bogusName":false,"lon":-71.06155428442396,"lat":48.438539658148684,"elevation":[]}]},{"startTime":1522708199000,"endTime":1522708260000,"departureDelay":0,"arrivalDelay":0,"realTime":false,"distance":412.35785170325653,"pathway":false,"mode":"BUS","route":"23","agencyName":"Société de Transport du Saguenay","agencyUrl":"http://ville.saguenay.ca/fr/services-aux-citoyens/transport-sts","agencyTimeZoneOffset":-14400000,"routeColor":"FF00FF","routeType":3,"routeId":"1:23","routeTextColor":"FFFFFF","interlineWithPreviousLeg":false,"tripBlockId":"4","headsign":"Terminus Chicoutimi","agencyId":"0","tripId":"1:217246","serviceDate":"20180402","from":{"name":"boul. Tadoussac / Bourget","stopId":"1:831","stopCode":"831","lon":-71.061384,"lat":48.43922,"arrival":1522708198000,"departure":1522708199000,"zoneId":"NA","stopIndex":21,"stopSequence":22,"vertexType":"TRANSIT"},"to":{"name":"Roussel / St-Ambroise","stopId":"1:1507","stopCode":"1507","lon":-71.066011,"lat":48.437319,"arrival":1522708260000,"departure":1522708261000,"zoneId":"NA","stopIndex":23,"stopSequence":24,"vertexType":"TRANSIT"},"legGeometry":{"points":"}wsfHxcvpLvDpALnBJt@Pp@|@`DHZPn@`@rBNnAFr@DbA?bB","length":13},"routeShortName":"23","routeLongName":"Côte Verdun via Aréna du Plateau","rentedBike":false,"transitLeg":true,"duration":61.0,"steps":[]},{"startTime":1522708261000,"endTime":1522708308000,"departureDelay":0,"arrivalDelay":0,"realTime":false,"distance":59.911,"pathway":false,"mode":"WALK","route":"","agencyTimeZoneOffset":-14400000,"interlineWithPreviousLeg":false,"from":{"name":"Roussel / St-Ambroise","stopId":"1:1507","stopCode":"1507","lon":-71.066011,"lat":48.437319,"arrival":1522708260000,"departure":1522708261000,"zoneId":"NA","stopIndex":23,"stopSequence":24,"vertexType":"TRANSIT"},"to":{"name":"Destination","lon":-71.06684199,"lat":48.437017,"arrival":1522708308000,"orig":"","vertexType":"NORMAL"},"legGeometry":{"points":"}ksfHpawpL?dAA|A","length":3},"rentedBike":false,"transitLeg":false,"duration":47.0,"steps":[{"distance":59.911,"relativeDirection":"DEPART","streetName":"Rue Roussel","absoluteDirection":"WEST","stayOn":false,"area":false,"bogusName":false,"lon":-71.06600928339171,"lat":48.43727999113519,"elevation":[]}]}],"tooSloped":false},{"duration":151,"startTime":1522708337000,"endTime":1522708488000,"walkTime":105,"transitTime":44,"waitingTime":2,"walkDistance":136.06150375934996,"walkLimitExceeded":false,"elevationLost":0.0,"elevationGained":0.0,"transfers":0,"legs":[{"startTime":1522708337000,"endTime":1522708395000,"departureDelay":0,"arrivalDelay":0,"realTime":false,"distance":76.149,"pathway":false,"mode":"WALK","route":"","agencyTimeZoneOffset":-14400000,"interlineWithPreviousLeg":false,"from":{"name":"Origin","lon":-71.06208999,"lat":48.438643,"departure":1522708337000,"orig":"","vertexType":"NORMAL"},"to":{"name":"boul. Tadoussac / Bourget","stopId":"1:831","stopCode":"831","lon":-71.061384,"lat":48.43922,"arrival":1522708395000,"departure":1522708396000,"zoneId":"NA","stopIndex":33,"stopSequence":34,"vertexType":"TRANSIT"},"legGeometry":{"points":"yssfHvevpLcCy@","length":2},"rentedBike":false,"transitLeg":false,"duration":58.0,"steps":[{"distance":76.149,"relativeDirection":"DEPART","streetName":"Boulevard de Tadoussac","absoluteDirection":"NORTH","stayOn":false,"area":false,"bogusName":false,"lon":-71.06155428442396,"lat":48.438539658148684,"elevation":[]}]},{"startTime":1522708396000,"endTime":1522708440000,"departureDelay":0,"arrivalDelay":0,"realTime":false,"distance":412.35785170325653,"pathway":false,"mode":"BUS","route":"26","agencyName":"Société de Transport du Saguenay","agencyUrl":"http://ville.saguenay.ca/fr/services-aux-citoyens/transport-sts","agencyTimeZoneOffset":-14400000,"routeColor":"00FFFF","routeType":3,"routeId":"1:26","routeTextColor":"000000","interlineWithPreviousLeg":false,"tripBlockId":"107","headsign":"Terminus Chicoutimi","agencyId":"0","tripId":"1:218825","serviceDate":"20180402","from":{"name":"boul. Tadoussac / Bourget","stopId":"1:831","stopCode":"831","lon":-71.061384,"lat":48.43922,"arrival":1522708395000,"departure":1522708396000,"zoneId":"NA","stopIndex":33,"stopSequence":34,"vertexType":"TRANSIT"},"to":{"name":"Roussel / St-Ambroise","stopId":"1:1507","stopCode":"1507","lon":-71.066011,"lat":48.437319,"arrival":1522708440000,"departure":1522708441000,"zoneId":"NA","stopIndex":35,"stopSequence":36,"vertexType":"TRANSIT"},"legGeometry":{"points":"}wsfHxcvpLl@RhC|@LnBJt@Pp@Nj@l@tBHZPn@`@rBNnAFr@DbA?bB","length":15},"routeShortName":"26","routeLongName":"St-Fulgence","rentedBike":false,"transitLeg":true,"duration":44.0,"steps":[]},{"startTime":1522708441000,"endTime":1522708488000,"departureDelay":0,"arrivalDelay":0,"realTime":false,"distance":59.911,"pathway":false,"mode":"WALK","route":"","agencyTimeZoneOffset":-14400000,"interlineWithPreviousLeg":false,"from":{"name":"Roussel / St-Ambroise","stopId":"1:1507","stopCode":"1507","lon":-71.066011,"lat":48.437319,"arrival":1522708440000,"departure":1522708441000,"zoneId":"NA","stopIndex":35,"stopSequence":36,"vertexType":"TRANSIT"},"to":{"name":"Destination","lon":-71.06684199,"lat":48.437017,"arrival":1522708488000,"orig":"","vertexType":"NORMAL"},"legGeometry":{"points":"}ksfHpawpL?dAA|A","length":3},"rentedBike":false,"transitLeg":false,"duration":47.0,"steps":[{"distance":59.911,"relativeDirection":"DEPART","streetName":"Rue Roussel","absoluteDirection":"WEST","stayOn":false,"area":false,"bogusName":false,"lon":-71.06600928339171,"lat":48.43727999113519,"elevation":[]}]}],"tooSloped":false}]},"debugOutput":{"precalculationTime":28,"pathCalculationTime":19,"pathTimes":[9,8,2],"renderingTime":1,"totalTime":48,"timedOut":false},"elevationMetadata":{"ellipsoidToGeoidDifference":-28.885904201182168,"geoidElevation":false}}