{"requestParameters":{"date":"2018/04/02","walkSpeed":"1.33","walkReluctance":"2.0","fromPlace":"48.403323,-71.06394299","maxWalkDistance":"3000","waitReluctance":"1.0","carSpeed":"33","numItineraries":"3","waitAtBeginningFactor":"0.4","mode":"TRANSIT,WALK","ignoreRealtimeUpdates":"false","stairsReluctance":"2.0","toPlace":"48.436573,-71.059415","time":"16:0:00"},"plan":{"date":1522699200000,"from":{"name":"Origin","lon":-71.06394299,"lat":48.403323,"orig":"","vertexType":"NORMAL"},"to":{"name":"Destination","lon":-71.059415,"lat":48.436573,"orig":"","vertexType":"NORMAL"},"itineraries":[{"duration":2293,"startTime":1522700218000,"endTime":1522702511000,"walkTime":473,"transitTime":1398,"waitingTime":422,"walkDistance":601.9123909723972,"walkLimitExceeded":false,"elevationLost":0.0,"elevationGained":0.0,"transfers":1,"legs":[{"startTime":1522700218000,"endTime":1522700384000,"departureDelay":0,"arrivalDelay":0,"realTime":false,"distance":213.59000000000003,"pathway":false,"mode":"WALK","route":"","agencyTimeZoneOffset":-14400000,"interlineWithPreviousLeg":false,"from":{"name":"Origin","lon":-71.06394299,"lat":48.403323,"departure":1522700218000,"orig":"","vertexType":"NORMAL"},"to":{"name":"Saguenéens  / Bach","stopId":"1:575","stopCode":"575","lon":-71.061104,"lat":48.403689,"arrival":1522700384000,"departure":1522700385000,"zoneId":"NA","stopIndex":12,"stopSequence":13,"vertexType":"TRANSIT"},"legGeometry":{"points":"uulfHhovpL{BiBW]K_@EUGSGKSSfAoC","length":9},"rentedBike":false,"transitLeg":false,"duration":166.0,"steps":[{"distance":146.63400000000001,"relativeDirection":"DEPART","streetName":"Rue Bach","absoluteDirection":"NORTHEAST","stayOn":false,"area":false,"bogusName":false,"lon":-71.06308282931047,"lat":48.40299838912646,"elevation":[]},{"distance":66.956,"relativeDirection":"RIGHT","streetName":"Rue des Saguenéens","absoluteDirection":"SOUTHEAST","stayOn":false,"area":false,"bogusName":false,"lon":-71.06187870000001,"lat":48.404006700000004,"elevation":[]}]},{"startTime":1522700385000,"endTime":1522701480000,"departureDelay":0,"arrivalDelay":0,"realTime":false,"distance":5736.477922780734,"pathway":false,"mode":"BUS","route":"15","agencyName":"Société de Transport du Saguenay","agencyUrl":"http://ville.saguenay.ca/fr/services-aux-citoyens/transport-sts","agencyTimeZoneOffset":-14400000,"routeColor":"FF00FF","routeType":3,"routeId":"1:15","routeTextColor":"FFFFFF","interlineWithPreviousLeg":false,"tripBlockId":"30","headsign":"Terminus Chicoutimi","agencyId":"0","tripId":"1:218106","serviceDate":"20180402","from":{"name":"Saguenéens  / Bach","stopId":"1:575","stopCode":"575","lon":-71.061104,"lat":48.403689,"arrival":1522700384000,"departure":1522700385000,"zoneId":"NA","stopIndex":12,"stopSequence":13,"vertexType":"TRANSIT"},"to":{"name":"Terminus Chicoutimi","stopId":"1:1289","stopCode":"1289","lon":-71.066163,"lat":48.428677,"arrival":1522701480000,"departure":1522701900000,"zoneId":"NA","stopIndex":39,"stopSequence":40,"vertexType":"TRANSIT"},"legGeometry":{"points":"sylfHjcvpLmA|CUr@}@~A_@\\_DvCEZcA|@UP_@d@Yl@oBdFeCxG_CfGYVQXS\\dK|HlFZbC\\p@zA\\rB@hBiArG{BNw@FiG}@iDwAECcCcBo@y@sEeGe@o@qAa@m@MoB?C@}BZwAc@oA_Bs@gDCKZ{Di@QECc@_@sAkAoBwB_EcE{A_BoAmAk@o@cCaCkIkIaJaJUUwBaCj@wCjAsCzGoG_CoHL{D_@kAqD{CQr@iAcAy@w@L{@wAuA_B_B_EpLDh@NbBVvCIxBg@`Am@l@Sb@a@rAqDqDmEkE]a@kAqAU|@WnKG|DGxDOdPKvJU|F?XQlJC~@ChAIzEcCOaIi@VwL","length":98},"routeShortName":"15","routeLongName":"Term. Chic / Costco","rentedBike":false,"transitLeg":true,"duration":1095.0,"steps":[]},{"startTime":1522701900000,"endTime":1522702203000,"departureDelay":0,"arrivalDelay":0,"realTime":false,"distance":1445.1781370852384,"pathway":false,"mode":"BUS","route":"24","agencyName":"Société de Transport du Saguenay","agencyUrl":"http://ville.saguenay.ca/fr/services-aux-citoyens/transport-sts","agencyTimeZoneOffset":-14400000,"routeColor":"00FF00","routeType":3,"routeId":"1:24","routeTextColor":"000000","interlineWithPreviousLeg":false,"tripBlockId":"4","headsign":"Terminus Chicoutimi","agencyId":"0","tripId":"1:217243","serviceDate":"20180402","from":{"name":"Terminus Chicoutimi","stopId":"1:1289","stopCode":"1289","lon":-71.066163,"lat":48.428677,"arrival":1522701480000,"departure":1522701900000,"zoneId":"NA","stopIndex":0,"stopSequence":1,"vertexType":"TRANSIT"},"to":{"name":"Napoléon / Roussel","stopId":"1:805","stopCode":"805","lon":-71.059698,"lat":48.438926,"arrival":1522702203000,"departure":1522702204000,"zoneId":"NA","stopIndex":3,"stopSequence":4,"vertexType":"TRANSIT"},"legGeometry":{"points":"evqfHzcwpLg@?EhBO~GoBKCp@O\\WjGOfGCRK^KJMHQB_AMg@Gm\\wO]i@wAyA_@WUKMEwEm@Js@Da@??@@??@?@???@???@?@??A@???@A@??A@??A@A??@A?A??@A?A?A?A@A?A???A?A?A???A?A?A?A???A?AAA?A???AAA?A??AA?AA??AA??A??AA??A??AA?A???A????q@C{AAaB?mAEcAGs@OoAa@sB[kAYcASq@Ok@Qq@Ku@MoBKmAa@eHi@FKC_@I??","length":110},"routeShortName":"24","routeLongName":"Saint-Luc","rentedBike":false,"transitLeg":true,"duration":303.0,"steps":[]},{"startTime":1522702204000,"endTime":1522702511000,"departureDelay":0,"arrivalDelay":0,"realTime":false,"distance":388.166,"pathway":false,"mode":"WALK","route":"","agencyTimeZoneOffset":-14400000,"interlineWithPreviousLeg":false,"from":{"name":"Napoléon / Roussel","stopId":"1:805","stopCode":"805","lon":-71.059698,"lat":48.438926,"arrival":1522702203000,"departure":1522702204000,"zoneId":"NA","stopIndex":3,"stopSequence":4,"vertexType":"TRANSIT"},"to":{"name":"Destination","lon":-71.059415,"lat":48.436573,"arrival":1522702511000,"orig":"","vertexType":"NORMAL"},"legGeometry":{"points":"kvsfHrzupLJBXBl@GIoBtE~AnEzA@sC","length":8},"rentedBike":false,"transitLeg":false,"duration":307.0,"steps":[{"distance":46.409,"relativeDirection":"DEPART","streetName":"Rue Napoléon","absoluteDirection":"SOUTH","stayOn":false,"area":false,"bogusName":false,"lon":-71.05977092785905,"lat":48.43894142274176,"elevation":[]},{"distance":41.577,"relativeDirection":"LEFT","streetName":"Rue Roussel","absoluteDirection":"EAST","stayOn":false,"area":false,"bogusName":false,"lon":-71.05977750000001,"lat":48.4385289,"elevation":[]},{"distance":245.447,"relativeDirection":"RIGHT","streetName":"Rue des Remparts","absoluteDirection":"SOUTH","stayOn":false,"area":false,"bogusName":false,"lon":-71.05921880000001,"lat":48.4385782,"elevation":[]},{"distance":54.733,"relativeDirection":"LEFT","streetName":"Rue du Rocher","absoluteDirection":"EAST","stayOn":false,"area":false,"bogusName":false,"lon":-71.0601594,"lat":48.4364609,"elevation":[]}]}],"tooSloped":false},{"duration":3396,"startTime":1522699392000,"endTime":1522702788000,"walkTime":1473,"transitTime":1921,"waitingTime":2,"walkDistance":1894.3387744260945,"walkLimitExceeded":false,"elevationLost":0.0,"elevationGained":0.0,"transfers":0,"legs":[{"startTime":1522699392000,"endTime":1522699558000,"departureDelay":0,"arrivalDelay":0,"realTime":false,"distance":213.59000000000003,"pathway":false,"mode":"WALK","route":"","agencyTimeZoneOffset":-14400000,"interlineWithPreviousLeg":false,"from":{"name":"Origin","lon":-71.06394299,"lat":48.403323,"departure":1522699392000,"orig":"","vertexType":"NORMAL"},"to":{"name":"Saguenéens  / Bach","stopId":"1:575","stopCode":"575","lon":-71.061104,"lat":48.403689,"arrival":1522699558000,"departure":1522699559000,"zoneId":"NA","stopIndex":23,"stopSequence":24,"vertexType":"TRANSIT"},"legGeometry":{"points":"uulfHhovpL{BiBW]K_@EUGSGKSSfAoC","length":9},"rentedBike":false,"transitLeg":false,"duration":166.0,"steps":[{"distance":146.63400000000001,"relativeDirection":"DEPART","streetName":"Rue Bach","absoluteDirection":"NORTHEAST","stayOn":false,"area":false,"bogusName":false,"lon":-71.06308282931047,"lat":48.40299838912646,"elevation":[]},{"distance":66.956,"relativeDirection":"RIGHT","streetName":"Rue des Saguenéens","absoluteDirection":"SOUTHEAST","stayOn":false,"area":false,"bogusName":false,"lon":-71.06187870000001,"lat":48.404006700000004,"elevation":[]}]},{"startTime":1522699559000,"endTime":1522699920000,"departureDelay":0,"arrivalDelay":0,"realTime":false,"distance":3436.0046196032185,"pathway":false,"mode":"BUS","route":"15","agencyName":"Société de Transport du Saguenay","agencyUrl":"http://ville.saguenay.ca/fr/services-aux-citoyens/transport-sts","agencyTimeZoneOffset":-14400000,"routeColor":"FF00FF","routeType":3,"routeId":"1:15","routeTextColor":"FFFFFF","interlineWithPreviousLeg":false,"tripBlockId":"31","headsign":"Talbot / Barrette","agencyId":"0","tripId":"1:218140","serviceDate":"20180402","from":{"name":"Saguenéens  / Bach","stopId":"1:575","stopCode":"575","lon":-71.061104,"lat":48.403689,"arrival":1522699558000,"departure":1522699559000,"zoneId":"NA","stopIndex":23,"stopSequence":24,"vertexType":"TRANSIT"},"to":{"name":"Roitelets / Sapins","stopId":"1:1543","stopCode":"1543","lon":-71.069553,"lat":48.393375,"arrival":1522699920000,"departure":1522699920000,"zoneId":"NA","stopIndex":35,"stopSequence":36,"vertexType":"TRANSIT"},"legGeometry":{"points":"ezlfHvbvpLtC{FnBoLbCaO?qLa@uJzF`ApF~@~@PzAgEeDcBf@qAWcKUqEx@Ef@ExDVjDxAFBrBvAfGjG@BjCzC~DxC@@zA~Cb@fCJlC?BsBre@?DWbOAn@?nEGnM@H\\hCzA~ELvAAlAi@jDo@nB","length":42},"routeShortName":"15","routeLongName":"Term. Chic / Costco","rentedBike":false,"transitLeg":true,"duration":361.0,"steps":[]},{"startTime":1522699920000,"endTime":1522701480000,"departureDelay":0,"arrivalDelay":0,"realTime":false,"distance":9621.046301683697,"pathway":false,"mode":"BUS","route":"14","agencyName":"Société de Transport du Saguenay","agencyUrl":"http://ville.saguenay.ca/fr/services-aux-citoyens/transport-sts","agencyTimeZoneOffset":-14400000,"routeColor":"C0C000","routeType":3,"routeId":"1:14","routeTextColor":"000000","interlineWithPreviousLeg":true,"tripBlockId":"31","headsign":"Terminus Chicoutimi","agencyId":"0","tripId":"1:218141","serviceDate":"20180402","from":{"name":"Roitelets / Sapins","stopId":"1:1513","stopCode":"1513","lon":-71.069396,"lat":48.393523,"arrival":1522699920000,"departure":1522699920000,"zoneId":"NA","stopIndex":0,"stopSequence":1,"vertexType":"TRANSIT"},"to":{"name":"Terminus Chicoutimi","stopId":"1:1289","stopCode":"1289","lon":-71.066163,"lat":48.428677,"arrival":1522701480000,"departure":1522701481000,"zoneId":"NA","stopIndex":37,"stopSequence":38,"vertexType":"TRANSIT"},"legGeometry":{"points":"azjfHfwwpLiEfLuBzFsAnDgGzSWfAcD`Mi@dCgChLmCzMwGd\\aDxOdFtFhCtCdDY|F_On@aB`B_GNoBvAyT|@sNuAyAuF}F}AaB_BkAC@qC\\gAWiBwBiKgMiCwEgEyHCGy@uB}@rAa@nAc@lFEf@mGvUYfAqCs@ICMCqFmDc@s@mAkBuEoESUgAhDiAfD}@zDyAcA_@Um@U{AWgB_Au@s@EEsBkCqFgF{IiI][aBhE}@}@oBmBwE{EwE{Ej@mBZeAa@SyEQg@CPcALuCx@{b@t@{[XoDd@sBl@iB~@gA`G{F{A{D_@sBFqDOq@iG{FGIoCkCgBgBsDpLHzBBT`@~COnBQf@gAjAg@bBuDmDmFgFa@_@w@s@CfAOrBEtAGbA?jBQtC?|@ExKMdIG~EUnLEhC}CKkBOkCOYbC","length":117},"routeShortName":"14","routeLongName":"Coopérative","rentedBike":false,"transitLeg":true,"duration":1560.0,"steps":[]},{"startTime":1522701481000,"endTime":1522702788000,"departureDelay":0,"arrivalDelay":0,"realTime":false,"distance":1680.439,"pathway":false,"mode":"WALK","route":"","agencyTimeZoneOffset":-14400000,"interlineWithPreviousLeg":false,"from":{"name":"Terminus Chicoutimi","stopId":"1:1289","stopCode":"1289","lon":-71.066163,"lat":48.428677,"arrival":1522701480000,"departure":1522701481000,"zoneId":"NA","stopIndex":37,"stopSequence":38,"vertexType":"TRANSIT"},"to":{"name":"Destination","lon":-71.059415,"lat":48.436573,"arrival":1522702788000,"orig":"","vertexType":"NORMAL"},"legGeometry":{"points":"{uqfHb~vpL_BMOAa@CILKJ[TaAn@@FDX?\\CTEb@GHCb@C|@ALEDCBCr@DBBBElBEp@e]uBQuBMBwAcLy@eGgA_CyB}BiAi@As@Wi@LcArA^JqAND`@MFsD@sC","length":41},"rentedBike":false,"transitLeg":false,"duration":1307.0,"steps":[{"distance":81.079,"relativeDirection":"DEPART","streetName":"Rue Morin","absoluteDirection":"NORTH","stayOn":false,"area":false,"bogusName":false,"lon":-71.0654590096484,"lat":48.428628638946556,"elevation":[]},{"distance":259.336,"relativeDirection":"LEFT","streetName":"path","absoluteDirection":"NORTHWEST","stayOn":false,"area":false,"bogusName":true,"lon":-71.0653539,"lat":48.4293544,"elevation":[]},{"distance":538.684,"relativeDirection":"RIGHT","streetName":"Pont de Sainte-Anne","absoluteDirection":"NORTH","stayOn":false,"area":false,"bogusName":false,"lon":-71.0682024,"lat":48.4301132,"elevation":[]},{"distance":52.638,"relativeDirection":"RIGHT","streetName":"bike path","absoluteDirection":"EAST","stayOn":false,"area":false,"bogusName":true,"lon":-71.0676151,"lat":48.434942,"elevation":[]},{"distance":452.935,"relativeDirection":"RIGHT","streetName":"Boulevard de Tadoussac","absoluteDirection":"EAST","stayOn":false,"area":false,"bogusName":false,"lon":-71.0670497,"lat":48.4351063,"elevation":[]},{"distance":145.985,"relativeDirection":"RIGHT","streetName":"path","absoluteDirection":"EAST","stayOn":false,"area":false,"bogusName":true,"lon":-71.0621543,"lat":48.4371765,"elevation":[]},{"distance":28.869,"relativeDirection":"RIGHT","streetName":"Rue Michaud","absoluteDirection":"SOUTH","stayOn":false,"area":false,"bogusName":false,"lon":-71.06109090000001,"lat":48.4367566,"elevation":[]},{"distance":120.91300000000001,"relativeDirection":"LEFT","streetName":"Rue du Rocher","absoluteDirection":"EAST","stayOn":false,"area":false,"bogusName":false,"lon":-71.0610537,"lat":48.4365078,"elevation":[]}]}],"tooSloped":false},{"duration":2815,"startTime":1522700093000,"endTime":1522702908000,"walkTime":1772,"transitTime":1041,"waitingTime":2,"walkDistance":2273.5370375805933,"walkLimitExceeded":false,"elevationLost":0.0,"elevationGained":0.0,"transfers":0,"legs":[{"startTime":1522700093000,"endTime":1522700558000,"departureDelay":0,"arrivalDelay":0,"realTime":false,"distance":592.683,"pathway":false,"mode":"WALK","route":"","agencyTimeZoneOffset":-14400000,"interlineWithPreviousLeg":false,"from":{"name":"Origin","lon":-71.06394299,"lat":48.403323,"departure":1522700093000,"orig":"","vertexType":"NORMAL"},"to":{"name":"boul. Talbot / Laurentides","stopId":"1:51","stopCode":"51","lon":-71.063914,"lat":48.398861,"arrival":1522700558000,"departure":1522700559000,"zoneId":"NA","stopIndex":9,"stopSequence":10,"vertexType":"TRANSIT"},"legGeometry":{"points":"uulfHhovpLb@\\RRb@Tt@j@h@f@jArAHDFEv@uBtBfCRT`BjCLBRARUjBiDLYNWPc@V\\FH","length":22},"rentedBike":false,"transitLeg":false,"duration":465.0,"steps":[{"distance":237.377,"relativeDirection":"DEPART","streetName":"Rue Bach","absoluteDirection":"SOUTHWEST","stayOn":false,"area":false,"bogusName":false,"lon":-71.06308282931047,"lat":48.40299838912646,"elevation":[]},{"distance":332.28000000000003,"relativeDirection":"RIGHT","streetName":"Rue des Laurentides","absoluteDirection":"SOUTHWEST","stayOn":false,"area":false,"bogusName":false,"lon":-71.06369600000001,"lat":48.4013001,"elevation":[]},{"distance":23.026,"relativeDirection":"RIGHT","streetName":"Boulevard Talbot","absoluteDirection":"SOUTHWEST","stayOn":false,"area":false,"bogusName":false,"lon":-71.06380730000001,"lat":48.3990713,"elevation":[]}]},{"startTime":1522700559000,"endTime":1522701600000,"departureDelay":0,"arrivalDelay":0,"realTime":false,"distance":5092.8861536202185,"pathway":false,"mode":"BUS","route":"175","agencyName":"Société de Transport du Saguenay","agencyUrl":"http://ville.saguenay.ca/fr/services-aux-citoyens/transport-sts","agencyTimeZoneOffset":-14400000,"routeColor":"FF00FF","routeType":3,"routeId":"1:175","routeTextColor":"FFFFFF","interlineWithPreviousLeg":false,"tripBlockId":"9","headsign":"Terminus Chicoutimi","agencyId":"0","tripId":"1:217411","serviceDate":"20180402","from":{"name":"boul. Talbot / Laurentides","stopId":"1:51","stopCode":"51","lon":-71.063914,"lat":48.398861,"arrival":1522700558000,"departure":1522700559000,"zoneId":"NA","stopIndex":9,"stopSequence":10,"vertexType":"TRANSIT"},"to":{"name":"Terminus Chicoutimi","stopId":"1:1289","stopCode":"1289","lon":-71.066163,"lat":48.428677,"arrival":1522701600000,"departure":1522701601000,"zoneId":"NA","stopIndex":27,"stopSequence":28,"vertexType":"TRANSIT"},"legGeometry":{"points":"q|kfHtuvpL}FkImPkOuO{N_U_TcNgNcBcB{E`Jc@x@qG~@{BlAk@XgSrQqB_GAeFiEeEOt@gAeA_A_ATm@yAwAgBeBqDnL@nBF`@f@|C[dCuAfB]xAs@OmCmCmEkE]a@g@i@ZiGTmEl@oLaEe@cFk@?pH?tJDvBPjMB~Bo@PQDRbFKdGMhIOvIK|EQpHoCQEdC","length":54},"routeShortName":"175","routeLongName":"Term. Chic / Costco","rentedBike":false,"transitLeg":true,"duration":1041.0,"steps":[]},{"startTime":1522701601000,"endTime":1522702908000,"departureDelay":0,"arrivalDelay":0,"realTime":false,"distance":1680.439,"pathway":false,"mode":"WALK","route":"","agencyTimeZoneOffset":-14400000,"interlineWithPreviousLeg":false,"from":{"name":"Terminus Chicoutimi","stopId":"1:1289","stopCode":"1289","lon":-71.066163,"lat":48.428677,"arrival":1522701600000,"departure":1522701601000,"zoneId":"NA","stopIndex":27,"stopSequence":28,"vertexType":"TRANSIT"},"to":{"name":"Destination","lon":-71.059415,"lat":48.436573,"arrival":1522702908000,"orig":"","vertexType":"NORMAL"},"legGeometry":{"points":"{uqfHb~vpL_BMOAa@CILKJ[TaAn@@FDX?\\CTEb@GHCb@C|@ALEDCBCr@DBBBElBEp@e]uBQuBMBwAcLy@eGgA_CyB}BiAi@As@Wi@LcArA^JqAND`@MFsD@sC","length":41},"rentedBike":false,"transitLeg":false,"duration":1307.0,"steps":[{"distance":81.079,"relativeDirection":"DEPART","streetName":"Rue Morin","absoluteDirection":"NORTH","stayOn":false,"area":false,"bogusName":false,"lon":-71.0654590096484,"lat":48.428628638946556,"elevation":[]},{"distance":259.336,"relativeDirection":"LEFT","streetName":"path","absoluteDirection":"NORTHWEST","stayOn":false,"area":false,"bogusName":true,"lon":-71.0653539,"lat":48.4293544,"elevation":[]},{"distance":538.684,"relativeDirection":"RIGHT","streetName":"Pont de Sainte-Anne","absoluteDirection":"NORTH","stayOn":false,"area":false,"bogusName":false,"lon":-71.0682024,"lat":48.4301132,"elevation":[]},{"distance":52.638,"relativeDirection":"RIGHT","streetName":"bike path","absoluteDirection":"EAST","stayOn":false,"area":false,"bogusName":true,"lon":-71.0676151,"lat":48.434942,"elevation":[]},{"distance":452.935,"relativeDirection":"RIGHT","streetName":"Boulevard de Tadoussac","absoluteDirection":"EAST","stayOn":false,"area":false,"bogusName":false,"lon":-71.0670497,"lat":48.4351063,"elevation":[]},{"distance":145.985,"relativeDirection":"RIGHT","streetName":"path","absoluteDirection":"EAST","stayOn":false,"area":false,"bogusName":true,"lon":-71.0621543,"lat":48.4371765,"elevation":[]},{"distance":28.869,"relativeDirection":"RIGHT","streetName":"Rue Michaud","absoluteDirection":"SOUTH","stayOn":false,"area":false,"bogusName":false,"lon":-71.06109090000001,"lat":48.4367566,"elevation":[]},{"distance":120.91300000000001,"relativeDirection":"LEFT","streetName":"Rue du Rocher","absoluteDirection":"EAST","stayOn":false,"area":false,"bogusName":false,"lon":-71.0610537,"lat":48.4365078,"elevation":[]}]}],"tooSloped":false}]},"debugOutput":{"precalculationTime":33,"pathCalculationTime":71,"pathTimes":[31,17,23],"renderingTime":1,"totalTime":105,"timedOut":false},"elevationMetadata":{"ellipsoidToGeoidDifference":-28.885904201182168,"geoidElevation":false}}