{"requestParameters":{"date":"2018/04/02","walkSpeed":"1.33","walkReluctance":"2.0","fromPlace":"48.436573,-71.059415","maxWalkDistance":"3000","waitReluctance":"1.0","carSpeed":"33","numItineraries":"3","waitAtBeginningFactor":"0.4","mode":"TRANSIT,WALK","ignoreRealtimeUpdates":"false","stairsReluctance":"2.0","toPlace":"48.403323,-71.06394299","time":"6:40:00"},"plan":{"date":1522665600000,"from":{"name":"Origin","lon":-71.059415,"lat":48.436573,"orig":"","vertexType":"NORMAL"},"to":{"name":"Destination","lon":-71.06394299,"lat":48.403323,"orig":"","vertexType":"NORMAL"},"itineraries":[{"duration":2355,"startTime":1522666738000,"endTime":1522669093000,"walkTime":729,"transitTime":1384,"waitingTime":242,"walkDistance":942.273578943123,"walkLimitExceeded":false,"elevationLost":0.0,"elevationGained":0.0,"transfers":1,"legs":[{"startTime":1522666738000,"endTime":1522667151000,"departureDelay":0,"arrivalDelay":0,"realTime":false,"distance":529.8230000000001,"pathway":false,"mode":"WALK","route":"","agencyTimeZoneOffset":-14400000,"interlineWithPreviousLeg":false,"from":{"name":"Origin","lon":-71.059415,"lat":48.436573,"departure":1522666738000,"orig":"","vertexType":"NORMAL"},"to":{"name":"boul. Tadoussac / Bourget","stopId":"1:831","stopCode":"831","lon":-71.061384,"lat":48.43922,"arrival":1522667151000,"departure":1522667152000,"zoneId":"NA","stopIndex":30,"stopSequence":31,"vertexType":"TRANSIT"},"legGeometry":{"points":"yfsfHjxupLArCGrDa@LOEKpAsA_@MbAVh@@r@cFcBoDmA","length":12},"rentedBike":false,"transitLeg":false,"duration":413.0,"steps":[{"distance":120.91300000000001,"relativeDirection":"DEPART","streetName":"Rue du Rocher","absoluteDirection":"WEST","stayOn":false,"area":false,"bogusName":false,"lon":-71.0594175482403,"lat":48.436453912739154,"elevation":[]},{"distance":28.869,"relativeDirection":"RIGHT","streetName":"Rue Michaud","absoluteDirection":"NORTH","stayOn":false,"area":false,"bogusName":false,"lon":-71.0610537,"lat":48.4365078,"elevation":[]},{"distance":145.985,"relativeDirection":"LEFT","streetName":"path","absoluteDirection":"WEST","stayOn":false,"area":false,"bogusName":true,"lon":-71.06109090000001,"lat":48.4367566,"elevation":[]},{"distance":234.056,"relativeDirection":"RIGHT","streetName":"Boulevard de Tadoussac","absoluteDirection":"NORTH","stayOn":false,"area":false,"bogusName":false,"lon":-71.0621543,"lat":48.4371765,"elevation":[]}]},{"startTime":1522667152000,"endTime":1522667460000,"departureDelay":0,"arrivalDelay":0,"realTime":false,"distance":1919.7483661497956,"pathway":false,"mode":"BUS","route":"24","agencyName":"Société de Transport du Saguenay","agencyUrl":"http://ville.saguenay.ca/fr/services-aux-citoyens/transport-sts","agencyTimeZoneOffset":-14400000,"routeColor":"00FF00","routeType":3,"routeId":"1:24","routeTextColor":"000000","interlineWithPreviousLeg":false,"tripBlockId":"4","headsign":"Terminus Chicoutimi","agencyId":"0","tripId":"1:217223","serviceDate":"20180402","from":{"name":"boul. Tadoussac / Bourget","stopId":"1:831","stopCode":"831","lon":-71.061384,"lat":48.43922,"arrival":1522667151000,"departure":1522667152000,"zoneId":"NA","stopIndex":30,"stopSequence":31,"vertexType":"TRANSIT"},"to":{"name":"Terminus Chicoutimi","stopId":"1:1289","stopCode":"1289","lon":-71.066163,"lat":48.428677,"arrival":1522667460000,"departure":1522667700000,"zoneId":"NA","stopIndex":35,"stopSequence":36,"vertexType":"TRANSIT"},"legGeometry":{"points":"}wsfHxcvpLvDpALnBJt@Pp@Nj@l@tBHZPn@`@rBNnAFr@DbA?bB@jABzA?p@A???A???A?A???A@??A?A@??A@?@A??@A@???@A@?@?@A@?@?@?@?@???@?@?@?@?@?@@@?@?@@@?@@@?@@@?@@?@@??@@@?E`@Kr@]rACVEl@I|AAr@JbAWJe@FUAM?a@Ke@YYWWa@v@}@RQPMz@k@tAe@REZG^Af@@X@VF`@Jn@XbClAr@Xt\\`PrAb@pA^hBTjAFj@Pb@JPHLLJNJRFXDT?X?ZEVEVKTMNMHMFOB}DWSGOSYcAN}FFkAF}DJyDPwGvAHN_HDiB@m@","length":131},"routeShortName":"24","routeLongName":"Saint-Luc","rentedBike":false,"transitLeg":true,"duration":308.0,"steps":[]},{"startTime":1522667700000,"endTime":1522668776000,"departureDelay":0,"arrivalDelay":0,"realTime":false,"distance":5408.791385525205,"pathway":false,"mode":"BUS","route":"175","agencyName":"Société de Transport du Saguenay","agencyUrl":"http://ville.saguenay.ca/fr/services-aux-citoyens/transport-sts","agencyTimeZoneOffset":-14400000,"routeColor":"FF00FF","routeType":3,"routeId":"1:175","routeTextColor":"FFFFFF","interlineWithPreviousLeg":false,"tripBlockId":"7","headsign":"Costco","agencyId":"0","tripId":"1:217322","serviceDate":"20180402","from":{"name":"Terminus Chicoutimi","stopId":"1:1289","stopCode":"1289","lon":-71.066163,"lat":48.428677,"arrival":1522667460000,"departure":1522667700000,"zoneId":"NA","stopIndex":0,"stopSequence":1,"vertexType":"TRANSIT"},"to":{"name":"boul. Talbot (no. 1494) (Tim-Horton)","stopId":"1:1854","stopCode":"1854","lon":-71.060941,"lat":48.402118,"arrival":1522668776000,"departure":1522668777000,"zoneId":"NA","stopIndex":21,"stopSequence":22,"vertexType":"TRANSIT"},"legGeometry":{"points":"kvqfH~awpL~CgBbAqa@FwCBkAOsHAg@bAYUwMKoE@mB@kJ@iFbEf@xEj@iCtYp@r@z@`ABBvHtHXRx@l@VwAvAgB\\qBIuAC]g@yEzDuLbBbBvAxAMx@|@v@`A~@Xw@~D~DPxFZtA~ApE`N{LpFmEb@[ROl@[vDQXKfA[|@q@fAsBlEmMr@sBhCsKz@dAjB|@dM`GzCvAXrCr@~Gx@]PEr@ObACn@FrBb@|@Ch@Kx@U~HsB^KZ|DJpII~Fa@rFUzBi@bDUxAm@nCcAlDM^RTfD`D","length":81},"routeShortName":"175","routeLongName":"Term. Chic / Costco","rentedBike":false,"transitLeg":true,"duration":1076.0,"steps":[]},{"startTime":1522668777000,"endTime":1522669093000,"departureDelay":0,"arrivalDelay":0,"realTime":false,"distance":412.319,"pathway":false,"mode":"WALK","route":"","agencyTimeZoneOffset":-14400000,"interlineWithPreviousLeg":false,"from":{"name":"boul. Talbot (no. 1494) (Tim-Horton)","stopId":"1:1854","stopCode":"1854","lon":-71.060941,"lat":48.402118,"arrival":1522668776000,"departure":1522668777000,"zoneId":"NA","stopIndex":21,"stopSequence":22,"vertexType":"TRANSIT"},"to":{"name":"Destination","lon":-71.06394299,"lat":48.403323,"arrival":1522669093000,"orig":"","vertexType":"NORMAL"},"legGeometry":{"points":"}olfHhavpLjAhA{@`CUdAKh@?^FTlA~A_AhCi@g@u@k@c@USSc@]","length":14},"rentedBike":false,"transitLeg":false,"duration":316.0,"steps":[{"distance":50.26,"relativeDirection":"DEPART","streetName":"Boulevard Talbot","absoluteDirection":"SOUTHWEST","stayOn":false,"area":false,"bogusName":false,"lon":-71.06084575275527,"lat":48.40207691199218,"elevation":[]},{"distance":180.608,"relativeDirection":"RIGHT","streetName":"Rue des Laurentides","absoluteDirection":"NORTHWEST","stayOn":false,"area":false,"bogusName":false,"lon":-71.0612167,"lat":48.4016979,"elevation":[]},{"distance":61.985,"relativeDirection":"RIGHT","streetName":"road","absoluteDirection":"NORTHWEST","stayOn":false,"area":false,"bogusName":true,"lon":-71.0631764,"lat":48.401736,"elevation":[]},{"distance":119.466,"relativeDirection":"RIGHT","streetName":"Rue Bach","absoluteDirection":"NORTHEAST","stayOn":false,"area":false,"bogusName":false,"lon":-71.06386160000001,"lat":48.402058200000006,"elevation":[]}]}],"tooSloped":false},{"duration":2742,"startTime":1522666385000,"endTime":1522669127000,"walkTime":580,"transitTime":1560,"waitingTime":602,"walkDistance":743.5517218000354,"walkLimitExceeded":false,"elevationLost":0.0,"elevationGained":0.0,"transfers":1,"legs":[{"startTime":1522666385000,"endTime":1522666798000,"departureDelay":0,"arrivalDelay":0,"realTime":false,"distance":529.8230000000001,"pathway":false,"mode":"WALK","route":"","agencyTimeZoneOffset":-14400000,"interlineWithPreviousLeg":false,"from":{"name":"Origin","lon":-71.059415,"lat":48.436573,"departure":1522666385000,"orig":"","vertexType":"NORMAL"},"to":{"name":"boul. Tadoussac / Bourget","stopId":"1:831","stopCode":"831","lon":-71.061384,"lat":48.43922,"arrival":1522666798000,"departure":1522666799000,"zoneId":"NA","stopIndex":21,"stopSequence":22,"vertexType":"TRANSIT"},"legGeometry":{"points":"yfsfHjxupLArCGrDa@LOEKpAsA_@MbAVh@@r@cFcBoDmA","length":12},"rentedBike":false,"transitLeg":false,"duration":413.0,"steps":[{"distance":120.91300000000001,"relativeDirection":"DEPART","streetName":"Rue du Rocher","absoluteDirection":"WEST","stayOn":false,"area":false,"bogusName":false,"lon":-71.0594175482403,"lat":48.436453912739154,"elevation":[]},{"distance":28.869,"relativeDirection":"RIGHT","streetName":"Rue Michaud","absoluteDirection":"NORTH","stayOn":false,"area":false,"bogusName":false,"lon":-71.0610537,"lat":48.4365078,"elevation":[]},{"distance":145.985,"relativeDirection":"LEFT","streetName":"path","absoluteDirection":"WEST","stayOn":false,"area":false,"bogusName":true,"lon":-71.06109090000001,"lat":48.4367566,"elevation":[]},{"distance":234.056,"relativeDirection":"RIGHT","streetName":"Boulevard de Tadoussac","absoluteDirection":"NORTH","stayOn":false,"area":false,"bogusName":false,"lon":-71.0621543,"lat":48.4371765,"elevation":[]}]},{"startTime":1522666799000,"endTime":1522667100000,"departureDelay":0,"arrivalDelay":0,"realTime":false,"distance":1919.7483661497956,"pathway":false,"mode":"BUS","route":"23","agencyName":"Société de Transport du Saguenay","agencyUrl":"http://ville.saguenay.ca/fr/services-aux-citoyens/transport-sts","agencyTimeZoneOffset":-14400000,"routeColor":"FF00FF","routeType":3,"routeId":"1:23","routeTextColor":"FFFFFF","interlineWithPreviousLeg":false,"tripBlockId":"5","headsign":"Terminus Chicoutimi","agencyId":"0","tripId":"1:217250","serviceDate":"20180402","from":{"name":"boul. Tadoussac / Bourget","stopId":"1:831","stopCode":"831","lon":-71.061384,"lat":48.43922,"arrival":1522666798000,"departure":1522666799000,"zoneId":"NA","stopIndex":21,"stopSequence":22,"vertexType":"TRANSIT"},"to":{"name":"Terminus Chicoutimi","stopId":"1:1289","stopCode":"1289","lon":-71.066163,"lat":48.428677,"arrival":1522667100000,"departure":1522667700000,"zoneId":"NA","stopIndex":26,"stopSequence":27,"vertexType":"TRANSIT"},"legGeometry":{"points":"}wsfHxcvpLvDpALnBJt@Pp@|@`DHZPn@`@rBNnAFr@DbA?bB@jABzA?p@A???A???A?A???A@??A?A@??A@?@A??@A@???@A@?@?@A@?@?@?@?@???@?@?@?@?@?@@@?@?@@@?@@@?@@@?@@?@@??@@@?E`@Kr@]rACVEl@I|AAr@JbAWJe@FUAM?a@Ke@YYWWa@v@}@RQPMz@k@tAe@REZG^Af@@X@VF`@Jn@XbClAr@Xt\\`PrAb@pA^hBTjAFj@Pb@JPHLLJNJRFXDT?X?ZEVEVKTMNMHMFOB}DWSGOSYcAN}FFkAF}DJyDd@wPV_HjAN~ALI`C","length":130},"routeShortName":"23","routeLongName":"Côte Verdun via Aréna du Plateau","rentedBike":false,"transitLeg":true,"duration":301.0,"steps":[]},{"startTime":1522667700000,"endTime":1522668959000,"departureDelay":0,"arrivalDelay":0,"realTime":false,"distance":5344.788688857265,"pathway":false,"mode":"BUS","route":"15","agencyName":"Société de Transport du Saguenay","agencyUrl":"http://ville.saguenay.ca/fr/services-aux-citoyens/transport-sts","agencyTimeZoneOffset":-14400000,"routeColor":"FF00FF","routeType":3,"routeId":"1:15","routeTextColor":"FFFFFF","interlineWithPreviousLeg":false,"tripBlockId":"33","headsign":"Talbot / Barrette","agencyId":"0","tripId":"1:218173","serviceDate":"20180402","from":{"name":"Terminus Chicoutimi","stopId":"1:1289","stopCode":"1289","lon":-71.066163,"lat":48.428677,"arrival":1522667100000,"departure":1522667700000,"zoneId":"NA","stopIndex":0,"stopSequence":1,"vertexType":"TRANSIT"},"to":{"name":"Saguenéens  / Bach","stopId":"1:575","stopCode":"575","lon":-71.061104,"lat":48.403689,"arrival":1522668959000,"departure":1522668960000,"zoneId":"NA","stopIndex":23,"stopSequence":24,"vertexType":"TRANSIT"},"legGeometry":{"points":"evqfHpbwpLPiCjKx@HiEZkS\\aSN_K^eIrBpBvIpIr@r@\\mBfAaA`@gBOkB_@uF|DyL|DpDQ|@|@z@bA`ATw@dD~Ch@fA@`E~AjGuH`Iy@bBi@dCbEdEjJlJ`HbHlJpJ|J~JdAfALzDNzDrAdBrEKvBEbCv@d@TvFlC|DlBpMlGrB`AM}@hAwEC{B]oBiBmBsH_@_K{H`EgIvCaGfEoItDsH~DeI","length":58},"routeShortName":"15","routeLongName":"Term. Chic / Costco","rentedBike":false,"transitLeg":true,"duration":1259.0,"steps":[]},{"startTime":1522668960000,"endTime":1522669127000,"departureDelay":0,"arrivalDelay":0,"realTime":false,"distance":213.59000000000003,"pathway":false,"mode":"WALK","route":"","agencyTimeZoneOffset":-14400000,"interlineWithPreviousLeg":false,"from":{"name":"Saguenéens  / Bach","stopId":"1:575","stopCode":"575","lon":-71.061104,"lat":48.403689,"arrival":1522668959000,"departure":1522668960000,"zoneId":"NA","stopIndex":23,"stopSequence":24,"vertexType":"TRANSIT"},"to":{"name":"Destination","lon":-71.06394299,"lat":48.403323,"arrival":1522669127000,"orig":"","vertexType":"NORMAL"},"legGeometry":{"points":"wylfHfcvpLgAnCRRFJFRDTJ^V\\zBhB","length":9},"rentedBike":false,"transitLeg":false,"duration":167.0,"steps":[{"distance":66.956,"relativeDirection":"DEPART","streetName":"Rue des Saguenéens","absoluteDirection":"NORTHWEST","stayOn":false,"area":false,"bogusName":false,"lon":-71.0611521754673,"lat":48.403646208471976,"elevation":[]},{"distance":146.63400000000001,"relativeDirection":"LEFT","streetName":"Rue Bach","absoluteDirection":"SOUTHWEST","stayOn":false,"area":false,"bogusName":false,"lon":-71.06187870000001,"lat":48.404006700000004,"elevation":[]}]}],"tooSloped":false},{"duration":2742,"startTime":1522668185000,"endTime":1522670927000,"walkTime":580,"transitTime":1740,"waitingTime":422,"walkDistance":743.5517218000354,"walkLimitExceeded":false,"elevationLost":0.0,"elevationGained":0.0,"transfers":1,"legs":[{"startTime":1522668185000,"endTime":1522668598000,"departureDelay":0,"arrivalDelay":0,"realTime":false,"distance":529.8230000000001,"pathway":false,"mode":"WALK","route":"","agencyTimeZoneOffset":-14400000,"interlineWithPreviousLeg":false,"from":{"name":"Origin","lon":-71.059415,"lat":48.436573,"departure":1522668185000,"orig":"","vertexType":"NORMAL"},"to":{"name":"boul. Tadoussac / Bourget","stopId":"1:831","stopCode":"831","lon":-71.061384,"lat":48.43922,"arrival":1522668598000,"departure":1522668599000,"zoneId":"NA","stopIndex":21,"stopSequence":22,"vertexType":"TRANSIT"},"legGeometry":{"points":"yfsfHjxupLArCGrDa@LOEKpAsA_@MbAVh@@r@cFcBoDmA","length":12},"rentedBike":false,"transitLeg":false,"duration":413.0,"steps":[{"distance":120.91300000000001,"relativeDirection":"DEPART","streetName":"Rue du Rocher","absoluteDirection":"WEST","stayOn":false,"area":false,"bogusName":false,"lon":-71.0594175482403,"lat":48.436453912739154,"elevation":[]},{"distance":28.869,"relativeDirection":"RIGHT","streetName":"Rue Michaud","absoluteDirection":"NORTH","stayOn":false,"area":false,"bogusName":false,"lon":-71.0610537,"lat":48.4365078,"elevation":[]},{"distance":145.985,"relativeDirection":"LEFT","streetName":"path","absoluteDirection":"WEST","stayOn":false,"area":false,"bogusName":true,"lon":-71.06109090000001,"lat":48.4367566,"elevation":[]},{"distance":234.056,"relativeDirection":"RIGHT","streetName":"Boulevard de Tadoussac","absoluteDirection":"NORTH","stayOn":false,"area":false,"bogusName":false,"lon":-71.0621543,"lat":48.4371765,"elevation":[]}]},{"startTime":1522668599000,"endTime":1522669080000,"departureDelay":0,"arrivalDelay":0,"realTime":false,"distance":1919.7483661497956,"pathway":false,"mode":"BUS","route":"23","agencyName":"Société de Transport du Saguenay","agencyUrl":"http://ville.saguenay.ca/fr/services-aux-citoyens/transport-sts","agencyTimeZoneOffset":-14400000,"routeColor":"FF00FF","routeType":3,"routeId":"1:23","routeTextColor":"FFFFFF","interlineWithPreviousLeg":false,"tripBlockId":"4","headsign":"Terminus Chicoutimi","agencyId":"0","tripId":"1:217224","serviceDate":"20180402","from":{"name":"boul. Tadoussac / Bourget","stopId":"1:831","stopCode":"831","lon":-71.061384,"lat":48.43922,"arrival":1522668598000,"departure":1522668599000,"zoneId":"NA","stopIndex":21,"stopSequence":22,"vertexType":"TRANSIT"},"to":{"name":"Terminus Chicoutimi","stopId":"1:1289","stopCode":"1289","lon":-71.066163,"lat":48.428677,"arrival":1522669080000,"departure":1522669500000,"zoneId":"NA","stopIndex":26,"stopSequence":27,"vertexType":"TRANSIT"},"legGeometry":{"points":"}wsfHxcvpLvDpALnBJt@Pp@|@`DHZPn@`@rBNnAFr@DbA?bB@jABzA?p@A???A???A?A???A@??A?A@??A@?@A??@A@???@A@?@?@A@?@?@?@?@???@?@?@?@?@?@@@?@?@@@?@@@?@@@?@@?@@??@@@?E`@Kr@]rACVEl@I|AAr@JbAWJe@FUAM?a@Ke@YYWWa@v@}@RQPMz@k@tAe@REZG^Af@@X@VF`@Jn@XbClAr@Xt\\`PrAb@pA^hBTjAFj@Pb@JPHLLJNJRFXDT?X?ZEVEVKTMNMHMFOB}DWSGOSYcAN}FFkAF}DJyDd@wPV_HjAN~ALI`C","length":130},"routeShortName":"23","routeLongName":"Côte Verdun via Aréna du Plateau","rentedBike":false,"transitLeg":true,"duration":481.0,"steps":[]},{"startTime":1522669500000,"endTime":1522670759000,"departureDelay":0,"arrivalDelay":0,"realTime":false,"distance":5344.788688857265,"pathway":false,"mode":"BUS","route":"15","agencyName":"Société de Transport du Saguenay","agencyUrl":"http://ville.saguenay.ca/fr/services-aux-citoyens/transport-sts","agencyTimeZoneOffset":-14400000,"routeColor":"FF00FF","routeType":3,"routeId":"1:15","routeTextColor":"FFFFFF","interlineWithPreviousLeg":false,"tripBlockId":"31","headsign":"Talbot / Barrette","agencyId":"0","tripId":"1:218124","serviceDate":"20180402","from":{"name":"Terminus Chicoutimi","stopId":"1:1289","stopCode":"1289","lon":-71.066163,"lat":48.428677,"arrival":1522669080000,"departure":1522669500000,"zoneId":"NA","stopIndex":0,"stopSequence":1,"vertexType":"TRANSIT"},"to":{"name":"Saguenéens  / Bach","stopId":"1:575","stopCode":"575","lon":-71.061104,"lat":48.403689,"arrival":1522670759000,"departure":1522670760000,"zoneId":"NA","stopIndex":23,"stopSequence":24,"vertexType":"TRANSIT"},"legGeometry":{"points":"evqfHpbwpLPiCjKx@HiEZkS\\aSN_K^eIrBpBvIpIr@r@\\mBfAaA`@gBOkB_@uF|DyL|DpDQ|@|@z@bA`ATw@dD~Ch@fA@`E~AjGuH`Iy@bBi@dCbEdEjJlJ`HbHlJpJ|J~JdAfALzDNzDrAdBrEKvBEbCv@d@TvFlC|DlBpMlGrB`AM}@hAwEC{B]oBiBmBsH_@_K{H`EgIvCaGfEoItDsH~DeI","length":58},"routeShortName":"15","routeLongName":"Term. Chic / Costco","rentedBike":false,"transitLeg":true,"duration":1259.0,"steps":[]},{"startTime":1522670760000,"endTime":1522670927000,"departureDelay":0,"arrivalDelay":0,"realTime":false,"distance":213.59000000000003,"pathway":false,"mode":"WALK","route":"","agencyTimeZoneOffset":-14400000,"interlineWithPreviousLeg":false,"from":{"name":"Saguenéens  / Bach","stopId":"1:575","stopCode":"575","lon":-71.061104,"lat":48.403689,"arrival":1522670759000,"departure":1522670760000,"zoneId":"NA","stopIndex":23,"stopSequence":24,"vertexType":"TRANSIT"},"to":{"name":"Destination","lon":-71.06394299,"lat":48.403323,"arrival":1522670927000,"orig":"","vertexType":"NORMAL"},"legGeometry":{"points":"wylfHfcvpLgAnCRRFJFRDTJ^V\\zBhB","length":9},"rentedBike":false,"transitLeg":false,"duration":167.0,"steps":[{"distance":66.956,"relativeDirection":"DEPART","streetName":"Rue des Saguenéens","absoluteDirection":"NORTHWEST","stayOn":false,"area":false,"bogusName":false,"lon":-71.0611521754673,"lat":48.403646208471976,"elevation":[]},{"distance":146.63400000000001,"relativeDirection":"LEFT","streetName":"Rue Bach","absoluteDirection":"SOUTHWEST","stayOn":false,"area":false,"bogusName":false,"lon":-71.06187870000001,"lat":48.404006700000004,"elevation":[]}]}],"tooSloped":false}]},"debugOutput":{"precalculationTime":31,"pathCalculationTime":39,"pathTimes":[20,9,10],"renderingTime":0,"totalTime":70,"timedOut":false},"elevationMetadata":{"ellipsoidToGeoidDifference":-28.885904201182168,"geoidElevation":false}}