{"requestParameters":{"date":"2018/04/02","walkSpeed":"1.33","walkReluctance":"2.0","fromPlace":"48.44751,-71.043097","maxWalkDistance":"3000","waitReluctance":"1.0","carSpeed":"33","numItineraries":"3","waitAtBeginningFactor":"0.4","mode":"TRANSIT,WALK","ignoreRealtimeUpdates":"false","stairsReluctance":"2.0","toPlace":"48.440318,-71.07761499","time":"7:30:00"},"plan":{"date":1522668600000,"from":{"name":"Origin","lon":-71.043097,"lat":48.44751,"orig":"","vertexType":"NORMAL"},"to":{"name":"Destination","lon":-71.07761499,"lat":48.440318,"orig":"","vertexType":"NORMAL"},"itineraries":[{"duration":1690,"startTime":1522669455000,"endTime":1522671145000,"walkTime":1405,"transitTime":283,"waitingTime":2,"walkDistance":1795.7264661545569,"walkLimitExceeded":false,"elevationLost":0.0,"elevationGained":0.0,"transfers":0,"legs":[{"startTime":1522669455000,"endTime":1522670229000,"departureDelay":0,"arrivalDelay":0,"realTime":false,"distance":994.032,"pathway":false,"mode":"WALK","route":"","agencyTimeZoneOffset":-14400000,"interlineWithPreviousLeg":false,"from":{"name":"Origin","lon":-71.043097,"lat":48.44751,"departure":1522669455000,"orig":"","vertexType":"NORMAL"},"to":{"name":"Verdun / St-Éloi","stopId":"1:794","stopCode":"794","lon":-71.053519,"lat":48.446152,"arrival":1522670229000,"departure":1522670230000,"zoneId":"NA","stopIndex":16,"stopSequence":17,"vertexType":"TRANSIT"},"legGeometry":{"points":"glufH`trpLICK?GBIBEFGJCNG^U~A~CjAq@dEMr@Mn@CVEXAN?P^zFBJDTJZFRJRjAvBH^?VELoAlBr@rAHLFHHBD@H@L@J?RABJHJH?vBhEa@bEBj@EBEJCTE^Gf@CXEX","length":51},"rentedBike":false,"transitLeg":false,"duration":774.0,"steps":[{"distance":90.373,"relativeDirection":"DEPART","streetName":"Rue Madeleine","absoluteDirection":"NORTH","stayOn":false,"area":false,"bogusName":false,"lon":-71.04336800454644,"lat":48.447563753551556,"elevation":[]},{"distance":93.905,"relativeDirection":"LEFT","streetName":"Rue Saint-Émile","absoluteDirection":"SOUTH","stayOn":false,"area":false,"bogusName":false,"lon":-71.0442084,"lat":48.4480099,"elevation":[]},{"distance":438.597,"relativeDirection":"RIGHT","streetName":"Rue Brûlé","absoluteDirection":"WEST","stayOn":false,"area":false,"bogusName":false,"lon":-71.04458170000001,"lat":48.4472025,"elevation":[]},{"distance":114.16,"relativeDirection":"LEFT","streetName":"Rue Pierre-De La Vérendrye","absoluteDirection":"SOUTHWEST","stayOn":false,"area":false,"bogusName":false,"lon":-71.0497625,"lat":48.4472803,"elevation":[]},{"distance":191.388,"relativeDirection":"SLIGHTLY_RIGHT","streetName":"path","absoluteDirection":"SOUTHWEST","stayOn":false,"area":false,"bogusName":true,"lon":-71.05046250000001,"lat":48.4464551,"elevation":[]},{"distance":65.60900000000001,"relativeDirection":"SLIGHTLY_RIGHT","streetName":"Rue de Verdun","absoluteDirection":"NORTHWEST","stayOn":false,"area":false,"bogusName":false,"lon":-71.05267160000001,"lat":48.446006600000004,"elevation":[]}]},{"startTime":1522670230000,"endTime":1522670513000,"departureDelay":0,"arrivalDelay":0,"realTime":false,"distance":1830.3970275823133,"pathway":false,"mode":"BUS","route":"23","agencyName":"Société de Transport du Saguenay","agencyUrl":"http://ville.saguenay.ca/fr/services-aux-citoyens/transport-sts","agencyTimeZoneOffset":-14400000,"routeColor":"FF00FF","routeType":3,"routeId":"1:23","routeTextColor":"FFFFFF","interlineWithPreviousLeg":false,"tripBlockId":"5","headsign":"Terminus Chicoutimi","agencyId":"0","tripId":"1:217252","serviceDate":"20180402","from":{"name":"Verdun / St-Éloi","stopId":"1:794","stopCode":"794","lon":-71.053519,"lat":48.446152,"arrival":1522670229000,"departure":1522670230000,"zoneId":"NA","stopIndex":16,"stopSequence":17,"vertexType":"TRANSIT"},"to":{"name":"Liberté / Roussel","stopId":"1:833","stopCode":"833","lon":-71.069708,"lat":48.437999,"arrival":1522670513000,"departure":1522670514000,"zoneId":"NA","stopIndex":24,"stopSequence":25,"vertexType":"TRANSIT"},"legGeometry":{"points":"ycufHhstpLF_@R{AFWFMPIPC`@BT@V?TAVKLENCLCJ@J@xAb@x@Zz@\\CP?R@N@NFLFF`GtBx@Xw@pG@l@B\\DXL\\RZDFXPf@N@v@Bp@Dr@l@~HNlAH\\@HLd@\\z@Xd@X\\RTXRr@Zn@PfExAvDpALnBJt@Pp@|@`DHZPn@`@rBNnAFr@DbA?bB@jABzA?p@A???A???A?A???A@??A?A@??A@?@A??@A@???@A@?@?@A@?@?@?@?@???@?@?@?@?@?@@@?@?@@@?@@@?@@@?@@?@@??@@@?E`@Kr@]rACVEl@I|AAr@JbAWJe@FUA","length":127},"routeShortName":"23","routeLongName":"Côte Verdun via Aréna du Plateau","rentedBike":false,"transitLeg":true,"duration":283.0,"steps":[]},{"startTime":1522670514000,"endTime":1522671145000,"departureDelay":0,"arrivalDelay":0,"realTime":false,"distance":801.358,"pathway":false,"mode":"WALK","route":"","agencyTimeZoneOffset":-14400000,"interlineWithPreviousLeg":false,"from":{"name":"Liberté / Roussel","stopId":"1:833","stopCode":"833","lon":-71.069708,"lat":48.437999,"arrival":1522670513000,"departure":1522670514000,"zoneId":"NA","stopIndex":24,"stopSequence":25,"vertexType":"TRANSIT"},"to":{"name":"Destination","lon":-71.07761499,"lat":48.440318,"arrival":1522671145000,"orig":"","vertexType":"NORMAL"},"legGeometry":{"points":"mpsfHbywpLp@?ZMHXD\\BLDnAAp@Cr@APKlAEf@A`@@HDn@@p@@v@?L?n@AbAGdB?p@APCVKtBIv@C`@EZKf@GPKVKTUZ}A|AIL{By@cAh@{ApAEJAL?LFJ","length":42},"rentedBike":false,"transitLeg":false,"duration":631.0,"steps":[{"distance":44.681,"relativeDirection":"DEPART","streetName":"Rue de la Liberté","absoluteDirection":"SOUTH","stayOn":false,"area":false,"bogusName":false,"lon":-71.06977728382226,"lat":48.43799835897345,"elevation":[]},{"distance":562.3820000000001,"relativeDirection":"RIGHT","streetName":"Rue Roussel","absoluteDirection":"SOUTHWEST","stayOn":false,"area":false,"bogusName":false,"lon":-71.0697018,"lat":48.437604,"elevation":[]},{"distance":71.981,"relativeDirection":"RIGHT","streetName":"Rue des Champs","absoluteDirection":"NORTH","stayOn":false,"area":false,"bogusName":false,"lon":-71.07663450000001,"lat":48.4386467,"elevation":[]},{"distance":110.843,"relativeDirection":"SLIGHTLY_LEFT","streetName":"Rue Frontenac","absoluteDirection":"NORTHWEST","stayOn":false,"area":false,"bogusName":false,"lon":-71.0763494,"lat":48.4392658,"elevation":[]},{"distance":11.471,"relativeDirection":"LEFT","streetName":"Rue Saint-Calixte","absoluteDirection":"WEST","stayOn":false,"area":false,"bogusName":false,"lon":-71.0770979,"lat":48.4401002,"elevation":[]}]}],"tooSloped":false},{"duration":1799,"startTime":1522669450000,"endTime":1522671249000,"walkTime":1330,"transitTime":467,"waitingTime":2,"walkDistance":1710.328676682995,"walkLimitExceeded":false,"elevationLost":0.0,"elevationGained":0.0,"transfers":0,"legs":[{"startTime":1522669450000,"endTime":1522670292000,"departureDelay":0,"arrivalDelay":0,"realTime":false,"distance":1084.375,"pathway":false,"mode":"WALK","route":"","agencyTimeZoneOffset":-14400000,"interlineWithPreviousLeg":false,"from":{"name":"Origin","lon":-71.043097,"lat":48.44751,"departure":1522669450000,"orig":"","vertexType":"NORMAL"},"to":{"name":"Guy / Vimy","stopId":"1:756","stopCode":"756","lon":-71.0539,"lat":48.4522,"arrival":1522670292000,"departure":1522670293000,"zoneId":"NA","stopIndex":20,"stopSequence":21,"vertexType":"TRANSIT"},"legGeometry":{"points":"glufH`trpLICK?GBIBEFGJCNG^U~AoBm@??QGI`@gBpKU~Aq@UMFKBWD_@BMFK`@YfBKrAw@pFW|Aq@~EkArIKp@Oz@w@tFsAi@","length":33},"rentedBike":false,"transitLeg":false,"duration":842.0,"steps":[{"distance":90.373,"relativeDirection":"DEPART","streetName":"Rue Madeleine","absoluteDirection":"NORTH","stayOn":false,"area":false,"bogusName":false,"lon":-71.04336800454644,"lat":48.447563753551556,"elevation":[]},{"distance":74.909,"relativeDirection":"RIGHT","streetName":"Rue Saint-Émile","absoluteDirection":"NORTH","stayOn":false,"area":false,"bogusName":false,"lon":-71.0442084,"lat":48.4480099,"elevation":[]},{"distance":210.202,"relativeDirection":"LEFT","streetName":"Rue Adam","absoluteDirection":"WEST","stayOn":false,"area":false,"bogusName":false,"lon":-71.04393280000001,"lat":48.448658300000005,"elevation":[]},{"distance":660.5189999999999,"relativeDirection":"RIGHT","streetName":"Rue de Vimy","absoluteDirection":"NORTH","stayOn":false,"area":false,"bogusName":false,"lon":-71.0465923,"lat":48.4493377,"elevation":[]},{"distance":48.372,"relativeDirection":"RIGHT","streetName":"Rue Guy","absoluteDirection":"NORTH","stayOn":false,"area":false,"bogusName":false,"lon":-71.054021,"lat":48.4517681,"elevation":[]}]},{"startTime":1522670293000,"endTime":1522670760000,"departureDelay":0,"arrivalDelay":0,"realTime":false,"distance":2578.80070532822,"pathway":false,"mode":"BUS","route":"22","agencyName":"Société de Transport du Saguenay","agencyUrl":"http://ville.saguenay.ca/fr/services-aux-citoyens/transport-sts","agencyTimeZoneOffset":-14400000,"routeColor":"C0C000","routeType":3,"routeId":"1:22","routeTextColor":"000000","interlineWithPreviousLeg":false,"tripBlockId":"1","headsign":"Terminus Chicoutimi","agencyId":"0","tripId":"1:217132","serviceDate":"20180402","from":{"name":"Guy / Vimy","stopId":"1:756","stopCode":"756","lon":-71.0539,"lat":48.4522,"arrival":1522670292000,"departure":1522670293000,"zoneId":"NA","stopIndex":20,"stopSequence":21,"vertexType":"TRANSIT"},"to":{"name":"Champs / Victor","stopId":"1:769","stopCode":"769","lon":-71.07274,"lat":48.442642,"arrival":1522670760000,"departure":1522670761000,"zoneId":"NA","stopIndex":33,"stopSequence":34,"vertexType":"TRANSIT"},"legGeometry":{"points":"civfHjutpLrAh@uCvSeA|He@hCo@|AiBbD~@^|IrDhAb@qAfJSzAMr@Yz@xAhDFNpBdFRp@Hl@Jz@BXXrCHl@Lh@Nf@r@nAr@r@`@PLFbAVH_AXeC@IdB_Mh@_EJk@x@x@bA`A|BrBnDrCl@f@|BlBrAbAj@d@ZTXNd@@lA[ZxDN|Ad@fAz@tB~AzDZ|@","length":54},"routeShortName":"22","routeLongName":"Vanier","rentedBike":false,"transitLeg":true,"duration":467.0,"steps":[]},{"startTime":1522670761000,"endTime":1522671249000,"departureDelay":0,"arrivalDelay":0,"realTime":false,"distance":625.683,"pathway":false,"mode":"WALK","route":"","agencyTimeZoneOffset":-14400000,"interlineWithPreviousLeg":false,"from":{"name":"Champs / Victor","stopId":"1:769","stopCode":"769","lon":-71.07274,"lat":48.442642,"arrival":1522670760000,"departure":1522670761000,"zoneId":"NA","stopIndex":33,"stopSequence":34,"vertexType":"TRANSIT"},"to":{"name":"Destination","lon":-71.07761499,"lat":48.440318,"arrival":1522671249000,"orig":"","vertexType":"NORMAL"},"legGeometry":{"points":"cmtfHhkxpLrAjDt@lBRR^b@LNZLn@GbAo@z@NPDz@bCNd@JTTb@NZFN~@vAHH\\ZcAh@{ApAEJAL?LFJ","length":26},"rentedBike":false,"transitLeg":false,"duration":488.0,"steps":[{"distance":303.852,"relativeDirection":"DEPART","streetName":"Rue des Champs","absoluteDirection":"SOUTHWEST","stayOn":false,"area":false,"bogusName":false,"lon":-71.07268048433089,"lat":48.44258835732402,"elevation":[]},{"distance":199.517,"relativeDirection":"SLIGHTLY_RIGHT","streetName":"Rue des Champs","absoluteDirection":"SOUTHWEST","stayOn":true,"area":false,"bogusName":false,"lon":-71.07435980000001,"lat":48.4404586,"elevation":[]},{"distance":110.843,"relativeDirection":"HARD_RIGHT","streetName":"Rue Frontenac","absoluteDirection":"NORTHWEST","stayOn":false,"area":false,"bogusName":false,"lon":-71.0763494,"lat":48.4392658,"elevation":[]},{"distance":11.471,"relativeDirection":"LEFT","streetName":"Rue Saint-Calixte","absoluteDirection":"WEST","stayOn":false,"area":false,"bogusName":false,"lon":-71.0770979,"lat":48.4401002,"elevation":[]}]}],"tooSloped":false},{"duration":1576,"startTime":1522669908000,"endTime":1522671484000,"walkTime":751,"transitTime":823,"waitingTime":2,"walkDistance":955.6291428504588,"walkLimitExceeded":false,"elevationLost":0.0,"elevationGained":0.0,"transfers":0,"legs":[{"startTime":1522669908000,"endTime":1522670028000,"departureDelay":0,"arrivalDelay":0,"realTime":false,"distance":154.06400000000002,"pathway":false,"mode":"WALK","route":"","agencyTimeZoneOffset":-14400000,"interlineWithPreviousLeg":false,"from":{"name":"Origin","lon":-71.043097,"lat":48.44751,"departure":1522669908000,"orig":"","vertexType":"NORMAL"},"to":{"name":"St-Émile / Adam","stopId":"1:813","stopCode":"813","lon":-71.043871,"lat":48.448542,"arrival":1522670028000,"departure":1522670029000,"zoneId":"NA","stopIndex":9,"stopSequence":10,"vertexType":"TRANSIT"},"legGeometry":{"points":"glufH`trpLICK?GBIBEFGJCNG^U~AoBm@??","length":12},"rentedBike":false,"transitLeg":false,"duration":120.0,"steps":[{"distance":90.373,"relativeDirection":"DEPART","streetName":"Rue Madeleine","absoluteDirection":"NORTH","stayOn":false,"area":false,"bogusName":false,"lon":-71.04336800454644,"lat":48.447563753551556,"elevation":[]},{"distance":63.691,"relativeDirection":"RIGHT","streetName":"Rue Saint-Émile","absoluteDirection":"NORTH","stayOn":false,"area":false,"bogusName":false,"lon":-71.0442084,"lat":48.4480099,"elevation":[]}]},{"startTime":1522670029000,"endTime":1522670852000,"departureDelay":0,"arrivalDelay":0,"realTime":false,"distance":5631.575876291384,"pathway":false,"mode":"BUS","route":"24","agencyName":"Société de Transport du Saguenay","agencyUrl":"http://ville.saguenay.ca/fr/services-aux-citoyens/transport-sts","agencyTimeZoneOffset":-14400000,"routeColor":"00FF00","routeType":3,"routeId":"1:24","routeTextColor":"000000","interlineWithPreviousLeg":false,"tripBlockId":"4","headsign":"Terminus Chicoutimi","agencyId":"0","tripId":"1:217225","serviceDate":"20180402","from":{"name":"St-Émile / Adam","stopId":"1:813","stopCode":"813","lon":-71.043871,"lat":48.448542,"arrival":1522670028000,"departure":1522670029000,"zoneId":"NA","stopIndex":9,"stopSequence":10,"vertexType":"TRANSIT"},"to":{"name":"Liberté / Roussel","stopId":"1:833","stopCode":"833","lon":-71.069708,"lat":48.437999,"arrival":1522670852000,"departure":1522670853000,"zoneId":"NA","stopIndex":33,"stopSequence":34,"vertexType":"TRANSIT"},"legGeometry":{"points":"yrufH~vrpLbAoGV{AxG~BPFhCdAn@Lx@BxA]QeDI}AzAW~ASQoDg@eKG{A?_@?m@?i@LeCJkAd@yGxAqSBs@p@^VRPRbF~FlCxBxB|B~JjK`IjIRPb@^r@d@rAp@\\T\\ZNVRd@J\\Nd@Hf@F`@@DFr@LtAJpB@jAAt@ObEIzAKbBUrBMp@Sn@gAlCk@pAw@fCwB|HCNk@jCeDuAq@UC?mG_CaHiCsJqD_A]VvC\\`Ch@rCj@tBf@bBxDxJN\\bAjCTnAHvA@|@CPIpAe@pDUfBCTEXK~@MxAEn@@v@Bp@Dr@l@~HNlAH\\@HLd@\\z@Xd@X\\RTXRr@Zn@PfExAvDpALnBJt@Pp@Nj@l@tBHZPn@`@rBNnAFr@DbA?bB@jABzA?p@A???A???A?A???A@??A?A@??A@?@A??@A@???@A@?@?@A@?@?@?@?@???@?@?@?@?@?@@@?@?@@@?@@@?@@@?@@?@@??@@@?E`@Kr@]rACVEl@I|AAr@JbAWJe@FUA","length":180},"routeShortName":"24","routeLongName":"Saint-Luc","rentedBike":false,"transitLeg":true,"duration":823.0,"steps":[]},{"startTime":1522670853000,"endTime":1522671484000,"departureDelay":0,"arrivalDelay":0,"realTime":false,"distance":801.358,"pathway":false,"mode":"WALK","route":"","agencyTimeZoneOffset":-14400000,"interlineWithPreviousLeg":false,"from":{"name":"Liberté / Roussel","stopId":"1:833","stopCode":"833","lon":-71.069708,"lat":48.437999,"arrival":1522670852000,"departure":1522670853000,"zoneId":"NA","stopIndex":33,"stopSequence":34,"vertexType":"TRANSIT"},"to":{"name":"Destination","lon":-71.07761499,"lat":48.440318,"arrival":1522671484000,"orig":"","vertexType":"NORMAL"},"legGeometry":{"points":"mpsfHbywpLp@?ZMHXD\\BLDnAAp@Cr@APKlAEf@A`@@HDn@@p@@v@?L?n@AbAGdB?p@APCVKtBIv@C`@EZKf@GPKVKTUZ}A|AIL{By@cAh@{ApAEJAL?LFJ","length":42},"rentedBike":false,"transitLeg":false,"duration":631.0,"steps":[{"distance":44.681,"relativeDirection":"DEPART","streetName":"Rue de la Liberté","absoluteDirection":"SOUTH","stayOn":false,"area":false,"bogusName":false,"lon":-71.06977728382226,"lat":48.43799835897345,"elevation":[]},{"distance":562.3820000000001,"relativeDirection":"RIGHT","streetName":"Rue Roussel","absoluteDirection":"SOUTHWEST","stayOn":false,"area":false,"bogusName":false,"lon":-71.0697018,"lat":48.437604,"elevation":[]},{"distance":71.981,"relativeDirection":"RIGHT","streetName":"Rue des Champs","absoluteDirection":"NORTH","stayOn":false,"area":false,"bogusName":false,"lon":-71.07663450000001,"lat":48.4386467,"elevation":[]},{"distance":110.843,"relativeDirection":"SLIGHTLY_LEFT","streetName":"Rue Frontenac","absoluteDirection":"NORTHWEST","stayOn":false,"area":false,"bogusName":false,"lon":-71.0763494,"lat":48.4392658,"elevation":[]},{"distance":11.471,"relativeDirection":"LEFT","streetName":"Rue Saint-Calixte","absoluteDirection":"WEST","stayOn":false,"area":false,"bogusName":false,"lon":-71.0770979,"lat":48.4401002,"elevation":[]}]}],"tooSloped":false}]},"debugOutput":{"precalculationTime":13,"pathCalculationTime":19,"pathTimes":[14,2,3],"renderingTime":0,"totalTime":32,"timedOut":false},"elevationMetadata":{"ellipsoidToGeoidDifference":-28.885904201182168,"geoidElevation":false}}