{"requestParameters":{"date":"2018/04/02","walkSpeed":"1.33","walkReluctance":"2.0","fromPlace":"48.438643,-71.06208999","maxWalkDistance":"3000","waitReluctance":"1.0","carSpeed":"33","numItineraries":"3","waitAtBeginningFactor":"0.4","mode":"TRANSIT,WALK","ignoreRealtimeUpdates":"false","stairsReluctance":"2.0","toPlace":"48.439621,-71.047312","time":"16:30:00"},"plan":{"date":1522701000000,"from":{"name":"Origin","lon":-71.06208999,"lat":48.438643,"orig":"","vertexType":"NORMAL"},"to":{"name":"Destination","lon":-71.047312,"lat":48.439621,"orig":"","vertexType":"NORMAL"},"itineraries":[{"duration":1011,"startTime":1522701000000,"endTime":1522702011000,"walkTime":1011,"transitTime":0,"waitingTime":0,"walkDistance":1294.1252857089842,"walkLimitExceeded":false,"elevationLost":0.0,"elevationGained":0.0,"transfers":0,"legs":[{"startTime":1522701000000,"endTime":1522702011000,"departureDelay":0,"arrivalDelay":0,"realTime":false,"distance":1293.961,"pathway":false,"mode":"WALK","route":"","agencyTimeZoneOffset":-14400000,"interlineWithPreviousLeg":false,"from":{"name":"Origin","lon":-71.06208999,"lat":48.438643,"departure":1522701000000,"orig":"","vertexType":"NORMAL"},"to":{"name":"Destination","lon":-71.047312,"lat":48.439621,"arrival":1522702011000,"orig":"","vertexType":"NORMAL"},"legGeometry":{"points":"yssfHvevpLj@R]}FKyBIoBEiBCiDB{BD_A^uE?IFu@?MJ{BRcEd@sOLsAJ{@~@cGgDyAq@[CAwDwAd@}D_@O","length":25},"rentedBike":false,"transitLeg":false,"duration":1011.0,"steps":[{"distance":25.737,"relativeDirection":"DEPART","streetName":"Boulevard de Tadoussac","absoluteDirection":"SOUTH","stayOn":false,"area":false,"bogusName":false,"lon":-71.06155428442396,"lat":48.438539658148684,"elevation":[]},{"distance":937.5010000000001,"relativeDirection":"HARD_LEFT","streetName":"Rue Roussel","absoluteDirection":"EAST","stayOn":false,"area":false,"bogusName":false,"lon":-71.0616517,"lat":48.4383174,"elevation":[]},{"distance":238.876,"relativeDirection":"LEFT","streetName":"Rue Saint-Émile","absoluteDirection":"NORTH","stayOn":false,"area":false,"bogusName":false,"lon":-71.0491575,"lat":48.437575100000004,"elevation":[]},{"distance":73.464,"relativeDirection":"RIGHT","streetName":"Rue Olier","absoluteDirection":"EAST","stayOn":false,"area":false,"bogusName":false,"lon":-71.048117,"lat":48.439609000000004,"elevation":[]},{"distance":18.383,"relativeDirection":"LEFT","streetName":"Rue Louvois","absoluteDirection":"NORTH","stayOn":false,"area":false,"bogusName":false,"lon":-71.0471646,"lat":48.4394159,"elevation":[]}]}],"tooSloped":false},{"duration":961,"startTime":1522702042000,"endTime":1522703003000,"walkTime":238,"transitTime":721,"waitingTime":2,"walkDistance":292.81024811709824,"walkLimitExceeded":false,"elevationLost":0.0,"elevationGained":0.0,"transfers":0,"legs":[{"startTime":1522702042000,"endTime":1522702164000,"departureDelay":0,"arrivalDelay":0,"realTime":false,"distance":152.016,"pathway":false,"mode":"WALK","route":"","agencyTimeZoneOffset":-14400000,"interlineWithPreviousLeg":false,"from":{"name":"Origin","lon":-71.06208999,"lat":48.438643,"departure":1522702042000,"orig":"","vertexType":"NORMAL"},"to":{"name":"Roussel / St-Éphrem","stopId":"1:771","stopCode":"771","lon":-71.063155,"lat":48.437822,"arrival":1522702164000,"departure":1522702165000,"zoneId":"NA","stopIndex":2,"stopSequence":3,"vertexType":"TRANSIT"},"legGeometry":{"points":"yssfHvevpLj@RFv@Dn@N|@Rz@Jb@Tr@","length":8},"rentedBike":false,"transitLeg":false,"duration":122.0,"steps":[{"distance":25.737,"relativeDirection":"DEPART","streetName":"Boulevard de Tadoussac","absoluteDirection":"SOUTH","stayOn":false,"area":false,"bogusName":false,"lon":-71.06155428442396,"lat":48.438539658148684,"elevation":[]},{"distance":126.27900000000001,"relativeDirection":"RIGHT","streetName":"Rue Roussel","absoluteDirection":"WEST","stayOn":false,"area":false,"bogusName":false,"lon":-71.0616517,"lat":48.4383174,"elevation":[]}]},{"startTime":1522702165000,"endTime":1522702886000,"departureDelay":0,"arrivalDelay":0,"realTime":false,"distance":5278.60897733512,"pathway":false,"mode":"BUS","route":"24","agencyName":"Société de Transport du Saguenay","agencyUrl":"http://ville.saguenay.ca/fr/services-aux-citoyens/transport-sts","agencyTimeZoneOffset":-14400000,"routeColor":"00FF00","routeType":3,"routeId":"1:24","routeTextColor":"000000","interlineWithPreviousLeg":false,"tripBlockId":"4","headsign":"Terminus Chicoutimi","agencyId":"0","tripId":"1:217243","serviceDate":"20180402","from":{"name":"Roussel / St-Éphrem","stopId":"1:771","stopCode":"771","lon":-71.063155,"lat":48.437822,"arrival":1522702164000,"departure":1522702165000,"zoneId":"NA","stopIndex":2,"stopSequence":3,"vertexType":"TRANSIT"},"to":{"name":"St-Émile / Olier","stopId":"1:826","stopCode":"826","lon":-71.047781,"lat":48.440001,"arrival":1522702886000,"departure":1522702887000,"zoneId":"NA","stopIndex":24,"stopSequence":25,"vertexType":"TRANSIT"},"legGeometry":{"points":"uosfH`pvpLSq@Ok@Qq@Ku@MoBKmAa@eHi@FKC_@I??iE}Ah@}DH}@?c@Ea@[_BA?My@Cm@?Y@g@Hu@b@sD\\_DBSyHsC_@MBQA}@IwAUoAcAkCWo@qDgJg@cBk@uBi@sC]aCWwCiKuDwQuGDWbAoGV{AxG~BPFhCdAn@Lx@BxA]QeDI}AzAW~ASQoDg@eKG{A?_@?m@?i@LeCJkAd@yGxAqSBs@p@^VRPRbF~FlCxBxB|B~JjK`IjIRPb@^r@d@rAp@\\T\\ZNVRd@J\\Nd@Hf@F`@@DFr@LtAJpB@jAAt@ObEIzAKbBUrBMp@Sn@gAlCk@pAw@fCwB|HCNk@jCeDuAq@UC?mG_C","length":109},"routeShortName":"24","routeLongName":"Saint-Luc","rentedBike":false,"transitLeg":true,"duration":721.0,"steps":[]},{"startTime":1522702887000,"endTime":1522703003000,"departureDelay":0,"arrivalDelay":0,"realTime":false,"distance":140.695,"pathway":false,"mode":"WALK","route":"","agencyTimeZoneOffset":-14400000,"interlineWithPreviousLeg":false,"from":{"name":"St-Émile / Olier","stopId":"1:826","stopCode":"826","lon":-71.047781,"lat":48.440001,"arrival":1522702886000,"departure":1522702887000,"zoneId":"NA","stopIndex":24,"stopSequence":25,"vertexType":"TRANSIT"},"to":{"name":"Destination","lon":-71.047312,"lat":48.439621,"arrival":1522703003000,"orig":"","vertexType":"NORMAL"},"legGeometry":{"points":"e}sfHppspLLDfA^d@}D_@O","length":5},"rentedBike":false,"transitLeg":false,"duration":116.0,"steps":[{"distance":48.848,"relativeDirection":"DEPART","streetName":"Rue Saint-Émile","absoluteDirection":"SOUTH","stayOn":false,"area":false,"bogusName":false,"lon":-71.04792810020074,"lat":48.440030053527494,"elevation":[]},{"distance":73.464,"relativeDirection":"LEFT","streetName":"Rue Olier","absoluteDirection":"EAST","stayOn":false,"area":false,"bogusName":false,"lon":-71.048117,"lat":48.439609000000004,"elevation":[]},{"distance":18.383,"relativeDirection":"LEFT","streetName":"Rue Louvois","absoluteDirection":"NORTH","stayOn":false,"area":false,"bogusName":false,"lon":-71.0471646,"lat":48.4394159,"elevation":[]}]}],"tooSloped":false},{"duration":961,"startTime":1522703842000,"endTime":1522704803000,"walkTime":238,"transitTime":721,"waitingTime":2,"walkDistance":292.81024811709824,"walkLimitExceeded":false,"elevationLost":0.0,"elevationGained":0.0,"transfers":0,"legs":[{"startTime":1522703842000,"endTime":1522703964000,"departureDelay":0,"arrivalDelay":0,"realTime":false,"distance":152.016,"pathway":false,"mode":"WALK","route":"","agencyTimeZoneOffset":-14400000,"interlineWithPreviousLeg":false,"from":{"name":"Origin","lon":-71.06208999,"lat":48.438643,"departure":1522703842000,"orig":"","vertexType":"NORMAL"},"to":{"name":"Roussel / St-Éphrem","stopId":"1:771","stopCode":"771","lon":-71.063155,"lat":48.437822,"arrival":1522703964000,"departure":1522703965000,"zoneId":"NA","stopIndex":2,"stopSequence":3,"vertexType":"TRANSIT"},"legGeometry":{"points":"yssfHvevpLj@RFv@Dn@N|@Rz@Jb@Tr@","length":8},"rentedBike":false,"transitLeg":false,"duration":122.0,"steps":[{"distance":25.737,"relativeDirection":"DEPART","streetName":"Boulevard de Tadoussac","absoluteDirection":"SOUTH","stayOn":false,"area":false,"bogusName":false,"lon":-71.06155428442396,"lat":48.438539658148684,"elevation":[]},{"distance":126.27900000000001,"relativeDirection":"RIGHT","streetName":"Rue Roussel","absoluteDirection":"WEST","stayOn":false,"area":false,"bogusName":false,"lon":-71.0616517,"lat":48.4383174,"elevation":[]}]},{"startTime":1522703965000,"endTime":1522704686000,"departureDelay":0,"arrivalDelay":0,"realTime":false,"distance":5278.60897733512,"pathway":false,"mode":"BUS","route":"24","agencyName":"Société de Transport du Saguenay","agencyUrl":"http://ville.saguenay.ca/fr/services-aux-citoyens/transport-sts","agencyTimeZoneOffset":-14400000,"routeColor":"00FF00","routeType":3,"routeId":"1:24","routeTextColor":"000000","interlineWithPreviousLeg":false,"tripBlockId":"5","headsign":"Terminus Chicoutimi","agencyId":"0","tripId":"1:217271","serviceDate":"20180402","from":{"name":"Roussel / St-Éphrem","stopId":"1:771","stopCode":"771","lon":-71.063155,"lat":48.437822,"arrival":1522703964000,"departure":1522703965000,"zoneId":"NA","stopIndex":2,"stopSequence":3,"vertexType":"TRANSIT"},"to":{"name":"St-Émile / Olier","stopId":"1:826","stopCode":"826","lon":-71.047781,"lat":48.440001,"arrival":1522704686000,"departure":1522704687000,"zoneId":"NA","stopIndex":24,"stopSequence":25,"vertexType":"TRANSIT"},"legGeometry":{"points":"uosfH`pvpLSq@Ok@Qq@Ku@MoBKmAa@eHi@FKC_@I??iE}Ah@}DH}@?c@Ea@[_BA?My@Cm@?Y@g@Hu@b@sD\\_DBSyHsC_@MBQA}@IwAUoAcAkCWo@qDgJg@cBk@uBi@sC]aCWwCiKuDwQuGDWbAoGV{AxG~BPFhCdAn@Lx@BxA]QeDI}AzAW~ASQoDg@eKG{A?_@?m@?i@LeCJkAd@yGxAqSBs@p@^VRPRbF~FlCxBxB|B~JjK`IjIRPb@^r@d@rAp@\\T\\ZNVRd@J\\Nd@Hf@F`@@DFr@LtAJpB@jAAt@ObEIzAKbBUrBMp@Sn@gAlCk@pAw@fCwB|HCNk@jCeDuAq@UC?mG_C","length":109},"routeShortName":"24","routeLongName":"Saint-Luc","rentedBike":false,"transitLeg":true,"duration":721.0,"steps":[]},{"startTime":1522704687000,"endTime":1522704803000,"departureDelay":0,"arrivalDelay":0,"realTime":false,"distance":140.695,"pathway":false,"mode":"WALK","route":"","agencyTimeZoneOffset":-14400000,"interlineWithPreviousLeg":false,"from":{"name":"St-Émile / Olier","stopId":"1:826","stopCode":"826","lon":-71.047781,"lat":48.440001,"arrival":1522704686000,"departure":1522704687000,"zoneId":"NA","stopIndex":24,"stopSequence":25,"vertexType":"TRANSIT"},"to":{"name":"Destination","lon":-71.047312,"lat":48.439621,"arrival":1522704803000,"orig":"","vertexType":"NORMAL"},"legGeometry":{"points":"e}sfHppspLLDfA^d@}D_@O","length":5},"rentedBike":false,"transitLeg":false,"duration":116.0,"steps":[{"distance":48.848,"relativeDirection":"DEPART","streetName":"Rue Saint-Émile","absoluteDirection":"SOUTH","stayOn":false,"area":false,"bogusName":false,"lon":-71.04792810020074,"lat":48.440030053527494,"elevation":[]},{"distance":73.464,"relativeDirection":"LEFT","streetName":"Rue Olier","absoluteDirection":"EAST","stayOn":false,"area":false,"bogusName":false,"lon":-71.048117,"lat":48.439609000000004,"elevation":[]},{"distance":18.383,"relativeDirection":"LEFT","streetName":"Rue Louvois","absoluteDirection":"NORTH","stayOn":false,"area":false,"bogusName":false,"lon":-71.0471646,"lat":48.4394159,"elevation":[]}]}],"tooSloped":false}]},"debugOutput":{"precalculationTime":22,"pathCalculationTime":19,"pathTimes":[9,5,5],"renderingTime":0,"totalTime":41,"timedOut":false},"elevationMetadata":{"ellipsoidToGeoidDifference":-28.885904201182168,"geoidElevation":false}}