{"requestParameters":{"date":"2018/04/02","walkSpeed":"1.33","walkReluctance":"2.0","fromPlace":"48.44127,-71.046545","maxWalkDistance":"3000","waitReluctance":"1.0","carSpeed":"33","numItineraries":"3","waitAtBeginningFactor":"0.4","mode":"TRANSIT,WALK","ignoreRealtimeUpdates":"false","stairsReluctance":"2.0","toPlace":"48.443713,-71.068053","time":"12:35:00"},"plan":{"date":1522686900000,"from":{"name":"Origin","lon":-71.046545,"lat":48.44127,"orig":"","vertexType":"NORMAL"},"to":{"name":"Destination","lon":-71.068053,"lat":48.443713,"orig":"","vertexType":"NORMAL"},"itineraries":[{"duration":1612,"startTime":1522686900000,"endTime":1522688512000,"walkTime":1612,"transitTime":0,"waitingTime":0,"walkDistance":2097.375383453697,"walkLimitExceeded":false,"elevationLost":0.0,"elevationGained":0.0,"transfers":0,"legs":[{"startTime":1522686900000,"endTime":1522688512000,"departureDelay":0,"arrivalDelay":0,"realTime":false,"distance":2097.2219999999998,"pathway":false,"mode":"WALK","route":"","agencyTimeZoneOffset":-14400000,"interlineWithPreviousLeg":false,"from":{"name":"Origin","lon":-71.046545,"lat":48.44127,"departure":1522686900000,"orig":"","vertexType":"NORMAL"},"to":{"name":"Destination","lon":-71.068053,"lat":48.443713,"arrival":1522688512000,"orig":"","vertexType":"NORMAL"},"legGeometry":{"points":"wetfHngspLc@vCHBMtAE\\?Z@NDNDNHHFHLFBBrAf@UrBNpD@n@RdCJ`BUvAqAzB@HFb@Dt@?b@?F?j@AJAXCVIx@Gb@E\\QnAWlBIh@G^G\\E`@Gj@Cv@@h@@d@Bj@B^@LDp@RdBVbDD^BPF\\BL@FL`@BJQRQRKLGNI\\QbAGXa@jCk@rEc@|Fc@pAgBv@iANmEqAKB_@ZUr@k@pDVH`@NJHHFHJHNHRFXHj@hAzMbAY","length":85},"rentedBike":false,"transitLeg":false,"duration":1612.0,"steps":[{"distance":59.356,"relativeDirection":"DEPART","streetName":"Rue Jogues","absoluteDirection":"WEST","stayOn":false,"area":false,"bogusName":false,"lon":-71.04647425469857,"lat":48.441401638450905,"elevation":[]},{"distance":5.474,"relativeDirection":"LEFT","streetName":"Rue Saint-Émile","absoluteDirection":"SOUTH","stayOn":false,"area":false,"bogusName":false,"lon":-71.04723220000001,"lat":48.441580900000005,"elevation":[]},{"distance":145.997,"relativeDirection":"RIGHT","streetName":"Rue du Beaujolais","absoluteDirection":"WEST","stayOn":false,"area":false,"bogusName":false,"lon":-71.04725330000001,"lat":48.4415337,"elevation":[]},{"distance":315.517,"relativeDirection":"RIGHT","streetName":"path","absoluteDirection":"WEST","stayOn":false,"area":false,"bogusName":true,"lon":-71.0485709,"lat":48.4409676,"elevation":[]},{"distance":549.76,"relativeDirection":"LEFT","streetName":"Boulevard de Tadoussac","absoluteDirection":"WEST","stayOn":false,"area":false,"bogusName":false,"lon":-71.0525068,"lat":48.441346100000004,"elevation":[]},{"distance":701.5,"relativeDirection":"RIGHT","streetName":"Rue Talon","absoluteDirection":"NORTHWEST","stayOn":false,"area":false,"bogusName":false,"lon":-71.0596842,"lat":48.441320700000006,"elevation":[]},{"distance":280.098,"relativeDirection":"LEFT","streetName":"Rue Delisle","absoluteDirection":"SOUTH","stayOn":false,"area":false,"bogusName":false,"lon":-71.065352,"lat":48.445005300000005,"elevation":[]},{"distance":39.52,"relativeDirection":"LEFT","streetName":"path","absoluteDirection":"SOUTH","stayOn":false,"area":false,"bogusName":false,"lon":-71.0685442,"lat":48.4439961,"elevation":[]}]}],"tooSloped":false},{"duration":1536,"startTime":1522687678000,"endTime":1522689214000,"walkTime":1371,"transitTime":163,"waitingTime":2,"walkDistance":1753.2733308163445,"walkLimitExceeded":false,"elevationLost":0.0,"elevationGained":0.0,"transfers":0,"legs":[{"startTime":1522687678000,"endTime":1522688296000,"departureDelay":0,"arrivalDelay":0,"realTime":false,"distance":787.5450000000001,"pathway":false,"mode":"WALK","route":"","agencyTimeZoneOffset":-14400000,"interlineWithPreviousLeg":false,"from":{"name":"Origin","lon":-71.046545,"lat":48.44127,"departure":1522687678000,"orig":"","vertexType":"NORMAL"},"to":{"name":"Boileau / Colbert","stopId":"1:2019","stopCode":"2019","lon":-71.054133,"lat":48.442456,"arrival":1522688296000,"departure":1522688297000,"zoneId":"NA","stopIndex":18,"stopSequence":19,"vertexType":"TRANSIT"},"legGeometry":{"points":"wetfHngspLc@vCHBMtAE\\?Z@NDNDNHHFHLFBBrAf@UrBNpD@n@RdCJ`BUvAqAzB@HFb@Dt@?b@?F?j@AJcC_Ae@~D}@Y","length":31},"rentedBike":false,"transitLeg":false,"duration":618.0,"steps":[{"distance":59.356,"relativeDirection":"DEPART","streetName":"Rue Jogues","absoluteDirection":"WEST","stayOn":false,"area":false,"bogusName":false,"lon":-71.04647425469857,"lat":48.441401638450905,"elevation":[]},{"distance":5.474,"relativeDirection":"LEFT","streetName":"Rue Saint-Émile","absoluteDirection":"SOUTH","stayOn":false,"area":false,"bogusName":false,"lon":-71.04723220000001,"lat":48.441580900000005,"elevation":[]},{"distance":145.997,"relativeDirection":"RIGHT","streetName":"Rue du Beaujolais","absoluteDirection":"WEST","stayOn":false,"area":false,"bogusName":false,"lon":-71.04725330000001,"lat":48.4415337,"elevation":[]},{"distance":315.517,"relativeDirection":"RIGHT","streetName":"path","absoluteDirection":"WEST","stayOn":false,"area":false,"bogusName":true,"lon":-71.0485709,"lat":48.4409676,"elevation":[]},{"distance":74.69,"relativeDirection":"LEFT","streetName":"Boulevard de Tadoussac","absoluteDirection":"WEST","stayOn":false,"area":false,"bogusName":false,"lon":-71.0525068,"lat":48.441346100000004,"elevation":[]},{"distance":76.812,"relativeDirection":"RIGHT","streetName":"Rue Viau","absoluteDirection":"NORTH","stayOn":false,"area":false,"bogusName":false,"lon":-71.05350340000001,"lat":48.4412736,"elevation":[]},{"distance":74.473,"relativeDirection":"LEFT","streetName":"Rue Colbert","absoluteDirection":"WEST","stayOn":false,"area":false,"bogusName":false,"lon":-71.0531831,"lat":48.4419309,"elevation":[]},{"distance":35.226,"relativeDirection":"RIGHT","streetName":"Rue Boileau","absoluteDirection":"NORTH","stayOn":false,"area":false,"bogusName":false,"lon":-71.0541475,"lat":48.4421291,"elevation":[]}]},{"startTime":1522688297000,"endTime":1522688460000,"departureDelay":0,"arrivalDelay":0,"realTime":false,"distance":1111.2988491118397,"pathway":false,"mode":"BUS","route":"23","agencyName":"Société de Transport du Saguenay","agencyUrl":"http://ville.saguenay.ca/fr/services-aux-citoyens/transport-sts","agencyTimeZoneOffset":-14400000,"routeColor":"FF00FF","routeType":3,"routeId":"1:23","routeTextColor":"FFFFFF","interlineWithPreviousLeg":false,"tripBlockId":"5","headsign":"Terminus Chicoutimi","agencyId":"0","tripId":"1:217262","serviceDate":"20180402","from":{"name":"Boileau / Colbert","stopId":"1:2019","stopCode":"2019","lon":-71.054133,"lat":48.442456,"arrival":1522688296000,"departure":1522688297000,"zoneId":"NA","stopIndex":18,"stopSequence":19,"vertexType":"TRANSIT"},"to":{"name":"Roussel / St-Ambroise","stopId":"1:1507","stopCode":"1507","lon":-71.066011,"lat":48.437319,"arrival":1522688460000,"departure":1522688461000,"zoneId":"NA","stopIndex":23,"stopSequence":24,"vertexType":"TRANSIT"},"legGeometry":{"points":"eltfHvvtpLx@Xw@pG@l@B\\DXL\\RZDFXPf@N@v@Bp@Dr@l@~HNlAH\\@HLd@\\z@Xd@X\\RTXRr@Zn@PfExAvDpALnBJt@Pp@|@`DHZPn@`@rBNnAFr@DbA?bB","length":39},"routeShortName":"23","routeLongName":"Côte Verdun via Aréna du Plateau","rentedBike":false,"transitLeg":true,"duration":163.0,"steps":[]},{"startTime":1522688461000,"endTime":1522689214000,"departureDelay":0,"arrivalDelay":0,"realTime":false,"distance":965.3960000000002,"pathway":false,"mode":"WALK","route":"","agencyTimeZoneOffset":-14400000,"interlineWithPreviousLeg":false,"from":{"name":"Roussel / St-Ambroise","stopId":"1:1507","stopCode":"1507","lon":-71.066011,"lat":48.437319,"arrival":1522688460000,"departure":1522688461000,"zoneId":"NA","stopIndex":23,"stopSequence":24,"vertexType":"TRANSIT"},"to":{"name":"Destination","lon":-71.068053,"lat":48.443713,"arrival":1522689214000,"orig":"","vertexType":"NORMAL"},"legGeometry":{"points":"}ksfHpawpL?dACvCE?C@ABCBAD?DK?e@^u@x@wAbCw@tA[l@Yj@Sd@i@z@c@z@c@WmCLgAqF]ByDq@iDoAmBq@GAIFELGJAHCFAFAXaAX","length":35},"rentedBike":false,"transitLeg":false,"duration":753.0,"steps":[{"distance":81.457,"relativeDirection":"DEPART","streetName":"Rue Roussel","absoluteDirection":"WEST","stayOn":false,"area":false,"bogusName":false,"lon":-71.06600928339171,"lat":48.43727999113519,"elevation":[]},{"distance":14.306,"relativeDirection":"CIRCLE_COUNTERCLOCKWISE","streetName":"Rue Roussel","absoluteDirection":"NORTHWEST","exit":"1","stayOn":false,"area":false,"bogusName":false,"lon":-71.0671123,"lat":48.437299200000005,"elevation":[]},{"distance":6.516,"relativeDirection":"RIGHT","streetName":"R 172","absoluteDirection":"NORTH","stayOn":false,"area":false,"bogusName":true,"lon":-71.0672278,"lat":48.4373869,"elevation":[]},{"distance":236.639,"relativeDirection":"SLIGHTLY_LEFT","streetName":"R 172","absoluteDirection":"NORTHWEST","stayOn":true,"area":false,"bogusName":true,"lon":-71.0672291,"lat":48.4374455,"elevation":[]},{"distance":62.283,"relativeDirection":"CONTINUE","streetName":"Boulevard Sainte-Geneviève","absoluteDirection":"NORTHWEST","stayOn":false,"area":false,"bogusName":false,"lon":-71.0694016,"lat":48.4389935,"elevation":[]},{"distance":199.08,"relativeDirection":"RIGHT","streetName":"path","absoluteDirection":"NORTHEAST","stayOn":false,"area":false,"bogusName":true,"lon":-71.07000330000001,"lat":48.4393862,"elevation":[]},{"distance":288.789,"relativeDirection":"LEFT","streetName":"Rue Saint-Nicolas","absoluteDirection":"NORTH","stayOn":false,"area":false,"bogusName":false,"lon":-71.06874350000001,"lat":48.4406393,"elevation":[]},{"distance":38.33,"relativeDirection":"LEFT","streetName":"Rue Riel","absoluteDirection":"NORTHWEST","stayOn":false,"area":false,"bogusName":false,"lon":-71.06785640000001,"lat":48.4431554,"elevation":[]},{"distance":37.996,"relativeDirection":"RIGHT","streetName":"path","absoluteDirection":"NORTH","stayOn":false,"area":false,"bogusName":false,"lon":-71.0682821,"lat":48.443321000000005,"elevation":[]}]}],"tooSloped":false},{"duration":1052,"startTime":1522688452000,"endTime":1522689504000,"walkTime":853,"transitTime":197,"waitingTime":2,"walkDistance":1111.2793533805109,"walkLimitExceeded":false,"elevationLost":0.0,"elevationGained":0.0,"transfers":0,"legs":[{"startTime":1522688452000,"endTime":1522688511000,"departureDelay":0,"arrivalDelay":0,"realTime":false,"distance":70.297,"pathway":false,"mode":"WALK","route":"","agencyTimeZoneOffset":-14400000,"interlineWithPreviousLeg":false,"from":{"name":"Origin","lon":-71.046545,"lat":48.44127,"departure":1522688452000,"orig":"","vertexType":"NORMAL"},"to":{"name":"St-Émile / Jogues","stopId":"1:827","stopCode":"827","lon":-71.04715,"lat":48.441462,"arrival":1522688511000,"departure":1522688512000,"zoneId":"NA","stopIndex":25,"stopSequence":26,"vertexType":"TRANSIT"},"legGeometry":{"points":"wetfHngspLc@vCHBHB","length":4},"rentedBike":false,"transitLeg":false,"duration":59.0,"steps":[{"distance":59.356,"relativeDirection":"DEPART","streetName":"Rue Jogues","absoluteDirection":"WEST","stayOn":false,"area":false,"bogusName":false,"lon":-71.04647425469857,"lat":48.441401638450905,"elevation":[]},{"distance":10.940999999999999,"relativeDirection":"LEFT","streetName":"Rue Saint-Émile","absoluteDirection":"SOUTH","stayOn":false,"area":false,"bogusName":false,"lon":-71.04723220000001,"lat":48.441580900000005,"elevation":[]}]},{"startTime":1522688512000,"endTime":1522688709000,"departureDelay":0,"arrivalDelay":0,"realTime":false,"distance":1227.3416490398336,"pathway":false,"mode":"BUS","route":"24","agencyName":"Société de Transport du Saguenay","agencyUrl":"http://ville.saguenay.ca/fr/services-aux-citoyens/transport-sts","agencyTimeZoneOffset":-14400000,"routeColor":"00FF00","routeType":3,"routeId":"1:24","routeTextColor":"000000","interlineWithPreviousLeg":false,"tripBlockId":"4","headsign":"Terminus Chicoutimi","agencyId":"0","tripId":"1:217235","serviceDate":"20180402","from":{"name":"St-Émile / Jogues","stopId":"1:827","stopCode":"827","lon":-71.04715,"lat":48.441462,"arrival":1522688511000,"departure":1522688512000,"zoneId":"NA","stopIndex":25,"stopSequence":26,"vertexType":"TRANSIT"},"to":{"name":"Église St-Luc (boul. Tadoussac)","stopId":"1:830","stopCode":"830","lon":-71.059501,"lat":48.441464,"arrival":1522688709000,"departure":1522688710000,"zoneId":"NA","stopIndex":29,"stopSequence":30,"vertexType":"TRANSIT"},"legGeometry":{"points":"iftfHrlspLsJqD_A]VvC\\`Ch@rCj@tBf@bBxDxJN\\bAjCTnAHvA@|@CPIpAe@pDUfBCTEXK~@MxAEn@@v@Bp@Dr@l@~HNlAH\\","length":29},"routeShortName":"24","routeLongName":"Saint-Luc","rentedBike":false,"transitLeg":true,"duration":197.0,"steps":[]},{"startTime":1522688710000,"endTime":1522689504000,"departureDelay":0,"arrivalDelay":0,"realTime":false,"distance":1040.891,"pathway":false,"mode":"WALK","route":"","agencyTimeZoneOffset":-14400000,"interlineWithPreviousLeg":false,"from":{"name":"Église St-Luc (boul. Tadoussac)","stopId":"1:830","stopCode":"830","lon":-71.059501,"lat":48.441464,"arrival":1522688709000,"departure":1522688710000,"zoneId":"NA","stopIndex":29,"stopSequence":30,"vertexType":"TRANSIT"},"to":{"name":"Destination","lon":-71.068053,"lat":48.443713,"arrival":1522689504000,"orig":"","vertexType":"NORMAL"},"legGeometry":{"points":"yetfHrxupLL`@BJQRQRKLGNI\\QbAGXa@jCk@rEc@|Fc@pAgBv@iANmEqAKB_@ZUr@k@pDVH`@NJHHFHJHNHRFXHj@hAzMbAY","length":32},"rentedBike":false,"transitLeg":false,"duration":794.0,"steps":[{"distance":19.773,"relativeDirection":"DEPART","streetName":"Boulevard de Tadoussac","absoluteDirection":"SOUTHWEST","stayOn":false,"area":false,"bogusName":false,"lon":-71.05945543369864,"lat":48.44141337892131,"elevation":[]},{"distance":701.5,"relativeDirection":"RIGHT","streetName":"Rue Talon","absoluteDirection":"NORTHWEST","stayOn":false,"area":false,"bogusName":false,"lon":-71.0596842,"lat":48.441320700000006,"elevation":[]},{"distance":280.098,"relativeDirection":"LEFT","streetName":"Rue Delisle","absoluteDirection":"SOUTH","stayOn":false,"area":false,"bogusName":false,"lon":-71.065352,"lat":48.445005300000005,"elevation":[]},{"distance":39.52,"relativeDirection":"LEFT","streetName":"path","absoluteDirection":"SOUTH","stayOn":false,"area":false,"bogusName":false,"lon":-71.0685442,"lat":48.4439961,"elevation":[]}]}],"tooSloped":false}]},"debugOutput":{"precalculationTime":19,"pathCalculationTime":23,"pathTimes":[18,2,3],"renderingTime":0,"totalTime":42,"timedOut":false},"elevationMetadata":{"ellipsoidToGeoidDifference":-28.885904201182168,"geoidElevation":false}}