{"requestParameters":{"date":"2018/04/02","walkSpeed":"1.33","walkReluctance":"2.0","fromPlace":"48.448027,-71.07448399","maxWalkDistance":"3000","waitReluctance":"1.0","carSpeed":"33","numItineraries":"3","waitAtBeginningFactor":"0.4","mode":"TRANSIT,WALK","ignoreRealtimeUpdates":"false","stairsReluctance":"2.0","toPlace":"48.438344,-71.049096","time":"20:30:00"},"plan":{"date":1522715400000,"from":{"name":"Origin","lon":-71.07448399,"lat":48.448027,"orig":"","vertexType":"NORMAL"},"to":{"name":"Destination","lon":-71.049096,"lat":48.438344,"orig":"","vertexType":"NORMAL"},"itineraries":[{"duration":1050,"startTime":1522716779000,"endTime":1522717829000,"walkTime":731,"transitTime":317,"waitingTime":2,"walkDistance":932.4354135268836,"walkLimitExceeded":false,"elevationLost":0.0,"elevationGained":0.0,"transfers":0,"legs":[{"startTime":1522716780000,"endTime":1522717097000,"departureDelay":0,"arrivalDelay":0,"realTime":false,"distance":2347.5658832500803,"pathway":false,"mode":"BUS","route":"23","agencyName":"Société de Transport du Saguenay","agencyUrl":"http://ville.saguenay.ca/fr/services-aux-citoyens/transport-sts","agencyTimeZoneOffset":-14400000,"routeColor":"FF00FF","routeType":3,"routeId":"1:23","routeTextColor":"FFFFFF","interlineWithPreviousLeg":false,"tripBlockId":"5","headsign":"Terminus Chicoutimi","agencyId":"0","tripId":"1:217278","serviceDate":"20180402","from":{"name":"Aréna du Plateau","stopId":"1:784","stopCode":"784","lon":-71.074321,"lat":48.447524,"departure":1522716780000,"orig":"","zoneId":"NA","stopIndex":6,"stopSequence":7,"vertexType":"TRANSIT"},"to":{"name":"Boileau / Colbert","stopId":"1:2019","stopCode":"2019","lon":-71.054133,"lat":48.442456,"arrival":1522717097000,"departure":1522717098000,"zoneId":"NA","stopIndex":18,"stopSequence":19,"vertexType":"TRANSIT"},"legGeometry":{"points":"qlufHvuxpLGi@Is@Ou@Qw@Mo@Kw@ImAGoBAk@aALa@?YEUKc@Yc@_@KOIUGUEWAW?YBqAH_AXeC@IdB_Mh@_EJk@d@kDhAqI`AgHz@oGBU?UAWCWUwAWD]B]AUEoAc@kE}AOIq@g@g@u@]w@b@s@T[~CkFf@s@\\e@x@}@jAeAXQZStBaAh@]`@]`@i@l@kDF_@R{AFWFMPIPC`@BT@V?TAVKLENCLCJ@J@xAb@x@Zz@\\CP?R@N@NFLFF`GtB","length":88},"routeShortName":"23","routeLongName":"Côte Verdun via Aréna du Plateau","rentedBike":false,"transitLeg":true,"duration":317.0,"steps":[]},{"startTime":1522717098000,"endTime":1522717829000,"departureDelay":0,"arrivalDelay":0,"realTime":false,"distance":932.22,"pathway":false,"mode":"WALK","route":"","agencyTimeZoneOffset":-14400000,"interlineWithPreviousLeg":false,"from":{"name":"Boileau / Colbert","stopId":"1:2019","stopCode":"2019","lon":-71.054133,"lat":48.442456,"arrival":1522717097000,"departure":1522717098000,"zoneId":"NA","stopIndex":18,"stopSequence":19,"vertexType":"TRANSIT"},"to":{"name":"Destination","lon":-71.049096,"lat":48.438344,"arrival":1522717829000,"orig":"","vertexType":"NORMAL"},"legGeometry":{"points":"eltfHrvtpL|@Xd@_EbC~@@K?k@?G?c@Eu@Gc@AIpA{BTwAKaBSeCAo@OqDTsBl@T\\LZ\\VXVVL@xEh@F?J?HALM^qCp@Z\\N","length":32},"rentedBike":false,"transitLeg":false,"duration":731.0,"steps":[{"distance":35.226,"relativeDirection":"DEPART","streetName":"Rue Boileau","absoluteDirection":"SOUTH","stayOn":false,"area":false,"bogusName":false,"lon":-71.05401522333527,"lat":48.442433475959426,"elevation":[]},{"distance":74.473,"relativeDirection":"LEFT","streetName":"Rue Colbert","absoluteDirection":"EAST","stayOn":false,"area":false,"bogusName":false,"lon":-71.0541475,"lat":48.4421291,"elevation":[]},{"distance":76.812,"relativeDirection":"RIGHT","streetName":"Rue Viau","absoluteDirection":"SOUTH","stayOn":false,"area":false,"bogusName":false,"lon":-71.0531831,"lat":48.4419309,"elevation":[]},{"distance":74.69,"relativeDirection":"LEFT","streetName":"Boulevard de Tadoussac","absoluteDirection":"EAST","stayOn":false,"area":false,"bogusName":false,"lon":-71.05350340000001,"lat":48.4412736,"elevation":[]},{"distance":315.517,"relativeDirection":"RIGHT","streetName":"path","absoluteDirection":"SOUTHEAST","stayOn":false,"area":false,"bogusName":true,"lon":-71.0525068,"lat":48.441346100000004,"elevation":[]},{"distance":308.642,"relativeDirection":"RIGHT","streetName":"Rue du Beaujolais","absoluteDirection":"SOUTH","stayOn":false,"area":false,"bogusName":false,"lon":-71.0485709,"lat":48.4409676,"elevation":[]},{"distance":46.86,"relativeDirection":"RIGHT","streetName":"Rue Saint-Émile","absoluteDirection":"SOUTH","stayOn":false,"area":false,"bogusName":false,"lon":-71.0485659,"lat":48.438665300000004,"elevation":[]}]}],"tooSloped":false},{"duration":2252,"startTime":1522716851000,"endTime":1522719103000,"walkTime":1527,"transitTime":723,"waitingTime":2,"walkDistance":1991.101631575636,"walkLimitExceeded":false,"elevationLost":0.0,"elevationGained":0.0,"transfers":0,"legs":[{"startTime":1522716851000,"endTime":1522718339000,"departureDelay":0,"arrivalDelay":0,"realTime":false,"distance":1942.407,"pathway":false,"mode":"WALK","route":"","agencyTimeZoneOffset":-14400000,"interlineWithPreviousLeg":false,"from":{"name":"Origin","lon":-71.07448399,"lat":48.448027,"departure":1522716851000,"orig":"","vertexType":"NORMAL"},"to":{"name":"Roussel / St-François","stopId":"1:1508","stopCode":"1508","lon":-71.065897,"lat":48.437206,"arrival":1522718339000,"departure":1522718340000,"zoneId":"NA","stopIndex":1,"stopSequence":2,"vertexType":"TRANSIT"},"legGeometry":{"points":"ulufHvuxpL?HLdBF|@VxCNzAJAJBNFFBFDHFFFLJLNDFFNL\\BF@FBRBPF^Fb@HnAzAaAdFuEl@KR^K`BDdAf@dBb@j@RR~BeIv@eBpAwCzAwCnAeC`IiOzAwCvAoCb@{@h@{@Re@Xk@Zm@v@uAvAcCt@y@d@_@J??E@EBC@CBAD?BwC?eAAS","length":61},"alerts":[{"alertHeaderText":"Unpaved surface"}],"rentedBike":false,"transitLeg":false,"duration":1488.0,"steps":[{"distance":158.332,"relativeDirection":"DEPART","streetName":"Rue de l'Aréna","absoluteDirection":"WEST","stayOn":false,"area":false,"bogusName":false,"lon":-71.07435789167567,"lat":48.4476363712024,"elevation":[]},{"distance":166.359,"relativeDirection":"LEFT","streetName":"Rue Saint-Gérard","absoluteDirection":"SOUTH","stayOn":false,"area":false,"bogusName":false,"lon":-71.0764515,"lat":48.4473234,"elevation":[]},{"distance":394.418,"relativeDirection":"LEFT","streetName":"Rue de la Promenade","absoluteDirection":"SOUTHEAST","stayOn":false,"area":false,"bogusName":false,"lon":-71.0780568,"lat":48.4464715,"elevation":[],"alerts":[{"alertHeaderText":"Unpaved surface"}]},{"distance":876.341,"relativeDirection":"LEFT","streetName":"Boulevard Sainte-Geneviève","absoluteDirection":"SOUTHEAST","stayOn":false,"area":false,"bogusName":false,"lon":-71.0784213,"lat":48.444088400000005,"elevation":[]},{"distance":243.155,"relativeDirection":"CONTINUE","streetName":"R 172","absoluteDirection":"SOUTHEAST","stayOn":false,"area":false,"bogusName":true,"lon":-71.0694016,"lat":48.4389935,"elevation":[]},{"distance":14.306,"relativeDirection":"CIRCLE_CLOCKWISE","streetName":"Rue Roussel","absoluteDirection":"SOUTHEAST","exit":"1","stayOn":false,"area":false,"bogusName":false,"lon":-71.0672278,"lat":48.4373869,"elevation":[]},{"distance":89.496,"relativeDirection":"LEFT","streetName":"Rue Roussel","absoluteDirection":"EAST","stayOn":false,"area":false,"bogusName":false,"lon":-71.0671123,"lat":48.437299200000005,"elevation":[]}]},{"startTime":1522718340000,"endTime":1522719063000,"departureDelay":0,"arrivalDelay":0,"realTime":false,"distance":5334.823328212829,"pathway":false,"mode":"BUS","route":"24","agencyName":"Société de Transport du Saguenay","agencyUrl":"http://ville.saguenay.ca/fr/services-aux-citoyens/transport-sts","agencyTimeZoneOffset":-14400000,"routeColor":"00FF00","routeType":3,"routeId":"1:24","routeTextColor":"000000","interlineWithPreviousLeg":false,"tripBlockId":"5","headsign":"Terminus Chicoutimi","agencyId":"0","tripId":"1:217279","serviceDate":"20180402","from":{"name":"Roussel / St-François","stopId":"1:1508","stopCode":"1508","lon":-71.065897,"lat":48.437206,"arrival":1522718339000,"departure":1522718340000,"zoneId":"NA","stopIndex":1,"stopSequence":2,"vertexType":"TRANSIT"},"to":{"name":"Parc Saint-François (St-Émile)","stopId":"1:825","stopCode":"825","lon":-71.048453,"lat":48.438658,"arrival":1522719063000,"departure":1522719064000,"zoneId":"NA","stopIndex":23,"stopSequence":24,"vertexType":"TRANSIT"},"legGeometry":{"points":"_lsfHz`wpL?mAEcAGs@OoAa@sB[kAYcASq@Ok@Qq@Ku@MoBKmAa@eHi@FKC_@I??iE}Ah@}DH}@?c@Ea@[_BA?My@Cm@?Y@g@Hu@b@sD\\_DBSyHsC_@MBQA}@IwAUoAcAkCWo@qDgJg@cBk@uBi@sC]aCWwCiKuDwQuGDWbAoGV{AxG~BPFhCdAn@Lx@BxA]QeDI}AzAW~ASQoDg@eKG{A?_@?m@?i@LeCJkAd@yGxAqSBs@p@^VRPRbF~FlCxBxB|B~JjK`IjIRPb@^r@d@rAp@\\T\\ZNVRd@J\\Nd@Hf@F`@@DFr@LtAJpB@jAAt@ObEIzAKbBUrBMp@Sn@gAlCk@pAw@fCwB|HCNk@jCeDuAq@UC?","length":115},"routeShortName":"24","routeLongName":"Saint-Luc","rentedBike":false,"transitLeg":true,"duration":723.0,"steps":[]},{"startTime":1522719064000,"endTime":1522719103000,"departureDelay":0,"arrivalDelay":0,"realTime":false,"distance":48.592,"pathway":false,"mode":"WALK","route":"","agencyTimeZoneOffset":-14400000,"interlineWithPreviousLeg":false,"from":{"name":"Parc Saint-François (St-Émile)","stopId":"1:825","stopCode":"825","lon":-71.048453,"lat":48.438658,"arrival":1522719063000,"departure":1522719064000,"zoneId":"NA","stopIndex":23,"stopSequence":24,"vertexType":"TRANSIT"},"to":{"name":"Destination","lon":-71.049096,"lat":48.438344,"arrival":1522719103000,"orig":"","vertexType":"NORMAL"},"legGeometry":{"points":"wtsfHntspLB@p@Z\\N","length":4},"rentedBike":false,"transitLeg":false,"duration":39.0,"steps":[{"distance":48.592,"relativeDirection":"DEPART","streetName":"Rue Saint-Émile","absoluteDirection":"SOUTH","stayOn":false,"area":false,"bogusName":false,"lon":-71.0485588327189,"lat":48.43868015719131,"elevation":[]}]}],"tooSloped":false},{"duration":1050,"startTime":1522720379000,"endTime":1522721429000,"walkTime":731,"transitTime":317,"waitingTime":2,"walkDistance":932.4354135268836,"walkLimitExceeded":false,"elevationLost":0.0,"elevationGained":0.0,"transfers":0,"legs":[{"startTime":1522720380000,"endTime":1522720697000,"departureDelay":0,"arrivalDelay":0,"realTime":false,"distance":2347.5658832500803,"pathway":false,"mode":"BUS","route":"23","agencyName":"Société de Transport du Saguenay","agencyUrl":"http://ville.saguenay.ca/fr/services-aux-citoyens/transport-sts","agencyTimeZoneOffset":-14400000,"routeColor":"FF00FF","routeType":3,"routeId":"1:23","routeTextColor":"FFFFFF","interlineWithPreviousLeg":false,"tripBlockId":"5","headsign":"Terminus Chicoutimi","agencyId":"0","tripId":"1:217280","serviceDate":"20180402","from":{"name":"Aréna du Plateau","stopId":"1:784","stopCode":"784","lon":-71.074321,"lat":48.447524,"departure":1522720380000,"orig":"","zoneId":"NA","stopIndex":6,"stopSequence":7,"vertexType":"TRANSIT"},"to":{"name":"Boileau / Colbert","stopId":"1:2019","stopCode":"2019","lon":-71.054133,"lat":48.442456,"arrival":1522720697000,"departure":1522720698000,"zoneId":"NA","stopIndex":18,"stopSequence":19,"vertexType":"TRANSIT"},"legGeometry":{"points":"qlufHvuxpLGi@Is@Ou@Qw@Mo@Kw@ImAGoBAk@aALa@?YEUKc@Yc@_@KOIUGUEWAW?YBqAH_AXeC@IdB_Mh@_EJk@d@kDhAqI`AgHz@oGBU?UAWCWUwAWD]B]AUEoAc@kE}AOIq@g@g@u@]w@b@s@T[~CkFf@s@\\e@x@}@jAeAXQZStBaAh@]`@]`@i@l@kDF_@R{AFWFMPIPC`@BT@V?TAVKLENCLCJ@J@xAb@x@Zz@\\CP?R@N@NFLFF`GtB","length":88},"routeShortName":"23","routeLongName":"Côte Verdun via Aréna du Plateau","rentedBike":false,"transitLeg":true,"duration":317.0,"steps":[]},{"startTime":1522720698000,"endTime":1522721429000,"departureDelay":0,"arrivalDelay":0,"realTime":false,"distance":932.22,"pathway":false,"mode":"WALK","route":"","agencyTimeZoneOffset":-14400000,"interlineWithPreviousLeg":false,"from":{"name":"Boileau / Colbert","stopId":"1:2019","stopCode":"2019","lon":-71.054133,"lat":48.442456,"arrival":1522720697000,"departure":1522720698000,"zoneId":"NA","stopIndex":18,"stopSequence":19,"vertexType":"TRANSIT"},"to":{"name":"Destination","lon":-71.049096,"lat":48.438344,"arrival":1522721429000,"orig":"","vertexType":"NORMAL"},"legGeometry":{"points":"eltfHrvtpL|@Xd@_EbC~@@K?k@?G?c@Eu@Gc@AIpA{BTwAKaBSeCAo@OqDTsBl@T\\LZ\\VXVVL@xEh@F?J?HALM^qCp@Z\\N","length":32},"rentedBike":false,"transitLeg":false,"duration":731.0,"steps":[{"distance":35.226,"relativeDirection":"DEPART","streetName":"Rue Boileau","absoluteDirection":"SOUTH","stayOn":false,"area":false,"bogusName":false,"lon":-71.05401522333527,"lat":48.442433475959426,"elevation":[]},{"distance":74.473,"relativeDirection":"LEFT","streetName":"Rue Colbert","absoluteDirection":"EAST","stayOn":false,"area":false,"bogusName":false,"lon":-71.0541475,"lat":48.4421291,"elevation":[]},{"distance":76.812,"relativeDirection":"RIGHT","streetName":"Rue Viau","absoluteDirection":"SOUTH","stayOn":false,"area":false,"bogusName":false,"lon":-71.0531831,"lat":48.4419309,"elevation":[]},{"distance":74.69,"relativeDirection":"LEFT","streetName":"Boulevard de Tadoussac","absoluteDirection":"EAST","stayOn":false,"area":false,"bogusName":false,"lon":-71.05350340000001,"lat":48.4412736,"elevation":[]},{"distance":315.517,"relativeDirection":"RIGHT","streetName":"path","absoluteDirection":"SOUTHEAST","stayOn":false,"area":false,"bogusName":true,"lon":-71.0525068,"lat":48.441346100000004,"elevation":[]},{"distance":308.642,"relativeDirection":"RIGHT","streetName":"Rue du Beaujolais","absoluteDirection":"SOUTH","stayOn":false,"area":false,"bogusName":false,"lon":-71.0485709,"lat":48.4409676,"elevation":[]},{"distance":46.86,"relativeDirection":"RIGHT","streetName":"Rue Saint-Émile","absoluteDirection":"SOUTH","stayOn":false,"area":false,"bogusName":false,"lon":-71.0485659,"lat":48.438665300000004,"elevation":[]}]}],"tooSloped":false}]},"debugOutput":{"precalculationTime":17,"pathCalculationTime":29,"pathTimes":[18,5,6],"renderingTime":0,"totalTime":46,"timedOut":false},"elevationMetadata":{"ellipsoidToGeoidDifference":-28.885904201182168,"geoidElevation":false}}