{"requestParameters":{"date":"2018/04/02","walkSpeed":"1.33","walkReluctance":"2.0","fromPlace":"48.438344,-71.049096","maxWalkDistance":"3000","waitReluctance":"1.0","carSpeed":"33","numItineraries":"3","waitAtBeginningFactor":"0.4","mode":"TRANSIT,WALK","ignoreRealtimeUpdates":"false","stairsReluctance":"2.0","toPlace":"48.422638,-71.059381","time":"15:5:00"},"plan":{"date":1522695900000,"from":{"name":"Origin","lon":-71.049096,"lat":48.438344,"orig":"","vertexType":"NORMAL"},"to":{"name":"Destination","lon":-71.059381,"lat":48.422638,"orig":"","vertexType":"NORMAL"},"itineraries":[{"duration":1317,"startTime":1522697423000,"endTime":1522698740000,"walkTime":197,"transitTime":878,"waitingTime":242,"walkDistance":249.13626315772495,"walkLimitExceeded":false,"elevationLost":0.0,"elevationGained":0.0,"transfers":1,"legs":[{"startTime":1522697423000,"endTime":1522697462000,"departureDelay":0,"arrivalDelay":0,"realTime":false,"distance":48.592,"pathway":false,"mode":"WALK","route":"","agencyTimeZoneOffset":-14400000,"interlineWithPreviousLeg":false,"from":{"name":"Origin","lon":-71.049096,"lat":48.438344,"departure":1522697423000,"orig":"","vertexType":"NORMAL"},"to":{"name":"Parc Saint-François (St-Émile)","stopId":"1:825","stopCode":"825","lon":-71.048453,"lat":48.438658,"arrival":1522697462000,"departure":1522697463000,"zoneId":"NA","stopIndex":23,"stopSequence":24,"vertexType":"TRANSIT"},"legGeometry":{"points":"crsfH|uspL]Oq@[CA","length":4},"rentedBike":false,"transitLeg":false,"duration":39.0,"steps":[{"distance":48.592,"relativeDirection":"DEPART","streetName":"Rue Saint-Émile","absoluteDirection":"NORTH","stayOn":false,"area":false,"bogusName":false,"lon":-71.04878108619542,"lat":48.43826878986577,"elevation":[]}]},{"startTime":1522697463000,"endTime":1522698060000,"departureDelay":0,"arrivalDelay":0,"realTime":false,"distance":3759.009216733427,"pathway":false,"mode":"BUS","route":"24","agencyName":"Société de Transport du Saguenay","agencyUrl":"http://ville.saguenay.ca/fr/services-aux-citoyens/transport-sts","agencyTimeZoneOffset":-14400000,"routeColor":"00FF00","routeType":3,"routeId":"1:24","routeTextColor":"000000","interlineWithPreviousLeg":false,"tripBlockId":"5","headsign":"Terminus Chicoutimi","agencyId":"0","tripId":"1:217267","serviceDate":"20180402","from":{"name":"Parc Saint-François (St-Émile)","stopId":"1:825","stopCode":"825","lon":-71.048453,"lat":48.438658,"arrival":1522697462000,"departure":1522697463000,"zoneId":"NA","stopIndex":23,"stopSequence":24,"vertexType":"TRANSIT"},"to":{"name":"Terminus Chicoutimi","stopId":"1:1289","stopCode":"1289","lon":-71.066163,"lat":48.428677,"arrival":1522698060000,"departure":1522698300000,"zoneId":"NA","stopIndex":35,"stopSequence":36,"vertexType":"TRANSIT"},"legGeometry":{"points":"ytsfH|tspLmG_CaHiCsJqD_A]VvC\\`Ch@rCj@tBf@bBxDxJN\\bAjCTnAHvA@|@CPIpAe@pDUfBCTEXK~@MxAEn@@v@Bp@Dr@l@~HNlAH\\@HLd@\\z@Xd@X\\RTXRr@Zn@PfExAvDpALnBJt@Pp@Nj@l@tBHZPn@`@rBNnAFr@DbA?bB@jABzA?p@A???A???A?A???A@??A?A@??A@?@A??@A@???@A@?@?@A@?@?@?@?@???@?@?@?@?@?@@@?@?@@@?@@@?@@@?@@?@@??@@@?E`@Kr@]rACVEl@I|AAr@JbAWJe@FUAM?a@Ke@YYWWa@v@}@RQPMz@k@tAe@REZG^Af@@X@VF`@Jn@XbClAr@Xt\\`PrAb@pA^hBTjAFj@Pb@JPHLLJNJRFXDT?X?ZEVEVKTMNMHMFOB}DWSGOSYcAN}FFkAF}DJyDPwGvAHN_HDiB@m@","length":171},"routeShortName":"24","routeLongName":"Saint-Luc","rentedBike":false,"transitLeg":true,"duration":597.0,"steps":[]},{"startTime":1522698300000,"endTime":1522698581000,"departureDelay":0,"arrivalDelay":0,"realTime":false,"distance":1197.7266149818488,"pathway":false,"mode":"BUS","route":"15","agencyName":"Société de Transport du Saguenay","agencyUrl":"http://ville.saguenay.ca/fr/services-aux-citoyens/transport-sts","agencyTimeZoneOffset":-14400000,"routeColor":"FF00FF","routeType":3,"routeId":"1:15","routeTextColor":"FFFFFF","interlineWithPreviousLeg":false,"tripBlockId":"31","headsign":"Talbot / Barrette","agencyId":"0","tripId":"1:218140","serviceDate":"20180402","from":{"name":"Terminus Chicoutimi","stopId":"1:1289","stopCode":"1289","lon":-71.066163,"lat":48.428677,"arrival":1522698060000,"departure":1522698300000,"zoneId":"NA","stopIndex":0,"stopSequence":1,"vertexType":"TRANSIT"},"to":{"name":"Bégin / Voie Réservé","stopId":"1:74","stopCode":"74","lon":-71.057125,"lat":48.423785,"arrival":1522698581000,"departure":1522698582000,"zoneId":"NA","stopIndex":5,"stopSequence":6,"vertexType":"TRANSIT"},"legGeometry":{"points":"evqfHpbwpLPiCjKx@HiEZkS\\aSN_K^eIrBpBvIpI","length":10},"routeShortName":"15","routeLongName":"Term. Chic / Costco","rentedBike":false,"transitLeg":true,"duration":281.0,"steps":[]},{"startTime":1522698582000,"endTime":1522698740000,"departureDelay":0,"arrivalDelay":0,"realTime":false,"distance":200.539,"pathway":false,"mode":"WALK","route":"","agencyTimeZoneOffset":-14400000,"interlineWithPreviousLeg":false,"from":{"name":"Bégin / Voie Réservé","stopId":"1:74","stopCode":"74","lon":-71.057125,"lat":48.423785,"arrival":1522698581000,"departure":1522698582000,"zoneId":"NA","stopIndex":5,"stopSequence":6,"vertexType":"TRANSIT"},"to":{"name":"Destination","lon":-71.059381,"lat":48.422638,"arrival":1522698740000,"orig":"","vertexType":"NORMAL"},"legGeometry":{"points":"kwpfHpiupLXVDDJHHHVVRN`AbAhAfAVXd@h@","length":11},"rentedBike":false,"transitLeg":false,"duration":158.0,"steps":[{"distance":200.539,"relativeDirection":"DEPART","streetName":"Rue Bégin","absoluteDirection":"SOUTHWEST","stayOn":false,"area":false,"bogusName":false,"lon":-71.05704050802188,"lat":48.42374908473847,"elevation":[]}]}],"tooSloped":false},{"duration":2177,"startTime":1522696565000,"endTime":1522698742000,"walkTime":889,"transitTime":686,"waitingTime":602,"walkDistance":1132.9826842033083,"walkLimitExceeded":false,"elevationLost":0.0,"elevationGained":0.0,"transfers":1,"legs":[{"startTime":1522696565000,"endTime":1522697296000,"departureDelay":0,"arrivalDelay":0,"realTime":false,"distance":932.22,"pathway":false,"mode":"WALK","route":"","agencyTimeZoneOffset":-14400000,"interlineWithPreviousLeg":false,"from":{"name":"Origin","lon":-71.049096,"lat":48.438344,"departure":1522696565000,"orig":"","vertexType":"NORMAL"},"to":{"name":"Boileau / Colbert","stopId":"1:2019","stopCode":"2019","lon":-71.054133,"lat":48.442456,"arrival":1522697296000,"departure":1522697297000,"zoneId":"NA","stopIndex":18,"stopSequence":19,"vertexType":"TRANSIT"},"legGeometry":{"points":"crsfH|uspL]Oq@[_@pCMLI@K?G?yEi@MAWWWY[]]Mm@UUrBNpD@n@RdCJ`BUvAqAzB@HFb@Dt@?b@?F?j@AJcC_Ae@~D}@Y","length":32},"rentedBike":false,"transitLeg":false,"duration":731.0,"steps":[{"distance":46.86,"relativeDirection":"DEPART","streetName":"Rue Saint-Émile","absoluteDirection":"NORTH","stayOn":false,"area":false,"bogusName":false,"lon":-71.04878108619542,"lat":48.43826878986577,"elevation":[]},{"distance":308.642,"relativeDirection":"LEFT","streetName":"Rue du Beaujolais","absoluteDirection":"WEST","stayOn":false,"area":false,"bogusName":false,"lon":-71.0485659,"lat":48.438665300000004,"elevation":[]},{"distance":315.517,"relativeDirection":"LEFT","streetName":"path","absoluteDirection":"WEST","stayOn":false,"area":false,"bogusName":true,"lon":-71.0485709,"lat":48.4409676,"elevation":[]},{"distance":74.69,"relativeDirection":"LEFT","streetName":"Boulevard de Tadoussac","absoluteDirection":"WEST","stayOn":false,"area":false,"bogusName":false,"lon":-71.0525068,"lat":48.441346100000004,"elevation":[]},{"distance":76.812,"relativeDirection":"RIGHT","streetName":"Rue Viau","absoluteDirection":"NORTH","stayOn":false,"area":false,"bogusName":false,"lon":-71.05350340000001,"lat":48.4412736,"elevation":[]},{"distance":74.473,"relativeDirection":"LEFT","streetName":"Rue Colbert","absoluteDirection":"WEST","stayOn":false,"area":false,"bogusName":false,"lon":-71.0531831,"lat":48.4419309,"elevation":[]},{"distance":35.226,"relativeDirection":"RIGHT","streetName":"Rue Boileau","absoluteDirection":"NORTH","stayOn":false,"area":false,"bogusName":false,"lon":-71.0541475,"lat":48.4421291,"elevation":[]}]},{"startTime":1522697297000,"endTime":1522697700000,"departureDelay":0,"arrivalDelay":0,"realTime":false,"distance":2618.6893635583783,"pathway":false,"mode":"BUS","route":"23","agencyName":"Société de Transport du Saguenay","agencyUrl":"http://ville.saguenay.ca/fr/services-aux-citoyens/transport-sts","agencyTimeZoneOffset":-14400000,"routeColor":"FF00FF","routeType":3,"routeId":"1:23","routeTextColor":"FFFFFF","interlineWithPreviousLeg":false,"tripBlockId":"4","headsign":"Terminus Chicoutimi","agencyId":"0","tripId":"1:217240","serviceDate":"20180402","from":{"name":"Boileau / Colbert","stopId":"1:2019","stopCode":"2019","lon":-71.054133,"lat":48.442456,"arrival":1522697296000,"departure":1522697297000,"zoneId":"NA","stopIndex":18,"stopSequence":19,"vertexType":"TRANSIT"},"to":{"name":"Terminus Chicoutimi","stopId":"1:1289","stopCode":"1289","lon":-71.066163,"lat":48.428677,"arrival":1522697700000,"departure":1522698300000,"zoneId":"NA","stopIndex":26,"stopSequence":27,"vertexType":"TRANSIT"},"legGeometry":{"points":"eltfHvvtpLx@Xw@pG@l@B\\DXL\\RZDFXPf@N@v@Bp@Dr@l@~HNlAH\\@HLd@\\z@Xd@X\\RTXRr@Zn@PfExAvDpALnBJt@Pp@|@`DHZPn@`@rBNnAFr@DbA?bB@jABzA?p@A???A???A?A???A@??A?A@??A@?@A??@A@???@A@?@?@A@?@?@?@?@???@?@?@?@?@?@@@?@?@@@?@@@?@@@?@@?@@??@@@?E`@Kr@]rACVEl@I|AAr@JbAWJe@FUAM?a@Ke@YYWWa@v@}@RQPMz@k@tAe@REZG^Af@@X@VF`@Jn@XbClAr@Xt\\`PrAb@pA^hBTjAFj@Pb@JPHLLJNJRFXDT?X?ZEVEVKTMNMHMFOB}DWSGOSYcAN}FFkAF}DJyDd@wPV_HjAN~ALI`C","length":156},"routeShortName":"23","routeLongName":"Côte Verdun via Aréna du Plateau","rentedBike":false,"transitLeg":true,"duration":403.0,"steps":[]},{"startTime":1522698300000,"endTime":1522698583000,"departureDelay":0,"arrivalDelay":0,"realTime":false,"distance":1197.7266149818488,"pathway":false,"mode":"BUS","route":"14","agencyName":"Société de Transport du Saguenay","agencyUrl":"http://ville.saguenay.ca/fr/services-aux-citoyens/transport-sts","agencyTimeZoneOffset":-14400000,"routeColor":"C0C000","routeType":3,"routeId":"1:14","routeTextColor":"000000","interlineWithPreviousLeg":false,"tripBlockId":"30","headsign":"Talbot / Barrette","agencyId":"0","tripId":"1:218105","serviceDate":"20180402","from":{"name":"Terminus Chicoutimi","stopId":"1:1289","stopCode":"1289","lon":-71.066163,"lat":48.428677,"arrival":1522697700000,"departure":1522698300000,"zoneId":"NA","stopIndex":0,"stopSequence":1,"vertexType":"TRANSIT"},"to":{"name":"Bégin / Voie Réservé","stopId":"1:74","stopCode":"74","lon":-71.057125,"lat":48.423785,"arrival":1522698583000,"departure":1522698584000,"zoneId":"NA","stopIndex":5,"stopSequence":6,"vertexType":"TRANSIT"},"legGeometry":{"points":"qvqfHnbwpLJkClLh@DsDTmSHwFB{I@m@@eBH_AF}A@w@Dq@@i@B}B@Y@e@D]F_@@SHQCKnBnBvIrI","length":24},"routeShortName":"14","routeLongName":"Coopérative","rentedBike":false,"transitLeg":true,"duration":283.0,"steps":[]},{"startTime":1522698584000,"endTime":1522698742000,"departureDelay":0,"arrivalDelay":0,"realTime":false,"distance":200.539,"pathway":false,"mode":"WALK","route":"","agencyTimeZoneOffset":-14400000,"interlineWithPreviousLeg":false,"from":{"name":"Bégin / Voie Réservé","stopId":"1:74","stopCode":"74","lon":-71.057125,"lat":48.423785,"arrival":1522698583000,"departure":1522698584000,"zoneId":"NA","stopIndex":5,"stopSequence":6,"vertexType":"TRANSIT"},"to":{"name":"Destination","lon":-71.059381,"lat":48.422638,"arrival":1522698742000,"orig":"","vertexType":"NORMAL"},"legGeometry":{"points":"kwpfHpiupLXVDDJHHHVVRN`AbAhAfAVXd@h@","length":11},"rentedBike":false,"transitLeg":false,"duration":158.0,"steps":[{"distance":200.539,"relativeDirection":"DEPART","streetName":"Rue Bégin","absoluteDirection":"SOUTHWEST","stayOn":false,"area":false,"bogusName":false,"lon":-71.05704050802188,"lat":48.42374908473847,"elevation":[]}]}],"tooSloped":false},{"duration":985,"startTime":1522699223000,"endTime":1522700208000,"walkTime":59,"transitTime":924,"waitingTime":2,"walkDistance":75.17912781951247,"walkLimitExceeded":false,"elevationLost":0.0,"elevationGained":0.0,"transfers":1,"legs":[{"startTime":1522699223000,"endTime":1522699262000,"departureDelay":0,"arrivalDelay":0,"realTime":false,"distance":48.592,"pathway":false,"mode":"WALK","route":"","agencyTimeZoneOffset":-14400000,"interlineWithPreviousLeg":false,"from":{"name":"Origin","lon":-71.049096,"lat":48.438344,"departure":1522699223000,"orig":"","vertexType":"NORMAL"},"to":{"name":"Parc Saint-François (St-Émile)","stopId":"1:825","stopCode":"825","lon":-71.048453,"lat":48.438658,"arrival":1522699262000,"departure":1522699263000,"zoneId":"NA","stopIndex":23,"stopSequence":24,"vertexType":"TRANSIT"},"legGeometry":{"points":"crsfH|uspL]Oq@[CA","length":4},"rentedBike":false,"transitLeg":false,"duration":39.0,"steps":[{"distance":48.592,"relativeDirection":"DEPART","streetName":"Rue Saint-Émile","absoluteDirection":"NORTH","stayOn":false,"area":false,"bogusName":false,"lon":-71.04878108619542,"lat":48.43826878986577,"elevation":[]}]},{"startTime":1522699263000,"endTime":1522699860000,"departureDelay":0,"arrivalDelay":0,"realTime":false,"distance":3759.009216733427,"pathway":false,"mode":"BUS","route":"24","agencyName":"Société de Transport du Saguenay","agencyUrl":"http://ville.saguenay.ca/fr/services-aux-citoyens/transport-sts","agencyTimeZoneOffset":-14400000,"routeColor":"00FF00","routeType":3,"routeId":"1:24","routeTextColor":"000000","interlineWithPreviousLeg":false,"tripBlockId":"4","headsign":"Terminus Chicoutimi","agencyId":"0","tripId":"1:217241","serviceDate":"20180402","from":{"name":"Parc Saint-François (St-Émile)","stopId":"1:825","stopCode":"825","lon":-71.048453,"lat":48.438658,"arrival":1522699262000,"departure":1522699263000,"zoneId":"NA","stopIndex":23,"stopSequence":24,"vertexType":"TRANSIT"},"to":{"name":"Terminus Chicoutimi","stopId":"1:1289","stopCode":"1289","lon":-71.066163,"lat":48.428677,"arrival":1522699860000,"departure":1522699860000,"zoneId":"NA","stopIndex":35,"stopSequence":36,"vertexType":"TRANSIT"},"legGeometry":{"points":"ytsfH|tspLmG_CaHiCsJqD_A]VvC\\`Ch@rCj@tBf@bBxDxJN\\bAjCTnAHvA@|@CPIpAe@pDUfBCTEXK~@MxAEn@@v@Bp@Dr@l@~HNlAH\\@HLd@\\z@Xd@X\\RTXRr@Zn@PfExAvDpALnBJt@Pp@Nj@l@tBHZPn@`@rBNnAFr@DbA?bB@jABzA?p@A???A???A?A???A@??A?A@??A@?@A??@A@???@A@?@?@A@?@?@?@?@???@?@?@?@?@?@@@?@?@@@?@@@?@@@?@@?@@??@@@?E`@Kr@]rACVEl@I|AAr@JbAWJe@FUAM?a@Ke@YYWWa@v@}@RQPMz@k@tAe@REZG^Af@@X@VF`@Jn@XbClAr@Xt\\`PrAb@pA^hBTjAFj@Pb@JPHLLJNJRFXDT?X?ZEVEVKTMNMHMFOB}DWSGOSYcAN}FFkAF}DJyDPwGvAHN_HDiB@m@","length":171},"routeShortName":"24","routeLongName":"Saint-Luc","rentedBike":false,"transitLeg":true,"duration":597.0,"steps":[]},{"startTime":1522699860000,"endTime":1522700187000,"departureDelay":0,"arrivalDelay":0,"realTime":false,"distance":1371.2345818489855,"pathway":false,"mode":"BUS","route":"415S","agencyName":"Société de Transport du Saguenay","agencyUrl":"http://ville.saguenay.ca/fr/services-aux-citoyens/transport-sts","agencyTimeZoneOffset":-14400000,"routeColor":"8B0000","routeType":3,"routeId":"1:415S","routeTextColor":"FFFFFF","interlineWithPreviousLeg":false,"tripBlockId":"68","headsign":"Costco","agencyId":"0","tripId":"1:218587","serviceDate":"20180402","from":{"name":"Terminus Chicoutimi","stopId":"1:1289","stopCode":"1289","lon":-71.066163,"lat":48.428677,"arrival":1522699860000,"departure":1522699860000,"zoneId":"NA","stopIndex":0,"stopSequence":1,"vertexType":"TRANSIT"},"to":{"name":"Bégin / Saint-Thomas","stopId":"1:1998","stopCode":"1998","lon":-71.058439,"lat":48.422491,"arrival":1522700187000,"departure":1522700188000,"zoneId":"NA","stopIndex":6,"stopSequence":7,"vertexType":"TRANSIT"},"legGeometry":{"points":"kwqfHjbwpLF_CzDX|BXfCNF}D@YRcFJgLNuNDkCHkFVoKT}@dBnBBBpInIdG`G","length":18},"routeShortName":"415S","routeLongName":"Term. Chic / Costco","rentedBike":false,"transitLeg":true,"duration":327.0,"steps":[]},{"startTime":1522700188000,"endTime":1522700208000,"departureDelay":0,"arrivalDelay":0,"realTime":false,"distance":26.586,"pathway":false,"mode":"WALK","route":"","agencyTimeZoneOffset":-14400000,"interlineWithPreviousLeg":false,"from":{"name":"Bégin / Saint-Thomas","stopId":"1:1998","stopCode":"1998","lon":-71.058439,"lat":48.422491,"arrival":1522700187000,"departure":1522700188000,"zoneId":"NA","stopIndex":6,"stopSequence":7,"vertexType":"TRANSIT"},"to":{"name":"Destination","lon":-71.059381,"lat":48.422638,"arrival":1522700208000,"orig":"","vertexType":"NORMAL"},"legGeometry":{"points":"eopfHpqupLd@h@","length":2},"rentedBike":false,"transitLeg":false,"duration":20.0,"steps":[{"distance":26.586,"relativeDirection":"DEPART","streetName":"Rue Bégin","absoluteDirection":"SOUTHWEST","stayOn":false,"area":false,"bogusName":false,"lon":-71.05832663730082,"lat":48.42243861039004,"elevation":[]}]}],"tooSloped":false}]},"debugOutput":{"precalculationTime":38,"pathCalculationTime":26,"pathTimes":[16,3,7],"renderingTime":0,"totalTime":64,"timedOut":false},"elevationMetadata":{"ellipsoidToGeoidDifference":-28.885904201182168,"geoidElevation":false}}