{"requestParameters":{"date":"2018/04/02","walkSpeed":"1.33","walkReluctance":"2.0","fromPlace":"48.43887,-71.048196","maxWalkDistance":"3000","waitReluctance":"1.0","carSpeed":"33","numItineraries":"3","waitAtBeginningFactor":"0.4","mode":"TRANSIT,WALK","ignoreRealtimeUpdates":"false","stairsReluctance":"2.0","toPlace":"48.430302,-71.05530799","time":"18:30:00"},"plan":{"date":1522708200000,"from":{"name":"Origin","lon":-71.048196,"lat":48.43887,"orig":"","vertexType":"NORMAL"},"to":{"name":"Destination","lon":-71.05530799,"lat":48.430302,"orig":"","vertexType":"NORMAL"},"itineraries":[{"duration":1289,"startTime":1522708300000,"endTime":1522709589000,"walkTime":690,"transitTime":597,"waitingTime":2,"walkDistance":896.2016315772491,"walkLimitExceeded":false,"elevationLost":0.0,"elevationGained":0.0,"transfers":0,"legs":[{"startTime":1522708300000,"endTime":1522708322000,"departureDelay":0,"arrivalDelay":0,"realTime":false,"distance":28.186,"pathway":false,"mode":"WALK","route":"","agencyTimeZoneOffset":-14400000,"interlineWithPreviousLeg":false,"from":{"name":"Origin","lon":-71.048196,"lat":48.43887,"departure":1522708300000,"orig":"","vertexType":"NORMAL"},"to":{"name":"Parc Saint-François (St-Émile)","stopId":"1:825","stopCode":"825","lon":-71.048453,"lat":48.438658,"arrival":1522708322000,"departure":1522708323000,"zoneId":"NA","stopIndex":23,"stopSequence":24,"vertexType":"TRANSIT"},"legGeometry":{"points":"gvsfHxsspLn@T","length":2},"rentedBike":false,"transitLeg":false,"duration":22.0,"steps":[{"distance":28.186,"relativeDirection":"DEPART","streetName":"Rue Saint-Émile","absoluteDirection":"SOUTH","stayOn":false,"area":false,"bogusName":false,"lon":-71.04844384569046,"lat":48.438921888665455,"elevation":[]}]},{"startTime":1522708323000,"endTime":1522708920000,"departureDelay":0,"arrivalDelay":0,"realTime":false,"distance":3759.009216733427,"pathway":false,"mode":"BUS","route":"24","agencyName":"Société de Transport du Saguenay","agencyUrl":"http://ville.saguenay.ca/fr/services-aux-citoyens/transport-sts","agencyTimeZoneOffset":-14400000,"routeColor":"00FF00","routeType":3,"routeId":"1:24","routeTextColor":"000000","interlineWithPreviousLeg":false,"tripBlockId":"5","headsign":"Terminus Chicoutimi","agencyId":"0","tripId":"1:217273","serviceDate":"20180402","from":{"name":"Parc Saint-François (St-Émile)","stopId":"1:825","stopCode":"825","lon":-71.048453,"lat":48.438658,"arrival":1522708322000,"departure":1522708323000,"zoneId":"NA","stopIndex":23,"stopSequence":24,"vertexType":"TRANSIT"},"to":{"name":"Terminus Chicoutimi","stopId":"1:1289","stopCode":"1289","lon":-71.066163,"lat":48.428677,"arrival":1522708920000,"departure":1522708921000,"zoneId":"NA","stopIndex":35,"stopSequence":36,"vertexType":"TRANSIT"},"legGeometry":{"points":"ytsfH|tspLmG_CaHiCsJqD_A]VvC\\`Ch@rCj@tBf@bBxDxJN\\bAjCTnAHvA@|@CPIpAe@pDUfBCTEXK~@MxAEn@@v@Bp@Dr@l@~HNlAH\\@HLd@\\z@Xd@X\\RTXRr@Zn@PfExAvDpALnBJt@Pp@Nj@l@tBHZPn@`@rBNnAFr@DbA?bB@jABzA?p@A???A???A?A???A@??A?A@??A@?@A??@A@???@A@?@?@A@?@?@?@?@???@?@?@?@?@?@@@?@?@@@?@@@?@@@?@@?@@??@@@?E`@Kr@]rACVEl@I|AAr@JbAWJe@FUAM?a@Ke@YYWWa@v@}@RQPMz@k@tAe@REZG^Af@@X@VF`@Jn@XbClAr@Xt\\`PrAb@pA^hBTjAFj@Pb@JPHLLJNJRFXDT?X?ZEVEVKTMNMHMFOB}DWSGOSYcAN}FFkAF}DJyDPwGvAHN_HDiB@m@","length":171},"routeShortName":"24","routeLongName":"Saint-Luc","rentedBike":false,"transitLeg":true,"duration":597.0,"steps":[]},{"startTime":1522708921000,"endTime":1522709589000,"departureDelay":0,"arrivalDelay":0,"realTime":false,"distance":867.963,"pathway":false,"mode":"WALK","route":"","agencyTimeZoneOffset":-14400000,"interlineWithPreviousLeg":false,"from":{"name":"Terminus Chicoutimi","stopId":"1:1289","stopCode":"1289","lon":-71.066163,"lat":48.428677,"arrival":1522708920000,"departure":1522708921000,"zoneId":"NA","stopIndex":35,"stopSequence":36,"vertexType":"TRANSIT"},"to":{"name":"Destination","lon":-71.05530799,"lat":48.430302,"arrival":1522709589000,"orig":"","vertexType":"NORMAL"},"legGeometry":{"points":"{uqfHb~vpL_BMOAa@CGAI?@]@i@B{@DcA@_@@_@FcBHmBFeBHkO?GQmI[aGCa@EWIc@QeAc@sBKi@Mk@","length":26},"rentedBike":false,"transitLeg":false,"duration":668.0,"steps":[{"distance":81.079,"relativeDirection":"DEPART","streetName":"Rue Morin","absoluteDirection":"NORTH","stayOn":false,"area":false,"bogusName":false,"lon":-71.0654590096484,"lat":48.428628638946556,"elevation":[]},{"distance":10.491,"relativeDirection":"CONTINUE","streetName":"service road","absoluteDirection":"NORTH","stayOn":false,"area":false,"bogusName":true,"lon":-71.0653539,"lat":48.4293544,"elevation":[]},{"distance":776.393,"relativeDirection":"RIGHT","streetName":"bike path","absoluteDirection":"EAST","stayOn":true,"area":false,"bogusName":true,"lon":-71.0653417,"lat":48.429448400000005,"elevation":[]}]}],"tooSloped":false},{"duration":1773,"startTime":1522709196000,"endTime":1522710969000,"walkTime":1368,"transitTime":403,"waitingTime":2,"walkDistance":1755.018631569182,"walkLimitExceeded":false,"elevationLost":0.0,"elevationGained":0.0,"transfers":0,"legs":[{"startTime":1522709196000,"endTime":1522709896000,"departureDelay":0,"arrivalDelay":0,"realTime":false,"distance":886.7529999999999,"pathway":false,"mode":"WALK","route":"","agencyTimeZoneOffset":-14400000,"interlineWithPreviousLeg":false,"from":{"name":"Origin","lon":-71.048196,"lat":48.43887,"departure":1522709196000,"orig":"","vertexType":"NORMAL"},"to":{"name":"Boileau / Colbert","stopId":"1:2019","stopCode":"2019","lon":-71.054133,"lat":48.442456,"arrival":1522709896000,"departure":1522709897000,"zoneId":"NA","stopIndex":18,"stopSequence":19,"vertexType":"TRANSIT"},"legGeometry":{"points":"gvsfHxsspLgCaAgA_@MdBa@hCWWWY[]]Mm@UUrBNpD@n@RdCJ`BUvAqAzB@HFb@Dt@?b@?F?j@AJcC_Ae@~D}@Y","length":27},"rentedBike":false,"transitLeg":false,"duration":700.0,"steps":[{"distance":120.977,"relativeDirection":"DEPART","streetName":"Rue Saint-Émile","absoluteDirection":"NORTH","stayOn":false,"area":false,"bogusName":false,"lon":-71.04844384569046,"lat":48.438921888665455,"elevation":[]},{"distance":92.711,"relativeDirection":"LEFT","streetName":"path","absoluteDirection":"WEST","stayOn":false,"area":false,"bogusName":true,"lon":-71.047959,"lat":48.439961200000006,"elevation":[]},{"distance":96.347,"relativeDirection":"RIGHT","streetName":"Rue du Beaujolais","absoluteDirection":"NORTHEAST","stayOn":false,"area":false,"bogusName":false,"lon":-71.0491578,"lat":48.440203600000004,"elevation":[]},{"distance":315.517,"relativeDirection":"LEFT","streetName":"path","absoluteDirection":"WEST","stayOn":false,"area":false,"bogusName":true,"lon":-71.0485709,"lat":48.4409676,"elevation":[]},{"distance":74.69,"relativeDirection":"LEFT","streetName":"Boulevard de Tadoussac","absoluteDirection":"WEST","stayOn":false,"area":false,"bogusName":false,"lon":-71.0525068,"lat":48.441346100000004,"elevation":[]},{"distance":76.812,"relativeDirection":"RIGHT","streetName":"Rue Viau","absoluteDirection":"NORTH","stayOn":false,"area":false,"bogusName":false,"lon":-71.05350340000001,"lat":48.4412736,"elevation":[]},{"distance":74.473,"relativeDirection":"LEFT","streetName":"Rue Colbert","absoluteDirection":"WEST","stayOn":false,"area":false,"bogusName":false,"lon":-71.0531831,"lat":48.4419309,"elevation":[]},{"distance":35.226,"relativeDirection":"RIGHT","streetName":"Rue Boileau","absoluteDirection":"NORTH","stayOn":false,"area":false,"bogusName":false,"lon":-71.0541475,"lat":48.4421291,"elevation":[]}]},{"startTime":1522709897000,"endTime":1522710300000,"departureDelay":0,"arrivalDelay":0,"realTime":false,"distance":2618.6893635583783,"pathway":false,"mode":"BUS","route":"23","agencyName":"Société de Transport du Saguenay","agencyUrl":"http://ville.saguenay.ca/fr/services-aux-citoyens/transport-sts","agencyTimeZoneOffset":-14400000,"routeColor":"FF00FF","routeType":3,"routeId":"1:23","routeTextColor":"FFFFFF","interlineWithPreviousLeg":false,"tripBlockId":"5","headsign":"Terminus Chicoutimi","agencyId":"0","tripId":"1:217274","serviceDate":"20180402","from":{"name":"Boileau / Colbert","stopId":"1:2019","stopCode":"2019","lon":-71.054133,"lat":48.442456,"arrival":1522709896000,"departure":1522709897000,"zoneId":"NA","stopIndex":18,"stopSequence":19,"vertexType":"TRANSIT"},"to":{"name":"Terminus Chicoutimi","stopId":"1:1289","stopCode":"1289","lon":-71.066163,"lat":48.428677,"arrival":1522710300000,"departure":1522710301000,"zoneId":"NA","stopIndex":26,"stopSequence":27,"vertexType":"TRANSIT"},"legGeometry":{"points":"eltfHvvtpLx@Xw@pG@l@B\\DXL\\RZDFXPf@N@v@Bp@Dr@l@~HNlAH\\@HLd@\\z@Xd@X\\RTXRr@Zn@PfExAvDpALnBJt@Pp@|@`DHZPn@`@rBNnAFr@DbA?bB@jABzA?p@A???A???A?A???A@??A?A@??A@?@A??@A@???@A@?@?@A@?@?@?@?@???@?@?@?@?@?@@@?@?@@@?@@@?@@@?@@?@@??@@@?E`@Kr@]rACVEl@I|AAr@JbAWJe@FUAM?a@Ke@YYWWa@v@}@RQPMz@k@tAe@REZG^Af@@X@VF`@Jn@XbClAr@Xt\\`PrAb@pA^hBTjAFj@Pb@JPHLLJNJRFXDT?X?ZEVEVKTMNMHMFOB}DWSGOSYcAN}FFkAF}DJyDd@wPV_HjAN~ALI`C","length":156},"routeShortName":"23","routeLongName":"Côte Verdun via Aréna du Plateau","rentedBike":false,"transitLeg":true,"duration":403.0,"steps":[]},{"startTime":1522710301000,"endTime":1522710969000,"departureDelay":0,"arrivalDelay":0,"realTime":false,"distance":867.963,"pathway":false,"mode":"WALK","route":"","agencyTimeZoneOffset":-14400000,"interlineWithPreviousLeg":false,"from":{"name":"Terminus Chicoutimi","stopId":"1:1289","stopCode":"1289","lon":-71.066163,"lat":48.428677,"arrival":1522710300000,"departure":1522710301000,"zoneId":"NA","stopIndex":26,"stopSequence":27,"vertexType":"TRANSIT"},"to":{"name":"Destination","lon":-71.05530799,"lat":48.430302,"arrival":1522710969000,"orig":"","vertexType":"NORMAL"},"legGeometry":{"points":"{uqfHb~vpL_BMOAa@CGAI?@]@i@B{@DcA@_@@_@FcBHmBFeBHkO?GQmI[aGCa@EWIc@QeAc@sBKi@Mk@","length":26},"rentedBike":false,"transitLeg":false,"duration":668.0,"steps":[{"distance":81.079,"relativeDirection":"DEPART","streetName":"Rue Morin","absoluteDirection":"NORTH","stayOn":false,"area":false,"bogusName":false,"lon":-71.0654590096484,"lat":48.428628638946556,"elevation":[]},{"distance":10.491,"relativeDirection":"CONTINUE","streetName":"service road","absoluteDirection":"NORTH","stayOn":false,"area":false,"bogusName":true,"lon":-71.0653539,"lat":48.4293544,"elevation":[]},{"distance":776.393,"relativeDirection":"RIGHT","streetName":"bike path","absoluteDirection":"EAST","stayOn":true,"area":false,"bogusName":true,"lon":-71.0653417,"lat":48.429448400000005,"elevation":[]}]}],"tooSloped":false},{"duration":1289,"startTime":1522711840000,"endTime":1522713129000,"walkTime":690,"transitTime":597,"waitingTime":2,"walkDistance":896.2016315772491,"walkLimitExceeded":false,"elevationLost":0.0,"elevationGained":0.0,"transfers":0,"legs":[{"startTime":1522711840000,"endTime":1522711862000,"departureDelay":0,"arrivalDelay":0,"realTime":false,"distance":28.186,"pathway":false,"mode":"WALK","route":"","agencyTimeZoneOffset":-14400000,"interlineWithPreviousLeg":false,"from":{"name":"Origin","lon":-71.048196,"lat":48.43887,"departure":1522711840000,"orig":"","vertexType":"NORMAL"},"to":{"name":"Parc Saint-François (St-Émile)","stopId":"1:825","stopCode":"825","lon":-71.048453,"lat":48.438658,"arrival":1522711862000,"departure":1522711863000,"zoneId":"NA","stopIndex":23,"stopSequence":24,"vertexType":"TRANSIT"},"legGeometry":{"points":"gvsfHxsspLn@T","length":2},"rentedBike":false,"transitLeg":false,"duration":22.0,"steps":[{"distance":28.186,"relativeDirection":"DEPART","streetName":"Rue Saint-Émile","absoluteDirection":"SOUTH","stayOn":false,"area":false,"bogusName":false,"lon":-71.04844384569046,"lat":48.438921888665455,"elevation":[]}]},{"startTime":1522711863000,"endTime":1522712460000,"departureDelay":0,"arrivalDelay":0,"realTime":false,"distance":3759.009216733427,"pathway":false,"mode":"BUS","route":"24","agencyName":"Société de Transport du Saguenay","agencyUrl":"http://ville.saguenay.ca/fr/services-aux-citoyens/transport-sts","agencyTimeZoneOffset":-14400000,"routeColor":"00FF00","routeType":3,"routeId":"1:24","routeTextColor":"000000","interlineWithPreviousLeg":false,"tripBlockId":"5","headsign":"Terminus Chicoutimi","agencyId":"0","tripId":"1:217275","serviceDate":"20180402","from":{"name":"Parc Saint-François (St-Émile)","stopId":"1:825","stopCode":"825","lon":-71.048453,"lat":48.438658,"arrival":1522711862000,"departure":1522711863000,"zoneId":"NA","stopIndex":23,"stopSequence":24,"vertexType":"TRANSIT"},"to":{"name":"Terminus Chicoutimi","stopId":"1:1289","stopCode":"1289","lon":-71.066163,"lat":48.428677,"arrival":1522712460000,"departure":1522712461000,"zoneId":"NA","stopIndex":35,"stopSequence":36,"vertexType":"TRANSIT"},"legGeometry":{"points":"ytsfH|tspLmG_CaHiCsJqD_A]VvC\\`Ch@rCj@tBf@bBxDxJN\\bAjCTnAHvA@|@CPIpAe@pDUfBCTEXK~@MxAEn@@v@Bp@Dr@l@~HNlAH\\@HLd@\\z@Xd@X\\RTXRr@Zn@PfExAvDpALnBJt@Pp@Nj@l@tBHZPn@`@rBNnAFr@DbA?bB@jABzA?p@A???A???A?A???A@??A?A@??A@?@A??@A@???@A@?@?@A@?@?@?@?@???@?@?@?@?@?@@@?@?@@@?@@@?@@@?@@?@@??@@@?E`@Kr@]rACVEl@I|AAr@JbAWJe@FUAM?a@Ke@YYWWa@v@}@RQPMz@k@tAe@REZG^Af@@X@VF`@Jn@XbClAr@Xt\\`PrAb@pA^hBTjAFj@Pb@JPHLLJNJRFXDT?X?ZEVEVKTMNMHMFOB}DWSGOSYcAN}FFkAF}DJyDPwGvAHN_HDiB@m@","length":171},"routeShortName":"24","routeLongName":"Saint-Luc","rentedBike":false,"transitLeg":true,"duration":597.0,"steps":[]},{"startTime":1522712461000,"endTime":1522713129000,"departureDelay":0,"arrivalDelay":0,"realTime":false,"distance":867.963,"pathway":false,"mode":"WALK","route":"","agencyTimeZoneOffset":-14400000,"interlineWithPreviousLeg":false,"from":{"name":"Terminus Chicoutimi","stopId":"1:1289","stopCode":"1289","lon":-71.066163,"lat":48.428677,"arrival":1522712460000,"departure":1522712461000,"zoneId":"NA","stopIndex":35,"stopSequence":36,"vertexType":"TRANSIT"},"to":{"name":"Destination","lon":-71.05530799,"lat":48.430302,"arrival":1522713129000,"orig":"","vertexType":"NORMAL"},"legGeometry":{"points":"{uqfHb~vpL_BMOAa@CGAI?@]@i@B{@DcA@_@@_@FcBHmBFeBHkO?GQmI[aGCa@EWIc@QeAc@sBKi@Mk@","length":26},"rentedBike":false,"transitLeg":false,"duration":668.0,"steps":[{"distance":81.079,"relativeDirection":"DEPART","streetName":"Rue Morin","absoluteDirection":"NORTH","stayOn":false,"area":false,"bogusName":false,"lon":-71.0654590096484,"lat":48.428628638946556,"elevation":[]},{"distance":10.491,"relativeDirection":"CONTINUE","streetName":"service road","absoluteDirection":"NORTH","stayOn":false,"area":false,"bogusName":true,"lon":-71.0653539,"lat":48.4293544,"elevation":[]},{"distance":776.393,"relativeDirection":"RIGHT","streetName":"bike path","absoluteDirection":"EAST","stayOn":true,"area":false,"bogusName":true,"lon":-71.0653417,"lat":48.429448400000005,"elevation":[]}]}],"tooSloped":false}]},"debugOutput":{"precalculationTime":28,"pathCalculationTime":20,"pathTimes":[12,4,4],"renderingTime":1,"totalTime":49,"timedOut":false},"elevationMetadata":{"ellipsoidToGeoidDifference":-28.885904201182168,"geoidElevation":false}}