{"requestParameters":{"date":"2018/04/02","walkSpeed":"1.33","walkReluctance":"2.0","fromPlace":"48.444119,-71.080494","maxWalkDistance":"3000","waitReluctance":"1.0","carSpeed":"33","numItineraries":"3","waitAtBeginningFactor":"0.4","mode":"TRANSIT,WALK","ignoreRealtimeUpdates":"false","stairsReluctance":"2.0","toPlace":"48.442106,-71.059971","time":"14:50:00"},"plan":{"date":1522695000000,"from":{"name":"Origin","lon":-71.080494,"lat":48.444119,"orig":"","vertexType":"NORMAL"},"to":{"name":"Destination","lon":-71.059971,"lat":48.442106,"orig":"","vertexType":"NORMAL"},"itineraries":[{"duration":1454,"startTime":1522695000000,"endTime":1522696454000,"walkTime":1454,"transitTime":0,"waitingTime":0,"walkDistance":1891.1647819496347,"walkLimitExceeded":false,"elevationLost":0.0,"elevationGained":0.0,"transfers":0,"legs":[{"startTime":1522695000000,"endTime":1522696454000,"departureDelay":0,"arrivalDelay":0,"realTime":false,"distance":1891.002,"pathway":false,"mode":"WALK","route":"","agencyTimeZoneOffset":-14400000,"interlineWithPreviousLeg":false,"from":{"name":"Origin","lon":-71.080494,"lat":48.444119,"departure":1522695000000,"orig":"","vertexType":"NORMAL"},"to":{"name":"Destination","lon":-71.059971,"lat":48.442106,"arrival":1522696454000,"orig":"","vertexType":"NORMAL"},"legGeometry":{"points":"wytfHjyypLlAiEQSj@gB~BeIv@eBpAwCQc@Ia@EWCWK}AOuA]qDs@gHSqBAG]qDEa@Gu@O{BQoBiA{MIk@GYISIOIKIGKIa@OWIj@qDTs@^[JClEpAhAOfBw@b@qAb@}Fj@sE`@kCFYuAe@","length":45},"rentedBike":false,"transitLeg":false,"duration":1454.0,"steps":[{"distance":405.508,"relativeDirection":"DEPART","streetName":"Boulevard Sainte-Geneviève","absoluteDirection":"SOUTHEAST","stayOn":false,"area":false,"bogusName":false,"lon":-71.08005452675857,"lat":48.4446094224144,"elevation":[]},{"distance":814.848,"relativeDirection":"LEFT","streetName":"Rue Delisle","absoluteDirection":"NORTHEAST","stayOn":false,"area":false,"bogusName":false,"lon":-71.0755262,"lat":48.442755700000006,"elevation":[]},{"distance":620.971,"relativeDirection":"RIGHT","streetName":"Rue Talon","absoluteDirection":"EAST","stayOn":false,"area":false,"bogusName":false,"lon":-71.065352,"lat":48.445005300000005,"elevation":[]},{"distance":49.675,"relativeDirection":"LEFT","streetName":"Rue du Régent","absoluteDirection":"NORTH","stayOn":false,"area":false,"bogusName":false,"lon":-71.0605235,"lat":48.441746900000005,"elevation":[]}]}],"tooSloped":false},{"duration":823,"startTime":1522696656000,"endTime":1522697479000,"walkTime":280,"transitTime":541,"waitingTime":2,"walkDistance":353.39802255287316,"walkLimitExceeded":false,"elevationLost":0.0,"elevationGained":0.0,"transfers":0,"legs":[{"startTime":1522696656000,"endTime":1522696818000,"departureDelay":0,"arrivalDelay":0,"realTime":false,"distance":203.312,"pathway":false,"mode":"WALK","route":"","agencyTimeZoneOffset":-14400000,"interlineWithPreviousLeg":false,"from":{"name":"Origin","lon":-71.080494,"lat":48.444119,"departure":1522696656000,"orig":"","vertexType":"NORMAL"},"to":{"name":"Place de la Colline (boul. Ste-Geneviève)","stopId":"1:706","stopCode":"706","lon":-71.080094,"lat":48.44485,"arrival":1522696818000,"departure":1522696819000,"zoneId":"NA","stopIndex":2,"stopSequence":3,"vertexType":"TRANSIT"},"legGeometry":{"points":"wytfHjyypLlAiEQSeBjF","length":4},"rentedBike":false,"transitLeg":false,"duration":162.0,"steps":[{"distance":86.223,"relativeDirection":"DEPART","streetName":"Boulevard Sainte-Geneviève","absoluteDirection":"SOUTHEAST","stayOn":false,"area":false,"bogusName":false,"lon":-71.08005452675857,"lat":48.4446094224144,"elevation":[]},{"distance":117.089,"relativeDirection":"UTURN_LEFT","streetName":"Boulevard Sainte-Geneviève","absoluteDirection":"NORTHWEST","stayOn":true,"area":false,"bogusName":false,"lon":-71.07894370000001,"lat":48.444307900000005,"elevation":[]}]},{"startTime":1522696819000,"endTime":1522697360000,"departureDelay":0,"arrivalDelay":0,"realTime":false,"distance":4077.9639856855765,"pathway":false,"mode":"BUS","route":"23","agencyName":"Société de Transport du Saguenay","agencyUrl":"http://ville.saguenay.ca/fr/services-aux-citoyens/transport-sts","agencyTimeZoneOffset":-14400000,"routeColor":"FF00FF","routeType":3,"routeId":"1:23","routeTextColor":"FFFFFF","interlineWithPreviousLeg":false,"tripBlockId":"4","headsign":"Terminus Chicoutimi","agencyId":"0","tripId":"1:217240","serviceDate":"20180402","from":{"name":"Place de la Colline (boul. Ste-Geneviève)","stopId":"1:706","stopCode":"706","lon":-71.080094,"lat":48.44485,"arrival":1522696818000,"departure":1522696819000,"zoneId":"NA","stopIndex":2,"stopSequence":3,"vertexType":"TRANSIT"},"to":{"name":"Église St-Luc (boul. Tadoussac)","stopId":"1:830","stopCode":"830","lon":-71.059501,"lat":48.441464,"arrival":1522697360000,"departure":1522697361000,"zoneId":"NA","stopIndex":20,"stopSequence":21,"vertexType":"TRANSIT"},"legGeometry":{"points":"{ztfH~yypLCD}@hCo@~Aq@pAs@fA{BlCqH|Iq@Bq@Im@UGCUi@Wm@ScA_@gGSaE@_@@_@@ERoBFe@No@`@gAbCyFNe@Ha@He@Fg@Du@Dg@Hc@Pa@RW\\S`@QZEm@eHM}B?GGi@Is@Ou@Qw@Mo@Kw@ImAGoBAk@aALa@?YEUKc@Yc@_@KOIUGUEWAW?YBqAH_AXeC@IdB_Mh@_EJk@d@kDhAqI`AgHz@oGBU?UAWCWUwAWD]B]AUEoAc@kE}AOIq@g@g@u@]w@b@s@T[~CkFf@s@\\e@x@}@jAeAXQZStBaAh@]`@]`@i@l@kDF_@R{AFWFMPIPC`@BT@V?TAVKLENCLCJ@J@xAb@x@Zz@\\CP?R@N@NFLFF`GtBx@Xw@pG@l@B\\DXL\\RZDFXPf@N@v@Bp@Dr@l@~HNlAH\\","length":143},"routeShortName":"23","routeLongName":"Côte Verdun via Aréna du Plateau","rentedBike":false,"transitLeg":true,"duration":541.0,"steps":[]},{"startTime":1522697361000,"endTime":1522697479000,"departureDelay":0,"arrivalDelay":0,"realTime":false,"distance":149.97699999999998,"pathway":false,"mode":"WALK","route":"","agencyTimeZoneOffset":-14400000,"interlineWithPreviousLeg":false,"from":{"name":"Église St-Luc (boul. Tadoussac)","stopId":"1:830","stopCode":"830","lon":-71.059501,"lat":48.441464,"arrival":1522697360000,"departure":1522697361000,"zoneId":"NA","stopIndex":20,"stopSequence":21,"vertexType":"TRANSIT"},"to":{"name":"Destination","lon":-71.059971,"lat":48.442106,"arrival":1522697479000,"orig":"","vertexType":"NORMAL"},"legGeometry":{"points":"yetfHrxupLL`@BJQRQRKLGNI\\QbAuAe@","length":10},"rentedBike":false,"transitLeg":false,"duration":118.0,"steps":[{"distance":19.773,"relativeDirection":"DEPART","streetName":"Boulevard de Tadoussac","absoluteDirection":"SOUTHWEST","stayOn":false,"area":false,"bogusName":false,"lon":-71.05945543369864,"lat":48.44141337892131,"elevation":[]},{"distance":80.529,"relativeDirection":"RIGHT","streetName":"Rue Talon","absoluteDirection":"NORTHWEST","stayOn":false,"area":false,"bogusName":false,"lon":-71.0596842,"lat":48.441320700000006,"elevation":[]},{"distance":49.675,"relativeDirection":"RIGHT","streetName":"Rue du Régent","absoluteDirection":"NORTH","stayOn":false,"area":false,"bogusName":false,"lon":-71.0605235,"lat":48.441746900000005,"elevation":[]}]}],"tooSloped":false},{"duration":866,"startTime":1522698593000,"endTime":1522699459000,"walkTime":280,"transitTime":584,"waitingTime":2,"walkDistance":353.39802255287316,"walkLimitExceeded":false,"elevationLost":0.0,"elevationGained":0.0,"transfers":0,"legs":[{"startTime":1522698593000,"endTime":1522698755000,"departureDelay":0,"arrivalDelay":0,"realTime":false,"distance":203.312,"pathway":false,"mode":"WALK","route":"","agencyTimeZoneOffset":-14400000,"interlineWithPreviousLeg":false,"from":{"name":"Origin","lon":-71.080494,"lat":48.444119,"departure":1522698593000,"orig":"","vertexType":"NORMAL"},"to":{"name":"Place de la Colline (boul. Ste-Geneviève)","stopId":"1:706","stopCode":"706","lon":-71.080094,"lat":48.44485,"arrival":1522698755000,"departure":1522698756000,"zoneId":"NA","stopIndex":2,"stopSequence":3,"vertexType":"TRANSIT"},"legGeometry":{"points":"wytfHjyypLlAiEQSeBjF","length":4},"rentedBike":false,"transitLeg":false,"duration":162.0,"steps":[{"distance":86.223,"relativeDirection":"DEPART","streetName":"Boulevard Sainte-Geneviève","absoluteDirection":"SOUTHEAST","stayOn":false,"area":false,"bogusName":false,"lon":-71.08005452675857,"lat":48.4446094224144,"elevation":[]},{"distance":117.089,"relativeDirection":"UTURN_LEFT","streetName":"Boulevard Sainte-Geneviève","absoluteDirection":"NORTHWEST","stayOn":true,"area":false,"bogusName":false,"lon":-71.07894370000001,"lat":48.444307900000005,"elevation":[]}]},{"startTime":1522698756000,"endTime":1522699340000,"departureDelay":0,"arrivalDelay":0,"realTime":false,"distance":4077.9639856855765,"pathway":false,"mode":"BUS","route":"23","agencyName":"Société de Transport du Saguenay","agencyUrl":"http://ville.saguenay.ca/fr/services-aux-citoyens/transport-sts","agencyTimeZoneOffset":-14400000,"routeColor":"FF00FF","routeType":3,"routeId":"1:23","routeTextColor":"FFFFFF","interlineWithPreviousLeg":false,"tripBlockId":"5","headsign":"Terminus Chicoutimi","agencyId":"0","tripId":"1:217268","serviceDate":"20180402","from":{"name":"Place de la Colline (boul. Ste-Geneviève)","stopId":"1:706","stopCode":"706","lon":-71.080094,"lat":48.44485,"arrival":1522698755000,"departure":1522698756000,"zoneId":"NA","stopIndex":2,"stopSequence":3,"vertexType":"TRANSIT"},"to":{"name":"Église St-Luc (boul. Tadoussac)","stopId":"1:830","stopCode":"830","lon":-71.059501,"lat":48.441464,"arrival":1522699340000,"departure":1522699341000,"zoneId":"NA","stopIndex":20,"stopSequence":21,"vertexType":"TRANSIT"},"legGeometry":{"points":"{ztfH~yypLCD}@hCo@~Aq@pAs@fA{BlCqH|Iq@Bq@Im@UGCUi@Wm@ScA_@gGSaE@_@@_@@ERoBFe@No@`@gAbCyFNe@Ha@He@Fg@Du@Dg@Hc@Pa@RW\\S`@QZEm@eHM}B?GGi@Is@Ou@Qw@Mo@Kw@ImAGoBAk@aALa@?YEUKc@Yc@_@KOIUGUEWAW?YBqAH_AXeC@IdB_Mh@_EJk@d@kDhAqI`AgHz@oGBU?UAWCWUwAWD]B]AUEoAc@kE}AOIq@g@g@u@]w@b@s@T[~CkFf@s@\\e@x@}@jAeAXQZStBaAh@]`@]`@i@l@kDF_@R{AFWFMPIPC`@BT@V?TAVKLENCLCJ@J@xAb@x@Zz@\\CP?R@N@NFLFF`GtBx@Xw@pG@l@B\\DXL\\RZDFXPf@N@v@Bp@Dr@l@~HNlAH\\","length":143},"routeShortName":"23","routeLongName":"Côte Verdun via Aréna du Plateau","rentedBike":false,"transitLeg":true,"duration":584.0,"steps":[]},{"startTime":1522699341000,"endTime":1522699459000,"departureDelay":0,"arrivalDelay":0,"realTime":false,"distance":149.97699999999998,"pathway":false,"mode":"WALK","route":"","agencyTimeZoneOffset":-14400000,"interlineWithPreviousLeg":false,"from":{"name":"Église St-Luc (boul. Tadoussac)","stopId":"1:830","stopCode":"830","lon":-71.059501,"lat":48.441464,"arrival":1522699340000,"departure":1522699341000,"zoneId":"NA","stopIndex":20,"stopSequence":21,"vertexType":"TRANSIT"},"to":{"name":"Destination","lon":-71.059971,"lat":48.442106,"arrival":1522699459000,"orig":"","vertexType":"NORMAL"},"legGeometry":{"points":"yetfHrxupLL`@BJQRQRKLGNI\\QbAuAe@","length":10},"rentedBike":false,"transitLeg":false,"duration":118.0,"steps":[{"distance":19.773,"relativeDirection":"DEPART","streetName":"Boulevard de Tadoussac","absoluteDirection":"SOUTHWEST","stayOn":false,"area":false,"bogusName":false,"lon":-71.05945543369864,"lat":48.44141337892131,"elevation":[]},{"distance":80.529,"relativeDirection":"RIGHT","streetName":"Rue Talon","absoluteDirection":"NORTHWEST","stayOn":false,"area":false,"bogusName":false,"lon":-71.0596842,"lat":48.441320700000006,"elevation":[]},{"distance":49.675,"relativeDirection":"RIGHT","streetName":"Rue du Régent","absoluteDirection":"NORTH","stayOn":false,"area":false,"bogusName":false,"lon":-71.0605235,"lat":48.441746900000005,"elevation":[]}]}],"tooSloped":false}]},"debugOutput":{"precalculationTime":22,"pathCalculationTime":26,"pathTimes":[16,5,5],"renderingTime":1,"totalTime":49,"timedOut":false},"elevationMetadata":{"ellipsoidToGeoidDifference":-28.885904201182168,"geoidElevation":false}}