{"requestParameters":{"date":"2018/04/02","walkSpeed":"1.33","walkReluctance":"2.0","fromPlace":"48.446604,-71.044602","maxWalkDistance":"3000","waitReluctance":"1.0","carSpeed":"33","numItineraries":"3","waitAtBeginningFactor":"0.4","mode":"TRANSIT,WALK","ignoreRealtimeUpdates":"false","stairsReluctance":"2.0","toPlace":"48.418729,-71.053021","time":"6:45:00"},"plan":{"date":1522665900000,"from":{"name":"Origin","lon":-71.044602,"lat":48.446604,"orig":"","vertexType":"NORMAL"},"to":{"name":"Destination","lon":-71.053021,"lat":48.418729,"orig":"","vertexType":"NORMAL"},"itineraries":[{"duration":1753,"startTime":1522666645000,"endTime":1522668398000,"walkTime":575,"transitTime":936,"waitingTime":242,"walkDistance":733.7633007496115,"walkLimitExceeded":false,"elevationLost":0.0,"elevationGained":0.0,"transfers":1,"legs":[{"startTime":1522666645000,"endTime":1522666943000,"departureDelay":0,"arrivalDelay":0,"realTime":false,"distance":385.17400000000004,"pathway":false,"mode":"WALK","route":"","agencyTimeZoneOffset":-14400000,"interlineWithPreviousLeg":false,"from":{"name":"Origin","lon":-71.044602,"lat":48.446604,"departure":1522666645000,"orig":"","vertexType":"NORMAL"},"to":{"name":"St-Émile / boul. Tadoussac","stopId":"1:828","stopCode":"828","lon":-71.046279,"lat":48.44333,"arrival":1522666943000,"departure":1522666944000,"zoneId":"NA","stopIndex":26,"stopSequence":27,"vertexType":"TRANSIT"},"legGeometry":{"points":"qfufHh}rpLPFxAj@z@Z`@NrAj@rHpCbAV","length":8},"rentedBike":false,"transitLeg":false,"duration":298.0,"steps":[{"distance":385.17400000000004,"relativeDirection":"DEPART","streetName":"Rue Saint-Émile","absoluteDirection":"SOUTH","stayOn":false,"area":false,"bogusName":false,"lon":-71.0448467918134,"lat":48.44665627111537,"elevation":[]}]},{"startTime":1522666944000,"endTime":1522667460000,"departureDelay":0,"arrivalDelay":0,"realTime":false,"distance":3215.2466636012887,"pathway":false,"mode":"BUS","route":"24","agencyName":"Société de Transport du Saguenay","agencyUrl":"http://ville.saguenay.ca/fr/services-aux-citoyens/transport-sts","agencyTimeZoneOffset":-14400000,"routeColor":"00FF00","routeType":3,"routeId":"1:24","routeTextColor":"000000","interlineWithPreviousLeg":false,"tripBlockId":"4","headsign":"Terminus Chicoutimi","agencyId":"0","tripId":"1:217223","serviceDate":"20180402","from":{"name":"St-Émile / boul. Tadoussac","stopId":"1:828","stopCode":"828","lon":-71.046279,"lat":48.44333,"arrival":1522666943000,"departure":1522666944000,"zoneId":"NA","stopIndex":26,"stopSequence":27,"vertexType":"TRANSIT"},"to":{"name":"Terminus Chicoutimi","stopId":"1:1289","stopCode":"1289","lon":-71.066163,"lat":48.428677,"arrival":1522667460000,"departure":1522667700000,"zoneId":"NA","stopIndex":35,"stopSequence":36,"vertexType":"TRANSIT"},"legGeometry":{"points":"}qtfH`gspL_A]VvC\\`Ch@rCj@tBf@bBxDxJN\\bAjCTnAHvA@|@CPIpAe@pDUfBCTEXK~@MxAEn@@v@Bp@Dr@l@~HNlAH\\@HLd@\\z@Xd@X\\RTXRr@Zn@PfExAvDpALnBJt@Pp@Nj@l@tBHZPn@`@rBNnAFr@DbA?bB@jABzA?p@A???A???A?A???A@??A?A@??A@?@A??@A@???@A@?@?@A@?@?@?@?@???@?@?@?@?@?@@@?@?@@@?@@@?@@@?@@?@@??@@@?E`@Kr@]rACVEl@I|AAr@JbAWJe@FUAM?a@Ke@YYWWa@v@}@RQPMz@k@tAe@REZG^Af@@X@VF`@Jn@XbClAr@Xt\\`PrAb@pA^hBTjAFj@Pb@JPHLLJNJRFXDT?X?ZEVEVKTMNMHMFOB}DWSGOSYcAN}FFkAF}DJyDPwGvAHN_HDiB@m@","length":168},"routeShortName":"24","routeLongName":"Saint-Luc","rentedBike":false,"transitLeg":true,"duration":516.0,"steps":[]},{"startTime":1522667700000,"endTime":1522668120000,"departureDelay":0,"arrivalDelay":0,"realTime":false,"distance":1625.306231263697,"pathway":false,"mode":"BUS","route":"15","agencyName":"Société de Transport du Saguenay","agencyUrl":"http://ville.saguenay.ca/fr/services-aux-citoyens/transport-sts","agencyTimeZoneOffset":-14400000,"routeColor":"FF00FF","routeType":3,"routeId":"1:15","routeTextColor":"FFFFFF","interlineWithPreviousLeg":false,"tripBlockId":"33","headsign":"Talbot / Barrette","agencyId":"0","tripId":"1:218173","serviceDate":"20180402","from":{"name":"Terminus Chicoutimi","stopId":"1:1289","stopCode":"1289","lon":-71.066163,"lat":48.428677,"arrival":1522667460000,"departure":1522667700000,"zoneId":"NA","stopIndex":0,"stopSequence":1,"vertexType":"TRANSIT"},"to":{"name":"Terminus UQAC","stopId":"1:1670","stopCode":"1670","lon":-71.053369,"lat":48.420903,"arrival":1522668120000,"departure":1522668121000,"zoneId":"NA","stopIndex":7,"stopSequence":8,"vertexType":"TRANSIT"},"legGeometry":{"points":"evqfHpbwpLPiCjKx@HiEZkS\\aSN_K^eIrBpBvIpIr@r@\\mBfAaA`@gBOkB_@uF|DyL|DpDQ|@|@z@","length":20},"routeShortName":"15","routeLongName":"Term. Chic / Costco","rentedBike":false,"transitLeg":true,"duration":420.0,"steps":[]},{"startTime":1522668121000,"endTime":1522668398000,"departureDelay":0,"arrivalDelay":0,"realTime":false,"distance":348.51900000000006,"pathway":false,"mode":"WALK","route":"","agencyTimeZoneOffset":-14400000,"interlineWithPreviousLeg":false,"from":{"name":"Terminus UQAC","stopId":"1:1670","stopCode":"1670","lon":-71.053369,"lat":48.420903,"arrival":1522668120000,"departure":1522668121000,"zoneId":"NA","stopIndex":7,"stopSequence":8,"vertexType":"TRANSIT"},"to":{"name":"Destination","lon":-71.053021,"lat":48.418729,"arrival":1522668398000,"orig":"","vertexType":"NORMAL"},"legGeometry":{"points":"sepfHrrtpLbA`ATq@f@wAd@wATs@X{@p@Y~@`AB@vBtB","length":11},"rentedBike":false,"transitLeg":false,"duration":277.0,"steps":[{"distance":269.46700000000004,"relativeDirection":"DEPART","streetName":"service road","absoluteDirection":"SOUTHWEST","stayOn":false,"area":false,"bogusName":true,"lon":-71.0533724395415,"lat":48.420904465432976,"elevation":[]},{"distance":79.052,"relativeDirection":"CONTINUE","streetName":"path","absoluteDirection":"SOUTHWEST","stayOn":false,"area":false,"bogusName":false,"lon":-71.05222810000001,"lat":48.41923430000001,"elevation":[]}]}],"tooSloped":false},{"duration":2448,"startTime":1522665950000,"endTime":1522668398000,"walkTime":956,"transitTime":890,"waitingTime":602,"walkDistance":1222.2747368358216,"walkLimitExceeded":false,"elevationLost":0.0,"elevationGained":0.0,"transfers":1,"legs":[{"startTime":1522665950000,"endTime":1522666629000,"departureDelay":0,"arrivalDelay":0,"realTime":false,"distance":873.561,"pathway":false,"mode":"WALK","route":"","agencyTimeZoneOffset":-14400000,"interlineWithPreviousLeg":false,"from":{"name":"Origin","lon":-71.044602,"lat":48.446604,"departure":1522665950000,"orig":"","vertexType":"NORMAL"},"to":{"name":"Verdun / St-Éloi","stopId":"1:794","stopCode":"794","lon":-71.053519,"lat":48.446152,"arrival":1522666629000,"departure":1522666630000,"zoneId":"NA","stopIndex":16,"stopSequence":17,"vertexType":"TRANSIT"},"legGeometry":{"points":"qfufHh}rpLmBs@q@dEMr@Mn@CVEXAN?P^zFBJDTJZFRJRjAvBH^?VELoAlBr@rAHLFHHBD@H@L@J?RABJHJH?vBhEa@bEBj@EBEJCTE^Gf@CXEX","length":42},"rentedBike":false,"transitLeg":false,"duration":679.0,"steps":[{"distance":63.807,"relativeDirection":"DEPART","streetName":"Rue Saint-Émile","absoluteDirection":"NORTH","stayOn":false,"area":false,"bogusName":false,"lon":-71.0448467918134,"lat":48.44665627111537,"elevation":[]},{"distance":438.597,"relativeDirection":"LEFT","streetName":"Rue Brûlé","absoluteDirection":"WEST","stayOn":false,"area":false,"bogusName":false,"lon":-71.04458170000001,"lat":48.4472025,"elevation":[]},{"distance":114.16,"relativeDirection":"LEFT","streetName":"Rue Pierre-De La Vérendrye","absoluteDirection":"SOUTHWEST","stayOn":false,"area":false,"bogusName":false,"lon":-71.0497625,"lat":48.4472803,"elevation":[]},{"distance":191.388,"relativeDirection":"SLIGHTLY_RIGHT","streetName":"path","absoluteDirection":"SOUTHWEST","stayOn":false,"area":false,"bogusName":true,"lon":-71.05046250000001,"lat":48.4464551,"elevation":[]},{"distance":65.60900000000001,"relativeDirection":"SLIGHTLY_RIGHT","streetName":"Rue de Verdun","absoluteDirection":"NORTHWEST","stayOn":false,"area":false,"bogusName":false,"lon":-71.05267160000001,"lat":48.446006600000004,"elevation":[]}]},{"startTime":1522666630000,"endTime":1522667100000,"departureDelay":0,"arrivalDelay":0,"realTime":false,"distance":3054.7698287012436,"pathway":false,"mode":"BUS","route":"23","agencyName":"Société de Transport du Saguenay","agencyUrl":"http://ville.saguenay.ca/fr/services-aux-citoyens/transport-sts","agencyTimeZoneOffset":-14400000,"routeColor":"FF00FF","routeType":3,"routeId":"1:23","routeTextColor":"FFFFFF","interlineWithPreviousLeg":false,"tripBlockId":"5","headsign":"Terminus Chicoutimi","agencyId":"0","tripId":"1:217250","serviceDate":"20180402","from":{"name":"Verdun / St-Éloi","stopId":"1:794","stopCode":"794","lon":-71.053519,"lat":48.446152,"arrival":1522666629000,"departure":1522666630000,"zoneId":"NA","stopIndex":16,"stopSequence":17,"vertexType":"TRANSIT"},"to":{"name":"Terminus Chicoutimi","stopId":"1:1289","stopCode":"1289","lon":-71.066163,"lat":48.428677,"arrival":1522667100000,"departure":1522667700000,"zoneId":"NA","stopIndex":26,"stopSequence":27,"vertexType":"TRANSIT"},"legGeometry":{"points":"ycufHhstpLF_@R{AFWFMPIPC`@BT@V?TAVKLENCLCJ@J@xAb@x@Zz@\\CP?R@N@NFLFF`GtBx@Xw@pG@l@B\\DXL\\RZDFXPf@N@v@Bp@Dr@l@~HNlAH\\@HLd@\\z@Xd@X\\RTXRr@Zn@PfExAvDpALnBJt@Pp@|@`DHZPn@`@rBNnAFr@DbA?bB@jABzA?p@A???A???A?A???A@??A?A@??A@?@A??@A@???@A@?@?@A@?@?@?@?@???@?@?@?@?@?@@@?@?@@@?@@@?@@@?@@?@@??@@@?E`@Kr@]rACVEl@I|AAr@JbAWJe@FUAM?a@Ke@YYWWa@v@}@RQPMz@k@tAe@REZG^Af@@X@VF`@Jn@XbClAr@Xt\\`PrAb@pA^hBTjAFj@Pb@JPHLLJNJRFXDT?X?ZEVEVKTMNMHMFOB}DWSGOSYcAN}FFkAF}DJyDd@wPV_HjAN~ALI`C","length":182},"routeShortName":"23","routeLongName":"Côte Verdun via Aréna du Plateau","rentedBike":false,"transitLeg":true,"duration":470.0,"steps":[]},{"startTime":1522667700000,"endTime":1522668120000,"departureDelay":0,"arrivalDelay":0,"realTime":false,"distance":1729.6772383837415,"pathway":false,"mode":"BUS","route":"14","agencyName":"Société de Transport du Saguenay","agencyUrl":"http://ville.saguenay.ca/fr/services-aux-citoyens/transport-sts","agencyTimeZoneOffset":-14400000,"routeColor":"C0C000","routeType":3,"routeId":"1:14","routeTextColor":"000000","interlineWithPreviousLeg":false,"tripBlockId":"32","headsign":"Talbot / Barrette","agencyId":"0","tripId":"1:218148","serviceDate":"20180402","from":{"name":"Terminus Chicoutimi","stopId":"1:1289","stopCode":"1289","lon":-71.066163,"lat":48.428677,"arrival":1522667100000,"departure":1522667700000,"zoneId":"NA","stopIndex":0,"stopSequence":1,"vertexType":"TRANSIT"},"to":{"name":"Terminus UQAC","stopId":"1:1670","stopCode":"1670","lon":-71.053369,"lat":48.420903,"arrival":1522668120000,"departure":1522668121000,"zoneId":"NA","stopIndex":8,"stopSequence":9,"vertexType":"TRANSIT"},"legGeometry":{"points":"qvqfHnbwpLJkClLh@DsDTmSHwFB{I@m@@eBH_AF}A@w@Dq@@i@B}B@Y@e@D]F_@@SHQCKnBnBvIrIn@n@\\iATg@v@_ATg@LmABg@Is@c@iEAm@bAcDTcAtA{DJI|AxAvAvAQv@~@z@","length":42},"routeShortName":"14","routeLongName":"Coopérative","rentedBike":false,"transitLeg":true,"duration":420.0,"steps":[]},{"startTime":1522668121000,"endTime":1522668398000,"departureDelay":0,"arrivalDelay":0,"realTime":false,"distance":348.51900000000006,"pathway":false,"mode":"WALK","route":"","agencyTimeZoneOffset":-14400000,"interlineWithPreviousLeg":false,"from":{"name":"Terminus UQAC","stopId":"1:1670","stopCode":"1670","lon":-71.053369,"lat":48.420903,"arrival":1522668120000,"departure":1522668121000,"zoneId":"NA","stopIndex":8,"stopSequence":9,"vertexType":"TRANSIT"},"to":{"name":"Destination","lon":-71.053021,"lat":48.418729,"arrival":1522668398000,"orig":"","vertexType":"NORMAL"},"legGeometry":{"points":"sepfHrrtpLbA`ATq@f@wAd@wATs@X{@p@Y~@`AB@vBtB","length":11},"rentedBike":false,"transitLeg":false,"duration":277.0,"steps":[{"distance":269.46700000000004,"relativeDirection":"DEPART","streetName":"service road","absoluteDirection":"SOUTHWEST","stayOn":false,"area":false,"bogusName":true,"lon":-71.0533724395415,"lat":48.420904465432976,"elevation":[]},{"distance":79.052,"relativeDirection":"CONTINUE","streetName":"path","absoluteDirection":"SOUTHWEST","stayOn":false,"area":false,"bogusName":false,"lon":-71.05222810000001,"lat":48.41923430000001,"elevation":[]}]}],"tooSloped":false},{"duration":1658,"startTime":1522668325000,"endTime":1522669983000,"walkTime":360,"transitTime":1056,"waitingTime":242,"walkDistance":466.5070075187,"walkLimitExceeded":false,"elevationLost":0.0,"elevationGained":0.0,"transfers":1,"legs":[{"startTime":1522668325000,"endTime":1522668623000,"departureDelay":0,"arrivalDelay":0,"realTime":false,"distance":385.17400000000004,"pathway":false,"mode":"WALK","route":"","agencyTimeZoneOffset":-14400000,"interlineWithPreviousLeg":false,"from":{"name":"Origin","lon":-71.044602,"lat":48.446604,"departure":1522668325000,"orig":"","vertexType":"NORMAL"},"to":{"name":"St-Émile / boul. Tadoussac","stopId":"1:828","stopCode":"828","lon":-71.046279,"lat":48.44333,"arrival":1522668623000,"departure":1522668624000,"zoneId":"NA","stopIndex":26,"stopSequence":27,"vertexType":"TRANSIT"},"legGeometry":{"points":"qfufHh}rpLPFxAj@z@Z`@NrAj@rHpCbAV","length":8},"rentedBike":false,"transitLeg":false,"duration":298.0,"steps":[{"distance":385.17400000000004,"relativeDirection":"DEPART","streetName":"Rue Saint-Émile","absoluteDirection":"SOUTH","stayOn":false,"area":false,"bogusName":false,"lon":-71.0448467918134,"lat":48.44665627111537,"elevation":[]}]},{"startTime":1522668624000,"endTime":1522669260000,"departureDelay":0,"arrivalDelay":0,"realTime":false,"distance":3215.2466636012887,"pathway":false,"mode":"BUS","route":"24","agencyName":"Société de Transport du Saguenay","agencyUrl":"http://ville.saguenay.ca/fr/services-aux-citoyens/transport-sts","agencyTimeZoneOffset":-14400000,"routeColor":"00FF00","routeType":3,"routeId":"1:24","routeTextColor":"000000","interlineWithPreviousLeg":false,"tripBlockId":"5","headsign":"Terminus Chicoutimi","agencyId":"0","tripId":"1:217251","serviceDate":"20180402","from":{"name":"St-Émile / boul. Tadoussac","stopId":"1:828","stopCode":"828","lon":-71.046279,"lat":48.44333,"arrival":1522668623000,"departure":1522668624000,"zoneId":"NA","stopIndex":26,"stopSequence":27,"vertexType":"TRANSIT"},"to":{"name":"Terminus Chicoutimi","stopId":"1:1289","stopCode":"1289","lon":-71.066163,"lat":48.428677,"arrival":1522669260000,"departure":1522669500000,"zoneId":"NA","stopIndex":35,"stopSequence":36,"vertexType":"TRANSIT"},"legGeometry":{"points":"}qtfH`gspL_A]VvC\\`Ch@rCj@tBf@bBxDxJN\\bAjCTnAHvA@|@CPIpAe@pDUfBCTEXK~@MxAEn@@v@Bp@Dr@l@~HNlAH\\@HLd@\\z@Xd@X\\RTXRr@Zn@PfExAvDpALnBJt@Pp@Nj@l@tBHZPn@`@rBNnAFr@DbA?bB@jABzA?p@A???A???A?A???A@??A?A@??A@?@A??@A@???@A@?@?@A@?@?@?@?@???@?@?@?@?@?@@@?@?@@@?@@@?@@@?@@?@@??@@@?E`@Kr@]rACVEl@I|AAr@JbAWJe@FUAM?a@Ke@YYWWa@v@}@RQPMz@k@tAe@REZG^Af@@X@VF`@Jn@XbClAr@Xt\\`PrAb@pA^hBTjAFj@Pb@JPHLLJNJRFXDT?X?ZEVEVKTMNMHMFOB}DWSGOSYcAN}FFkAF}DJyDPwGvAHN_HDiB@m@","length":168},"routeShortName":"24","routeLongName":"Saint-Luc","rentedBike":false,"transitLeg":true,"duration":636.0,"steps":[]},{"startTime":1522669500000,"endTime":1522669920000,"departureDelay":0,"arrivalDelay":0,"realTime":false,"distance":1786.9362989351841,"pathway":false,"mode":"BUS","route":"24S","agencyName":"Société de Transport du Saguenay","agencyUrl":"http://ville.saguenay.ca/fr/services-aux-citoyens/transport-sts","agencyTimeZoneOffset":-14400000,"routeColor":"8B0000","routeType":3,"routeId":"1:24S","routeTextColor":"FFFFFF","interlineWithPreviousLeg":false,"tripBlockId":"49","headsign":"UQAC","agencyId":"0","tripId":"1:218409","serviceDate":"20180402","from":{"name":"Terminus Chicoutimi","stopId":"1:1289","stopCode":"1289","lon":-71.066163,"lat":48.428677,"arrival":1522669260000,"departure":1522669500000,"zoneId":"NA","stopIndex":0,"stopSequence":1,"vertexType":"TRANSIT"},"to":{"name":"Université du Québec à Chicoutimi","stopId":"1:1927","stopCode":"1927","lon":-71.052171,"lat":48.419234,"arrival":1522669920000,"departure":1522669921000,"zoneId":"NA","stopIndex":7,"stopSequence":8,"vertexType":"TRANSIT"},"legGeometry":{"points":"uvqfHnbwpLDoChBPd@P~G`@DoC@m@@M?A?KHmEJgEDmC@yA?ABuC@wBFcDHoEBuAV_OToBlBnB@@zApBTNn@v@fA|@pCnC\\y@\\{@z@aARg@NoA@a@Ge@AQAMc@_E?i@dAeDN{@n@gBh@yALG|@t@\\`@@@tAxAp@uBlByFjChCtAvA","length":53},"routeShortName":"24S","routeLongName":"UQAC via Bégin","rentedBike":false,"transitLeg":true,"duration":420.0,"steps":[]},{"startTime":1522669921000,"endTime":1522669983000,"departureDelay":0,"arrivalDelay":0,"realTime":false,"distance":81.33000000000001,"pathway":false,"mode":"WALK","route":"","agencyTimeZoneOffset":-14400000,"interlineWithPreviousLeg":false,"from":{"name":"Université du Québec à Chicoutimi","stopId":"1:1927","stopCode":"1927","lon":-71.052171,"lat":48.419234,"arrival":1522669920000,"departure":1522669921000,"zoneId":"NA","stopIndex":7,"stopSequence":8,"vertexType":"TRANSIT"},"to":{"name":"Destination","lon":-71.053021,"lat":48.418729,"arrival":1522669983000,"orig":"","vertexType":"NORMAL"},"legGeometry":{"points":"i{ofHjktpLB@vBtB","length":3},"rentedBike":false,"transitLeg":false,"duration":62.0,"steps":[{"distance":81.33000000000001,"relativeDirection":"DEPART","streetName":"path","absoluteDirection":"SOUTHWEST","stayOn":false,"area":false,"bogusName":true,"lon":-71.05221121256777,"lat":48.419251445558785,"elevation":[]}]}],"tooSloped":false}]},"debugOutput":{"precalculationTime":33,"pathCalculationTime":28,"pathTimes":[20,4,4],"renderingTime":0,"totalTime":61,"timedOut":false},"elevationMetadata":{"ellipsoidToGeoidDifference":-28.885904201182168,"geoidElevation":false}}