{"requestParameters":{"date":"2018/04/02","walkSpeed":"1.33","walkReluctance":"2.0","fromPlace":"48.439505,-71.049014","maxWalkDistance":"3000","waitReluctance":"1.0","carSpeed":"33","numItineraries":"3","waitAtBeginningFactor":"0.4","mode":"TRANSIT,WALK","ignoreRealtimeUpdates":"false","stairsReluctance":"2.0","toPlace":"48.421289,-71.040075","time":"7:15:00"},"plan":{"date":1522667700000,"from":{"name":"Origin","lon":-71.049014,"lat":48.439505,"orig":"","vertexType":"NORMAL"},"to":{"name":"Destination","lon":-71.040075,"lat":48.421289,"orig":"","vertexType":"NORMAL"},"itineraries":[{"duration":1946,"startTime":1522668430000,"endTime":1522670376000,"walkTime":398,"transitTime":1306,"waitingTime":242,"walkDistance":501.34696992036015,"walkLimitExceeded":false,"elevationLost":0.0,"elevationGained":0.0,"transfers":1,"legs":[{"startTime":1522668430000,"endTime":1522668542000,"departureDelay":0,"arrivalDelay":0,"realTime":false,"distance":138.259,"pathway":false,"mode":"WALK","route":"","agencyTimeZoneOffset":-14400000,"interlineWithPreviousLeg":false,"from":{"name":"Origin","lon":-71.049014,"lat":48.439505,"departure":1522668430000,"orig":"","vertexType":"NORMAL"},"to":{"name":"Parc Saint-François (St-Émile)","stopId":"1:825","stopCode":"825","lon":-71.048453,"lat":48.438658,"arrival":1522668542000,"departure":1522668543000,"zoneId":"NA","stopIndex":23,"stopSequence":24,"vertexType":"TRANSIT"},"legGeometry":{"points":"_zsfH`yspL~APF?J?HALM^qCCA","length":8},"rentedBike":false,"transitLeg":false,"duration":112.0,"steps":[{"distance":136.527,"relativeDirection":"DEPART","streetName":"Rue du Beaujolais","absoluteDirection":"SOUTH","stayOn":false,"area":false,"bogusName":false,"lon":-71.04928467485311,"lat":48.43952760258578,"elevation":[]},{"distance":1.732,"relativeDirection":"LEFT","streetName":"Rue Saint-Émile","absoluteDirection":"NORTH","stayOn":false,"area":false,"bogusName":false,"lon":-71.0485659,"lat":48.438665300000004,"elevation":[]}]},{"startTime":1522668543000,"endTime":1522669260000,"departureDelay":0,"arrivalDelay":0,"realTime":false,"distance":3759.009216733427,"pathway":false,"mode":"BUS","route":"24","agencyName":"Société de Transport du Saguenay","agencyUrl":"http://ville.saguenay.ca/fr/services-aux-citoyens/transport-sts","agencyTimeZoneOffset":-14400000,"routeColor":"00FF00","routeType":3,"routeId":"1:24","routeTextColor":"000000","interlineWithPreviousLeg":false,"tripBlockId":"5","headsign":"Terminus Chicoutimi","agencyId":"0","tripId":"1:217251","serviceDate":"20180402","from":{"name":"Parc Saint-François (St-Émile)","stopId":"1:825","stopCode":"825","lon":-71.048453,"lat":48.438658,"arrival":1522668542000,"departure":1522668543000,"zoneId":"NA","stopIndex":23,"stopSequence":24,"vertexType":"TRANSIT"},"to":{"name":"Terminus Chicoutimi","stopId":"1:1289","stopCode":"1289","lon":-71.066163,"lat":48.428677,"arrival":1522669260000,"departure":1522669500000,"zoneId":"NA","stopIndex":35,"stopSequence":36,"vertexType":"TRANSIT"},"legGeometry":{"points":"ytsfH|tspLmG_CaHiCsJqD_A]VvC\\`Ch@rCj@tBf@bBxDxJN\\bAjCTnAHvA@|@CPIpAe@pDUfBCTEXK~@MxAEn@@v@Bp@Dr@l@~HNlAH\\@HLd@\\z@Xd@X\\RTXRr@Zn@PfExAvDpALnBJt@Pp@Nj@l@tBHZPn@`@rBNnAFr@DbA?bB@jABzA?p@A???A???A?A???A@??A?A@??A@?@A??@A@???@A@?@?@A@?@?@?@?@???@?@?@?@?@?@@@?@?@@@?@@@?@@@?@@?@@??@@@?E`@Kr@]rACVEl@I|AAr@JbAWJe@FUAM?a@Ke@YYWWa@v@}@RQPMz@k@tAe@REZG^Af@@X@VF`@Jn@XbClAr@Xt\\`PrAb@pA^hBTjAFj@Pb@JPHLLJNJRFXDT?X?ZEVEVKTMNMHMFOB}DWSGOSYcAN}FFkAF}DJyDPwGvAHN_HDiB@m@","length":171},"routeShortName":"24","routeLongName":"Saint-Luc","rentedBike":false,"transitLeg":true,"duration":717.0,"steps":[]},{"startTime":1522669500000,"endTime":1522670089000,"departureDelay":0,"arrivalDelay":0,"realTime":false,"distance":2704.712362975673,"pathway":false,"mode":"BUS","route":"10","agencyName":"Société de Transport du Saguenay","agencyUrl":"http://ville.saguenay.ca/fr/services-aux-citoyens/transport-sts","agencyTimeZoneOffset":-14400000,"routeColor":"0000FF","routeType":3,"routeId":"1:10","routeTextColor":"FFFFFF","interlineWithPreviousLeg":false,"tripBlockId":"26","headsign":"Terminus UQAC","agencyId":"0","tripId":"1:217966","serviceDate":"20180402","from":{"name":"Terminus Chicoutimi","stopId":"1:1289","stopCode":"1289","lon":-71.066163,"lat":48.428677,"arrival":1522669260000,"departure":1522669500000,"zoneId":"NA","stopIndex":0,"stopSequence":1,"vertexType":"TRANSIT"},"to":{"name":"Complexe Sagamie","stopId":"1:1565","stopCode":"1565","lon":-71.039089,"lat":48.423475,"arrival":1522670089000,"departure":1522670090000,"zoneId":"NA","stopIndex":11,"stopSequence":12,"vertexType":"TRANSIT"},"legGeometry":{"points":"svqfHnbwpLDmCdDZ\\kO`@mQBuCD}DQ_ECk@^Cd@QWkL?m@IuF@gA?eH?cAEuEDO^AjD`@B@rEf@T_FjBXpDd@hCObDaCfCaHbFqN`CwG_J_CwMiDGe@T}C\\yELaCJeA","length":38},"routeShortName":"10","routeLongName":"Notre-Dame du Saguenay","rentedBike":false,"transitLeg":true,"duration":589.0,"steps":[]},{"startTime":1522670090000,"endTime":1522670376000,"departureDelay":0,"arrivalDelay":0,"realTime":false,"distance":362.95,"pathway":false,"mode":"WALK","route":"","agencyTimeZoneOffset":-14400000,"interlineWithPreviousLeg":false,"from":{"name":"Complexe Sagamie","stopId":"1:1565","stopCode":"1565","lon":-71.039089,"lat":48.423475,"arrival":1522670089000,"departure":1522670090000,"zoneId":"NA","stopIndex":11,"stopSequence":12,"vertexType":"TRANSIT"},"to":{"name":"Destination","lon":-71.040075,"lat":48.421289,"arrival":1522670376000,"orig":"","vertexType":"NORMAL"},"legGeometry":{"points":"gupfHnyqpL@M@QB@^HPDXFTFv@@lAAt@Df@JRDH@Ol@YjAIfATx@d@XRJH@F@","length":22},"rentedBike":false,"transitLeg":false,"duration":286.0,"steps":[{"distance":362.95,"relativeDirection":"DEPART","streetName":"service road","absoluteDirection":"EAST","stayOn":false,"area":false,"bogusName":true,"lon":-71.03911523041273,"lat":48.423409719784964,"elevation":[]}]}],"tooSloped":false},{"duration":2171,"startTime":1522668290000,"endTime":1522670461000,"walkTime":1012,"transitTime":857,"waitingTime":302,"walkDistance":1278.9432781854443,"walkLimitExceeded":false,"elevationLost":0.0,"elevationGained":0.0,"transfers":1,"legs":[{"startTime":1522668290000,"endTime":1522668705000,"departureDelay":0,"arrivalDelay":0,"realTime":false,"distance":526.5079999999999,"pathway":false,"mode":"WALK","route":"","agencyTimeZoneOffset":-14400000,"interlineWithPreviousLeg":false,"from":{"name":"Origin","lon":-71.049014,"lat":48.439505,"departure":1522668290000,"orig":"","vertexType":"NORMAL"},"to":{"name":"Tadoussac (no. 1850)","stopId":"1:829","stopCode":"829","lon":-71.051444,"lat":48.441894,"arrival":1522668705000,"departure":1522668706000,"zoneId":"NA","stopIndex":30,"stopSequence":31,"vertexType":"TRANSIT"},"legGeometry":{"points":"_zsfH`yspLyBWMAWWWY[]]Mm@UUrBNpDqDOsAzAtAjDHN","length":14},"rentedBike":false,"transitLeg":false,"duration":415.0,"steps":[{"distance":172.095,"relativeDirection":"DEPART","streetName":"Rue du Beaujolais","absoluteDirection":"NORTH","stayOn":false,"area":false,"bogusName":false,"lon":-71.04928467485311,"lat":48.43952760258578,"elevation":[]},{"distance":266.884,"relativeDirection":"LEFT","streetName":"path","absoluteDirection":"WEST","stayOn":false,"area":false,"bogusName":true,"lon":-71.0485709,"lat":48.4409676,"elevation":[]},{"distance":87.529,"relativeDirection":"LEFT","streetName":"Boulevard de Tadoussac","absoluteDirection":"SOUTHWEST","stayOn":false,"area":false,"bogusName":false,"lon":-71.0504216,"lat":48.4423022,"elevation":[]}]},{"startTime":1522668706000,"endTime":1522669200000,"departureDelay":0,"arrivalDelay":0,"realTime":false,"distance":2802.1502810992097,"pathway":false,"mode":"BUS","route":"26","agencyName":"Société de Transport du Saguenay","agencyUrl":"http://ville.saguenay.ca/fr/services-aux-citoyens/transport-sts","agencyTimeZoneOffset":-14400000,"routeColor":"00FFFF","routeType":3,"routeId":"1:26","routeTextColor":"000000","interlineWithPreviousLeg":false,"headsign":"Terminus Chicoutimi","agencyId":"0","tripId":"1:218769","serviceDate":"20180402","from":{"name":"Tadoussac (no. 1850)","stopId":"1:829","stopCode":"829","lon":-71.051444,"lat":48.441894,"arrival":1522668705000,"departure":1522668706000,"zoneId":"NA","stopIndex":30,"stopSequence":31,"vertexType":"TRANSIT"},"to":{"name":"Terminus Chicoutimi","stopId":"1:1289","stopCode":"1289","lon":-71.066163,"lat":48.428677,"arrival":1522669200000,"departure":1522669500000,"zoneId":"NA","stopIndex":38,"stopSequence":39,"vertexType":"TRANSIT"},"legGeometry":{"points":"ohtfHdftpLN\\bAjCTnAHvA@|@CPIpAS`BQnAUfBCTEXK~@MxAEn@@v@Bp@Dr@l@~HNlAH\\@HLd@\\z@Xd@X\\RTXRr@Zn@PzBv@jA`@l@RhC|@LnBJt@Pp@Nj@l@tBHZPn@`@rBNnAFr@DbA?bB@jABzA?p@A???A???A?A???A@??A?A@??A@?@A??@A@???@A@?@?@A@?@?@?@?@???@?@?@?@?@?@@@?@?@@@?@@@?@@@?@@?@@??@@@?E`@Kr@]rACVEl@I|AAr@JbAWJe@FUAM?a@Ke@YYWWa@v@}@RQPMz@k@tAe@REZG^Af@@X@VF`@Jn@XbClAr@Xt\\`PrAb@pA^hBTjAFj@Pb@JPHLLJNJRFXDT?X?ZEVEVKTMNMHMFOB}DWSGOSYcAN}FFkAF}DJyDPwGj@_QjANAn@d@D","length":164},"routeShortName":"26","routeLongName":"St-Fulgence","rentedBike":false,"transitLeg":true,"duration":494.0,"steps":[]},{"startTime":1522669500000,"endTime":1522669863000,"departureDelay":0,"arrivalDelay":0,"realTime":false,"distance":1824.8582103611247,"pathway":false,"mode":"BUS","route":"203S","agencyName":"Société de Transport du Saguenay","agencyUrl":"http://ville.saguenay.ca/fr/services-aux-citoyens/transport-sts","agencyTimeZoneOffset":-14400000,"routeColor":"8B0000","routeType":3,"routeId":"1:203S","routeTextColor":"FFFFFF","interlineWithPreviousLeg":false,"tripBlockId":"46","headsign":"Séminaire","agencyId":"0","tripId":"1:218386","serviceDate":"20180402","from":{"name":"Terminus Chicoutimi","stopId":"1:1289","stopCode":"1289","lon":-71.066163,"lat":48.428677,"arrival":1522669200000,"departure":1522669500000,"zoneId":"NA","stopIndex":0,"stopSequence":1,"vertexType":"TRANSIT"},"to":{"name":"Jacques-Cartier / de Sales","stopId":"1:344","stopCode":"344","lon":-71.043973,"lat":48.424206,"arrival":1522669863000,"departure":1522669864000,"zoneId":"NA","stopIndex":7,"stopSequence":8,"vertexType":"TRANSIT"},"legGeometry":{"points":"_vqfH``wpLe@E@o@zDX|BXfCNF}D@YRcFJgLNuNDkCHkFVoKT}@x@yCPcAFiAJeCHmBBg@ViGLsBLsB`@{ElA_Od@wFRqB","length":28},"routeShortName":"203S","routeLongName":"Séminaire - Term. Chic","rentedBike":false,"transitLeg":true,"duration":363.0,"steps":[]},{"startTime":1522669864000,"endTime":1522670461000,"departureDelay":0,"arrivalDelay":0,"realTime":false,"distance":752.124,"pathway":false,"mode":"WALK","route":"","agencyTimeZoneOffset":-14400000,"interlineWithPreviousLeg":false,"from":{"name":"Jacques-Cartier / de Sales","stopId":"1:344","stopCode":"344","lon":-71.043973,"lat":48.424206,"arrival":1522669863000,"departure":1522669864000,"zoneId":"NA","stopIndex":7,"stopSequence":8,"vertexType":"TRANSIT"},"to":{"name":"Destination","lon":-71.040075,"lat":48.421289,"arrival":1522670461000,"orig":"","vertexType":"NORMAL"},"legGeometry":{"points":"e{pfHpwrpLNcB^gD?_AAI?E?G@GBEBCFSFO@cAPuB`@sE@GJqAXHFBHBR@JSF_@Ds@PDXFTFv@@lAAt@Df@JRDH@Ol@YjAIfATx@d@XRJH@F@","length":41},"rentedBike":false,"transitLeg":false,"duration":597.0,"steps":[{"distance":159.337,"relativeDirection":"DEPART","streetName":"Rue Jacques-Cartier Est","absoluteDirection":"EAST","stayOn":false,"area":false,"bogusName":false,"lon":-71.04392183118667,"lat":48.424353416635554,"elevation":[]},{"distance":184.73600000000002,"relativeDirection":"SLIGHTLY_LEFT","streetName":"Rue Jacques Cartier","absoluteDirection":"EAST","stayOn":false,"area":false,"bogusName":false,"lon":-71.0418774,"lat":48.423999300000006,"elevation":[]},{"distance":408.051,"relativeDirection":"RIGHT","streetName":"service road","absoluteDirection":"SOUTH","stayOn":false,"area":false,"bogusName":true,"lon":-71.0394333,"lat":48.4236505,"elevation":[]}]}],"tooSloped":false},{"duration":2969,"startTime":1522667905000,"endTime":1522670874000,"walkTime":1544,"transitTime":1003,"waitingTime":422,"walkDistance":1952.2090826911792,"walkLimitExceeded":false,"elevationLost":0.0,"elevationGained":0.0,"transfers":1,"legs":[{"startTime":1522667905000,"endTime":1522668496000,"departureDelay":0,"arrivalDelay":0,"realTime":false,"distance":748.8129999999999,"pathway":false,"mode":"WALK","route":"","agencyTimeZoneOffset":-14400000,"interlineWithPreviousLeg":false,"from":{"name":"Origin","lon":-71.049014,"lat":48.439505,"departure":1522667905000,"orig":"","vertexType":"NORMAL"},"to":{"name":"Boileau / Colbert","stopId":"1:2019","stopCode":"2019","lon":-71.054133,"lat":48.442456,"arrival":1522668496000,"departure":1522668497000,"zoneId":"NA","stopIndex":18,"stopSequence":19,"vertexType":"TRANSIT"},"legGeometry":{"points":"_zsfH`yspLyBWMAWWWY[]]Mm@UUrBNpD@n@RdCJ`BUvAqAzB@HFb@Dt@?b@?F?j@AJcC_Ae@~D}@Y","length":25},"rentedBike":false,"transitLeg":false,"duration":591.0,"steps":[{"distance":172.095,"relativeDirection":"DEPART","streetName":"Rue du Beaujolais","absoluteDirection":"NORTH","stayOn":false,"area":false,"bogusName":false,"lon":-71.04928467485311,"lat":48.43952760258578,"elevation":[]},{"distance":315.517,"relativeDirection":"LEFT","streetName":"path","absoluteDirection":"WEST","stayOn":false,"area":false,"bogusName":true,"lon":-71.0485709,"lat":48.4409676,"elevation":[]},{"distance":74.69,"relativeDirection":"LEFT","streetName":"Boulevard de Tadoussac","absoluteDirection":"WEST","stayOn":false,"area":false,"bogusName":false,"lon":-71.0525068,"lat":48.441346100000004,"elevation":[]},{"distance":76.812,"relativeDirection":"RIGHT","streetName":"Rue Viau","absoluteDirection":"NORTH","stayOn":false,"area":false,"bogusName":false,"lon":-71.05350340000001,"lat":48.4412736,"elevation":[]},{"distance":74.473,"relativeDirection":"LEFT","streetName":"Rue Colbert","absoluteDirection":"WEST","stayOn":false,"area":false,"bogusName":false,"lon":-71.0531831,"lat":48.4419309,"elevation":[]},{"distance":35.226,"relativeDirection":"RIGHT","streetName":"Rue Boileau","absoluteDirection":"NORTH","stayOn":false,"area":false,"bogusName":false,"lon":-71.0541475,"lat":48.4421291,"elevation":[]}]},{"startTime":1522668497000,"endTime":1522669080000,"departureDelay":0,"arrivalDelay":0,"realTime":false,"distance":2618.6893635583783,"pathway":false,"mode":"BUS","route":"23","agencyName":"Société de Transport du Saguenay","agencyUrl":"http://ville.saguenay.ca/fr/services-aux-citoyens/transport-sts","agencyTimeZoneOffset":-14400000,"routeColor":"FF00FF","routeType":3,"routeId":"1:23","routeTextColor":"FFFFFF","interlineWithPreviousLeg":false,"tripBlockId":"4","headsign":"Terminus Chicoutimi","agencyId":"0","tripId":"1:217224","serviceDate":"20180402","from":{"name":"Boileau / Colbert","stopId":"1:2019","stopCode":"2019","lon":-71.054133,"lat":48.442456,"arrival":1522668496000,"departure":1522668497000,"zoneId":"NA","stopIndex":18,"stopSequence":19,"vertexType":"TRANSIT"},"to":{"name":"Terminus Chicoutimi","stopId":"1:1289","stopCode":"1289","lon":-71.066163,"lat":48.428677,"arrival":1522669080000,"departure":1522669500000,"zoneId":"NA","stopIndex":26,"stopSequence":27,"vertexType":"TRANSIT"},"legGeometry":{"points":"eltfHvvtpLx@Xw@pG@l@B\\DXL\\RZDFXPf@N@v@Bp@Dr@l@~HNlAH\\@HLd@\\z@Xd@X\\RTXRr@Zn@PfExAvDpALnBJt@Pp@|@`DHZPn@`@rBNnAFr@DbA?bB@jABzA?p@A???A???A?A???A@??A?A@??A@?@A??@A@???@A@?@?@A@?@?@?@?@???@?@?@?@?@?@@@?@?@@@?@@@?@@@?@@?@@??@@@?E`@Kr@]rACVEl@I|AAr@JbAWJe@FUAM?a@Ke@YYWWa@v@}@RQPMz@k@tAe@REZG^Af@@X@VF`@Jn@XbClAr@Xt\\`PrAb@pA^hBTjAFj@Pb@JPHLLJNJRFXDT?X?ZEVEVKTMNMHMFOB}DWSGOSYcAN}FFkAF}DJyDd@wPV_HjAN~ALI`C","length":156},"routeShortName":"23","routeLongName":"Côte Verdun via Aréna du Plateau","rentedBike":false,"transitLeg":true,"duration":583.0,"steps":[]},{"startTime":1522669500000,"endTime":1522669920000,"departureDelay":0,"arrivalDelay":0,"realTime":false,"distance":1786.9362989351841,"pathway":false,"mode":"BUS","route":"24S","agencyName":"Société de Transport du Saguenay","agencyUrl":"http://ville.saguenay.ca/fr/services-aux-citoyens/transport-sts","agencyTimeZoneOffset":-14400000,"routeColor":"8B0000","routeType":3,"routeId":"1:24S","routeTextColor":"FFFFFF","interlineWithPreviousLeg":false,"tripBlockId":"49","headsign":"UQAC","agencyId":"0","tripId":"1:218409","serviceDate":"20180402","from":{"name":"Terminus Chicoutimi","stopId":"1:1289","stopCode":"1289","lon":-71.066163,"lat":48.428677,"arrival":1522669080000,"departure":1522669500000,"zoneId":"NA","stopIndex":0,"stopSequence":1,"vertexType":"TRANSIT"},"to":{"name":"Université du Québec à Chicoutimi","stopId":"1:1927","stopCode":"1927","lon":-71.052171,"lat":48.419234,"arrival":1522669920000,"departure":1522669921000,"zoneId":"NA","stopIndex":7,"stopSequence":8,"vertexType":"TRANSIT"},"legGeometry":{"points":"uvqfHnbwpLDoChBPd@P~G`@DoC@m@@M?A?KHmEJgEDmC@yA?ABuC@wBFcDHoEBuAV_OToBlBnB@@zApBTNn@v@fA|@pCnC\\y@\\{@z@aARg@NoA@a@Ge@AQAMc@_E?i@dAeDN{@n@gBh@yALG|@t@\\`@@@tAxAp@uBlByFjChCtAvA","length":53},"routeShortName":"24S","routeLongName":"UQAC via Bégin","rentedBike":false,"transitLeg":true,"duration":420.0,"steps":[]},{"startTime":1522669921000,"endTime":1522670874000,"departureDelay":0,"arrivalDelay":0,"realTime":false,"distance":1202.9130000000002,"pathway":false,"mode":"WALK","route":"","agencyTimeZoneOffset":-14400000,"interlineWithPreviousLeg":false,"from":{"name":"Université du Québec à Chicoutimi","stopId":"1:1927","stopCode":"1927","lon":-71.052171,"lat":48.419234,"arrival":1522669920000,"departure":1522669921000,"zoneId":"NA","stopIndex":7,"stopSequence":8,"vertexType":"TRANSIT"},"to":{"name":"Destination","lon":-71.040075,"lat":48.421289,"arrival":1522670874000,"orig":"","vertexType":"NORMAL"},"legGeometry":{"points":"i{ofHjktpL_AaATIQQSSCCVw@Ts@JWVw@X{@\\qAJ_@Fc@A_@Bo@j@}A`@gAK_@CIO_@@o@HsB?Q@o@Km@Uq@CWAq@WScAo@MGwEeDnAoDJ[L_@HYnAkDmA}A{@sAMa@[UOMWSe@e@}AgAIA[E","length":48},"rentedBike":false,"transitLeg":false,"duration":953.0,"steps":[{"distance":56.596000000000004,"relativeDirection":"DEPART","streetName":"path","absoluteDirection":"NORTHEAST","stayOn":false,"area":false,"bogusName":true,"lon":-71.05221121256777,"lat":48.419251445558785,"elevation":[]},{"distance":27.641000000000002,"relativeDirection":"HARD_LEFT","streetName":"Rue de la Fondation","absoluteDirection":"NORTHEAST","stayOn":false,"area":false,"bogusName":false,"lon":-71.0518321,"lat":48.419468900000005,"elevation":[]},{"distance":461.639,"relativeDirection":"RIGHT","streetName":"service road","absoluteDirection":"SOUTHEAST","stayOn":false,"area":false,"bogusName":true,"lon":-71.05162220000001,"lat":48.4196748,"elevation":[]},{"distance":200.23700000000002,"relativeDirection":"LEFT","streetName":"Rue des Hospitalières","absoluteDirection":"NORTHEAST","stayOn":false,"area":false,"bogusName":false,"lon":-71.0460303,"lat":48.4187707,"elevation":[]},{"distance":193.441,"relativeDirection":"RIGHT","streetName":"Chemin Sydenham","absoluteDirection":"SOUTHEAST","stayOn":false,"area":false,"bogusName":false,"lon":-71.0448294,"lat":48.420385200000005,"elevation":[]},{"distance":263.35900000000004,"relativeDirection":"LEFT","streetName":"service road","absoluteDirection":"NORTHEAST","stayOn":false,"area":false,"bogusName":true,"lon":-71.04266,"lat":48.4194089,"elevation":[]}]}],"tooSloped":false}]},"debugOutput":{"precalculationTime":37,"pathCalculationTime":41,"pathTimes":[22,9,10],"renderingTime":1,"totalTime":79,"timedOut":false},"elevationMetadata":{"ellipsoidToGeoidDifference":-28.885904201182168,"geoidElevation":false}}