{"requestParameters":{"date":"2018/04/02","walkSpeed":"1.33","walkReluctance":"2.0","fromPlace":"48.444119,-71.080494","maxWalkDistance":"3000","waitReluctance":"1.0","carSpeed":"33","numItineraries":"3","waitAtBeginningFactor":"0.4","mode":"TRANSIT,WALK","ignoreRealtimeUpdates":"false","stairsReluctance":"2.0","toPlace":"48.438903,-71.048804","time":"15:0:00"},"plan":{"date":1522695600000,"from":{"name":"Origin","lon":-71.080494,"lat":48.444119,"orig":"","vertexType":"NORMAL"},"to":{"name":"Destination","lon":-71.048804,"lat":48.438903,"orig":"","vertexType":"NORMAL"},"itineraries":[{"duration":1604,"startTime":1522695885000,"endTime":1522697489000,"walkTime":54,"transitTime":1248,"waitingTime":302,"walkDistance":65.2075864650494,"walkLimitExceeded":false,"elevationLost":0.0,"elevationGained":0.0,"transfers":1,"legs":[{"startTime":1522695885000,"endTime":1522695914000,"departureDelay":0,"arrivalDelay":0,"realTime":false,"distance":38.415,"pathway":false,"mode":"WALK","route":"","agencyTimeZoneOffset":-14400000,"interlineWithPreviousLeg":false,"from":{"name":"Origin","lon":-71.080494,"lat":48.444119,"departure":1522695885000,"orig":"","vertexType":"NORMAL"},"to":{"name":"Place de la Colline (boul. Ste-Geneviève)","stopId":"1:2009","stopCode":"2009","lon":-71.080522,"lat":48.444768,"arrival":1522695914000,"departure":1522695915000,"zoneId":"NA","stopIndex":31,"stopSequence":32,"vertexType":"TRANSIT"},"legGeometry":{"points":"wytfHjyypLELa@fA","length":3},"rentedBike":false,"transitLeg":false,"duration":29.0,"steps":[{"distance":38.415,"relativeDirection":"DEPART","streetName":"Boulevard Sainte-Geneviève","absoluteDirection":"NORTHWEST","stayOn":false,"area":false,"bogusName":false,"lon":-71.08005452675857,"lat":48.4446094224144,"elevation":[]}]},{"startTime":1522695915000,"endTime":1522696200000,"departureDelay":0,"arrivalDelay":0,"realTime":false,"distance":2246.0175870948647,"pathway":false,"mode":"BUS","route":"21","agencyName":"Société de Transport du Saguenay","agencyUrl":"http://ville.saguenay.ca/fr/services-aux-citoyens/transport-sts","agencyTimeZoneOffset":-14400000,"routeColor":"556B2F","routeType":3,"routeId":"1:21","routeTextColor":"FFFFFF","interlineWithPreviousLeg":false,"tripBlockId":"2","headsign":"Terminus Chicoutimi","agencyId":"0","tripId":"1:217172","serviceDate":"20180402","from":{"name":"Place de la Colline (boul. Ste-Geneviève)","stopId":"1:2009","stopCode":"2009","lon":-71.080522,"lat":48.444768,"arrival":1522695914000,"departure":1522695915000,"zoneId":"NA","stopIndex":31,"stopSequence":32,"vertexType":"TRANSIT"},"to":{"name":"Terminus Chicoutimi","stopId":"1:1289","stopCode":"1289","lon":-71.066163,"lat":48.428677,"arrival":1522696200000,"departure":1522696500000,"zoneId":"NA","stopIndex":34,"stopSequence":35,"vertexType":"TRANSIT"},"legGeometry":{"points":"a{tfH~{ypL`CoHpCyJbAmCtAuCZg@|@gBxAsCrCmFhHqN~@eBr@cAt@_Av@}@RQPMz@k@tAe@REZG^Af@@X@VF`@Jn@XbClAr@Xt\\`PrAb@pA^hBTjAFj@Pb@JPHLLJNJRFXDT?X?ZEVEVKTMNMHMFOB}DWSGOSYcAN}FFkAF}DJyDPwGvAHVyL","length":61},"routeShortName":"21","routeLongName":"Boul. Ste-Geneviève/Élie","rentedBike":false,"transitLeg":true,"duration":285.0,"steps":[]},{"startTime":1522696500000,"endTime":1522697463000,"departureDelay":0,"arrivalDelay":0,"realTime":false,"distance":6283.409371924989,"pathway":false,"mode":"BUS","route":"24","agencyName":"Société de Transport du Saguenay","agencyUrl":"http://ville.saguenay.ca/fr/services-aux-citoyens/transport-sts","agencyTimeZoneOffset":-14400000,"routeColor":"00FF00","routeType":3,"routeId":"1:24","routeTextColor":"000000","interlineWithPreviousLeg":false,"tripBlockId":"5","headsign":"Terminus Chicoutimi","agencyId":"0","tripId":"1:217267","serviceDate":"20180402","from":{"name":"Terminus Chicoutimi","stopId":"1:1289","stopCode":"1289","lon":-71.066163,"lat":48.428677,"arrival":1522696200000,"departure":1522696500000,"zoneId":"NA","stopIndex":0,"stopSequence":1,"vertexType":"TRANSIT"},"to":{"name":"Parc Saint-François (St-Émile)","stopId":"1:825","stopCode":"825","lon":-71.048453,"lat":48.438658,"arrival":1522697463000,"departure":1522697464000,"zoneId":"NA","stopIndex":23,"stopSequence":24,"vertexType":"TRANSIT"},"legGeometry":{"points":"evqfHzcwpLg@?EhBO~GoBKCp@O\\WjGOfGCRK^KJMHQB_AMg@Gm\\wO]i@wAyA_@WUKMEwEm@Js@Da@??@@??@?@???@???@?@??A@???@A@??A@??A@A??@A?A??@A?A?A?A@A?A???A?A?A???A?A?A?A???A?AAA?A???AAA?A??AA?AA??AA??A??AA??A??AA?A???A????q@C{AAaB?mAEcAGs@OoAa@sB[kAYcASq@Ok@Qq@Ku@MoBKmAa@eHi@FKC_@I??iE}Ah@}DH}@?c@Ea@[_BA?My@Cm@?Y@g@Hu@b@sD\\_DBSyHsC_@MBQA}@IwAUoAcAkCWo@qDgJg@cBk@uBi@sC]aCWwCiKuDwQuGDWbAoGV{AxG~BPFhCdAn@Lx@BxA]QeDI}AzAW~ASQoDg@eKG{A?_@?m@?i@LeCJkAd@yGxAqSBs@p@^VRPRbF~FlCxBxB|B~JjK`IjIRPb@^r@d@rAp@\\T\\ZNVRd@J\\Nd@Hf@F`@@DFr@LtAJpB@jAAt@ObEIzAKbBUrBMp@Sn@gAlCk@pAw@fCwB|HCNk@jCeDuAq@UC?","length":206},"routeShortName":"24","routeLongName":"Saint-Luc","rentedBike":false,"transitLeg":true,"duration":963.0,"steps":[]},{"startTime":1522697464000,"endTime":1522697489000,"departureDelay":0,"arrivalDelay":0,"realTime":false,"distance":26.758,"pathway":false,"mode":"WALK","route":"","agencyTimeZoneOffset":-14400000,"interlineWithPreviousLeg":false,"from":{"name":"Parc Saint-François (St-Émile)","stopId":"1:825","stopCode":"825","lon":-71.048453,"lat":48.438658,"arrival":1522697463000,"departure":1522697464000,"zoneId":"NA","stopIndex":23,"stopSequence":24,"vertexType":"TRANSIT"},"to":{"name":"Destination","lon":-71.048804,"lat":48.438903,"arrival":1522697489000,"orig":"","vertexType":"NORMAL"},"legGeometry":{"points":"wtsfHntspLB@M~@","length":3},"rentedBike":false,"transitLeg":false,"duration":25.0,"steps":[{"distance":1.732,"relativeDirection":"DEPART","streetName":"Rue Saint-Émile","absoluteDirection":"SOUTH","stayOn":false,"area":false,"bogusName":false,"lon":-71.0485588327189,"lat":48.43868015719131,"elevation":[]},{"distance":25.026,"relativeDirection":"RIGHT","streetName":"Rue du Beaujolais","absoluteDirection":"WEST","stayOn":false,"area":false,"bogusName":false,"lon":-71.0485659,"lat":48.438665300000004,"elevation":[]}]}],"tooSloped":false},{"duration":1314,"startTime":1522696656000,"endTime":1522697970000,"walkTime":834,"transitTime":478,"waitingTime":2,"walkDistance":1063.8767518716081,"walkLimitExceeded":false,"elevationLost":0.0,"elevationGained":0.0,"transfers":0,"legs":[{"startTime":1522696656000,"endTime":1522696818000,"departureDelay":0,"arrivalDelay":0,"realTime":false,"distance":203.312,"pathway":false,"mode":"WALK","route":"","agencyTimeZoneOffset":-14400000,"interlineWithPreviousLeg":false,"from":{"name":"Origin","lon":-71.080494,"lat":48.444119,"departure":1522696656000,"orig":"","vertexType":"NORMAL"},"to":{"name":"Place de la Colline (boul. Ste-Geneviève)","stopId":"1:706","stopCode":"706","lon":-71.080094,"lat":48.44485,"arrival":1522696818000,"departure":1522696819000,"zoneId":"NA","stopIndex":2,"stopSequence":3,"vertexType":"TRANSIT"},"legGeometry":{"points":"wytfHjyypLlAiEQSeBjF","length":4},"rentedBike":false,"transitLeg":false,"duration":162.0,"steps":[{"distance":86.223,"relativeDirection":"DEPART","streetName":"Boulevard Sainte-Geneviève","absoluteDirection":"SOUTHEAST","stayOn":false,"area":false,"bogusName":false,"lon":-71.08005452675857,"lat":48.4446094224144,"elevation":[]},{"distance":117.089,"relativeDirection":"UTURN_LEFT","streetName":"Boulevard Sainte-Geneviève","absoluteDirection":"NORTHWEST","stayOn":true,"area":false,"bogusName":false,"lon":-71.07894370000001,"lat":48.444307900000005,"elevation":[]}]},{"startTime":1522696819000,"endTime":1522697297000,"departureDelay":0,"arrivalDelay":0,"realTime":false,"distance":3664.601578999623,"pathway":false,"mode":"BUS","route":"23","agencyName":"Société de Transport du Saguenay","agencyUrl":"http://ville.saguenay.ca/fr/services-aux-citoyens/transport-sts","agencyTimeZoneOffset":-14400000,"routeColor":"FF00FF","routeType":3,"routeId":"1:23","routeTextColor":"FFFFFF","interlineWithPreviousLeg":false,"tripBlockId":"4","headsign":"Terminus Chicoutimi","agencyId":"0","tripId":"1:217240","serviceDate":"20180402","from":{"name":"Place de la Colline (boul. Ste-Geneviève)","stopId":"1:706","stopCode":"706","lon":-71.080094,"lat":48.44485,"arrival":1522696818000,"departure":1522696819000,"zoneId":"NA","stopIndex":2,"stopSequence":3,"vertexType":"TRANSIT"},"to":{"name":"Boileau / Colbert","stopId":"1:2019","stopCode":"2019","lon":-71.054133,"lat":48.442456,"arrival":1522697297000,"departure":1522697298000,"zoneId":"NA","stopIndex":18,"stopSequence":19,"vertexType":"TRANSIT"},"legGeometry":{"points":"{ztfH~yypLCD}@hCo@~Aq@pAs@fA{BlCqH|Iq@Bq@Im@UGCUi@Wm@ScA_@gGSaE@_@@_@@ERoBFe@No@`@gAbCyFNe@Ha@He@Fg@Du@Dg@Hc@Pa@RW\\S`@QZEm@eHM}B?GGi@Is@Ou@Qw@Mo@Kw@ImAGoBAk@aALa@?YEUKc@Yc@_@KOIUGUEWAW?YBqAH_AXeC@IdB_Mh@_EJk@d@kDhAqI`AgHz@oGBU?UAWCWUwAWD]B]AUEoAc@kE}AOIq@g@g@u@]w@b@s@T[~CkFf@s@\\e@x@}@jAeAXQZStBaAh@]`@]`@i@l@kDF_@R{AFWFMPIPC`@BT@V?TAVKLENCLCJ@J@xAb@x@Zz@\\CP?R@N@NFLFF`GtB","length":127},"routeShortName":"23","routeLongName":"Côte Verdun via Aréna du Plateau","rentedBike":false,"transitLeg":true,"duration":478.0,"steps":[]},{"startTime":1522697298000,"endTime":1522697970000,"departureDelay":0,"arrivalDelay":0,"realTime":false,"distance":860.3140000000001,"pathway":false,"mode":"WALK","route":"","agencyTimeZoneOffset":-14400000,"interlineWithPreviousLeg":false,"from":{"name":"Boileau / Colbert","stopId":"1:2019","stopCode":"2019","lon":-71.054133,"lat":48.442456,"arrival":1522697297000,"departure":1522697298000,"zoneId":"NA","stopIndex":18,"stopSequence":19,"vertexType":"TRANSIT"},"to":{"name":"Destination","lon":-71.048804,"lat":48.438903,"arrival":1522697970000,"orig":"","vertexType":"NORMAL"},"legGeometry":{"points":"eltfHrvtpL|@Xd@_EbC~@@K?k@?G?c@Eu@Gc@AIpA{BTwAKaBSeCAo@OqDTsBl@T\\LZ\\VXVVL@xEh@F?J?HALMPqA","length":30},"rentedBike":false,"transitLeg":false,"duration":672.0,"steps":[{"distance":35.226,"relativeDirection":"DEPART","streetName":"Rue Boileau","absoluteDirection":"SOUTH","stayOn":false,"area":false,"bogusName":false,"lon":-71.05401522333527,"lat":48.442433475959426,"elevation":[]},{"distance":74.473,"relativeDirection":"LEFT","streetName":"Rue Colbert","absoluteDirection":"EAST","stayOn":false,"area":false,"bogusName":false,"lon":-71.0541475,"lat":48.4421291,"elevation":[]},{"distance":76.812,"relativeDirection":"RIGHT","streetName":"Rue Viau","absoluteDirection":"SOUTH","stayOn":false,"area":false,"bogusName":false,"lon":-71.0531831,"lat":48.4419309,"elevation":[]},{"distance":74.69,"relativeDirection":"LEFT","streetName":"Boulevard de Tadoussac","absoluteDirection":"EAST","stayOn":false,"area":false,"bogusName":false,"lon":-71.05350340000001,"lat":48.4412736,"elevation":[]},{"distance":315.517,"relativeDirection":"RIGHT","streetName":"path","absoluteDirection":"SOUTHEAST","stayOn":false,"area":false,"bogusName":true,"lon":-71.0525068,"lat":48.441346100000004,"elevation":[]},{"distance":283.596,"relativeDirection":"RIGHT","streetName":"Rue du Beaujolais","absoluteDirection":"SOUTH","stayOn":false,"area":false,"bogusName":false,"lon":-71.0485709,"lat":48.4409676,"elevation":[]}]}],"tooSloped":false},{"duration":1604,"startTime":1522697685000,"endTime":1522699289000,"walkTime":54,"transitTime":1248,"waitingTime":302,"walkDistance":65.2075864650494,"walkLimitExceeded":false,"elevationLost":0.0,"elevationGained":0.0,"transfers":1,"legs":[{"startTime":1522697685000,"endTime":1522697714000,"departureDelay":0,"arrivalDelay":0,"realTime":false,"distance":38.415,"pathway":false,"mode":"WALK","route":"","agencyTimeZoneOffset":-14400000,"interlineWithPreviousLeg":false,"from":{"name":"Origin","lon":-71.080494,"lat":48.444119,"departure":1522697685000,"orig":"","vertexType":"NORMAL"},"to":{"name":"Place de la Colline (boul. Ste-Geneviève)","stopId":"1:2009","stopCode":"2009","lon":-71.080522,"lat":48.444768,"arrival":1522697714000,"departure":1522697715000,"zoneId":"NA","stopIndex":31,"stopSequence":32,"vertexType":"TRANSIT"},"legGeometry":{"points":"wytfHjyypLELa@fA","length":3},"rentedBike":false,"transitLeg":false,"duration":29.0,"steps":[{"distance":38.415,"relativeDirection":"DEPART","streetName":"Boulevard Sainte-Geneviève","absoluteDirection":"NORTHWEST","stayOn":false,"area":false,"bogusName":false,"lon":-71.08005452675857,"lat":48.4446094224144,"elevation":[]}]},{"startTime":1522697715000,"endTime":1522698000000,"departureDelay":0,"arrivalDelay":0,"realTime":false,"distance":2246.0175870948647,"pathway":false,"mode":"BUS","route":"21","agencyName":"Société de Transport du Saguenay","agencyUrl":"http://ville.saguenay.ca/fr/services-aux-citoyens/transport-sts","agencyTimeZoneOffset":-14400000,"routeColor":"556B2F","routeType":3,"routeId":"1:21","routeTextColor":"FFFFFF","interlineWithPreviousLeg":false,"tripBlockId":"2","headsign":"Terminus Chicoutimi","agencyId":"0","tripId":"1:217173","serviceDate":"20180402","from":{"name":"Place de la Colline (boul. Ste-Geneviève)","stopId":"1:2009","stopCode":"2009","lon":-71.080522,"lat":48.444768,"arrival":1522697714000,"departure":1522697715000,"zoneId":"NA","stopIndex":31,"stopSequence":32,"vertexType":"TRANSIT"},"to":{"name":"Terminus Chicoutimi","stopId":"1:1289","stopCode":"1289","lon":-71.066163,"lat":48.428677,"arrival":1522698000000,"departure":1522698300000,"zoneId":"NA","stopIndex":34,"stopSequence":35,"vertexType":"TRANSIT"},"legGeometry":{"points":"a{tfH~{ypL`CoHpCyJbAmCtAuCZg@|@gBxAsCrCmFhHqN~@eBr@cAt@_Av@}@RQPMz@k@tAe@REZG^Af@@X@VF`@Jn@XbClAr@Xt\\`PrAb@pA^hBTjAFj@Pb@JPHLLJNJRFXDT?X?ZEVEVKTMNMHMFOB}DWSGOSYcAN}FFkAF}DJyDPwGvAHVyL","length":61},"routeShortName":"21","routeLongName":"Boul. Ste-Geneviève/Élie","rentedBike":false,"transitLeg":true,"duration":285.0,"steps":[]},{"startTime":1522698300000,"endTime":1522699263000,"departureDelay":0,"arrivalDelay":0,"realTime":false,"distance":6283.409371924989,"pathway":false,"mode":"BUS","route":"24","agencyName":"Société de Transport du Saguenay","agencyUrl":"http://ville.saguenay.ca/fr/services-aux-citoyens/transport-sts","agencyTimeZoneOffset":-14400000,"routeColor":"00FF00","routeType":3,"routeId":"1:24","routeTextColor":"000000","interlineWithPreviousLeg":false,"tripBlockId":"4","headsign":"Terminus Chicoutimi","agencyId":"0","tripId":"1:217241","serviceDate":"20180402","from":{"name":"Terminus Chicoutimi","stopId":"1:1289","stopCode":"1289","lon":-71.066163,"lat":48.428677,"arrival":1522698000000,"departure":1522698300000,"zoneId":"NA","stopIndex":0,"stopSequence":1,"vertexType":"TRANSIT"},"to":{"name":"Parc Saint-François (St-Émile)","stopId":"1:825","stopCode":"825","lon":-71.048453,"lat":48.438658,"arrival":1522699263000,"departure":1522699264000,"zoneId":"NA","stopIndex":23,"stopSequence":24,"vertexType":"TRANSIT"},"legGeometry":{"points":"evqfHzcwpLg@?EhBO~GoBKCp@O\\WjGOfGCRK^KJMHQB_AMg@Gm\\wO]i@wAyA_@WUKMEwEm@Js@Da@??@@??@?@???@???@?@??A@???@A@??A@??A@A??@A?A??@A?A?A?A@A?A???A?A?A???A?A?A?A???A?AAA?A???AAA?A??AA?AA??AA??A??AA??A??AA?A???A????q@C{AAaB?mAEcAGs@OoAa@sB[kAYcASq@Ok@Qq@Ku@MoBKmAa@eHi@FKC_@I??iE}Ah@}DH}@?c@Ea@[_BA?My@Cm@?Y@g@Hu@b@sD\\_DBSyHsC_@MBQA}@IwAUoAcAkCWo@qDgJg@cBk@uBi@sC]aCWwCiKuDwQuGDWbAoGV{AxG~BPFhCdAn@Lx@BxA]QeDI}AzAW~ASQoDg@eKG{A?_@?m@?i@LeCJkAd@yGxAqSBs@p@^VRPRbF~FlCxBxB|B~JjK`IjIRPb@^r@d@rAp@\\T\\ZNVRd@J\\Nd@Hf@F`@@DFr@LtAJpB@jAAt@ObEIzAKbBUrBMp@Sn@gAlCk@pAw@fCwB|HCNk@jCeDuAq@UC?","length":206},"routeShortName":"24","routeLongName":"Saint-Luc","rentedBike":false,"transitLeg":true,"duration":963.0,"steps":[]},{"startTime":1522699264000,"endTime":1522699289000,"departureDelay":0,"arrivalDelay":0,"realTime":false,"distance":26.758,"pathway":false,"mode":"WALK","route":"","agencyTimeZoneOffset":-14400000,"interlineWithPreviousLeg":false,"from":{"name":"Parc Saint-François (St-Émile)","stopId":"1:825","stopCode":"825","lon":-71.048453,"lat":48.438658,"arrival":1522699263000,"departure":1522699264000,"zoneId":"NA","stopIndex":23,"stopSequence":24,"vertexType":"TRANSIT"},"to":{"name":"Destination","lon":-71.048804,"lat":48.438903,"arrival":1522699289000,"orig":"","vertexType":"NORMAL"},"legGeometry":{"points":"wtsfHntspLB@M~@","length":3},"rentedBike":false,"transitLeg":false,"duration":25.0,"steps":[{"distance":1.732,"relativeDirection":"DEPART","streetName":"Rue Saint-Émile","absoluteDirection":"SOUTH","stayOn":false,"area":false,"bogusName":false,"lon":-71.0485588327189,"lat":48.43868015719131,"elevation":[]},{"distance":25.026,"relativeDirection":"RIGHT","streetName":"Rue du Beaujolais","absoluteDirection":"WEST","stayOn":false,"area":false,"bogusName":false,"lon":-71.0485659,"lat":48.438665300000004,"elevation":[]}]}],"tooSloped":false}]},"debugOutput":{"precalculationTime":22,"pathCalculationTime":24,"pathTimes":[16,3,5],"renderingTime":0,"totalTime":46,"timedOut":false},"elevationMetadata":{"ellipsoidToGeoidDifference":-28.885904201182168,"geoidElevation":false}}