{"requestParameters":{"date":"2018/04/02","walkSpeed":"1.33","walkReluctance":"2.0","fromPlace":"48.438879,-71.050115","maxWalkDistance":"3000","waitReluctance":"1.0","carSpeed":"33","numItineraries":"3","waitAtBeginningFactor":"0.4","mode":"TRANSIT,WALK","ignoreRealtimeUpdates":"false","stairsReluctance":"2.0","toPlace":"48.439349,-71.05737999","time":"7:0:00"},"plan":{"date":1522666800000,"from":{"name":"Origin","lon":-71.050115,"lat":48.438879,"orig":"","vertexType":"NORMAL"},"to":{"name":"Destination","lon":-71.05737999,"lat":48.439349,"orig":"","vertexType":"NORMAL"},"itineraries":[{"duration":653,"startTime":1522666800000,"endTime":1522667453000,"walkTime":653,"transitTime":0,"waitingTime":0,"walkDistance":838.3267669138484,"walkLimitExceeded":false,"elevationLost":0.0,"elevationGained":0.0,"transfers":0,"legs":[{"startTime":1522666800000,"endTime":1522667453000,"departureDelay":0,"arrivalDelay":0,"realTime":false,"distance":838.2200000000001,"pathway":false,"mode":"WALK","route":"","agencyTimeZoneOffset":-14400000,"interlineWithPreviousLeg":false,"from":{"name":"Origin","lon":-71.050115,"lat":48.438879,"departure":1522666800000,"orig":"","vertexType":"NORMAL"},"to":{"name":"Destination","lon":-71.05737999,"lat":48.439349,"arrival":1522667453000,"orig":"","vertexType":"NORMAL"},"legGeometry":{"points":"cvsfHv_tpLZDV@PAVETEXBPDh@NKz@MrAe@rOSbEgF{AOEa@lDa@nDGZGv@CX@j@D`@DXFRHTJn@@F","length":27},"rentedBike":false,"transitLeg":false,"duration":653.0,"steps":[{"distance":113.701,"relativeDirection":"DEPART","streetName":"Rue de Beauvoir","absoluteDirection":"SOUTH","stayOn":false,"area":false,"bogusName":false,"lon":-71.0503577648776,"lat":48.43890074387898,"elevation":[]},{"distance":325.255,"relativeDirection":"RIGHT","streetName":"Rue Roussel","absoluteDirection":"WEST","stayOn":false,"area":false,"bogusName":false,"lon":-71.0504562,"lat":48.437893200000005,"elevation":[]},{"distance":142.797,"relativeDirection":"RIGHT","streetName":"Rue Viau","absoluteDirection":"NORTH","stayOn":false,"area":false,"bogusName":false,"lon":-71.0548121,"lat":48.438311000000006,"elevation":[]},{"distance":256.46700000000004,"relativeDirection":"LEFT","streetName":"Rue De Bienville","absoluteDirection":"WEST","stayOn":false,"area":false,"bogusName":false,"lon":-71.0543245,"lat":48.439553800000006,"elevation":[]}]}],"tooSloped":false}]},"debugOutput":{"precalculationTime":20,"pathCalculationTime":16,"pathTimes":[4,10,2],"renderingTime":0,"totalTime":36,"timedOut":false},"elevationMetadata":{"ellipsoidToGeoidDifference":-28.885904201182168,"geoidElevation":false}}