{"requestParameters":{"date":"2018/04/02","walkSpeed":"1.33","walkReluctance":"2.0","fromPlace":"48.41374,-71.05188699","maxWalkDistance":"3000","waitReluctance":"1.0","carSpeed":"33","numItineraries":"3","waitAtBeginningFactor":"0.4","mode":"TRANSIT,WALK","ignoreRealtimeUpdates":"false","stairsReluctance":"2.0","toPlace":"48.451792,-71.093395","time":"10:0:00"},"plan":{"date":1522677600000,"from":{"name":"Origin","lon":-71.05188699,"lat":48.41374,"orig":"","vertexType":"NORMAL"},"to":{"name":"Destination","lon":-71.093395,"lat":48.451792,"orig":"","vertexType":"NORMAL"},"itineraries":[{"duration":1768,"startTime":1522679090000,"endTime":1522680858000,"walkTime":173,"transitTime":1293,"waitingTime":302,"walkDistance":221.6209849609867,"walkLimitExceeded":false,"elevationLost":0.0,"elevationGained":0.0,"transfers":1,"legs":[{"startTime":1522679090000,"endTime":1522679262000,"departureDelay":0,"arrivalDelay":0,"realTime":false,"distance":220.78199999999998,"pathway":false,"mode":"WALK","route":"","agencyTimeZoneOffset":-14400000,"interlineWithPreviousLeg":false,"from":{"name":"Origin","lon":-71.05188699,"lat":48.41374,"departure":1522679090000,"orig":"","vertexType":"NORMAL"},"to":{"name":"boul. Université / Alma","stopId":"1:60","stopCode":"60","lon":-71.052847,"lat":48.413175,"arrival":1522679262000,"departure":1522679263000,"zoneId":"NA","stopIndex":12,"stopSequence":13,"vertexType":"TRANSIT"},"legGeometry":{"points":"}xnfH~htpL`@Qz@]ZBzAtAHFiA`C_@\\","length":8},"rentedBike":false,"transitLeg":false,"duration":172.0,"steps":[{"distance":137.01,"relativeDirection":"DEPART","streetName":"Rue d'Alma","absoluteDirection":"SOUTH","stayOn":false,"area":false,"bogusName":false,"lon":-71.05183145182109,"lat":48.41375254995333,"elevation":[]},{"distance":83.772,"relativeDirection":"RIGHT","streetName":"Boulevard de l'Université","absoluteDirection":"NORTHWEST","stayOn":false,"area":false,"bogusName":false,"lon":-71.0520843,"lat":48.4126337,"elevation":[]}]},{"startTime":1522679263000,"endTime":1522680000000,"departureDelay":0,"arrivalDelay":0,"realTime":false,"distance":3192.532780640062,"pathway":false,"mode":"BUS","route":"175","agencyName":"Société de Transport du Saguenay","agencyUrl":"http://ville.saguenay.ca/fr/services-aux-citoyens/transport-sts","agencyTimeZoneOffset":-14400000,"routeColor":"FF00FF","routeType":3,"routeId":"1:175","routeTextColor":"FFFFFF","interlineWithPreviousLeg":false,"tripBlockId":"9","headsign":"Terminus Chicoutimi","agencyId":"0","tripId":"1:217399","serviceDate":"20180402","from":{"name":"boul. Université / Alma","stopId":"1:60","stopCode":"60","lon":-71.052847,"lat":48.413175,"arrival":1522679262000,"departure":1522679263000,"zoneId":"NA","stopIndex":12,"stopSequence":13,"vertexType":"TRANSIT"},"to":{"name":"Terminus Chicoutimi","stopId":"1:1289","stopCode":"1289","lon":-71.066163,"lat":48.428677,"arrival":1522680000000,"departure":1522680300000,"zoneId":"NA","stopIndex":27,"stopSequence":28,"vertexType":"TRANSIT"},"legGeometry":{"points":"wunfHvntpLc@x@qG~@{BlAk@XgSrQqB_GAeFiEeEOt@gAeA_A_ATm@yAwAgBeBqDnL@nBF`@f@|C[dCuAfB]xAs@OmCmCmEkE]a@g@i@ZiGTmEl@oLaEe@cFk@?pH?tJDvBPjMB~Bo@PQDRbFKdGMhIOvIK|EQpHoCQEdC","length":47},"routeShortName":"175","routeLongName":"Term. Chic / Costco","rentedBike":false,"transitLeg":true,"duration":737.0,"steps":[]},{"startTime":1522680300000,"endTime":1522680856000,"departureDelay":0,"arrivalDelay":0,"realTime":false,"distance":4303.674359268244,"pathway":false,"mode":"BUS","route":"21","agencyName":"Société de Transport du Saguenay","agencyUrl":"http://ville.saguenay.ca/fr/services-aux-citoyens/transport-sts","agencyTimeZoneOffset":-14400000,"routeColor":"556B2F","routeType":3,"routeId":"1:21","routeTextColor":"FFFFFF","interlineWithPreviousLeg":false,"tripBlockId":"2","headsign":"Terminus Chicoutimi","agencyId":"0","tripId":"1:217164","serviceDate":"20180402","from":{"name":"Terminus Chicoutimi","stopId":"1:1289","stopCode":"1289","lon":-71.066163,"lat":48.428677,"arrival":1522680000000,"departure":1522680300000,"zoneId":"NA","stopIndex":0,"stopSequence":1,"vertexType":"TRANSIT"},"to":{"name":"boul. Ste-Geneviève / St-Sauveur","stopId":"1:710","stopCode":"710","lon":-71.093342,"lat":48.451898,"arrival":1522680856000,"departure":1522680857000,"zoneId":"NA","stopIndex":10,"stopSequence":11,"vertexType":"TRANSIT"},"legGeometry":{"points":"kwqfHjbwpLF_CeBSm@rRO\\WjGOfGCRK^KJMHQB_AMg@Gw`@eR}@g@u@Su@Ia@Ck@Dm@HwAf@c@VeAx@iAlAU^[d@eLtTsAvB_CvEuAnCmBlE}@|B_BvFoC`JCD}@hCo@~Aq@pAs@fAWs@IUC[AI?QCeGAs@Gy@Ks@Ou@OcAIcAIgAWgCG_@Og@IQS]UWYQWIUA[Da@P]RSVQ`@Ib@Ef@Et@Gf@Id@I`@Od@cCxFQOgAwA_FqGO[`BcEY_@MOaBtDLTh@bATZpGlIPNa@fAOn@Gd@UtBA^A^R`E^fGRbAVl@P`@BFNb@t@xAiCvCMP}@jAY`@q@jAm@jA}@rBmArD?Tu@|CYzAET{AxOQhB","length":116},"routeShortName":"21","routeLongName":"Boul. Ste-Geneviève/Élie","rentedBike":false,"transitLeg":true,"duration":556.0,"steps":[]},{"startTime":1522680857000,"endTime":1522680858000,"departureDelay":0,"arrivalDelay":0,"realTime":false,"distance":0.795,"pathway":false,"mode":"WALK","route":"","agencyTimeZoneOffset":-14400000,"interlineWithPreviousLeg":false,"from":{"name":"boul. Ste-Geneviève / St-Sauveur","stopId":"1:710","stopCode":"710","lon":-71.093342,"lat":48.451898,"arrival":1522680856000,"departure":1522680857000,"zoneId":"NA","stopIndex":10,"stopSequence":11,"vertexType":"TRANSIT"},"to":{"name":"Destination","lon":-71.093395,"lat":48.451792,"arrival":1522680858000,"orig":"","vertexType":"NORMAL"},"legGeometry":{"points":"}fvfHpl|pL?@","length":2},"rentedBike":false,"transitLeg":false,"duration":1.0,"steps":[{"distance":0.795,"relativeDirection":"DEPART","streetName":"Boulevard Sainte-Geneviève","absoluteDirection":"WEST","stayOn":false,"area":false,"bogusName":false,"lon":-71.09336582664865,"lat":48.45183764621949,"elevation":[]}]}],"tooSloped":false},{"duration":3007,"startTime":1522678571000,"endTime":1522681578000,"walkTime":859,"transitTime":1846,"waitingTime":302,"walkDistance":1093.5649172862336,"walkLimitExceeded":false,"elevationLost":0.0,"elevationGained":0.0,"transfers":1,"legs":[{"startTime":1522678571000,"endTime":1522679091000,"departureDelay":0,"arrivalDelay":0,"realTime":false,"distance":661.532,"pathway":false,"mode":"WALK","route":"","agencyTimeZoneOffset":-14400000,"interlineWithPreviousLeg":false,"from":{"name":"Origin","lon":-71.05188699,"lat":48.41374,"departure":1522678571000,"orig":"","vertexType":"NORMAL"},"to":{"name":"Murdock / Baillargeon","stopId":"1:356","stopCode":"356","lon":-71.047188,"lat":48.413871,"arrival":1522679091000,"departure":1522679092000,"zoneId":"NA","stopIndex":1,"stopSequence":2,"vertexType":"TRANSIT"},"legGeometry":{"points":"}xnfH~htpL`@Qz@]ZBzAtAHFDMpAmDNc@sI_JoAsAHe@JYDOL[Ro@Rm@Tq@i@k@AC","length":20},"rentedBike":false,"transitLeg":false,"duration":520.0,"steps":[{"distance":137.01,"relativeDirection":"DEPART","streetName":"Rue d'Alma","absoluteDirection":"SOUTH","stayOn":false,"area":false,"bogusName":false,"lon":-71.05183145182109,"lat":48.41375254995333,"elevation":[]},{"distance":100.408,"relativeDirection":"LEFT","streetName":"Boulevard de l'Université","absoluteDirection":"SOUTHEAST","stayOn":false,"area":false,"bogusName":false,"lon":-71.0520843,"lat":48.4126337,"elevation":[]},{"distance":283.445,"relativeDirection":"LEFT","streetName":"Boulevard Talbot","absoluteDirection":"NORTHEAST","stayOn":false,"area":false,"bogusName":false,"lon":-71.05096660000001,"lat":48.4121189,"elevation":[]},{"distance":110.24600000000001,"relativeDirection":"RIGHT","streetName":"service road","absoluteDirection":"SOUTHEAST","stayOn":false,"area":false,"bogusName":true,"lon":-71.04878880000001,"lat":48.414218500000004,"elevation":[]},{"distance":30.423000000000002,"relativeDirection":"LEFT","streetName":"Rue Murdock","absoluteDirection":"NORTHEAST","stayOn":false,"area":false,"bogusName":false,"lon":-71.0475249,"lat":48.413693200000004,"elevation":[]}]},{"startTime":1522679092000,"endTime":1522680000000,"departureDelay":0,"arrivalDelay":0,"realTime":false,"distance":4407.222559695605,"pathway":false,"mode":"BUS","route":"10","agencyName":"Société de Transport du Saguenay","agencyUrl":"http://ville.saguenay.ca/fr/services-aux-citoyens/transport-sts","agencyTimeZoneOffset":-14400000,"routeColor":"0000FF","routeType":3,"routeId":"1:10","routeTextColor":"FFFFFF","interlineWithPreviousLeg":false,"tripBlockId":"27","headsign":"Terminus Chicoutimi","agencyId":"0","tripId":"1:218007","serviceDate":"20180402","from":{"name":"Murdock / Baillargeon","stopId":"1:356","stopCode":"356","lon":-71.047188,"lat":48.413871,"arrival":1522679091000,"departure":1522679092000,"zoneId":"NA","stopIndex":1,"stopSequence":2,"vertexType":"TRANSIT"},"to":{"name":"Terminus Chicoutimi","stopId":"1:1289","stopCode":"1289","lon":-71.066163,"lat":48.428677,"arrival":1522680000000,"departure":1522680300000,"zoneId":"NA","stopIndex":21,"stopSequence":22,"vertexType":"TRANSIT"},"legGeometry":{"points":"uynfH~kspLsB{B}AeCu@oAXu@hAoDP_BP{AQmCg@mB_BiBeBaBqFeFmCgC{A_BmBoBk@iAw@}CU[o@y@k@Io@MqC@}@k@_@[aAw@_BoCMOKcAQUu@s@AAu@[k@xGg@pFc@~EO`@KHCVDP?hAa@nEKdAi@pGAr@GXMRG^Bb@`CV~IxB~ElAhChAsBtFaEvK_BhE}AfD{BdByBh@iC]oDq@YbF_Ea@AAuEg@MDENF|GAjJDzBDdDLdHFbCo@RUFRbFG|FApAMvFa@tPOnHqBOIjDc@Q","length":84},"routeShortName":"10","routeLongName":"Notre-Dame du Saguenay","rentedBike":false,"transitLeg":true,"duration":908.0,"steps":[]},{"startTime":1522680300000,"endTime":1522681238000,"departureDelay":0,"arrivalDelay":0,"realTime":false,"distance":5401.617793876785,"pathway":false,"mode":"BUS","route":"20","agencyName":"Société de Transport du Saguenay","agencyUrl":"http://ville.saguenay.ca/fr/services-aux-citoyens/transport-sts","agencyTimeZoneOffset":-14400000,"routeColor":"0000FF","routeType":3,"routeId":"1:20","routeTextColor":"FFFFFF","interlineWithPreviousLeg":false,"tripBlockId":"3","headsign":"Terminus Chicoutimi","agencyId":"0","tripId":"1:217195","serviceDate":"20180402","from":{"name":"Terminus Chicoutimi","stopId":"1:1289","stopCode":"1289","lon":-71.066163,"lat":48.428677,"arrival":1522680000000,"departure":1522680300000,"zoneId":"NA","stopIndex":0,"stopSequence":1,"vertexType":"TRANSIT"},"to":{"name":"Giffard / St-Jérôme","stopId":"1:693","stopCode":"693","lon":-71.09356,"lat":48.44822,"arrival":1522681238000,"departure":1522681239000,"zoneId":"NA","stopIndex":17,"stopSequence":18,"vertexType":"TRANSIT"},"legGeometry":{"points":"evqfHzcwpLg@?UhKwAIWACp@O\\WjGOfGCRK^KJMHQB_AMg@Gw`@eR}@g@u@Su@Ia@Ck@Dm@HwAf@c@VeAx@iAlAU^[d@eLtTsAvBg@bAPVd@t@PNNF@@P?TI`@YLITGV?NBTFRNNP`@OLCHGHIFMDSR{ARaBbDdAb@H`Fd@EbAE`AIdBK`AOdAMd@EJKR}B~Bw@`Bs@dB]bAWb@q@jAaB|BkA~A}@nAu@IIAe@Cs@Fy@DWA[EUGyCgAU~@Sx@{A`FyBfHmDjJCDEVE`B?vFBjC@ZFX\\j@T^JVBNBV@RCbE?VCVy@nGCRCFGLKJQNSHaAZa@Pk@\\a@XZrAHp@@FDj@Bp@?~I@fHAd@C`@ERELA@GHMHi@PSBy@BW?YDMDC?OHULWVOXQXSb@~@~BJXF`@Fj@?VAvACv@e@hNGx@MdAQr@ILQ\\a@d@w@aCCQAO@ODOHQDSDWLoDRgGBMFMHIHAfBNDuA@wA?WGk@Ga@KY_A_CRc@PYNYUk@Q[O]KYC]_AaQ","length":188},"routeShortName":"20","routeLongName":"Sainte-Claire","rentedBike":false,"transitLeg":true,"duration":938.0,"steps":[]},{"startTime":1522681239000,"endTime":1522681578000,"departureDelay":0,"arrivalDelay":0,"realTime":false,"distance":431.81600000000003,"pathway":false,"mode":"WALK","route":"","agencyTimeZoneOffset":-14400000,"interlineWithPreviousLeg":false,"from":{"name":"Giffard / St-Jérôme","stopId":"1:693","stopCode":"693","lon":-71.09356,"lat":48.44822,"arrival":1522681238000,"departure":1522681239000,"zoneId":"NA","stopIndex":17,"stopSequence":18,"vertexType":"TRANSIT"},"to":{"name":"Destination","lon":-71.093395,"lat":48.451792,"arrival":1522681578000,"orig":"","vertexType":"NORMAL"},"legGeometry":{"points":"aqufH|m|pL@TgGcAuCgA_@KkDHq@CSEMtA?@","length":10},"rentedBike":false,"transitLeg":false,"duration":339.0,"steps":[{"distance":8.627,"relativeDirection":"DEPART","streetName":"Rue Giffard","absoluteDirection":"WEST","stayOn":false,"area":false,"bogusName":false,"lon":-71.09358221613427,"lat":48.44833284604912,"elevation":[]},{"distance":389.801,"relativeDirection":"RIGHT","streetName":"Rue Saint-Jérome","absoluteDirection":"NORTH","stayOn":false,"area":false,"bogusName":false,"lon":-71.0936982,"lat":48.4483228,"elevation":[]},{"distance":33.388000000000005,"relativeDirection":"LEFT","streetName":"Boulevard Sainte-Geneviève","absoluteDirection":"WEST","stayOn":false,"area":false,"bogusName":false,"lon":-71.0929383,"lat":48.451763400000004,"elevation":[]}]}],"tooSloped":false},{"duration":1454,"startTime":1522684312000,"endTime":1522685766000,"walkTime":668,"transitTime":784,"waitingTime":2,"walkDistance":868.5387969902614,"walkLimitExceeded":false,"elevationLost":0.0,"elevationGained":0.0,"transfers":0,"legs":[{"startTime":1522684312000,"endTime":1522684979000,"departureDelay":0,"arrivalDelay":0,"realTime":false,"distance":867.675,"pathway":false,"mode":"WALK","route":"","agencyTimeZoneOffset":-14400000,"interlineWithPreviousLeg":false,"from":{"name":"Origin","lon":-71.05188699,"lat":48.41374,"departure":1522684312000,"orig":"","vertexType":"NORMAL"},"to":{"name":"Université du Québec à Chicoutimi","stopId":"1:63","stopCode":"63","lon":-71.051623,"lat":48.419503,"arrival":1522684979000,"departure":1522684980000,"zoneId":"NA","stopIndex":0,"stopSequence":1,"vertexType":"TRANSIT"},"legGeometry":{"points":"}xnfH~htpLSHY@UQy@u@KKaN_MqChI{@hCWt@qAlDKXi@k@yAyAaAcAQQ","length":16},"rentedBike":false,"transitLeg":false,"duration":667.0,"steps":[{"distance":401.016,"relativeDirection":"DEPART","streetName":"Rue d'Alma","absoluteDirection":"NORTH","stayOn":false,"area":false,"bogusName":false,"lon":-71.05183145182109,"lat":48.41375254995333,"elevation":[]},{"distance":321.801,"relativeDirection":"LEFT","streetName":"Rue Chabanel","absoluteDirection":"NORTHWEST","stayOn":false,"area":false,"bogusName":false,"lon":-71.0492358,"lat":48.41685510000001,"elevation":[]},{"distance":144.858,"relativeDirection":"RIGHT","streetName":"Rue de la Fondation","absoluteDirection":"NORTHEAST","stayOn":false,"area":false,"bogusName":false,"lon":-71.05284470000001,"lat":48.4184787,"elevation":[]}]},{"startTime":1522684980000,"endTime":1522685764000,"departureDelay":0,"arrivalDelay":0,"realTime":false,"distance":5233.220360180408,"pathway":false,"mode":"BUS","route":"65","agencyName":"Société de Transport du Saguenay","agencyUrl":"http://ville.saguenay.ca/fr/services-aux-citoyens/transport-sts","agencyTimeZoneOffset":-14400000,"routeColor":"00FFFF","routeType":3,"routeId":"1:65","routeTextColor":"000000","interlineWithPreviousLeg":false,"tripBlockId":"75","headsign":"Épicerie culinaire","agencyId":"0","tripId":"1:218626","serviceDate":"20180402","from":{"name":"Université du Québec à Chicoutimi","stopId":"1:63","stopCode":"63","lon":-71.051623,"lat":48.419503,"arrival":1522684979000,"departure":1522684980000,"zoneId":"NA","stopIndex":0,"stopSequence":1,"vertexType":"TRANSIT"},"to":{"name":"boul. Ste-Geneviève / St-Sauveur","stopId":"1:710","stopCode":"710","lon":-71.093342,"lat":48.451898,"arrival":1522685764000,"departure":1522685765000,"zoneId":"NA","stopIndex":14,"stopSequence":15,"vertexType":"TRANSIT"},"legGeometry":{"points":"e}ofHjhtpLmCkCI@GHuCrIyA{AaBeBg@vAsClJAh@Bf@Hp@Hp@HdA@fA?h@O|@Ul@u@bAm@~AuDqDmEkE]a@kAqAU|@WnKG|DGxDOdPKvJU|F?XGbDgCO}BYkCSCn@m@EEnAWxLoBKCp@O\\WjGOfGCRK^KJMHQB_AMg@Gw`@eR}@g@u@Su@Ia@Ck@Dm@HwAf@c@VeAx@iAlAU^[d@eLtTsAvB_CvEuAnCmBlE}@|B_BvFoC`JCD}@hCo@~Aq@pAs@fA{BlCoOrQMP}@jAY`@q@jAm@jA}@rBmArD?Tu@|CYzAEToB`S","length":92},"routeShortName":"65","routeLongName":"Term. Chic / Shipshaw","rentedBike":false,"transitLeg":true,"duration":784.0,"steps":[]},{"startTime":1522685765000,"endTime":1522685766000,"departureDelay":0,"arrivalDelay":0,"realTime":false,"distance":0.795,"pathway":false,"mode":"WALK","route":"","agencyTimeZoneOffset":-14400000,"interlineWithPreviousLeg":false,"from":{"name":"boul. Ste-Geneviève / St-Sauveur","stopId":"1:710","stopCode":"710","lon":-71.093342,"lat":48.451898,"arrival":1522685764000,"departure":1522685765000,"zoneId":"NA","stopIndex":14,"stopSequence":15,"vertexType":"TRANSIT"},"to":{"name":"Destination","lon":-71.093395,"lat":48.451792,"arrival":1522685766000,"orig":"","vertexType":"NORMAL"},"legGeometry":{"points":"}fvfHpl|pL?@","length":2},"rentedBike":false,"transitLeg":false,"duration":1.0,"steps":[{"distance":0.795,"relativeDirection":"DEPART","streetName":"Boulevard Sainte-Geneviève","absoluteDirection":"WEST","stayOn":false,"area":false,"bogusName":false,"lon":-71.09336582664865,"lat":48.45183764621949,"elevation":[]}]}],"tooSloped":false}]},"debugOutput":{"precalculationTime":32,"pathCalculationTime":85,"pathTimes":[28,24,33],"renderingTime":0,"totalTime":117,"timedOut":false},"elevationMetadata":{"ellipsoidToGeoidDifference":-28.885904201182168,"geoidElevation":false}}