{"requestParameters":{"date":"2018/04/02","walkSpeed":"1.33","walkReluctance":"2.0","fromPlace":"48.441554,-71.051185","maxWalkDistance":"3000","waitReluctance":"1.0","carSpeed":"33","numItineraries":"3","waitAtBeginningFactor":"0.4","mode":"TRANSIT,WALK","ignoreRealtimeUpdates":"false","stairsReluctance":"2.0","toPlace":"48.444072,-71.053159","time":"17:27:00"},"plan":{"date":1522704420000,"from":{"name":"Origin","lon":-71.051185,"lat":48.441554,"orig":"","vertexType":"NORMAL"},"to":{"name":"Destination","lon":-71.053159,"lat":48.444072,"orig":"","vertexType":"NORMAL"},"itineraries":[{"duration":394,"startTime":1522704420000,"endTime":1522704814000,"walkTime":394,"transitTime":0,"waitingTime":0,"walkDistance":500.21987969596074,"walkLimitExceeded":false,"elevationLost":0.0,"elevationGained":0.0,"transfers":0,"legs":[{"startTime":1522704420000,"endTime":1522704814000,"departureDelay":0,"arrivalDelay":0,"realTime":false,"distance":500.118,"pathway":false,"mode":"WALK","route":"","agencyTimeZoneOffset":-14400000,"interlineWithPreviousLeg":false,"from":{"name":"Origin","lon":-71.051185,"lat":48.441554,"departure":1522704420000,"orig":"","vertexType":"NORMAL"},"to":{"name":"Destination","lon":-71.053159,"lat":48.444072,"arrival":1522704814000,"orig":"","vertexType":"NORMAL"},"legGeometry":{"points":"chtfHpftpLGOIOuAkD_AaCYw@}@v@QPKNIXId@WhCs@~GQrBk@U","length":15},"rentedBike":false,"transitLeg":false,"duration":394.0,"steps":[{"distance":180.31799999999998,"relativeDirection":"DEPART","streetName":"Boulevard de Tadoussac","absoluteDirection":"NORTHEAST","stayOn":false,"area":false,"bogusName":false,"lon":-71.05144979909907,"lat":48.441786211073214,"elevation":[]},{"distance":293.978,"relativeDirection":"LEFT","streetName":"Rue Monseigneur-Laval","absoluteDirection":"NORTHWEST","stayOn":false,"area":false,"bogusName":false,"lon":-71.0494919,"lat":48.442756900000006,"elevation":[]},{"distance":25.822,"relativeDirection":"RIGHT","streetName":"Rue de Verdun","absoluteDirection":"NORTH","stayOn":false,"area":false,"bogusName":false,"lon":-71.05297780000001,"lat":48.4437865,"elevation":[]}]}],"tooSloped":false},{"duration":404,"startTime":1522704808000,"endTime":1522705212000,"walkTime":362,"transitTime":40,"waitingTime":2,"walkDistance":456.5918947333607,"walkLimitExceeded":false,"elevationLost":0.0,"elevationGained":0.0,"transfers":0,"legs":[{"startTime":1522704808000,"endTime":1522704814000,"departureDelay":0,"arrivalDelay":0,"realTime":false,"distance":7.572,"pathway":false,"mode":"WALK","route":"","agencyTimeZoneOffset":-14400000,"interlineWithPreviousLeg":false,"from":{"name":"Origin","lon":-71.051185,"lat":48.441554,"departure":1522704808000,"orig":"","vertexType":"NORMAL"},"to":{"name":"Tadoussac (no. 1850)","stopId":"1:829","stopCode":"829","lon":-71.051444,"lat":48.441894,"arrival":1522704814000,"departure":1522704815000,"zoneId":"NA","stopIndex":27,"stopSequence":28,"vertexType":"TRANSIT"},"legGeometry":{"points":"chtfHpftpLGO","length":2},"rentedBike":false,"transitLeg":false,"duration":6.0,"steps":[{"distance":7.572,"relativeDirection":"DEPART","streetName":"Boulevard de Tadoussac","absoluteDirection":"NORTHEAST","stayOn":false,"area":false,"bogusName":false,"lon":-71.05144979909907,"lat":48.441786211073214,"elevation":[]}]},{"startTime":1522704815000,"endTime":1522704855000,"departureDelay":0,"arrivalDelay":0,"realTime":false,"distance":244.5559080465714,"pathway":false,"mode":"BUS","route":"24","agencyName":"Société de Transport du Saguenay","agencyUrl":"http://ville.saguenay.ca/fr/services-aux-citoyens/transport-sts","agencyTimeZoneOffset":-14400000,"routeColor":"00FF00","routeType":3,"routeId":"1:24","routeTextColor":"000000","interlineWithPreviousLeg":false,"tripBlockId":"5","headsign":"Terminus Chicoutimi","agencyId":"0","tripId":"1:217271","serviceDate":"20180402","from":{"name":"Tadoussac (no. 1850)","stopId":"1:829","stopCode":"829","lon":-71.051444,"lat":48.441894,"arrival":1522704814000,"departure":1522704815000,"zoneId":"NA","stopIndex":27,"stopSequence":28,"vertexType":"TRANSIT"},"to":{"name":"boul. Tadoussac / St-Benoit","stopId":"1:812","stopCode":"812","lon":-71.05473,"lat":48.441602,"arrival":1522704855000,"departure":1522704856000,"zoneId":"NA","stopIndex":28,"stopSequence":29,"vertexType":"TRANSIT"},"legGeometry":{"points":"ohtfHdftpLN\\bAjCTnAHvA@|@CPIpAe@pD","length":9},"routeShortName":"24","routeLongName":"Saint-Luc","rentedBike":false,"transitLeg":true,"duration":40.0,"steps":[]},{"startTime":1522704856000,"endTime":1522705212000,"departureDelay":0,"arrivalDelay":0,"realTime":false,"distance":448.912,"pathway":false,"mode":"WALK","route":"","agencyTimeZoneOffset":-14400000,"interlineWithPreviousLeg":false,"from":{"name":"boul. Tadoussac / St-Benoit","stopId":"1:812","stopCode":"812","lon":-71.05473,"lat":48.441602,"arrival":1522704855000,"departure":1522704856000,"zoneId":"NA","stopIndex":28,"stopSequence":29,"vertexType":"TRANSIT"},"to":{"name":"Destination","lon":-71.053159,"lat":48.444072,"arrival":1522705212000,"orig":"","vertexType":"NORMAL"},"legGeometry":{"points":"mftfHj{tpLPoAD]Fc@Hy@BW@YcC_AgC{@wEaBQrBk@U","length":12},"rentedBike":false,"transitLeg":false,"duration":356.0,"steps":[{"distance":97.602,"relativeDirection":"DEPART","streetName":"Boulevard de Tadoussac","absoluteDirection":"EAST","stayOn":false,"area":false,"bogusName":false,"lon":-71.05477346728453,"lat":48.44151609606305,"elevation":[]},{"distance":281.201,"relativeDirection":"LEFT","streetName":"Rue Viau","absoluteDirection":"NORTH","stayOn":false,"area":false,"bogusName":false,"lon":-71.05350340000001,"lat":48.4412736,"elevation":[]},{"distance":44.287,"relativeDirection":"LEFT","streetName":"Rue Monseigneur-Laval","absoluteDirection":"WEST","stayOn":false,"area":false,"bogusName":false,"lon":-71.05239420000001,"lat":48.4436929,"elevation":[]},{"distance":25.822,"relativeDirection":"RIGHT","streetName":"Rue de Verdun","absoluteDirection":"NORTH","stayOn":false,"area":false,"bogusName":false,"lon":-71.05297780000001,"lat":48.4437865,"elevation":[]}]}],"tooSloped":false},{"duration":390,"startTime":1522704939000,"endTime":1522705329000,"walkTime":362,"transitTime":26,"waitingTime":2,"walkDistance":456.5918947333607,"walkLimitExceeded":false,"elevationLost":0.0,"elevationGained":0.0,"transfers":0,"legs":[{"startTime":1522704939000,"endTime":1522704945000,"departureDelay":0,"arrivalDelay":0,"realTime":false,"distance":7.572,"pathway":false,"mode":"WALK","route":"","agencyTimeZoneOffset":-14400000,"interlineWithPreviousLeg":false,"from":{"name":"Origin","lon":-71.051185,"lat":48.441554,"departure":1522704939000,"orig":"","vertexType":"NORMAL"},"to":{"name":"Tadoussac (no. 1850)","stopId":"1:829","stopCode":"829","lon":-71.051444,"lat":48.441894,"arrival":1522704945000,"departure":1522704946000,"zoneId":"NA","stopIndex":23,"stopSequence":24,"vertexType":"TRANSIT"},"legGeometry":{"points":"chtfHpftpLGO","length":2},"rentedBike":false,"transitLeg":false,"duration":6.0,"steps":[{"distance":7.572,"relativeDirection":"DEPART","streetName":"Boulevard de Tadoussac","absoluteDirection":"NORTHEAST","stayOn":false,"area":false,"bogusName":false,"lon":-71.05144979909907,"lat":48.441786211073214,"elevation":[]}]},{"startTime":1522704946000,"endTime":1522704972000,"departureDelay":0,"arrivalDelay":0,"realTime":false,"distance":244.5559080465714,"pathway":false,"mode":"BUS","route":"25","agencyName":"Société de Transport du Saguenay","agencyUrl":"http://ville.saguenay.ca/fr/services-aux-citoyens/transport-sts","agencyTimeZoneOffset":-14400000,"routeColor":"00FFFF","routeType":3,"routeId":"1:25","routeTextColor":"000000","interlineWithPreviousLeg":false,"tripBlockId":"97","headsign":"Terminus Chicoutimi","agencyId":"0","tripId":"1:218742","serviceDate":"20180402","from":{"name":"Tadoussac (no. 1850)","stopId":"1:829","stopCode":"829","lon":-71.051444,"lat":48.441894,"arrival":1522704945000,"departure":1522704946000,"zoneId":"NA","stopIndex":23,"stopSequence":24,"vertexType":"TRANSIT"},"to":{"name":"boul. Tadoussac / St-Benoit","stopId":"1:812","stopCode":"812","lon":-71.05473,"lat":48.441602,"arrival":1522704972000,"departure":1522704973000,"zoneId":"NA","stopIndex":24,"stopSequence":25,"vertexType":"TRANSIT"},"legGeometry":{"points":"ohtfHdftpLN\\bAjCTnAHvA@|@CPIpAS`BQnA","length":10},"routeShortName":"25","routeLongName":"Valin","rentedBike":false,"transitLeg":true,"duration":26.0,"steps":[]},{"startTime":1522704973000,"endTime":1522705329000,"departureDelay":0,"arrivalDelay":0,"realTime":false,"distance":448.912,"pathway":false,"mode":"WALK","route":"","agencyTimeZoneOffset":-14400000,"interlineWithPreviousLeg":false,"from":{"name":"boul. Tadoussac / St-Benoit","stopId":"1:812","stopCode":"812","lon":-71.05473,"lat":48.441602,"arrival":1522704972000,"departure":1522704973000,"zoneId":"NA","stopIndex":24,"stopSequence":25,"vertexType":"TRANSIT"},"to":{"name":"Destination","lon":-71.053159,"lat":48.444072,"arrival":1522705329000,"orig":"","vertexType":"NORMAL"},"legGeometry":{"points":"mftfHj{tpLPoAD]Fc@Hy@BW@YcC_AgC{@wEaBQrBk@U","length":12},"rentedBike":false,"transitLeg":false,"duration":356.0,"steps":[{"distance":97.602,"relativeDirection":"DEPART","streetName":"Boulevard de Tadoussac","absoluteDirection":"EAST","stayOn":false,"area":false,"bogusName":false,"lon":-71.05477346728453,"lat":48.44151609606305,"elevation":[]},{"distance":281.201,"relativeDirection":"LEFT","streetName":"Rue Viau","absoluteDirection":"NORTH","stayOn":false,"area":false,"bogusName":false,"lon":-71.05350340000001,"lat":48.4412736,"elevation":[]},{"distance":44.287,"relativeDirection":"LEFT","streetName":"Rue Monseigneur-Laval","absoluteDirection":"WEST","stayOn":false,"area":false,"bogusName":false,"lon":-71.05239420000001,"lat":48.4436929,"elevation":[]},{"distance":25.822,"relativeDirection":"RIGHT","streetName":"Rue de Verdun","absoluteDirection":"NORTH","stayOn":false,"area":false,"bogusName":false,"lon":-71.05297780000001,"lat":48.4437865,"elevation":[]}]}],"tooSloped":false}]},"debugOutput":{"precalculationTime":14,"pathCalculationTime":16,"pathTimes":[2,6,8],"renderingTime":0,"totalTime":30,"timedOut":false},"elevationMetadata":{"ellipsoidToGeoidDifference":-28.885904201182168,"geoidElevation":false}}