{"requestParameters":{"date":"2018/04/02","walkSpeed":"1.33","walkReluctance":"2.0","fromPlace":"48.413529,-71.07631299","maxWalkDistance":"3000","waitReluctance":"1.0","carSpeed":"33","numItineraries":"3","waitAtBeginningFactor":"0.4","mode":"TRANSIT,WALK","ignoreRealtimeUpdates":"false","stairsReluctance":"2.0","toPlace":"48.444932,-71.05379","time":"13:15:00"},"plan":{"date":1522689300000,"from":{"name":"Origin","lon":-71.07631299,"lat":48.413529,"orig":"","vertexType":"NORMAL"},"to":{"name":"Destination","lon":-71.05379,"lat":48.444932,"orig":"","vertexType":"NORMAL"},"itineraries":[{"duration":2189,"startTime":1522689703000,"endTime":1522691892000,"walkTime":1090,"transitTime":857,"waitingTime":242,"walkDistance":1386.2000601415332,"walkLimitExceeded":false,"elevationLost":0.0,"elevationGained":0.0,"transfers":1,"legs":[{"startTime":1522689703000,"endTime":1522690387000,"departureDelay":0,"arrivalDelay":0,"realTime":false,"distance":869.803,"pathway":false,"mode":"WALK","route":"","agencyTimeZoneOffset":-14400000,"interlineWithPreviousLeg":false,"from":{"name":"Origin","lon":-71.07631299,"lat":48.413529,"departure":1522689703000,"orig":"","vertexType":"NORMAL"},"to":{"name":"Saint-Paul / Saint-Henri","stopId":"1:1893","stopCode":"1893","lon":-71.078125,"lat":48.418447,"arrival":1522690387000,"departure":1522690388000,"zoneId":"NA","stopIndex":21,"stopSequence":22,"vertexType":"TRANSIT"},"legGeometry":{"points":"uwnfHraypLwA~A}AxAm@fAcAaA]]o@k@i@g@o@m@oEkEYWi@tA{@rBCC{@{@SQSQaAnCITy@`Ck@|Ax@z@`@`@@B","length":24},"rentedBike":false,"transitLeg":false,"duration":684.0,"steps":[{"distance":158.795,"relativeDirection":"DEPART","streetName":"Rue Henri Bourassa","absoluteDirection":"NORTHWEST","stayOn":false,"area":false,"bogusName":false,"lon":-71.07625276028296,"lat":48.41355853462921,"elevation":[]},{"distance":310.684,"relativeDirection":"RIGHT","streetName":"Rue Boily","absoluteDirection":"NORTHEAST","stayOn":false,"area":false,"bogusName":false,"lon":-71.0775447,"lat":48.4146931,"elevation":[]},{"distance":93.604,"relativeDirection":"LEFT","streetName":"Rue Des Oblats Est","absoluteDirection":"NORTHWEST","stayOn":false,"area":false,"bogusName":false,"lon":-71.07527490000001,"lat":48.4170462,"elevation":[]},{"distance":68.749,"relativeDirection":"RIGHT","streetName":"Rue Caron","absoluteDirection":"NORTHEAST","stayOn":false,"area":false,"bogusName":false,"lon":-71.0762876,"lat":48.4175528,"elevation":[]},{"distance":174.846,"relativeDirection":"LEFT","streetName":"Rue Saint-Henri","absoluteDirection":"NORTHWEST","stayOn":false,"area":false,"bogusName":false,"lon":-71.0757816,"lat":48.4180719,"elevation":[]},{"distance":63.12499999999999,"relativeDirection":"LEFT","streetName":"Rue Saint-Paul","absoluteDirection":"SOUTHWEST","stayOn":false,"area":false,"bogusName":false,"lon":-71.07773680000001,"lat":48.418960000000006,"elevation":[]}]},{"startTime":1522690388000,"endTime":1522690860000,"departureDelay":0,"arrivalDelay":0,"realTime":false,"distance":1949.5263047563287,"pathway":false,"mode":"BUS","route":"11","agencyName":"Société de Transport du Saguenay","agencyUrl":"http://ville.saguenay.ca/fr/services-aux-citoyens/transport-sts","agencyTimeZoneOffset":-14400000,"routeColor":"FF0000","routeType":3,"routeId":"1:11","routeTextColor":"FFFFFF","interlineWithPreviousLeg":false,"tripBlockId":"34","headsign":"Terminus Chicoutimi","agencyId":"0","tripId":"1:218220","serviceDate":"20180402","from":{"name":"Saint-Paul / Saint-Henri","stopId":"1:1893","stopCode":"1893","lon":-71.078125,"lat":48.418447,"arrival":1522690387000,"departure":1522690388000,"zoneId":"NA","stopIndex":21,"stopSequence":22,"vertexType":"TRANSIT"},"to":{"name":"Terminus Chicoutimi","stopId":"1:1289","stopCode":"1289","lon":-71.066163,"lat":48.428677,"arrival":1522690860000,"departure":1522691100000,"zoneId":"NA","stopIndex":30,"stopSequence":31,"vertexType":"TRANSIT"},"legGeometry":{"points":"ovofHzmypLyGyG_IaIs@rBEHwAtDmBvEOd@[bBK~AIf@YHE@Q@O?OCI_@GMEKI_AB_A?Yo@IKCIEIIKOEKCKe@}BKs@CQAUE_A@yCFcDVsLDaCD_@kBKW?e@Q_BQNuEDuBXmNLgHmKm@}BW{AMCn@o@G??","length":53},"routeShortName":"11","routeLongName":"Chic/Faubourg via St-Paul","rentedBike":false,"transitLeg":true,"duration":472.0,"steps":[]},{"startTime":1522691100000,"endTime":1522691485000,"departureDelay":0,"arrivalDelay":0,"realTime":false,"distance":2053.3038354187433,"pathway":false,"mode":"BUS","route":"24","agencyName":"Société de Transport du Saguenay","agencyUrl":"http://ville.saguenay.ca/fr/services-aux-citoyens/transport-sts","agencyTimeZoneOffset":-14400000,"routeColor":"00FF00","routeType":3,"routeId":"1:24","routeTextColor":"000000","interlineWithPreviousLeg":false,"tripBlockId":"4","headsign":"Terminus Chicoutimi","agencyId":"0","tripId":"1:217237","serviceDate":"20180402","from":{"name":"Terminus Chicoutimi","stopId":"1:1289","stopCode":"1289","lon":-71.066163,"lat":48.428677,"arrival":1522690860000,"departure":1522691100000,"zoneId":"NA","stopIndex":0,"stopSequence":1,"vertexType":"TRANSIT"},"to":{"name":"Viau / boul. Tadoussac","stopId":"1:809","stopCode":"809","lon":-71.053452,"lat":48.441096,"arrival":1522691485000,"departure":1522691486000,"zoneId":"NA","stopIndex":6,"stopSequence":7,"vertexType":"TRANSIT"},"legGeometry":{"points":"evqfHzcwpLg@?EhBO~GoBKCp@O\\WjGOfGCRK^KJMHQB_AMg@Gm\\wO]i@wAyA_@WUKMEwEm@Js@Da@??@@??@?@???@???@?@??A@???@A@??A@??A@A??@A?A??@A?A?A?A@A?A???A?A?A???A?A?A?A???A?AAA?A???AAA?A??AA?AA??AA??A??AA??A??AA?A???A????q@C{AAaB?mAEcAGs@OoAa@sB[kAYcASq@Ok@Qq@Ku@MoBKmAa@eHi@FKC_@I??iE}Ah@}DH}@?c@Ea@[_BA?My@Cm@?Y@g@Hu@b@sD\\_DBSyHsC","length":126},"routeShortName":"24","routeLongName":"Saint-Luc","rentedBike":false,"transitLeg":true,"duration":385.0,"steps":[]},{"startTime":1522691486000,"endTime":1522691892000,"departureDelay":0,"arrivalDelay":0,"realTime":false,"distance":516.1229999999999,"pathway":false,"mode":"WALK","route":"","agencyTimeZoneOffset":-14400000,"interlineWithPreviousLeg":false,"from":{"name":"Viau / boul. Tadoussac","stopId":"1:809","stopCode":"809","lon":-71.053452,"lat":48.441096,"arrival":1522691485000,"departure":1522691486000,"zoneId":"NA","stopIndex":6,"stopSequence":7,"vertexType":"TRANSIT"},"to":{"name":"Destination","lon":-71.05379,"lat":48.444932,"arrival":1522691892000,"orig":"","vertexType":"NORMAL"},"legGeometry":{"points":"_dtfHzstpL]McC_AgC{@wEaBQrB_A_@{@]Gf@Ed@CLEJCHEFIJGFOLg@`@E@","length":19},"rentedBike":false,"transitLeg":false,"duration":406.0,"steps":[{"distance":298.888,"relativeDirection":"DEPART","streetName":"Rue Viau","absoluteDirection":"NORTH","stayOn":false,"area":false,"bogusName":false,"lon":-71.05357568173918,"lat":48.44112194220283,"elevation":[]},{"distance":44.287,"relativeDirection":"LEFT","streetName":"Rue Monseigneur-Laval","absoluteDirection":"WEST","stayOn":false,"area":false,"bogusName":false,"lon":-71.05239420000001,"lat":48.4436929,"elevation":[]},{"distance":72.132,"relativeDirection":"RIGHT","streetName":"Rue de Verdun","absoluteDirection":"NORTH","stayOn":false,"area":false,"bogusName":false,"lon":-71.05297780000001,"lat":48.4437865,"elevation":[]},{"distance":100.816,"relativeDirection":"LEFT","streetName":"Rue Saint-Éloi","absoluteDirection":"WEST","stayOn":false,"area":false,"bogusName":false,"lon":-71.0526658,"lat":48.4444013,"elevation":[]}]}],"tooSloped":false},{"duration":2363,"startTime":1522689586000,"endTime":1522691949000,"walkTime":292,"transitTime":1649,"waitingTime":422,"walkDistance":374.09191729107386,"walkLimitExceeded":false,"elevationLost":0.0,"elevationGained":0.0,"transfers":1,"legs":[{"startTime":1522689586000,"endTime":1522689760000,"departureDelay":0,"arrivalDelay":0,"realTime":false,"distance":224.204,"pathway":false,"mode":"WALK","route":"","agencyTimeZoneOffset":-14400000,"interlineWithPreviousLeg":false,"from":{"name":"Origin","lon":-71.07631299,"lat":48.413529,"departure":1522689586000,"orig":"","vertexType":"NORMAL"},"to":{"name":"Parc Saint-Joachim (Boily)","stopId":"1:548","stopCode":"548","lon":-71.076897,"lat":48.415117,"arrival":1522689760000,"departure":1522689761000,"zoneId":"NA","stopIndex":23,"stopSequence":24,"vertexType":"TRANSIT"},"legGeometry":{"points":"uwnfHraypLwA~A}AxAm@fAcAaA]]","length":6},"rentedBike":false,"transitLeg":false,"duration":174.0,"steps":[{"distance":158.795,"relativeDirection":"DEPART","streetName":"Rue Henri Bourassa","absoluteDirection":"NORTHWEST","stayOn":false,"area":false,"bogusName":false,"lon":-71.07625276028296,"lat":48.41355853462921,"elevation":[]},{"distance":65.409,"relativeDirection":"RIGHT","streetName":"Rue Boily","absoluteDirection":"NORTHEAST","stayOn":false,"area":false,"bogusName":false,"lon":-71.0775447,"lat":48.4146931,"elevation":[]}]},{"startTime":1522689761000,"endTime":1522690680000,"departureDelay":0,"arrivalDelay":0,"realTime":false,"distance":3915.686173646386,"pathway":false,"mode":"BUS","route":"14","agencyName":"Société de Transport du Saguenay","agencyUrl":"http://ville.saguenay.ca/fr/services-aux-citoyens/transport-sts","agencyTimeZoneOffset":-14400000,"routeColor":"C0C000","routeType":3,"routeId":"1:14","routeTextColor":"000000","interlineWithPreviousLeg":false,"tripBlockId":"31","headsign":"Terminus Chicoutimi","agencyId":"0","tripId":"1:218135","serviceDate":"20180402","from":{"name":"Parc Saint-Joachim (Boily)","stopId":"1:548","stopCode":"548","lon":-71.076897,"lat":48.415117,"arrival":1522689760000,"departure":1522689761000,"zoneId":"NA","stopIndex":23,"stopSequence":24,"vertexType":"TRANSIT"},"to":{"name":"Terminus Chicoutimi","stopId":"1:1289","stopCode":"1289","lon":-71.066163,"lat":48.428677,"arrival":1522690680000,"departure":1522691100000,"zoneId":"NA","stopIndex":37,"stopSequence":38,"vertexType":"TRANSIT"},"legGeometry":{"points":"{aofHrfypL{IiI][aBhE}@}@oBmBwE{EwE{Ej@mBZeAa@SyEQg@CPcALuCx@{b@t@{[XoDd@sBl@iB~@gA`G{F{A{D_@sBFqDOq@iG{FGIoCkCgBgBsDpLHzBBT`@~COnBQf@gAjAg@bBuDmDmFgFa@_@w@s@CfAOrBEtAGbA?jBQtC?|@ExKMdIG~EUnLEhC}CKkBOkCOYbC","length":58},"routeShortName":"14","routeLongName":"Coopérative","rentedBike":false,"transitLeg":true,"duration":919.0,"steps":[]},{"startTime":1522691100000,"endTime":1522691830000,"departureDelay":0,"arrivalDelay":0,"realTime":false,"distance":5358.844099822367,"pathway":false,"mode":"BUS","route":"23","agencyName":"Société de Transport du Saguenay","agencyUrl":"http://ville.saguenay.ca/fr/services-aux-citoyens/transport-sts","agencyTimeZoneOffset":-14400000,"routeColor":"FF00FF","routeType":3,"routeId":"1:23","routeTextColor":"FFFFFF","interlineWithPreviousLeg":false,"tripBlockId":"5","headsign":"Terminus Chicoutimi","agencyId":"0","tripId":"1:217264","serviceDate":"20180402","from":{"name":"Terminus Chicoutimi","stopId":"1:1289","stopCode":"1289","lon":-71.066163,"lat":48.428677,"arrival":1522690680000,"departure":1522691100000,"zoneId":"NA","stopIndex":0,"stopSequence":1,"vertexType":"TRANSIT"},"to":{"name":"Verdun / St-Éloi","stopId":"1:794","stopCode":"794","lon":-71.053519,"lat":48.446152,"arrival":1522691830000,"departure":1522691831000,"zoneId":"NA","stopIndex":16,"stopSequence":17,"vertexType":"TRANSIT"},"legGeometry":{"points":"kwqfHjbwpLF_CkAOYCm@rRO\\WjGOfGCRK^KJMHQB_AMg@Gw`@eR}@g@u@Su@Ia@Ck@Dm@HwAf@c@VeAx@iAlAU^[d@eLtTsAvB_CvEuAnCmBlE}@|B_BvFoC`JCD}@hCo@~Aq@pAs@fA{BlCqH|Iq@Bq@Im@UGCUi@Wm@ScA_@gGSaE@_@@_@@ERoBFe@No@`@gAbCyFNe@Ha@He@Fg@Du@Dg@Hc@Pa@RW\\S`@QZEm@eHM}B?GGi@Is@Ou@Qw@Mo@Kw@ImAGoBAk@aALa@?YEUKc@Yc@_@KOIUGUEWAW?YBqAH_AXeC@IdB_Mh@_EJk@d@kDhAqI`AgHz@oGBU?UAWCWUwAWD]B]AUEoAc@kE}AOIq@g@g@u@]w@b@s@T[~CkFf@s@\\e@x@}@jAeAXQZStBaAh@]`@]`@i@l@kD","length":136},"routeShortName":"23","routeLongName":"Côte Verdun via Aréna du Plateau","rentedBike":false,"transitLeg":true,"duration":730.0,"steps":[]},{"startTime":1522691831000,"endTime":1522691949000,"departureDelay":0,"arrivalDelay":0,"realTime":false,"distance":149.821,"pathway":false,"mode":"WALK","route":"","agencyTimeZoneOffset":-14400000,"interlineWithPreviousLeg":false,"from":{"name":"Verdun / St-Éloi","stopId":"1:794","stopCode":"794","lon":-71.053519,"lat":48.446152,"arrival":1522691830000,"departure":1522691831000,"zoneId":"NA","stopIndex":16,"stopSequence":17,"vertexType":"TRANSIT"},"to":{"name":"Destination","lon":-71.05379,"lat":48.444932,"arrival":1522691949000,"orig":"","vertexType":"NORMAL"},"legGeometry":{"points":"wcufHhstpLDY~B|@F@JDD@D?H?H?JAFAJALCLG","length":14},"rentedBike":false,"transitLeg":false,"duration":118.0,"steps":[{"distance":10.683,"relativeDirection":"DEPART","streetName":"Rue de Verdun","absoluteDirection":"EAST","stayOn":false,"area":false,"bogusName":false,"lon":-71.05348776384805,"lat":48.4462094810194,"elevation":[]},{"distance":139.138,"relativeDirection":"RIGHT","streetName":"Rue Saint-Éloi","absoluteDirection":"SOUTH","stayOn":false,"area":false,"bogusName":false,"lon":-71.0533515,"lat":48.446176900000005,"elevation":[]}]}],"tooSloped":false},{"duration":2570,"startTime":1522691179000,"endTime":1522693749000,"walkTime":1838,"transitTime":730,"waitingTime":2,"walkDistance":2359.9961503659324,"walkLimitExceeded":false,"elevationLost":0.0,"elevationGained":0.0,"transfers":0,"legs":[{"startTime":1522691179000,"endTime":1522692899000,"departureDelay":0,"arrivalDelay":0,"realTime":false,"distance":2209.865,"pathway":false,"mode":"WALK","route":"","agencyTimeZoneOffset":-14400000,"interlineWithPreviousLeg":false,"from":{"name":"Origin","lon":-71.07631299,"lat":48.413529,"departure":1522691179000,"orig":"","vertexType":"NORMAL"},"to":{"name":"Terminus Chicoutimi","stopId":"1:1289","stopCode":"1289","lon":-71.066163,"lat":48.428677,"arrival":1522692899000,"departure":1522692900000,"zoneId":"NA","stopIndex":0,"stopSequence":1,"vertexType":"TRANSIT"},"legGeometry":{"points":"uwnfHraypLwA~A}AxAm@fAcAaA]]o@k@i@g@o@m@oEkEYWd@qA}AeBkAqAwA{AuA}AqAuAeAkAKM}A}An@}AT{HISgAG[KSCgCQkBOMAQASAs@Eu@EyAGe@C{BOm@Ec@o@MMi@oAaBuDg@eAo@qBk@g@Ao@QG_@C{BUsAGkCQQAsBIc@MKESAcAK","length":56},"rentedBike":false,"transitLeg":false,"duration":1720.0,"steps":[{"distance":158.795,"relativeDirection":"DEPART","streetName":"Rue Henri Bourassa","absoluteDirection":"NORTHWEST","stayOn":false,"area":false,"bogusName":false,"lon":-71.07625276028296,"lat":48.41355853462921,"elevation":[]},{"distance":310.684,"relativeDirection":"RIGHT","streetName":"Rue Boily","absoluteDirection":"NORTHEAST","stayOn":false,"area":false,"bogusName":false,"lon":-71.0775447,"lat":48.4146931,"elevation":[]},{"distance":36.581,"relativeDirection":"RIGHT","streetName":"Rue Des Oblats Est","absoluteDirection":"SOUTHEAST","stayOn":false,"area":false,"bogusName":false,"lon":-71.07527490000001,"lat":48.4170462,"elevation":[]},{"distance":409.582,"relativeDirection":"LEFT","streetName":"Rue Des Eudistes","absoluteDirection":"NORTHEAST","stayOn":false,"area":false,"bogusName":false,"lon":-71.07486750000001,"lat":48.4168588,"elevation":[]},{"distance":44.289,"relativeDirection":"RIGHT","streetName":"Rue Jolliet","absoluteDirection":"SOUTHEAST","stayOn":false,"area":false,"bogusName":false,"lon":-71.07166600000001,"lat":48.4198673,"elevation":[]},{"distance":183.554,"relativeDirection":"SLIGHTLY_LEFT","streetName":"Rue de la Cascade","absoluteDirection":"EAST","stayOn":false,"area":false,"bogusName":false,"lon":-71.0711947,"lat":48.4196207,"elevation":[]},{"distance":401.788,"relativeDirection":"CONTINUE","streetName":"Rue Sainte-Anne","absoluteDirection":"NORTH","stayOn":false,"area":false,"bogusName":false,"lon":-71.0694115,"lat":48.4200664,"elevation":[]},{"distance":272.594,"relativeDirection":"SLIGHTLY_RIGHT","streetName":"path","absoluteDirection":"NORTHEAST","stayOn":false,"area":false,"bogusName":true,"lon":-71.06896330000001,"lat":48.423667200000004,"elevation":[]},{"distance":17.515,"relativeDirection":"RIGHT","streetName":"Rue Price Est","absoluteDirection":"EAST","stayOn":false,"area":false,"bogusName":false,"lon":-71.0662212,"lat":48.425276600000004,"elevation":[]},{"distance":374.483,"relativeDirection":"LEFT","streetName":"Rue Morin","absoluteDirection":"NORTH","stayOn":false,"area":false,"bogusName":false,"lon":-71.06598410000001,"lat":48.4252842,"elevation":[]}]},{"startTime":1522692900000,"endTime":1522693630000,"departureDelay":0,"arrivalDelay":0,"realTime":false,"distance":5358.844099822367,"pathway":false,"mode":"BUS","route":"23","agencyName":"Société de Transport du Saguenay","agencyUrl":"http://ville.saguenay.ca/fr/services-aux-citoyens/transport-sts","agencyTimeZoneOffset":-14400000,"routeColor":"FF00FF","routeType":3,"routeId":"1:23","routeTextColor":"FFFFFF","interlineWithPreviousLeg":false,"tripBlockId":"4","headsign":"Terminus Chicoutimi","agencyId":"0","tripId":"1:217238","serviceDate":"20180402","from":{"name":"Terminus Chicoutimi","stopId":"1:1289","stopCode":"1289","lon":-71.066163,"lat":48.428677,"arrival":1522692899000,"departure":1522692900000,"zoneId":"NA","stopIndex":0,"stopSequence":1,"vertexType":"TRANSIT"},"to":{"name":"Verdun / St-Éloi","stopId":"1:794","stopCode":"794","lon":-71.053519,"lat":48.446152,"arrival":1522693630000,"departure":1522693631000,"zoneId":"NA","stopIndex":16,"stopSequence":17,"vertexType":"TRANSIT"},"legGeometry":{"points":"kwqfHjbwpLF_CkAOYCm@rRO\\WjGOfGCRK^KJMHQB_AMg@Gw`@eR}@g@u@Su@Ia@Ck@Dm@HwAf@c@VeAx@iAlAU^[d@eLtTsAvB_CvEuAnCmBlE}@|B_BvFoC`JCD}@hCo@~Aq@pAs@fA{BlCqH|Iq@Bq@Im@UGCUi@Wm@ScA_@gGSaE@_@@_@@ERoBFe@No@`@gAbCyFNe@Ha@He@Fg@Du@Dg@Hc@Pa@RW\\S`@QZEm@eHM}B?GGi@Is@Ou@Qw@Mo@Kw@ImAGoBAk@aALa@?YEUKc@Yc@_@KOIUGUEWAW?YBqAH_AXeC@IdB_Mh@_EJk@d@kDhAqI`AgHz@oGBU?UAWCWUwAWD]B]AUEoAc@kE}AOIq@g@g@u@]w@b@s@T[~CkFf@s@\\e@x@}@jAeAXQZStBaAh@]`@]`@i@l@kD","length":136},"routeShortName":"23","routeLongName":"Côte Verdun via Aréna du Plateau","rentedBike":false,"transitLeg":true,"duration":730.0,"steps":[]},{"startTime":1522693631000,"endTime":1522693749000,"departureDelay":0,"arrivalDelay":0,"realTime":false,"distance":149.821,"pathway":false,"mode":"WALK","route":"","agencyTimeZoneOffset":-14400000,"interlineWithPreviousLeg":false,"from":{"name":"Verdun / St-Éloi","stopId":"1:794","stopCode":"794","lon":-71.053519,"lat":48.446152,"arrival":1522693630000,"departure":1522693631000,"zoneId":"NA","stopIndex":16,"stopSequence":17,"vertexType":"TRANSIT"},"to":{"name":"Destination","lon":-71.05379,"lat":48.444932,"arrival":1522693749000,"orig":"","vertexType":"NORMAL"},"legGeometry":{"points":"wcufHhstpLDY~B|@F@JDD@D?H?H?JAFAJALCLG","length":14},"rentedBike":false,"transitLeg":false,"duration":118.0,"steps":[{"distance":10.683,"relativeDirection":"DEPART","streetName":"Rue de Verdun","absoluteDirection":"EAST","stayOn":false,"area":false,"bogusName":false,"lon":-71.05348776384805,"lat":48.4462094810194,"elevation":[]},{"distance":139.138,"relativeDirection":"RIGHT","streetName":"Rue Saint-Éloi","absoluteDirection":"SOUTH","stayOn":false,"area":false,"bogusName":false,"lon":-71.0533515,"lat":48.446176900000005,"elevation":[]}]}],"tooSloped":false}]},"debugOutput":{"precalculationTime":31,"pathCalculationTime":63,"pathTimes":[26,17,20],"renderingTime":1,"totalTime":95,"timedOut":false},"elevationMetadata":{"ellipsoidToGeoidDifference":-28.885904201182168,"geoidElevation":false}}