{"requestParameters":{"date":"2018/04/02","walkSpeed":"1.33","walkReluctance":"2.0","fromPlace":"48.445914,-71.055382","maxWalkDistance":"3000","waitReluctance":"1.0","carSpeed":"33","numItineraries":"3","waitAtBeginningFactor":"0.4","mode":"TRANSIT,WALK","ignoreRealtimeUpdates":"false","stairsReluctance":"2.0","toPlace":"48.451703,-71.09432999","time":"18:0:00"},"plan":{"date":1522706400000,"from":{"name":"Origin","lon":-71.055382,"lat":48.445914,"orig":"","vertexType":"NORMAL"},"to":{"name":"Destination","lon":-71.09432999,"lat":48.451703,"orig":"","vertexType":"NORMAL"},"itineraries":[{"duration":2269,"startTime":1522707893000,"endTime":1522710162000,"walkTime":1295,"transitTime":972,"waitingTime":2,"walkDistance":1657.709834577308,"walkLimitExceeded":false,"elevationLost":0.0,"elevationGained":0.0,"transfers":0,"legs":[{"startTime":1522707893000,"endTime":1522708514000,"departureDelay":0,"arrivalDelay":0,"realTime":false,"distance":786.234,"pathway":false,"mode":"WALK","route":"","agencyTimeZoneOffset":-14400000,"interlineWithPreviousLeg":false,"from":{"name":"Origin","lon":-71.055382,"lat":48.445914,"departure":1522707893000,"orig":"","vertexType":"NORMAL"},"to":{"name":"boul. Tadoussac / St-Benoit","stopId":"1:812","stopCode":"812","lon":-71.05473,"lat":48.441602,"arrival":1522708514000,"departure":1522708515000,"zoneId":"NA","stopIndex":28,"stopSequence":29,"vertexType":"TRANSIT"},"legGeometry":{"points":"maufHh~tpLv@hAP@PPNLZGP]Dc@N{@Tc@Zy@b@aATm@`@WZEt@??_@Be@B[@GBDhGrB|@Xd@_EbC~@AXCVIx@Gb@E\\QnA","length":31},"rentedBike":false,"transitLeg":false,"duration":621.0,"steps":[{"distance":342.349,"relativeDirection":"DEPART","streetName":"Sentier parc bon-air","absoluteDirection":"SOUTHWEST","stayOn":false,"area":false,"bogusName":false,"lon":-71.05524527109468,"lat":48.445834330283574,"elevation":[]},{"distance":2.801,"relativeDirection":"CONTINUE","streetName":"path","absoluteDirection":"EAST","stayOn":false,"area":false,"bogusName":true,"lon":-71.0534445,"lat":48.443792800000004,"elevation":[]},{"distance":192.197,"relativeDirection":"RIGHT","streetName":"Rue Boileau","absoluteDirection":"SOUTH","stayOn":false,"area":false,"bogusName":false,"lon":-71.0534092,"lat":48.4437835,"elevation":[]},{"distance":74.473,"relativeDirection":"LEFT","streetName":"Rue Colbert","absoluteDirection":"EAST","stayOn":false,"area":false,"bogusName":false,"lon":-71.0541475,"lat":48.4421291,"elevation":[]},{"distance":76.812,"relativeDirection":"RIGHT","streetName":"Rue Viau","absoluteDirection":"SOUTH","stayOn":false,"area":false,"bogusName":false,"lon":-71.0531831,"lat":48.4419309,"elevation":[]},{"distance":97.602,"relativeDirection":"RIGHT","streetName":"Boulevard de Tadoussac","absoluteDirection":"WEST","stayOn":false,"area":false,"bogusName":false,"lon":-71.05350340000001,"lat":48.4412736,"elevation":[]}]},{"startTime":1522708515000,"endTime":1522708920000,"departureDelay":0,"arrivalDelay":0,"realTime":false,"distance":2557.5943730526383,"pathway":false,"mode":"BUS","route":"24","agencyName":"Société de Transport du Saguenay","agencyUrl":"http://ville.saguenay.ca/fr/services-aux-citoyens/transport-sts","agencyTimeZoneOffset":-14400000,"routeColor":"00FF00","routeType":3,"routeId":"1:24","routeTextColor":"000000","interlineWithPreviousLeg":false,"tripBlockId":"5","headsign":"Terminus Chicoutimi","agencyId":"0","tripId":"1:217273","serviceDate":"20180402","from":{"name":"boul. Tadoussac / St-Benoit","stopId":"1:812","stopCode":"812","lon":-71.05473,"lat":48.441602,"arrival":1522708514000,"departure":1522708515000,"zoneId":"NA","stopIndex":28,"stopSequence":29,"vertexType":"TRANSIT"},"to":{"name":"Terminus Chicoutimi","stopId":"1:1289","stopCode":"1289","lon":-71.066163,"lat":48.428677,"arrival":1522708920000,"departure":1522709100000,"zoneId":"NA","stopIndex":35,"stopSequence":36,"vertexType":"TRANSIT"},"legGeometry":{"points":"mftfHj{tpLUfBCTEXK~@MxAEn@@v@Bp@Dr@l@~HNlAH\\@HLd@\\z@Xd@X\\RTXRr@Zn@PfExAvDpALnBJt@Pp@Nj@l@tBHZPn@`@rBNnAFr@DbA?bB@jABzA?p@A???A???A?A???A@??A?A@??A@?@A??@A@???@A@?@?@A@?@?@?@?@???@?@?@?@?@?@@@?@?@@@?@@@?@@@?@@?@@??@@@?E`@Kr@]rACVEl@I|AAr@JbAWJe@FUAM?a@Ke@YYWWa@v@}@RQPMz@k@tAe@REZG^Af@@X@VF`@Jn@XbClAr@Xt\\`PrAb@pA^hBTjAFj@Pb@JPHLLJNJRFXDT?X?ZEVEVKTMNMHMFOB}DWSGOSYcAN}FFkAF}DJyDPwGvAHN_HDiB@m@","length":153},"routeShortName":"24","routeLongName":"Saint-Luc","rentedBike":false,"transitLeg":true,"duration":405.0,"steps":[]},{"startTime":1522709100000,"endTime":1522709487000,"departureDelay":0,"arrivalDelay":0,"realTime":false,"distance":2669.4064857723333,"pathway":false,"mode":"BUS","route":"23","agencyName":"Société de Transport du Saguenay","agencyUrl":"http://ville.saguenay.ca/fr/services-aux-citoyens/transport-sts","agencyTimeZoneOffset":-14400000,"routeColor":"FF00FF","routeType":3,"routeId":"1:23","routeTextColor":"FFFFFF","interlineWithPreviousLeg":true,"tripBlockId":"5","headsign":"Terminus Chicoutimi","agencyId":"0","tripId":"1:217274","serviceDate":"20180402","from":{"name":"Terminus Chicoutimi","stopId":"1:1289","stopCode":"1289","lon":-71.066163,"lat":48.428677,"arrival":1522708920000,"departure":1522709100000,"zoneId":"NA","stopIndex":0,"stopSequence":1,"vertexType":"TRANSIT"},"to":{"name":"St-Gérard / Pasteur","stopId":"1:727","stopCode":"727","lon":-71.084309,"lat":48.448719,"arrival":1522709487000,"departure":1522709488000,"zoneId":"NA","stopIndex":4,"stopSequence":5,"vertexType":"TRANSIT"},"legGeometry":{"points":"kwqfHjbwpLF_CkAOYCm@rRO\\WjGOfGCRK^KJMHQB_AMg@Gw`@eR}@g@u@Su@Ia@Ck@Dm@HwAf@c@VeAx@iAlAU^[d@eLtTsAvB_CvEuAnCmBlE}@|B_BvFoC`JCD}@hCo@~Aq@pAs@fA{BlCqH|Iq@Bq@Im@U","length":46},"routeShortName":"23","routeLongName":"Côte Verdun via Aréna du Plateau","rentedBike":false,"transitLeg":true,"duration":387.0,"steps":[]},{"startTime":1522709488000,"endTime":1522710162000,"departureDelay":0,"arrivalDelay":0,"realTime":false,"distance":871.1919999999999,"pathway":false,"mode":"WALK","route":"","agencyTimeZoneOffset":-14400000,"interlineWithPreviousLeg":false,"from":{"name":"St-Gérard / Pasteur","stopId":"1:727","stopCode":"727","lon":-71.084309,"lat":48.448719,"arrival":1522709487000,"departure":1522709488000,"zoneId":"NA","stopIndex":4,"stopSequence":5,"vertexType":"TRANSIT"},"to":{"name":"Destination","lon":-71.09432999,"lat":48.451703,"arrival":1522710162000,"orig":"","vertexType":"NORMAL"},"legGeometry":{"points":"_tufHptzpLJTv@lBeCpCQTeAxA}AnCcAjCYt@a@nACH[dAAFOj@CHUdAMl@GZGb@EVCRI^It@s@vG[dDMtAQ~APBf@N","length":29},"rentedBike":false,"transitLeg":false,"duration":674.0,"steps":[{"distance":61.371,"relativeDirection":"DEPART","streetName":"Rue Saint-Gérard","absoluteDirection":"SOUTHWEST","stayOn":false,"area":false,"bogusName":false,"lon":-71.0844008886955,"lat":48.448801303287965,"elevation":[]},{"distance":777.1819999999999,"relativeDirection":"RIGHT","streetName":"Boulevard Sainte-Geneviève","absoluteDirection":"NORTHWEST","stayOn":false,"area":false,"bogusName":false,"lon":-71.08506560000001,"lat":48.448469300000006,"elevation":[]},{"distance":32.639,"relativeDirection":"LEFT","streetName":"Rue Saint-Sauveur","absoluteDirection":"SOUTH","stayOn":false,"area":false,"bogusName":false,"lon":-71.0938481,"lat":48.4519214,"elevation":[]}]}],"tooSloped":false},{"duration":2538,"startTime":1522707896000,"endTime":1522710434000,"walkTime":528,"transitTime":1408,"waitingTime":602,"walkDistance":668.6051202959724,"walkLimitExceeded":false,"elevationLost":0.0,"elevationGained":0.0,"transfers":1,"legs":[{"startTime":1522707896000,"endTime":1522708029000,"departureDelay":0,"arrivalDelay":0,"realTime":false,"distance":168.031,"pathway":false,"mode":"WALK","route":"","agencyTimeZoneOffset":-14400000,"interlineWithPreviousLeg":false,"from":{"name":"Origin","lon":-71.055382,"lat":48.445914,"departure":1522707896000,"orig":"","vertexType":"NORMAL"},"to":{"name":"Verdun / St-Éloi","stopId":"1:794","stopCode":"794","lon":-71.053519,"lat":48.446152,"arrival":1522708029000,"departure":1522708030000,"zoneId":"NA","stopIndex":16,"stopSequence":17,"vertexType":"TRANSIT"},"legGeometry":{"points":"maufHh~tpL_CiD`@cBRqA","length":4},"rentedBike":false,"transitLeg":false,"duration":133.0,"steps":[{"distance":94.569,"relativeDirection":"DEPART","streetName":"Sentier parc bon-air","absoluteDirection":"NORTHEAST","stayOn":false,"area":false,"bogusName":false,"lon":-71.05524527109468,"lat":48.445834330283574,"elevation":[]},{"distance":41.517,"relativeDirection":"RIGHT","streetName":"Sentier parc bon-air","absoluteDirection":"SOUTHEAST","stayOn":true,"area":false,"bogusName":false,"lon":-71.0543991,"lat":48.4464733,"elevation":[]},{"distance":31.945,"relativeDirection":"CONTINUE","streetName":"Rue de Verdun","absoluteDirection":"EAST","stayOn":false,"area":false,"bogusName":false,"lon":-71.0538952,"lat":48.4463069,"elevation":[]}]},{"startTime":1522708030000,"endTime":1522708500000,"departureDelay":0,"arrivalDelay":0,"realTime":false,"distance":3054.7698287012436,"pathway":false,"mode":"BUS","route":"23","agencyName":"Société de Transport du Saguenay","agencyUrl":"http://ville.saguenay.ca/fr/services-aux-citoyens/transport-sts","agencyTimeZoneOffset":-14400000,"routeColor":"FF00FF","routeType":3,"routeId":"1:23","routeTextColor":"FFFFFF","interlineWithPreviousLeg":false,"tripBlockId":"4","headsign":"Terminus Chicoutimi","agencyId":"0","tripId":"1:217246","serviceDate":"20180402","from":{"name":"Verdun / St-Éloi","stopId":"1:794","stopCode":"794","lon":-71.053519,"lat":48.446152,"arrival":1522708029000,"departure":1522708030000,"zoneId":"NA","stopIndex":16,"stopSequence":17,"vertexType":"TRANSIT"},"to":{"name":"Terminus Chicoutimi","stopId":"1:1289","stopCode":"1289","lon":-71.066163,"lat":48.428677,"arrival":1522708500000,"departure":1522709100000,"zoneId":"NA","stopIndex":26,"stopSequence":27,"vertexType":"TRANSIT"},"legGeometry":{"points":"ycufHhstpLF_@R{AFWFMPIPC`@BT@V?TAVKLENCLCJ@J@xAb@x@Zz@\\CP?R@N@NFLFF`GtBx@Xw@pG@l@B\\DXL\\RZDFXPf@N@v@Bp@Dr@l@~HNlAH\\@HLd@\\z@Xd@X\\RTXRr@Zn@PfExAvDpALnBJt@Pp@|@`DHZPn@`@rBNnAFr@DbA?bB@jABzA?p@A???A???A?A???A@??A?A@??A@?@A??@A@???@A@?@?@A@?@?@?@?@???@?@?@?@?@?@@@?@?@@@?@@@?@@@?@@?@@??@@@?E`@Kr@]rACVEl@I|AAr@JbAWJe@FUAM?a@Ke@YYWWa@v@}@RQPMz@k@tAe@REZG^Af@@X@VF`@Jn@XbClAr@Xt\\`PrAb@pA^hBTjAFj@Pb@JPHLLJNJRFXDT?X?ZEVEVKTMNMHMFOB}DWSGOSYcAN}FFkAF}DJyDd@wPV_HjAN~ALI`C","length":182},"routeShortName":"23","routeLongName":"Côte Verdun via Aréna du Plateau","rentedBike":false,"transitLeg":true,"duration":470.0,"steps":[]},{"startTime":1522709100000,"endTime":1522710038000,"departureDelay":0,"arrivalDelay":0,"realTime":false,"distance":5401.617793876785,"pathway":false,"mode":"BUS","route":"20","agencyName":"Société de Transport du Saguenay","agencyUrl":"http://ville.saguenay.ca/fr/services-aux-citoyens/transport-sts","agencyTimeZoneOffset":-14400000,"routeColor":"0000FF","routeType":3,"routeId":"1:20","routeTextColor":"FFFFFF","interlineWithPreviousLeg":false,"tripBlockId":"3","headsign":"Terminus Chicoutimi","agencyId":"0","tripId":"1:217211","serviceDate":"20180402","from":{"name":"Terminus Chicoutimi","stopId":"1:1289","stopCode":"1289","lon":-71.066163,"lat":48.428677,"arrival":1522708500000,"departure":1522709100000,"zoneId":"NA","stopIndex":0,"stopSequence":1,"vertexType":"TRANSIT"},"to":{"name":"Giffard / St-Jérôme","stopId":"1:693","stopCode":"693","lon":-71.09356,"lat":48.44822,"arrival":1522710038000,"departure":1522710039000,"zoneId":"NA","stopIndex":17,"stopSequence":18,"vertexType":"TRANSIT"},"legGeometry":{"points":"evqfHzcwpLg@?UhKwAIWACp@O\\WjGOfGCRK^KJMHQB_AMg@Gw`@eR}@g@u@Su@Ia@Ck@Dm@HwAf@c@VeAx@iAlAU^[d@eLtTsAvBg@bAPVd@t@PNNF@@P?TI`@YLITGV?NBTFRNNP`@OLCHGHIFMDSR{ARaBbDdAb@H`Fd@EbAE`AIdBK`AOdAMd@EJKR}B~Bw@`Bs@dB]bAWb@q@jAaB|BkA~A}@nAu@IIAe@Cs@Fy@DWA[EUGyCgAU~@Sx@{A`FyBfHmDjJCDEVE`B?vFBjC@ZFX\\j@T^JVBNBV@RCbE?VCVy@nGCRCFGLKJQNSHaAZa@Pk@\\a@XZrAHp@@FDj@Bp@?~I@fHAd@C`@ERELA@GHMHi@PSBy@BW?YDMDC?OHULWVOXQXSb@~@~BJXF`@Fj@?VAvACv@e@hNGx@MdAQr@ILQ\\a@d@w@aCCQAO@ODOHQDSDWLoDRgGBMFMHIHAfBNDuA@wA?WGk@Ga@KY_A_CRc@PYNYUk@Q[O]KYC]_AaQ","length":188},"routeShortName":"20","routeLongName":"Sainte-Claire","rentedBike":false,"transitLeg":true,"duration":938.0,"steps":[]},{"startTime":1522710039000,"endTime":1522710434000,"departureDelay":0,"arrivalDelay":0,"realTime":false,"distance":500.42600000000004,"pathway":false,"mode":"WALK","route":"","agencyTimeZoneOffset":-14400000,"interlineWithPreviousLeg":false,"from":{"name":"Giffard / St-Jérôme","stopId":"1:693","stopCode":"693","lon":-71.09356,"lat":48.44822,"arrival":1522710038000,"departure":1522710039000,"zoneId":"NA","stopIndex":17,"stopSequence":18,"vertexType":"TRANSIT"},"to":{"name":"Destination","lon":-71.09432999,"lat":48.451703,"arrival":1522710434000,"orig":"","vertexType":"NORMAL"},"legGeometry":{"points":"aqufH|m|pL@TgGcAuCgA_@KkDHq@CSEMtAQ~APBf@N","length":12},"rentedBike":false,"transitLeg":false,"duration":395.0,"steps":[{"distance":8.627,"relativeDirection":"DEPART","streetName":"Rue Giffard","absoluteDirection":"WEST","stayOn":false,"area":false,"bogusName":false,"lon":-71.09358221613427,"lat":48.44833284604912,"elevation":[]},{"distance":389.801,"relativeDirection":"RIGHT","streetName":"Rue Saint-Jérome","absoluteDirection":"NORTH","stayOn":false,"area":false,"bogusName":false,"lon":-71.0936982,"lat":48.4483228,"elevation":[]},{"distance":69.35900000000001,"relativeDirection":"LEFT","streetName":"Boulevard Sainte-Geneviève","absoluteDirection":"WEST","stayOn":false,"area":false,"bogusName":false,"lon":-71.0929383,"lat":48.451763400000004,"elevation":[]},{"distance":32.639,"relativeDirection":"LEFT","streetName":"Rue Saint-Sauveur","absoluteDirection":"SOUTH","stayOn":false,"area":false,"bogusName":false,"lon":-71.0938481,"lat":48.4519214,"elevation":[]}]}],"tooSloped":false},{"duration":2171,"startTime":1522709343000,"endTime":1522711514000,"walkTime":1913,"transitTime":256,"waitingTime":2,"walkDistance":2459.3961578830185,"walkLimitExceeded":false,"elevationLost":0.0,"elevationGained":0.0,"transfers":0,"legs":[{"startTime":1522709343000,"endTime":1522711199000,"departureDelay":0,"arrivalDelay":0,"realTime":false,"distance":2389.628,"pathway":false,"mode":"WALK","route":"","agencyTimeZoneOffset":-14400000,"interlineWithPreviousLeg":false,"from":{"name":"Origin","lon":-71.055382,"lat":48.445914,"departure":1522709343000,"orig":"","vertexType":"NORMAL"},"to":{"name":"boul. Ste-Geneviève / Champs","stopId":"1:705","stopCode":"705","lon":-71.074706,"lat":48.442337,"arrival":1522711199000,"departure":1522711200000,"zoneId":"NA","stopIndex":1,"stopSequence":2,"vertexType":"TRANSIT"},"legGeometry":{"points":"maufHh~tpL_CiDEFEDEFEDONIHGFSLULIFKDe@Rc@Pu@^SHMHWTQP_@`@oBbCqD`GMTg@x@r@pAJLNPNNXPjDpAXJTHbA^H?AtA?\\At@Ed@eAtHKPC?j@~BjAZABKr@[~BpQdHVH`@NJHHFHJHNHRFXHj@hAzMPnBNzBFt@D`@Jr@JXL\\N\\?@t@nB~A|D\\z@?@rAjDt@lBoAdC","length":74},"rentedBike":false,"transitLeg":false,"duration":1856.0,"steps":[{"distance":94.569,"relativeDirection":"DEPART","streetName":"Sentier parc bon-air","absoluteDirection":"NORTHEAST","stayOn":false,"area":false,"bogusName":false,"lon":-71.05524527109468,"lat":48.445834330283574,"elevation":[]},{"distance":482.17,"relativeDirection":"LEFT","streetName":"Rue de Verdun","absoluteDirection":"NORTHWEST","stayOn":false,"area":false,"bogusName":false,"lon":-71.0543991,"lat":48.4464733,"elevation":[]},{"distance":261.361,"relativeDirection":"LEFT","streetName":"Rue Comtois","absoluteDirection":"SOUTHWEST","stayOn":false,"area":false,"bogusName":false,"lon":-71.0580831,"lat":48.4499853,"elevation":[]},{"distance":210.08299999999997,"relativeDirection":"RIGHT","streetName":"Rue d'Amiens","absoluteDirection":"WEST","stayOn":false,"area":false,"bogusName":false,"lon":-71.0595007,"lat":48.4478846,"elevation":[]},{"distance":96.019,"relativeDirection":"LEFT","streetName":"path","absoluteDirection":"SOUTHWEST","stayOn":false,"area":false,"bogusName":true,"lon":-71.06218890000001,"lat":48.4483655,"elevation":[]},{"distance":71.656,"relativeDirection":"RIGHT","streetName":"Rue Cabot","absoluteDirection":"WEST","stayOn":false,"area":false,"bogusName":false,"lon":-71.0629679,"lat":48.4477673,"elevation":[]},{"distance":750.8140000000001,"relativeDirection":"LEFT","streetName":"Rue Delisle","absoluteDirection":"SOUTH","stayOn":false,"area":false,"bogusName":false,"lon":-71.06388530000001,"lat":48.4479794,"elevation":[]},{"distance":356.56300000000005,"relativeDirection":"CONTINUE","streetName":"Rue des Champs","absoluteDirection":"WEST","stayOn":false,"area":false,"bogusName":false,"lon":-71.0701683,"lat":48.443755,"elevation":[]},{"distance":66.393,"relativeDirection":"RIGHT","streetName":"Boulevard Sainte-Geneviève","absoluteDirection":"NORTHWEST","stayOn":false,"area":false,"bogusName":false,"lon":-71.0740944,"lat":48.4418955,"elevation":[]}]},{"startTime":1522711200000,"endTime":1522711456000,"departureDelay":0,"arrivalDelay":0,"realTime":false,"distance":2659.1841952525633,"pathway":false,"mode":"BUS","route":"21","agencyName":"Société de Transport du Saguenay","agencyUrl":"http://ville.saguenay.ca/fr/services-aux-citoyens/transport-sts","agencyTimeZoneOffset":-14400000,"routeColor":"556B2F","routeType":3,"routeId":"1:21","routeTextColor":"FFFFFF","interlineWithPreviousLeg":false,"tripBlockId":"2","headsign":"Terminus Chicoutimi","agencyId":"0","tripId":"1:217180","serviceDate":"20180402","from":{"name":"boul. Ste-Geneviève / Champs","stopId":"1:705","stopCode":"705","lon":-71.074706,"lat":48.442337,"arrival":1522711199000,"departure":1522711200000,"zoneId":"NA","stopIndex":1,"stopSequence":2,"vertexType":"TRANSIT"},"to":{"name":"boul. Ste-Geneviève / St-Sauveur","stopId":"1:710","stopCode":"710","lon":-71.093342,"lat":48.451898,"arrival":1522711456000,"departure":1522711457000,"zoneId":"NA","stopIndex":10,"stopSequence":11,"vertexType":"TRANSIT"},"legGeometry":{"points":"iktfHhxxpLuAnCmBlE}@|B_BvFoC`JCD}@hCo@~Aq@pAs@fAWs@IUC[AI?QCeGAs@Gy@Ks@Ou@OcAIcAIgAWgCG_@Og@IQS]UWYQWIUA[Da@P]RSVQ`@Ib@Ef@Et@Gf@Id@I`@Od@cCxFQOgAwA_FqGO[`BcEY_@MOaBtDLTh@bATZpGlIPNa@fAOn@Gd@UtBA^A^R`E^fGRbAVl@P`@BFNb@t@xAiCvCMP}@jAY`@q@jAm@jA}@rBmArD?Tu@|CYzAET{AxOQhB","length":87},"routeShortName":"21","routeLongName":"Boul. Ste-Geneviève/Élie","rentedBike":false,"transitLeg":true,"duration":256.0,"steps":[]},{"startTime":1522711457000,"endTime":1522711514000,"departureDelay":0,"arrivalDelay":0,"realTime":false,"distance":69.405,"pathway":false,"mode":"WALK","route":"","agencyTimeZoneOffset":-14400000,"interlineWithPreviousLeg":false,"from":{"name":"boul. Ste-Geneviève / St-Sauveur","stopId":"1:710","stopCode":"710","lon":-71.093342,"lat":48.451898,"arrival":1522711456000,"departure":1522711457000,"zoneId":"NA","stopIndex":10,"stopSequence":11,"vertexType":"TRANSIT"},"to":{"name":"Destination","lon":-71.09432999,"lat":48.451703,"arrival":1522711514000,"orig":"","vertexType":"NORMAL"},"legGeometry":{"points":"}fvfHpl|pLQ~APBf@N","length":4},"rentedBike":false,"transitLeg":false,"duration":57.0,"steps":[{"distance":36.766,"relativeDirection":"DEPART","streetName":"Boulevard Sainte-Geneviève","absoluteDirection":"WEST","stayOn":false,"area":false,"bogusName":false,"lon":-71.09336582664865,"lat":48.45183764621949,"elevation":[]},{"distance":32.639,"relativeDirection":"LEFT","streetName":"Rue Saint-Sauveur","absoluteDirection":"SOUTH","stayOn":false,"area":false,"bogusName":false,"lon":-71.0938481,"lat":48.4519214,"elevation":[]}]}],"tooSloped":false}]},"debugOutput":{"precalculationTime":12,"pathCalculationTime":35,"pathTimes":[20,8,7],"renderingTime":0,"totalTime":47,"timedOut":false},"elevationMetadata":{"ellipsoidToGeoidDifference":-28.885904201182168,"geoidElevation":false}}