{"requestParameters":{"date":"2018/04/02","walkSpeed":"1.33","walkReluctance":"2.0","fromPlace":"48.437608,-71.059914","maxWalkDistance":"3000","waitReluctance":"1.0","carSpeed":"33","numItineraries":"3","waitAtBeginningFactor":"0.4","mode":"TRANSIT,WALK","ignoreRealtimeUpdates":"false","stairsReluctance":"2.0","toPlace":"48.43907,-71.05549499","time":"19:0:00"},"plan":{"date":1522710000000,"from":{"name":"Origin","lon":-71.059914,"lat":48.437608,"orig":"","vertexType":"NORMAL"},"to":{"name":"Destination","lon":-71.05549499,"lat":48.43907,"orig":"","vertexType":"NORMAL"},"itineraries":[{"duration":349,"startTime":1522710000000,"endTime":1522710349000,"walkTime":349,"transitTime":0,"waitingTime":0,"walkDistance":447.45641353172385,"walkLimitExceeded":false,"elevationLost":0.0,"elevationGained":0.0,"transfers":0,"legs":[{"startTime":1522710000000,"endTime":1522710349000,"departureDelay":0,"arrivalDelay":0,"realTime":false,"distance":447.391,"pathway":false,"mode":"WALK","route":"","agencyTimeZoneOffset":-14400000,"interlineWithPreviousLeg":false,"from":{"name":"Origin","lon":-71.059914,"lat":48.437608,"departure":1522710000000,"orig":"","vertexType":"NORMAL"},"to":{"name":"Destination","lon":-71.05549499,"lat":48.43907,"arrival":1522710349000,"orig":"","vertexType":"NORMAL"},"legGeometry":{"points":"wmsfH|yupLiEyAEiBCiDB{BD_A^uEMGuBw@","length":9},"rentedBike":false,"transitLeg":false,"duration":349.0,"steps":[{"distance":117.916,"relativeDirection":"DEPART","streetName":"Rue des Remparts","absoluteDirection":"NORTH","stayOn":false,"area":false,"bogusName":false,"lon":-71.05966556423301,"lat":48.437560019496864,"elevation":[]},{"distance":252.79200000000003,"relativeDirection":"RIGHT","streetName":"Rue Roussel","absoluteDirection":"EAST","stayOn":false,"area":false,"bogusName":false,"lon":-71.05921880000001,"lat":48.4385782,"elevation":[]},{"distance":76.683,"relativeDirection":"LEFT","streetName":"Rue Laniel","absoluteDirection":"NORTH","stayOn":false,"area":false,"bogusName":false,"lon":-71.0558232,"lat":48.438415600000006,"elevation":[]}]}],"tooSloped":false},{"duration":351,"startTime":1522711036000,"endTime":1522711387000,"walkTime":290,"transitTime":59,"waitingTime":2,"walkDistance":357.7109999951599,"walkLimitExceeded":false,"elevationLost":0.0,"elevationGained":0.0,"transfers":0,"legs":[{"startTime":1522711036000,"endTime":1522711202000,"departureDelay":0,"arrivalDelay":0,"realTime":false,"distance":205.902,"pathway":false,"mode":"WALK","route":"","agencyTimeZoneOffset":-14400000,"interlineWithPreviousLeg":false,"from":{"name":"Origin","lon":-71.059914,"lat":48.437608,"departure":1522711036000,"orig":"","vertexType":"NORMAL"},"to":{"name":"Napoléon / Roussel","stopId":"1:805","stopCode":"805","lon":-71.059698,"lat":48.438926,"arrival":1522711202000,"departure":1522711203000,"zoneId":"NA","stopIndex":3,"stopSequence":4,"vertexType":"TRANSIT"},"legGeometry":{"points":"wmsfH|yupLiEyAHnBm@FYCKC","length":6},"rentedBike":false,"transitLeg":false,"duration":166.0,"steps":[{"distance":117.916,"relativeDirection":"DEPART","streetName":"Rue des Remparts","absoluteDirection":"NORTH","stayOn":false,"area":false,"bogusName":false,"lon":-71.05966556423301,"lat":48.437560019496864,"elevation":[]},{"distance":41.577,"relativeDirection":"LEFT","streetName":"Rue Roussel","absoluteDirection":"WEST","stayOn":false,"area":false,"bogusName":false,"lon":-71.05921880000001,"lat":48.4385782,"elevation":[]},{"distance":46.409,"relativeDirection":"RIGHT","streetName":"Rue Napoléon","absoluteDirection":"NORTH","stayOn":false,"area":false,"bogusName":false,"lon":-71.05977750000001,"lat":48.4385289,"elevation":[]}]},{"startTime":1522711203000,"endTime":1522711262000,"departureDelay":0,"arrivalDelay":0,"realTime":false,"distance":415.92994514384253,"pathway":false,"mode":"BUS","route":"24","agencyName":"Société de Transport du Saguenay","agencyUrl":"http://ville.saguenay.ca/fr/services-aux-citoyens/transport-sts","agencyTimeZoneOffset":-14400000,"routeColor":"00FF00","routeType":3,"routeId":"1:24","routeTextColor":"000000","interlineWithPreviousLeg":false,"tripBlockId":"5","headsign":"Terminus Chicoutimi","agencyId":"0","tripId":"1:217275","serviceDate":"20180402","from":{"name":"Napoléon / Roussel","stopId":"1:805","stopCode":"805","lon":-71.059698,"lat":48.438926,"arrival":1522711202000,"departure":1522711203000,"zoneId":"NA","stopIndex":3,"stopSequence":4,"vertexType":"TRANSIT"},"to":{"name":"Bienville / Viau","stopId":"1:808","stopCode":"808","lon":-71.054419,"lat":48.439491,"arrival":1522711262000,"departure":1522711263000,"zoneId":"NA","stopIndex":5,"stopSequence":6,"vertexType":"TRANSIT"},"legGeometry":{"points":"ivsfHpzupLiE}Ah@}DH}@?c@Ea@[_BA?My@Cm@?Y@g@Hu@b@sD\\_D","length":15},"routeShortName":"24","routeLongName":"Saint-Luc","rentedBike":false,"transitLeg":true,"duration":59.0,"steps":[]},{"startTime":1522711263000,"endTime":1522711387000,"departureDelay":0,"arrivalDelay":0,"realTime":false,"distance":151.659,"pathway":false,"mode":"WALK","route":"","agencyTimeZoneOffset":-14400000,"interlineWithPreviousLeg":false,"from":{"name":"Bienville / Viau","stopId":"1:808","stopCode":"808","lon":-71.054419,"lat":48.439491,"arrival":1522711262000,"departure":1522711263000,"zoneId":"NA","stopIndex":5,"stopSequence":6,"vertexType":"TRANSIT"},"to":{"name":"Destination","lon":-71.05549499,"lat":48.43907,"arrival":1522711387000,"orig":"","vertexType":"NORMAL"},"legGeometry":{"points":"uysfHvxtpLOEa@lD`C|@","length":4},"rentedBike":false,"transitLeg":false,"duration":124.0,"steps":[{"distance":8.514,"relativeDirection":"DEPART","streetName":"Rue Viau","absoluteDirection":"NORTH","stayOn":false,"area":false,"bogusName":false,"lon":-71.05435357152419,"lat":48.43947970219391,"elevation":[]},{"distance":66.906,"relativeDirection":"LEFT","streetName":"Rue De Bienville","absoluteDirection":"WEST","stayOn":false,"area":false,"bogusName":false,"lon":-71.0543245,"lat":48.439553800000006,"elevation":[]},{"distance":76.239,"relativeDirection":"LEFT","streetName":"Rue Laniel","absoluteDirection":"SOUTH","stayOn":false,"area":false,"bogusName":false,"lon":-71.05519360000001,"lat":48.439725900000006,"elevation":[]}]}],"tooSloped":false},{"duration":351,"startTime":1522714636000,"endTime":1522714987000,"walkTime":290,"transitTime":59,"waitingTime":2,"walkDistance":357.7109999951599,"walkLimitExceeded":false,"elevationLost":0.0,"elevationGained":0.0,"transfers":0,"legs":[{"startTime":1522714636000,"endTime":1522714802000,"departureDelay":0,"arrivalDelay":0,"realTime":false,"distance":205.902,"pathway":false,"mode":"WALK","route":"","agencyTimeZoneOffset":-14400000,"interlineWithPreviousLeg":false,"from":{"name":"Origin","lon":-71.059914,"lat":48.437608,"departure":1522714636000,"orig":"","vertexType":"NORMAL"},"to":{"name":"Napoléon / Roussel","stopId":"1:805","stopCode":"805","lon":-71.059698,"lat":48.438926,"arrival":1522714802000,"departure":1522714803000,"zoneId":"NA","stopIndex":3,"stopSequence":4,"vertexType":"TRANSIT"},"legGeometry":{"points":"wmsfH|yupLiEyAHnBm@FYCKC","length":6},"rentedBike":false,"transitLeg":false,"duration":166.0,"steps":[{"distance":117.916,"relativeDirection":"DEPART","streetName":"Rue des Remparts","absoluteDirection":"NORTH","stayOn":false,"area":false,"bogusName":false,"lon":-71.05966556423301,"lat":48.437560019496864,"elevation":[]},{"distance":41.577,"relativeDirection":"LEFT","streetName":"Rue Roussel","absoluteDirection":"WEST","stayOn":false,"area":false,"bogusName":false,"lon":-71.05921880000001,"lat":48.4385782,"elevation":[]},{"distance":46.409,"relativeDirection":"RIGHT","streetName":"Rue Napoléon","absoluteDirection":"NORTH","stayOn":false,"area":false,"bogusName":false,"lon":-71.05977750000001,"lat":48.4385289,"elevation":[]}]},{"startTime":1522714803000,"endTime":1522714862000,"departureDelay":0,"arrivalDelay":0,"realTime":false,"distance":415.92994514384253,"pathway":false,"mode":"BUS","route":"24","agencyName":"Société de Transport du Saguenay","agencyUrl":"http://ville.saguenay.ca/fr/services-aux-citoyens/transport-sts","agencyTimeZoneOffset":-14400000,"routeColor":"00FF00","routeType":3,"routeId":"1:24","routeTextColor":"000000","interlineWithPreviousLeg":false,"tripBlockId":"5","headsign":"Terminus Chicoutimi","agencyId":"0","tripId":"1:217277","serviceDate":"20180402","from":{"name":"Napoléon / Roussel","stopId":"1:805","stopCode":"805","lon":-71.059698,"lat":48.438926,"arrival":1522714802000,"departure":1522714803000,"zoneId":"NA","stopIndex":3,"stopSequence":4,"vertexType":"TRANSIT"},"to":{"name":"Bienville / Viau","stopId":"1:808","stopCode":"808","lon":-71.054419,"lat":48.439491,"arrival":1522714862000,"departure":1522714863000,"zoneId":"NA","stopIndex":5,"stopSequence":6,"vertexType":"TRANSIT"},"legGeometry":{"points":"ivsfHpzupLiE}Ah@}DH}@?c@Ea@[_BA?My@Cm@?Y@g@Hu@b@sD\\_D","length":15},"routeShortName":"24","routeLongName":"Saint-Luc","rentedBike":false,"transitLeg":true,"duration":59.0,"steps":[]},{"startTime":1522714863000,"endTime":1522714987000,"departureDelay":0,"arrivalDelay":0,"realTime":false,"distance":151.659,"pathway":false,"mode":"WALK","route":"","agencyTimeZoneOffset":-14400000,"interlineWithPreviousLeg":false,"from":{"name":"Bienville / Viau","stopId":"1:808","stopCode":"808","lon":-71.054419,"lat":48.439491,"arrival":1522714862000,"departure":1522714863000,"zoneId":"NA","stopIndex":5,"stopSequence":6,"vertexType":"TRANSIT"},"to":{"name":"Destination","lon":-71.05549499,"lat":48.43907,"arrival":1522714987000,"orig":"","vertexType":"NORMAL"},"legGeometry":{"points":"uysfHvxtpLOEa@lD`C|@","length":4},"rentedBike":false,"transitLeg":false,"duration":124.0,"steps":[{"distance":8.514,"relativeDirection":"DEPART","streetName":"Rue Viau","absoluteDirection":"NORTH","stayOn":false,"area":false,"bogusName":false,"lon":-71.05435357152419,"lat":48.43947970219391,"elevation":[]},{"distance":66.906,"relativeDirection":"LEFT","streetName":"Rue De Bienville","absoluteDirection":"WEST","stayOn":false,"area":false,"bogusName":false,"lon":-71.0543245,"lat":48.439553800000006,"elevation":[]},{"distance":76.239,"relativeDirection":"LEFT","streetName":"Rue Laniel","absoluteDirection":"SOUTH","stayOn":false,"area":false,"bogusName":false,"lon":-71.05519360000001,"lat":48.439725900000006,"elevation":[]}]}],"tooSloped":false}]},"debugOutput":{"precalculationTime":23,"pathCalculationTime":16,"pathTimes":[1,9,6],"renderingTime":0,"totalTime":39,"timedOut":false},"elevationMetadata":{"ellipsoidToGeoidDifference":-28.885904201182168,"geoidElevation":false}}