{"requestParameters":{"date":"2018/04/02","walkSpeed":"1.33","walkReluctance":"2.0","fromPlace":"48.43907,-71.05549499","maxWalkDistance":"3000","waitReluctance":"1.0","carSpeed":"33","numItineraries":"3","waitAtBeginningFactor":"0.4","mode":"TRANSIT,WALK","ignoreRealtimeUpdates":"false","stairsReluctance":"2.0","toPlace":"48.437608,-71.059914","time":"21:45:00"},"plan":{"date":1522719900000,"from":{"name":"Origin","lon":-71.05549499,"lat":48.43907,"orig":"","vertexType":"NORMAL"},"to":{"name":"Destination","lon":-71.059914,"lat":48.437608,"orig":"","vertexType":"NORMAL"},"itineraries":[{"duration":349,"startTime":1522719900000,"endTime":1522720249000,"walkTime":349,"transitTime":0,"waitingTime":0,"walkDistance":447.45641353172385,"walkLimitExceeded":false,"elevationLost":0.0,"elevationGained":0.0,"transfers":0,"legs":[{"startTime":1522719900000,"endTime":1522720249000,"departureDelay":0,"arrivalDelay":0,"realTime":false,"distance":447.391,"pathway":false,"mode":"WALK","route":"","agencyTimeZoneOffset":-14400000,"interlineWithPreviousLeg":false,"from":{"name":"Origin","lon":-71.05549499,"lat":48.43907,"departure":1522719900000,"orig":"","vertexType":"NORMAL"},"to":{"name":"Destination","lon":-71.059914,"lat":48.437608,"arrival":1522720249000,"orig":"","vertexType":"NORMAL"},"legGeometry":{"points":"ewsfH|_upLtBv@LF_@tEE~@CzBBhDDhBhExA","length":9},"rentedBike":false,"transitLeg":false,"duration":349.0,"steps":[{"distance":76.683,"relativeDirection":"DEPART","streetName":"Rue Laniel","absoluteDirection":"SOUTH","stayOn":false,"area":false,"bogusName":false,"lon":-71.05550800030073,"lat":48.43907275634538,"elevation":[]},{"distance":252.792,"relativeDirection":"RIGHT","streetName":"Rue Roussel","absoluteDirection":"WEST","stayOn":false,"area":false,"bogusName":false,"lon":-71.0558232,"lat":48.438415600000006,"elevation":[]},{"distance":117.916,"relativeDirection":"LEFT","streetName":"Rue des Remparts","absoluteDirection":"SOUTH","stayOn":false,"area":false,"bogusName":false,"lon":-71.05921880000001,"lat":48.4385782,"elevation":[]}]}],"tooSloped":false}]},"debugOutput":{"precalculationTime":25,"pathCalculationTime":15,"pathTimes":[1,12,2],"renderingTime":1,"totalTime":41,"timedOut":false},"elevationMetadata":{"ellipsoidToGeoidDifference":-28.885904201182168,"geoidElevation":false}}