{"requestParameters":{"date":"2018/04/02","walkSpeed":"1.33","walkReluctance":"2.0","fromPlace":"48.441039,-71.059019","maxWalkDistance":"3000","waitReluctance":"1.0","carSpeed":"33","numItineraries":"3","waitAtBeginningFactor":"0.4","mode":"TRANSIT,WALK","ignoreRealtimeUpdates":"false","stairsReluctance":"2.0","toPlace":"48.438643,-71.06208999","time":"11:0:00"},"plan":{"date":1522681200000,"from":{"name":"Origin","lon":-71.059019,"lat":48.441039,"orig":"","vertexType":"NORMAL"},"to":{"name":"Destination","lon":-71.06208999,"lat":48.438643,"orig":"","vertexType":"NORMAL"},"itineraries":[{"duration":339,"startTime":1522681200000,"endTime":1522681539000,"walkTime":339,"transitTime":0,"waitingTime":0,"walkDistance":435.9276691707488,"walkLimitExceeded":false,"elevationLost":0.0,"elevationGained":0.0,"transfers":0,"legs":[{"startTime":1522681200000,"endTime":1522681539000,"departureDelay":0,"arrivalDelay":0,"realTime":false,"distance":435.86,"pathway":false,"mode":"WALK","route":"","agencyTimeZoneOffset":-14400000,"interlineWithPreviousLeg":false,"from":{"name":"Origin","lon":-71.059019,"lat":48.441039,"departure":1522681200000,"orig":"","vertexType":"NORMAL"},"to":{"name":"Destination","lon":-71.06208999,"lat":48.438643,"arrival":1522681539000,"orig":"","vertexType":"NORMAL"},"legGeometry":{"points":"ectfHntupLlE`By@lHdCz@B@hA^bCx@","length":7},"rentedBike":false,"transitLeg":false,"duration":339.0,"steps":[{"distance":119.95,"relativeDirection":"DEPART","streetName":"Rue Napoléon","absoluteDirection":"SOUTH","stayOn":false,"area":false,"bogusName":false,"lon":-71.05879069757682,"lat":48.44099117969938,"elevation":[]},{"distance":116.708,"relativeDirection":"RIGHT","streetName":"Rue De Bienville","absoluteDirection":"WEST","stayOn":false,"area":false,"bogusName":false,"lon":-71.0592803,"lat":48.4399625,"elevation":[]},{"distance":199.202,"relativeDirection":"LEFT","streetName":"Boulevard de Tadoussac","absoluteDirection":"SOUTH","stayOn":false,"area":false,"bogusName":false,"lon":-71.0607978,"lat":48.4402594,"elevation":[]}]}],"tooSloped":false},{"duration":188,"startTime":1522681423000,"endTime":1522681611000,"walkTime":143,"transitTime":43,"waitingTime":2,"walkDistance":177.60087217887417,"walkLimitExceeded":false,"elevationLost":0.0,"elevationGained":0.0,"transfers":0,"legs":[{"startTime":1522681423000,"endTime":1522681508000,"departureDelay":0,"arrivalDelay":0,"realTime":false,"distance":101.403,"pathway":false,"mode":"WALK","route":"","agencyTimeZoneOffset":-14400000,"interlineWithPreviousLeg":false,"from":{"name":"Origin","lon":-71.059019,"lat":48.441039,"departure":1522681423000,"orig":"","vertexType":"NORMAL"},"to":{"name":"Église St-Luc (boul. Tadoussac)","stopId":"1:830","stopCode":"830","lon":-71.059501,"lat":48.441464,"arrival":1522681508000,"departure":1522681509000,"zoneId":"NA","stopIndex":29,"stopSequence":30,"vertexType":"TRANSIT"},"legGeometry":{"points":"ectfHntupLUK[BIv@UFSDBPF\\BL@F","length":10},"rentedBike":false,"transitLeg":false,"duration":85.0,"steps":[{"distance":12.91,"relativeDirection":"DEPART","streetName":"Rue Napoléon","absoluteDirection":"NORTH","stayOn":false,"area":false,"bogusName":false,"lon":-71.05879069757682,"lat":48.44099117969938,"elevation":[]},{"distance":61.104,"relativeDirection":"SLIGHTLY_LEFT","streetName":"path","absoluteDirection":"NORTH","stayOn":false,"area":false,"bogusName":true,"lon":-71.058738,"lat":48.4411019,"elevation":[]},{"distance":27.389,"relativeDirection":"LEFT","streetName":"Boulevard de Tadoussac","absoluteDirection":"WEST","stayOn":false,"area":false,"bogusName":false,"lon":-71.0591098,"lat":48.4415014,"elevation":[]}]},{"startTime":1522681509000,"endTime":1522681552000,"departureDelay":0,"arrivalDelay":0,"realTime":false,"distance":285.5785907226299,"pathway":false,"mode":"BUS","route":"24","agencyName":"Société de Transport du Saguenay","agencyUrl":"http://ville.saguenay.ca/fr/services-aux-citoyens/transport-sts","agencyTimeZoneOffset":-14400000,"routeColor":"00FF00","routeType":3,"routeId":"1:24","routeTextColor":"000000","interlineWithPreviousLeg":false,"tripBlockId":"4","headsign":"Terminus Chicoutimi","agencyId":"0","tripId":"1:217231","serviceDate":"20180402","from":{"name":"Église St-Luc (boul. Tadoussac)","stopId":"1:830","stopCode":"830","lon":-71.059501,"lat":48.441464,"arrival":1522681508000,"departure":1522681509000,"zoneId":"NA","stopIndex":29,"stopSequence":30,"vertexType":"TRANSIT"},"to":{"name":"boul. Tadoussac / Bourget","stopId":"1:831","stopCode":"831","lon":-71.061384,"lat":48.43922,"arrival":1522681552000,"departure":1522681553000,"zoneId":"NA","stopIndex":30,"stopSequence":31,"vertexType":"TRANSIT"},"legGeometry":{"points":"yetfHvxupL@HLd@\\z@Xd@X\\RTXRr@Zn@PfExA","length":11},"routeShortName":"24","routeLongName":"Saint-Luc","rentedBike":false,"transitLeg":true,"duration":43.0,"steps":[]},{"startTime":1522681553000,"endTime":1522681611000,"departureDelay":0,"arrivalDelay":0,"realTime":false,"distance":76.149,"pathway":false,"mode":"WALK","route":"","agencyTimeZoneOffset":-14400000,"interlineWithPreviousLeg":false,"from":{"name":"boul. Tadoussac / Bourget","stopId":"1:831","stopCode":"831","lon":-71.061384,"lat":48.43922,"arrival":1522681552000,"departure":1522681553000,"zoneId":"NA","stopIndex":30,"stopSequence":31,"vertexType":"TRANSIT"},"to":{"name":"Destination","lon":-71.06208999,"lat":48.438643,"arrival":1522681611000,"orig":"","vertexType":"NORMAL"},"legGeometry":{"points":"}wsfH|cvpLbCx@","length":2},"rentedBike":false,"transitLeg":false,"duration":58.0,"steps":[{"distance":76.149,"relativeDirection":"DEPART","streetName":"Boulevard de Tadoussac","absoluteDirection":"SOUTH","stayOn":false,"area":false,"bogusName":false,"lon":-71.06126606265329,"lat":48.43919724946793,"elevation":[]}]}],"tooSloped":false},{"duration":184,"startTime":1522682874000,"endTime":1522683058000,"walkTime":143,"transitTime":39,"waitingTime":2,"walkDistance":177.60087217887417,"walkLimitExceeded":false,"elevationLost":0.0,"elevationGained":0.0,"transfers":0,"legs":[{"startTime":1522682874000,"endTime":1522682959000,"departureDelay":0,"arrivalDelay":0,"realTime":false,"distance":101.403,"pathway":false,"mode":"WALK","route":"","agencyTimeZoneOffset":-14400000,"interlineWithPreviousLeg":false,"from":{"name":"Origin","lon":-71.059019,"lat":48.441039,"departure":1522682874000,"orig":"","vertexType":"NORMAL"},"to":{"name":"Église St-Luc (boul. Tadoussac)","stopId":"1:830","stopCode":"830","lon":-71.059501,"lat":48.441464,"arrival":1522682959000,"departure":1522682960000,"zoneId":"NA","stopIndex":20,"stopSequence":21,"vertexType":"TRANSIT"},"legGeometry":{"points":"ectfHntupLUK[BIv@UFSDBPF\\BL@F","length":10},"rentedBike":false,"transitLeg":false,"duration":85.0,"steps":[{"distance":12.91,"relativeDirection":"DEPART","streetName":"Rue Napoléon","absoluteDirection":"NORTH","stayOn":false,"area":false,"bogusName":false,"lon":-71.05879069757682,"lat":48.44099117969938,"elevation":[]},{"distance":61.104,"relativeDirection":"SLIGHTLY_LEFT","streetName":"path","absoluteDirection":"NORTH","stayOn":false,"area":false,"bogusName":true,"lon":-71.058738,"lat":48.4411019,"elevation":[]},{"distance":27.389,"relativeDirection":"LEFT","streetName":"Boulevard de Tadoussac","absoluteDirection":"WEST","stayOn":false,"area":false,"bogusName":false,"lon":-71.0591098,"lat":48.4415014,"elevation":[]}]},{"startTime":1522682960000,"endTime":1522682999000,"departureDelay":0,"arrivalDelay":0,"realTime":false,"distance":285.5785907226299,"pathway":false,"mode":"BUS","route":"23","agencyName":"Société de Transport du Saguenay","agencyUrl":"http://ville.saguenay.ca/fr/services-aux-citoyens/transport-sts","agencyTimeZoneOffset":-14400000,"routeColor":"FF00FF","routeType":3,"routeId":"1:23","routeTextColor":"FFFFFF","interlineWithPreviousLeg":false,"tripBlockId":"4","headsign":"Terminus Chicoutimi","agencyId":"0","tripId":"1:217232","serviceDate":"20180402","from":{"name":"Église St-Luc (boul. Tadoussac)","stopId":"1:830","stopCode":"830","lon":-71.059501,"lat":48.441464,"arrival":1522682959000,"departure":1522682960000,"zoneId":"NA","stopIndex":20,"stopSequence":21,"vertexType":"TRANSIT"},"to":{"name":"boul. Tadoussac / Bourget","stopId":"1:831","stopCode":"831","lon":-71.061384,"lat":48.43922,"arrival":1522682999000,"departure":1522683000000,"zoneId":"NA","stopIndex":21,"stopSequence":22,"vertexType":"TRANSIT"},"legGeometry":{"points":"yetfHvxupL@HLd@\\z@Xd@X\\RTXRr@Zn@PfExA","length":11},"routeShortName":"23","routeLongName":"Côte Verdun via Aréna du Plateau","rentedBike":false,"transitLeg":true,"duration":39.0,"steps":[]},{"startTime":1522683000000,"endTime":1522683058000,"departureDelay":0,"arrivalDelay":0,"realTime":false,"distance":76.149,"pathway":false,"mode":"WALK","route":"","agencyTimeZoneOffset":-14400000,"interlineWithPreviousLeg":false,"from":{"name":"boul. Tadoussac / Bourget","stopId":"1:831","stopCode":"831","lon":-71.061384,"lat":48.43922,"arrival":1522682999000,"departure":1522683000000,"zoneId":"NA","stopIndex":21,"stopSequence":22,"vertexType":"TRANSIT"},"to":{"name":"Destination","lon":-71.06208999,"lat":48.438643,"arrival":1522683058000,"orig":"","vertexType":"NORMAL"},"legGeometry":{"points":"}wsfH|cvpLbCx@","length":2},"rentedBike":false,"transitLeg":false,"duration":58.0,"steps":[{"distance":76.149,"relativeDirection":"DEPART","streetName":"Boulevard de Tadoussac","absoluteDirection":"SOUTH","stayOn":false,"area":false,"bogusName":false,"lon":-71.06126606265329,"lat":48.43919724946793,"elevation":[]}]}],"tooSloped":false}]},"debugOutput":{"precalculationTime":26,"pathCalculationTime":14,"pathTimes":[5,5,4],"renderingTime":0,"totalTime":40,"timedOut":false},"elevationMetadata":{"ellipsoidToGeoidDifference":-28.885904201182168,"geoidElevation":false}}