{"requestParameters":{"date":"2018/04/02","walkSpeed":"1.33","walkReluctance":"2.0","fromPlace":"48.442651,-71.060389","maxWalkDistance":"3000","waitReluctance":"1.0","carSpeed":"33","numItineraries":"3","waitAtBeginningFactor":"0.4","mode":"TRANSIT,WALK","ignoreRealtimeUpdates":"false","stairsReluctance":"2.0","toPlace":"48.447871,-71.08496999","time":"12:50:00"},"plan":{"date":1522687800000,"from":{"name":"Origin","lon":-71.060389,"lat":48.442651,"orig":"","vertexType":"NORMAL"},"to":{"name":"Destination","lon":-71.08496999,"lat":48.447871,"orig":"","vertexType":"NORMAL"},"itineraries":[{"duration":1242,"startTime":1522688552000,"endTime":1522689794000,"walkTime":262,"transitTime":978,"waitingTime":2,"walkDistance":331.84245112522365,"walkLimitExceeded":false,"elevationLost":0.0,"elevationGained":0.0,"transfers":0,"legs":[{"startTime":1522688552000,"endTime":1522688708000,"departureDelay":0,"arrivalDelay":0,"realTime":false,"distance":199.635,"pathway":false,"mode":"WALK","route":"","agencyTimeZoneOffset":-14400000,"interlineWithPreviousLeg":false,"from":{"name":"Origin","lon":-71.060389,"lat":48.442651,"departure":1522688552000,"orig":"","vertexType":"NORMAL"},"to":{"name":"Église St-Luc (boul. Tadoussac)","stopId":"1:830","stopCode":"830","lon":-71.059501,"lat":48.441464,"arrival":1522688708000,"departure":1522688709000,"zoneId":"NA","stopIndex":29,"stopSequence":30,"vertexType":"TRANSIT"},"legGeometry":{"points":"gmtfH||upLjDjAPcAH]FOJMPSPSCKMa@","length":10},"rentedBike":false,"transitLeg":false,"duration":156.0,"steps":[{"distance":99.333,"relativeDirection":"DEPART","streetName":"Rue du Régent","absoluteDirection":"SOUTH","stayOn":false,"area":false,"bogusName":false,"lon":-71.06014960211074,"lat":48.44260510190253,"elevation":[]},{"distance":80.529,"relativeDirection":"LEFT","streetName":"Rue Talon","absoluteDirection":"SOUTHEAST","stayOn":false,"area":false,"bogusName":false,"lon":-71.0605235,"lat":48.441746900000005,"elevation":[]},{"distance":19.773,"relativeDirection":"LEFT","streetName":"Boulevard de Tadoussac","absoluteDirection":"NORTHEAST","stayOn":false,"area":false,"bogusName":false,"lon":-71.0596842,"lat":48.441320700000006,"elevation":[]}]},{"startTime":1522688709000,"endTime":1522689060000,"departureDelay":0,"arrivalDelay":0,"realTime":false,"distance":2205.3269568724254,"pathway":false,"mode":"BUS","route":"24","agencyName":"Société de Transport du Saguenay","agencyUrl":"http://ville.saguenay.ca/fr/services-aux-citoyens/transport-sts","agencyTimeZoneOffset":-14400000,"routeColor":"00FF00","routeType":3,"routeId":"1:24","routeTextColor":"000000","interlineWithPreviousLeg":false,"tripBlockId":"4","headsign":"Terminus Chicoutimi","agencyId":"0","tripId":"1:217235","serviceDate":"20180402","from":{"name":"Église St-Luc (boul. Tadoussac)","stopId":"1:830","stopCode":"830","lon":-71.059501,"lat":48.441464,"arrival":1522688708000,"departure":1522688709000,"zoneId":"NA","stopIndex":29,"stopSequence":30,"vertexType":"TRANSIT"},"to":{"name":"Terminus Chicoutimi","stopId":"1:1289","stopCode":"1289","lon":-71.066163,"lat":48.428677,"arrival":1522689060000,"departure":1522689300000,"zoneId":"NA","stopIndex":35,"stopSequence":36,"vertexType":"TRANSIT"},"legGeometry":{"points":"yetfHvxupL@HLd@\\z@Xd@X\\RTXRr@Zn@PfExAvDpALnBJt@Pp@Nj@l@tBHZPn@`@rBNnAFr@DbA?bB@jABzA?p@A???A???A?A???A@??A?A@??A@?@A??@A@???@A@?@?@A@?@?@?@?@???@?@?@?@?@?@@@?@?@@@?@@@?@@@?@@?@@??@@@?E`@Kr@]rACVEl@I|AAr@JbAWJe@FUAM?a@Ke@YYWWa@v@}@RQPMz@k@tAe@REZG^Af@@X@VF`@Jn@XbClAr@Xt\\`PrAb@pA^hBTjAFj@Pb@JPHLLJNJRFXDT?X?ZEVEVKTMNMHMFOB}DWSGOSYcAN}FFkAF}DJyDPwGvAHN_HDiB@m@","length":141},"routeShortName":"24","routeLongName":"Saint-Luc","rentedBike":false,"transitLeg":true,"duration":351.0,"steps":[]},{"startTime":1522689300000,"endTime":1522689687000,"departureDelay":0,"arrivalDelay":0,"realTime":false,"distance":2669.4064857723333,"pathway":false,"mode":"BUS","route":"23","agencyName":"Société de Transport du Saguenay","agencyUrl":"http://ville.saguenay.ca/fr/services-aux-citoyens/transport-sts","agencyTimeZoneOffset":-14400000,"routeColor":"FF00FF","routeType":3,"routeId":"1:23","routeTextColor":"FFFFFF","interlineWithPreviousLeg":true,"tripBlockId":"4","headsign":"Terminus Chicoutimi","agencyId":"0","tripId":"1:217236","serviceDate":"20180402","from":{"name":"Terminus Chicoutimi","stopId":"1:1289","stopCode":"1289","lon":-71.066163,"lat":48.428677,"arrival":1522689060000,"departure":1522689300000,"zoneId":"NA","stopIndex":0,"stopSequence":1,"vertexType":"TRANSIT"},"to":{"name":"St-Gérard / Pasteur","stopId":"1:727","stopCode":"727","lon":-71.084309,"lat":48.448719,"arrival":1522689687000,"departure":1522689688000,"zoneId":"NA","stopIndex":4,"stopSequence":5,"vertexType":"TRANSIT"},"legGeometry":{"points":"kwqfHjbwpLF_CkAOYCm@rRO\\WjGOfGCRK^KJMHQB_AMg@Gw`@eR}@g@u@Su@Ia@Ck@Dm@HwAf@c@VeAx@iAlAU^[d@eLtTsAvB_CvEuAnCmBlE}@|B_BvFoC`JCD}@hCo@~Aq@pAs@fA{BlCqH|Iq@Bq@Im@U","length":46},"routeShortName":"23","routeLongName":"Côte Verdun via Aréna du Plateau","rentedBike":false,"transitLeg":true,"duration":387.0,"steps":[]},{"startTime":1522689688000,"endTime":1522689794000,"departureDelay":0,"arrivalDelay":0,"realTime":false,"distance":132.127,"pathway":false,"mode":"WALK","route":"","agencyTimeZoneOffset":-14400000,"interlineWithPreviousLeg":false,"from":{"name":"St-Gérard / Pasteur","stopId":"1:727","stopCode":"727","lon":-71.084309,"lat":48.448719,"arrival":1522689687000,"departure":1522689688000,"zoneId":"NA","stopIndex":4,"stopSequence":5,"vertexType":"TRANSIT"},"to":{"name":"Destination","lon":-71.08496999,"lat":48.447871,"arrival":1522689794000,"orig":"","vertexType":"NORMAL"},"legGeometry":{"points":"_tufHptzpLJTv@lBN\\nA{A","length":5},"rentedBike":false,"transitLeg":false,"duration":106.0,"steps":[{"distance":75.98,"relativeDirection":"DEPART","streetName":"Rue Saint-Gérard","absoluteDirection":"SOUTHWEST","stayOn":false,"area":false,"bogusName":false,"lon":-71.0844008886955,"lat":48.448801303287965,"elevation":[]},{"distance":56.147,"relativeDirection":"LEFT","streetName":"Boulevard Sainte-Geneviève","absoluteDirection":"SOUTHEAST","stayOn":false,"area":false,"bogusName":false,"lon":-71.08521470000001,"lat":48.448382800000005,"elevation":[]}]}],"tooSloped":false},{"duration":1710,"startTime":1522688203000,"endTime":1522689913000,"walkTime":272,"transitTime":836,"waitingTime":602,"walkDistance":340.3326390943357,"walkLimitExceeded":false,"elevationLost":0.0,"elevationGained":0.0,"transfers":1,"legs":[{"startTime":1522688203000,"endTime":1522688359000,"departureDelay":0,"arrivalDelay":0,"realTime":false,"distance":199.635,"pathway":false,"mode":"WALK","route":"","agencyTimeZoneOffset":-14400000,"interlineWithPreviousLeg":false,"from":{"name":"Origin","lon":-71.060389,"lat":48.442651,"departure":1522688203000,"orig":"","vertexType":"NORMAL"},"to":{"name":"Église St-Luc (boul. Tadoussac)","stopId":"1:830","stopCode":"830","lon":-71.059501,"lat":48.441464,"arrival":1522688359000,"departure":1522688360000,"zoneId":"NA","stopIndex":20,"stopSequence":21,"vertexType":"TRANSIT"},"legGeometry":{"points":"gmtfH||upLjDjAPcAH]FOJMPSPSCKMa@","length":10},"rentedBike":false,"transitLeg":false,"duration":156.0,"steps":[{"distance":99.333,"relativeDirection":"DEPART","streetName":"Rue du Régent","absoluteDirection":"SOUTH","stayOn":false,"area":false,"bogusName":false,"lon":-71.06014960211074,"lat":48.44260510190253,"elevation":[]},{"distance":80.529,"relativeDirection":"LEFT","streetName":"Rue Talon","absoluteDirection":"SOUTHEAST","stayOn":false,"area":false,"bogusName":false,"lon":-71.0605235,"lat":48.441746900000005,"elevation":[]},{"distance":19.773,"relativeDirection":"LEFT","streetName":"Boulevard de Tadoussac","absoluteDirection":"NORTHEAST","stayOn":false,"area":false,"bogusName":false,"lon":-71.0596842,"lat":48.441320700000006,"elevation":[]}]},{"startTime":1522688360000,"endTime":1522688700000,"departureDelay":0,"arrivalDelay":0,"realTime":false,"distance":2205.3269568724254,"pathway":false,"mode":"BUS","route":"23","agencyName":"Société de Transport du Saguenay","agencyUrl":"http://ville.saguenay.ca/fr/services-aux-citoyens/transport-sts","agencyTimeZoneOffset":-14400000,"routeColor":"FF00FF","routeType":3,"routeId":"1:23","routeTextColor":"FFFFFF","interlineWithPreviousLeg":false,"tripBlockId":"5","headsign":"Terminus Chicoutimi","agencyId":"0","tripId":"1:217262","serviceDate":"20180402","from":{"name":"Église St-Luc (boul. Tadoussac)","stopId":"1:830","stopCode":"830","lon":-71.059501,"lat":48.441464,"arrival":1522688359000,"departure":1522688360000,"zoneId":"NA","stopIndex":20,"stopSequence":21,"vertexType":"TRANSIT"},"to":{"name":"Terminus Chicoutimi","stopId":"1:1289","stopCode":"1289","lon":-71.066163,"lat":48.428677,"arrival":1522688700000,"departure":1522689300000,"zoneId":"NA","stopIndex":26,"stopSequence":27,"vertexType":"TRANSIT"},"legGeometry":{"points":"yetfHvxupL@HLd@\\z@Xd@X\\RTXRr@Zn@PfExAvDpALnBJt@Pp@|@`DHZPn@`@rBNnAFr@DbA?bB@jABzA?p@A???A???A?A???A@??A?A@??A@?@A??@A@???@A@?@?@A@?@?@?@?@???@?@?@?@?@?@@@?@?@@@?@@@?@@@?@@?@@??@@@?E`@Kr@]rACVEl@I|AAr@JbAWJe@FUAM?a@Ke@YYWWa@v@}@RQPMz@k@tAe@REZG^Af@@X@VF`@Jn@XbClAr@Xt\\`PrAb@pA^hBTjAFj@Pb@JPHLLJNJRFXDT?X?ZEVEVKTMNMHMFOB}DWSGOSYcAN}FFkAF}DJyDd@wPV_HjAN~ALI`C","length":140},"routeShortName":"23","routeLongName":"Côte Verdun via Aréna du Plateau","rentedBike":false,"transitLeg":true,"duration":340.0,"steps":[]},{"startTime":1522689300000,"endTime":1522689796000,"departureDelay":0,"arrivalDelay":0,"realTime":false,"distance":3559.685247334825,"pathway":false,"mode":"BUS","route":"21","agencyName":"Société de Transport du Saguenay","agencyUrl":"http://ville.saguenay.ca/fr/services-aux-citoyens/transport-sts","agencyTimeZoneOffset":-14400000,"routeColor":"556B2F","routeType":3,"routeId":"1:21","routeTextColor":"FFFFFF","interlineWithPreviousLeg":false,"tripBlockId":"2","headsign":"Terminus Chicoutimi","agencyId":"0","tripId":"1:217169","serviceDate":"20180402","from":{"name":"Terminus Chicoutimi","stopId":"1:1289","stopCode":"1289","lon":-71.066163,"lat":48.428677,"arrival":1522688700000,"departure":1522689300000,"zoneId":"NA","stopIndex":0,"stopSequence":1,"vertexType":"TRANSIT"},"to":{"name":"St-Gérard / Pasteur","stopId":"1:733","stopCode":"733","lon":-71.0845,"lat":48.4489,"arrival":1522689796000,"departure":1522689797000,"zoneId":"NA","stopIndex":7,"stopSequence":8,"vertexType":"TRANSIT"},"legGeometry":{"points":"kwqfHjbwpLF_CeBSm@rRO\\WjGOfGCRK^KJMHQB_AMg@Gw`@eR}@g@u@Su@Ia@Ck@Dm@HwAf@c@VeAx@iAlAU^[d@eLtTsAvB_CvEuAnCmBlE}@|B_BvFoC`JCD}@hCo@~Aq@pAs@fAWs@IUC[AI?QCeGAs@Gy@Ks@Ou@OcAIcAIgAWgCG_@Og@IQS]UWYQWIUA[Da@P]RSVQ`@Ib@Ef@Et@Gf@Id@I`@Od@cCxFQOgAwA_FqGO[`BcEY_@MOaBtDLTh@bATZpGlIPNa@fAOn@Gd@UtBA^A^R`E^fGRbAVl@P`@","length":99},"routeShortName":"21","routeLongName":"Boul. Ste-Geneviève/Élie","rentedBike":false,"transitLeg":true,"duration":496.0,"steps":[]},{"startTime":1522689797000,"endTime":1522689913000,"departureDelay":0,"arrivalDelay":0,"realTime":false,"distance":140.59199999999998,"pathway":false,"mode":"WALK","route":"","agencyTimeZoneOffset":-14400000,"interlineWithPreviousLeg":false,"from":{"name":"St-Gérard / Pasteur","stopId":"1:733","stopCode":"733","lon":-71.0845,"lat":48.4489,"arrival":1522689796000,"departure":1522689797000,"zoneId":"NA","stopIndex":7,"stopSequence":8,"vertexType":"TRANSIT"},"to":{"name":"Destination","lon":-71.08496999,"lat":48.447871,"arrival":1522689913000,"orig":"","vertexType":"NORMAL"},"legGeometry":{"points":"qtufHxuzpLH?JGFIv@lBN\\nA{A","length":7},"rentedBike":false,"transitLeg":false,"duration":116.0,"steps":[{"distance":18.91,"relativeDirection":"DEPART","streetName":"Rue Pasteur Nord","absoluteDirection":"SOUTH","stayOn":false,"area":false,"bogusName":false,"lon":-71.08460477785076,"lat":48.44889846721524,"elevation":[]},{"distance":65.535,"relativeDirection":"RIGHT","streetName":"Rue Saint-Gérard","absoluteDirection":"SOUTHWEST","stayOn":false,"area":false,"bogusName":false,"lon":-71.0845147,"lat":48.4487454,"elevation":[]},{"distance":56.147,"relativeDirection":"LEFT","streetName":"Boulevard Sainte-Geneviève","absoluteDirection":"SOUTHEAST","stayOn":false,"area":false,"bogusName":false,"lon":-71.08521470000001,"lat":48.448382800000005,"elevation":[]}]}],"tooSloped":false},{"duration":1242,"startTime":1522690352000,"endTime":1522691594000,"walkTime":262,"transitTime":978,"waitingTime":2,"walkDistance":331.84245112522365,"walkLimitExceeded":false,"elevationLost":0.0,"elevationGained":0.0,"transfers":0,"legs":[{"startTime":1522690352000,"endTime":1522690508000,"departureDelay":0,"arrivalDelay":0,"realTime":false,"distance":199.635,"pathway":false,"mode":"WALK","route":"","agencyTimeZoneOffset":-14400000,"interlineWithPreviousLeg":false,"from":{"name":"Origin","lon":-71.060389,"lat":48.442651,"departure":1522690352000,"orig":"","vertexType":"NORMAL"},"to":{"name":"Église St-Luc (boul. Tadoussac)","stopId":"1:830","stopCode":"830","lon":-71.059501,"lat":48.441464,"arrival":1522690508000,"departure":1522690509000,"zoneId":"NA","stopIndex":29,"stopSequence":30,"vertexType":"TRANSIT"},"legGeometry":{"points":"gmtfH||upLjDjAPcAH]FOJMPSPSCKMa@","length":10},"rentedBike":false,"transitLeg":false,"duration":156.0,"steps":[{"distance":99.333,"relativeDirection":"DEPART","streetName":"Rue du Régent","absoluteDirection":"SOUTH","stayOn":false,"area":false,"bogusName":false,"lon":-71.06014960211074,"lat":48.44260510190253,"elevation":[]},{"distance":80.529,"relativeDirection":"LEFT","streetName":"Rue Talon","absoluteDirection":"SOUTHEAST","stayOn":false,"area":false,"bogusName":false,"lon":-71.0605235,"lat":48.441746900000005,"elevation":[]},{"distance":19.773,"relativeDirection":"LEFT","streetName":"Boulevard de Tadoussac","absoluteDirection":"NORTHEAST","stayOn":false,"area":false,"bogusName":false,"lon":-71.0596842,"lat":48.441320700000006,"elevation":[]}]},{"startTime":1522690509000,"endTime":1522690860000,"departureDelay":0,"arrivalDelay":0,"realTime":false,"distance":2205.3269568724254,"pathway":false,"mode":"BUS","route":"24","agencyName":"Société de Transport du Saguenay","agencyUrl":"http://ville.saguenay.ca/fr/services-aux-citoyens/transport-sts","agencyTimeZoneOffset":-14400000,"routeColor":"00FF00","routeType":3,"routeId":"1:24","routeTextColor":"000000","interlineWithPreviousLeg":false,"tripBlockId":"5","headsign":"Terminus Chicoutimi","agencyId":"0","tripId":"1:217263","serviceDate":"20180402","from":{"name":"Église St-Luc (boul. Tadoussac)","stopId":"1:830","stopCode":"830","lon":-71.059501,"lat":48.441464,"arrival":1522690508000,"departure":1522690509000,"zoneId":"NA","stopIndex":29,"stopSequence":30,"vertexType":"TRANSIT"},"to":{"name":"Terminus Chicoutimi","stopId":"1:1289","stopCode":"1289","lon":-71.066163,"lat":48.428677,"arrival":1522690860000,"departure":1522691100000,"zoneId":"NA","stopIndex":35,"stopSequence":36,"vertexType":"TRANSIT"},"legGeometry":{"points":"yetfHvxupL@HLd@\\z@Xd@X\\RTXRr@Zn@PfExAvDpALnBJt@Pp@Nj@l@tBHZPn@`@rBNnAFr@DbA?bB@jABzA?p@A???A???A?A???A@??A?A@??A@?@A??@A@???@A@?@?@A@?@?@?@?@???@?@?@?@?@?@@@?@?@@@?@@@?@@@?@@?@@??@@@?E`@Kr@]rACVEl@I|AAr@JbAWJe@FUAM?a@Ke@YYWWa@v@}@RQPMz@k@tAe@REZG^Af@@X@VF`@Jn@XbClAr@Xt\\`PrAb@pA^hBTjAFj@Pb@JPHLLJNJRFXDT?X?ZEVEVKTMNMHMFOB}DWSGOSYcAN}FFkAF}DJyDPwGvAHN_HDiB@m@","length":141},"routeShortName":"24","routeLongName":"Saint-Luc","rentedBike":false,"transitLeg":true,"duration":351.0,"steps":[]},{"startTime":1522691100000,"endTime":1522691487000,"departureDelay":0,"arrivalDelay":0,"realTime":false,"distance":2669.4064857723333,"pathway":false,"mode":"BUS","route":"23","agencyName":"Société de Transport du Saguenay","agencyUrl":"http://ville.saguenay.ca/fr/services-aux-citoyens/transport-sts","agencyTimeZoneOffset":-14400000,"routeColor":"FF00FF","routeType":3,"routeId":"1:23","routeTextColor":"FFFFFF","interlineWithPreviousLeg":true,"tripBlockId":"5","headsign":"Terminus Chicoutimi","agencyId":"0","tripId":"1:217264","serviceDate":"20180402","from":{"name":"Terminus Chicoutimi","stopId":"1:1289","stopCode":"1289","lon":-71.066163,"lat":48.428677,"arrival":1522690860000,"departure":1522691100000,"zoneId":"NA","stopIndex":0,"stopSequence":1,"vertexType":"TRANSIT"},"to":{"name":"St-Gérard / Pasteur","stopId":"1:727","stopCode":"727","lon":-71.084309,"lat":48.448719,"arrival":1522691487000,"departure":1522691488000,"zoneId":"NA","stopIndex":4,"stopSequence":5,"vertexType":"TRANSIT"},"legGeometry":{"points":"kwqfHjbwpLF_CkAOYCm@rRO\\WjGOfGCRK^KJMHQB_AMg@Gw`@eR}@g@u@Su@Ia@Ck@Dm@HwAf@c@VeAx@iAlAU^[d@eLtTsAvB_CvEuAnCmBlE}@|B_BvFoC`JCD}@hCo@~Aq@pAs@fA{BlCqH|Iq@Bq@Im@U","length":46},"routeShortName":"23","routeLongName":"Côte Verdun via Aréna du Plateau","rentedBike":false,"transitLeg":true,"duration":387.0,"steps":[]},{"startTime":1522691488000,"endTime":1522691594000,"departureDelay":0,"arrivalDelay":0,"realTime":false,"distance":132.127,"pathway":false,"mode":"WALK","route":"","agencyTimeZoneOffset":-14400000,"interlineWithPreviousLeg":false,"from":{"name":"St-Gérard / Pasteur","stopId":"1:727","stopCode":"727","lon":-71.084309,"lat":48.448719,"arrival":1522691487000,"departure":1522691488000,"zoneId":"NA","stopIndex":4,"stopSequence":5,"vertexType":"TRANSIT"},"to":{"name":"Destination","lon":-71.08496999,"lat":48.447871,"arrival":1522691594000,"orig":"","vertexType":"NORMAL"},"legGeometry":{"points":"_tufHptzpLJTv@lBN\\nA{A","length":5},"rentedBike":false,"transitLeg":false,"duration":106.0,"steps":[{"distance":75.98,"relativeDirection":"DEPART","streetName":"Rue Saint-Gérard","absoluteDirection":"SOUTHWEST","stayOn":false,"area":false,"bogusName":false,"lon":-71.0844008886955,"lat":48.448801303287965,"elevation":[]},{"distance":56.147,"relativeDirection":"LEFT","streetName":"Boulevard Sainte-Geneviève","absoluteDirection":"SOUTHEAST","stayOn":false,"area":false,"bogusName":false,"lon":-71.08521470000001,"lat":48.448382800000005,"elevation":[]}]}],"tooSloped":false}]},"debugOutput":{"precalculationTime":17,"pathCalculationTime":23,"pathTimes":[14,4,5],"renderingTime":0,"totalTime":40,"timedOut":false},"elevationMetadata":{"ellipsoidToGeoidDifference":-28.885904201182168,"geoidElevation":false}}