{"requestParameters":{"date":"2018/04/02","walkSpeed":"1.33","walkReluctance":"2.0","fromPlace":"48.402126,-71.09779","maxWalkDistance":"3000","waitReluctance":"1.0","carSpeed":"33","numItineraries":"3","waitAtBeginningFactor":"0.4","mode":"TRANSIT,WALK","ignoreRealtimeUpdates":"false","stairsReluctance":"2.0","toPlace":"48.441844,-71.061813","time":"15:35:00"},"plan":{"date":1522697700000,"from":{"name":"Origin","lon":-71.09779,"lat":48.402126,"orig":"","vertexType":"NORMAL"},"to":{"name":"Destination","lon":-71.061813,"lat":48.441844,"orig":"","vertexType":"NORMAL"},"itineraries":[{"duration":1847,"startTime":1522698916000,"endTime":1522700763000,"walkTime":490,"transitTime":1115,"waitingTime":242,"walkDistance":630.8050375918864,"walkLimitExceeded":false,"elevationLost":0.0,"elevationGained":0.0,"transfers":1,"legs":[{"startTime":1522698916000,"endTime":1522699009000,"departureDelay":0,"arrivalDelay":0,"realTime":false,"distance":120.195,"pathway":false,"mode":"WALK","route":"","agencyTimeZoneOffset":-14400000,"interlineWithPreviousLeg":false,"from":{"name":"Origin","lon":-71.09779,"lat":48.402126,"departure":1522698916000,"orig":"","vertexType":"NORMAL"},"to":{"name":"boul. St-Paul (no. 1857)","stopId":"1:93","stopCode":"93","lon":-71.099526,"lat":48.401635,"arrival":1522699009000,"departure":1522699010000,"zoneId":"NA","stopIndex":11,"stopSequence":12,"vertexType":"TRANSIT"},"legGeometry":{"points":"_slfHxm}pLb@f@f@j@HJvA`B","length":5},"rentedBike":false,"transitLeg":false,"duration":93.0,"steps":[{"distance":120.195,"relativeDirection":"DEPART","streetName":"Boulevard Saint-Paul","absoluteDirection":"SOUTHWEST","stayOn":false,"area":false,"bogusName":false,"lon":-71.09868315571377,"lat":48.40256550392333,"elevation":[]}]},{"startTime":1522699010000,"endTime":1522699860000,"departureDelay":0,"arrivalDelay":0,"realTime":false,"distance":4486.384766519905,"pathway":false,"mode":"BUS","route":"11","agencyName":"Société de Transport du Saguenay","agencyUrl":"http://ville.saguenay.ca/fr/services-aux-citoyens/transport-sts","agencyTimeZoneOffset":-14400000,"routeColor":"FF0000","routeType":3,"routeId":"1:11","routeTextColor":"FFFFFF","interlineWithPreviousLeg":false,"tripBlockId":"36","headsign":"Terminus Chicoutimi","agencyId":"0","tripId":"1:218295","serviceDate":"20180402","from":{"name":"boul. St-Paul (no. 1857)","stopId":"1:93","stopCode":"93","lon":-71.099526,"lat":48.401635,"arrival":1522699009000,"departure":1522699010000,"zoneId":"NA","stopIndex":11,"stopSequence":12,"vertexType":"TRANSIT"},"to":{"name":"Terminus Chicoutimi","stopId":"1:1289","stopCode":"1289","lon":-71.066163,"lat":48.428677,"arrival":1522699860000,"departure":1522700100000,"zoneId":"NA","stopIndex":30,"stopSequence":31,"vertexType":"TRANSIT"},"legGeometry":{"points":"mmlfHrs}pLqMgOmAbDAVSl@y@vBeCuCoCaDkDuE_@g@{FwGOMnA}CnA_DJWu@iAW[S[yI{MmBqC{@wAQUw@gAsDiF_B_CQYa@cA[_AUy@YcBOgAYHu@\\M`@cAiBuAyBkHgL{C{E}AcCc@o@q@gAOWwCyCyGyG_IaIs@rBEHwAtDmBvEOd@[bBK~AIf@YHE@Q@O?OCI_@GMEKI_AB_A?Yo@IKCIEIIKOEKCKe@}BKs@CQAUE_A@yCFcDVsLDaCD_@kBKW?e@Q_BQNuEDuBXmNLgHmKm@}BW{AMCn@o@G??","length":95},"routeShortName":"11","routeLongName":"Chic/Faubourg via St-Paul","rentedBike":false,"transitLeg":true,"duration":850.0,"steps":[]},{"startTime":1522700100000,"endTime":1522700365000,"departureDelay":0,"arrivalDelay":0,"realTime":false,"distance":1162.148281913648,"pathway":false,"mode":"BUS","route":"24","agencyName":"Société de Transport du Saguenay","agencyUrl":"http://ville.saguenay.ca/fr/services-aux-citoyens/transport-sts","agencyTimeZoneOffset":-14400000,"routeColor":"00FF00","routeType":3,"routeId":"1:24","routeTextColor":"000000","interlineWithPreviousLeg":false,"tripBlockId":"5","headsign":"Terminus Chicoutimi","agencyId":"0","tripId":"1:217269","serviceDate":"20180402","from":{"name":"Terminus Chicoutimi","stopId":"1:1289","stopCode":"1289","lon":-71.066163,"lat":48.428677,"arrival":1522699860000,"departure":1522700100000,"zoneId":"NA","stopIndex":0,"stopSequence":1,"vertexType":"TRANSIT"},"to":{"name":"Roussel / St-Éphrem","stopId":"1:771","stopCode":"771","lon":-71.063155,"lat":48.437822,"arrival":1522700365000,"departure":1522700366000,"zoneId":"NA","stopIndex":2,"stopSequence":3,"vertexType":"TRANSIT"},"legGeometry":{"points":"evqfHzcwpLg@?EhBO~GoBKCp@O\\WjGOfGCRK^KJMHQB_AMg@Gm\\wO]i@wAyA_@WUKMEwEm@Js@Da@??@@??@?@???@???@?@??A@???@A@??A@??A@A??@A?A??@A?A?A?A@A?A???A?A?A???A?A?A?A???A?AAA?A???AAA?A??AA?AA??AA??A??AA??A??AA?A???A????q@C{AAaB?mAEcAGs@OoAa@sB[kAYcA","length":99},"routeShortName":"24","routeLongName":"Saint-Luc","rentedBike":false,"transitLeg":true,"duration":265.0,"steps":[]},{"startTime":1522700366000,"endTime":1522700763000,"departureDelay":0,"arrivalDelay":0,"realTime":false,"distance":510.54499999999996,"pathway":false,"mode":"WALK","route":"","agencyTimeZoneOffset":-14400000,"interlineWithPreviousLeg":false,"from":{"name":"Roussel / St-Éphrem","stopId":"1:771","stopCode":"771","lon":-71.063155,"lat":48.437822,"arrival":1522700365000,"departure":1522700366000,"zoneId":"NA","stopIndex":2,"stopSequence":3,"vertexType":"TRANSIT"},"to":{"name":"Destination","lon":-71.061813,"lat":48.441844,"arrival":1522700763000,"orig":"","vertexType":"NORMAL"},"legGeometry":{"points":"yosfHdpvpLUs@_@NOBgBq@sEwAkBq@{GiCa@OOhA","length":10},"rentedBike":false,"transitLeg":false,"duration":397.0,"steps":[{"distance":23.261,"relativeDirection":"DEPART","streetName":"Rue Roussel","absoluteDirection":"NORTHEAST","stayOn":false,"area":false,"bogusName":false,"lon":-71.06322717074731,"lat":48.4378981822846,"elevation":[]},{"distance":458.795,"relativeDirection":"LEFT","streetName":"Rue Saint-Éphrem","absoluteDirection":"NORTH","stayOn":false,"area":false,"bogusName":false,"lon":-71.0629602,"lat":48.4380095,"elevation":[]},{"distance":28.489,"relativeDirection":"LEFT","streetName":"Rue Talon","absoluteDirection":"WEST","stayOn":false,"area":false,"bogusName":false,"lon":-71.0613562,"lat":48.4419532,"elevation":[]}]}],"tooSloped":false},{"duration":1847,"startTime":1522700716000,"endTime":1522702563000,"walkTime":490,"transitTime":1115,"waitingTime":242,"walkDistance":630.8050375918864,"walkLimitExceeded":false,"elevationLost":0.0,"elevationGained":0.0,"transfers":1,"legs":[{"startTime":1522700716000,"endTime":1522700809000,"departureDelay":0,"arrivalDelay":0,"realTime":false,"distance":120.195,"pathway":false,"mode":"WALK","route":"","agencyTimeZoneOffset":-14400000,"interlineWithPreviousLeg":false,"from":{"name":"Origin","lon":-71.09779,"lat":48.402126,"departure":1522700716000,"orig":"","vertexType":"NORMAL"},"to":{"name":"boul. St-Paul (no. 1857)","stopId":"1:93","stopCode":"93","lon":-71.099526,"lat":48.401635,"arrival":1522700809000,"departure":1522700810000,"zoneId":"NA","stopIndex":11,"stopSequence":12,"vertexType":"TRANSIT"},"legGeometry":{"points":"_slfHxm}pLb@f@f@j@HJvA`B","length":5},"rentedBike":false,"transitLeg":false,"duration":93.0,"steps":[{"distance":120.195,"relativeDirection":"DEPART","streetName":"Boulevard Saint-Paul","absoluteDirection":"SOUTHWEST","stayOn":false,"area":false,"bogusName":false,"lon":-71.09868315571377,"lat":48.40256550392333,"elevation":[]}]},{"startTime":1522700810000,"endTime":1522701660000,"departureDelay":0,"arrivalDelay":0,"realTime":false,"distance":4486.384766519905,"pathway":false,"mode":"BUS","route":"11","agencyName":"Société de Transport du Saguenay","agencyUrl":"http://ville.saguenay.ca/fr/services-aux-citoyens/transport-sts","agencyTimeZoneOffset":-14400000,"routeColor":"FF0000","routeType":3,"routeId":"1:11","routeTextColor":"FFFFFF","interlineWithPreviousLeg":false,"tripBlockId":"35","headsign":"Terminus Chicoutimi","agencyId":"0","tripId":"1:218261","serviceDate":"20180402","from":{"name":"boul. St-Paul (no. 1857)","stopId":"1:93","stopCode":"93","lon":-71.099526,"lat":48.401635,"arrival":1522700809000,"departure":1522700810000,"zoneId":"NA","stopIndex":11,"stopSequence":12,"vertexType":"TRANSIT"},"to":{"name":"Terminus Chicoutimi","stopId":"1:1289","stopCode":"1289","lon":-71.066163,"lat":48.428677,"arrival":1522701660000,"departure":1522701900000,"zoneId":"NA","stopIndex":30,"stopSequence":31,"vertexType":"TRANSIT"},"legGeometry":{"points":"mmlfHrs}pLqMgOmAbDAVSl@y@vBeCuCoCaDkDuE_@g@{FwGOMnA}CnA_DJWu@iAW[S[yI{MmBqC{@wAQUw@gAsDiF_B_CQYa@cA[_AUy@YcBOgAYHu@\\M`@cAiBuAyBkHgL{C{E}AcCc@o@q@gAOWwCyCyGyG_IaIs@rBEHwAtDmBvEOd@[bBK~AIf@YHE@Q@O?OCI_@GMEKI_AB_A?Yo@IKCIEIIKOEKCKe@}BKs@CQAUE_A@yCFcDVsLDaCD_@kBKW?e@Q_BQNuEDuBXmNLgHmKm@}BW{AMCn@o@G??","length":95},"routeShortName":"11","routeLongName":"Chic/Faubourg via St-Paul","rentedBike":false,"transitLeg":true,"duration":850.0,"steps":[]},{"startTime":1522701900000,"endTime":1522702165000,"departureDelay":0,"arrivalDelay":0,"realTime":false,"distance":1162.148281913648,"pathway":false,"mode":"BUS","route":"24","agencyName":"Société de Transport du Saguenay","agencyUrl":"http://ville.saguenay.ca/fr/services-aux-citoyens/transport-sts","agencyTimeZoneOffset":-14400000,"routeColor":"00FF00","routeType":3,"routeId":"1:24","routeTextColor":"000000","interlineWithPreviousLeg":false,"tripBlockId":"4","headsign":"Terminus Chicoutimi","agencyId":"0","tripId":"1:217243","serviceDate":"20180402","from":{"name":"Terminus Chicoutimi","stopId":"1:1289","stopCode":"1289","lon":-71.066163,"lat":48.428677,"arrival":1522701660000,"departure":1522701900000,"zoneId":"NA","stopIndex":0,"stopSequence":1,"vertexType":"TRANSIT"},"to":{"name":"Roussel / St-Éphrem","stopId":"1:771","stopCode":"771","lon":-71.063155,"lat":48.437822,"arrival":1522702165000,"departure":1522702166000,"zoneId":"NA","stopIndex":2,"stopSequence":3,"vertexType":"TRANSIT"},"legGeometry":{"points":"evqfHzcwpLg@?EhBO~GoBKCp@O\\WjGOfGCRK^KJMHQB_AMg@Gm\\wO]i@wAyA_@WUKMEwEm@Js@Da@??@@??@?@???@???@?@??A@???@A@??A@??A@A??@A?A??@A?A?A?A@A?A???A?A?A???A?A?A?A???A?AAA?A???AAA?A??AA?AA??AA??A??AA??A??AA?A???A????q@C{AAaB?mAEcAGs@OoAa@sB[kAYcA","length":99},"routeShortName":"24","routeLongName":"Saint-Luc","rentedBike":false,"transitLeg":true,"duration":265.0,"steps":[]},{"startTime":1522702166000,"endTime":1522702563000,"departureDelay":0,"arrivalDelay":0,"realTime":false,"distance":510.54499999999996,"pathway":false,"mode":"WALK","route":"","agencyTimeZoneOffset":-14400000,"interlineWithPreviousLeg":false,"from":{"name":"Roussel / St-Éphrem","stopId":"1:771","stopCode":"771","lon":-71.063155,"lat":48.437822,"arrival":1522702165000,"departure":1522702166000,"zoneId":"NA","stopIndex":2,"stopSequence":3,"vertexType":"TRANSIT"},"to":{"name":"Destination","lon":-71.061813,"lat":48.441844,"arrival":1522702563000,"orig":"","vertexType":"NORMAL"},"legGeometry":{"points":"yosfHdpvpLUs@_@NOBgBq@sEwAkBq@{GiCa@OOhA","length":10},"rentedBike":false,"transitLeg":false,"duration":397.0,"steps":[{"distance":23.261,"relativeDirection":"DEPART","streetName":"Rue Roussel","absoluteDirection":"NORTHEAST","stayOn":false,"area":false,"bogusName":false,"lon":-71.06322717074731,"lat":48.4378981822846,"elevation":[]},{"distance":458.795,"relativeDirection":"LEFT","streetName":"Rue Saint-Éphrem","absoluteDirection":"NORTH","stayOn":false,"area":false,"bogusName":false,"lon":-71.0629602,"lat":48.4380095,"elevation":[]},{"distance":28.489,"relativeDirection":"LEFT","streetName":"Rue Talon","absoluteDirection":"WEST","stayOn":false,"area":false,"bogusName":false,"lon":-71.0613562,"lat":48.4419532,"elevation":[]}]}],"tooSloped":false},{"duration":1795,"startTime":1522704239000,"endTime":1522706034000,"walkTime":280,"transitTime":1513,"waitingTime":2,"walkDistance":353.33718044879873,"walkLimitExceeded":false,"elevationLost":0.0,"elevationGained":0.0,"transfers":0,"legs":[{"startTime":1522704239000,"endTime":1522704332000,"departureDelay":0,"arrivalDelay":0,"realTime":false,"distance":120.195,"pathway":false,"mode":"WALK","route":"","agencyTimeZoneOffset":-14400000,"interlineWithPreviousLeg":false,"from":{"name":"Origin","lon":-71.09779,"lat":48.402126,"departure":1522704239000,"orig":"","vertexType":"NORMAL"},"to":{"name":"boul. St-Paul (no. 1857)","stopId":"1:93","stopCode":"93","lon":-71.099526,"lat":48.401635,"arrival":1522704332000,"departure":1522704333000,"zoneId":"NA","stopIndex":29,"stopSequence":30,"vertexType":"TRANSIT"},"legGeometry":{"points":"_slfHxm}pLb@f@f@j@HJvA`B","length":5},"rentedBike":false,"transitLeg":false,"duration":93.0,"steps":[{"distance":120.195,"relativeDirection":"DEPART","streetName":"Boulevard Saint-Paul","absoluteDirection":"SOUTHWEST","stayOn":false,"area":false,"bogusName":false,"lon":-71.09868315571377,"lat":48.40256550392333,"elevation":[]}]},{"startTime":1522704333000,"endTime":1522704840000,"departureDelay":0,"arrivalDelay":0,"realTime":false,"distance":3972.5921496478236,"pathway":false,"mode":"BUS","route":"60","agencyName":"Société de Transport du Saguenay","agencyUrl":"http://ville.saguenay.ca/fr/services-aux-citoyens/transport-sts","agencyTimeZoneOffset":-14400000,"routeColor":"00FFFF","routeType":3,"routeId":"1:60","routeTextColor":"000000","interlineWithPreviousLeg":false,"tripBlockId":"107","headsign":"Terminus Chicoutimi","agencyId":"0","tripId":"1:218824","serviceDate":"20180402","from":{"name":"boul. St-Paul (no. 1857)","stopId":"1:93","stopCode":"93","lon":-71.099526,"lat":48.401635,"arrival":1522704332000,"departure":1522704333000,"zoneId":"NA","stopIndex":29,"stopSequence":30,"vertexType":"TRANSIT"},"to":{"name":"Terminus Chicoutimi","stopId":"1:1289","stopCode":"1289","lon":-71.066163,"lat":48.428677,"arrival":1522704840000,"departure":1522705500000,"zoneId":"NA","stopIndex":34,"stopSequence":35,"vertexType":"TRANSIT"},"legGeometry":{"points":"qmlfHxs}pL_DqDwGwHkKwLmG{H}D_GoJqNeEkGYc@qFoIcAcBk@_B[mAg@wDo@wDo@mBcBkDwFgI_B{Bw@kAgJsJkJmJwFsFsEuFyA{BwAqAwA_@aDQwNjACmCeDHkBFJiEPiI@kAeAKiAGi@EPmHCoBh@]","length":41},"routeShortName":"60","routeLongName":"Portage des Roches Nord","rentedBike":false,"transitLeg":true,"duration":507.0,"steps":[]},{"startTime":1522705500000,"endTime":1522705846000,"departureDelay":0,"arrivalDelay":0,"realTime":false,"distance":1667.8280184187613,"pathway":false,"mode":"BUS","route":"26","agencyName":"Société de Transport du Saguenay","agencyUrl":"http://ville.saguenay.ca/fr/services-aux-citoyens/transport-sts","agencyTimeZoneOffset":-14400000,"routeColor":"00FFFF","routeType":3,"routeId":"1:26","routeTextColor":"000000","interlineWithPreviousLeg":true,"tripBlockId":"107","headsign":"Terminus Chicoutimi","agencyId":"0","tripId":"1:218825","serviceDate":"20180402","from":{"name":"Terminus Chicoutimi","stopId":"1:1289","stopCode":"1289","lon":-71.066163,"lat":48.428677,"arrival":1522704840000,"departure":1522705500000,"zoneId":"NA","stopIndex":0,"stopSequence":1,"vertexType":"TRANSIT"},"to":{"name":"Église St-Luc (boul. Tadoussac)","stopId":"1:2026","stopCode":"2026","lon":-71.058973,"lat":48.441418,"arrival":1522705846000,"departure":1522705847000,"zoneId":"NA","stopIndex":4,"stopSequence":5,"vertexType":"TRANSIT"},"legGeometry":{"points":"avqfH``wpLc@E@o@kAOYCm@rRO\\WjGOfGCRK^KJMHQB_AMg@Gm\\wO]i@wAyA_@WUKMEwEm@Js@Da@??@@??@?@???@???@?@??A@???@A@??A@??A@A??@A?A??@A?A?A?A@A?A???A?A?A???A?A?A?A???A?AAA?A???AAA?A??AA?AA??AA??A??AA??A??AA?A???A????q@C{AAaB?mAEcAGs@OoAa@sB[kAYcASq@Ok@Qq@Ku@MoBiC}@yBu@AAyBu@o@Qs@[YSSUY]Ye@]{@Me@Kg@K{@","length":118},"routeShortName":"26","routeLongName":"St-Fulgence","rentedBike":false,"transitLeg":true,"duration":346.0,"steps":[]},{"startTime":1522705847000,"endTime":1522706034000,"departureDelay":0,"arrivalDelay":0,"realTime":false,"distance":233.06999999999996,"pathway":false,"mode":"WALK","route":"","agencyTimeZoneOffset":-14400000,"interlineWithPreviousLeg":false,"from":{"name":"Église St-Luc (boul. Tadoussac)","stopId":"1:2026","stopCode":"2026","lon":-71.058973,"lat":48.441418,"arrival":1522705846000,"departure":1522705847000,"zoneId":"NA","stopIndex":4,"stopSequence":5,"vertexType":"TRANSIT"},"to":{"name":"Destination","lon":-71.061813,"lat":48.441844,"arrival":1522706034000,"orig":"","vertexType":"NORMAL"},"legGeometry":{"points":"wetfHfvupLSDBPF\\BL@FL`@BJQRQRKLGNI\\QbAGXa@jCOhA","length":17},"rentedBike":false,"transitLeg":false,"duration":187.0,"steps":[{"distance":11.322,"relativeDirection":"DEPART","streetName":"path","absoluteDirection":"NORTH","stayOn":false,"area":false,"bogusName":true,"lon":-71.05907515325818,"lat":48.441402285226026,"elevation":[]},{"distance":47.162,"relativeDirection":"LEFT","streetName":"Boulevard de Tadoussac","absoluteDirection":"WEST","stayOn":false,"area":false,"bogusName":false,"lon":-71.0591098,"lat":48.4415014,"elevation":[]},{"distance":174.58599999999998,"relativeDirection":"RIGHT","streetName":"Rue Talon","absoluteDirection":"NORTHWEST","stayOn":false,"area":false,"bogusName":false,"lon":-71.0596842,"lat":48.441320700000006,"elevation":[]}]}],"tooSloped":false}]},"debugOutput":{"precalculationTime":16,"pathCalculationTime":30,"pathTimes":[16,7,7],"renderingTime":0,"totalTime":46,"timedOut":false},"elevationMetadata":{"ellipsoidToGeoidDifference":-28.885904201182168,"geoidElevation":false}}