{"requestParameters":{"date":"2018/04/02","walkSpeed":"1.33","walkReluctance":"2.0","fromPlace":"48.444211,-71.065259","maxWalkDistance":"3000","waitReluctance":"1.0","carSpeed":"33","numItineraries":"3","waitAtBeginningFactor":"0.4","mode":"TRANSIT,WALK","ignoreRealtimeUpdates":"false","stairsReluctance":"2.0","toPlace":"48.427606,-71.06538399","time":"7:30:00"},"plan":{"date":1522668600000,"from":{"name":"Origin","lon":-71.065259,"lat":48.444211,"orig":"","vertexType":"NORMAL"},"to":{"name":"Destination","lon":-71.06538399,"lat":48.427606,"orig":"","vertexType":"NORMAL"},"itineraries":[{"duration":1234,"startTime":1522669735000,"endTime":1522670969000,"walkTime":440,"transitTime":792,"waitingTime":2,"walkDistance":570.4455187951364,"walkLimitExceeded":false,"elevationLost":0.0,"elevationGained":0.0,"transfers":0,"legs":[{"startTime":1522669735000,"endTime":1522670087000,"departureDelay":0,"arrivalDelay":0,"realTime":false,"distance":456.59499999999997,"pathway":false,"mode":"WALK","route":"","agencyTimeZoneOffset":-14400000,"interlineWithPreviousLeg":false,"from":{"name":"Origin","lon":-71.065259,"lat":48.444211,"departure":1522669735000,"orig":"","vertexType":"NORMAL"},"to":{"name":"Cabot / Delisle","stopId":"1:788","stopCode":"788","lon":-71.063276,"lat":48.447779,"arrival":1522670087000,"departure":1522670088000,"zoneId":"NA","stopIndex":11,"stopSequence":12,"vertexType":"TRANSIT"},"legGeometry":{"points":"iytfHn_wpLCGIKIGKIa@OWIqQeHZ_C","length":9},"rentedBike":false,"transitLeg":false,"duration":352.0,"steps":[{"distance":406.825,"relativeDirection":"DEPART","streetName":"Rue Delisle","absoluteDirection":"NORTHEAST","stayOn":false,"area":false,"bogusName":false,"lon":-71.06567762744677,"lat":48.44453136421811,"elevation":[]},{"distance":49.77,"relativeDirection":"RIGHT","streetName":"Rue Cabot","absoluteDirection":"EAST","stayOn":false,"area":false,"bogusName":false,"lon":-71.06388530000001,"lat":48.4479794,"elevation":[]}]},{"startTime":1522670088000,"endTime":1522670880000,"departureDelay":0,"arrivalDelay":0,"realTime":false,"distance":4085.4873126775346,"pathway":false,"mode":"BUS","route":"23","agencyName":"Société de Transport du Saguenay","agencyUrl":"http://ville.saguenay.ca/fr/services-aux-citoyens/transport-sts","agencyTimeZoneOffset":-14400000,"routeColor":"FF00FF","routeType":3,"routeId":"1:23","routeTextColor":"FFFFFF","interlineWithPreviousLeg":false,"tripBlockId":"5","headsign":"Terminus Chicoutimi","agencyId":"0","tripId":"1:217252","serviceDate":"20180402","from":{"name":"Cabot / Delisle","stopId":"1:788","stopCode":"788","lon":-71.063276,"lat":48.447779,"arrival":1522670087000,"departure":1522670088000,"zoneId":"NA","stopIndex":11,"stopSequence":12,"vertexType":"TRANSIT"},"to":{"name":"Terminus Chicoutimi","stopId":"1:1289","stopCode":"1289","lon":-71.066163,"lat":48.428677,"arrival":1522670880000,"departure":1522670881000,"zoneId":"NA","stopIndex":26,"stopSequence":27,"vertexType":"TRANSIT"},"legGeometry":{"points":"_nufHhpvpL`AgHz@oGBU?UAWCWUwAWD]B]AUEoAc@kE}AOIq@g@g@u@]w@b@s@T[~CkFf@s@\\e@x@}@jAeAXQZStBaAh@]`@]`@i@l@kDF_@R{AFWFMPIPC`@BT@V?TAVKLENCLCJ@J@xAb@x@Zz@\\CP?R@N@NFLFF`GtBx@Xw@pG@l@B\\DXL\\RZDFXPf@N@v@Bp@Dr@l@~HNlAH\\@HLd@\\z@Xd@X\\RTXRr@Zn@PfExAvDpALnBJt@Pp@|@`DHZPn@`@rBNnAFr@DbA?bB@jABzA?p@A???A???A?A???A@??A?A@??A@?@A??@A@???@A@?@?@A@?@?@?@?@???@?@?@?@?@?@@@?@?@@@?@@@?@@@?@@?@@??@@@?E`@Kr@]rACVEl@I|AAr@JbAWJe@FUAM?a@Ke@YYWWa@v@}@RQPMz@k@tAe@REZG^Af@@X@VF`@Jn@XbClAr@Xt\\`PrAb@pA^hBTjAFj@Pb@JPHLLJNJRFXDT?X?ZEVEVKTMNMHMFOB}DWSGOSYcAN}FFkAF}DJyDd@wPV_HjAN~ALI`C","length":213},"routeShortName":"23","routeLongName":"Côte Verdun via Aréna du Plateau","rentedBike":false,"transitLeg":true,"duration":792.0,"steps":[]},{"startTime":1522670881000,"endTime":1522670969000,"departureDelay":0,"arrivalDelay":0,"realTime":false,"distance":113.79299999999999,"pathway":false,"mode":"WALK","route":"","agencyTimeZoneOffset":-14400000,"interlineWithPreviousLeg":false,"from":{"name":"Terminus Chicoutimi","stopId":"1:1289","stopCode":"1289","lon":-71.066163,"lat":48.428677,"arrival":1522670880000,"departure":1522670881000,"zoneId":"NA","stopIndex":26,"stopSequence":27,"vertexType":"TRANSIT"},"to":{"name":"Destination","lon":-71.06538399,"lat":48.427606,"arrival":1522670969000,"orig":"","vertexType":"NORMAL"},"legGeometry":{"points":"{uqfHb~vpLbAJR@JDb@L`AD","length":6},"rentedBike":false,"transitLeg":false,"duration":88.0,"steps":[{"distance":113.79299999999999,"relativeDirection":"DEPART","streetName":"Rue Morin","absoluteDirection":"SOUTH","stayOn":false,"area":false,"bogusName":false,"lon":-71.0654590096484,"lat":48.428628638946556,"elevation":[]}]}],"tooSloped":false},{"duration":682,"startTime":1522670407000,"endTime":1522671089000,"walkTime":372,"transitTime":308,"waitingTime":2,"walkDistance":477.0620676666862,"walkLimitExceeded":false,"elevationLost":0.0,"elevationGained":0.0,"transfers":0,"legs":[{"startTime":1522670407000,"endTime":1522670691000,"departureDelay":0,"arrivalDelay":0,"realTime":false,"distance":363.192,"pathway":false,"mode":"WALK","route":"","agencyTimeZoneOffset":-14400000,"interlineWithPreviousLeg":false,"from":{"name":"Origin","lon":-71.065259,"lat":48.444211,"departure":1522670407000,"orig":"","vertexType":"NORMAL"},"to":{"name":"Constantin / Casault","stopId":"1:768","stopCode":"768","lon":-71.0691,"lat":48.4448,"arrival":1522670691000,"departure":1522670692000,"zoneId":"NA","stopIndex":32,"stopSequence":33,"vertexType":"TRANSIT"},"legGeometry":{"points":"iytfHn_wpLDFHRFXHj@hAzMPnBeAPc@@KAOAe@a@","length":12},"rentedBike":false,"transitLeg":false,"duration":284.0,"steps":[{"distance":263.571,"relativeDirection":"DEPART","streetName":"Rue Delisle","absoluteDirection":"SOUTHWEST","stayOn":false,"area":false,"bogusName":false,"lon":-71.06567762744677,"lat":48.44453136421811,"elevation":[]},{"distance":99.62100000000001,"relativeDirection":"RIGHT","streetName":"Rue Constantin","absoluteDirection":"NORTH","stayOn":false,"area":false,"bogusName":false,"lon":-71.069103,"lat":48.4439088,"elevation":[]}]},{"startTime":1522670692000,"endTime":1522671000000,"departureDelay":0,"arrivalDelay":0,"realTime":false,"distance":2117.7991026821915,"pathway":false,"mode":"BUS","route":"22","agencyName":"Société de Transport du Saguenay","agencyUrl":"http://ville.saguenay.ca/fr/services-aux-citoyens/transport-sts","agencyTimeZoneOffset":-14400000,"routeColor":"C0C000","routeType":3,"routeId":"1:22","routeTextColor":"000000","interlineWithPreviousLeg":false,"tripBlockId":"1","headsign":"Terminus Chicoutimi","agencyId":"0","tripId":"1:217132","serviceDate":"20180402","from":{"name":"Constantin / Casault","stopId":"1:768","stopCode":"768","lon":-71.0691,"lat":48.4448,"arrival":1522670691000,"departure":1522670692000,"zoneId":"NA","stopIndex":32,"stopSequence":33,"vertexType":"TRANSIT"},"to":{"name":"Terminus Chicoutimi","stopId":"1:1289","stopCode":"1289","lon":-71.066163,"lat":48.428677,"arrival":1522671000000,"departure":1522671001000,"zoneId":"NA","stopIndex":35,"stopSequence":36,"vertexType":"TRANSIT"},"legGeometry":{"points":"wztfHjtwpLZTXNd@@lA[ZxDN|Ad@fAz@tB~AzDZ|@Zv@x@vBP\\h@~@PVrCmFhHqN~@eBr@cAt@_Av@}@RQPMz@k@tAe@REZG^Af@@X@VF`@Jn@XbClAr@Xt\\`PrAb@pA^hBTjAFj@Pb@JPHLLJNJRFXDT?X?ZEVEVKTMNMHMFOB}DWSGOSYcAN}FFkAF}DJyDd@wPV_HjAN~ALIzBQb@e@@","length":73},"routeShortName":"22","routeLongName":"Vanier","rentedBike":false,"transitLeg":true,"duration":308.0,"steps":[]},{"startTime":1522671001000,"endTime":1522671089000,"departureDelay":0,"arrivalDelay":0,"realTime":false,"distance":113.79299999999999,"pathway":false,"mode":"WALK","route":"","agencyTimeZoneOffset":-14400000,"interlineWithPreviousLeg":false,"from":{"name":"Terminus Chicoutimi","stopId":"1:1289","stopCode":"1289","lon":-71.066163,"lat":48.428677,"arrival":1522671000000,"departure":1522671001000,"zoneId":"NA","stopIndex":35,"stopSequence":36,"vertexType":"TRANSIT"},"to":{"name":"Destination","lon":-71.06538399,"lat":48.427606,"arrival":1522671089000,"orig":"","vertexType":"NORMAL"},"legGeometry":{"points":"{uqfHb~vpLbAJR@JDb@L`AD","length":6},"rentedBike":false,"transitLeg":false,"duration":88.0,"steps":[{"distance":113.79299999999999,"relativeDirection":"DEPART","streetName":"Rue Morin","absoluteDirection":"SOUTH","stayOn":false,"area":false,"bogusName":false,"lon":-71.0654590096484,"lat":48.428628638946556,"elevation":[]}]}],"tooSloped":false},{"duration":842,"startTime":1522670247000,"endTime":1522671089000,"walkTime":660,"transitTime":180,"waitingTime":2,"walkDistance":849.8543684195243,"walkLimitExceeded":false,"elevationLost":0.0,"elevationGained":0.0,"transfers":0,"legs":[{"startTime":1522670247000,"endTime":1522670819000,"departureDelay":0,"arrivalDelay":0,"realTime":false,"distance":736.0140000000001,"pathway":false,"mode":"WALK","route":"","agencyTimeZoneOffset":-14400000,"interlineWithPreviousLeg":false,"from":{"name":"Origin","lon":-71.065259,"lat":48.444211,"departure":1522670247000,"orig":"","vertexType":"NORMAL"},"to":{"name":"Des Champs / Ste-Geneviève","stopId":"1:704","stopCode":"704","lon":-71.0743,"lat":48.4416,"arrival":1522670819000,"departure":1522670820000,"zoneId":"NA","stopIndex":29,"stopSequence":30,"vertexType":"TRANSIT"},"legGeometry":{"points":"iytfHn_wpLDFHRFXHj@hAzMPnBNzBFt@D`@Jr@JXL\\N\\?@t@nB~A|D\\z@?@rAjDt@lBRR^b@","length":23},"rentedBike":false,"transitLeg":false,"duration":572.0,"steps":[{"distance":343.993,"relativeDirection":"DEPART","streetName":"Rue Delisle","absoluteDirection":"SOUTHWEST","stayOn":false,"area":false,"bogusName":false,"lon":-71.06567762744677,"lat":48.44453136421811,"elevation":[]},{"distance":392.0210000000001,"relativeDirection":"CONTINUE","streetName":"Rue des Champs","absoluteDirection":"WEST","stayOn":false,"area":false,"bogusName":false,"lon":-71.0701683,"lat":48.443755,"elevation":[]}]},{"startTime":1522670820000,"endTime":1522671000000,"departureDelay":0,"arrivalDelay":0,"realTime":false,"distance":1666.7846799150109,"pathway":false,"mode":"BUS","route":"20","agencyName":"Société de Transport du Saguenay","agencyUrl":"http://ville.saguenay.ca/fr/services-aux-citoyens/transport-sts","agencyTimeZoneOffset":-14400000,"routeColor":"0000FF","routeType":3,"routeId":"1:20","routeTextColor":"FFFFFF","interlineWithPreviousLeg":false,"tripBlockId":"3","headsign":"Terminus Chicoutimi","agencyId":"0","tripId":"1:217189","serviceDate":"20180402","from":{"name":"Des Champs / Ste-Geneviève","stopId":"1:704","stopCode":"704","lon":-71.0743,"lat":48.4416,"arrival":1522670819000,"departure":1522670820000,"zoneId":"NA","stopIndex":29,"stopSequence":30,"vertexType":"TRANSIT"},"to":{"name":"Terminus Chicoutimi","stopId":"1:1289","stopCode":"1289","lon":-71.066163,"lat":48.428677,"arrival":1522671000000,"departure":1522671001000,"zoneId":"NA","stopIndex":31,"stopSequence":32,"vertexType":"TRANSIT"},"legGeometry":{"points":"cgtfHtuxpL[g@rCmFhHqN~@eBr@cAt@_Av@}@RQPMz@k@tAe@REZG^Af@@X@VF`@Jn@XbClAr@Xt\\`PrAb@pA^hBTjAFj@Pb@JPHLLJNJRFXDT?X?ZEVEVKTMNMHMFOB}DWSGOSYcAN}FFkAF}DJyDPwGj@_QjAN~ALIpBGVITe@@","length":60},"routeShortName":"20","routeLongName":"Sainte-Claire","rentedBike":false,"transitLeg":true,"duration":180.0,"steps":[]},{"startTime":1522671001000,"endTime":1522671089000,"departureDelay":0,"arrivalDelay":0,"realTime":false,"distance":113.79299999999999,"pathway":false,"mode":"WALK","route":"","agencyTimeZoneOffset":-14400000,"interlineWithPreviousLeg":false,"from":{"name":"Terminus Chicoutimi","stopId":"1:1289","stopCode":"1289","lon":-71.066163,"lat":48.428677,"arrival":1522671000000,"departure":1522671001000,"zoneId":"NA","stopIndex":31,"stopSequence":32,"vertexType":"TRANSIT"},"to":{"name":"Destination","lon":-71.06538399,"lat":48.427606,"arrival":1522671089000,"orig":"","vertexType":"NORMAL"},"legGeometry":{"points":"{uqfHb~vpLbAJR@JDb@L`AD","length":6},"rentedBike":false,"transitLeg":false,"duration":88.0,"steps":[{"distance":113.79299999999999,"relativeDirection":"DEPART","streetName":"Rue Morin","absoluteDirection":"SOUTH","stayOn":false,"area":false,"bogusName":false,"lon":-71.0654590096484,"lat":48.428628638946556,"elevation":[]}]}],"tooSloped":false}]},"debugOutput":{"precalculationTime":36,"pathCalculationTime":21,"pathTimes":[14,3,4],"renderingTime":0,"totalTime":57,"timedOut":false},"elevationMetadata":{"ellipsoidToGeoidDifference":-28.885904201182168,"geoidElevation":false}}