{"requestParameters":{"date":"2018/04/02","walkSpeed":"1.33","walkReluctance":"2.0","fromPlace":"48.428444,-71.055762","maxWalkDistance":"3000","waitReluctance":"1.0","carSpeed":"33","numItineraries":"3","waitAtBeginningFactor":"0.4","mode":"TRANSIT,WALK","ignoreRealtimeUpdates":"false","stairsReluctance":"2.0","toPlace":"48.440283,-71.068324","time":"11:15:00"},"plan":{"date":1522682100000,"from":{"name":"Origin","lon":-71.055762,"lat":48.428444,"orig":"","vertexType":"NORMAL"},"to":{"name":"Destination","lon":-71.068324,"lat":48.440283,"orig":"","vertexType":"NORMAL"},"itineraries":[{"duration":1474,"startTime":1522683143000,"endTime":1522684617000,"walkTime":1195,"transitTime":277,"waitingTime":2,"walkDistance":1524.5322556309582,"walkLimitExceeded":false,"elevationLost":0.0,"elevationGained":0.0,"transfers":0,"legs":[{"startTime":1522683143000,"endTime":1522683899000,"departureDelay":0,"arrivalDelay":0,"realTime":false,"distance":966.126,"pathway":false,"mode":"WALK","route":"","agencyTimeZoneOffset":-14400000,"interlineWithPreviousLeg":false,"from":{"name":"Origin","lon":-71.055762,"lat":48.428444,"departure":1522683143000,"orig":"","vertexType":"NORMAL"},"to":{"name":"Terminus Chicoutimi","stopId":"1:1289","stopCode":"1289","lon":-71.066163,"lat":48.428677,"arrival":1522683899000,"departure":1522683900000,"zoneId":"NA","stopIndex":0,"stopSequence":1,"vertexType":"TRANSIT"},"legGeometry":{"points":"avqfHxbupLOe@Qe@FKROt@YDMNGPt@lBnIFj@LhA?lB?JCrBA~@C~@EtAKpFAl@?RCv@IxEAh@GpBAXAj@SzHc@MKESAcAK","length":32},"rentedBike":false,"transitLeg":false,"duration":756.0,"steps":[{"distance":90.20400000000001,"relativeDirection":"DEPART","streetName":"parking aisle","absoluteDirection":"NORTHEAST","stayOn":false,"area":false,"bogusName":false,"lon":-71.05596371444504,"lat":48.4286517492979,"elevation":[]},{"distance":9.896,"relativeDirection":"CONTINUE","streetName":"Rue Riverin","absoluteDirection":"SOUTH","stayOn":false,"area":false,"bogusName":false,"lon":-71.0552459,"lat":48.428389700000004,"elevation":[]},{"distance":788.819,"relativeDirection":"RIGHT","streetName":"Rue Racine Est","absoluteDirection":"SOUTHWEST","stayOn":false,"area":false,"bogusName":false,"lon":-71.0552071,"lat":48.4283045,"elevation":[]},{"distance":77.207,"relativeDirection":"RIGHT","streetName":"Rue Morin","absoluteDirection":"NORTH","stayOn":false,"area":false,"bogusName":false,"lon":-71.0656238,"lat":48.4279449,"elevation":[]}]},{"startTime":1522683900000,"endTime":1522684177000,"departureDelay":0,"arrivalDelay":0,"realTime":false,"distance":1866.894002566487,"pathway":false,"mode":"BUS","route":"22","agencyName":"Société de Transport du Saguenay","agencyUrl":"http://ville.saguenay.ca/fr/services-aux-citoyens/transport-sts","agencyTimeZoneOffset":-14400000,"routeColor":"C0C000","routeType":3,"routeId":"1:22","routeTextColor":"000000","interlineWithPreviousLeg":false,"tripBlockId":"1","headsign":"Terminus Chicoutimi","agencyId":"0","tripId":"1:217140","serviceDate":"20180402","from":{"name":"Terminus Chicoutimi","stopId":"1:1289","stopCode":"1289","lon":-71.066163,"lat":48.428677,"arrival":1522683899000,"departure":1522683900000,"zoneId":"NA","stopIndex":0,"stopSequence":1,"vertexType":"TRANSIT"},"to":{"name":"Delisle / Pépin","stopId":"1:100","stopCode":"100","lon":-71.069702,"lat":48.443741,"arrival":1522684177000,"departure":1522684178000,"zoneId":"NA","stopIndex":2,"stopSequence":3,"vertexType":"TRANSIT"},"legGeometry":{"points":"evqfHzcwpLg@?UhKxDVOhHMrH~CYhBBInAKXSNg@L{JHgBMoA[s@Usb@gS}@g@u@Su@Ia@Ck@Dm@HwAf@c@VeAx@iAlAU^[d@eLtTsAvBMJYF[EMIQ]y@wB[y@[{@_B{D{@uBe@gAO}AGw@","length":44},"routeShortName":"22","routeLongName":"Vanier","rentedBike":false,"transitLeg":true,"duration":277.0,"steps":[]},{"startTime":1522684178000,"endTime":1522684617000,"departureDelay":0,"arrivalDelay":0,"realTime":false,"distance":558.154,"pathway":false,"mode":"WALK","route":"","agencyTimeZoneOffset":-14400000,"interlineWithPreviousLeg":false,"from":{"name":"Delisle / Pépin","stopId":"1:100","stopCode":"100","lon":-71.069702,"lat":48.443741,"arrival":1522684177000,"departure":1522684178000,"zoneId":"NA","stopIndex":2,"stopSequence":3,"vertexType":"TRANSIT"},"to":{"name":"Destination","lon":-71.068324,"lat":48.440283,"arrival":1522684617000,"orig":"","vertexType":"NORMAL"},"legGeometry":{"points":"{ttfHxxwpLO{BQoBdCs@@Y@GBG@IFKDMHGF@lBp@hDnAxDp@\\C|@KFCXc@BI","length":20},"rentedBike":false,"transitLeg":false,"duration":439.0,"steps":[{"distance":89.437,"relativeDirection":"DEPART","streetName":"Rue Delisle","absoluteDirection":"EAST","stayOn":false,"area":false,"bogusName":false,"lon":-71.06972755596824,"lat":48.44382094111548,"elevation":[]},{"distance":77.517,"relativeDirection":"RIGHT","streetName":"path","absoluteDirection":"SOUTH","stayOn":false,"area":false,"bogusName":true,"lon":-71.0685442,"lat":48.4439961,"elevation":[]},{"distance":38.33,"relativeDirection":"LEFT","streetName":"Rue Riel","absoluteDirection":"EAST","stayOn":false,"area":false,"bogusName":false,"lon":-71.0682821,"lat":48.443321000000005,"elevation":[]},{"distance":352.87,"relativeDirection":"RIGHT","streetName":"Rue Saint-Nicolas","absoluteDirection":"SOUTH","stayOn":false,"area":false,"bogusName":false,"lon":-71.06785640000001,"lat":48.4431554,"elevation":[]}]}],"tooSloped":false},{"duration":1531,"startTime":1522683143000,"endTime":1522684674000,"walkTime":1289,"transitTime":240,"waitingTime":2,"walkDistance":1638.835270666745,"walkLimitExceeded":false,"elevationLost":0.0,"elevationGained":0.0,"transfers":0,"legs":[{"startTime":1522683143000,"endTime":1522683899000,"departureDelay":0,"arrivalDelay":0,"realTime":false,"distance":966.126,"pathway":false,"mode":"WALK","route":"","agencyTimeZoneOffset":-14400000,"interlineWithPreviousLeg":false,"from":{"name":"Origin","lon":-71.055762,"lat":48.428444,"departure":1522683143000,"orig":"","vertexType":"NORMAL"},"to":{"name":"Terminus Chicoutimi","stopId":"1:1289","stopCode":"1289","lon":-71.066163,"lat":48.428677,"arrival":1522683899000,"departure":1522683900000,"zoneId":"NA","stopIndex":0,"stopSequence":1,"vertexType":"TRANSIT"},"legGeometry":{"points":"avqfHxbupLOe@Qe@FKROt@YDMNGPt@lBnIFj@LhA?lB?JCrBA~@C~@EtAKpFAl@?RCv@IxEAh@GpBAXAj@SzHc@MKESAcAK","length":32},"rentedBike":false,"transitLeg":false,"duration":756.0,"steps":[{"distance":90.20400000000001,"relativeDirection":"DEPART","streetName":"parking aisle","absoluteDirection":"NORTHEAST","stayOn":false,"area":false,"bogusName":false,"lon":-71.05596371444504,"lat":48.4286517492979,"elevation":[]},{"distance":9.896,"relativeDirection":"CONTINUE","streetName":"Rue Riverin","absoluteDirection":"SOUTH","stayOn":false,"area":false,"bogusName":false,"lon":-71.0552459,"lat":48.428389700000004,"elevation":[]},{"distance":788.819,"relativeDirection":"RIGHT","streetName":"Rue Racine Est","absoluteDirection":"SOUTHWEST","stayOn":false,"area":false,"bogusName":false,"lon":-71.0552071,"lat":48.4283045,"elevation":[]},{"distance":77.207,"relativeDirection":"RIGHT","streetName":"Rue Morin","absoluteDirection":"NORTH","stayOn":false,"area":false,"bogusName":false,"lon":-71.0656238,"lat":48.4279449,"elevation":[]}]},{"startTime":1522683900000,"endTime":1522684140000,"departureDelay":0,"arrivalDelay":0,"realTime":false,"distance":948.5860437121592,"pathway":false,"mode":"BUS","route":"24","agencyName":"Société de Transport du Saguenay","agencyUrl":"http://ville.saguenay.ca/fr/services-aux-citoyens/transport-sts","agencyTimeZoneOffset":-14400000,"routeColor":"00FF00","routeType":3,"routeId":"1:24","routeTextColor":"000000","interlineWithPreviousLeg":false,"tripBlockId":"4","headsign":"Terminus Chicoutimi","agencyId":"0","tripId":"1:217233","serviceDate":"20180402","from":{"name":"Terminus Chicoutimi","stopId":"1:1289","stopCode":"1289","lon":-71.066163,"lat":48.428677,"arrival":1522683899000,"departure":1522683900000,"zoneId":"NA","stopIndex":0,"stopSequence":1,"vertexType":"TRANSIT"},"to":{"name":"Roussel / St-François","stopId":"1:1508","stopCode":"1508","lon":-71.065897,"lat":48.437206,"arrival":1522684140000,"departure":1522684141000,"zoneId":"NA","stopIndex":1,"stopSequence":2,"vertexType":"TRANSIT"},"legGeometry":{"points":"evqfHzcwpLg@?EhBO~GoBKCp@O\\WjGOfGCRK^KJMHQB_AMg@Gm\\wO]i@wAyA_@WUKMEwEm@Js@Da@??@@??@?@???@???@?@??A@???@A@??A@??A@A??@A?A??@A?A?A?A@A?A???A?A?A???A?A?A?A???A?AAA?A???AAA?A??AA?AA??AA??A??AA??A??AA?A???A????q@C{AAaB","length":92},"routeShortName":"24","routeLongName":"Saint-Luc","rentedBike":false,"transitLeg":true,"duration":240.0,"steps":[]},{"startTime":1522684141000,"endTime":1522684674000,"departureDelay":0,"arrivalDelay":0,"realTime":false,"distance":672.4010000000001,"pathway":false,"mode":"WALK","route":"","agencyTimeZoneOffset":-14400000,"interlineWithPreviousLeg":false,"from":{"name":"Roussel / St-François","stopId":"1:1508","stopCode":"1508","lon":-71.065897,"lat":48.437206,"arrival":1522684140000,"departure":1522684141000,"zoneId":"NA","stopIndex":1,"stopSequence":2,"vertexType":"TRANSIT"},"to":{"name":"Destination","lon":-71.068324,"lat":48.440283,"arrival":1522684674000,"orig":"","vertexType":"NORMAL"},"legGeometry":{"points":"_lsfH|`wpL@R?dACvCE?C@ABCBAD?DK?e@^u@x@wAbCw@tA[l@Yj@Sd@i@z@c@z@c@WmCLgAqF|@KFCXc@BI","length":27},"rentedBike":false,"transitLeg":false,"duration":533.0,"steps":[{"distance":89.496,"relativeDirection":"DEPART","streetName":"Rue Roussel","absoluteDirection":"WEST","stayOn":false,"area":false,"bogusName":false,"lon":-71.06590034885933,"lat":48.43728210110123,"elevation":[]},{"distance":14.306,"relativeDirection":"CIRCLE_COUNTERCLOCKWISE","streetName":"Rue Roussel","absoluteDirection":"NORTHWEST","exit":"1","stayOn":false,"area":false,"bogusName":false,"lon":-71.0671123,"lat":48.437299200000005,"elevation":[]},{"distance":6.516,"relativeDirection":"RIGHT","streetName":"R 172","absoluteDirection":"NORTH","stayOn":false,"area":false,"bogusName":true,"lon":-71.0672278,"lat":48.4373869,"elevation":[]},{"distance":236.639,"relativeDirection":"SLIGHTLY_LEFT","streetName":"R 172","absoluteDirection":"NORTHWEST","stayOn":true,"area":false,"bogusName":true,"lon":-71.0672291,"lat":48.4374455,"elevation":[]},{"distance":62.283,"relativeDirection":"CONTINUE","streetName":"Boulevard Sainte-Geneviève","absoluteDirection":"NORTHWEST","stayOn":false,"area":false,"bogusName":false,"lon":-71.0694016,"lat":48.4389935,"elevation":[]},{"distance":199.08,"relativeDirection":"RIGHT","streetName":"path","absoluteDirection":"NORTHEAST","stayOn":false,"area":false,"bogusName":true,"lon":-71.07000330000001,"lat":48.4393862,"elevation":[]},{"distance":64.081,"relativeDirection":"RIGHT","streetName":"Rue Saint-Nicolas","absoluteDirection":"SOUTH","stayOn":false,"area":false,"bogusName":false,"lon":-71.06874350000001,"lat":48.4406393,"elevation":[]}]}],"tooSloped":false},{"duration":1573,"startTime":1522683143000,"endTime":1522684716000,"walkTime":1331,"transitTime":240,"waitingTime":2,"walkDistance":1701.9496917203953,"walkLimitExceeded":false,"elevationLost":0.0,"elevationGained":0.0,"transfers":0,"legs":[{"startTime":1522683143000,"endTime":1522683899000,"departureDelay":0,"arrivalDelay":0,"realTime":false,"distance":966.126,"pathway":false,"mode":"WALK","route":"","agencyTimeZoneOffset":-14400000,"interlineWithPreviousLeg":false,"from":{"name":"Origin","lon":-71.055762,"lat":48.428444,"departure":1522683143000,"orig":"","vertexType":"NORMAL"},"to":{"name":"Terminus Chicoutimi","stopId":"1:1289","stopCode":"1289","lon":-71.066163,"lat":48.428677,"arrival":1522683899000,"departure":1522683900000,"zoneId":"NA","stopIndex":0,"stopSequence":1,"vertexType":"TRANSIT"},"legGeometry":{"points":"avqfHxbupLOe@Qe@FKROt@YDMNGPt@lBnIFj@LhA?lB?JCrBA~@C~@EtAKpFAl@?RCv@IxEAh@GpBAXAj@SzHc@MKESAcAK","length":32},"rentedBike":false,"transitLeg":false,"duration":756.0,"steps":[{"distance":90.20400000000001,"relativeDirection":"DEPART","streetName":"parking aisle","absoluteDirection":"NORTHEAST","stayOn":false,"area":false,"bogusName":false,"lon":-71.05596371444504,"lat":48.4286517492979,"elevation":[]},{"distance":9.896,"relativeDirection":"CONTINUE","streetName":"Rue Riverin","absoluteDirection":"SOUTH","stayOn":false,"area":false,"bogusName":false,"lon":-71.0552459,"lat":48.428389700000004,"elevation":[]},{"distance":788.819,"relativeDirection":"RIGHT","streetName":"Rue Racine Est","absoluteDirection":"SOUTHWEST","stayOn":false,"area":false,"bogusName":false,"lon":-71.0552071,"lat":48.4283045,"elevation":[]},{"distance":77.207,"relativeDirection":"RIGHT","streetName":"Rue Morin","absoluteDirection":"NORTH","stayOn":false,"area":false,"bogusName":false,"lon":-71.0656238,"lat":48.4279449,"elevation":[]}]},{"startTime":1522683900000,"endTime":1522684140000,"departureDelay":0,"arrivalDelay":0,"realTime":false,"distance":1551.778432484001,"pathway":false,"mode":"BUS","route":"20","agencyName":"Société de Transport du Saguenay","agencyUrl":"http://ville.saguenay.ca/fr/services-aux-citoyens/transport-sts","agencyTimeZoneOffset":-14400000,"routeColor":"0000FF","routeType":3,"routeId":"1:20","routeTextColor":"FFFFFF","interlineWithPreviousLeg":false,"tripBlockId":"3","headsign":"Terminus Chicoutimi","agencyId":"0","tripId":"1:217197","serviceDate":"20180402","from":{"name":"Terminus Chicoutimi","stopId":"1:1289","stopCode":"1289","lon":-71.066163,"lat":48.428677,"arrival":1522683899000,"departure":1522683900000,"zoneId":"NA","stopIndex":0,"stopSequence":1,"vertexType":"TRANSIT"},"to":{"name":"Des Champs / boul. Ste-Geneviève","stopId":"1:676","stopCode":"676","lon":-71.074674,"lat":48.441439,"arrival":1522684140000,"departure":1522684141000,"zoneId":"NA","stopIndex":1,"stopSequence":2,"vertexType":"TRANSIT"},"legGeometry":{"points":"evqfHzcwpLg@?UhKwAIWACp@O\\WjGOfGCRK^KJMHQB_AMg@Gw`@eR}@g@u@Su@Ia@Ck@Dm@HwAf@c@VeAx@iAlAU^[d@eLtTsAvBg@bAPVd@t@PNNF","length":36},"routeShortName":"20","routeLongName":"Sainte-Claire","rentedBike":false,"transitLeg":true,"duration":240.0,"steps":[]},{"startTime":1522684141000,"endTime":1522684716000,"departureDelay":0,"arrivalDelay":0,"realTime":false,"distance":735.5470000000001,"pathway":false,"mode":"WALK","route":"","agencyTimeZoneOffset":-14400000,"interlineWithPreviousLeg":false,"from":{"name":"Des Champs / boul. Ste-Geneviève","stopId":"1:676","stopCode":"676","lon":-71.074674,"lat":48.441439,"arrival":1522684140000,"departure":1522684141000,"zoneId":"NA","stopIndex":1,"stopSequence":2,"vertexType":"TRANSIT"},"to":{"name":"Destination","lon":-71.068324,"lat":48.440283,"arrival":1522684716000,"orig":"","vertexType":"NORMAL"},"legGeometry":{"points":"{etfHxvxpL[MMO_@c@SS`IiOzAwCvAoCc@WmCLgAqF|@KFCXc@BI","length":15},"rentedBike":false,"transitLeg":false,"duration":575.0,"steps":[{"distance":61.376000000000005,"relativeDirection":"DEPART","streetName":"Rue des Champs","absoluteDirection":"NORTH","stayOn":false,"area":false,"bogusName":false,"lon":-71.074529,"lat":48.441429,"elevation":[]},{"distance":411.01,"relativeDirection":"RIGHT","streetName":"Boulevard Sainte-Geneviève","absoluteDirection":"SOUTHEAST","stayOn":false,"area":false,"bogusName":false,"lon":-71.0740944,"lat":48.4418955,"elevation":[]},{"distance":199.08,"relativeDirection":"LEFT","streetName":"path","absoluteDirection":"NORTHEAST","stayOn":false,"area":false,"bogusName":true,"lon":-71.07000330000001,"lat":48.4393862,"elevation":[]},{"distance":64.081,"relativeDirection":"RIGHT","streetName":"Rue Saint-Nicolas","absoluteDirection":"SOUTH","stayOn":false,"area":false,"bogusName":false,"lon":-71.06874350000001,"lat":48.4406393,"elevation":[]}]}],"tooSloped":false}]},"debugOutput":{"precalculationTime":33,"pathCalculationTime":46,"pathTimes":[22,12,12],"renderingTime":0,"totalTime":79,"timedOut":false},"elevationMetadata":{"ellipsoidToGeoidDifference":-28.885904201182168,"geoidElevation":false}}