{"requestParameters":{"date":"2018/04/02","walkSpeed":"1.33","walkReluctance":"2.0","fromPlace":"48.415173,-71.045209","maxWalkDistance":"3000","waitReluctance":"1.0","carSpeed":"33","numItineraries":"3","waitAtBeginningFactor":"0.4","mode":"TRANSIT,WALK","ignoreRealtimeUpdates":"false","stairsReluctance":"2.0","toPlace":"48.441461,-71.068338","time":"11:30:00"},"plan":{"date":1522683000000,"from":{"name":"Origin","lon":-71.045209,"lat":48.415173,"orig":"","vertexType":"NORMAL"},"to":{"name":"Destination","lon":-71.068338,"lat":48.441461,"orig":"","vertexType":"NORMAL"},"itineraries":[{"duration":2750,"startTime":1522683169000,"endTime":1522685919000,"walkTime":1968,"transitTime":780,"waitingTime":2,"walkDistance":2508.298857128567,"walkLimitExceeded":false,"elevationLost":0.0,"elevationGained":0.0,"transfers":0,"legs":[{"startTime":1522683169000,"endTime":1522683719000,"departureDelay":0,"arrivalDelay":0,"realTime":false,"distance":701.951,"pathway":false,"mode":"WALK","route":"","agencyTimeZoneOffset":-14400000,"interlineWithPreviousLeg":false,"from":{"name":"Origin","lon":-71.045209,"lat":48.415173,"departure":1522683169000,"orig":"","vertexType":"NORMAL"},"to":{"name":"missingStopName","stopId":"1:1812","stopCode":"1812","lon":-71.051352,"lat":48.411592,"arrival":1522683719000,"departure":1522683720000,"zoneId":"NA","stopIndex":11,"stopSequence":12,"vertexType":"TRANSIT"},"legGeometry":{"points":"gaofHb`spLSl@t@hABDn@~@b@lA`ArAl@l@@Bh@j@Up@Sl@Sn@MZENKXId@nArArI~ITXLJx@|@","length":22},"rentedBike":false,"transitLeg":false,"duration":550.0,"steps":[{"distance":20.064,"relativeDirection":"DEPART","streetName":"Rue Chabanel","absoluteDirection":"NORTHWEST","stayOn":false,"area":false,"bogusName":false,"lon":-71.04529764238166,"lat":48.41508556352376,"elevation":[]},{"distance":223.75199999999998,"relativeDirection":"LEFT","streetName":"Rue Murdock","absoluteDirection":"SOUTHWEST","stayOn":false,"area":false,"bogusName":false,"lon":-71.0455232,"lat":48.4151863,"elevation":[]},{"distance":110.246,"relativeDirection":"RIGHT","streetName":"service road","absoluteDirection":"NORTHWEST","stayOn":false,"area":false,"bogusName":true,"lon":-71.0475249,"lat":48.413693200000004,"elevation":[]},{"distance":347.88899999999995,"relativeDirection":"LEFT","streetName":"Boulevard Talbot","absoluteDirection":"SOUTHWEST","stayOn":false,"area":false,"bogusName":false,"lon":-71.04878880000001,"lat":48.414218500000004,"elevation":[]}]},{"startTime":1522683720000,"endTime":1522684500000,"departureDelay":0,"arrivalDelay":0,"realTime":false,"distance":3400.2803451917603,"pathway":false,"mode":"BUS","route":"175","agencyName":"Société de Transport du Saguenay","agencyUrl":"http://ville.saguenay.ca/fr/services-aux-citoyens/transport-sts","agencyTimeZoneOffset":-14400000,"routeColor":"FF00FF","routeType":3,"routeId":"1:175","routeTextColor":"FFFFFF","interlineWithPreviousLeg":false,"tripBlockId":"78","headsign":"Terminus Chicoutimi","agencyId":"0","tripId":"1:218642","serviceDate":"20180402","from":{"name":"missingStopName","stopId":"1:1812","stopCode":"1812","lon":-71.051352,"lat":48.411592,"arrival":1522683719000,"departure":1522683720000,"zoneId":"NA","stopIndex":11,"stopSequence":12,"vertexType":"TRANSIT"},"to":{"name":"Terminus Chicoutimi","stopId":"1:1289","stopCode":"1289","lon":-71.066163,"lat":48.428677,"arrival":1522684500000,"departure":1522684501000,"zoneId":"NA","stopIndex":27,"stopSequence":28,"vertexType":"TRANSIT"},"legGeometry":{"points":"wknfHxftpLcBcB{E`Jc@x@qG~@{BlAk@XgSrQqB_GAeFiEeEOt@gAeA_A_ATm@yAwAgBeBqDnL@nBF`@f@|C[dCuAfB]xAs@OmCmCmEkE]a@g@i@ZiGTmEl@oLaEe@cFk@?pH?tJDvBPjMB~Bo@PQDRbFKdGMhIOvIK|EQpHoCQEdC","length":49},"routeShortName":"175","routeLongName":"Term. Chic / Costco","rentedBike":false,"transitLeg":true,"duration":780.0,"steps":[]},{"startTime":1522684501000,"endTime":1522685919000,"departureDelay":0,"arrivalDelay":0,"realTime":false,"distance":1805.905,"pathway":false,"mode":"WALK","route":"","agencyTimeZoneOffset":-14400000,"interlineWithPreviousLeg":false,"from":{"name":"Terminus Chicoutimi","stopId":"1:1289","stopCode":"1289","lon":-71.066163,"lat":48.428677,"arrival":1522684500000,"departure":1522684501000,"zoneId":"NA","stopIndex":27,"stopSequence":28,"vertexType":"TRANSIT"},"to":{"name":"Destination","lon":-71.068338,"lat":48.441461,"arrival":1522685919000,"orig":"","vertexType":"NORMAL"},"legGeometry":{"points":"{uqfHb~vpL_BMOAa@CILKJ[TaAn@@FDX?\\CTEb@GHCb@C|@ALEDCBCr@DBBBElBEp@e]uBQuBMBQFoAPIGWVe@f@ECc@?_AQ[EwBK?DCDADC@E@CACACCAC?AAG?EK?e@^u@x@wAbCw@tA[l@Yj@Sd@i@z@c@z@c@WmCLgAqF]BkCe@","length":64},"rentedBike":false,"transitLeg":false,"duration":1418.0,"steps":[{"distance":81.079,"relativeDirection":"DEPART","streetName":"Rue Morin","absoluteDirection":"NORTH","stayOn":false,"area":false,"bogusName":false,"lon":-71.0654590096484,"lat":48.428628638946556,"elevation":[]},{"distance":259.336,"relativeDirection":"LEFT","streetName":"path","absoluteDirection":"NORTHWEST","stayOn":false,"area":false,"bogusName":true,"lon":-71.0653539,"lat":48.4293544,"elevation":[]},{"distance":538.684,"relativeDirection":"RIGHT","streetName":"Pont de Sainte-Anne","absoluteDirection":"NORTH","stayOn":false,"area":false,"bogusName":false,"lon":-71.0682024,"lat":48.4301132,"elevation":[]},{"distance":114.291,"relativeDirection":"RIGHT","streetName":"bike path","absoluteDirection":"EAST","stayOn":false,"area":false,"bogusName":true,"lon":-71.0676151,"lat":48.434942,"elevation":[]},{"distance":41.536,"relativeDirection":"SLIGHTLY_LEFT","streetName":"link","absoluteDirection":"NORTHWEST","stayOn":false,"area":false,"bogusName":true,"lon":-71.06713590000001,"lat":48.435644700000005,"elevation":[]},{"distance":142.163,"relativeDirection":"RIGHT","streetName":"Rue du Pont","absoluteDirection":"NORTH","stayOn":false,"area":false,"bogusName":false,"lon":-71.06745260000001,"lat":48.4359534,"elevation":[]},{"distance":28.474,"relativeDirection":"CIRCLE_CLOCKWISE","streetName":"Rue Roussel","absoluteDirection":"NORTHWEST","exit":"2","stayOn":false,"area":false,"bogusName":false,"lon":-71.06725250000001,"lat":48.4372217,"elevation":[]},{"distance":6.516,"relativeDirection":"LEFT","streetName":"R 172","absoluteDirection":"NORTH","stayOn":false,"area":false,"bogusName":true,"lon":-71.0672278,"lat":48.4373869,"elevation":[]},{"distance":236.639,"relativeDirection":"SLIGHTLY_LEFT","streetName":"R 172","absoluteDirection":"NORTHWEST","stayOn":true,"area":false,"bogusName":true,"lon":-71.0672291,"lat":48.4374455,"elevation":[]},{"distance":62.283,"relativeDirection":"CONTINUE","streetName":"Boulevard Sainte-Geneviève","absoluteDirection":"NORTHWEST","stayOn":false,"area":false,"bogusName":false,"lon":-71.0694016,"lat":48.4389935,"elevation":[]},{"distance":199.08,"relativeDirection":"RIGHT","streetName":"path","absoluteDirection":"NORTHEAST","stayOn":false,"area":false,"bogusName":true,"lon":-71.07000330000001,"lat":48.4393862,"elevation":[]},{"distance":95.824,"relativeDirection":"LEFT","streetName":"Rue Saint-Nicolas","absoluteDirection":"NORTH","stayOn":false,"area":false,"bogusName":false,"lon":-71.06874350000001,"lat":48.4406393,"elevation":[]}]}],"tooSloped":false},{"duration":1884,"startTime":1522684346000,"endTime":1522686230000,"walkTime":1222,"transitTime":660,"waitingTime":2,"walkDistance":1590.1233233057112,"walkLimitExceeded":false,"elevationLost":0.0,"elevationGained":0.0,"transfers":0,"legs":[{"startTime":1522684346000,"endTime":1522684979000,"departureDelay":0,"arrivalDelay":0,"realTime":false,"distance":817.737,"pathway":false,"mode":"WALK","route":"","agencyTimeZoneOffset":-14400000,"interlineWithPreviousLeg":false,"from":{"name":"Origin","lon":-71.045209,"lat":48.415173,"departure":1522684346000,"orig":"","vertexType":"NORMAL"},"to":{"name":"Université du Québec à Chicoutimi","stopId":"1:63","stopCode":"63","lon":-71.051623,"lat":48.419503,"arrival":1522684979000,"departure":1522684980000,"zoneId":"NA","stopIndex":0,"stopSequence":1,"vertexType":"TRANSIT"},"legGeometry":{"points":"gaofHb`spLSl@}AzE_@`AIVOb@O`@wAtDmArDqChI{@hCWt@qAlDKXi@k@yAyAaAcAQQ","length":18},"rentedBike":false,"transitLeg":false,"duration":633.0,"steps":[{"distance":672.879,"relativeDirection":"DEPART","streetName":"Rue Chabanel","absoluteDirection":"NORTHWEST","stayOn":false,"area":false,"bogusName":false,"lon":-71.04529764238166,"lat":48.41508556352376,"elevation":[]},{"distance":144.858,"relativeDirection":"RIGHT","streetName":"Rue de la Fondation","absoluteDirection":"NORTHEAST","stayOn":false,"area":false,"bogusName":false,"lon":-71.05284470000001,"lat":48.4184787,"elevation":[]}]},{"startTime":1522684980000,"endTime":1522685640000,"departureDelay":0,"arrivalDelay":0,"realTime":false,"distance":3462.693121254353,"pathway":false,"mode":"BUS","route":"65","agencyName":"Société de Transport du Saguenay","agencyUrl":"http://ville.saguenay.ca/fr/services-aux-citoyens/transport-sts","agencyTimeZoneOffset":-14400000,"routeColor":"00FFFF","routeType":3,"routeId":"1:65","routeTextColor":"000000","interlineWithPreviousLeg":false,"tripBlockId":"75","headsign":"Épicerie culinaire","agencyId":"0","tripId":"1:218626","serviceDate":"20180402","from":{"name":"Université du Québec à Chicoutimi","stopId":"1:63","stopCode":"63","lon":-71.051623,"lat":48.419503,"arrival":1522684979000,"departure":1522684980000,"zoneId":"NA","stopIndex":0,"stopSequence":1,"vertexType":"TRANSIT"},"to":{"name":"boul. Ste-Geneviève / Champs","stopId":"1:705","stopCode":"705","lon":-71.074706,"lat":48.442337,"arrival":1522685640000,"departure":1522685641000,"zoneId":"NA","stopIndex":9,"stopSequence":10,"vertexType":"TRANSIT"},"legGeometry":{"points":"e}ofHjhtpLmCkCI@GHuCrIyA{AaBeBg@vAsClJAh@Bf@Hp@Hp@HdA@fA?h@O|@Ul@u@bAm@~AuDqDmEkE]a@kAqAU|@WnKG|DGxDOdPKvJU|F?XGbDgCO}BYkCSCn@m@EEnAWxLoBKCp@O\\WjGOfGCRK^KJMHQB_AMg@Gw`@eR}@g@u@Su@Ia@Ck@Dm@HwAf@c@VeAx@iAlAU^[d@eLtTsAvB_CvE","length":68},"routeShortName":"65","routeLongName":"Term. Chic / Shipshaw","rentedBike":false,"transitLeg":true,"duration":660.0,"steps":[]},{"startTime":1522685641000,"endTime":1522686230000,"departureDelay":0,"arrivalDelay":0,"realTime":false,"distance":772.307,"pathway":false,"mode":"WALK","route":"","agencyTimeZoneOffset":-14400000,"interlineWithPreviousLeg":false,"from":{"name":"boul. Ste-Geneviève / Champs","stopId":"1:705","stopCode":"705","lon":-71.074706,"lat":48.442337,"arrival":1522685640000,"departure":1522685641000,"zoneId":"NA","stopIndex":9,"stopSequence":10,"vertexType":"TRANSIT"},"to":{"name":"Destination","lon":-71.068338,"lat":48.441461,"arrival":1522686230000,"orig":"","vertexType":"NORMAL"},"legGeometry":{"points":"iktfHhxxpLnAeC`IiOzAwCvAoCc@WmCLgAqF]BkCe@","length":10},"rentedBike":false,"transitLeg":false,"duration":589.0,"steps":[{"distance":477.403,"relativeDirection":"DEPART","streetName":"Boulevard Sainte-Geneviève","absoluteDirection":"SOUTHEAST","stayOn":false,"area":false,"bogusName":false,"lon":-71.07476154891728,"lat":48.442296311215706,"elevation":[]},{"distance":199.08,"relativeDirection":"LEFT","streetName":"path","absoluteDirection":"NORTHEAST","stayOn":false,"area":false,"bogusName":true,"lon":-71.07000330000001,"lat":48.4393862,"elevation":[]},{"distance":95.824,"relativeDirection":"LEFT","streetName":"Rue Saint-Nicolas","absoluteDirection":"NORTH","stayOn":false,"area":false,"bogusName":false,"lon":-71.06874350000001,"lat":48.4406393,"elevation":[]}]}],"tooSloped":false},{"duration":1826,"startTime":1522684466000,"endTime":1522686292000,"walkTime":364,"transitTime":1160,"waitingTime":302,"walkDistance":459.3065263122231,"walkLimitExceeded":false,"elevationLost":0.0,"elevationGained":0.0,"transfers":1,"legs":[{"startTime":1522684466000,"endTime":1522684516000,"departureDelay":0,"arrivalDelay":0,"realTime":false,"distance":60.952,"pathway":false,"mode":"WALK","route":"","agencyTimeZoneOffset":-14400000,"interlineWithPreviousLeg":false,"from":{"name":"Origin","lon":-71.045209,"lat":48.415173,"departure":1522684466000,"orig":"","vertexType":"NORMAL"},"to":{"name":"Murdock / Chabanel","stopId":"1:355","stopCode":"355","lon":-71.045842,"lat":48.414882,"arrival":1522684516000,"departure":1522684517000,"zoneId":"NA","stopIndex":2,"stopSequence":3,"vertexType":"TRANSIT"},"legGeometry":{"points":"gaofHb`spLSl@t@hA","length":3},"rentedBike":false,"transitLeg":false,"duration":50.0,"steps":[{"distance":20.064,"relativeDirection":"DEPART","streetName":"Rue Chabanel","absoluteDirection":"NORTHWEST","stayOn":false,"area":false,"bogusName":false,"lon":-71.04529764238166,"lat":48.41508556352376,"elevation":[]},{"distance":40.888,"relativeDirection":"LEFT","streetName":"Rue Murdock","absoluteDirection":"SOUTHWEST","stayOn":false,"area":false,"bogusName":false,"lon":-71.0455232,"lat":48.4151863,"elevation":[]}]},{"startTime":1522684517000,"endTime":1522685400000,"departureDelay":0,"arrivalDelay":0,"realTime":false,"distance":4257.201022063818,"pathway":false,"mode":"BUS","route":"10","agencyName":"Société de Transport du Saguenay","agencyUrl":"http://ville.saguenay.ca/fr/services-aux-citoyens/transport-sts","agencyTimeZoneOffset":-14400000,"routeColor":"0000FF","routeType":3,"routeId":"1:10","routeTextColor":"FFFFFF","interlineWithPreviousLeg":false,"tripBlockId":"28","headsign":"Terminus Chicoutimi","agencyId":"0","tripId":"1:218036","serviceDate":"20180402","from":{"name":"Murdock / Chabanel","stopId":"1:355","stopCode":"355","lon":-71.045842,"lat":48.414882,"arrival":1522684516000,"departure":1522684517000,"zoneId":"NA","stopIndex":2,"stopSequence":3,"vertexType":"TRANSIT"},"to":{"name":"Terminus Chicoutimi","stopId":"1:1289","stopCode":"1289","lon":-71.066163,"lat":48.428677,"arrival":1522685400000,"departure":1522685700000,"zoneId":"NA","stopIndex":21,"stopSequence":22,"vertexType":"TRANSIT"},"legGeometry":{"points":"g`ofH|cspLu@oAXu@hAoDP_BP{AQmCg@mB_BiBeBaBqFeFmCgC{A_BmBoBk@iAw@}CU[o@y@k@Io@MqC@}@k@_@[aAw@_BoCMOKcAQUu@s@AAu@[k@xGg@pFc@~EO`@KHCVDP?hAa@nEKdAi@pGAr@GXMRG^Bb@`CV~IxB~ElAhChAsBtFaEvK_BhE}AfD{BdByBh@iC]oDq@YbF_Ea@AAuEg@MDENF|GAjJDzBDdDLdHFbCo@RUFRbFG|FApAMvFa@tPOnHqBOIjDc@Q","length":82},"routeShortName":"10","routeLongName":"Notre-Dame du Saguenay","rentedBike":false,"transitLeg":true,"duration":883.0,"steps":[]},{"startTime":1522685700000,"endTime":1522685977000,"departureDelay":0,"arrivalDelay":0,"realTime":false,"distance":1866.894002566487,"pathway":false,"mode":"BUS","route":"22","agencyName":"Société de Transport du Saguenay","agencyUrl":"http://ville.saguenay.ca/fr/services-aux-citoyens/transport-sts","agencyTimeZoneOffset":-14400000,"routeColor":"C0C000","routeType":3,"routeId":"1:22","routeTextColor":"000000","interlineWithPreviousLeg":false,"tripBlockId":"3","headsign":"Terminus Chicoutimi","agencyId":"0","tripId":"1:217198","serviceDate":"20180402","from":{"name":"Terminus Chicoutimi","stopId":"1:1289","stopCode":"1289","lon":-71.066163,"lat":48.428677,"arrival":1522685400000,"departure":1522685700000,"zoneId":"NA","stopIndex":0,"stopSequence":1,"vertexType":"TRANSIT"},"to":{"name":"Delisle / Pépin","stopId":"1:100","stopCode":"100","lon":-71.069702,"lat":48.443741,"arrival":1522685977000,"departure":1522685978000,"zoneId":"NA","stopIndex":2,"stopSequence":3,"vertexType":"TRANSIT"},"legGeometry":{"points":"evqfHzcwpLg@?UhKxDVOhHMrH~CYhBBInAKXSNg@L{JHgBMoA[s@Usb@gS}@g@u@Su@Ia@Ck@Dm@HwAf@c@VeAx@iAlAU^[d@eLtTsAvBMJYF[EMIQ]y@wB[y@[{@_B{D{@uBe@gAO}AGw@","length":44},"routeShortName":"22","routeLongName":"Vanier","rentedBike":false,"transitLeg":true,"duration":277.0,"steps":[]},{"startTime":1522685978000,"endTime":1522686292000,"departureDelay":0,"arrivalDelay":0,"realTime":false,"distance":398.244,"pathway":false,"mode":"WALK","route":"","agencyTimeZoneOffset":-14400000,"interlineWithPreviousLeg":false,"from":{"name":"Delisle / Pépin","stopId":"1:100","stopCode":"100","lon":-71.069702,"lat":48.443741,"arrival":1522685977000,"departure":1522685978000,"zoneId":"NA","stopIndex":2,"stopSequence":3,"vertexType":"TRANSIT"},"to":{"name":"Destination","lon":-71.068338,"lat":48.441461,"arrival":1522686292000,"orig":"","vertexType":"NORMAL"},"legGeometry":{"points":"{ttfHxxwpLO{BQoBdCs@@Y@GBG@IFKDMHGF@lBp@hDnAl@J","length":15},"rentedBike":false,"transitLeg":false,"duration":314.0,"steps":[{"distance":89.437,"relativeDirection":"DEPART","streetName":"Rue Delisle","absoluteDirection":"EAST","stayOn":false,"area":false,"bogusName":false,"lon":-71.06972755596824,"lat":48.44382094111548,"elevation":[]},{"distance":77.517,"relativeDirection":"RIGHT","streetName":"path","absoluteDirection":"SOUTH","stayOn":false,"area":false,"bogusName":true,"lon":-71.0685442,"lat":48.4439961,"elevation":[]},{"distance":38.33,"relativeDirection":"LEFT","streetName":"Rue Riel","absoluteDirection":"EAST","stayOn":false,"area":false,"bogusName":false,"lon":-71.0682821,"lat":48.443321000000005,"elevation":[]},{"distance":192.96,"relativeDirection":"RIGHT","streetName":"Rue Saint-Nicolas","absoluteDirection":"SOUTH","stayOn":false,"area":false,"bogusName":false,"lon":-71.06785640000001,"lat":48.4431554,"elevation":[]}]}],"tooSloped":false}]},"debugOutput":{"precalculationTime":39,"pathCalculationTime":63,"pathTimes":[28,15,20],"renderingTime":1,"totalTime":103,"timedOut":false},"elevationMetadata":{"ellipsoidToGeoidDifference":-28.885904201182168,"geoidElevation":false}}