{"requestParameters":{"date":"2018/04/02","walkSpeed":"1.33","walkReluctance":"2.0","fromPlace":"48.44192,-71.071884","maxWalkDistance":"3000","waitReluctance":"1.0","carSpeed":"33","numItineraries":"3","waitAtBeginningFactor":"0.4","mode":"TRANSIT,WALK","ignoreRealtimeUpdates":"false","stairsReluctance":"2.0","toPlace":"48.443409,-71.078607","time":"10:0:00"},"plan":{"date":1522677600000,"from":{"name":"Origin","lon":-71.071884,"lat":48.44192,"orig":"","vertexType":"NORMAL"},"to":{"name":"Destination","lon":-71.078607,"lat":48.443409,"orig":"","vertexType":"NORMAL"},"itineraries":[{"duration":505,"startTime":1522677600000,"endTime":1522678105000,"walkTime":505,"transitTime":0,"waitingTime":0,"walkDistance":647.9149999967733,"walkLimitExceeded":false,"elevationLost":0.0,"elevationGained":0.0,"transfers":0,"legs":[{"startTime":1522677600000,"endTime":1522678105000,"departureDelay":0,"arrivalDelay":0,"realTime":false,"distance":647.815,"pathway":false,"mode":"WALK","route":"","agencyTimeZoneOffset":-14400000,"interlineWithPreviousLeg":false,"from":{"name":"Origin","lon":-71.071884,"lat":48.44192,"departure":1522677600000,"orig":"","vertexType":"NORMAL"},"to":{"name":"Destination","lon":-71.078607,"lat":48.443409,"arrival":1522678105000,"orig":"","vertexType":"NORMAL"},"legGeometry":{"points":"yitfHhgxpL[s@kBtB\\z@?@rAjDt@lBRRsAhC_DbG}@vBiAhDg@nB","length":13},"rentedBike":false,"transitLeg":false,"duration":505.0,"steps":[{"distance":24.199,"relativeDirection":"DEPART","streetName":"Rue Riel","absoluteDirection":"NORTHEAST","stayOn":false,"area":false,"bogusName":false,"lon":-71.07204579397998,"lat":48.442059475800434,"elevation":[]},{"distance":74.599,"relativeDirection":"LEFT","streetName":"Rue Victor","absoluteDirection":"NORTHWEST","stayOn":false,"area":false,"bogusName":false,"lon":-71.0717858,"lat":48.4421922,"elevation":[]},{"distance":170.846,"relativeDirection":"LEFT","streetName":"Rue des Champs","absoluteDirection":"SOUTHWEST","stayOn":false,"area":false,"bogusName":false,"lon":-71.0723787,"lat":48.4427357,"elevation":[]},{"distance":378.17100000000005,"relativeDirection":"RIGHT","streetName":"Boulevard Sainte-Geneviève","absoluteDirection":"NORTHWEST","stayOn":false,"area":false,"bogusName":false,"lon":-71.07419630000001,"lat":48.441794200000004,"elevation":[]}]}],"tooSloped":false},{"duration":469,"startTime":1522678503000,"endTime":1522678972000,"walkTime":409,"transitTime":58,"waitingTime":2,"walkDistance":511.6400150325599,"walkLimitExceeded":false,"elevationLost":0.0,"elevationGained":0.0,"transfers":0,"legs":[{"startTime":1522678503000,"endTime":1522678760000,"departureDelay":0,"arrivalDelay":0,"realTime":false,"distance":322.496,"pathway":false,"mode":"WALK","route":"","agencyTimeZoneOffset":-14400000,"interlineWithPreviousLeg":false,"from":{"name":"Origin","lon":-71.071884,"lat":48.44192,"departure":1522678503000,"orig":"","vertexType":"NORMAL"},"to":{"name":"boul. Ste-Geneviève / Champs","stopId":"1:705","stopCode":"705","lon":-71.074706,"lat":48.442337,"arrival":1522678760000,"departure":1522678761000,"zoneId":"NA","stopIndex":1,"stopSequence":2,"vertexType":"TRANSIT"},"legGeometry":{"points":"yitfHhgxpL[s@kBtB\\z@?@rAjDt@lBoAdC","length":8},"rentedBike":false,"transitLeg":false,"duration":257.0,"steps":[{"distance":24.199,"relativeDirection":"DEPART","streetName":"Rue Riel","absoluteDirection":"NORTHEAST","stayOn":false,"area":false,"bogusName":false,"lon":-71.07204579397998,"lat":48.442059475800434,"elevation":[]},{"distance":74.599,"relativeDirection":"LEFT","streetName":"Rue Victor","absoluteDirection":"NORTHWEST","stayOn":false,"area":false,"bogusName":false,"lon":-71.0717858,"lat":48.4421922,"elevation":[]},{"distance":157.305,"relativeDirection":"LEFT","streetName":"Rue des Champs","absoluteDirection":"SOUTHWEST","stayOn":false,"area":false,"bogusName":false,"lon":-71.0723787,"lat":48.4427357,"elevation":[]},{"distance":66.393,"relativeDirection":"RIGHT","streetName":"Boulevard Sainte-Geneviève","absoluteDirection":"NORTHWEST","stayOn":false,"area":false,"bogusName":false,"lon":-71.0740944,"lat":48.4418955,"elevation":[]}]},{"startTime":1522678761000,"endTime":1522678819000,"departureDelay":0,"arrivalDelay":0,"realTime":false,"distance":485.8328219499299,"pathway":false,"mode":"BUS","route":"23","agencyName":"Société de Transport du Saguenay","agencyUrl":"http://ville.saguenay.ca/fr/services-aux-citoyens/transport-sts","agencyTimeZoneOffset":-14400000,"routeColor":"FF00FF","routeType":3,"routeId":"1:23","routeTextColor":"FFFFFF","interlineWithPreviousLeg":false,"tripBlockId":"4","headsign":"Terminus Chicoutimi","agencyId":"0","tripId":"1:217230","serviceDate":"20180402","from":{"name":"boul. Ste-Geneviève / Champs","stopId":"1:705","stopCode":"705","lon":-71.074706,"lat":48.442337,"arrival":1522678760000,"departure":1522678761000,"zoneId":"NA","stopIndex":1,"stopSequence":2,"vertexType":"TRANSIT"},"to":{"name":"Place de la Colline (boul. Ste-Geneviève)","stopId":"1:706","stopCode":"706","lon":-71.080094,"lat":48.44485,"arrival":1522678819000,"departure":1522678820000,"zoneId":"NA","stopIndex":2,"stopSequence":3,"vertexType":"TRANSIT"},"legGeometry":{"points":"iktfHhxxpLuAnCmBlE}@|B_BvFoC`J","length":6},"routeShortName":"23","routeLongName":"Côte Verdun via Aréna du Plateau","rentedBike":false,"transitLeg":true,"duration":58.0,"steps":[]},{"startTime":1522678820000,"endTime":1522678972000,"departureDelay":0,"arrivalDelay":0,"realTime":false,"distance":188.988,"pathway":false,"mode":"WALK","route":"","agencyTimeZoneOffset":-14400000,"interlineWithPreviousLeg":false,"from":{"name":"Place de la Colline (boul. Ste-Geneviève)","stopId":"1:706","stopCode":"706","lon":-71.080094,"lat":48.44485,"arrival":1522678819000,"departure":1522678820000,"zoneId":"NA","stopIndex":2,"stopSequence":3,"vertexType":"TRANSIT"},"to":{"name":"Destination","lon":-71.078607,"lat":48.443409,"arrival":1522678972000,"orig":"","vertexType":"NORMAL"},"legGeometry":{"points":"a{tfHxyypLdBkFPR~@iD","length":4},"rentedBike":false,"transitLeg":false,"duration":152.0,"steps":[{"distance":188.988,"relativeDirection":"DEPART","streetName":"Boulevard Sainte-Geneviève","absoluteDirection":"SOUTHEAST","stayOn":false,"area":false,"bogusName":false,"lon":-71.08012797466124,"lat":48.44481509343017,"elevation":[]}]}],"tooSloped":false},{"duration":449,"startTime":1522678542000,"endTime":1522678991000,"walkTime":409,"transitTime":38,"waitingTime":2,"walkDistance":511.6400150325599,"walkLimitExceeded":false,"elevationLost":0.0,"elevationGained":0.0,"transfers":0,"legs":[{"startTime":1522678542000,"endTime":1522678799000,"departureDelay":0,"arrivalDelay":0,"realTime":false,"distance":322.496,"pathway":false,"mode":"WALK","route":"","agencyTimeZoneOffset":-14400000,"interlineWithPreviousLeg":false,"from":{"name":"Origin","lon":-71.071884,"lat":48.44192,"departure":1522678542000,"orig":"","vertexType":"NORMAL"},"to":{"name":"boul. Ste-Geneviève / Champs","stopId":"1:705","stopCode":"705","lon":-71.074706,"lat":48.442337,"arrival":1522678799000,"departure":1522678800000,"zoneId":"NA","stopIndex":1,"stopSequence":2,"vertexType":"TRANSIT"},"legGeometry":{"points":"yitfHhgxpL[s@kBtB\\z@?@rAjDt@lBoAdC","length":8},"rentedBike":false,"transitLeg":false,"duration":257.0,"steps":[{"distance":24.199,"relativeDirection":"DEPART","streetName":"Rue Riel","absoluteDirection":"NORTHEAST","stayOn":false,"area":false,"bogusName":false,"lon":-71.07204579397998,"lat":48.442059475800434,"elevation":[]},{"distance":74.599,"relativeDirection":"LEFT","streetName":"Rue Victor","absoluteDirection":"NORTHWEST","stayOn":false,"area":false,"bogusName":false,"lon":-71.0717858,"lat":48.4421922,"elevation":[]},{"distance":157.305,"relativeDirection":"LEFT","streetName":"Rue des Champs","absoluteDirection":"SOUTHWEST","stayOn":false,"area":false,"bogusName":false,"lon":-71.0723787,"lat":48.4427357,"elevation":[]},{"distance":66.393,"relativeDirection":"RIGHT","streetName":"Boulevard Sainte-Geneviève","absoluteDirection":"NORTHWEST","stayOn":false,"area":false,"bogusName":false,"lon":-71.0740944,"lat":48.4418955,"elevation":[]}]},{"startTime":1522678800000,"endTime":1522678838000,"departureDelay":0,"arrivalDelay":0,"realTime":false,"distance":485.8328219499299,"pathway":false,"mode":"BUS","route":"21","agencyName":"Société de Transport du Saguenay","agencyUrl":"http://ville.saguenay.ca/fr/services-aux-citoyens/transport-sts","agencyTimeZoneOffset":-14400000,"routeColor":"556B2F","routeType":3,"routeId":"1:21","routeTextColor":"FFFFFF","interlineWithPreviousLeg":false,"tripBlockId":"2","headsign":"Terminus Chicoutimi","agencyId":"0","tripId":"1:217163","serviceDate":"20180402","from":{"name":"boul. Ste-Geneviève / Champs","stopId":"1:705","stopCode":"705","lon":-71.074706,"lat":48.442337,"arrival":1522678799000,"departure":1522678800000,"zoneId":"NA","stopIndex":1,"stopSequence":2,"vertexType":"TRANSIT"},"to":{"name":"Place de la Colline (boul. Ste-Geneviève)","stopId":"1:706","stopCode":"706","lon":-71.080094,"lat":48.44485,"arrival":1522678838000,"departure":1522678839000,"zoneId":"NA","stopIndex":2,"stopSequence":3,"vertexType":"TRANSIT"},"legGeometry":{"points":"iktfHhxxpLuAnCmBlE}@|B_BvFoC`J","length":6},"routeShortName":"21","routeLongName":"Boul. Ste-Geneviève/Élie","rentedBike":false,"transitLeg":true,"duration":38.0,"steps":[]},{"startTime":1522678839000,"endTime":1522678991000,"departureDelay":0,"arrivalDelay":0,"realTime":false,"distance":188.988,"pathway":false,"mode":"WALK","route":"","agencyTimeZoneOffset":-14400000,"interlineWithPreviousLeg":false,"from":{"name":"Place de la Colline (boul. Ste-Geneviève)","stopId":"1:706","stopCode":"706","lon":-71.080094,"lat":48.44485,"arrival":1522678838000,"departure":1522678839000,"zoneId":"NA","stopIndex":2,"stopSequence":3,"vertexType":"TRANSIT"},"to":{"name":"Destination","lon":-71.078607,"lat":48.443409,"arrival":1522678991000,"orig":"","vertexType":"NORMAL"},"legGeometry":{"points":"a{tfHxyypLdBkFPR~@iD","length":4},"rentedBike":false,"transitLeg":false,"duration":152.0,"steps":[{"distance":188.988,"relativeDirection":"DEPART","streetName":"Boulevard Sainte-Geneviève","absoluteDirection":"SOUTHEAST","stayOn":false,"area":false,"bogusName":false,"lon":-71.08012797466124,"lat":48.44481509343017,"elevation":[]}]}],"tooSloped":false}]},"debugOutput":{"precalculationTime":21,"pathCalculationTime":16,"pathTimes":[4,10,2],"renderingTime":0,"totalTime":37,"timedOut":false},"elevationMetadata":{"ellipsoidToGeoidDifference":-28.885904201182168,"geoidElevation":false}}