{"requestParameters":{"date":"2018/04/02","walkSpeed":"1.33","walkReluctance":"2.0","fromPlace":"48.453751,-71.056706","maxWalkDistance":"3000","waitReluctance":"1.0","carSpeed":"33","numItineraries":"3","waitAtBeginningFactor":"0.4","mode":"TRANSIT,WALK","ignoreRealtimeUpdates":"false","stairsReluctance":"2.0","toPlace":"48.44192,-71.071884","time":"22:25:00"},"plan":{"date":1522722300000,"from":{"name":"Origin","lon":-71.056706,"lat":48.453751,"orig":"","vertexType":"NORMAL"},"to":{"name":"Destination","lon":-71.071884,"lat":48.44192,"orig":"","vertexType":"NORMAL"},"itineraries":[{"duration":641,"startTime":1522722426000,"endTime":1522723067000,"walkTime":221,"transitTime":418,"waitingTime":2,"walkDistance":270.1197744325481,"walkLimitExceeded":false,"elevationLost":0.0,"elevationGained":0.0,"transfers":0,"legs":[{"startTime":1522722426000,"endTime":1522722541000,"departureDelay":0,"arrivalDelay":0,"realTime":false,"distance":143.572,"pathway":false,"mode":"WALK","route":"","agencyTimeZoneOffset":-14400000,"interlineWithPreviousLeg":false,"from":{"name":"Origin","lon":-71.056706,"lat":48.453751,"departure":1522722426000,"orig":"","vertexType":"NORMAL"},"to":{"name":"Vimy 1963 (Ch) /","stopId":"1:757","stopCode":"757","lon":-71.0573,"lat":48.4526,"arrival":1522722541000,"departure":1522722542000,"zoneId":"NA","stopIndex":21,"stopSequence":22,"vertexType":"TRANSIT"},"legGeometry":{"points":"}rvfHlgupL?F?H?D@B@FDDHDNBJDNFNDLDbC~@","length":14},"rentedBike":false,"transitLeg":false,"duration":115.0,"steps":[{"distance":8.734,"relativeDirection":"DEPART","streetName":"Rue Lambert","absoluteDirection":"WEST","stayOn":false,"area":false,"bogusName":false,"lon":-71.05670501023619,"lat":48.45375412437717,"elevation":[]},{"distance":134.838,"relativeDirection":"LEFT","streetName":"Rue Fabre","absoluteDirection":"SOUTHWEST","stayOn":false,"area":false,"bogusName":false,"lon":-71.0568216,"lat":48.4537539,"elevation":[]}]},{"startTime":1522722542000,"endTime":1522722960000,"departureDelay":0,"arrivalDelay":0,"realTime":false,"distance":2324.1389580111536,"pathway":false,"mode":"BUS","route":"22","agencyName":"Société de Transport du Saguenay","agencyUrl":"http://ville.saguenay.ca/fr/services-aux-citoyens/transport-sts","agencyTimeZoneOffset":-14400000,"routeColor":"C0C000","routeType":3,"routeId":"1:22","routeTextColor":"000000","interlineWithPreviousLeg":false,"tripBlockId":"3","headsign":"Terminus Chicoutimi","agencyId":"0","tripId":"1:217218","serviceDate":"20180402","from":{"name":"Vimy 1963 (Ch) /","stopId":"1:757","stopCode":"757","lon":-71.0573,"lat":48.4526,"arrival":1522722541000,"departure":1522722542000,"zoneId":"NA","stopIndex":21,"stopSequence":22,"vertexType":"TRANSIT"},"to":{"name":"Champs / Victor","stopId":"1:769","stopCode":"769","lon":-71.07274,"lat":48.442642,"arrival":1522722960000,"departure":1522722961000,"zoneId":"NA","stopIndex":33,"stopSequence":34,"vertexType":"TRANSIT"},"legGeometry":{"points":"ekvfHlkupLeA|He@hCo@|AiBbD~@^|IrDhAb@qAfJSzAMr@Yz@xAhDFNpBdFRp@Hl@Jz@BXXrCHl@Lh@Nf@r@nAr@r@`@PLFbAVH_AXeC@IdB_Mh@_EJk@x@x@bA`A|BrBnDrCl@f@|BlBrAbAj@d@ZTXNd@@lA[ZxDN|Ad@fAz@tB~AzDZ|@","length":52},"routeShortName":"22","routeLongName":"Vanier","rentedBike":false,"transitLeg":true,"duration":418.0,"steps":[]},{"startTime":1522722961000,"endTime":1522723067000,"departureDelay":0,"arrivalDelay":0,"realTime":false,"distance":126.438,"pathway":false,"mode":"WALK","route":"","agencyTimeZoneOffset":-14400000,"interlineWithPreviousLeg":false,"from":{"name":"Champs / Victor","stopId":"1:769","stopCode":"769","lon":-71.07274,"lat":48.442642,"arrival":1522722960000,"departure":1522722961000,"zoneId":"NA","stopIndex":33,"stopSequence":34,"vertexType":"TRANSIT"},"to":{"name":"Destination","lon":-71.071884,"lat":48.44192,"arrival":1522723067000,"orig":"","vertexType":"NORMAL"},"legGeometry":{"points":"cmtfHhkxpL?A]{@jBuBZr@","length":5},"rentedBike":false,"transitLeg":false,"duration":106.0,"steps":[{"distance":27.64,"relativeDirection":"DEPART","streetName":"Rue des Champs","absoluteDirection":"NORTHEAST","stayOn":false,"area":false,"bogusName":false,"lon":-71.07268048433089,"lat":48.44258835732402,"elevation":[]},{"distance":74.599,"relativeDirection":"RIGHT","streetName":"Rue Victor","absoluteDirection":"SOUTHEAST","stayOn":false,"area":false,"bogusName":false,"lon":-71.0723787,"lat":48.4427357,"elevation":[]},{"distance":24.199,"relativeDirection":"RIGHT","streetName":"Rue Riel","absoluteDirection":"SOUTHWEST","stayOn":false,"area":false,"bogusName":false,"lon":-71.0717858,"lat":48.4421922,"elevation":[]}]}],"tooSloped":false},{"duration":1618,"startTime":1522722300000,"endTime":1522723918000,"walkTime":1618,"transitTime":0,"waitingTime":0,"walkDistance":2096.4956466098092,"walkLimitExceeded":false,"elevationLost":0.0,"elevationGained":0.0,"transfers":0,"legs":[{"startTime":1522722300000,"endTime":1522723918000,"departureDelay":0,"arrivalDelay":0,"realTime":false,"distance":2096.2870000000003,"pathway":false,"mode":"WALK","route":"","agencyTimeZoneOffset":-14400000,"interlineWithPreviousLeg":false,"from":{"name":"Origin","lon":-71.056706,"lat":48.453751,"departure":1522722300000,"orig":"","vertexType":"NORMAL"},"to":{"name":"Destination","lon":-71.071884,"lat":48.44192,"arrival":1522723918000,"orig":"","vertexType":"NORMAL"},"legGeometry":{"points":"}rvfHlgupL?F?H?D@B@FDDHDNBJDNFNDLDbC~@PFNFxCdAvCfAVHbBp@o@zCkAbJc@lB]nBFBpBx@|DbBnIpDF@pQdHVH`@NJHHFHJHNHRFXHj@hAzMPnBNzBFt@t@K`@AZ@TF`C~Fp@hBZr@","length":50},"rentedBike":false,"transitLeg":false,"duration":1618.0,"steps":[{"distance":8.734,"relativeDirection":"DEPART","streetName":"Rue Lambert","absoluteDirection":"WEST","stayOn":false,"area":false,"bogusName":false,"lon":-71.05670501023619,"lat":48.45375412437717,"elevation":[]},{"distance":145.028,"relativeDirection":"LEFT","streetName":"Rue Fabre","absoluteDirection":"SOUTHWEST","stayOn":false,"area":false,"bogusName":false,"lon":-71.0568216,"lat":48.4537539,"elevation":[]},{"distance":260.302,"relativeDirection":"CONTINUE","streetName":"Rue Richelieu","absoluteDirection":"SOUTH","stayOn":false,"area":false,"bogusName":false,"lon":-71.0574594,"lat":48.4525377,"elevation":[]},{"distance":291.353,"relativeDirection":"RIGHT","streetName":"path","absoluteDirection":"NORTHWEST","stayOn":false,"area":false,"bogusName":true,"lon":-71.05850140000001,"lat":48.450301200000006,"elevation":[]},{"distance":1122.7630000000001,"relativeDirection":"LEFT","streetName":"Rue Delisle","absoluteDirection":"SOUTH","stayOn":false,"area":false,"bogusName":false,"lon":-71.0621742,"lat":48.451252800000006,"elevation":[]},{"distance":76.706,"relativeDirection":"LEFT","streetName":"Rue Pépin","absoluteDirection":"SOUTH","stayOn":false,"area":false,"bogusName":false,"lon":-71.06999300000001,"lat":48.4437836,"elevation":[]},{"distance":191.401,"relativeDirection":"SLIGHTLY_RIGHT","streetName":"Rue Riel","absoluteDirection":"SOUTHWEST","stayOn":false,"area":false,"bogusName":false,"lon":-71.0699788,"lat":48.443099800000006,"elevation":[]}]}],"tooSloped":false},{"duration":1385,"startTime":1522723773000,"endTime":1522725158000,"walkTime":1053,"transitTime":330,"waitingTime":2,"walkDistance":1343.7358796927338,"walkLimitExceeded":false,"elevationLost":0.0,"elevationGained":0.0,"transfers":0,"legs":[{"startTime":1522723773000,"endTime":1522724159000,"departureDelay":0,"arrivalDelay":0,"realTime":false,"distance":491.204,"pathway":false,"mode":"WALK","route":"","agencyTimeZoneOffset":-14400000,"interlineWithPreviousLeg":false,"from":{"name":"Origin","lon":-71.056706,"lat":48.453751,"departure":1522723773000,"orig":"","vertexType":"NORMAL"},"to":{"name":"Verdun / Riviera","stopId":"1:2023","stopCode":"2023","lon":-71.057875,"lat":48.449739,"arrival":1522724159000,"departure":1522724160000,"zoneId":"NA","stopIndex":14,"stopSequence":15,"vertexType":"TRANSIT"},"legGeometry":{"points":"}rvfHlgupL?F?H?D@B@FDDHDNBJDNFNDLDbC~@PFNFxCdAvCfAVHbBp@~@sAf@y@","length":22},"rentedBike":false,"transitLeg":false,"duration":386.0,"steps":[{"distance":8.734,"relativeDirection":"DEPART","streetName":"Rue Lambert","absoluteDirection":"WEST","stayOn":false,"area":false,"bogusName":false,"lon":-71.05670501023619,"lat":48.45375412437717,"elevation":[]},{"distance":145.028,"relativeDirection":"LEFT","streetName":"Rue Fabre","absoluteDirection":"SOUTHWEST","stayOn":false,"area":false,"bogusName":false,"lon":-71.0568216,"lat":48.4537539,"elevation":[]},{"distance":260.302,"relativeDirection":"CONTINUE","streetName":"Rue Richelieu","absoluteDirection":"SOUTH","stayOn":false,"area":false,"bogusName":false,"lon":-71.0574594,"lat":48.4525377,"elevation":[]},{"distance":77.14,"relativeDirection":"LEFT","streetName":"Rue de Verdun","absoluteDirection":"SOUTHEAST","stayOn":false,"area":false,"bogusName":false,"lon":-71.05850140000001,"lat":48.450301200000006,"elevation":[]}]},{"startTime":1522724160000,"endTime":1522724490000,"departureDelay":0,"arrivalDelay":0,"realTime":false,"distance":2342.557378739327,"pathway":false,"mode":"BUS","route":"23","agencyName":"Société de Transport du Saguenay","agencyUrl":"http://ville.saguenay.ca/fr/services-aux-citoyens/transport-sts","agencyTimeZoneOffset":-14400000,"routeColor":"FF00FF","routeType":3,"routeId":"1:23","routeTextColor":"FFFFFF","interlineWithPreviousLeg":false,"tripBlockId":"5","headsign":"Terminus Chicoutimi","agencyId":"0","tripId":"1:217282","serviceDate":"20180402","from":{"name":"Verdun / Riviera","stopId":"1:2023","stopCode":"2023","lon":-71.057875,"lat":48.449739,"arrival":1522724159000,"departure":1522724160000,"zoneId":"NA","stopIndex":14,"stopSequence":15,"vertexType":"TRANSIT"},"to":{"name":"Liberté / Roussel","stopId":"1:833","stopCode":"833","lon":-71.069708,"lat":48.437999,"arrival":1522724490000,"departure":1522724491000,"zoneId":"NA","stopIndex":24,"stopSequence":25,"vertexType":"TRANSIT"},"legGeometry":{"points":"czufHhnupLT[~CkFf@s@\\e@x@}@jAeAXQZStBaAh@]`@]`@i@l@kDF_@R{AFWFMPIPC`@BT@V?TAVKLENCLCJ@J@xAb@x@Zz@\\CP?R@N@NFLFF`GtBx@Xw@pG@l@B\\DXL\\RZDFXPf@N@v@Bp@Dr@l@~HNlAH\\@HLd@\\z@Xd@X\\RTXRr@Zn@PfExAvDpALnBJt@Pp@|@`DHZPn@`@rBNnAFr@DbA?bB@jABzA?p@A???A???A?A???A@??A?A@??A@?@A??@A@???@A@?@?@A@?@?@?@?@???@?@?@?@?@?@@@?@?@@@?@@@?@@@?@@?@@??@@@?E`@Kr@]rACVEl@I|AAr@JbAWJe@FUA","length":140},"routeShortName":"23","routeLongName":"Côte Verdun via Aréna du Plateau","rentedBike":false,"transitLeg":true,"duration":330.0,"steps":[]},{"startTime":1522724491000,"endTime":1522725158000,"departureDelay":0,"arrivalDelay":0,"realTime":false,"distance":852.3300000000002,"pathway":false,"mode":"WALK","route":"","agencyTimeZoneOffset":-14400000,"interlineWithPreviousLeg":false,"from":{"name":"Liberté / Roussel","stopId":"1:833","stopCode":"833","lon":-71.069708,"lat":48.437999,"arrival":1522724490000,"departure":1522724491000,"zoneId":"NA","stopIndex":24,"stopSequence":25,"vertexType":"TRANSIT"},"to":{"name":"Destination","lon":-71.071884,"lat":48.44192,"arrival":1522725158000,"orig":"","vertexType":"NORMAL"},"legGeometry":{"points":"mpsfHbywpLQ?eAe@c@W[Ug@j@gAbBsAlC}AvCiDzGeC`FMRSSu@mBsAkD?A]{@jBuBZr@","length":19},"rentedBike":false,"transitLeg":false,"duration":667.0,"steps":[{"distance":90.008,"relativeDirection":"DEPART","streetName":"Rue de la Liberté","absoluteDirection":"NORTH","stayOn":false,"area":false,"bogusName":false,"lon":-71.06977728382226,"lat":48.43799835897345,"elevation":[]},{"distance":492.678,"relativeDirection":"LEFT","streetName":"Boulevard Sainte-Geneviève","absoluteDirection":"NORTHWEST","stayOn":false,"area":false,"bogusName":false,"lon":-71.0693565,"lat":48.4387504,"elevation":[]},{"distance":170.84600000000003,"relativeDirection":"RIGHT","streetName":"Rue des Champs","absoluteDirection":"NORTHEAST","stayOn":false,"area":false,"bogusName":false,"lon":-71.07419630000001,"lat":48.441794200000004,"elevation":[]},{"distance":74.599,"relativeDirection":"RIGHT","streetName":"Rue Victor","absoluteDirection":"SOUTHEAST","stayOn":false,"area":false,"bogusName":false,"lon":-71.0723787,"lat":48.4427357,"elevation":[]},{"distance":24.199,"relativeDirection":"RIGHT","streetName":"Rue Riel","absoluteDirection":"SOUTHWEST","stayOn":false,"area":false,"bogusName":false,"lon":-71.0717858,"lat":48.4421922,"elevation":[]}]}],"tooSloped":false}]},"debugOutput":{"precalculationTime":19,"pathCalculationTime":19,"pathTimes":[6,10,3],"renderingTime":0,"totalTime":38,"timedOut":false},"elevationMetadata":{"ellipsoidToGeoidDifference":-28.885904201182168,"geoidElevation":false}}