{"requestParameters":{"date":"2018/04/02","walkSpeed":"1.33","walkReluctance":"2.0","fromPlace":"48.452185,-71.09260399","maxWalkDistance":"3000","waitReluctance":"1.0","carSpeed":"33","numItineraries":"3","waitAtBeginningFactor":"0.4","mode":"TRANSIT,WALK","ignoreRealtimeUpdates":"false","stairsReluctance":"2.0","toPlace":"48.446055,-71.063211","time":"17:30:00"},"plan":{"date":1522704600000,"from":{"name":"Origin","lon":-71.09260399,"lat":48.452185,"orig":"","vertexType":"NORMAL"},"to":{"name":"Destination","lon":-71.063211,"lat":48.446055,"orig":"","vertexType":"NORMAL"},"itineraries":[{"duration":1444,"startTime":1522704719000,"endTime":1522706163000,"walkTime":365,"transitTime":777,"waitingTime":302,"walkDistance":465.26835338212425,"walkLimitExceeded":false,"elevationLost":0.0,"elevationGained":0.0,"transfers":1,"legs":[{"startTime":1522704719000,"endTime":1522704796000,"departureDelay":0,"arrivalDelay":0,"realTime":false,"distance":98.05499999999999,"pathway":false,"mode":"WALK","route":"","agencyTimeZoneOffset":-14400000,"interlineWithPreviousLeg":false,"from":{"name":"Origin","lon":-71.09260399,"lat":48.452185,"departure":1522704719000,"orig":"","vertexType":"NORMAL"},"to":{"name":"boul. Ste-Geneviève / St-Sauveur","stopId":"1:725","stopCode":"725","lon":-71.094112,"lat":48.451823,"arrival":1522704796000,"departure":1522704797000,"zoneId":"NA","stopIndex":27,"stopSequence":28,"vertexType":"TRANSIT"},"legGeometry":{"points":"ifvfHzh|pLE^MtAQ~AEj@","length":5},"rentedBike":false,"transitLeg":false,"duration":77.0,"steps":[{"distance":98.05499999999999,"relativeDirection":"DEPART","streetName":"Boulevard Sainte-Geneviève","absoluteDirection":"WEST","stayOn":false,"area":false,"bogusName":false,"lon":-71.0927763593409,"lat":48.45173604950254,"elevation":[]}]},{"startTime":1522704797000,"endTime":1522705200000,"departureDelay":0,"arrivalDelay":0,"realTime":false,"distance":3553.853919969515,"pathway":false,"mode":"BUS","route":"21","agencyName":"Société de Transport du Saguenay","agencyUrl":"http://ville.saguenay.ca/fr/services-aux-citoyens/transport-sts","agencyTimeZoneOffset":-14400000,"routeColor":"556B2F","routeType":3,"routeId":"1:21","routeTextColor":"FFFFFF","interlineWithPreviousLeg":false,"tripBlockId":"2","headsign":"Terminus Chicoutimi","agencyId":"0","tripId":"1:217177","serviceDate":"20180402","from":{"name":"boul. Ste-Geneviève / St-Sauveur","stopId":"1:725","stopCode":"725","lon":-71.094112,"lat":48.451823,"arrival":1522704796000,"departure":1522704797000,"zoneId":"NA","stopIndex":27,"stopSequence":28,"vertexType":"TRANSIT"},"to":{"name":"Terminus Chicoutimi","stopId":"1:1289","stopCode":"1289","lon":-71.066163,"lat":48.428677,"arrival":1522705200000,"departure":1522705500000,"zoneId":"NA","stopIndex":34,"stopSequence":35,"vertexType":"TRANSIT"},"legGeometry":{"points":"mgvfH~p|pLDi@b@iExAsO@E^qBt@}CJGnAmDx@iBpAcCb@o@Zi@h@o@`AiArFkG`FgGdBwBt@cAbAmBx@eBj@eB`CoHpCyJbAmCtAuCZg@|@gBxAsCrCmFhHqN~@eBr@cAt@_Av@}@RQPMz@k@tAe@REZG^Af@@X@VF`@Jn@XbClAr@Xt\\`PrAb@pA^hBTjAFj@Pb@JPHLLJNJRFXDT?X?ZEVEVKTMNMHMFOB}DWSGOSYcAN}FFkAF}DJyDPwGvAHVyL","length":82},"routeShortName":"21","routeLongName":"Boul. Ste-Geneviève/Élie","rentedBike":false,"transitLeg":true,"duration":403.0,"steps":[]},{"startTime":1522705500000,"endTime":1522705874000,"departureDelay":0,"arrivalDelay":0,"realTime":false,"distance":2493.936448483124,"pathway":false,"mode":"BUS","route":"22","agencyName":"Société de Transport du Saguenay","agencyUrl":"http://ville.saguenay.ca/fr/services-aux-citoyens/transport-sts","agencyTimeZoneOffset":-14400000,"routeColor":"C0C000","routeType":3,"routeId":"1:22","routeTextColor":"000000","interlineWithPreviousLeg":false,"tripBlockId":"1","headsign":"Terminus Chicoutimi","agencyId":"0","tripId":"1:217151","serviceDate":"20180402","from":{"name":"Terminus Chicoutimi","stopId":"1:1289","stopCode":"1289","lon":-71.066163,"lat":48.428677,"arrival":1522705200000,"departure":1522705500000,"zoneId":"NA","stopIndex":0,"stopSequence":1,"vertexType":"TRANSIT"},"to":{"name":"Cabot (no. 575)","stopId":"1:742","stopCode":"742","lon":-71.064972,"lat":48.448145,"arrival":1522705874000,"departure":1522705875000,"zoneId":"NA","stopIndex":6,"stopSequence":7,"vertexType":"TRANSIT"},"legGeometry":{"points":"evqfHzcwpLg@?UhKxDVOhHMrH~CYhBBInAKXSNg@L{JHgBMoA[s@Usb@gS}@g@u@Su@Ia@Ck@Dm@HwAf@c@VeAx@iAlAU^[d@eLtTsAvBMJYF[EMIQ]y@wB[y@[{@_B{D{@uBe@gAO}AGw@SaCmAZe@AYOy@o@MKsAcA}BmBuC}BgA}@}BsBaAaA{@y@d@kD","length":58},"routeShortName":"22","routeLongName":"Vanier","rentedBike":false,"transitLeg":true,"duration":374.0,"steps":[]},{"startTime":1522705875000,"endTime":1522706163000,"departureDelay":0,"arrivalDelay":0,"realTime":false,"distance":367.17199999999997,"pathway":false,"mode":"WALK","route":"","agencyTimeZoneOffset":-14400000,"interlineWithPreviousLeg":false,"from":{"name":"Cabot (no. 575)","stopId":"1:742","stopCode":"742","lon":-71.064972,"lat":48.448145,"arrival":1522705874000,"departure":1522705875000,"zoneId":"NA","stopIndex":6,"stopSequence":7,"vertexType":"TRANSIT"},"to":{"name":"Destination","lon":-71.063211,"lat":48.446055,"arrival":1522706163000,"orig":"","vertexType":"NORMAL"},"legGeometry":{"points":"ipufHzzvpLn@qEZ_CJs@@CLeA~B`AjBz@pAh@","length":9},"rentedBike":false,"transitLeg":false,"duration":288.0,"steps":[{"distance":180.464,"relativeDirection":"DEPART","streetName":"Rue Cabot","absoluteDirection":"EAST","stayOn":false,"area":false,"bogusName":false,"lon":-71.06493533157504,"lat":48.44821645875971,"elevation":[]},{"distance":186.708,"relativeDirection":"RIGHT","streetName":"Rue Saint-Rémi","absoluteDirection":"SOUTH","stayOn":false,"area":false,"bogusName":false,"lon":-71.06261880000001,"lat":48.4476942,"elevation":[]}]}],"tooSloped":false},{"duration":972,"startTime":1522705304000,"endTime":1522706276000,"walkTime":769,"transitTime":201,"waitingTime":2,"walkDistance":992.5555939821361,"walkLimitExceeded":false,"elevationLost":0.0,"elevationGained":0.0,"transfers":0,"legs":[{"startTime":1522705304000,"endTime":1522705886000,"departureDelay":0,"arrivalDelay":0,"realTime":false,"distance":756.874,"pathway":false,"mode":"WALK","route":"","agencyTimeZoneOffset":-14400000,"interlineWithPreviousLeg":false,"from":{"name":"Origin","lon":-71.09260399,"lat":48.452185,"departure":1522705304000,"orig":"","vertexType":"NORMAL"},"to":{"name":"St-Gérard / Pasteur","stopId":"1:727","stopCode":"727","lon":-71.084309,"lat":48.448719,"arrival":1522705886000,"departure":1522705887000,"zoneId":"NA","stopIndex":4,"stopSequence":5,"vertexType":"TRANSIT"},"legGeometry":{"points":"ifvfHzh|pLTeCr@wGHu@H_@BSDWFc@F[Lm@TeABINk@@GZeABI`@oAXu@bAkC|AoCdAyAPUdCqCw@mBKU","length":25},"rentedBike":false,"transitLeg":false,"duration":582.0,"steps":[{"distance":695.5029999999999,"relativeDirection":"DEPART","streetName":"Boulevard Sainte-Geneviève","absoluteDirection":"EAST","stayOn":false,"area":false,"bogusName":false,"lon":-71.0927763593409,"lat":48.45173604950254,"elevation":[]},{"distance":61.371,"relativeDirection":"LEFT","streetName":"Rue Saint-Gérard","absoluteDirection":"NORTHEAST","stayOn":false,"area":false,"bogusName":false,"lon":-71.08506560000001,"lat":48.448469300000006,"elevation":[]}]},{"startTime":1522705887000,"endTime":1522706088000,"departureDelay":0,"arrivalDelay":0,"realTime":false,"distance":1658.7201300737443,"pathway":false,"mode":"BUS","route":"23","agencyName":"Société de Transport du Saguenay","agencyUrl":"http://ville.saguenay.ca/fr/services-aux-citoyens/transport-sts","agencyTimeZoneOffset":-14400000,"routeColor":"FF00FF","routeType":3,"routeId":"1:23","routeTextColor":"FFFFFF","interlineWithPreviousLeg":false,"tripBlockId":"5","headsign":"Terminus Chicoutimi","agencyId":"0","tripId":"1:217272","serviceDate":"20180402","from":{"name":"St-Gérard / Pasteur","stopId":"1:727","stopCode":"727","lon":-71.084309,"lat":48.448719,"arrival":1522705886000,"departure":1522705887000,"zoneId":"NA","stopIndex":4,"stopSequence":5,"vertexType":"TRANSIT"},"to":{"name":"Cabot / Delisle","stopId":"1:788","stopCode":"788","lon":-71.063276,"lat":48.447779,"arrival":1522706088000,"departure":1522706089000,"zoneId":"NA","stopIndex":11,"stopSequence":12,"vertexType":"TRANSIT"},"legGeometry":{"points":"ssufHxtzpLGCUi@Wm@ScA_@gGSaE@_@@_@@ERoBFe@No@`@gAbCyFNe@Ha@He@Fg@Du@Dg@Hc@Pa@RW\\S`@QZEm@eHM}B?GGi@Is@Ou@Qw@Mo@Kw@ImAGoBAk@aALa@?YEUKc@Yc@_@KOIUGUEWAW?YBqAH_AXeC@IdB_Mh@_EJk@d@kDhAqI","length":60},"routeShortName":"23","routeLongName":"Côte Verdun via Aréna du Plateau","rentedBike":false,"transitLeg":true,"duration":201.0,"steps":[]},{"startTime":1522706089000,"endTime":1522706276000,"departureDelay":0,"arrivalDelay":0,"realTime":false,"distance":235.594,"pathway":false,"mode":"WALK","route":"","agencyTimeZoneOffset":-14400000,"interlineWithPreviousLeg":false,"from":{"name":"Cabot / Delisle","stopId":"1:788","stopCode":"788","lon":-71.063276,"lat":48.447779,"arrival":1522706088000,"departure":1522706089000,"zoneId":"NA","stopIndex":11,"stopSequence":12,"vertexType":"TRANSIT"},"to":{"name":"Destination","lon":-71.063211,"lat":48.446055,"arrival":1522706276000,"orig":"","vertexType":"NORMAL"},"legGeometry":{"points":"}mufHhpvpLJs@@CLeA~B`AjBz@pAh@","length":7},"rentedBike":false,"transitLeg":false,"duration":187.0,"steps":[{"distance":48.885999999999996,"relativeDirection":"DEPART","streetName":"Rue Cabot","absoluteDirection":"EAST","stayOn":false,"area":false,"bogusName":false,"lon":-71.06324809465512,"lat":48.44783211772147,"elevation":[]},{"distance":186.708,"relativeDirection":"RIGHT","streetName":"Rue Saint-Rémi","absoluteDirection":"SOUTH","stayOn":false,"area":false,"bogusName":false,"lon":-71.06261880000001,"lat":48.4476942,"elevation":[]}]}],"tooSloped":false},{"duration":972,"startTime":1522707104000,"endTime":1522708076000,"walkTime":769,"transitTime":201,"waitingTime":2,"walkDistance":992.5555939821361,"walkLimitExceeded":false,"elevationLost":0.0,"elevationGained":0.0,"transfers":0,"legs":[{"startTime":1522707104000,"endTime":1522707686000,"departureDelay":0,"arrivalDelay":0,"realTime":false,"distance":756.874,"pathway":false,"mode":"WALK","route":"","agencyTimeZoneOffset":-14400000,"interlineWithPreviousLeg":false,"from":{"name":"Origin","lon":-71.09260399,"lat":48.452185,"departure":1522707104000,"orig":"","vertexType":"NORMAL"},"to":{"name":"St-Gérard / Pasteur","stopId":"1:727","stopCode":"727","lon":-71.084309,"lat":48.448719,"arrival":1522707686000,"departure":1522707687000,"zoneId":"NA","stopIndex":4,"stopSequence":5,"vertexType":"TRANSIT"},"legGeometry":{"points":"ifvfHzh|pLTeCr@wGHu@H_@BSDWFc@F[Lm@TeABINk@@GZeABI`@oAXu@bAkC|AoCdAyAPUdCqCw@mBKU","length":25},"rentedBike":false,"transitLeg":false,"duration":582.0,"steps":[{"distance":695.5029999999999,"relativeDirection":"DEPART","streetName":"Boulevard Sainte-Geneviève","absoluteDirection":"EAST","stayOn":false,"area":false,"bogusName":false,"lon":-71.0927763593409,"lat":48.45173604950254,"elevation":[]},{"distance":61.371,"relativeDirection":"LEFT","streetName":"Rue Saint-Gérard","absoluteDirection":"NORTHEAST","stayOn":false,"area":false,"bogusName":false,"lon":-71.08506560000001,"lat":48.448469300000006,"elevation":[]}]},{"startTime":1522707687000,"endTime":1522707888000,"departureDelay":0,"arrivalDelay":0,"realTime":false,"distance":1658.7201300737443,"pathway":false,"mode":"BUS","route":"23","agencyName":"Société de Transport du Saguenay","agencyUrl":"http://ville.saguenay.ca/fr/services-aux-citoyens/transport-sts","agencyTimeZoneOffset":-14400000,"routeColor":"FF00FF","routeType":3,"routeId":"1:23","routeTextColor":"FFFFFF","interlineWithPreviousLeg":false,"tripBlockId":"4","headsign":"Terminus Chicoutimi","agencyId":"0","tripId":"1:217246","serviceDate":"20180402","from":{"name":"St-Gérard / Pasteur","stopId":"1:727","stopCode":"727","lon":-71.084309,"lat":48.448719,"arrival":1522707686000,"departure":1522707687000,"zoneId":"NA","stopIndex":4,"stopSequence":5,"vertexType":"TRANSIT"},"to":{"name":"Cabot / Delisle","stopId":"1:788","stopCode":"788","lon":-71.063276,"lat":48.447779,"arrival":1522707888000,"departure":1522707889000,"zoneId":"NA","stopIndex":11,"stopSequence":12,"vertexType":"TRANSIT"},"legGeometry":{"points":"ssufHxtzpLGCUi@Wm@ScA_@gGSaE@_@@_@@ERoBFe@No@`@gAbCyFNe@Ha@He@Fg@Du@Dg@Hc@Pa@RW\\S`@QZEm@eHM}B?GGi@Is@Ou@Qw@Mo@Kw@ImAGoBAk@aALa@?YEUKc@Yc@_@KOIUGUEWAW?YBqAH_AXeC@IdB_Mh@_EJk@d@kDhAqI","length":60},"routeShortName":"23","routeLongName":"Côte Verdun via Aréna du Plateau","rentedBike":false,"transitLeg":true,"duration":201.0,"steps":[]},{"startTime":1522707889000,"endTime":1522708076000,"departureDelay":0,"arrivalDelay":0,"realTime":false,"distance":235.594,"pathway":false,"mode":"WALK","route":"","agencyTimeZoneOffset":-14400000,"interlineWithPreviousLeg":false,"from":{"name":"Cabot / Delisle","stopId":"1:788","stopCode":"788","lon":-71.063276,"lat":48.447779,"arrival":1522707888000,"departure":1522707889000,"zoneId":"NA","stopIndex":11,"stopSequence":12,"vertexType":"TRANSIT"},"to":{"name":"Destination","lon":-71.063211,"lat":48.446055,"arrival":1522708076000,"orig":"","vertexType":"NORMAL"},"legGeometry":{"points":"}mufHhpvpLJs@@CLeA~B`AjBz@pAh@","length":7},"rentedBike":false,"transitLeg":false,"duration":187.0,"steps":[{"distance":48.885999999999996,"relativeDirection":"DEPART","streetName":"Rue Cabot","absoluteDirection":"EAST","stayOn":false,"area":false,"bogusName":false,"lon":-71.06324809465512,"lat":48.44783211772147,"elevation":[]},{"distance":186.708,"relativeDirection":"RIGHT","streetName":"Rue Saint-Rémi","absoluteDirection":"SOUTH","stayOn":false,"area":false,"bogusName":false,"lon":-71.06261880000001,"lat":48.4476942,"elevation":[]}]}],"tooSloped":false}]},"debugOutput":{"precalculationTime":12,"pathCalculationTime":19,"pathTimes":[13,3,3],"renderingTime":0,"totalTime":31,"timedOut":false},"elevationMetadata":{"ellipsoidToGeoidDifference":-28.885904201182168,"geoidElevation":false}}