{"requestParameters":{"date":"2018/04/02","walkSpeed":"1.33","walkReluctance":"2.0","fromPlace":"48.426013,-71.06780399","maxWalkDistance":"3000","waitReluctance":"1.0","carSpeed":"33","numItineraries":"3","waitAtBeginningFactor":"0.4","mode":"TRANSIT,WALK","ignoreRealtimeUpdates":"false","stairsReluctance":"2.0","toPlace":"48.445968,-71.042162","time":"18:30:00"},"plan":{"date":1522708200000,"from":{"name":"Origin","lon":-71.06780399,"lat":48.426013,"orig":"","vertexType":"NORMAL"},"to":{"name":"Destination","lon":-71.042162,"lat":48.445968,"orig":"","vertexType":"NORMAL"},"itineraries":[{"duration":2048,"startTime":1522708747000,"endTime":1522710795000,"walkTime":1316,"transitTime":730,"waitingTime":2,"walkDistance":1678.3739548765068,"walkLimitExceeded":false,"elevationLost":0.0,"elevationGained":0.0,"transfers":0,"legs":[{"startTime":1522708747000,"endTime":1522709099000,"departureDelay":0,"arrivalDelay":0,"realTime":false,"distance":446.22700000000003,"pathway":false,"mode":"WALK","route":"","agencyTimeZoneOffset":-14400000,"interlineWithPreviousLeg":false,"from":{"name":"Origin","lon":-71.06780399,"lat":48.426013,"departure":1522708747000,"orig":"","vertexType":"NORMAL"},"to":{"name":"Terminus Chicoutimi","stopId":"1:1289","stopCode":"1289","lon":-71.066163,"lat":48.428677,"arrival":1522709099000,"departure":1522709100000,"zoneId":"NA","stopIndex":0,"stopSequence":1,"vertexType":"TRANSIT"},"legGeometry":{"points":"qeqfHxlwpLHyDq@GiAKIAJeEkCQQAsBIc@MKESAcAK","length":13},"rentedBike":false,"transitLeg":false,"duration":352.0,"steps":[{"distance":68.96,"relativeDirection":"DEPART","streetName":"Rue Blanchette","absoluteDirection":"EAST","stayOn":false,"area":false,"bogusName":false,"lon":-71.06780379988408,"lat":48.42601469276569,"elevation":[]},{"distance":74.444,"relativeDirection":"LEFT","streetName":"Rue Lemieux","absoluteDirection":"NORTH","stayOn":false,"area":false,"bogusName":false,"lon":-71.0668718,"lat":48.425968600000004,"elevation":[]},{"distance":73.11,"relativeDirection":"RIGHT","streetName":"Rue Jacques-Cartier Est","absoluteDirection":"EAST","stayOn":false,"area":false,"bogusName":false,"lon":-71.0667645,"lat":48.4266343,"elevation":[]},{"distance":229.713,"relativeDirection":"LEFT","streetName":"Rue Morin","absoluteDirection":"NORTH","stayOn":false,"area":false,"bogusName":false,"lon":-71.0657774,"lat":48.426577300000005,"elevation":[]}]},{"startTime":1522709100000,"endTime":1522709830000,"departureDelay":0,"arrivalDelay":0,"realTime":false,"distance":5358.844099822367,"pathway":false,"mode":"BUS","route":"23","agencyName":"Société de Transport du Saguenay","agencyUrl":"http://ville.saguenay.ca/fr/services-aux-citoyens/transport-sts","agencyTimeZoneOffset":-14400000,"routeColor":"FF00FF","routeType":3,"routeId":"1:23","routeTextColor":"FFFFFF","interlineWithPreviousLeg":false,"tripBlockId":"5","headsign":"Terminus Chicoutimi","agencyId":"0","tripId":"1:217274","serviceDate":"20180402","from":{"name":"Terminus Chicoutimi","stopId":"1:1289","stopCode":"1289","lon":-71.066163,"lat":48.428677,"arrival":1522709099000,"departure":1522709100000,"zoneId":"NA","stopIndex":0,"stopSequence":1,"vertexType":"TRANSIT"},"to":{"name":"Verdun / St-Éloi","stopId":"1:794","stopCode":"794","lon":-71.053519,"lat":48.446152,"arrival":1522709830000,"departure":1522709831000,"zoneId":"NA","stopIndex":16,"stopSequence":17,"vertexType":"TRANSIT"},"legGeometry":{"points":"kwqfHjbwpLF_CkAOYCm@rRO\\WjGOfGCRK^KJMHQB_AMg@Gw`@eR}@g@u@Su@Ia@Ck@Dm@HwAf@c@VeAx@iAlAU^[d@eLtTsAvB_CvEuAnCmBlE}@|B_BvFoC`JCD}@hCo@~Aq@pAs@fA{BlCqH|Iq@Bq@Im@UGCUi@Wm@ScA_@gGSaE@_@@_@@ERoBFe@No@`@gAbCyFNe@Ha@He@Fg@Du@Dg@Hc@Pa@RW\\S`@QZEm@eHM}B?GGi@Is@Ou@Qw@Mo@Kw@ImAGoBAk@aALa@?YEUKc@Yc@_@KOIUGUEWAW?YBqAH_AXeC@IdB_Mh@_EJk@d@kDhAqI`AgHz@oGBU?UAWCWUwAWD]B]AUEoAc@kE}AOIq@g@g@u@]w@b@s@T[~CkFf@s@\\e@x@}@jAeAXQZStBaAh@]`@]`@i@l@kD","length":136},"routeShortName":"23","routeLongName":"Côte Verdun via Aréna du Plateau","rentedBike":false,"transitLeg":true,"duration":730.0,"steps":[]},{"startTime":1522709831000,"endTime":1522710795000,"departureDelay":0,"arrivalDelay":0,"realTime":false,"distance":1231.815,"pathway":false,"mode":"WALK","route":"","agencyTimeZoneOffset":-14400000,"interlineWithPreviousLeg":false,"from":{"name":"Verdun / St-Éloi","stopId":"1:794","stopCode":"794","lon":-71.053519,"lat":48.446152,"arrival":1522709830000,"departure":1522709831000,"zoneId":"NA","stopIndex":16,"stopSequence":17,"vertexType":"TRANSIT"},"to":{"name":"Destination","lon":-71.042162,"lat":48.445968,"arrival":1522710795000,"orig":"","vertexType":"NORMAL"},"legGeometry":{"points":"wcufHhstpLDYBYFg@D_@BUDKDCCk@`@cEwBiEFKBMAOEIzAeBz@S\\]l@e@NQFODO@[y@}HEYAYAc@@e@DYh@aEToBXiBBWBc@Be@Bk@@Q?KAIGs@Gw@g@La@Di@@i@Cm@O}B}@EC`@_DBY~AZB?","length":52},"rentedBike":false,"transitLeg":false,"duration":964.0,"steps":[{"distance":65.60900000000001,"relativeDirection":"DEPART","streetName":"Rue de Verdun","absoluteDirection":"EAST","stayOn":false,"area":false,"bogusName":false,"lon":-71.05348776384805,"lat":48.4462094810194,"elevation":[]},{"distance":191.388,"relativeDirection":"SLIGHTLY_LEFT","streetName":"path","absoluteDirection":"EAST","stayOn":false,"area":false,"bogusName":true,"lon":-71.05267160000001,"lat":48.446006600000004,"elevation":[]},{"distance":121.54599999999999,"relativeDirection":"UTURN_RIGHT","streetName":"path","absoluteDirection":"SOUTHEAST","stayOn":true,"area":false,"bogusName":true,"lon":-71.05020520000001,"lat":48.4464394,"elevation":[]},{"distance":19.53,"relativeDirection":"SLIGHTLY_LEFT","streetName":"Rue Daudet","absoluteDirection":"SOUTHEAST","stayOn":false,"area":false,"bogusName":false,"lon":-71.04959480000001,"lat":48.4456745,"elevation":[]},{"distance":319.334,"relativeDirection":"CONTINUE","streetName":"Rue de Saint-Malo","absoluteDirection":"SOUTHEAST","stayOn":false,"area":false,"bogusName":false,"lon":-71.0494456,"lat":48.445529400000005,"elevation":[]},{"distance":193.145,"relativeDirection":"CONTINUE","streetName":"Rue René-Bergeron","absoluteDirection":"EAST","stayOn":false,"area":false,"bogusName":false,"lon":-71.0455409,"lat":48.4452234,"elevation":[]},{"distance":191.704,"relativeDirection":"LEFT","streetName":"Rue Thibeault","absoluteDirection":"NORTH","stayOn":false,"area":false,"bogusName":false,"lon":-71.0430066,"lat":48.4449836,"elevation":[]},{"distance":72.026,"relativeDirection":"RIGHT","streetName":"Rue du Diamant","absoluteDirection":"EAST","stayOn":false,"area":false,"bogusName":false,"lon":-71.04268900000001,"lat":48.446660300000005,"elevation":[]},{"distance":57.533,"relativeDirection":"RIGHT","streetName":"Rue Gouin","absoluteDirection":"SOUTH","stayOn":false,"area":false,"bogusName":false,"lon":-71.041752,"lat":48.446479700000005,"elevation":[]}]}],"tooSloped":false},{"duration":1036,"startTime":1522710547000,"endTime":1522711583000,"walkTime":466,"transitTime":568,"waitingTime":2,"walkDistance":584.9873007463846,"walkLimitExceeded":false,"elevationLost":0.0,"elevationGained":0.0,"transfers":0,"legs":[{"startTime":1522710547000,"endTime":1522710899000,"departureDelay":0,"arrivalDelay":0,"realTime":false,"distance":446.22700000000003,"pathway":false,"mode":"WALK","route":"","agencyTimeZoneOffset":-14400000,"interlineWithPreviousLeg":false,"from":{"name":"Origin","lon":-71.06780399,"lat":48.426013,"departure":1522710547000,"orig":"","vertexType":"NORMAL"},"to":{"name":"Terminus Chicoutimi","stopId":"1:1289","stopCode":"1289","lon":-71.066163,"lat":48.428677,"arrival":1522710899000,"departure":1522710900000,"zoneId":"NA","stopIndex":0,"stopSequence":1,"vertexType":"TRANSIT"},"legGeometry":{"points":"qeqfHxlwpLHyDq@GiAKIAJeEkCQQAsBIc@MKESAcAK","length":13},"rentedBike":false,"transitLeg":false,"duration":352.0,"steps":[{"distance":68.96,"relativeDirection":"DEPART","streetName":"Rue Blanchette","absoluteDirection":"EAST","stayOn":false,"area":false,"bogusName":false,"lon":-71.06780379988408,"lat":48.42601469276569,"elevation":[]},{"distance":74.444,"relativeDirection":"LEFT","streetName":"Rue Lemieux","absoluteDirection":"NORTH","stayOn":false,"area":false,"bogusName":false,"lon":-71.0668718,"lat":48.425968600000004,"elevation":[]},{"distance":73.11,"relativeDirection":"RIGHT","streetName":"Rue Jacques-Cartier Est","absoluteDirection":"EAST","stayOn":false,"area":false,"bogusName":false,"lon":-71.0667645,"lat":48.4266343,"elevation":[]},{"distance":229.713,"relativeDirection":"LEFT","streetName":"Rue Morin","absoluteDirection":"NORTH","stayOn":false,"area":false,"bogusName":false,"lon":-71.0657774,"lat":48.426577300000005,"elevation":[]}]},{"startTime":1522710900000,"endTime":1522711468000,"departureDelay":0,"arrivalDelay":0,"realTime":false,"distance":3453.8411754787335,"pathway":false,"mode":"BUS","route":"24","agencyName":"Société de Transport du Saguenay","agencyUrl":"http://ville.saguenay.ca/fr/services-aux-citoyens/transport-sts","agencyTimeZoneOffset":-14400000,"routeColor":"00FF00","routeType":3,"routeId":"1:24","routeTextColor":"000000","interlineWithPreviousLeg":false,"tripBlockId":"5","headsign":"Terminus Chicoutimi","agencyId":"0","tripId":"1:217275","serviceDate":"20180402","from":{"name":"Terminus Chicoutimi","stopId":"1:1289","stopCode":"1289","lon":-71.066163,"lat":48.428677,"arrival":1522710899000,"departure":1522710900000,"zoneId":"NA","stopIndex":0,"stopSequence":1,"vertexType":"TRANSIT"},"to":{"name":"Thibeault / Diamant","stopId":"1:815","stopCode":"815","lon":-71.042731,"lat":48.446755,"arrival":1522711468000,"departure":1522711469000,"zoneId":"NA","stopIndex":11,"stopSequence":12,"vertexType":"TRANSIT"},"legGeometry":{"points":"evqfHzcwpLg@?EhBO~GoBKCp@O\\WjGOfGCRK^KJMHQB_AMg@Gm\\wO]i@wAyA_@WUKMEwEm@Js@Da@??@@??@?@???@???@?@??A@???@A@??A@??A@A??@A?A??@A?A?A?A@A?A???A?A?A???A?A?A?A???A?AAA?A???AAA?A??AA?AA??AA??A??AA??A??AA?A???A????q@C{AAaB?mAEcAGs@OoAa@sB[kAYcASq@Ok@Qq@Ku@MoBKmAa@eHi@FKC_@I??iE}Ah@}DH}@?c@Ea@[_BA?My@Cm@?Y@g@Hu@b@sD\\_DBSyHsC_@MBQA}@IwAUoAcAkCWo@qDgJg@cBk@uBi@sC]aCWwCiKuDwQuGDWbAoGV{AxG~B","length":145},"routeShortName":"24","routeLongName":"Saint-Luc","rentedBike":false,"transitLeg":true,"duration":568.0,"steps":[]},{"startTime":1522711469000,"endTime":1522711583000,"departureDelay":0,"arrivalDelay":0,"realTime":false,"distance":138.59,"pathway":false,"mode":"WALK","route":"","agencyTimeZoneOffset":-14400000,"interlineWithPreviousLeg":false,"from":{"name":"Thibeault / Diamant","stopId":"1:815","stopCode":"815","lon":-71.042731,"lat":48.446755,"arrival":1522711468000,"departure":1522711469000,"zoneId":"NA","stopIndex":11,"stopSequence":12,"vertexType":"TRANSIT"},"to":{"name":"Destination","lon":-71.042162,"lat":48.445968,"arrival":1522711583000,"orig":"","vertexType":"NORMAL"},"legGeometry":{"points":"agufHrorpLLD`@_DBY~AZB?","length":6},"rentedBike":false,"transitLeg":false,"duration":114.0,"steps":[{"distance":9.031,"relativeDirection":"DEPART","streetName":"Rue Thibeault","absoluteDirection":"SOUTH","stayOn":false,"area":false,"bogusName":false,"lon":-71.04265067831268,"lat":48.446737444504414,"elevation":[]},{"distance":72.026,"relativeDirection":"LEFT","streetName":"Rue du Diamant","absoluteDirection":"EAST","stayOn":false,"area":false,"bogusName":false,"lon":-71.04268900000001,"lat":48.446660300000005,"elevation":[]},{"distance":57.533,"relativeDirection":"RIGHT","streetName":"Rue Gouin","absoluteDirection":"SOUTH","stayOn":false,"area":false,"bogusName":false,"lon":-71.041752,"lat":48.446479700000005,"elevation":[]}]}],"tooSloped":false},{"duration":1036,"startTime":1522714147000,"endTime":1522715183000,"walkTime":466,"transitTime":568,"waitingTime":2,"walkDistance":584.9873007463846,"walkLimitExceeded":false,"elevationLost":0.0,"elevationGained":0.0,"transfers":0,"legs":[{"startTime":1522714147000,"endTime":1522714499000,"departureDelay":0,"arrivalDelay":0,"realTime":false,"distance":446.22700000000003,"pathway":false,"mode":"WALK","route":"","agencyTimeZoneOffset":-14400000,"interlineWithPreviousLeg":false,"from":{"name":"Origin","lon":-71.06780399,"lat":48.426013,"departure":1522714147000,"orig":"","vertexType":"NORMAL"},"to":{"name":"Terminus Chicoutimi","stopId":"1:1289","stopCode":"1289","lon":-71.066163,"lat":48.428677,"arrival":1522714499000,"departure":1522714500000,"zoneId":"NA","stopIndex":0,"stopSequence":1,"vertexType":"TRANSIT"},"legGeometry":{"points":"qeqfHxlwpLHyDq@GiAKIAJeEkCQQAsBIc@MKESAcAK","length":13},"rentedBike":false,"transitLeg":false,"duration":352.0,"steps":[{"distance":68.96,"relativeDirection":"DEPART","streetName":"Rue Blanchette","absoluteDirection":"EAST","stayOn":false,"area":false,"bogusName":false,"lon":-71.06780379988408,"lat":48.42601469276569,"elevation":[]},{"distance":74.444,"relativeDirection":"LEFT","streetName":"Rue Lemieux","absoluteDirection":"NORTH","stayOn":false,"area":false,"bogusName":false,"lon":-71.0668718,"lat":48.425968600000004,"elevation":[]},{"distance":73.11,"relativeDirection":"RIGHT","streetName":"Rue Jacques-Cartier Est","absoluteDirection":"EAST","stayOn":false,"area":false,"bogusName":false,"lon":-71.0667645,"lat":48.4266343,"elevation":[]},{"distance":229.713,"relativeDirection":"LEFT","streetName":"Rue Morin","absoluteDirection":"NORTH","stayOn":false,"area":false,"bogusName":false,"lon":-71.0657774,"lat":48.426577300000005,"elevation":[]}]},{"startTime":1522714500000,"endTime":1522715068000,"departureDelay":0,"arrivalDelay":0,"realTime":false,"distance":3453.8411754787335,"pathway":false,"mode":"BUS","route":"24","agencyName":"Société de Transport du Saguenay","agencyUrl":"http://ville.saguenay.ca/fr/services-aux-citoyens/transport-sts","agencyTimeZoneOffset":-14400000,"routeColor":"00FF00","routeType":3,"routeId":"1:24","routeTextColor":"000000","interlineWithPreviousLeg":false,"tripBlockId":"5","headsign":"Terminus Chicoutimi","agencyId":"0","tripId":"1:217277","serviceDate":"20180402","from":{"name":"Terminus Chicoutimi","stopId":"1:1289","stopCode":"1289","lon":-71.066163,"lat":48.428677,"arrival":1522714499000,"departure":1522714500000,"zoneId":"NA","stopIndex":0,"stopSequence":1,"vertexType":"TRANSIT"},"to":{"name":"Thibeault / Diamant","stopId":"1:815","stopCode":"815","lon":-71.042731,"lat":48.446755,"arrival":1522715068000,"departure":1522715069000,"zoneId":"NA","stopIndex":11,"stopSequence":12,"vertexType":"TRANSIT"},"legGeometry":{"points":"evqfHzcwpLg@?EhBO~GoBKCp@O\\WjGOfGCRK^KJMHQB_AMg@Gm\\wO]i@wAyA_@WUKMEwEm@Js@Da@??@@??@?@???@???@?@??A@???@A@??A@??A@A??@A?A??@A?A?A?A@A?A???A?A?A???A?A?A?A???A?AAA?A???AAA?A??AA?AA??AA??A??AA??A??AA?A???A????q@C{AAaB?mAEcAGs@OoAa@sB[kAYcASq@Ok@Qq@Ku@MoBKmAa@eHi@FKC_@I??iE}Ah@}DH}@?c@Ea@[_BA?My@Cm@?Y@g@Hu@b@sD\\_DBSyHsC_@MBQA}@IwAUoAcAkCWo@qDgJg@cBk@uBi@sC]aCWwCiKuDwQuGDWbAoGV{AxG~B","length":145},"routeShortName":"24","routeLongName":"Saint-Luc","rentedBike":false,"transitLeg":true,"duration":568.0,"steps":[]},{"startTime":1522715069000,"endTime":1522715183000,"departureDelay":0,"arrivalDelay":0,"realTime":false,"distance":138.59,"pathway":false,"mode":"WALK","route":"","agencyTimeZoneOffset":-14400000,"interlineWithPreviousLeg":false,"from":{"name":"Thibeault / Diamant","stopId":"1:815","stopCode":"815","lon":-71.042731,"lat":48.446755,"arrival":1522715068000,"departure":1522715069000,"zoneId":"NA","stopIndex":11,"stopSequence":12,"vertexType":"TRANSIT"},"to":{"name":"Destination","lon":-71.042162,"lat":48.445968,"arrival":1522715183000,"orig":"","vertexType":"NORMAL"},"legGeometry":{"points":"agufHrorpLLD`@_DBY~AZB?","length":6},"rentedBike":false,"transitLeg":false,"duration":114.0,"steps":[{"distance":9.031,"relativeDirection":"DEPART","streetName":"Rue Thibeault","absoluteDirection":"SOUTH","stayOn":false,"area":false,"bogusName":false,"lon":-71.04265067831268,"lat":48.446737444504414,"elevation":[]},{"distance":72.026,"relativeDirection":"LEFT","streetName":"Rue du Diamant","absoluteDirection":"EAST","stayOn":false,"area":false,"bogusName":false,"lon":-71.04268900000001,"lat":48.446660300000005,"elevation":[]},{"distance":57.533,"relativeDirection":"RIGHT","streetName":"Rue Gouin","absoluteDirection":"SOUTH","stayOn":false,"area":false,"bogusName":false,"lon":-71.041752,"lat":48.446479700000005,"elevation":[]}]}],"tooSloped":false}]},"debugOutput":{"precalculationTime":32,"pathCalculationTime":61,"pathTimes":[22,19,20],"renderingTime":0,"totalTime":93,"timedOut":false},"elevationMetadata":{"ellipsoidToGeoidDifference":-28.885904201182168,"geoidElevation":false}}