{"requestParameters":{"date":"2018/04/02","walkSpeed":"1.33","walkReluctance":"2.0","fromPlace":"48.44602,-71.038702","maxWalkDistance":"3000","waitReluctance":"1.0","carSpeed":"33","numItineraries":"3","waitAtBeginningFactor":"0.4","mode":"TRANSIT,WALK","ignoreRealtimeUpdates":"false","stairsReluctance":"2.0","toPlace":"48.444119,-71.080494","time":"15:0:00"},"plan":{"date":1522695600000,"from":{"name":"Origin","lon":-71.038702,"lat":48.44602,"orig":"","vertexType":"NORMAL"},"to":{"name":"Destination","lon":-71.080494,"lat":48.444119,"orig":"","vertexType":"NORMAL"},"itineraries":[{"duration":2207,"startTime":1522696074000,"endTime":1522698281000,"walkTime":1738,"transitTime":467,"waitingTime":2,"walkDistance":2249.3393383366574,"walkLimitExceeded":false,"elevationLost":0.0,"elevationGained":0.0,"transfers":0,"legs":[{"startTime":1522696074000,"endTime":1522697292000,"departureDelay":0,"arrivalDelay":0,"realTime":false,"distance":1569.5580000000002,"pathway":false,"mode":"WALK","route":"","agencyTimeZoneOffset":-14400000,"interlineWithPreviousLeg":false,"from":{"name":"Origin","lon":-71.038702,"lat":48.44602,"departure":1522696074000,"orig":"","vertexType":"NORMAL"},"to":{"name":"Guy / Vimy","stopId":"1:756","stopCode":"756","lon":-71.0539,"lat":48.4522,"arrival":1522697292000,"departure":1522697293000,"zoneId":"NA","stopIndex":20,"stopSequence":21,"vertexType":"TRANSIT"},"legGeometry":{"points":"kcufHhxqpLEESM}@c@Kr@ERCTAF?J?N@L@N@^Bb@Dp@}@BWa@K{@U]u@_@k@tEGNQp@}@bGW`BcAdGG^I`@gBpKU~Aq@UMFKBWD_@BMFK`@YfBKrAw@pFW|Aq@~EkArIKp@Oz@w@tFsAi@","length":47},"rentedBike":false,"transitLeg":false,"duration":1218.0,"steps":[{"distance":53.734,"relativeDirection":"DEPART","streetName":"Rue Gouin","absoluteDirection":"NORTHEAST","stayOn":false,"area":false,"bogusName":false,"lon":-71.0389260514698,"lat":48.44614518446753,"elevation":[]},{"distance":105.013,"relativeDirection":"LEFT","streetName":"Rue du Diamant","absoluteDirection":"WEST","stayOn":false,"area":false,"bogusName":false,"lon":-71.03864320000001,"lat":48.446588600000005,"elevation":[]},{"distance":206.755,"relativeDirection":"RIGHT","streetName":"path","absoluteDirection":"NORTH","stayOn":false,"area":false,"bogusName":true,"lon":-71.0400302,"lat":48.446626,"elevation":[]},{"distance":495.16499999999996,"relativeDirection":"CONTINUE","streetName":"Rue Adam","absoluteDirection":"NORTHWEST","stayOn":false,"area":false,"bogusName":false,"lon":-71.04034370000001,"lat":48.447717700000005,"elevation":[]},{"distance":660.5189999999999,"relativeDirection":"RIGHT","streetName":"Rue de Vimy","absoluteDirection":"NORTH","stayOn":false,"area":false,"bogusName":false,"lon":-71.0465923,"lat":48.4493377,"elevation":[]},{"distance":48.372,"relativeDirection":"RIGHT","streetName":"Rue Guy","absoluteDirection":"NORTH","stayOn":false,"area":false,"bogusName":false,"lon":-71.054021,"lat":48.4517681,"elevation":[]}]},{"startTime":1522697293000,"endTime":1522697760000,"departureDelay":0,"arrivalDelay":0,"realTime":false,"distance":2578.80070532822,"pathway":false,"mode":"BUS","route":"22","agencyName":"Société de Transport du Saguenay","agencyUrl":"http://ville.saguenay.ca/fr/services-aux-citoyens/transport-sts","agencyTimeZoneOffset":-14400000,"routeColor":"C0C000","routeType":3,"routeId":"1:22","routeTextColor":"000000","interlineWithPreviousLeg":false,"tripBlockId":"3","headsign":"Terminus Chicoutimi","agencyId":"0","tripId":"1:217204","serviceDate":"20180402","from":{"name":"Guy / Vimy","stopId":"1:756","stopCode":"756","lon":-71.0539,"lat":48.4522,"arrival":1522697292000,"departure":1522697293000,"zoneId":"NA","stopIndex":20,"stopSequence":21,"vertexType":"TRANSIT"},"to":{"name":"Champs / Victor","stopId":"1:769","stopCode":"769","lon":-71.07274,"lat":48.442642,"arrival":1522697760000,"departure":1522697761000,"zoneId":"NA","stopIndex":33,"stopSequence":34,"vertexType":"TRANSIT"},"legGeometry":{"points":"civfHjutpLrAh@uCvSeA|He@hCo@|AiBbD~@^|IrDhAb@qAfJSzAMr@Yz@xAhDFNpBdFRp@Hl@Jz@BXXrCHl@Lh@Nf@r@nAr@r@`@PLFbAVH_AXeC@IdB_Mh@_EJk@x@x@bA`A|BrBnDrCl@f@|BlBrAbAj@d@ZTXNd@@lA[ZxDN|Ad@fAz@tB~AzDZ|@","length":54},"routeShortName":"22","routeLongName":"Vanier","rentedBike":false,"transitLeg":true,"duration":467.0,"steps":[]},{"startTime":1522697761000,"endTime":1522698281000,"departureDelay":0,"arrivalDelay":0,"realTime":false,"distance":679.4959999999999,"pathway":false,"mode":"WALK","route":"","agencyTimeZoneOffset":-14400000,"interlineWithPreviousLeg":false,"from":{"name":"Champs / Victor","stopId":"1:769","stopCode":"769","lon":-71.07274,"lat":48.442642,"arrival":1522697760000,"departure":1522697761000,"zoneId":"NA","stopIndex":33,"stopSequence":34,"vertexType":"TRANSIT"},"to":{"name":"Destination","lon":-71.080494,"lat":48.444119,"arrival":1522698281000,"orig":"","vertexType":"NORMAL"},"legGeometry":{"points":"cmtfHhkxpLrAjDt@lBRRsAhC_DbG}@vBiAhDgBxGmAhE","length":10},"rentedBike":false,"transitLeg":false,"duration":520.0,"steps":[{"distance":143.206,"relativeDirection":"DEPART","streetName":"Rue des Champs","absoluteDirection":"SOUTHWEST","stayOn":false,"area":false,"bogusName":false,"lon":-71.07268048433089,"lat":48.44258835732402,"elevation":[]},{"distance":536.29,"relativeDirection":"RIGHT","streetName":"Boulevard Sainte-Geneviève","absoluteDirection":"NORTHWEST","stayOn":false,"area":false,"bogusName":false,"lon":-71.07419630000001,"lat":48.441794200000004,"elevation":[]}]}],"tooSloped":false},{"duration":2140,"startTime":1522696779000,"endTime":1522698919000,"walkTime":450,"transitTime":1688,"waitingTime":2,"walkDistance":571.38399247646,"walkLimitExceeded":false,"elevationLost":0.0,"elevationGained":0.0,"transfers":0,"legs":[{"startTime":1522696779000,"endTime":1522697067000,"departureDelay":0,"arrivalDelay":0,"realTime":false,"distance":367.92500000000007,"pathway":false,"mode":"WALK","route":"","agencyTimeZoneOffset":-14400000,"interlineWithPreviousLeg":false,"from":{"name":"Origin","lon":-71.038702,"lat":48.44602,"departure":1522696779000,"orig":"","vertexType":"NORMAL"},"to":{"name":"Thibeault / Diamant","stopId":"1:815","stopCode":"815","lon":-71.042731,"lat":48.446755,"arrival":1522697067000,"departure":1522697068000,"zoneId":"NA","stopIndex":11,"stopSequence":12,"vertexType":"TRANSIT"},"legGeometry":{"points":"kcufHhxqpLEESM}@c@Kr@ERCTAF?J?N@L@N@^Bb@Dp@LvCL|C@`@CXa@~CME","length":21},"rentedBike":false,"transitLeg":false,"duration":288.0,"steps":[{"distance":53.734,"relativeDirection":"DEPART","streetName":"Rue Gouin","absoluteDirection":"NORTHEAST","stayOn":false,"area":false,"bogusName":false,"lon":-71.0389260514698,"lat":48.44614518446753,"elevation":[]},{"distance":305.16,"relativeDirection":"LEFT","streetName":"Rue du Diamant","absoluteDirection":"WEST","stayOn":false,"area":false,"bogusName":false,"lon":-71.03864320000001,"lat":48.446588600000005,"elevation":[]},{"distance":9.031,"relativeDirection":"RIGHT","streetName":"Rue Thibeault","absoluteDirection":"NORTH","stayOn":false,"area":false,"bogusName":false,"lon":-71.04268900000001,"lat":48.446660300000005,"elevation":[]}]},{"startTime":1522697068000,"endTime":1522698060000,"departureDelay":0,"arrivalDelay":0,"realTime":false,"distance":6588.5774131796825,"pathway":false,"mode":"BUS","route":"24","agencyName":"Société de Transport du Saguenay","agencyUrl":"http://ville.saguenay.ca/fr/services-aux-citoyens/transport-sts","agencyTimeZoneOffset":-14400000,"routeColor":"00FF00","routeType":3,"routeId":"1:24","routeTextColor":"000000","interlineWithPreviousLeg":false,"tripBlockId":"5","headsign":"Terminus Chicoutimi","agencyId":"0","tripId":"1:217267","serviceDate":"20180402","from":{"name":"Thibeault / Diamant","stopId":"1:815","stopCode":"815","lon":-71.042731,"lat":48.446755,"arrival":1522697067000,"departure":1522697068000,"zoneId":"NA","stopIndex":11,"stopSequence":12,"vertexType":"TRANSIT"},"to":{"name":"Terminus Chicoutimi","stopId":"1:1289","stopCode":"1289","lon":-71.066163,"lat":48.428677,"arrival":1522698060000,"departure":1522698300000,"zoneId":"NA","stopIndex":35,"stopSequence":36,"vertexType":"TRANSIT"},"legGeometry":{"points":"cgufHrorpLPFhCdAn@Lx@BxA]QeDI}AzAW~ASQoDg@eKG{A?_@?m@?i@LeCJkAd@yGxAqSBs@p@^VRPRbF~FlCxBxB|B~JjK`IjIRPb@^r@d@rAp@\\T\\ZNVRd@J\\Nd@Hf@F`@@DFr@LtAJpB@jAAt@ObEIzAKbBUrBMp@Sn@gAlCk@pAw@fCwB|HCNk@jCeDuAq@UC?mG_CaHiCsJqD_A]VvC\\`Ch@rCj@tBf@bBxDxJN\\bAjCTnAHvA@|@CPIpAe@pDUfBCTEXK~@MxAEn@@v@Bp@Dr@l@~HNlAH\\@HLd@\\z@Xd@X\\RTXRr@Zn@PfExAvDpALnBJt@Pp@Nj@l@tBHZPn@`@rBNnAFr@DbA?bB@jABzA?p@A???A???A?A???A@??A?A@??A@?@A??@A@???@A@?@?@A@?@?@?@?@???@?@?@?@?@?@@@?@?@@@?@@@?@@@?@@?@@??@@@?E`@Kr@]rACVEl@I|AAr@JbAWJe@FUAM?a@Ke@YYWWa@v@}@RQPMz@k@tAe@REZG^Af@@X@VF`@Jn@XbClAr@Xt\\`PrAb@pA^hBTjAFj@Pb@JPHLLJNJRFXDT?X?ZEVEVKTMNMHMFOB}DWSGOSYcAN}FFkAF}DJyDPwGvAHN_HDiB@m@","length":232},"routeShortName":"24","routeLongName":"Saint-Luc","rentedBike":false,"transitLeg":true,"duration":992.0,"steps":[]},{"startTime":1522698300000,"endTime":1522698756000,"departureDelay":0,"arrivalDelay":0,"realTime":false,"distance":2130.322985965611,"pathway":false,"mode":"BUS","route":"23","agencyName":"Société de Transport du Saguenay","agencyUrl":"http://ville.saguenay.ca/fr/services-aux-citoyens/transport-sts","agencyTimeZoneOffset":-14400000,"routeColor":"FF00FF","routeType":3,"routeId":"1:23","routeTextColor":"FFFFFF","interlineWithPreviousLeg":true,"tripBlockId":"5","headsign":"Terminus Chicoutimi","agencyId":"0","tripId":"1:217268","serviceDate":"20180402","from":{"name":"Terminus Chicoutimi","stopId":"1:1289","stopCode":"1289","lon":-71.066163,"lat":48.428677,"arrival":1522698060000,"departure":1522698300000,"zoneId":"NA","stopIndex":0,"stopSequence":1,"vertexType":"TRANSIT"},"to":{"name":"Place de la Colline (boul. Ste-Geneviève)","stopId":"1:706","stopCode":"706","lon":-71.080094,"lat":48.44485,"arrival":1522698756000,"departure":1522698757000,"zoneId":"NA","stopIndex":2,"stopSequence":3,"vertexType":"TRANSIT"},"legGeometry":{"points":"kwqfHjbwpLF_CkAOYCm@rRO\\WjGOfGCRK^KJMHQB_AMg@Gw`@eR}@g@u@Su@Ia@Ck@Dm@HwAf@c@VeAx@iAlAU^[d@eLtTsAvB_CvEuAnCmBlE}@|B_BvFoC`J","length":36},"routeShortName":"23","routeLongName":"Côte Verdun via Aréna du Plateau","rentedBike":false,"transitLeg":true,"duration":456.0,"steps":[]},{"startTime":1522698757000,"endTime":1522698919000,"departureDelay":0,"arrivalDelay":0,"realTime":false,"distance":203.312,"pathway":false,"mode":"WALK","route":"","agencyTimeZoneOffset":-14400000,"interlineWithPreviousLeg":false,"from":{"name":"Place de la Colline (boul. Ste-Geneviève)","stopId":"1:706","stopCode":"706","lon":-71.080094,"lat":48.44485,"arrival":1522698756000,"departure":1522698757000,"zoneId":"NA","stopIndex":2,"stopSequence":3,"vertexType":"TRANSIT"},"to":{"name":"Destination","lon":-71.080494,"lat":48.444119,"arrival":1522698919000,"orig":"","vertexType":"NORMAL"},"legGeometry":{"points":"a{tfHxyypLdBkFPRmAhE","length":4},"rentedBike":false,"transitLeg":false,"duration":162.0,"steps":[{"distance":103.974,"relativeDirection":"DEPART","streetName":"Boulevard Sainte-Geneviève","absoluteDirection":"SOUTHEAST","stayOn":false,"area":false,"bogusName":false,"lon":-71.08012797466124,"lat":48.44481509343017,"elevation":[]},{"distance":99.338,"relativeDirection":"UTURN_RIGHT","streetName":"Boulevard Sainte-Geneviève","absoluteDirection":"NORTHWEST","stayOn":true,"area":false,"bogusName":false,"lon":-71.0790497,"lat":48.4442132,"elevation":[]}]}],"tooSloped":false},{"duration":2003,"startTime":1522698579000,"endTime":1522700582000,"walkTime":450,"transitTime":1551,"waitingTime":2,"walkDistance":571.38399247646,"walkLimitExceeded":false,"elevationLost":0.0,"elevationGained":0.0,"transfers":0,"legs":[{"startTime":1522698579000,"endTime":1522698867000,"departureDelay":0,"arrivalDelay":0,"realTime":false,"distance":367.92500000000007,"pathway":false,"mode":"WALK","route":"","agencyTimeZoneOffset":-14400000,"interlineWithPreviousLeg":false,"from":{"name":"Origin","lon":-71.038702,"lat":48.44602,"departure":1522698579000,"orig":"","vertexType":"NORMAL"},"to":{"name":"Thibeault / Diamant","stopId":"1:815","stopCode":"815","lon":-71.042731,"lat":48.446755,"arrival":1522698867000,"departure":1522698868000,"zoneId":"NA","stopIndex":11,"stopSequence":12,"vertexType":"TRANSIT"},"legGeometry":{"points":"kcufHhxqpLEESM}@c@Kr@ERCTAF?J?N@L@N@^Bb@Dp@LvCL|C@`@CXa@~CME","length":21},"rentedBike":false,"transitLeg":false,"duration":288.0,"steps":[{"distance":53.734,"relativeDirection":"DEPART","streetName":"Rue Gouin","absoluteDirection":"NORTHEAST","stayOn":false,"area":false,"bogusName":false,"lon":-71.0389260514698,"lat":48.44614518446753,"elevation":[]},{"distance":305.16,"relativeDirection":"LEFT","streetName":"Rue du Diamant","absoluteDirection":"WEST","stayOn":false,"area":false,"bogusName":false,"lon":-71.03864320000001,"lat":48.446588600000005,"elevation":[]},{"distance":9.031,"relativeDirection":"RIGHT","streetName":"Rue Thibeault","absoluteDirection":"NORTH","stayOn":false,"area":false,"bogusName":false,"lon":-71.04268900000001,"lat":48.446660300000005,"elevation":[]}]},{"startTime":1522698868000,"endTime":1522699860000,"departureDelay":0,"arrivalDelay":0,"realTime":false,"distance":6588.5774131796825,"pathway":false,"mode":"BUS","route":"24","agencyName":"Société de Transport du Saguenay","agencyUrl":"http://ville.saguenay.ca/fr/services-aux-citoyens/transport-sts","agencyTimeZoneOffset":-14400000,"routeColor":"00FF00","routeType":3,"routeId":"1:24","routeTextColor":"000000","interlineWithPreviousLeg":false,"tripBlockId":"4","headsign":"Terminus Chicoutimi","agencyId":"0","tripId":"1:217241","serviceDate":"20180402","from":{"name":"Thibeault / Diamant","stopId":"1:815","stopCode":"815","lon":-71.042731,"lat":48.446755,"arrival":1522698867000,"departure":1522698868000,"zoneId":"NA","stopIndex":11,"stopSequence":12,"vertexType":"TRANSIT"},"to":{"name":"Terminus Chicoutimi","stopId":"1:1289","stopCode":"1289","lon":-71.066163,"lat":48.428677,"arrival":1522699860000,"departure":1522700100000,"zoneId":"NA","stopIndex":35,"stopSequence":36,"vertexType":"TRANSIT"},"legGeometry":{"points":"cgufHrorpLPFhCdAn@Lx@BxA]QeDI}AzAW~ASQoDg@eKG{A?_@?m@?i@LeCJkAd@yGxAqSBs@p@^VRPRbF~FlCxBxB|B~JjK`IjIRPb@^r@d@rAp@\\T\\ZNVRd@J\\Nd@Hf@F`@@DFr@LtAJpB@jAAt@ObEIzAKbBUrBMp@Sn@gAlCk@pAw@fCwB|HCNk@jCeDuAq@UC?mG_CaHiCsJqD_A]VvC\\`Ch@rCj@tBf@bBxDxJN\\bAjCTnAHvA@|@CPIpAe@pDUfBCTEXK~@MxAEn@@v@Bp@Dr@l@~HNlAH\\@HLd@\\z@Xd@X\\RTXRr@Zn@PfExAvDpALnBJt@Pp@Nj@l@tBHZPn@`@rBNnAFr@DbA?bB@jABzA?p@A???A???A?A???A@??A?A@??A@?@A??@A@???@A@?@?@A@?@?@?@?@???@?@?@?@?@?@@@?@?@@@?@@@?@@@?@@?@@??@@@?E`@Kr@]rACVEl@I|AAr@JbAWJe@FUAM?a@Ke@YYWWa@v@}@RQPMz@k@tAe@REZG^Af@@X@VF`@Jn@XbClAr@Xt\\`PrAb@pA^hBTjAFj@Pb@JPHLLJNJRFXDT?X?ZEVEVKTMNMHMFOB}DWSGOSYcAN}FFkAF}DJyDPwGvAHN_HDiB@m@","length":232},"routeShortName":"24","routeLongName":"Saint-Luc","rentedBike":false,"transitLeg":true,"duration":992.0,"steps":[]},{"startTime":1522700100000,"endTime":1522700419000,"departureDelay":0,"arrivalDelay":0,"realTime":false,"distance":2130.322985965611,"pathway":false,"mode":"BUS","route":"23","agencyName":"Société de Transport du Saguenay","agencyUrl":"http://ville.saguenay.ca/fr/services-aux-citoyens/transport-sts","agencyTimeZoneOffset":-14400000,"routeColor":"FF00FF","routeType":3,"routeId":"1:23","routeTextColor":"FFFFFF","interlineWithPreviousLeg":true,"tripBlockId":"4","headsign":"Terminus Chicoutimi","agencyId":"0","tripId":"1:217242","serviceDate":"20180402","from":{"name":"Terminus Chicoutimi","stopId":"1:1289","stopCode":"1289","lon":-71.066163,"lat":48.428677,"arrival":1522699860000,"departure":1522700100000,"zoneId":"NA","stopIndex":0,"stopSequence":1,"vertexType":"TRANSIT"},"to":{"name":"Place de la Colline (boul. Ste-Geneviève)","stopId":"1:706","stopCode":"706","lon":-71.080094,"lat":48.44485,"arrival":1522700419000,"departure":1522700420000,"zoneId":"NA","stopIndex":2,"stopSequence":3,"vertexType":"TRANSIT"},"legGeometry":{"points":"kwqfHjbwpLF_CkAOYCm@rRO\\WjGOfGCRK^KJMHQB_AMg@Gw`@eR}@g@u@Su@Ia@Ck@Dm@HwAf@c@VeAx@iAlAU^[d@eLtTsAvB_CvEuAnCmBlE}@|B_BvFoC`J","length":36},"routeShortName":"23","routeLongName":"Côte Verdun via Aréna du Plateau","rentedBike":false,"transitLeg":true,"duration":319.0,"steps":[]},{"startTime":1522700420000,"endTime":1522700582000,"departureDelay":0,"arrivalDelay":0,"realTime":false,"distance":203.312,"pathway":false,"mode":"WALK","route":"","agencyTimeZoneOffset":-14400000,"interlineWithPreviousLeg":false,"from":{"name":"Place de la Colline (boul. Ste-Geneviève)","stopId":"1:706","stopCode":"706","lon":-71.080094,"lat":48.44485,"arrival":1522700419000,"departure":1522700420000,"zoneId":"NA","stopIndex":2,"stopSequence":3,"vertexType":"TRANSIT"},"to":{"name":"Destination","lon":-71.080494,"lat":48.444119,"arrival":1522700582000,"orig":"","vertexType":"NORMAL"},"legGeometry":{"points":"a{tfHxyypLdBkFPRmAhE","length":4},"rentedBike":false,"transitLeg":false,"duration":162.0,"steps":[{"distance":103.974,"relativeDirection":"DEPART","streetName":"Boulevard Sainte-Geneviève","absoluteDirection":"SOUTHEAST","stayOn":false,"area":false,"bogusName":false,"lon":-71.08012797466124,"lat":48.44481509343017,"elevation":[]},{"distance":99.338,"relativeDirection":"UTURN_RIGHT","streetName":"Boulevard Sainte-Geneviève","absoluteDirection":"NORTHWEST","stayOn":true,"area":false,"bogusName":false,"lon":-71.0790497,"lat":48.4442132,"elevation":[]}]}],"tooSloped":false}]},"debugOutput":{"precalculationTime":16,"pathCalculationTime":23,"pathTimes":[15,4,4],"renderingTime":0,"totalTime":39,"timedOut":false},"elevationMetadata":{"ellipsoidToGeoidDifference":-28.885904201182168,"geoidElevation":false}}