{"requestParameters":{"date":"2018/04/02","walkSpeed":"1.33","walkReluctance":"2.0","fromPlace":"48.443713,-71.068053","maxWalkDistance":"3000","waitReluctance":"1.0","carSpeed":"33","numItineraries":"3","waitAtBeginningFactor":"0.4","mode":"TRANSIT,WALK","ignoreRealtimeUpdates":"false","stairsReluctance":"2.0","toPlace":"48.450037,-71.048749","time":"12:0:00"},"plan":{"date":1522684800000,"from":{"name":"Origin","lon":-71.068053,"lat":48.443713,"orig":"","vertexType":"NORMAL"},"to":{"name":"Destination","lon":-71.048749,"lat":48.450037,"orig":"","vertexType":"NORMAL"},"itineraries":[{"duration":1357,"startTime":1522685179000,"endTime":1522686536000,"walkTime":1066,"transitTime":289,"waitingTime":2,"walkDistance":1371.1109699187466,"walkLimitExceeded":false,"elevationLost":0.0,"elevationGained":0.0,"transfers":0,"legs":[{"startTime":1522685179000,"endTime":1522685939000,"departureDelay":0,"arrivalDelay":0,"realTime":false,"distance":973.4350000000001,"pathway":false,"mode":"WALK","route":"","agencyTimeZoneOffset":-14400000,"interlineWithPreviousLeg":false,"from":{"name":"Origin","lon":-71.068053,"lat":48.443713,"departure":1522685179000,"orig":"","vertexType":"NORMAL"},"to":{"name":"Roussel / St-François","stopId":"1:1508","stopCode":"1508","lon":-71.065897,"lat":48.437206,"arrival":1522685939000,"departure":1522685940000,"zoneId":"NA","stopIndex":1,"stopSequence":2,"vertexType":"TRANSIT"},"legGeometry":{"points":"ystfHrpwpL`AY@Y@GBG@IFKDMHGF@lBp@hDnAxDp@\\CfApFlCMb@Vb@{@h@{@Re@Xk@Zm@v@uAvAcCt@y@d@_@J??E@EBC@CBAD?BwC?eAAS","length":36},"rentedBike":false,"transitLeg":false,"duration":760.0,"steps":[{"distance":37.996,"relativeDirection":"DEPART","streetName":"path","absoluteDirection":"SOUTH","stayOn":false,"area":false,"bogusName":false,"lon":-71.06841057285905,"lat":48.44365191196925,"elevation":[]},{"distance":38.33,"relativeDirection":"LEFT","streetName":"Rue Riel","absoluteDirection":"EAST","stayOn":false,"area":false,"bogusName":false,"lon":-71.0682821,"lat":48.443321000000005,"elevation":[]},{"distance":288.789,"relativeDirection":"RIGHT","streetName":"Rue Saint-Nicolas","absoluteDirection":"SOUTH","stayOn":false,"area":false,"bogusName":false,"lon":-71.06785640000001,"lat":48.4431554,"elevation":[]},{"distance":199.08,"relativeDirection":"RIGHT","streetName":"path","absoluteDirection":"SOUTHWEST","stayOn":false,"area":false,"bogusName":true,"lon":-71.06874350000001,"lat":48.4406393,"elevation":[]},{"distance":62.283,"relativeDirection":"LEFT","streetName":"Boulevard Sainte-Geneviève","absoluteDirection":"SOUTHEAST","stayOn":false,"area":false,"bogusName":false,"lon":-71.07000330000001,"lat":48.4393862,"elevation":[]},{"distance":243.155,"relativeDirection":"CONTINUE","streetName":"R 172","absoluteDirection":"SOUTHEAST","stayOn":false,"area":false,"bogusName":true,"lon":-71.0694016,"lat":48.4389935,"elevation":[]},{"distance":14.306,"relativeDirection":"CIRCLE_CLOCKWISE","streetName":"Rue Roussel","absoluteDirection":"SOUTHEAST","exit":"1","stayOn":false,"area":false,"bogusName":false,"lon":-71.0672278,"lat":48.4373869,"elevation":[]},{"distance":89.496,"relativeDirection":"LEFT","streetName":"Rue Roussel","absoluteDirection":"EAST","stayOn":false,"area":false,"bogusName":false,"lon":-71.0671123,"lat":48.437299200000005,"elevation":[]}]},{"startTime":1522685940000,"endTime":1522686229000,"departureDelay":0,"arrivalDelay":0,"realTime":false,"distance":2237.8838675359434,"pathway":false,"mode":"BUS","route":"24","agencyName":"Société de Transport du Saguenay","agencyUrl":"http://ville.saguenay.ca/fr/services-aux-citoyens/transport-sts","agencyTimeZoneOffset":-14400000,"routeColor":"00FF00","routeType":3,"routeId":"1:24","routeTextColor":"000000","interlineWithPreviousLeg":false,"tripBlockId":"5","headsign":"Terminus Chicoutimi","agencyId":"0","tripId":"1:217261","serviceDate":"20180402","from":{"name":"Roussel / St-François","stopId":"1:1508","stopCode":"1508","lon":-71.065897,"lat":48.437206,"arrival":1522685939000,"departure":1522685940000,"zoneId":"NA","stopIndex":1,"stopSequence":2,"vertexType":"TRANSIT"},"to":{"name":"St-Émile / Adam","stopId":"1:813","stopCode":"813","lon":-71.043871,"lat":48.448542,"arrival":1522686229000,"departure":1522686230000,"zoneId":"NA","stopIndex":9,"stopSequence":10,"vertexType":"TRANSIT"},"legGeometry":{"points":"_lsfHz`wpL?mAEcAGs@OoAa@sB[kAYcASq@Ok@Qq@Ku@MoBKmAa@eHi@FKC_@I??iE}Ah@}DH}@?c@Ea@[_BA?My@Cm@?Y@g@Hu@b@sD\\_DBSyHsC_@MBQA}@IwAUoAcAkCWo@qDgJg@cBk@uBi@sC]aCWwCiKuDwQuGDW","length":51},"routeShortName":"24","routeLongName":"Saint-Luc","rentedBike":false,"transitLeg":true,"duration":289.0,"steps":[]},{"startTime":1522686230000,"endTime":1522686536000,"departureDelay":0,"arrivalDelay":0,"realTime":false,"distance":397.48800000000006,"pathway":false,"mode":"WALK","route":"","agencyTimeZoneOffset":-14400000,"interlineWithPreviousLeg":false,"from":{"name":"St-Émile / Adam","stopId":"1:813","stopCode":"813","lon":-71.043871,"lat":48.448542,"arrival":1522686229000,"departure":1522686230000,"zoneId":"NA","stopIndex":9,"stopSequence":10,"vertexType":"TRANSIT"},"to":{"name":"Destination","lon":-71.048749,"lat":48.450037,"arrival":1522686536000,"orig":"","vertexType":"NORMAL"},"legGeometry":{"points":"orufHzwrpLQGI`@gBpKU~AYfBm@~Dc@vC","length":8},"rentedBike":false,"transitLeg":false,"duration":306.0,"steps":[{"distance":11.218,"relativeDirection":"DEPART","streetName":"Rue Saint-Émile","absoluteDirection":"NORTH","stayOn":false,"area":false,"bogusName":false,"lon":-71.04397392618085,"lat":48.448561174335026,"elevation":[]},{"distance":386.27,"relativeDirection":"LEFT","streetName":"Rue Adam","absoluteDirection":"WEST","stayOn":false,"area":false,"bogusName":false,"lon":-71.04393280000001,"lat":48.448658300000005,"elevation":[]}]}],"tooSloped":false},{"duration":1263,"startTime":1522685737000,"endTime":1522687000000,"walkTime":1119,"transitTime":142,"waitingTime":2,"walkDistance":1448.4183082650848,"walkLimitExceeded":false,"elevationLost":0.0,"elevationGained":0.0,"transfers":0,"legs":[{"startTime":1522685737000,"endTime":1522686287000,"departureDelay":0,"arrivalDelay":0,"realTime":false,"distance":717.337,"pathway":false,"mode":"WALK","route":"","agencyTimeZoneOffset":-14400000,"interlineWithPreviousLeg":false,"from":{"name":"Origin","lon":-71.068053,"lat":48.443713,"departure":1522685737000,"orig":"","vertexType":"NORMAL"},"to":{"name":"Cabot / Delisle","stopId":"1:788","stopCode":"788","lon":-71.063276,"lat":48.447779,"arrival":1522686287000,"departure":1522686288000,"zoneId":"NA","stopIndex":11,"stopSequence":12,"vertexType":"TRANSIT"},"legGeometry":{"points":"ystfHrpwpLcAXiA{MIk@GYISIOIKIGKIa@OWIqQeHZ_C","length":14},"rentedBike":false,"transitLeg":false,"duration":550.0,"steps":[{"distance":39.52,"relativeDirection":"DEPART","streetName":"path","absoluteDirection":"NORTH","stayOn":false,"area":false,"bogusName":false,"lon":-71.06841057285905,"lat":48.44365191196925,"elevation":[]},{"distance":628.047,"relativeDirection":"RIGHT","streetName":"Rue Delisle","absoluteDirection":"EAST","stayOn":false,"area":false,"bogusName":false,"lon":-71.0685442,"lat":48.4439961,"elevation":[]},{"distance":49.77,"relativeDirection":"RIGHT","streetName":"Rue Cabot","absoluteDirection":"EAST","stayOn":false,"area":false,"bogusName":false,"lon":-71.06388530000001,"lat":48.4479794,"elevation":[]}]},{"startTime":1522686288000,"endTime":1522686430000,"departureDelay":0,"arrivalDelay":0,"realTime":false,"distance":1030.7174839762913,"pathway":false,"mode":"BUS","route":"23","agencyName":"Société de Transport du Saguenay","agencyUrl":"http://ville.saguenay.ca/fr/services-aux-citoyens/transport-sts","agencyTimeZoneOffset":-14400000,"routeColor":"FF00FF","routeType":3,"routeId":"1:23","routeTextColor":"FFFFFF","interlineWithPreviousLeg":false,"tripBlockId":"4","headsign":"Terminus Chicoutimi","agencyId":"0","tripId":"1:217234","serviceDate":"20180402","from":{"name":"Cabot / Delisle","stopId":"1:788","stopCode":"788","lon":-71.063276,"lat":48.447779,"arrival":1522686287000,"departure":1522686288000,"zoneId":"NA","stopIndex":11,"stopSequence":12,"vertexType":"TRANSIT"},"to":{"name":"Verdun / St-Éloi","stopId":"1:794","stopCode":"794","lon":-71.053519,"lat":48.446152,"arrival":1522686430000,"departure":1522686431000,"zoneId":"NA","stopIndex":16,"stopSequence":17,"vertexType":"TRANSIT"},"legGeometry":{"points":"_nufHhpvpL`AgHz@oGBU?UAWCWUwAWD]B]AUEoAc@kE}AOIq@g@g@u@]w@b@s@T[~CkFf@s@\\e@x@}@jAeAXQZStBaAh@]`@]`@i@l@kD","length":32},"routeShortName":"23","routeLongName":"Côte Verdun via Aréna du Plateau","rentedBike":false,"transitLeg":true,"duration":142.0,"steps":[]},{"startTime":1522686431000,"endTime":1522687000000,"departureDelay":0,"arrivalDelay":0,"realTime":false,"distance":730.9079999999999,"pathway":false,"mode":"WALK","route":"","agencyTimeZoneOffset":-14400000,"interlineWithPreviousLeg":false,"from":{"name":"Verdun / St-Éloi","stopId":"1:794","stopCode":"794","lon":-71.053519,"lat":48.446152,"arrival":1522686430000,"departure":1522686431000,"zoneId":"NA","stopIndex":16,"stopSequence":17,"vertexType":"TRANSIT"},"to":{"name":"Destination","lon":-71.048749,"lat":48.450037,"arrival":1522687000000,"orig":"","vertexType":"NORMAL"},"legGeometry":{"points":"wcufHhstpLDYBYFg@D_@BUDKDCCk@`@cEwBiEI?IKCKS@K?MAIAEAICGIIMs@sAQ]S]SYQUIG[M[Ma@OMC]M}BgAgCwAc@vC","length":36},"rentedBike":false,"transitLeg":false,"duration":569.0,"steps":[{"distance":65.60900000000001,"relativeDirection":"DEPART","streetName":"Rue de Verdun","absoluteDirection":"EAST","stayOn":false,"area":false,"bogusName":false,"lon":-71.05348776384805,"lat":48.4462094810194,"elevation":[]},{"distance":191.388,"relativeDirection":"SLIGHTLY_LEFT","streetName":"path","absoluteDirection":"EAST","stayOn":false,"area":false,"bogusName":true,"lon":-71.05267160000001,"lat":48.446006600000004,"elevation":[]},{"distance":414.088,"relativeDirection":"SLIGHTLY_LEFT","streetName":"Rue Pierre-De La Vérendrye","absoluteDirection":"NORTH","stayOn":false,"area":false,"bogusName":false,"lon":-71.05046250000001,"lat":48.4464551,"elevation":[]},{"distance":59.823,"relativeDirection":"LEFT","streetName":"Rue Adam","absoluteDirection":"WEST","stayOn":false,"area":false,"bogusName":false,"lon":-71.0480732,"lat":48.449695600000005,"elevation":[]}]}],"tooSloped":false},{"duration":1303,"startTime":1522685874000,"endTime":1522687177000,"walkTime":785,"transitTime":516,"waitingTime":2,"walkDistance":1014.0693834536972,"walkLimitExceeded":false,"elevationLost":0.0,"elevationGained":0.0,"transfers":0,"legs":[{"startTime":1522685874000,"endTime":1522685976000,"departureDelay":0,"arrivalDelay":0,"realTime":false,"distance":128.957,"pathway":false,"mode":"WALK","route":"","agencyTimeZoneOffset":-14400000,"interlineWithPreviousLeg":false,"from":{"name":"Origin","lon":-71.068053,"lat":48.443713,"departure":1522685874000,"orig":"","vertexType":"NORMAL"},"to":{"name":"Delisle / Pépin","stopId":"1:100","stopCode":"100","lon":-71.069702,"lat":48.443741,"arrival":1522685976000,"departure":1522685977000,"zoneId":"NA","stopIndex":2,"stopSequence":3,"vertexType":"TRANSIT"},"legGeometry":{"points":"ystfHrpwpLcAXPnBNzB","length":4},"rentedBike":false,"transitLeg":false,"duration":102.0,"steps":[{"distance":39.52,"relativeDirection":"DEPART","streetName":"path","absoluteDirection":"NORTH","stayOn":false,"area":false,"bogusName":false,"lon":-71.06841057285905,"lat":48.44365191196925,"elevation":[]},{"distance":89.437,"relativeDirection":"LEFT","streetName":"Rue Delisle","absoluteDirection":"WEST","stayOn":false,"area":false,"bogusName":false,"lon":-71.0685442,"lat":48.4439961,"elevation":[]}]},{"startTime":1522685977000,"endTime":1522686493000,"departureDelay":0,"arrivalDelay":0,"realTime":false,"distance":3006.184285064941,"pathway":false,"mode":"BUS","route":"22","agencyName":"Société de Transport du Saguenay","agencyUrl":"http://ville.saguenay.ca/fr/services-aux-citoyens/transport-sts","agencyTimeZoneOffset":-14400000,"routeColor":"C0C000","routeType":3,"routeId":"1:22","routeTextColor":"000000","interlineWithPreviousLeg":false,"tripBlockId":"3","headsign":"Terminus Chicoutimi","agencyId":"0","tripId":"1:217198","serviceDate":"20180402","from":{"name":"Delisle / Pépin","stopId":"1:100","stopCode":"100","lon":-71.069702,"lat":48.443741,"arrival":1522685976000,"departure":1522685977000,"zoneId":"NA","stopIndex":2,"stopSequence":3,"vertexType":"TRANSIT"},"to":{"name":"Guy / Vimy","stopId":"1:756","stopCode":"756","lon":-71.0539,"lat":48.4522,"arrival":1522686493000,"departure":1522686494000,"zoneId":"NA","stopIndex":20,"stopSequence":21,"vertexType":"TRANSIT"},"legGeometry":{"points":"yttfHxxwpLSaCmAZe@AYOy@o@MKsAcA}BmBuC}BgA}@}BsBaAaA{@y@d@kDp@uEyIkDqHwC_@QmLyEy@]}I_D\\cDBWwCgAcCy@NoAZoCH{@BaA@}AJuBBYTuBaAa@c@QEEACAG?G?G?KAGgE}HGMGOU{@EOp@m@FIHQFSDW^qDJB`@LHDFFFJ^hAFVDZBXBn@@H@RBLFTHNHHJFLBP@j@OLAJAN@@?l@NTwBDQFMFIJGHCL?H@hGjB`GjBz@VNJJRBTAVQdAn@X","length":96},"routeShortName":"22","routeLongName":"Vanier","rentedBike":false,"transitLeg":true,"duration":516.0,"steps":[]},{"startTime":1522686494000,"endTime":1522687177000,"departureDelay":0,"arrivalDelay":0,"realTime":false,"distance":884.959,"pathway":false,"mode":"WALK","route":"","agencyTimeZoneOffset":-14400000,"interlineWithPreviousLeg":false,"from":{"name":"Guy / Vimy","stopId":"1:756","stopCode":"756","lon":-71.0539,"lat":48.4522,"arrival":1522686493000,"departure":1522686494000,"zoneId":"NA","stopIndex":20,"stopSequence":21,"vertexType":"TRANSIT"},"to":{"name":"Destination","lon":-71.048749,"lat":48.450037,"arrival":1522687177000,"orig":"","vertexType":"NORMAL"},"legGeometry":{"points":"civfHjutpLrAh@v@uFN{@Jq@jAsIp@_FV}Av@qFJsAXgBJa@LG^CVEJCLGp@TYfBm@~Dc@vC","length":21},"rentedBike":false,"transitLeg":false,"duration":683.0,"steps":[{"distance":48.372,"relativeDirection":"DEPART","streetName":"Rue Guy","absoluteDirection":"SOUTH","stayOn":false,"area":false,"bogusName":false,"lon":-71.05381260386507,"lat":48.45218057637361,"elevation":[]},{"distance":660.519,"relativeDirection":"LEFT","streetName":"Rue de Vimy","absoluteDirection":"EAST","stayOn":false,"area":false,"bogusName":false,"lon":-71.054021,"lat":48.4517681,"elevation":[]},{"distance":176.068,"relativeDirection":"RIGHT","streetName":"Rue Adam","absoluteDirection":"WEST","stayOn":false,"area":false,"bogusName":false,"lon":-71.0465923,"lat":48.4493377,"elevation":[]}]}],"tooSloped":false}]},"debugOutput":{"precalculationTime":16,"pathCalculationTime":23,"pathTimes":[15,4,4],"renderingTime":1,"totalTime":40,"timedOut":false},"elevationMetadata":{"ellipsoidToGeoidDifference":-28.885904201182168,"geoidElevation":false}}