{"requestParameters":{"date":"2018/04/02","walkSpeed":"1.33","walkReluctance":"2.0","fromPlace":"48.418311,-71.070214","maxWalkDistance":"3000","waitReluctance":"1.0","carSpeed":"33","numItineraries":"3","waitAtBeginningFactor":"0.4","mode":"TRANSIT,WALK","ignoreRealtimeUpdates":"false","stairsReluctance":"2.0","toPlace":"48.43942,-71.046753","time":"15:0:00"},"plan":{"date":1522695600000,"from":{"name":"Origin","lon":-71.070214,"lat":48.418311,"orig":"","vertexType":"NORMAL"},"to":{"name":"Destination","lon":-71.046753,"lat":48.43942,"orig":"","vertexType":"NORMAL"},"itineraries":[{"duration":2103,"startTime":1522697040000,"endTime":1522699143000,"walkTime":1677,"transitTime":424,"waitingTime":2,"walkDistance":2145.7113383350447,"walkLimitExceeded":false,"elevationLost":0.0,"elevationGained":0.0,"transfers":0,"legs":[{"startTime":1522697040000,"endTime":1522698179000,"departureDelay":0,"arrivalDelay":0,"realTime":false,"distance":1466.6560000000004,"pathway":false,"mode":"WALK","route":"","agencyTimeZoneOffset":-14400000,"interlineWithPreviousLeg":false,"from":{"name":"Origin","lon":-71.070214,"lat":48.418311,"departure":1522697040000,"orig":"","vertexType":"NORMAL"},"to":{"name":"Terminus Chicoutimi","stopId":"1:1289","stopCode":"1289","lon":-71.066163,"lat":48.428677,"arrival":1522698179000,"departure":1522698180000,"zoneId":"NA","stopIndex":0,"stopSequence":1,"vertexType":"TRANSIT"},"legGeometry":{"points":"msofH~|wpLDWb@{AZm@Pa@Fm@@QO?c@CW?o@L_@J]DGBy@VYJ{@@e@BiBO]DSCgCQkBOMAQASAs@Eu@EyAGe@C{BOm@Ec@o@MMi@oAaBuDg@eAo@qBk@g@Ao@QG_@C{BUsAGkCQQAsBIc@MKESAcAK","length":51},"rentedBike":false,"transitLeg":false,"duration":1139.0,"steps":[{"distance":111.958,"relativeDirection":"DEPART","streetName":"service road","absoluteDirection":"SOUTHEAST","stayOn":false,"area":false,"bogusName":false,"lon":-71.07039755106835,"lat":48.41799343742718,"elevation":[]},{"distance":142.52,"relativeDirection":"LEFT","streetName":"Rue Jolliet","absoluteDirection":"NORTH","stayOn":false,"area":false,"bogusName":false,"lon":-71.0690988,"lat":48.4175072,"elevation":[]},{"distance":547.586,"relativeDirection":"CONTINUE","streetName":"Rue Sainte-Anne","absoluteDirection":"NORTH","stayOn":false,"area":false,"bogusName":false,"lon":-71.0693796,"lat":48.418765,"elevation":[]},{"distance":272.594,"relativeDirection":"SLIGHTLY_RIGHT","streetName":"path","absoluteDirection":"NORTHEAST","stayOn":false,"area":false,"bogusName":true,"lon":-71.06896330000001,"lat":48.423667200000004,"elevation":[]},{"distance":17.515,"relativeDirection":"RIGHT","streetName":"Rue Price Est","absoluteDirection":"EAST","stayOn":false,"area":false,"bogusName":false,"lon":-71.0662212,"lat":48.425276600000004,"elevation":[]},{"distance":374.483,"relativeDirection":"LEFT","streetName":"Rue Morin","absoluteDirection":"NORTH","stayOn":false,"area":false,"bogusName":false,"lon":-71.06598410000001,"lat":48.4252842,"elevation":[]}]},{"startTime":1522698180000,"endTime":1522698604000,"departureDelay":0,"arrivalDelay":0,"realTime":false,"distance":2240.0045718936785,"pathway":false,"mode":"BUS","route":"25","agencyName":"Société de Transport du Saguenay","agencyUrl":"http://ville.saguenay.ca/fr/services-aux-citoyens/transport-sts","agencyTimeZoneOffset":-14400000,"routeColor":"00FFFF","routeType":3,"routeId":"1:25","routeTextColor":"000000","interlineWithPreviousLeg":false,"tripBlockId":"68","headsign":"Terminus Chicoutimi","agencyId":"0","tripId":"1:218586","serviceDate":"20180402","from":{"name":"Terminus Chicoutimi","stopId":"1:1289","stopCode":"1289","lon":-71.066163,"lat":48.428677,"arrival":1522698179000,"departure":1522698180000,"zoneId":"NA","stopIndex":0,"stopSequence":1,"vertexType":"TRANSIT"},"to":{"name":"boul. Tadoussac (no. 1845)","stopId":"1:810","stopCode":"810","lon":-71.051242,"lat":48.441837,"arrival":1522698604000,"departure":1522698605000,"zoneId":"NA","stopIndex":5,"stopSequence":6,"vertexType":"TRANSIT"},"legGeometry":{"points":"avqfH``wpLc@E@o@kAOYCm@rRO\\WjGOfGCRK^KJMHQB_AMg@Gm\\wO]i@wAyA_@WUKMEwEm@Js@Da@??@@??@?@???@???@?@??A@???@A@??A@??A@A??@A?A??@A?A?A?A@A?A???A?A?A???A?A?A?A???A?AAA?A???AAA?A??AA?AA??AA??A??AA??A??AA?A???A????q@C{AAaB?mAEcAGs@OoAa@sB[kAYcASq@Ok@Qq@Ku@MoBiC}@yBu@AAyBu@o@Qs@[YSSUY]Ye@]{@Me@Kg@K{@CQm@_IEs@Cq@Aw@Do@LyAJ_ADYBUf@wDRaBHqABQA}@IwAUoAcAkCWo@","length":137},"routeShortName":"25","routeLongName":"Valin","rentedBike":false,"transitLeg":true,"duration":424.0,"steps":[]},{"startTime":1522698605000,"endTime":1522699143000,"departureDelay":0,"arrivalDelay":0,"realTime":false,"distance":678.7199999999999,"pathway":false,"mode":"WALK","route":"","agencyTimeZoneOffset":-14400000,"interlineWithPreviousLeg":false,"from":{"name":"boul. Tadoussac (no. 1845)","stopId":"1:810","stopCode":"810","lon":-71.051242,"lat":48.441837,"arrival":1522698604000,"departure":1522698605000,"zoneId":"NA","stopIndex":5,"stopSequence":6,"vertexType":"TRANSIT"},"to":{"name":"Destination","lon":-71.046753,"lat":48.43942,"arrival":1522699143000,"orig":"","vertexType":"NORMAL"},"legGeometry":{"points":"uhtfHpetpLuAkDrA{ApDNOqDTsBl@T\\LZ\\VXVV`@iCLeBfA^d@}DLkA","length":16},"rentedBike":false,"transitLeg":false,"duration":538.0,"steps":[{"distance":79.47,"relativeDirection":"DEPART","streetName":"Boulevard de Tadoussac","absoluteDirection":"NORTHEAST","stayOn":false,"area":false,"bogusName":false,"lon":-71.05128079749537,"lat":48.44187102242561,"elevation":[]},{"distance":266.884,"relativeDirection":"RIGHT","streetName":"path","absoluteDirection":"SOUTHEAST","stayOn":false,"area":false,"bogusName":true,"lon":-71.0504216,"lat":48.4423022,"elevation":[]},{"distance":96.347,"relativeDirection":"RIGHT","streetName":"Rue du Beaujolais","absoluteDirection":"SOUTH","stayOn":false,"area":false,"bogusName":false,"lon":-71.0485709,"lat":48.4409676,"elevation":[]},{"distance":92.711,"relativeDirection":"LEFT","streetName":"path","absoluteDirection":"EAST","stayOn":false,"area":false,"bogusName":true,"lon":-71.0491578,"lat":48.440203600000004,"elevation":[]},{"distance":40.86,"relativeDirection":"RIGHT","streetName":"Rue Saint-Émile","absoluteDirection":"SOUTH","stayOn":false,"area":false,"bogusName":false,"lon":-71.047959,"lat":48.439961200000006,"elevation":[]},{"distance":102.44800000000001,"relativeDirection":"LEFT","streetName":"Rue Olier","absoluteDirection":"EAST","stayOn":false,"area":false,"bogusName":false,"lon":-71.048117,"lat":48.439609000000004,"elevation":[]}]}],"tooSloped":false},{"duration":2247,"startTime":1522697160000,"endTime":1522699407000,"walkTime":1259,"transitTime":986,"waitingTime":2,"walkDistance":1618.1083909723975,"walkLimitExceeded":false,"elevationLost":0.0,"elevationGained":0.0,"transfers":0,"legs":[{"startTime":1522697160000,"endTime":1522698299000,"departureDelay":0,"arrivalDelay":0,"realTime":false,"distance":1466.6560000000004,"pathway":false,"mode":"WALK","route":"","agencyTimeZoneOffset":-14400000,"interlineWithPreviousLeg":false,"from":{"name":"Origin","lon":-71.070214,"lat":48.418311,"departure":1522697160000,"orig":"","vertexType":"NORMAL"},"to":{"name":"Terminus Chicoutimi","stopId":"1:1289","stopCode":"1289","lon":-71.066163,"lat":48.428677,"arrival":1522698299000,"departure":1522698300000,"zoneId":"NA","stopIndex":0,"stopSequence":1,"vertexType":"TRANSIT"},"legGeometry":{"points":"msofH~|wpLDWb@{AZm@Pa@Fm@@QO?c@CW?o@L_@J]DGBy@VYJ{@@e@BiBO]DSCgCQkBOMAQASAs@Eu@EyAGe@C{BOm@Ec@o@MMi@oAaBuDg@eAo@qBk@g@Ao@QG_@C{BUsAGkCQQAsBIc@MKESAcAK","length":51},"rentedBike":false,"transitLeg":false,"duration":1139.0,"steps":[{"distance":111.958,"relativeDirection":"DEPART","streetName":"service road","absoluteDirection":"SOUTHEAST","stayOn":false,"area":false,"bogusName":false,"lon":-71.07039755106835,"lat":48.41799343742718,"elevation":[]},{"distance":142.52,"relativeDirection":"LEFT","streetName":"Rue Jolliet","absoluteDirection":"NORTH","stayOn":false,"area":false,"bogusName":false,"lon":-71.0690988,"lat":48.4175072,"elevation":[]},{"distance":547.586,"relativeDirection":"CONTINUE","streetName":"Rue Sainte-Anne","absoluteDirection":"NORTH","stayOn":false,"area":false,"bogusName":false,"lon":-71.0693796,"lat":48.418765,"elevation":[]},{"distance":272.594,"relativeDirection":"SLIGHTLY_RIGHT","streetName":"path","absoluteDirection":"NORTHEAST","stayOn":false,"area":false,"bogusName":true,"lon":-71.06896330000001,"lat":48.423667200000004,"elevation":[]},{"distance":17.515,"relativeDirection":"RIGHT","streetName":"Rue Price Est","absoluteDirection":"EAST","stayOn":false,"area":false,"bogusName":false,"lon":-71.0662212,"lat":48.425276600000004,"elevation":[]},{"distance":374.483,"relativeDirection":"LEFT","streetName":"Rue Morin","absoluteDirection":"NORTH","stayOn":false,"area":false,"bogusName":false,"lon":-71.06598410000001,"lat":48.4252842,"elevation":[]}]},{"startTime":1522698300000,"endTime":1522699286000,"departureDelay":0,"arrivalDelay":0,"realTime":false,"distance":6440.757259248768,"pathway":false,"mode":"BUS","route":"24","agencyName":"Société de Transport du Saguenay","agencyUrl":"http://ville.saguenay.ca/fr/services-aux-citoyens/transport-sts","agencyTimeZoneOffset":-14400000,"routeColor":"00FF00","routeType":3,"routeId":"1:24","routeTextColor":"000000","interlineWithPreviousLeg":false,"tripBlockId":"4","headsign":"Terminus Chicoutimi","agencyId":"0","tripId":"1:217241","serviceDate":"20180402","from":{"name":"Terminus Chicoutimi","stopId":"1:1289","stopCode":"1289","lon":-71.066163,"lat":48.428677,"arrival":1522698299000,"departure":1522698300000,"zoneId":"NA","stopIndex":0,"stopSequence":1,"vertexType":"TRANSIT"},"to":{"name":"St-Émile / Olier","stopId":"1:826","stopCode":"826","lon":-71.047781,"lat":48.440001,"arrival":1522699286000,"departure":1522699287000,"zoneId":"NA","stopIndex":24,"stopSequence":25,"vertexType":"TRANSIT"},"legGeometry":{"points":"evqfHzcwpLg@?EhBO~GoBKCp@O\\WjGOfGCRK^KJMHQB_AMg@Gm\\wO]i@wAyA_@WUKMEwEm@Js@Da@??@@??@?@???@???@?@??A@???@A@??A@??A@A??@A?A??@A?A?A?A@A?A???A?A?A???A?A?A?A???A?AAA?A???AAA?A??AA?AA??AA??A??AA??A??AA?A???A????q@C{AAaB?mAEcAGs@OoAa@sB[kAYcASq@Ok@Qq@Ku@MoBKmAa@eHi@FKC_@I??iE}Ah@}DH}@?c@Ea@[_BA?My@Cm@?Y@g@Hu@b@sD\\_DBSyHsC_@MBQA}@IwAUoAcAkCWo@qDgJg@cBk@uBi@sC]aCWwCiKuDwQuGDWbAoGV{AxG~BPFhCdAn@Lx@BxA]QeDI}AzAW~ASQoDg@eKG{A?_@?m@?i@LeCJkAd@yGxAqSBs@p@^VRPRbF~FlCxBxB|B~JjK`IjIRPb@^r@d@rAp@\\T\\ZNVRd@J\\Nd@Hf@F`@@DFr@LtAJpB@jAAt@ObEIzAKbBUrBMp@Sn@gAlCk@pAw@fCwB|HCNk@jCeDuAq@UC?mG_C","length":207},"routeShortName":"24","routeLongName":"Saint-Luc","rentedBike":false,"transitLeg":true,"duration":986.0,"steps":[]},{"startTime":1522699287000,"endTime":1522699407000,"departureDelay":0,"arrivalDelay":0,"realTime":false,"distance":151.296,"pathway":false,"mode":"WALK","route":"","agencyTimeZoneOffset":-14400000,"interlineWithPreviousLeg":false,"from":{"name":"St-Émile / Olier","stopId":"1:826","stopCode":"826","lon":-71.047781,"lat":48.440001,"arrival":1522699286000,"departure":1522699287000,"zoneId":"NA","stopIndex":24,"stopSequence":25,"vertexType":"TRANSIT"},"to":{"name":"Destination","lon":-71.046753,"lat":48.43942,"arrival":1522699407000,"orig":"","vertexType":"NORMAL"},"legGeometry":{"points":"e}sfHppspLLDfA^d@}DLkA","length":5},"rentedBike":false,"transitLeg":false,"duration":120.0,"steps":[{"distance":48.848,"relativeDirection":"DEPART","streetName":"Rue Saint-Émile","absoluteDirection":"SOUTH","stayOn":false,"area":false,"bogusName":false,"lon":-71.04792810020074,"lat":48.440030053527494,"elevation":[]},{"distance":102.44800000000001,"relativeDirection":"LEFT","streetName":"Rue Olier","absoluteDirection":"EAST","stayOn":false,"area":false,"bogusName":false,"lon":-71.048117,"lat":48.439609000000004,"elevation":[]}]}],"tooSloped":false},{"duration":2247,"startTime":1522698960000,"endTime":1522701207000,"walkTime":1259,"transitTime":986,"waitingTime":2,"walkDistance":1618.1083909723975,"walkLimitExceeded":false,"elevationLost":0.0,"elevationGained":0.0,"transfers":0,"legs":[{"startTime":1522698960000,"endTime":1522700099000,"departureDelay":0,"arrivalDelay":0,"realTime":false,"distance":1466.6560000000004,"pathway":false,"mode":"WALK","route":"","agencyTimeZoneOffset":-14400000,"interlineWithPreviousLeg":false,"from":{"name":"Origin","lon":-71.070214,"lat":48.418311,"departure":1522698960000,"orig":"","vertexType":"NORMAL"},"to":{"name":"Terminus Chicoutimi","stopId":"1:1289","stopCode":"1289","lon":-71.066163,"lat":48.428677,"arrival":1522700099000,"departure":1522700100000,"zoneId":"NA","stopIndex":0,"stopSequence":1,"vertexType":"TRANSIT"},"legGeometry":{"points":"msofH~|wpLDWb@{AZm@Pa@Fm@@QO?c@CW?o@L_@J]DGBy@VYJ{@@e@BiBO]DSCgCQkBOMAQASAs@Eu@EyAGe@C{BOm@Ec@o@MMi@oAaBuDg@eAo@qBk@g@Ao@QG_@C{BUsAGkCQQAsBIc@MKESAcAK","length":51},"rentedBike":false,"transitLeg":false,"duration":1139.0,"steps":[{"distance":111.958,"relativeDirection":"DEPART","streetName":"service road","absoluteDirection":"SOUTHEAST","stayOn":false,"area":false,"bogusName":false,"lon":-71.07039755106835,"lat":48.41799343742718,"elevation":[]},{"distance":142.52,"relativeDirection":"LEFT","streetName":"Rue Jolliet","absoluteDirection":"NORTH","stayOn":false,"area":false,"bogusName":false,"lon":-71.0690988,"lat":48.4175072,"elevation":[]},{"distance":547.586,"relativeDirection":"CONTINUE","streetName":"Rue Sainte-Anne","absoluteDirection":"NORTH","stayOn":false,"area":false,"bogusName":false,"lon":-71.0693796,"lat":48.418765,"elevation":[]},{"distance":272.594,"relativeDirection":"SLIGHTLY_RIGHT","streetName":"path","absoluteDirection":"NORTHEAST","stayOn":false,"area":false,"bogusName":true,"lon":-71.06896330000001,"lat":48.423667200000004,"elevation":[]},{"distance":17.515,"relativeDirection":"RIGHT","streetName":"Rue Price Est","absoluteDirection":"EAST","stayOn":false,"area":false,"bogusName":false,"lon":-71.0662212,"lat":48.425276600000004,"elevation":[]},{"distance":374.483,"relativeDirection":"LEFT","streetName":"Rue Morin","absoluteDirection":"NORTH","stayOn":false,"area":false,"bogusName":false,"lon":-71.06598410000001,"lat":48.4252842,"elevation":[]}]},{"startTime":1522700100000,"endTime":1522701086000,"departureDelay":0,"arrivalDelay":0,"realTime":false,"distance":6440.757259248768,"pathway":false,"mode":"BUS","route":"24","agencyName":"Société de Transport du Saguenay","agencyUrl":"http://ville.saguenay.ca/fr/services-aux-citoyens/transport-sts","agencyTimeZoneOffset":-14400000,"routeColor":"00FF00","routeType":3,"routeId":"1:24","routeTextColor":"000000","interlineWithPreviousLeg":false,"tripBlockId":"5","headsign":"Terminus Chicoutimi","agencyId":"0","tripId":"1:217269","serviceDate":"20180402","from":{"name":"Terminus Chicoutimi","stopId":"1:1289","stopCode":"1289","lon":-71.066163,"lat":48.428677,"arrival":1522700099000,"departure":1522700100000,"zoneId":"NA","stopIndex":0,"stopSequence":1,"vertexType":"TRANSIT"},"to":{"name":"St-Émile / Olier","stopId":"1:826","stopCode":"826","lon":-71.047781,"lat":48.440001,"arrival":1522701086000,"departure":1522701087000,"zoneId":"NA","stopIndex":24,"stopSequence":25,"vertexType":"TRANSIT"},"legGeometry":{"points":"evqfHzcwpLg@?EhBO~GoBKCp@O\\WjGOfGCRK^KJMHQB_AMg@Gm\\wO]i@wAyA_@WUKMEwEm@Js@Da@??@@??@?@???@???@?@??A@???@A@??A@??A@A??@A?A??@A?A?A?A@A?A???A?A?A???A?A?A?A???A?AAA?A???AAA?A??AA?AA??AA??A??AA??A??AA?A???A????q@C{AAaB?mAEcAGs@OoAa@sB[kAYcASq@Ok@Qq@Ku@MoBKmAa@eHi@FKC_@I??iE}Ah@}DH}@?c@Ea@[_BA?My@Cm@?Y@g@Hu@b@sD\\_DBSyHsC_@MBQA}@IwAUoAcAkCWo@qDgJg@cBk@uBi@sC]aCWwCiKuDwQuGDWbAoGV{AxG~BPFhCdAn@Lx@BxA]QeDI}AzAW~ASQoDg@eKG{A?_@?m@?i@LeCJkAd@yGxAqSBs@p@^VRPRbF~FlCxBxB|B~JjK`IjIRPb@^r@d@rAp@\\T\\ZNVRd@J\\Nd@Hf@F`@@DFr@LtAJpB@jAAt@ObEIzAKbBUrBMp@Sn@gAlCk@pAw@fCwB|HCNk@jCeDuAq@UC?mG_C","length":207},"routeShortName":"24","routeLongName":"Saint-Luc","rentedBike":false,"transitLeg":true,"duration":986.0,"steps":[]},{"startTime":1522701087000,"endTime":1522701207000,"departureDelay":0,"arrivalDelay":0,"realTime":false,"distance":151.296,"pathway":false,"mode":"WALK","route":"","agencyTimeZoneOffset":-14400000,"interlineWithPreviousLeg":false,"from":{"name":"St-Émile / Olier","stopId":"1:826","stopCode":"826","lon":-71.047781,"lat":48.440001,"arrival":1522701086000,"departure":1522701087000,"zoneId":"NA","stopIndex":24,"stopSequence":25,"vertexType":"TRANSIT"},"to":{"name":"Destination","lon":-71.046753,"lat":48.43942,"arrival":1522701207000,"orig":"","vertexType":"NORMAL"},"legGeometry":{"points":"e}sfHppspLLDfA^d@}DLkA","length":5},"rentedBike":false,"transitLeg":false,"duration":120.0,"steps":[{"distance":48.848,"relativeDirection":"DEPART","streetName":"Rue Saint-Émile","absoluteDirection":"SOUTH","stayOn":false,"area":false,"bogusName":false,"lon":-71.04792810020074,"lat":48.440030053527494,"elevation":[]},{"distance":102.44800000000001,"relativeDirection":"LEFT","streetName":"Rue Olier","absoluteDirection":"EAST","stayOn":false,"area":false,"bogusName":false,"lon":-71.048117,"lat":48.439609000000004,"elevation":[]}]}],"tooSloped":false}]},"debugOutput":{"precalculationTime":35,"pathCalculationTime":78,"pathTimes":[33,22,23],"renderingTime":1,"totalTime":114,"timedOut":false},"elevationMetadata":{"ellipsoidToGeoidDifference":-28.885904201182168,"geoidElevation":false}}