{"requestParameters":{"date":"2018/04/02","walkSpeed":"1.33","walkReluctance":"2.0","fromPlace":"48.447101,-71.042228","maxWalkDistance":"3000","waitReluctance":"1.0","carSpeed":"33","numItineraries":"3","waitAtBeginningFactor":"0.4","mode":"TRANSIT,WALK","ignoreRealtimeUpdates":"false","stairsReluctance":"2.0","toPlace":"48.389711,-71.070396","time":"7:30:00"},"plan":{"date":1522668600000,"from":{"name":"Origin","lon":-71.042228,"lat":48.447101,"orig":"","vertexType":"NORMAL"},"to":{"name":"Destination","lon":-71.070396,"lat":48.389711,"orig":"","vertexType":"NORMAL"},"itineraries":[{"duration":2879,"startTime":1522670030000,"endTime":1522672909000,"walkTime":297,"transitTime":2340,"waitingTime":242,"walkDistance":379.6510451105863,"walkLimitExceeded":false,"elevationLost":0.0,"elevationGained":0.0,"transfers":1,"legs":[{"startTime":1522670030000,"endTime":1522670067000,"departureDelay":0,"arrivalDelay":0,"realTime":false,"distance":47.914,"pathway":false,"mode":"WALK","route":"","agencyTimeZoneOffset":-14400000,"interlineWithPreviousLeg":false,"from":{"name":"Origin","lon":-71.042228,"lat":48.447101,"departure":1522670030000,"orig":"","vertexType":"NORMAL"},"to":{"name":"Thibeault / Diamant","stopId":"1:815","stopCode":"815","lon":-71.042731,"lat":48.446755,"arrival":1522670067000,"departure":1522670068000,"zoneId":"NA","stopIndex":11,"stopSequence":12,"vertexType":"TRANSIT"},"legGeometry":{"points":"siufHjnrpLj@Rd@R","length":3},"rentedBike":false,"transitLeg":false,"duration":37.0,"steps":[{"distance":47.914,"relativeDirection":"DEPART","streetName":"Rue Thibeault","absoluteDirection":"SOUTH","stayOn":false,"area":false,"bogusName":false,"lon":-71.04245205954297,"lat":48.44714770817653,"elevation":[]}]},{"startTime":1522670068000,"endTime":1522671060000,"departureDelay":0,"arrivalDelay":0,"realTime":false,"distance":6588.5774131796825,"pathway":false,"mode":"BUS","route":"24","agencyName":"Société de Transport du Saguenay","agencyUrl":"http://ville.saguenay.ca/fr/services-aux-citoyens/transport-sts","agencyTimeZoneOffset":-14400000,"routeColor":"00FF00","routeType":3,"routeId":"1:24","routeTextColor":"000000","interlineWithPreviousLeg":false,"tripBlockId":"4","headsign":"Terminus Chicoutimi","agencyId":"0","tripId":"1:217225","serviceDate":"20180402","from":{"name":"Thibeault / Diamant","stopId":"1:815","stopCode":"815","lon":-71.042731,"lat":48.446755,"arrival":1522670067000,"departure":1522670068000,"zoneId":"NA","stopIndex":11,"stopSequence":12,"vertexType":"TRANSIT"},"to":{"name":"Terminus Chicoutimi","stopId":"1:1289","stopCode":"1289","lon":-71.066163,"lat":48.428677,"arrival":1522671060000,"departure":1522671300000,"zoneId":"NA","stopIndex":35,"stopSequence":36,"vertexType":"TRANSIT"},"legGeometry":{"points":"cgufHrorpLPFhCdAn@Lx@BxA]QeDI}AzAW~ASQoDg@eKG{A?_@?m@?i@LeCJkAd@yGxAqSBs@p@^VRPRbF~FlCxBxB|B~JjK`IjIRPb@^r@d@rAp@\\T\\ZNVRd@J\\Nd@Hf@F`@@DFr@LtAJpB@jAAt@ObEIzAKbBUrBMp@Sn@gAlCk@pAw@fCwB|HCNk@jCeDuAq@UC?mG_CaHiCsJqD_A]VvC\\`Ch@rCj@tBf@bBxDxJN\\bAjCTnAHvA@|@CPIpAe@pDUfBCTEXK~@MxAEn@@v@Bp@Dr@l@~HNlAH\\@HLd@\\z@Xd@X\\RTXRr@Zn@PfExAvDpALnBJt@Pp@Nj@l@tBHZPn@`@rBNnAFr@DbA?bB@jABzA?p@A???A???A?A???A@??A?A@??A@?@A??@A@???@A@?@?@A@?@?@?@?@???@?@?@?@?@?@@@?@?@@@?@@@?@@@?@@?@@??@@@?E`@Kr@]rACVEl@I|AAr@JbAWJe@FUAM?a@Ke@YYWWa@v@}@RQPMz@k@tAe@REZG^Af@@X@VF`@Jn@XbClAr@Xt\\`PrAb@pA^hBTjAFj@Pb@JPHLLJNJRFXDT?X?ZEVEVKTMNMHMFOB}DWSGOSYcAN}FFkAF}DJyDPwGvAHN_HDiB@m@","length":232},"routeShortName":"24","routeLongName":"Saint-Luc","rentedBike":false,"transitLeg":true,"duration":992.0,"steps":[]},{"startTime":1522671300000,"endTime":1522672648000,"departureDelay":0,"arrivalDelay":0,"realTime":false,"distance":6977.151228169907,"pathway":false,"mode":"BUS","route":"175","agencyName":"Société de Transport du Saguenay","agencyUrl":"http://ville.saguenay.ca/fr/services-aux-citoyens/transport-sts","agencyTimeZoneOffset":-14400000,"routeColor":"FF00FF","routeType":3,"routeId":"1:175","routeTextColor":"FFFFFF","interlineWithPreviousLeg":false,"tripBlockId":"6","headsign":"Costco","agencyId":"0","tripId":"1:217288","serviceDate":"20180402","from":{"name":"Terminus Chicoutimi","stopId":"1:1289","stopCode":"1289","lon":-71.066163,"lat":48.428677,"arrival":1522671060000,"departure":1522671300000,"zoneId":"NA","stopIndex":0,"stopSequence":1,"vertexType":"TRANSIT"},"to":{"name":"boul. Talbot / Soeurs (Canac Marquis)","stopId":"1:71","stopCode":"71","lon":-71.074009,"lat":48.391015,"arrival":1522672648000,"departure":1522672649000,"zoneId":"NA","stopIndex":25,"stopSequence":26,"vertexType":"TRANSIT"},"legGeometry":{"points":"kvqfH~awpL~CgBbAqa@FwCBkAOsHAg@bAYUwMKoE@mB@kJ@iFbEf@xEj@iCtYp@r@z@`ABBvHtHXRx@l@VwAvAgB\\qBIuAC]g@yEzDuLbBbBvAxAMx@|@v@`A~@Xw@~D~DPxFZtA~ApE`N{LpFmEb@[ROl@[vDQXKfA[|@q@fAsBlEmMr@sBhCsKz@dAjB|@dM`GzCvAXrCr@~Gx@]PEr@ObACn@FrBb@|@Ch@Kx@U~HsB^KZ|DJpII~Fa@rFUzBi@bDUxAm@nCcAlDM^RTfD`DjF`FjCrCrAvAbCfDjIfMdAzAfFpHd@n@nC`DlXv[","length":91},"routeShortName":"175","routeLongName":"Term. Chic / Costco","rentedBike":false,"transitLeg":true,"duration":1348.0,"steps":[]},{"startTime":1522672649000,"endTime":1522672909000,"departureDelay":0,"arrivalDelay":0,"realTime":false,"distance":331.669,"pathway":false,"mode":"WALK","route":"","agencyTimeZoneOffset":-14400000,"interlineWithPreviousLeg":false,"from":{"name":"boul. Talbot / Soeurs (Canac Marquis)","stopId":"1:71","stopCode":"71","lon":-71.074009,"lat":48.391015,"arrival":1522672648000,"departure":1522672649000,"zoneId":"NA","stopIndex":25,"stopSequence":26,"vertexType":"TRANSIT"},"to":{"name":"Destination","lon":-71.070396,"lat":48.389711,"arrival":1522672909000,"orig":"","vertexType":"NORMAL"},"legGeometry":{"points":"ojjfHzrxpLl@r@N_@JYtEuLiBuB","length":6},"rentedBike":false,"transitLeg":false,"duration":260.0,"steps":[{"distance":31.82,"relativeDirection":"DEPART","streetName":"Boulevard Talbot","absoluteDirection":"SOUTHWEST","stayOn":false,"area":false,"bogusName":false,"lon":-71.07389765515089,"lat":48.39096061304423,"elevation":[]},{"distance":226.524,"relativeDirection":"LEFT","streetName":"Rue du Sauvignon","absoluteDirection":"SOUTHEAST","stayOn":false,"area":false,"bogusName":false,"lon":-71.07415300000001,"lat":48.390730100000006,"elevation":[]},{"distance":73.325,"relativeDirection":"LEFT","streetName":"Rue de la Fonderie","absoluteDirection":"NORTHEAST","stayOn":false,"area":false,"bogusName":false,"lon":-71.071678,"lat":48.3895264,"elevation":[]}]}],"tooSloped":false},{"duration":4453,"startTime":1522669356000,"endTime":1522673809000,"walkTime":1170,"transitTime":1961,"waitingTime":1322,"walkDistance":1507.591473678097,"walkLimitExceeded":false,"elevationLost":0.0,"elevationGained":0.0,"transfers":1,"legs":[{"startTime":1522669356000,"endTime":1522670266000,"departureDelay":0,"arrivalDelay":0,"realTime":false,"distance":1175.7330000000002,"pathway":false,"mode":"WALK","route":"","agencyTimeZoneOffset":-14400000,"interlineWithPreviousLeg":false,"from":{"name":"Origin","lon":-71.042228,"lat":48.447101,"departure":1522669356000,"orig":"","vertexType":"NORMAL"},"to":{"name":"Verdun / Mgr Laval","stopId":"1:795","stopCode":"795","lon":-71.052912,"lat":48.444125,"arrival":1522670266000,"departure":1522670267000,"zoneId":"NA","stopIndex":17,"stopSequence":18,"vertexType":"TRANSIT"},"legGeometry":{"points":"siufHjnrpLj@Rd@RLDDB|B|@l@Nh@Bh@A`@Ef@Mn@IvCfAFlAFzAZbF@TBd@HdCHv@Fb@NnA@HVbBZdB@Db@dB\\pATr@FP}@v@QPKNIXId@WhCs@~GQrB_A_@","length":39},"rentedBike":false,"transitLeg":false,"duration":910.0,"steps":[{"distance":248.649,"relativeDirection":"DEPART","streetName":"Rue Thibeault","absoluteDirection":"SOUTH","stayOn":false,"area":false,"bogusName":false,"lon":-71.04245205954297,"lat":48.44714770817653,"elevation":[]},{"distance":114.942,"relativeDirection":"CONTINUE","streetName":"path","absoluteDirection":"SOUTH","stayOn":false,"area":false,"bogusName":true,"lon":-71.0430066,"lat":48.4449836,"elevation":[]},{"distance":480.944,"relativeDirection":"RIGHT","streetName":"Boulevard de Tadoussac","absoluteDirection":"WEST","stayOn":false,"area":false,"bogusName":false,"lon":-71.0433155,"lat":48.443988600000004,"elevation":[]},{"distance":293.978,"relativeDirection":"RIGHT","streetName":"Rue Monseigneur-Laval","absoluteDirection":"NORTHWEST","stayOn":false,"area":false,"bogusName":false,"lon":-71.0494919,"lat":48.442756900000006,"elevation":[]},{"distance":37.22,"relativeDirection":"RIGHT","streetName":"Rue de Verdun","absoluteDirection":"NORTH","stayOn":false,"area":false,"bogusName":false,"lon":-71.05297780000001,"lat":48.4437865,"elevation":[]}]},{"startTime":1522670267000,"endTime":1522670880000,"departureDelay":0,"arrivalDelay":0,"realTime":false,"distance":2824.97357990408,"pathway":false,"mode":"BUS","route":"23","agencyName":"Société de Transport du Saguenay","agencyUrl":"http://ville.saguenay.ca/fr/services-aux-citoyens/transport-sts","agencyTimeZoneOffset":-14400000,"routeColor":"FF00FF","routeType":3,"routeId":"1:23","routeTextColor":"FFFFFF","interlineWithPreviousLeg":false,"tripBlockId":"5","headsign":"Terminus Chicoutimi","agencyId":"0","tripId":"1:217252","serviceDate":"20180402","from":{"name":"Verdun / Mgr Laval","stopId":"1:795","stopCode":"795","lon":-71.052912,"lat":48.444125,"arrival":1522670266000,"departure":1522670267000,"zoneId":"NA","stopIndex":17,"stopSequence":18,"vertexType":"TRANSIT"},"to":{"name":"Terminus Chicoutimi","stopId":"1:1289","stopCode":"1289","lon":-71.066163,"lat":48.428677,"arrival":1522670880000,"departure":1522672200000,"zoneId":"NA","stopIndex":26,"stopSequence":27,"vertexType":"TRANSIT"},"legGeometry":{"points":"svtfHfotpLz@\\CP?R@N@NFLFF`GtBx@Xw@pG@l@B\\DXL\\RZDFXPf@N@v@Bp@Dr@l@~HNlAH\\@HLd@\\z@Xd@X\\RTXRr@Zn@PfExAvDpALnBJt@Pp@|@`DHZPn@`@rBNnAFr@DbA?bB@jABzA?p@A???A???A?A???A@??A?A@??A@?@A??@A@???@A@?@?@A@?@?@?@?@???@?@?@?@?@?@@@?@?@@@?@@@?@@@?@@?@@??@@@?E`@Kr@]rACVEl@I|AAr@JbAWJe@FUAM?a@Ke@YYWWa@v@}@RQPMz@k@tAe@REZG^Af@@X@VF`@Jn@XbClAr@Xt\\`PrAb@pA^hBTjAFj@Pb@JPHLLJNJRFXDT?X?ZEVEVKTMNMHMFOB}DWSGOSYcAN}FFkAF}DJyDd@wPV_HjAN~ALI`C","length":164},"routeShortName":"23","routeLongName":"Côte Verdun via Aréna du Plateau","rentedBike":false,"transitLeg":true,"duration":613.0,"steps":[]},{"startTime":1522672200000,"endTime":1522673548000,"departureDelay":0,"arrivalDelay":0,"realTime":false,"distance":6977.151228169907,"pathway":false,"mode":"BUS","route":"175","agencyName":"Société de Transport du Saguenay","agencyUrl":"http://ville.saguenay.ca/fr/services-aux-citoyens/transport-sts","agencyTimeZoneOffset":-14400000,"routeColor":"FF00FF","routeType":3,"routeId":"1:175","routeTextColor":"FFFFFF","interlineWithPreviousLeg":false,"tripBlockId":"76","headsign":"Costco","agencyId":"0","tripId":"1:218632","serviceDate":"20180402","from":{"name":"Terminus Chicoutimi","stopId":"1:1289","stopCode":"1289","lon":-71.066163,"lat":48.428677,"arrival":1522670880000,"departure":1522672200000,"zoneId":"NA","stopIndex":0,"stopSequence":1,"vertexType":"TRANSIT"},"to":{"name":"boul. Talbot / Soeurs (Canac Marquis)","stopId":"1:71","stopCode":"71","lon":-71.074009,"lat":48.391015,"arrival":1522673548000,"departure":1522673549000,"zoneId":"NA","stopIndex":25,"stopSequence":26,"vertexType":"TRANSIT"},"legGeometry":{"points":"kvqfH~awpL~CgBbAqa@FwCBkAOsHAg@bAYUwMKoE@mB@kJ@iFbEf@xEj@iCtYp@r@z@`ABBvHtHXRx@l@VwAvAgB\\qBIuAC]g@yEzDuLbBbBvAxAMx@|@v@`A~@Xw@~D~DPxFZtA~ApE`N{LpFmEb@[ROl@[vDQXKfA[|@q@fAsBlEmMr@sBhCsKz@dAjB|@dM`GzCvAXrCr@~Gx@]PEr@ObACn@FrBb@|@Ch@Kx@U~HsB^KZ|DJpII~Fa@rFUzBi@bDUxAm@nCcAlDM^RTfD`DjF`FjCrCrAvAbCfDjIfMdAzAfFpHd@n@nC`DlXv[","length":91},"routeShortName":"175","routeLongName":"Term. Chic / Costco","rentedBike":false,"transitLeg":true,"duration":1348.0,"steps":[]},{"startTime":1522673549000,"endTime":1522673809000,"departureDelay":0,"arrivalDelay":0,"realTime":false,"distance":331.669,"pathway":false,"mode":"WALK","route":"","agencyTimeZoneOffset":-14400000,"interlineWithPreviousLeg":false,"from":{"name":"boul. Talbot / Soeurs (Canac Marquis)","stopId":"1:71","stopCode":"71","lon":-71.074009,"lat":48.391015,"arrival":1522673548000,"departure":1522673549000,"zoneId":"NA","stopIndex":25,"stopSequence":26,"vertexType":"TRANSIT"},"to":{"name":"Destination","lon":-71.070396,"lat":48.389711,"arrival":1522673809000,"orig":"","vertexType":"NORMAL"},"legGeometry":{"points":"ojjfHzrxpLl@r@N_@JYtEuLiBuB","length":6},"rentedBike":false,"transitLeg":false,"duration":260.0,"steps":[{"distance":31.82,"relativeDirection":"DEPART","streetName":"Boulevard Talbot","absoluteDirection":"SOUTHWEST","stayOn":false,"area":false,"bogusName":false,"lon":-71.07389765515089,"lat":48.39096061304423,"elevation":[]},{"distance":226.524,"relativeDirection":"LEFT","streetName":"Rue du Sauvignon","absoluteDirection":"SOUTHEAST","stayOn":false,"area":false,"bogusName":false,"lon":-71.07415300000001,"lat":48.390730100000006,"elevation":[]},{"distance":73.325,"relativeDirection":"LEFT","streetName":"Rue de la Fonderie","absoluteDirection":"NORTHEAST","stayOn":false,"area":false,"bogusName":false,"lon":-71.071678,"lat":48.3895264,"elevation":[]}]}],"tooSloped":false},{"duration":2879,"startTime":1522671830000,"endTime":1522674709000,"walkTime":297,"transitTime":2340,"waitingTime":242,"walkDistance":379.6510451105863,"walkLimitExceeded":false,"elevationLost":0.0,"elevationGained":0.0,"transfers":1,"legs":[{"startTime":1522671830000,"endTime":1522671867000,"departureDelay":0,"arrivalDelay":0,"realTime":false,"distance":47.914,"pathway":false,"mode":"WALK","route":"","agencyTimeZoneOffset":-14400000,"interlineWithPreviousLeg":false,"from":{"name":"Origin","lon":-71.042228,"lat":48.447101,"departure":1522671830000,"orig":"","vertexType":"NORMAL"},"to":{"name":"Thibeault / Diamant","stopId":"1:815","stopCode":"815","lon":-71.042731,"lat":48.446755,"arrival":1522671867000,"departure":1522671868000,"zoneId":"NA","stopIndex":11,"stopSequence":12,"vertexType":"TRANSIT"},"legGeometry":{"points":"siufHjnrpLj@Rd@R","length":3},"rentedBike":false,"transitLeg":false,"duration":37.0,"steps":[{"distance":47.914,"relativeDirection":"DEPART","streetName":"Rue Thibeault","absoluteDirection":"SOUTH","stayOn":false,"area":false,"bogusName":false,"lon":-71.04245205954297,"lat":48.44714770817653,"elevation":[]}]},{"startTime":1522671868000,"endTime":1522672860000,"departureDelay":0,"arrivalDelay":0,"realTime":false,"distance":6588.5774131796825,"pathway":false,"mode":"BUS","route":"24","agencyName":"Société de Transport du Saguenay","agencyUrl":"http://ville.saguenay.ca/fr/services-aux-citoyens/transport-sts","agencyTimeZoneOffset":-14400000,"routeColor":"00FF00","routeType":3,"routeId":"1:24","routeTextColor":"000000","interlineWithPreviousLeg":false,"tripBlockId":"5","headsign":"Terminus Chicoutimi","agencyId":"0","tripId":"1:217253","serviceDate":"20180402","from":{"name":"Thibeault / Diamant","stopId":"1:815","stopCode":"815","lon":-71.042731,"lat":48.446755,"arrival":1522671867000,"departure":1522671868000,"zoneId":"NA","stopIndex":11,"stopSequence":12,"vertexType":"TRANSIT"},"to":{"name":"Terminus Chicoutimi","stopId":"1:1289","stopCode":"1289","lon":-71.066163,"lat":48.428677,"arrival":1522672860000,"departure":1522673100000,"zoneId":"NA","stopIndex":35,"stopSequence":36,"vertexType":"TRANSIT"},"legGeometry":{"points":"cgufHrorpLPFhCdAn@Lx@BxA]QeDI}AzAW~ASQoDg@eKG{A?_@?m@?i@LeCJkAd@yGxAqSBs@p@^VRPRbF~FlCxBxB|B~JjK`IjIRPb@^r@d@rAp@\\T\\ZNVRd@J\\Nd@Hf@F`@@DFr@LtAJpB@jAAt@ObEIzAKbBUrBMp@Sn@gAlCk@pAw@fCwB|HCNk@jCeDuAq@UC?mG_CaHiCsJqD_A]VvC\\`Ch@rCj@tBf@bBxDxJN\\bAjCTnAHvA@|@CPIpAe@pDUfBCTEXK~@MxAEn@@v@Bp@Dr@l@~HNlAH\\@HLd@\\z@Xd@X\\RTXRr@Zn@PfExAvDpALnBJt@Pp@Nj@l@tBHZPn@`@rBNnAFr@DbA?bB@jABzA?p@A???A???A?A???A@??A?A@??A@?@A??@A@???@A@?@?@A@?@?@?@?@???@?@?@?@?@?@@@?@?@@@?@@@?@@@?@@?@@??@@@?E`@Kr@]rACVEl@I|AAr@JbAWJe@FUAM?a@Ke@YYWWa@v@}@RQPMz@k@tAe@REZG^Af@@X@VF`@Jn@XbClAr@Xt\\`PrAb@pA^hBTjAFj@Pb@JPHLLJNJRFXDT?X?ZEVEVKTMNMHMFOB}DWSGOSYcAN}FFkAF}DJyDPwGvAHN_HDiB@m@","length":232},"routeShortName":"24","routeLongName":"Saint-Luc","rentedBike":false,"transitLeg":true,"duration":992.0,"steps":[]},{"startTime":1522673100000,"endTime":1522674448000,"departureDelay":0,"arrivalDelay":0,"realTime":false,"distance":6977.151228169907,"pathway":false,"mode":"BUS","route":"175","agencyName":"Société de Transport du Saguenay","agencyUrl":"http://ville.saguenay.ca/fr/services-aux-citoyens/transport-sts","agencyTimeZoneOffset":-14400000,"routeColor":"FF00FF","routeType":3,"routeId":"1:175","routeTextColor":"FFFFFF","interlineWithPreviousLeg":false,"tripBlockId":"7","headsign":"Costco","agencyId":"0","tripId":"1:217325","serviceDate":"20180402","from":{"name":"Terminus Chicoutimi","stopId":"1:1289","stopCode":"1289","lon":-71.066163,"lat":48.428677,"arrival":1522672860000,"departure":1522673100000,"zoneId":"NA","stopIndex":0,"stopSequence":1,"vertexType":"TRANSIT"},"to":{"name":"boul. Talbot / Soeurs (Canac Marquis)","stopId":"1:71","stopCode":"71","lon":-71.074009,"lat":48.391015,"arrival":1522674448000,"departure":1522674449000,"zoneId":"NA","stopIndex":25,"stopSequence":26,"vertexType":"TRANSIT"},"legGeometry":{"points":"kvqfH~awpL~CgBbAqa@FwCBkAOsHAg@bAYUwMKoE@mB@kJ@iFbEf@xEj@iCtYp@r@z@`ABBvHtHXRx@l@VwAvAgB\\qBIuAC]g@yEzDuLbBbBvAxAMx@|@v@`A~@Xw@~D~DPxFZtA~ApE`N{LpFmEb@[ROl@[vDQXKfA[|@q@fAsBlEmMr@sBhCsKz@dAjB|@dM`GzCvAXrCr@~Gx@]PEr@ObACn@FrBb@|@Ch@Kx@U~HsB^KZ|DJpII~Fa@rFUzBi@bDUxAm@nCcAlDM^RTfD`DjF`FjCrCrAvAbCfDjIfMdAzAfFpHd@n@nC`DlXv[","length":91},"routeShortName":"175","routeLongName":"Term. Chic / Costco","rentedBike":false,"transitLeg":true,"duration":1348.0,"steps":[]},{"startTime":1522674449000,"endTime":1522674709000,"departureDelay":0,"arrivalDelay":0,"realTime":false,"distance":331.669,"pathway":false,"mode":"WALK","route":"","agencyTimeZoneOffset":-14400000,"interlineWithPreviousLeg":false,"from":{"name":"boul. Talbot / Soeurs (Canac Marquis)","stopId":"1:71","stopCode":"71","lon":-71.074009,"lat":48.391015,"arrival":1522674448000,"departure":1522674449000,"zoneId":"NA","stopIndex":25,"stopSequence":26,"vertexType":"TRANSIT"},"to":{"name":"Destination","lon":-71.070396,"lat":48.389711,"arrival":1522674709000,"orig":"","vertexType":"NORMAL"},"legGeometry":{"points":"ojjfHzrxpLl@r@N_@JYtEuLiBuB","length":6},"rentedBike":false,"transitLeg":false,"duration":260.0,"steps":[{"distance":31.82,"relativeDirection":"DEPART","streetName":"Boulevard Talbot","absoluteDirection":"SOUTHWEST","stayOn":false,"area":false,"bogusName":false,"lon":-71.07389765515089,"lat":48.39096061304423,"elevation":[]},{"distance":226.524,"relativeDirection":"LEFT","streetName":"Rue du Sauvignon","absoluteDirection":"SOUTHEAST","stayOn":false,"area":false,"bogusName":false,"lon":-71.07415300000001,"lat":48.390730100000006,"elevation":[]},{"distance":73.325,"relativeDirection":"LEFT","streetName":"Rue de la Fonderie","absoluteDirection":"NORTHEAST","stayOn":false,"area":false,"bogusName":false,"lon":-71.071678,"lat":48.3895264,"elevation":[]}]}],"tooSloped":false}]},"debugOutput":{"precalculationTime":16,"pathCalculationTime":27,"pathTimes":[16,5,6],"renderingTime":0,"totalTime":43,"timedOut":false},"elevationMetadata":{"ellipsoidToGeoidDifference":-28.885904201182168,"geoidElevation":false}}