{"requestParameters":{"date":"2018/04/02","walkSpeed":"1.33","walkReluctance":"2.0","fromPlace":"48.448418,-71.060047","maxWalkDistance":"3000","waitReluctance":"1.0","carSpeed":"33","numItineraries":"3","waitAtBeginningFactor":"0.4","mode":"TRANSIT,WALK","ignoreRealtimeUpdates":"false","stairsReluctance":"2.0","toPlace":"48.42036,-71.061801","time":"7:20:00"},"plan":{"date":1522668000000,"from":{"name":"Origin","lon":-71.060047,"lat":48.448418,"orig":"","vertexType":"NORMAL"},"to":{"name":"Destination","lon":-71.061801,"lat":48.42036,"orig":"","vertexType":"NORMAL"},"itineraries":[{"duration":2000,"startTime":1522668183000,"endTime":1522670183000,"walkTime":268,"transitTime":1310,"waitingTime":422,"walkDistance":336.1664962374233,"walkLimitExceeded":false,"elevationLost":0.0,"elevationGained":0.0,"transfers":1,"legs":[{"startTime":1522668183000,"endTime":1522668331000,"departureDelay":0,"arrivalDelay":0,"realTime":false,"distance":184.41500000000002,"pathway":false,"mode":"WALK","route":"","agencyTimeZoneOffset":-14400000,"interlineWithPreviousLeg":false,"from":{"name":"Origin","lon":-71.060047,"lat":48.448418,"departure":1522668183000,"orig":"","vertexType":"NORMAL"},"to":{"name":"Comtois / Amiens","stopId":"1:790","stopCode":"790","lon":-71.059239,"lat":48.448251,"arrival":1522668331000,"departure":1522668332000,"zoneId":"NA","stopIndex":13,"stopSequence":14,"vertexType":"TRANSIT"},"legGeometry":{"points":"{qufHx}upLhBr@De@@u@?]@uAI?cA_@","length":8},"rentedBike":false,"transitLeg":false,"duration":148.0,"steps":[{"distance":62.107,"relativeDirection":"DEPART","streetName":"Rue de Lorraine","absoluteDirection":"SOUTH","stayOn":false,"area":false,"bogusName":false,"lon":-71.0602815851383,"lat":48.448468879744595,"elevation":[]},{"distance":77.455,"relativeDirection":"LEFT","streetName":"Rue d'Amiens","absoluteDirection":"EAST","stayOn":false,"area":false,"bogusName":false,"lon":-71.0605433,"lat":48.447938,"elevation":[]},{"distance":44.853,"relativeDirection":"LEFT","streetName":"Rue Comtois","absoluteDirection":"NORTH","stayOn":false,"area":false,"bogusName":false,"lon":-71.0595007,"lat":48.4478846,"elevation":[]}]},{"startTime":1522668332000,"endTime":1522669080000,"departureDelay":0,"arrivalDelay":0,"realTime":false,"distance":3760.571503093729,"pathway":false,"mode":"BUS","route":"23","agencyName":"Société de Transport du Saguenay","agencyUrl":"http://ville.saguenay.ca/fr/services-aux-citoyens/transport-sts","agencyTimeZoneOffset":-14400000,"routeColor":"FF00FF","routeType":3,"routeId":"1:23","routeTextColor":"FFFFFF","interlineWithPreviousLeg":false,"tripBlockId":"4","headsign":"Terminus Chicoutimi","agencyId":"0","tripId":"1:217224","serviceDate":"20180402","from":{"name":"Comtois / Amiens","stopId":"1:790","stopCode":"790","lon":-71.059239,"lat":48.448251,"arrival":1522668331000,"departure":1522668332000,"zoneId":"NA","stopIndex":13,"stopSequence":14,"vertexType":"TRANSIT"},"to":{"name":"Terminus Chicoutimi","stopId":"1:1289","stopCode":"1289","lon":-71.066163,"lat":48.428677,"arrival":1522669080000,"departure":1522669500000,"zoneId":"NA","stopIndex":26,"stopSequence":27,"vertexType":"TRANSIT"},"legGeometry":{"points":"spufHzwupLkE}AOIq@g@g@u@]w@b@s@T[~CkFf@s@\\e@x@}@jAeAXQZStBaAh@]`@]`@i@l@kDF_@R{AFWFMPIPC`@BT@V?TAVKLENCLCJ@J@xAb@x@Zz@\\CP?R@N@NFLFF`GtBx@Xw@pG@l@B\\DXL\\RZDFXPf@N@v@Bp@Dr@l@~HNlAH\\@HLd@\\z@Xd@X\\RTXRr@Zn@PfExAvDpALnBJt@Pp@|@`DHZPn@`@rBNnAFr@DbA?bB@jABzA?p@A???A???A?A???A@??A?A@??A@?@A??@A@???@A@?@?@A@?@?@?@?@???@?@?@?@?@?@@@?@?@@@?@@@?@@@?@@?@@??@@@?E`@Kr@]rACVEl@I|AAr@JbAWJe@FUAM?a@Ke@YYWWa@v@}@RQPMz@k@tAe@REZG^Af@@X@VF`@Jn@XbClAr@Xt\\`PrAb@pA^hBTjAFj@Pb@JPHLLJNJRFXDT?X?ZEVEVKTMNMHMFOB}DWSGOSYcAN}FFkAF}DJyDd@wPV_HjAN~ALI`C","length":201},"routeShortName":"23","routeLongName":"Côte Verdun via Aréna du Plateau","rentedBike":false,"transitLeg":true,"duration":748.0,"steps":[]},{"startTime":1522669500000,"endTime":1522670062000,"departureDelay":0,"arrivalDelay":0,"realTime":false,"distance":2188.1878890574662,"pathway":false,"mode":"BUS","route":"15","agencyName":"Société de Transport du Saguenay","agencyUrl":"http://ville.saguenay.ca/fr/services-aux-citoyens/transport-sts","agencyTimeZoneOffset":-14400000,"routeColor":"FF00FF","routeType":3,"routeId":"1:15","routeTextColor":"FFFFFF","interlineWithPreviousLeg":false,"tripBlockId":"31","headsign":"Talbot / Barrette","agencyId":"0","tripId":"1:218124","serviceDate":"20180402","from":{"name":"Terminus Chicoutimi","stopId":"1:1289","stopCode":"1289","lon":-71.066163,"lat":48.428677,"arrival":1522669080000,"departure":1522669500000,"zoneId":"NA","stopIndex":0,"stopSequence":1,"vertexType":"TRANSIT"},"to":{"name":"CFP Oasis (Bégin / Université)","stopId":"1:564","stopCode":"564","lon":-71.0609,"lat":48.4201,"arrival":1522670062000,"departure":1522670063000,"zoneId":"NA","stopIndex":8,"stopSequence":9,"vertexType":"TRANSIT"},"legGeometry":{"points":"evqfHpbwpLPiCjKx@HiEZkS\\aSN_K^eIrBpBvIpIr@r@\\mBfAaA`@gBOkB_@uF|DyL|DpDQ|@|@z@bA`ATw@dD~Ch@fA@`E~AjGuH`Iy@bBi@dCbEdE","length":30},"routeShortName":"15","routeLongName":"Term. Chic / Costco","rentedBike":false,"transitLeg":true,"duration":562.0,"steps":[]},{"startTime":1522670063000,"endTime":1522670183000,"departureDelay":0,"arrivalDelay":0,"realTime":false,"distance":151.65300000000002,"pathway":false,"mode":"WALK","route":"","agencyTimeZoneOffset":-14400000,"interlineWithPreviousLeg":false,"from":{"name":"CFP Oasis (Bégin / Université)","stopId":"1:564","stopCode":"564","lon":-71.0609,"lat":48.4201,"arrival":1522670062000,"departure":1522670063000,"zoneId":"NA","stopIndex":8,"stopSequence":9,"vertexType":"TRANSIT"},"to":{"name":"Destination","lon":-71.061801,"lat":48.42036,"arrival":1522670183000,"orig":"","vertexType":"NORMAL"},"legGeometry":{"points":"g`pfHz`vpLQSSSKVQHq@?ApAAx@A`A","length":9},"rentedBike":false,"transitLeg":false,"duration":120.0,"steps":[{"distance":26.312,"relativeDirection":"DEPART","streetName":"Rue Bégin","absoluteDirection":"NORTHEAST","stayOn":false,"area":false,"bogusName":false,"lon":-71.06077082721337,"lat":48.420042537275044,"elevation":[]},{"distance":49.063,"relativeDirection":"LEFT","streetName":"Rue LaFontaine","absoluteDirection":"NORTHWEST","stayOn":false,"area":false,"bogusName":false,"lon":-71.0605723,"lat":48.4202391,"elevation":[]},{"distance":76.278,"relativeDirection":"LEFT","streetName":"path","absoluteDirection":"WEST","stayOn":false,"area":false,"bogusName":false,"lon":-71.0607459,"lat":48.4206323,"elevation":[]}]}],"tooSloped":false},{"duration":1956,"startTime":1522668268000,"endTime":1522670224000,"walkTime":873,"transitTime":781,"waitingTime":302,"walkDistance":1106.1509473610333,"walkLimitExceeded":false,"elevationLost":0.0,"elevationGained":0.0,"transfers":1,"legs":[{"startTime":1522668268000,"endTime":1522668701000,"departureDelay":0,"arrivalDelay":0,"realTime":false,"distance":550.841,"pathway":false,"mode":"WALK","route":"","agencyTimeZoneOffset":-14400000,"interlineWithPreviousLeg":false,"from":{"name":"Origin","lon":-71.060047,"lat":48.448418,"departure":1522668268000,"orig":"","vertexType":"NORMAL"},"to":{"name":"Constantin / Cabot","stopId":"1:766","stopCode":"766","lon":-71.066135,"lat":48.448135,"arrival":1522668701000,"departure":1522668702000,"zoneId":"NA","stopIndex":30,"stopSequence":31,"vertexType":"TRANSIT"},"legGeometry":{"points":"{qufHx}upLhBr@eAtHKPC?j@~BjAZABKr@[~Bo@pE]fCId@z@v@","length":14},"rentedBike":false,"transitLeg":false,"duration":433.0,"steps":[{"distance":62.107,"relativeDirection":"DEPART","streetName":"Rue de Lorraine","absoluteDirection":"SOUTH","stayOn":false,"area":false,"bogusName":false,"lon":-71.0602815851383,"lat":48.448468879744595,"elevation":[]},{"distance":132.628,"relativeDirection":"RIGHT","streetName":"Rue d'Amiens","absoluteDirection":"WEST","stayOn":false,"area":false,"bogusName":false,"lon":-71.0605433,"lat":48.447938,"elevation":[]},{"distance":96.019,"relativeDirection":"LEFT","streetName":"path","absoluteDirection":"SOUTHWEST","stayOn":false,"area":false,"bogusName":true,"lon":-71.06218890000001,"lat":48.4483655,"elevation":[]},{"distance":220.94400000000002,"relativeDirection":"RIGHT","streetName":"Rue Cabot","absoluteDirection":"WEST","stayOn":false,"area":false,"bogusName":false,"lon":-71.0629679,"lat":48.4477673,"elevation":[]},{"distance":39.143,"relativeDirection":"LEFT","streetName":"Rue Constantin","absoluteDirection":"SOUTHWEST","stayOn":false,"area":false,"bogusName":false,"lon":-71.0658016,"lat":48.4484117,"elevation":[]}]},{"startTime":1522668702000,"endTime":1522669200000,"departureDelay":0,"arrivalDelay":0,"realTime":false,"distance":2548.333041774674,"pathway":false,"mode":"BUS","route":"22","agencyName":"Société de Transport du Saguenay","agencyUrl":"http://ville.saguenay.ca/fr/services-aux-citoyens/transport-sts","agencyTimeZoneOffset":-14400000,"routeColor":"C0C000","routeType":3,"routeId":"1:22","routeTextColor":"000000","interlineWithPreviousLeg":false,"tripBlockId":"3","headsign":"Terminus Chicoutimi","agencyId":"0","tripId":"1:217188","serviceDate":"20180402","from":{"name":"Constantin / Cabot","stopId":"1:766","stopCode":"766","lon":-71.066135,"lat":48.448135,"arrival":1522668701000,"departure":1522668702000,"zoneId":"NA","stopIndex":30,"stopSequence":31,"vertexType":"TRANSIT"},"to":{"name":"Terminus Chicoutimi","stopId":"1:1289","stopCode":"1289","lon":-71.066163,"lat":48.428677,"arrival":1522669200000,"departure":1522669500000,"zoneId":"NA","stopIndex":35,"stopSequence":36,"vertexType":"TRANSIT"},"legGeometry":{"points":"uoufH`bwpLbA`A|BrBnDrCl@f@|BlBrAbAj@d@ZTXNd@@lA[ZxDN|Ad@fAz@tB~AzDZ|@Zv@x@vBP\\h@~@PVrCmFhHqN~@eBr@cAt@_Av@}@RQPMz@k@tAe@REZG^Af@@X@VF`@Jn@XbClAr@Xt\\`PrAb@pA^hBTjAFj@Pb@JPHLLJNJRFXDT?X?ZEVEVKTMNMHMFOB}DWSGOSYcAN}FFkAF}DJyDd@wPV_HjAN~ALIzBQb@e@@","length":80},"routeShortName":"22","routeLongName":"Vanier","rentedBike":false,"transitLeg":true,"duration":498.0,"steps":[]},{"startTime":1522669500000,"endTime":1522669783000,"departureDelay":0,"arrivalDelay":0,"realTime":false,"distance":1197.7266149818488,"pathway":false,"mode":"BUS","route":"14","agencyName":"Société de Transport du Saguenay","agencyUrl":"http://ville.saguenay.ca/fr/services-aux-citoyens/transport-sts","agencyTimeZoneOffset":-14400000,"routeColor":"C0C000","routeType":3,"routeId":"1:14","routeTextColor":"000000","interlineWithPreviousLeg":false,"tripBlockId":"30","headsign":"Talbot / Barrette","agencyId":"0","tripId":"1:218089","serviceDate":"20180402","from":{"name":"Terminus Chicoutimi","stopId":"1:1289","stopCode":"1289","lon":-71.066163,"lat":48.428677,"arrival":1522669200000,"departure":1522669500000,"zoneId":"NA","stopIndex":0,"stopSequence":1,"vertexType":"TRANSIT"},"to":{"name":"Bégin / Voie Réservé","stopId":"1:74","stopCode":"74","lon":-71.057125,"lat":48.423785,"arrival":1522669783000,"departure":1522669784000,"zoneId":"NA","stopIndex":5,"stopSequence":6,"vertexType":"TRANSIT"},"legGeometry":{"points":"qvqfHnbwpLJkClLh@DsDTmSHwFB{I@m@@eBH_AF}A@w@Dq@@i@B}B@Y@e@D]F_@@SHQCKnBnBvIrI","length":24},"routeShortName":"14","routeLongName":"Coopérative","rentedBike":false,"transitLeg":true,"duration":283.0,"steps":[]},{"startTime":1522669784000,"endTime":1522670224000,"departureDelay":0,"arrivalDelay":0,"realTime":false,"distance":555.0809999999999,"pathway":false,"mode":"WALK","route":"","agencyTimeZoneOffset":-14400000,"interlineWithPreviousLeg":false,"from":{"name":"Bégin / Voie Réservé","stopId":"1:74","stopCode":"74","lon":-71.057125,"lat":48.423785,"arrival":1522669783000,"departure":1522669784000,"zoneId":"NA","stopIndex":5,"stopSequence":6,"vertexType":"TRANSIT"},"to":{"name":"Destination","lon":-71.061801,"lat":48.42036,"arrival":1522670224000,"orig":"","vertexType":"NORMAL"},"legGeometry":{"points":"kwpfHpiupLXVDDJHHHVVRN`AbAhAfAVXdAjAJHbAdAzBzBRPXXCh@KpBL@h@@ApAAx@A`A","length":23},"rentedBike":false,"transitLeg":false,"duration":440.0,"steps":[{"distance":388.926,"relativeDirection":"DEPART","streetName":"Rue Bégin","absoluteDirection":"SOUTHWEST","stayOn":false,"area":false,"bogusName":false,"lon":-71.05704050802188,"lat":48.42374908473847,"elevation":[]},{"distance":58.09,"relativeDirection":"RIGHT","streetName":"Boulevard de l'Université","absoluteDirection":"WEST","stayOn":false,"area":false,"bogusName":false,"lon":-71.0599459,"lat":48.4208319,"elevation":[]},{"distance":31.787,"relativeDirection":"LEFT","streetName":"Rue LaFontaine","absoluteDirection":"SOUTH","stayOn":false,"area":false,"bogusName":false,"lon":-71.0607224,"lat":48.420917700000004,"elevation":[]},{"distance":76.278,"relativeDirection":"RIGHT","streetName":"path","absoluteDirection":"WEST","stayOn":false,"area":false,"bogusName":false,"lon":-71.0607459,"lat":48.4206323,"elevation":[]}]}],"tooSloped":false},{"duration":2000,"startTime":1522669983000,"endTime":1522671983000,"walkTime":268,"transitTime":1310,"waitingTime":422,"walkDistance":336.1664962374233,"walkLimitExceeded":false,"elevationLost":0.0,"elevationGained":0.0,"transfers":1,"legs":[{"startTime":1522669983000,"endTime":1522670131000,"departureDelay":0,"arrivalDelay":0,"realTime":false,"distance":184.41500000000002,"pathway":false,"mode":"WALK","route":"","agencyTimeZoneOffset":-14400000,"interlineWithPreviousLeg":false,"from":{"name":"Origin","lon":-71.060047,"lat":48.448418,"departure":1522669983000,"orig":"","vertexType":"NORMAL"},"to":{"name":"Comtois / Amiens","stopId":"1:790","stopCode":"790","lon":-71.059239,"lat":48.448251,"arrival":1522670131000,"departure":1522670132000,"zoneId":"NA","stopIndex":13,"stopSequence":14,"vertexType":"TRANSIT"},"legGeometry":{"points":"{qufHx}upLhBr@De@@u@?]@uAI?cA_@","length":8},"rentedBike":false,"transitLeg":false,"duration":148.0,"steps":[{"distance":62.107,"relativeDirection":"DEPART","streetName":"Rue de Lorraine","absoluteDirection":"SOUTH","stayOn":false,"area":false,"bogusName":false,"lon":-71.0602815851383,"lat":48.448468879744595,"elevation":[]},{"distance":77.455,"relativeDirection":"LEFT","streetName":"Rue d'Amiens","absoluteDirection":"EAST","stayOn":false,"area":false,"bogusName":false,"lon":-71.0605433,"lat":48.447938,"elevation":[]},{"distance":44.853,"relativeDirection":"LEFT","streetName":"Rue Comtois","absoluteDirection":"NORTH","stayOn":false,"area":false,"bogusName":false,"lon":-71.0595007,"lat":48.4478846,"elevation":[]}]},{"startTime":1522670132000,"endTime":1522670880000,"departureDelay":0,"arrivalDelay":0,"realTime":false,"distance":3760.571503093729,"pathway":false,"mode":"BUS","route":"23","agencyName":"Société de Transport du Saguenay","agencyUrl":"http://ville.saguenay.ca/fr/services-aux-citoyens/transport-sts","agencyTimeZoneOffset":-14400000,"routeColor":"FF00FF","routeType":3,"routeId":"1:23","routeTextColor":"FFFFFF","interlineWithPreviousLeg":false,"tripBlockId":"5","headsign":"Terminus Chicoutimi","agencyId":"0","tripId":"1:217252","serviceDate":"20180402","from":{"name":"Comtois / Amiens","stopId":"1:790","stopCode":"790","lon":-71.059239,"lat":48.448251,"arrival":1522670131000,"departure":1522670132000,"zoneId":"NA","stopIndex":13,"stopSequence":14,"vertexType":"TRANSIT"},"to":{"name":"Terminus Chicoutimi","stopId":"1:1289","stopCode":"1289","lon":-71.066163,"lat":48.428677,"arrival":1522670880000,"departure":1522671300000,"zoneId":"NA","stopIndex":26,"stopSequence":27,"vertexType":"TRANSIT"},"legGeometry":{"points":"spufHzwupLkE}AOIq@g@g@u@]w@b@s@T[~CkFf@s@\\e@x@}@jAeAXQZStBaAh@]`@]`@i@l@kDF_@R{AFWFMPIPC`@BT@V?TAVKLENCLCJ@J@xAb@x@Zz@\\CP?R@N@NFLFF`GtBx@Xw@pG@l@B\\DXL\\RZDFXPf@N@v@Bp@Dr@l@~HNlAH\\@HLd@\\z@Xd@X\\RTXRr@Zn@PfExAvDpALnBJt@Pp@|@`DHZPn@`@rBNnAFr@DbA?bB@jABzA?p@A???A???A?A???A@??A?A@??A@?@A??@A@???@A@?@?@A@?@?@?@?@???@?@?@?@?@?@@@?@?@@@?@@@?@@@?@@?@@??@@@?E`@Kr@]rACVEl@I|AAr@JbAWJe@FUAM?a@Ke@YYWWa@v@}@RQPMz@k@tAe@REZG^Af@@X@VF`@Jn@XbClAr@Xt\\`PrAb@pA^hBTjAFj@Pb@JPHLLJNJRFXDT?X?ZEVEVKTMNMHMFOB}DWSGOSYcAN}FFkAF}DJyDd@wPV_HjAN~ALI`C","length":201},"routeShortName":"23","routeLongName":"Côte Verdun via Aréna du Plateau","rentedBike":false,"transitLeg":true,"duration":748.0,"steps":[]},{"startTime":1522671300000,"endTime":1522671862000,"departureDelay":0,"arrivalDelay":0,"realTime":false,"distance":2188.1878890574662,"pathway":false,"mode":"BUS","route":"15","agencyName":"Société de Transport du Saguenay","agencyUrl":"http://ville.saguenay.ca/fr/services-aux-citoyens/transport-sts","agencyTimeZoneOffset":-14400000,"routeColor":"FF00FF","routeType":3,"routeId":"1:15","routeTextColor":"FFFFFF","interlineWithPreviousLeg":false,"tripBlockId":"33","headsign":"Talbot / Barrette","agencyId":"0","tripId":"1:218175","serviceDate":"20180402","from":{"name":"Terminus Chicoutimi","stopId":"1:1289","stopCode":"1289","lon":-71.066163,"lat":48.428677,"arrival":1522670880000,"departure":1522671300000,"zoneId":"NA","stopIndex":0,"stopSequence":1,"vertexType":"TRANSIT"},"to":{"name":"CFP Oasis (Bégin / Université)","stopId":"1:564","stopCode":"564","lon":-71.0609,"lat":48.4201,"arrival":1522671862000,"departure":1522671863000,"zoneId":"NA","stopIndex":8,"stopSequence":9,"vertexType":"TRANSIT"},"legGeometry":{"points":"evqfHpbwpLPiCjKx@HiEZkS\\aSN_K^eIrBpBvIpIr@r@\\mBfAaA`@gBOkB_@uF|DyL|DpDQ|@|@z@bA`ATw@dD~Ch@fA@`E~AjGuH`Iy@bBi@dCbEdE","length":30},"routeShortName":"15","routeLongName":"Term. Chic / Costco","rentedBike":false,"transitLeg":true,"duration":562.0,"steps":[]},{"startTime":1522671863000,"endTime":1522671983000,"departureDelay":0,"arrivalDelay":0,"realTime":false,"distance":151.65300000000002,"pathway":false,"mode":"WALK","route":"","agencyTimeZoneOffset":-14400000,"interlineWithPreviousLeg":false,"from":{"name":"CFP Oasis (Bégin / Université)","stopId":"1:564","stopCode":"564","lon":-71.0609,"lat":48.4201,"arrival":1522671862000,"departure":1522671863000,"zoneId":"NA","stopIndex":8,"stopSequence":9,"vertexType":"TRANSIT"},"to":{"name":"Destination","lon":-71.061801,"lat":48.42036,"arrival":1522671983000,"orig":"","vertexType":"NORMAL"},"legGeometry":{"points":"g`pfHz`vpLQSSSKVQHq@?ApAAx@A`A","length":9},"rentedBike":false,"transitLeg":false,"duration":120.0,"steps":[{"distance":26.312,"relativeDirection":"DEPART","streetName":"Rue Bégin","absoluteDirection":"NORTHEAST","stayOn":false,"area":false,"bogusName":false,"lon":-71.06077082721337,"lat":48.420042537275044,"elevation":[]},{"distance":49.063,"relativeDirection":"LEFT","streetName":"Rue LaFontaine","absoluteDirection":"NORTHWEST","stayOn":false,"area":false,"bogusName":false,"lon":-71.0605723,"lat":48.4202391,"elevation":[]},{"distance":76.278,"relativeDirection":"LEFT","streetName":"path","absoluteDirection":"WEST","stayOn":false,"area":false,"bogusName":false,"lon":-71.0607459,"lat":48.4206323,"elevation":[]}]}],"tooSloped":false}]},"debugOutput":{"precalculationTime":35,"pathCalculationTime":33,"pathTimes":[22,6,5],"renderingTime":1,"totalTime":69,"timedOut":false},"elevationMetadata":{"ellipsoidToGeoidDifference":-28.885904201182168,"geoidElevation":false}}