{"requestParameters":{"date":"2018/04/02","walkSpeed":"1.33","walkReluctance":"2.0","fromPlace":"48.442471,-71.04545","maxWalkDistance":"3000","waitReluctance":"1.0","carSpeed":"33","numItineraries":"3","waitAtBeginningFactor":"0.4","mode":"TRANSIT,WALK","ignoreRealtimeUpdates":"false","stairsReluctance":"2.0","toPlace":"48.461121,-71.02449699","time":"10:0:00"},"plan":{"date":1522677600000,"from":{"name":"Origin","lon":-71.04545,"lat":48.442471,"orig":"","vertexType":"NORMAL"},"to":{"name":"Destination","lon":-71.02449699,"lat":48.461121,"orig":"","vertexType":"NORMAL"},"itineraries":[{"duration":2331,"startTime":1522678668000,"endTime":1522680999000,"walkTime":2273,"transitTime":56,"waitingTime":2,"walkDistance":2974.7205864602092,"walkLimitExceeded":false,"elevationLost":0.0,"elevationGained":0.0,"transfers":0,"legs":[{"startTime":1522678668000,"endTime":1522678987000,"departureDelay":0,"arrivalDelay":0,"realTime":false,"distance":409.1139999999999,"pathway":false,"mode":"WALK","route":"","agencyTimeZoneOffset":-14400000,"interlineWithPreviousLeg":false,"from":{"name":"Origin","lon":-71.04545,"lat":48.442471,"departure":1522678668000,"orig":"","vertexType":"NORMAL"},"to":{"name":"St-Émile / Madeleine","stopId":"1:811","stopCode":"811","lon":-71.045248,"lat":48.445626,"arrival":1522678987000,"departure":1522678988000,"zoneId":"NA","stopIndex":8,"stopSequence":9,"vertexType":"TRANSIT"},"legGeometry":{"points":"wltfHxbspLg@Qi@tDqA]cAWsHqCsAk@","length":7},"rentedBike":false,"transitLeg":false,"duration":319.0,"steps":[{"distance":24.0,"relativeDirection":"DEPART","streetName":"Rue d'Orly","absoluteDirection":"NORTH","stayOn":false,"area":false,"bogusName":false,"lon":-71.0457232647501,"lat":48.44252047216052,"elevation":[]},{"distance":71.042,"relativeDirection":"LEFT","streetName":"Rue Saint-Michel","absoluteDirection":"WEST","stayOn":false,"area":false,"bogusName":false,"lon":-71.0456376,"lat":48.4427287,"elevation":[]},{"distance":314.072,"relativeDirection":"RIGHT","streetName":"Rue Saint-Émile","absoluteDirection":"NORTH","stayOn":false,"area":false,"bogusName":false,"lon":-71.0465471,"lat":48.4429389,"elevation":[]}]},{"startTime":1522678988000,"endTime":1522679044000,"departureDelay":0,"arrivalDelay":0,"realTime":false,"distance":446.7248039891065,"pathway":false,"mode":"BUS","route":"24","agencyName":"Société de Transport du Saguenay","agencyUrl":"http://ville.saguenay.ca/fr/services-aux-citoyens/transport-sts","agencyTimeZoneOffset":-14400000,"routeColor":"00FF00","routeType":3,"routeId":"1:24","routeTextColor":"000000","interlineWithPreviousLeg":false,"tripBlockId":"5","headsign":"Terminus Chicoutimi","agencyId":"0","tripId":"1:217257","serviceDate":"20180402","from":{"name":"St-Émile / Madeleine","stopId":"1:811","stopCode":"811","lon":-71.045248,"lat":48.445626,"arrival":1522678987000,"departure":1522678988000,"zoneId":"NA","stopIndex":8,"stopSequence":9,"vertexType":"TRANSIT"},"to":{"name":"Adam / Thibeault","stopId":"1:814","stopCode":"814","lon":-71.042521,"lat":48.448191,"arrival":1522679044000,"departure":1522679045000,"zoneId":"NA","stopIndex":10,"stopSequence":11,"vertexType":"TRANSIT"},"legGeometry":{"points":"g`ufHl`spLwQuGDWbAoG","length":4},"routeShortName":"24","routeLongName":"Saint-Luc","rentedBike":false,"transitLeg":true,"duration":56.0,"steps":[]},{"startTime":1522679045000,"endTime":1522680999000,"departureDelay":0,"arrivalDelay":0,"realTime":false,"distance":2565.422,"pathway":false,"mode":"WALK","route":"","agencyTimeZoneOffset":-14400000,"interlineWithPreviousLeg":false,"from":{"name":"Adam / Thibeault","stopId":"1:814","stopCode":"814","lon":-71.042521,"lat":48.448191,"arrival":1522679044000,"departure":1522679045000,"zoneId":"NA","stopIndex":10,"stopSequence":11,"vertexType":"TRANSIT"},"to":{"name":"Destination","lon":-71.02449699,"lat":48.461121,"arrival":1522680999000,"orig":"","vertexType":"NORMAL"},"legGeometry":{"points":"upufHlnrpLVaB|@cGPq@FOj@uEwBkA@GNaAC?]KoC{@kCaAIAwHsBeEoAqBs@gBg@q@Ws@SEAEEIGWWOKSOGCICKCKAU?SA]CI?SAIAICOCUGWIuC}@gA_@kA[sAa@iAc@CAcAUw@WWGc@Q_@QMMKOCM?AAGAc@AI?M@QBSD]Ju@BQJ{@He@Di@TeCP}AJmAH_ALyAFs@LyAPuADk@Hk@BU@WBY@MAe@AOCMQ{@OmAKw@Ek@AWCQCOEWQe@IMIKMOIEGEOGUIuA_@}E{A]KOEcAUg@M","length":106},"alerts":[{"alertHeaderText":"Unpaved surface"}],"rentedBike":false,"transitLeg":false,"duration":1954.0,"steps":[{"distance":169.089,"relativeDirection":"DEPART","streetName":"Rue Adam","absoluteDirection":"EAST","stayOn":false,"area":false,"bogusName":false,"lon":-71.04246901244274,"lat":48.448279857146716,"elevation":[]},{"distance":155.755,"relativeDirection":"CONTINUE","streetName":"path","absoluteDirection":"EAST","stayOn":false,"area":false,"bogusName":true,"lon":-71.04034370000001,"lat":48.447717700000005,"elevation":[]},{"distance":28.982,"relativeDirection":"RIGHT","streetName":"Rue de Vimy","absoluteDirection":"EAST","stayOn":false,"area":false,"bogusName":false,"lon":-71.0388973,"lat":48.448096500000005,"elevation":[]},{"distance":2211.596,"relativeDirection":"LEFT","streetName":"Chemin Raymond","absoluteDirection":"NORTH","stayOn":false,"area":false,"bogusName":false,"lon":-71.03852780000001,"lat":48.448007800000006,"elevation":[],"alerts":[{"alertHeaderText":"Unpaved surface"}]}]}],"tooSloped":false},{"duration":2331,"startTime":1522680468000,"endTime":1522682799000,"walkTime":2273,"transitTime":56,"waitingTime":2,"walkDistance":2974.7205864602092,"walkLimitExceeded":false,"elevationLost":0.0,"elevationGained":0.0,"transfers":0,"legs":[{"startTime":1522680468000,"endTime":1522680787000,"departureDelay":0,"arrivalDelay":0,"realTime":false,"distance":409.1139999999999,"pathway":false,"mode":"WALK","route":"","agencyTimeZoneOffset":-14400000,"interlineWithPreviousLeg":false,"from":{"name":"Origin","lon":-71.04545,"lat":48.442471,"departure":1522680468000,"orig":"","vertexType":"NORMAL"},"to":{"name":"St-Émile / Madeleine","stopId":"1:811","stopCode":"811","lon":-71.045248,"lat":48.445626,"arrival":1522680787000,"departure":1522680788000,"zoneId":"NA","stopIndex":8,"stopSequence":9,"vertexType":"TRANSIT"},"legGeometry":{"points":"wltfHxbspLg@Qi@tDqA]cAWsHqCsAk@","length":7},"rentedBike":false,"transitLeg":false,"duration":319.0,"steps":[{"distance":24.0,"relativeDirection":"DEPART","streetName":"Rue d'Orly","absoluteDirection":"NORTH","stayOn":false,"area":false,"bogusName":false,"lon":-71.0457232647501,"lat":48.44252047216052,"elevation":[]},{"distance":71.042,"relativeDirection":"LEFT","streetName":"Rue Saint-Michel","absoluteDirection":"WEST","stayOn":false,"area":false,"bogusName":false,"lon":-71.0456376,"lat":48.4427287,"elevation":[]},{"distance":314.072,"relativeDirection":"RIGHT","streetName":"Rue Saint-Émile","absoluteDirection":"NORTH","stayOn":false,"area":false,"bogusName":false,"lon":-71.0465471,"lat":48.4429389,"elevation":[]}]},{"startTime":1522680788000,"endTime":1522680844000,"departureDelay":0,"arrivalDelay":0,"realTime":false,"distance":446.7248039891065,"pathway":false,"mode":"BUS","route":"24","agencyName":"Société de Transport du Saguenay","agencyUrl":"http://ville.saguenay.ca/fr/services-aux-citoyens/transport-sts","agencyTimeZoneOffset":-14400000,"routeColor":"00FF00","routeType":3,"routeId":"1:24","routeTextColor":"000000","interlineWithPreviousLeg":false,"tripBlockId":"4","headsign":"Terminus Chicoutimi","agencyId":"0","tripId":"1:217231","serviceDate":"20180402","from":{"name":"St-Émile / Madeleine","stopId":"1:811","stopCode":"811","lon":-71.045248,"lat":48.445626,"arrival":1522680787000,"departure":1522680788000,"zoneId":"NA","stopIndex":8,"stopSequence":9,"vertexType":"TRANSIT"},"to":{"name":"Adam / Thibeault","stopId":"1:814","stopCode":"814","lon":-71.042521,"lat":48.448191,"arrival":1522680844000,"departure":1522680845000,"zoneId":"NA","stopIndex":10,"stopSequence":11,"vertexType":"TRANSIT"},"legGeometry":{"points":"g`ufHl`spLwQuGDWbAoG","length":4},"routeShortName":"24","routeLongName":"Saint-Luc","rentedBike":false,"transitLeg":true,"duration":56.0,"steps":[]},{"startTime":1522680845000,"endTime":1522682799000,"departureDelay":0,"arrivalDelay":0,"realTime":false,"distance":2565.422,"pathway":false,"mode":"WALK","route":"","agencyTimeZoneOffset":-14400000,"interlineWithPreviousLeg":false,"from":{"name":"Adam / Thibeault","stopId":"1:814","stopCode":"814","lon":-71.042521,"lat":48.448191,"arrival":1522680844000,"departure":1522680845000,"zoneId":"NA","stopIndex":10,"stopSequence":11,"vertexType":"TRANSIT"},"to":{"name":"Destination","lon":-71.02449699,"lat":48.461121,"arrival":1522682799000,"orig":"","vertexType":"NORMAL"},"legGeometry":{"points":"upufHlnrpLVaB|@cGPq@FOj@uEwBkA@GNaAC?]KoC{@kCaAIAwHsBeEoAqBs@gBg@q@Ws@SEAEEIGWWOKSOGCICKCKAU?SA]CI?SAIAICOCUGWIuC}@gA_@kA[sAa@iAc@CAcAUw@WWGc@Q_@QMMKOCM?AAGAc@AI?M@QBSD]Ju@BQJ{@He@Di@TeCP}AJmAH_ALyAFs@LyAPuADk@Hk@BU@WBY@MAe@AOCMQ{@OmAKw@Ek@AWCQCOEWQe@IMIKMOIEGEOGUIuA_@}E{A]KOEcAUg@M","length":106},"alerts":[{"alertHeaderText":"Unpaved surface"}],"rentedBike":false,"transitLeg":false,"duration":1954.0,"steps":[{"distance":169.089,"relativeDirection":"DEPART","streetName":"Rue Adam","absoluteDirection":"EAST","stayOn":false,"area":false,"bogusName":false,"lon":-71.04246901244274,"lat":48.448279857146716,"elevation":[]},{"distance":155.755,"relativeDirection":"CONTINUE","streetName":"path","absoluteDirection":"EAST","stayOn":false,"area":false,"bogusName":true,"lon":-71.04034370000001,"lat":48.447717700000005,"elevation":[]},{"distance":28.982,"relativeDirection":"RIGHT","streetName":"Rue de Vimy","absoluteDirection":"EAST","stayOn":false,"area":false,"bogusName":false,"lon":-71.0388973,"lat":48.448096500000005,"elevation":[]},{"distance":2211.596,"relativeDirection":"LEFT","streetName":"Chemin Raymond","absoluteDirection":"NORTH","stayOn":false,"area":false,"bogusName":false,"lon":-71.03852780000001,"lat":48.448007800000006,"elevation":[],"alerts":[{"alertHeaderText":"Unpaved surface"}]}]}],"tooSloped":false},{"duration":2331,"startTime":1522682268000,"endTime":1522684599000,"walkTime":2273,"transitTime":56,"waitingTime":2,"walkDistance":2974.7205864602092,"walkLimitExceeded":false,"elevationLost":0.0,"elevationGained":0.0,"transfers":0,"legs":[{"startTime":1522682268000,"endTime":1522682587000,"departureDelay":0,"arrivalDelay":0,"realTime":false,"distance":409.1139999999999,"pathway":false,"mode":"WALK","route":"","agencyTimeZoneOffset":-14400000,"interlineWithPreviousLeg":false,"from":{"name":"Origin","lon":-71.04545,"lat":48.442471,"departure":1522682268000,"orig":"","vertexType":"NORMAL"},"to":{"name":"St-Émile / Madeleine","stopId":"1:811","stopCode":"811","lon":-71.045248,"lat":48.445626,"arrival":1522682587000,"departure":1522682588000,"zoneId":"NA","stopIndex":8,"stopSequence":9,"vertexType":"TRANSIT"},"legGeometry":{"points":"wltfHxbspLg@Qi@tDqA]cAWsHqCsAk@","length":7},"rentedBike":false,"transitLeg":false,"duration":319.0,"steps":[{"distance":24.0,"relativeDirection":"DEPART","streetName":"Rue d'Orly","absoluteDirection":"NORTH","stayOn":false,"area":false,"bogusName":false,"lon":-71.0457232647501,"lat":48.44252047216052,"elevation":[]},{"distance":71.042,"relativeDirection":"LEFT","streetName":"Rue Saint-Michel","absoluteDirection":"WEST","stayOn":false,"area":false,"bogusName":false,"lon":-71.0456376,"lat":48.4427287,"elevation":[]},{"distance":314.072,"relativeDirection":"RIGHT","streetName":"Rue Saint-Émile","absoluteDirection":"NORTH","stayOn":false,"area":false,"bogusName":false,"lon":-71.0465471,"lat":48.4429389,"elevation":[]}]},{"startTime":1522682588000,"endTime":1522682644000,"departureDelay":0,"arrivalDelay":0,"realTime":false,"distance":446.7248039891065,"pathway":false,"mode":"BUS","route":"24","agencyName":"Société de Transport du Saguenay","agencyUrl":"http://ville.saguenay.ca/fr/services-aux-citoyens/transport-sts","agencyTimeZoneOffset":-14400000,"routeColor":"00FF00","routeType":3,"routeId":"1:24","routeTextColor":"000000","interlineWithPreviousLeg":false,"tripBlockId":"5","headsign":"Terminus Chicoutimi","agencyId":"0","tripId":"1:217259","serviceDate":"20180402","from":{"name":"St-Émile / Madeleine","stopId":"1:811","stopCode":"811","lon":-71.045248,"lat":48.445626,"arrival":1522682587000,"departure":1522682588000,"zoneId":"NA","stopIndex":8,"stopSequence":9,"vertexType":"TRANSIT"},"to":{"name":"Adam / Thibeault","stopId":"1:814","stopCode":"814","lon":-71.042521,"lat":48.448191,"arrival":1522682644000,"departure":1522682645000,"zoneId":"NA","stopIndex":10,"stopSequence":11,"vertexType":"TRANSIT"},"legGeometry":{"points":"g`ufHl`spLwQuGDWbAoG","length":4},"routeShortName":"24","routeLongName":"Saint-Luc","rentedBike":false,"transitLeg":true,"duration":56.0,"steps":[]},{"startTime":1522682645000,"endTime":1522684599000,"departureDelay":0,"arrivalDelay":0,"realTime":false,"distance":2565.422,"pathway":false,"mode":"WALK","route":"","agencyTimeZoneOffset":-14400000,"interlineWithPreviousLeg":false,"from":{"name":"Adam / Thibeault","stopId":"1:814","stopCode":"814","lon":-71.042521,"lat":48.448191,"arrival":1522682644000,"departure":1522682645000,"zoneId":"NA","stopIndex":10,"stopSequence":11,"vertexType":"TRANSIT"},"to":{"name":"Destination","lon":-71.02449699,"lat":48.461121,"arrival":1522684599000,"orig":"","vertexType":"NORMAL"},"legGeometry":{"points":"upufHlnrpLVaB|@cGPq@FOj@uEwBkA@GNaAC?]KoC{@kCaAIAwHsBeEoAqBs@gBg@q@Ws@SEAEEIGWWOKSOGCICKCKAU?SA]CI?SAIAICOCUGWIuC}@gA_@kA[sAa@iAc@CAcAUw@WWGc@Q_@QMMKOCM?AAGAc@AI?M@QBSD]Ju@BQJ{@He@Di@TeCP}AJmAH_ALyAFs@LyAPuADk@Hk@BU@WBY@MAe@AOCMQ{@OmAKw@Ek@AWCQCOEWQe@IMIKMOIEGEOGUIuA_@}E{A]KOEcAUg@M","length":106},"alerts":[{"alertHeaderText":"Unpaved surface"}],"rentedBike":false,"transitLeg":false,"duration":1954.0,"steps":[{"distance":169.089,"relativeDirection":"DEPART","streetName":"Rue Adam","absoluteDirection":"EAST","stayOn":false,"area":false,"bogusName":false,"lon":-71.04246901244274,"lat":48.448279857146716,"elevation":[]},{"distance":155.755,"relativeDirection":"CONTINUE","streetName":"path","absoluteDirection":"EAST","stayOn":false,"area":false,"bogusName":true,"lon":-71.04034370000001,"lat":48.447717700000005,"elevation":[]},{"distance":28.982,"relativeDirection":"RIGHT","streetName":"Rue de Vimy","absoluteDirection":"EAST","stayOn":false,"area":false,"bogusName":false,"lon":-71.0388973,"lat":48.448096500000005,"elevation":[]},{"distance":2211.596,"relativeDirection":"LEFT","streetName":"Chemin Raymond","absoluteDirection":"NORTH","stayOn":false,"area":false,"bogusName":false,"lon":-71.03852780000001,"lat":48.448007800000006,"elevation":[],"alerts":[{"alertHeaderText":"Unpaved surface"}]}]}],"tooSloped":false}]},"debugOutput":{"precalculationTime":7,"pathCalculationTime":22,"pathTimes":[13,5,4],"renderingTime":0,"totalTime":29,"timedOut":false},"elevationMetadata":{"ellipsoidToGeoidDifference":-28.885904201182168,"geoidElevation":false}}