{"requestParameters":{"date":"2018/04/02","walkSpeed":"1.33","walkReluctance":"2.0","fromPlace":"48.439745,-71.045664","maxWalkDistance":"3000","waitReluctance":"1.0","carSpeed":"33","numItineraries":"3","waitAtBeginningFactor":"0.4","mode":"TRANSIT,WALK","ignoreRealtimeUpdates":"false","stairsReluctance":"2.0","toPlace":"48.443772,-71.046113","time":"19:30:00"},"plan":{"date":1522711800000,"from":{"name":"Origin","lon":-71.045664,"lat":48.439745,"orig":"","vertexType":"NORMAL"},"to":{"name":"Destination","lon":-71.046113,"lat":48.443772,"orig":"","vertexType":"NORMAL"},"itineraries":[{"duration":455,"startTime":1522711800000,"endTime":1522712255000,"walkTime":455,"transitTime":0,"waitingTime":0,"walkDistance":575.9739699203602,"walkLimitExceeded":false,"elevationLost":0.0,"elevationGained":0.0,"transfers":0,"legs":[{"startTime":1522711800000,"endTime":1522712255000,"departureDelay":0,"arrivalDelay":0,"realTime":false,"distance":575.836,"pathway":false,"mode":"WALK","route":"","agencyTimeZoneOffset":-14400000,"interlineWithPreviousLeg":false,"from":{"name":"Origin","lon":-71.045664,"lat":48.439745,"departure":1522711800000,"orig":"","vertexType":"NORMAL"},"to":{"name":"Destination","lon":-71.046113,"lat":48.443772,"arrival":1522712255000,"orig":"","vertexType":"NORMAL"},"legGeometry":{"points":"q|sfHhbspLCz@ClAOfBeC{@{B}@o@dEmGiCqA]cAWUK","length":11},"rentedBike":false,"transitLeg":false,"duration":455.0,"steps":[{"distance":90.741,"relativeDirection":"DEPART","streetName":"Rue de Victoria","absoluteDirection":"WEST","stayOn":false,"area":false,"bogusName":false,"lon":-71.04564073872953,"lat":48.439937732080324,"elevation":[]},{"distance":150.793,"relativeDirection":"RIGHT","streetName":"Rue Louvois","absoluteDirection":"NORTH","stayOn":false,"area":false,"bogusName":false,"lon":-71.0468556,"lat":48.440053500000005,"elevation":[]},{"distance":76.918,"relativeDirection":"LEFT","streetName":"Rue Jogues","absoluteDirection":"WEST","stayOn":false,"area":false,"bogusName":false,"lon":-71.04625,"lat":48.441348600000005,"elevation":[]},{"distance":257.384,"relativeDirection":"RIGHT","streetName":"Rue Saint-Émile","absoluteDirection":"NORTH","stayOn":false,"area":false,"bogusName":false,"lon":-71.04723220000001,"lat":48.441580900000005,"elevation":[]}]}],"tooSloped":false},{"duration":328,"startTime":1522715257000,"endTime":1522715585000,"walkTime":268,"transitTime":58,"waitingTime":2,"walkDistance":338.7947969902613,"walkLimitExceeded":false,"elevationLost":0.0,"elevationGained":0.0,"transfers":0,"legs":[{"startTime":1522715257000,"endTime":1522715485000,"departureDelay":0,"arrivalDelay":0,"realTime":false,"distance":287.525,"pathway":false,"mode":"WALK","route":"","agencyTimeZoneOffset":-14400000,"interlineWithPreviousLeg":false,"from":{"name":"Origin","lon":-71.045664,"lat":48.439745,"departure":1522715257000,"orig":"","vertexType":"NORMAL"},"to":{"name":"St-Émile / Olier","stopId":"1:826","stopCode":"826","lon":-71.047781,"lat":48.440001,"arrival":1522715485000,"departure":1522715486000,"zoneId":"NA","stopIndex":24,"stopSequence":25,"vertexType":"TRANSIT"},"legGeometry":{"points":"q|sfHhbspLCz@ClAOfB~B|@e@|DgA_@ME","length":8},"rentedBike":false,"transitLeg":false,"duration":228.0,"steps":[{"distance":90.741,"relativeDirection":"DEPART","streetName":"Rue de Victoria","absoluteDirection":"WEST","stayOn":false,"area":false,"bogusName":false,"lon":-71.04564073872953,"lat":48.439937732080324,"elevation":[]},{"distance":74.472,"relativeDirection":"LEFT","streetName":"Rue Louvois","absoluteDirection":"SOUTH","stayOn":false,"area":false,"bogusName":false,"lon":-71.0468556,"lat":48.440053500000005,"elevation":[]},{"distance":73.464,"relativeDirection":"RIGHT","streetName":"Rue Olier","absoluteDirection":"WEST","stayOn":false,"area":false,"bogusName":false,"lon":-71.0471646,"lat":48.4394159,"elevation":[]},{"distance":48.848,"relativeDirection":"RIGHT","streetName":"Rue Saint-Émile","absoluteDirection":"NORTH","stayOn":false,"area":false,"bogusName":false,"lon":-71.048117,"lat":48.439609000000004,"elevation":[]}]},{"startTime":1522715486000,"endTime":1522715544000,"departureDelay":0,"arrivalDelay":0,"realTime":false,"distance":386.4146658083591,"pathway":false,"mode":"BUS","route":"24","agencyName":"Société de Transport du Saguenay","agencyUrl":"http://ville.saguenay.ca/fr/services-aux-citoyens/transport-sts","agencyTimeZoneOffset":-14400000,"routeColor":"00FF00","routeType":3,"routeId":"1:24","routeTextColor":"000000","interlineWithPreviousLeg":false,"tripBlockId":"5","headsign":"Terminus Chicoutimi","agencyId":"0","tripId":"1:217277","serviceDate":"20180402","from":{"name":"St-Émile / Olier","stopId":"1:826","stopCode":"826","lon":-71.047781,"lat":48.440001,"arrival":1522715485000,"departure":1522715486000,"zoneId":"NA","stopIndex":24,"stopSequence":25,"vertexType":"TRANSIT"},"to":{"name":"St-Émile / boul. Tadoussac","stopId":"1:828","stopCode":"828","lon":-71.046279,"lat":48.44333,"arrival":1522715544000,"departure":1522715545000,"zoneId":"NA","stopIndex":26,"stopSequence":27,"vertexType":"TRANSIT"},"legGeometry":{"points":"g}sfH|pspLaHiCsJqD","length":3},"routeShortName":"24","routeLongName":"Saint-Luc","rentedBike":false,"transitLeg":true,"duration":58.0,"steps":[]},{"startTime":1522715545000,"endTime":1522715585000,"departureDelay":0,"arrivalDelay":0,"realTime":false,"distance":51.20099999999999,"pathway":false,"mode":"WALK","route":"","agencyTimeZoneOffset":-14400000,"interlineWithPreviousLeg":false,"from":{"name":"St-Émile / boul. Tadoussac","stopId":"1:828","stopCode":"828","lon":-71.046279,"lat":48.44333,"arrival":1522715544000,"departure":1522715545000,"zoneId":"NA","stopIndex":26,"stopSequence":27,"vertexType":"TRANSIT"},"to":{"name":"Destination","lon":-71.046113,"lat":48.443772,"arrival":1522715585000,"orig":"","vertexType":"NORMAL"},"legGeometry":{"points":"{qtfH~fspLcAWUK","length":3},"rentedBike":false,"transitLeg":false,"duration":40.0,"steps":[{"distance":51.20099999999999,"relativeDirection":"DEPART","streetName":"Rue Saint-Émile","absoluteDirection":"NORTH","stayOn":false,"area":false,"bogusName":false,"lon":-71.04639534100019,"lat":48.44334894751584,"elevation":[]}]}],"tooSloped":false}]},"debugOutput":{"precalculationTime":15,"pathCalculationTime":17,"pathTimes":[3,11,3],"renderingTime":0,"totalTime":32,"timedOut":false},"elevationMetadata":{"ellipsoidToGeoidDifference":-28.885904201182168,"geoidElevation":false}}