{"requestParameters":{"date":"2018/04/02","walkSpeed":"1.33","walkReluctance":"2.0","fromPlace":"48.396934,-71.110521","maxWalkDistance":"3000","waitReluctance":"1.0","carSpeed":"33","numItineraries":"3","waitAtBeginningFactor":"0.4","mode":"TRANSIT,WALK","ignoreRealtimeUpdates":"false","stairsReluctance":"2.0","toPlace":"48.440141,-71.043749","time":"16:45:00"},"plan":{"date":1522701900000,"from":{"name":"Origin","lon":-71.110521,"lat":48.396934,"orig":"","vertexType":"NORMAL"},"to":{"name":"Destination","lon":-71.043749,"lat":48.440141,"orig":"","vertexType":"NORMAL"},"itineraries":[{"duration":2471,"startTime":1522702255000,"endTime":1522704726000,"walkTime":718,"transitTime":1511,"waitingTime":242,"walkDistance":931.8464135301105,"walkLimitExceeded":false,"elevationLost":0.0,"elevationGained":0.0,"transfers":1,"legs":[{"startTime":1522702255000,"endTime":1522702450000,"departureDelay":0,"arrivalDelay":0,"realTime":false,"distance":258.849,"pathway":false,"mode":"WALK","route":"","agencyTimeZoneOffset":-14400000,"interlineWithPreviousLeg":false,"from":{"name":"Origin","lon":-71.110521,"lat":48.396934,"departure":1522702255000,"orig":"","vertexType":"NORMAL"},"to":{"name":"Manic / boul. St-Paul","stopId":"1:40","stopCode":"40","lon":-71.10725,"lat":48.395975,"arrival":1522702450000,"departure":1522702451000,"zoneId":"NA","stopIndex":9,"stopSequence":10,"vertexType":"TRANSIT"},"legGeometry":{"points":"urkfHtt_qLhEqL`AiC","length":3},"rentedBike":false,"transitLeg":false,"duration":195.0,"steps":[{"distance":258.849,"relativeDirection":"DEPART","streetName":"Rue de la Manic","absoluteDirection":"SOUTHEAST","stayOn":false,"area":false,"bogusName":false,"lon":-71.11002786905574,"lat":48.39739893640596,"elevation":[]}]},{"startTime":1522702451000,"endTime":1522703460000,"departureDelay":0,"arrivalDelay":0,"realTime":false,"distance":5337.6088497245355,"pathway":false,"mode":"BUS","route":"11","agencyName":"Société de Transport du Saguenay","agencyUrl":"http://ville.saguenay.ca/fr/services-aux-citoyens/transport-sts","agencyTimeZoneOffset":-14400000,"routeColor":"FF0000","routeType":3,"routeId":"1:11","routeTextColor":"FFFFFF","interlineWithPreviousLeg":false,"tripBlockId":"37","headsign":"Terminus Chicoutimi","agencyId":"0","tripId":"1:218323","serviceDate":"20180402","from":{"name":"Manic / boul. St-Paul","stopId":"1:40","stopCode":"40","lon":-71.10725,"lat":48.395975,"arrival":1522702450000,"departure":1522702451000,"zoneId":"NA","stopIndex":9,"stopSequence":10,"vertexType":"TRANSIT"},"to":{"name":"Terminus Chicoutimi","stopId":"1:1289","stopCode":"1289","lon":-71.066163,"lat":48.428677,"arrival":1522703460000,"departure":1522703700000,"zoneId":"NA","stopIndex":30,"stopSequence":31,"vertexType":"TRANSIT"},"legGeometry":{"points":"gjkfHzb_qL`AmCJ[kXi[gKsLqMgOmAbDAVSl@y@vBeCuCoCaDkDuE_@g@{FwGOMnA}CnA_DJWu@iAW[S[yI{MmBqC{@wAQUw@gAsDiF_B_CQYa@cA[_AUy@YcBOgAYHu@\\M`@cAiBuAyBkHgL{C{E}AcCc@o@q@gAOWwCyCyGyG_IaIs@rBEHwAtDmBvEOd@[bBK~AIf@YHE@Q@O?OCI_@GMEKI_AB_A?Yo@IKCIEIIKOEKCKe@}BKs@CQAUE_A@yCFcDVsLDaCD_@kBKW?e@Q_BQNuEDuBXmNLgHmKm@}BW{AMCn@o@G??","length":99},"routeShortName":"11","routeLongName":"Chic/Faubourg via St-Paul","rentedBike":false,"transitLeg":true,"duration":1009.0,"steps":[]},{"startTime":1522703700000,"endTime":1522704202000,"departureDelay":0,"arrivalDelay":0,"realTime":false,"distance":3069.8616776932686,"pathway":false,"mode":"BUS","route":"25","agencyName":"Société de Transport du Saguenay","agencyUrl":"http://ville.saguenay.ca/fr/services-aux-citoyens/transport-sts","agencyTimeZoneOffset":-14400000,"routeColor":"00FFFF","routeType":3,"routeId":"1:25","routeTextColor":"000000","interlineWithPreviousLeg":false,"tripBlockId":"97","headsign":"Terminus Chicoutimi","agencyId":"0","tripId":"1:218742","serviceDate":"20180402","from":{"name":"Terminus Chicoutimi","stopId":"1:1289","stopCode":"1289","lon":-71.066163,"lat":48.428677,"arrival":1522703460000,"departure":1522703700000,"zoneId":"NA","stopIndex":0,"stopSequence":1,"vertexType":"TRANSIT"},"to":{"name":"Fix Auto (boul. Tadoussac)","stopId":"1:817","stopCode":"817","lon":-71.040572,"lat":48.444203,"arrival":1522704202000,"departure":1522704203000,"zoneId":"NA","stopIndex":6,"stopSequence":7,"vertexType":"TRANSIT"},"legGeometry":{"points":"avqfH``wpLc@E@o@kAOYCm@rRO\\WjGOfGCRK^KJMHQB_AMg@Gm\\wO]i@wAyA_@WUKMEwEm@Js@Da@??@@??@?@???@???@?@??A@???@A@??A@??A@A??@A?A??@A?A?A?A@A?A???A?A?A???A?A?A?A???A?AAA?A???AAA?A??AA?AA??AA??A??AA??A??AA?A???A????q@C{AAaB?mAEcAGs@OoAa@sB[kAYcASq@Ok@Qq@Ku@MoBiC}@yBu@AAyBu@o@Qs@[YSSUY]Ye@]{@Me@Kg@K{@CQm@_IEs@Cq@Aw@Do@LyAJ_ADYBUf@wDRaBHqABQA}@IwAUoAcAkCWo@qDgJg@cBk@uBi@sC]aCWwCs@}Mq@_NQoD","length":146},"routeShortName":"25","routeLongName":"Valin","rentedBike":false,"transitLeg":true,"duration":502.0,"steps":[]},{"startTime":1522704203000,"endTime":1522704726000,"departureDelay":0,"arrivalDelay":0,"realTime":false,"distance":672.882,"pathway":false,"mode":"WALK","route":"","agencyTimeZoneOffset":-14400000,"interlineWithPreviousLeg":false,"from":{"name":"Fix Auto (boul. Tadoussac)","stopId":"1:817","stopCode":"817","lon":-71.040572,"lat":48.444203,"arrival":1522704202000,"departure":1522704203000,"zoneId":"NA","stopIndex":6,"stopSequence":7,"vertexType":"TRANSIT"},"to":{"name":"Destination","lon":-71.043749,"lat":48.440141,"arrival":1522704726000,"orig":"","vertexType":"NORMAL"},"legGeometry":{"points":"uwtfHtbrpLPlDvDe@x@Kf@GZ?b@?^DXFZLZL`@J\\Hv@TvD`BCRCXA\\UlB`Bh@HHDB?LAn@A^","length":25},"rentedBike":false,"transitLeg":false,"duration":523.0,"steps":[{"distance":64.369,"relativeDirection":"DEPART","streetName":"Boulevard de Tadoussac","absoluteDirection":"WEST","stayOn":false,"area":false,"bogusName":false,"lon":-71.04058906896485,"lat":48.44427587567354,"elevation":[]},{"distance":436.639,"relativeDirection":"LEFT","streetName":"Rue Olier","absoluteDirection":"SOUTH","stayOn":false,"area":false,"bogusName":false,"lon":-71.0414514,"lat":48.44418700000001,"elevation":[]},{"distance":70.262,"relativeDirection":"RIGHT","streetName":"Rue de Belleville","absoluteDirection":"WEST","stayOn":false,"area":false,"bogusName":false,"lon":-71.04208770000001,"lat":48.4403664,"elevation":[]},{"distance":101.612,"relativeDirection":"LEFT","streetName":"Rue de Victoria","absoluteDirection":"SOUTH","stayOn":false,"area":false,"bogusName":false,"lon":-71.04301050000001,"lat":48.4405201,"elevation":[]}]}],"tooSloped":false},{"duration":2403,"startTime":1522704055000,"endTime":1522706458000,"walkTime":718,"transitTime":1443,"waitingTime":242,"walkDistance":931.8464135301105,"walkLimitExceeded":false,"elevationLost":0.0,"elevationGained":0.0,"transfers":1,"legs":[{"startTime":1522704055000,"endTime":1522704250000,"departureDelay":0,"arrivalDelay":0,"realTime":false,"distance":258.849,"pathway":false,"mode":"WALK","route":"","agencyTimeZoneOffset":-14400000,"interlineWithPreviousLeg":false,"from":{"name":"Origin","lon":-71.110521,"lat":48.396934,"departure":1522704055000,"orig":"","vertexType":"NORMAL"},"to":{"name":"Manic / boul. St-Paul","stopId":"1:40","stopCode":"40","lon":-71.10725,"lat":48.395975,"arrival":1522704250000,"departure":1522704251000,"zoneId":"NA","stopIndex":9,"stopSequence":10,"vertexType":"TRANSIT"},"legGeometry":{"points":"urkfHtt_qLhEqL`AiC","length":3},"rentedBike":false,"transitLeg":false,"duration":195.0,"steps":[{"distance":258.849,"relativeDirection":"DEPART","streetName":"Rue de la Manic","absoluteDirection":"SOUTHEAST","stayOn":false,"area":false,"bogusName":false,"lon":-71.11002786905574,"lat":48.39739893640596,"elevation":[]}]},{"startTime":1522704251000,"endTime":1522705260000,"departureDelay":0,"arrivalDelay":0,"realTime":false,"distance":5337.6088497245355,"pathway":false,"mode":"BUS","route":"11","agencyName":"Société de Transport du Saguenay","agencyUrl":"http://ville.saguenay.ca/fr/services-aux-citoyens/transport-sts","agencyTimeZoneOffset":-14400000,"routeColor":"FF0000","routeType":3,"routeId":"1:11","routeTextColor":"FFFFFF","interlineWithPreviousLeg":false,"tripBlockId":"34","headsign":"Terminus Chicoutimi","agencyId":"0","tripId":"1:218228","serviceDate":"20180402","from":{"name":"Manic / boul. St-Paul","stopId":"1:40","stopCode":"40","lon":-71.10725,"lat":48.395975,"arrival":1522704250000,"departure":1522704251000,"zoneId":"NA","stopIndex":9,"stopSequence":10,"vertexType":"TRANSIT"},"to":{"name":"Terminus Chicoutimi","stopId":"1:1289","stopCode":"1289","lon":-71.066163,"lat":48.428677,"arrival":1522705260000,"departure":1522705500000,"zoneId":"NA","stopIndex":30,"stopSequence":31,"vertexType":"TRANSIT"},"legGeometry":{"points":"gjkfHzb_qL`AmCJ[kXi[gKsLqMgOmAbDAVSl@y@vBeCuCoCaDkDuE_@g@{FwGOMnA}CnA_DJWu@iAW[S[yI{MmBqC{@wAQUw@gAsDiF_B_CQYa@cA[_AUy@YcBOgAYHu@\\M`@cAiBuAyBkHgL{C{E}AcCc@o@q@gAOWwCyCyGyG_IaIs@rBEHwAtDmBvEOd@[bBK~AIf@YHE@Q@O?OCI_@GMEKI_AB_A?Yo@IKCIEIIKOEKCKe@}BKs@CQAUE_A@yCFcDVsLDaCD_@kBKW?e@Q_BQNuEDuBXmNLgHmKm@}BW{AMCn@o@G??","length":99},"routeShortName":"11","routeLongName":"Chic/Faubourg via St-Paul","rentedBike":false,"transitLeg":true,"duration":1009.0,"steps":[]},{"startTime":1522705500000,"endTime":1522705934000,"departureDelay":0,"arrivalDelay":0,"realTime":false,"distance":3069.8616776932686,"pathway":false,"mode":"BUS","route":"26","agencyName":"Société de Transport du Saguenay","agencyUrl":"http://ville.saguenay.ca/fr/services-aux-citoyens/transport-sts","agencyTimeZoneOffset":-14400000,"routeColor":"00FFFF","routeType":3,"routeId":"1:26","routeTextColor":"000000","interlineWithPreviousLeg":false,"tripBlockId":"107","headsign":"Terminus Chicoutimi","agencyId":"0","tripId":"1:218825","serviceDate":"20180402","from":{"name":"Terminus Chicoutimi","stopId":"1:1289","stopCode":"1289","lon":-71.066163,"lat":48.428677,"arrival":1522705260000,"departure":1522705500000,"zoneId":"NA","stopIndex":0,"stopSequence":1,"vertexType":"TRANSIT"},"to":{"name":"Fix Auto (boul. Tadoussac)","stopId":"1:817","stopCode":"817","lon":-71.040572,"lat":48.444203,"arrival":1522705934000,"departure":1522705935000,"zoneId":"NA","stopIndex":6,"stopSequence":7,"vertexType":"TRANSIT"},"legGeometry":{"points":"avqfH``wpLc@E@o@kAOYCm@rRO\\WjGOfGCRK^KJMHQB_AMg@Gm\\wO]i@wAyA_@WUKMEwEm@Js@Da@??@@??@?@???@???@?@??A@???@A@??A@??A@A??@A?A??@A?A?A?A@A?A???A?A?A???A?A?A?A???A?AAA?A???AAA?A??AA?AA??AA??A??AA??A??AA?A???A????q@C{AAaB?mAEcAGs@OoAa@sB[kAYcASq@Ok@Qq@Ku@MoBiC}@yBu@AAyBu@o@Qs@[YSSUY]Ye@]{@Me@Kg@K{@CQm@_IEs@Cq@Aw@Do@LyAJ_ADYBUf@wDRaBHqABQA}@IwAUoAcAkCWo@qDgJg@cBk@uBi@sC]aCWwCs@}Mq@_NQoD","length":146},"routeShortName":"26","routeLongName":"St-Fulgence","rentedBike":false,"transitLeg":true,"duration":434.0,"steps":[]},{"startTime":1522705935000,"endTime":1522706458000,"departureDelay":0,"arrivalDelay":0,"realTime":false,"distance":672.882,"pathway":false,"mode":"WALK","route":"","agencyTimeZoneOffset":-14400000,"interlineWithPreviousLeg":false,"from":{"name":"Fix Auto (boul. Tadoussac)","stopId":"1:817","stopCode":"817","lon":-71.040572,"lat":48.444203,"arrival":1522705934000,"departure":1522705935000,"zoneId":"NA","stopIndex":6,"stopSequence":7,"vertexType":"TRANSIT"},"to":{"name":"Destination","lon":-71.043749,"lat":48.440141,"arrival":1522706458000,"orig":"","vertexType":"NORMAL"},"legGeometry":{"points":"uwtfHtbrpLPlDvDe@x@Kf@GZ?b@?^DXFZLZL`@J\\Hv@TvD`BCRCXA\\UlB`Bh@HHDB?LAn@A^","length":25},"rentedBike":false,"transitLeg":false,"duration":523.0,"steps":[{"distance":64.369,"relativeDirection":"DEPART","streetName":"Boulevard de Tadoussac","absoluteDirection":"WEST","stayOn":false,"area":false,"bogusName":false,"lon":-71.04058906896485,"lat":48.44427587567354,"elevation":[]},{"distance":436.639,"relativeDirection":"LEFT","streetName":"Rue Olier","absoluteDirection":"SOUTH","stayOn":false,"area":false,"bogusName":false,"lon":-71.0414514,"lat":48.44418700000001,"elevation":[]},{"distance":70.262,"relativeDirection":"RIGHT","streetName":"Rue de Belleville","absoluteDirection":"WEST","stayOn":false,"area":false,"bogusName":false,"lon":-71.04208770000001,"lat":48.4403664,"elevation":[]},{"distance":101.612,"relativeDirection":"LEFT","streetName":"Rue de Victoria","absoluteDirection":"SOUTH","stayOn":false,"area":false,"bogusName":false,"lon":-71.04301050000001,"lat":48.4405201,"elevation":[]}]}],"tooSloped":false},{"duration":2827,"startTime":1522705855000,"endTime":1522708682000,"walkTime":530,"transitTime":1995,"waitingTime":302,"walkDistance":685.2441202975858,"walkLimitExceeded":false,"elevationLost":0.0,"elevationGained":0.0,"transfers":1,"legs":[{"startTime":1522705855000,"endTime":1522706050000,"departureDelay":0,"arrivalDelay":0,"realTime":false,"distance":258.849,"pathway":false,"mode":"WALK","route":"","agencyTimeZoneOffset":-14400000,"interlineWithPreviousLeg":false,"from":{"name":"Origin","lon":-71.110521,"lat":48.396934,"departure":1522705855000,"orig":"","vertexType":"NORMAL"},"to":{"name":"Manic / boul. St-Paul","stopId":"1:40","stopCode":"40","lon":-71.10725,"lat":48.395975,"arrival":1522706050000,"departure":1522706051000,"zoneId":"NA","stopIndex":9,"stopSequence":10,"vertexType":"TRANSIT"},"legGeometry":{"points":"urkfHtt_qLhEqL`AiC","length":3},"rentedBike":false,"transitLeg":false,"duration":195.0,"steps":[{"distance":258.849,"relativeDirection":"DEPART","streetName":"Rue de la Manic","absoluteDirection":"SOUTHEAST","stayOn":false,"area":false,"bogusName":false,"lon":-71.11002786905574,"lat":48.39739893640596,"elevation":[]}]},{"startTime":1522706051000,"endTime":1522707060000,"departureDelay":0,"arrivalDelay":0,"realTime":false,"distance":5337.6088497245355,"pathway":false,"mode":"BUS","route":"11","agencyName":"Société de Transport du Saguenay","agencyUrl":"http://ville.saguenay.ca/fr/services-aux-citoyens/transport-sts","agencyTimeZoneOffset":-14400000,"routeColor":"FF0000","routeType":3,"routeId":"1:11","routeTextColor":"FFFFFF","interlineWithPreviousLeg":false,"tripBlockId":"36","headsign":"Terminus Chicoutimi","agencyId":"0","tripId":"1:218299","serviceDate":"20180402","from":{"name":"Manic / boul. St-Paul","stopId":"1:40","stopCode":"40","lon":-71.10725,"lat":48.395975,"arrival":1522706050000,"departure":1522706051000,"zoneId":"NA","stopIndex":9,"stopSequence":10,"vertexType":"TRANSIT"},"to":{"name":"Terminus Chicoutimi","stopId":"1:1289","stopCode":"1289","lon":-71.066163,"lat":48.428677,"arrival":1522707060000,"departure":1522707360000,"zoneId":"NA","stopIndex":30,"stopSequence":31,"vertexType":"TRANSIT"},"legGeometry":{"points":"gjkfHzb_qL`AmCJ[kXi[gKsLqMgOmAbDAVSl@y@vBeCuCoCaDkDuE_@g@{FwGOMnA}CnA_DJWu@iAW[S[yI{MmBqC{@wAQUw@gAsDiF_B_CQYa@cA[_AUy@YcBOgAYHu@\\M`@cAiBuAyBkHgL{C{E}AcCc@o@q@gAOWwCyCyGyG_IaIs@rBEHwAtDmBvEOd@[bBK~AIf@YHE@Q@O?OCI_@GMEKI_AB_A?Yo@IKCIEIIKOEKCKe@}BKs@CQAUE_A@yCFcDVsLDaCD_@kBKW?e@Q_BQNuEDuBXmNLgHmKm@}BW{AMCn@o@G??","length":99},"routeShortName":"11","routeLongName":"Chic/Faubourg via St-Paul","rentedBike":false,"transitLeg":true,"duration":1009.0,"steps":[]},{"startTime":1522707360000,"endTime":1522708346000,"departureDelay":0,"arrivalDelay":0,"realTime":false,"distance":6440.757259248768,"pathway":false,"mode":"BUS","route":"24","agencyName":"Société de Transport du Saguenay","agencyUrl":"http://ville.saguenay.ca/fr/services-aux-citoyens/transport-sts","agencyTimeZoneOffset":-14400000,"routeColor":"00FF00","routeType":3,"routeId":"1:24","routeTextColor":"000000","interlineWithPreviousLeg":false,"tripBlockId":"5","headsign":"Terminus Chicoutimi","agencyId":"0","tripId":"1:217273","serviceDate":"20180402","from":{"name":"Terminus Chicoutimi","stopId":"1:1289","stopCode":"1289","lon":-71.066163,"lat":48.428677,"arrival":1522707060000,"departure":1522707360000,"zoneId":"NA","stopIndex":0,"stopSequence":1,"vertexType":"TRANSIT"},"to":{"name":"St-Émile / Olier","stopId":"1:826","stopCode":"826","lon":-71.047781,"lat":48.440001,"arrival":1522708346000,"departure":1522708347000,"zoneId":"NA","stopIndex":24,"stopSequence":25,"vertexType":"TRANSIT"},"legGeometry":{"points":"evqfHzcwpLg@?EhBO~GoBKCp@O\\WjGOfGCRK^KJMHQB_AMg@Gm\\wO]i@wAyA_@WUKMEwEm@Js@Da@??@@??@?@???@???@?@??A@???@A@??A@??A@A??@A?A??@A?A?A?A@A?A???A?A?A???A?A?A?A???A?AAA?A???AAA?A??AA?AA??AA??A??AA??A??AA?A???A????q@C{AAaB?mAEcAGs@OoAa@sB[kAYcASq@Ok@Qq@Ku@MoBKmAa@eHi@FKC_@I??iE}Ah@}DH}@?c@Ea@[_BA?My@Cm@?Y@g@Hu@b@sD\\_DBSyHsC_@MBQA}@IwAUoAcAkCWo@qDgJg@cBk@uBi@sC]aCWwCiKuDwQuGDWbAoGV{AxG~BPFhCdAn@Lx@BxA]QeDI}AzAW~ASQoDg@eKG{A?_@?m@?i@LeCJkAd@yGxAqSBs@p@^VRPRbF~FlCxBxB|B~JjK`IjIRPb@^r@d@rAp@\\T\\ZNVRd@J\\Nd@Hf@F`@@DFr@LtAJpB@jAAt@ObEIzAKbBUrBMp@Sn@gAlCk@pAw@fCwB|HCNk@jCeDuAq@UC?mG_C","length":207},"routeShortName":"24","routeLongName":"Saint-Luc","rentedBike":false,"transitLeg":true,"duration":986.0,"steps":[]},{"startTime":1522708347000,"endTime":1522708682000,"departureDelay":0,"arrivalDelay":0,"realTime":false,"distance":426.297,"pathway":false,"mode":"WALK","route":"","agencyTimeZoneOffset":-14400000,"interlineWithPreviousLeg":false,"from":{"name":"St-Émile / Olier","stopId":"1:826","stopCode":"826","lon":-71.047781,"lat":48.440001,"arrival":1522708346000,"departure":1522708347000,"zoneId":"NA","stopIndex":24,"stopSequence":25,"vertexType":"TRANSIT"},"to":{"name":"Destination","lon":-71.043749,"lat":48.440141,"arrival":1522708682000,"orig":"","vertexType":"NORMAL"},"legGeometry":{"points":"e}sfHppspLLDfA^d@}D_C}@NgBBmABuA@uACgBG{A@cA","length":12},"rentedBike":false,"transitLeg":false,"duration":335.0,"steps":[{"distance":48.848,"relativeDirection":"DEPART","streetName":"Rue Saint-Émile","absoluteDirection":"SOUTH","stayOn":false,"area":false,"bogusName":false,"lon":-71.04792810020074,"lat":48.440030053527494,"elevation":[]},{"distance":73.464,"relativeDirection":"LEFT","streetName":"Rue Olier","absoluteDirection":"EAST","stayOn":false,"area":false,"bogusName":false,"lon":-71.048117,"lat":48.439609000000004,"elevation":[]},{"distance":74.472,"relativeDirection":"LEFT","streetName":"Rue Louvois","absoluteDirection":"NORTH","stayOn":false,"area":false,"bogusName":false,"lon":-71.0471646,"lat":48.4394159,"elevation":[]},{"distance":229.513,"relativeDirection":"RIGHT","streetName":"Rue de Victoria","absoluteDirection":"EAST","stayOn":false,"area":false,"bogusName":false,"lon":-71.0468556,"lat":48.440053500000005,"elevation":[]}]}],"tooSloped":false}]},"debugOutput":{"precalculationTime":8,"pathCalculationTime":17,"pathTimes":[9,7,1],"renderingTime":0,"totalTime":25,"timedOut":false},"elevationMetadata":{"ellipsoidToGeoidDifference":-28.885904201182168,"geoidElevation":false}}