{"requestParameters":{"date":"2018/04/02","walkSpeed":"1.33","walkReluctance":"2.0","fromPlace":"48.443713,-71.068053","maxWalkDistance":"3000","waitReluctance":"1.0","carSpeed":"33","numItineraries":"3","waitAtBeginningFactor":"0.4","mode":"TRANSIT,WALK","ignoreRealtimeUpdates":"false","stairsReluctance":"2.0","toPlace":"48.443783,-71.062591","time":"16:30:00"},"plan":{"date":1522701000000,"from":{"name":"Origin","lon":-71.068053,"lat":48.443713,"orig":"","vertexType":"NORMAL"},"to":{"name":"Destination","lon":-71.062591,"lat":48.443783,"orig":"","vertexType":"NORMAL"},"itineraries":[{"duration":369,"startTime":1522701000000,"endTime":1522701369000,"walkTime":369,"transitTime":0,"waitingTime":0,"walkDistance":484.3210601495996,"walkLimitExceeded":false,"elevationLost":0.0,"elevationGained":0.0,"transfers":0,"legs":[{"startTime":1522701000000,"endTime":1522701369000,"departureDelay":0,"arrivalDelay":0,"realTime":false,"distance":484.297,"pathway":false,"mode":"WALK","route":"","agencyTimeZoneOffset":-14400000,"interlineWithPreviousLeg":false,"from":{"name":"Origin","lon":-71.068053,"lat":48.443713,"departure":1522701000000,"orig":"","vertexType":"NORMAL"},"to":{"name":"Destination","lon":-71.062591,"lat":48.443783,"arrival":1522701369000,"orig":"","vertexType":"NORMAL"},"legGeometry":{"points":"ystfHrpwpLcAXiA{MIk@GYISIOIKIGKIa@OWIj@qDTs@^[JClA\\","length":17},"rentedBike":false,"transitLeg":false,"duration":369.0,"steps":[{"distance":39.52,"relativeDirection":"DEPART","streetName":"path","absoluteDirection":"NORTH","stayOn":false,"area":false,"bogusName":false,"lon":-71.06841057285905,"lat":48.44365191196925,"elevation":[]},{"distance":280.098,"relativeDirection":"RIGHT","streetName":"Rue Delisle","absoluteDirection":"EAST","stayOn":false,"area":false,"bogusName":false,"lon":-71.0685442,"lat":48.4439961,"elevation":[]},{"distance":164.679,"relativeDirection":"RIGHT","streetName":"Rue Talon","absoluteDirection":"EAST","stayOn":false,"area":false,"bogusName":false,"lon":-71.065352,"lat":48.445005300000005,"elevation":[]}]}],"tooSloped":false}]},"debugOutput":{"precalculationTime":21,"pathCalculationTime":17,"pathTimes":[1,13,3],"renderingTime":0,"totalTime":38,"timedOut":false},"elevationMetadata":{"ellipsoidToGeoidDifference":-28.885904201182168,"geoidElevation":false}}