{"requestParameters":{"date":"2018/04/02","walkSpeed":"1.33","walkReluctance":"2.0","fromPlace":"48.444658,-71.062128","maxWalkDistance":"3000","waitReluctance":"1.0","carSpeed":"33","numItineraries":"3","waitAtBeginningFactor":"0.4","mode":"TRANSIT,WALK","ignoreRealtimeUpdates":"false","stairsReluctance":"2.0","toPlace":"48.400583,-71.062047","time":"12:45:00"},"plan":{"date":1522687500000,"from":{"name":"Origin","lon":-71.062128,"lat":48.444658,"orig":"","vertexType":"NORMAL"},"to":{"name":"Destination","lon":-71.062047,"lat":48.400583,"orig":"","vertexType":"NORMAL"},"itineraries":[{"duration":2959,"startTime":1522687757000,"endTime":1522690716000,"walkTime":636,"transitTime":1721,"waitingTime":602,"walkDistance":811.1430902195593,"walkLimitExceeded":false,"elevationLost":0.0,"elevationGained":0.0,"transfers":1,"legs":[{"startTime":1522687757000,"endTime":1522688100000,"departureDelay":0,"arrivalDelay":0,"realTime":false,"distance":434.351,"pathway":false,"mode":"WALK","route":"","agencyTimeZoneOffset":-14400000,"interlineWithPreviousLeg":false,"from":{"name":"Origin","lon":-71.062128,"lat":48.444658,"departure":1522687757000,"orig":"","vertexType":"NORMAL"},"to":{"name":"Cabot / St-Rémi","stopId":"1:789","stopCode":"789","lon":-71.061808,"lat":48.447435,"arrival":1522688100000,"departure":1522688101000,"zoneId":"NA","stopIndex":12,"stopSequence":13,"vertexType":"TRANSIT"},"legGeometry":{"points":"i|tfHhdvpLa@Xy@DqB{@XaBK]cBq@gC_@eAfI","length":9},"rentedBike":false,"transitLeg":false,"duration":343.0,"steps":[{"distance":53.381,"relativeDirection":"DEPART","streetName":"Rue Comtois","absoluteDirection":"NORTHWEST","stayOn":false,"area":false,"bogusName":false,"lon":-71.06133,"lat":48.445014,"elevation":[]},{"distance":67.044,"relativeDirection":"SLIGHTLY_RIGHT","streetName":"Rue Belley","absoluteDirection":"NORTH","stayOn":false,"area":false,"bogusName":false,"lon":-71.0614881,"lat":48.445473,"elevation":[]},{"distance":186.612,"relativeDirection":"RIGHT","streetName":"Rue Flamand","absoluteDirection":"EAST","stayOn":false,"area":false,"bogusName":false,"lon":-71.0611887,"lat":48.4460423,"elevation":[]},{"distance":127.314,"relativeDirection":"LEFT","streetName":"Rue Cabot","absoluteDirection":"WEST","stayOn":false,"area":false,"bogusName":false,"lon":-71.0601321,"lat":48.44715,"elevation":[]}]},{"startTime":1522688101000,"endTime":1522688700000,"departureDelay":0,"arrivalDelay":0,"realTime":false,"distance":3970.6550991448576,"pathway":false,"mode":"BUS","route":"23","agencyName":"Société de Transport du Saguenay","agencyUrl":"http://ville.saguenay.ca/fr/services-aux-citoyens/transport-sts","agencyTimeZoneOffset":-14400000,"routeColor":"FF00FF","routeType":3,"routeId":"1:23","routeTextColor":"FFFFFF","interlineWithPreviousLeg":false,"tripBlockId":"5","headsign":"Terminus Chicoutimi","agencyId":"0","tripId":"1:217262","serviceDate":"20180402","from":{"name":"Cabot / St-Rémi","stopId":"1:789","stopCode":"789","lon":-71.061808,"lat":48.447435,"arrival":1522688100000,"departure":1522688101000,"zoneId":"NA","stopIndex":12,"stopSequence":13,"vertexType":"TRANSIT"},"to":{"name":"Terminus Chicoutimi","stopId":"1:1289","stopCode":"1289","lon":-71.066163,"lat":48.428677,"arrival":1522688700000,"departure":1522689300000,"zoneId":"NA","stopIndex":26,"stopSequence":27,"vertexType":"TRANSIT"},"legGeometry":{"points":"}kufH`gvpLz@oGBU?UAWCWUwAWD]B]AUEoAc@kE}AOIq@g@g@u@]w@b@s@T[~CkFf@s@\\e@x@}@jAeAXQZStBaAh@]`@]`@i@l@kDF_@R{AFWFMPIPC`@BT@V?TAVKLENCLCJ@J@xAb@x@Zz@\\CP?R@N@NFLFF`GtBx@Xw@pG@l@B\\DXL\\RZDFXPf@N@v@Bp@Dr@l@~HNlAH\\@HLd@\\z@Xd@X\\RTXRr@Zn@PfExAvDpALnBJt@Pp@|@`DHZPn@`@rBNnAFr@DbA?bB@jABzA?p@A???A???A?A???A@??A?A@??A@?@A??@A@???@A@?@?@A@?@?@?@?@???@?@?@?@?@?@@@?@?@@@?@@@?@@@?@@?@@??@@@?E`@Kr@]rACVEl@I|AAr@JbAWJe@FUAM?a@Ke@YYWWa@v@}@RQPMz@k@tAe@REZG^Af@@X@VF`@Jn@XbClAr@Xt\\`PrAb@pA^hBTjAFj@Pb@JPHLLJNJRFXDT?X?ZEVEVKTMNMHMFOB}DWSGOSYcAN}FFkAF}DJyDd@wPV_HjAN~ALI`C","length":212},"routeShortName":"23","routeLongName":"Côte Verdun via Aréna du Plateau","rentedBike":false,"transitLeg":true,"duration":599.0,"steps":[]},{"startTime":1522689300000,"endTime":1522690422000,"departureDelay":0,"arrivalDelay":0,"realTime":false,"distance":5658.9744227296305,"pathway":false,"mode":"BUS","route":"175","agencyName":"Société de Transport du Saguenay","agencyUrl":"http://ville.saguenay.ca/fr/services-aux-citoyens/transport-sts","agencyTimeZoneOffset":-14400000,"routeColor":"FF00FF","routeType":3,"routeId":"1:175","routeTextColor":"FFFFFF","interlineWithPreviousLeg":false,"tripBlockId":"7","headsign":"Costco","agencyId":"0","tripId":"1:217334","serviceDate":"20180402","from":{"name":"Terminus Chicoutimi","stopId":"1:1289","stopCode":"1289","lon":-71.066163,"lat":48.428677,"arrival":1522688700000,"departure":1522689300000,"zoneId":"NA","stopIndex":0,"stopSequence":1,"vertexType":"TRANSIT"},"to":{"name":"boul. Talbot (no.1600) (mode Choc)","stopId":"1:86","stopCode":"86","lon":-71.06283,"lat":48.40025,"arrival":1522690422000,"departure":1522690423000,"zoneId":"NA","stopIndex":22,"stopSequence":23,"vertexType":"TRANSIT"},"legGeometry":{"points":"kvqfH~awpL~CgBbAqa@FwCBkAOsHAg@bAYUwMKoE@mB@kJ@iFbEf@xEj@iCtYp@r@z@`ABBvHtHXRx@l@VwAvAgB\\qBIuAC]g@yEzDuLbBbBvAxAMx@|@v@`A~@Xw@~D~DPxFZtA~ApE`N{LpFmEb@[ROl@[vDQXKfA[|@q@fAsBlEmMr@sBhCsKz@dAjB|@dM`GzCvAXrCr@~Gx@]PEr@ObACn@FrBb@|@Ch@Kx@U~HsB^KZ|DJpII~Fa@rFUzBi@bDUxAm@nCcAlDM^RTfD`DjF`FjCrC","length":83},"routeShortName":"175","routeLongName":"Term. Chic / Costco","rentedBike":false,"transitLeg":true,"duration":1122.0,"steps":[]},{"startTime":1522690423000,"endTime":1522690716000,"departureDelay":0,"arrivalDelay":0,"realTime":false,"distance":376.606,"pathway":false,"mode":"WALK","route":"","agencyTimeZoneOffset":-14400000,"interlineWithPreviousLeg":false,"from":{"name":"boul. Talbot (no.1600) (mode Choc)","stopId":"1:86","stopCode":"86","lon":-71.06283,"lat":48.40025,"arrival":1522690422000,"departure":1522690423000,"zoneId":"NA","stopIndex":22,"stopSequence":23,"vertexType":"TRANSIT"},"to":{"name":"Destination","lon":-71.062047,"lat":48.400583,"arrival":1522690716000,"orig":"","vertexType":"NORMAL"},"legGeometry":{"points":"edlfHbmvpLt@`AhCfDLNPc@eB_CoCqDu@q@","length":8},"rentedBike":false,"transitLeg":false,"duration":293.0,"steps":[{"distance":146.836,"relativeDirection":"DEPART","streetName":"Boulevard Talbot","absoluteDirection":"SOUTHWEST","stayOn":false,"area":false,"bogusName":false,"lon":-71.06273598252479,"lat":48.400199941215426,"elevation":[]},{"distance":229.76999999999998,"relativeDirection":"UTURN_LEFT","streetName":"Boulevard Talbot","absoluteDirection":"NORTHEAST","stayOn":true,"area":false,"bogusName":false,"lon":-71.06380730000001,"lat":48.3990713,"elevation":[]}]}],"tooSloped":false},{"duration":2834,"startTime":1522688065000,"endTime":1522690899000,"walkTime":895,"transitTime":1637,"waitingTime":302,"walkDistance":1143.6067518732214,"walkLimitExceeded":false,"elevationLost":0.0,"elevationGained":0.0,"transfers":1,"legs":[{"startTime":1522688065000,"endTime":1522688621000,"departureDelay":0,"arrivalDelay":0,"realTime":false,"distance":702.528,"pathway":false,"mode":"WALK","route":"","agencyTimeZoneOffset":-14400000,"interlineWithPreviousLeg":false,"from":{"name":"Origin","lon":-71.062128,"lat":48.444658,"departure":1522688065000,"orig":"","vertexType":"NORMAL"},"to":{"name":"Constantin / Cabot","stopId":"1:766","stopCode":"766","lon":-71.066135,"lat":48.448135,"arrival":1522688621000,"departure":1522688622000,"zoneId":"NA","stopIndex":30,"stopSequence":31,"vertexType":"TRANSIT"},"legGeometry":{"points":"i|tfHhdvpLa@Xy@DuA~JSReBs@kB{@_CaAMdAABKr@[~Bo@pE]fCId@z@v@","length":16},"rentedBike":false,"transitLeg":false,"duration":556.0,"steps":[{"distance":53.381,"relativeDirection":"DEPART","streetName":"Rue Comtois","absoluteDirection":"NORTHWEST","stayOn":false,"area":false,"bogusName":false,"lon":-71.06133,"lat":48.445014,"elevation":[]},{"distance":162.675,"relativeDirection":"LEFT","streetName":"Rue du Bocage","absoluteDirection":"WEST","stayOn":false,"area":false,"bogusName":false,"lon":-71.0614881,"lat":48.445473,"elevation":[]},{"distance":199.385,"relativeDirection":"RIGHT","streetName":"Rue Saint-Rémi","absoluteDirection":"NORTH","stayOn":false,"area":false,"bogusName":false,"lon":-71.06350710000001,"lat":48.4460009,"elevation":[]},{"distance":247.94400000000002,"relativeDirection":"LEFT","streetName":"Rue Cabot","absoluteDirection":"WEST","stayOn":false,"area":false,"bogusName":false,"lon":-71.06261880000001,"lat":48.4476942,"elevation":[]},{"distance":39.143,"relativeDirection":"LEFT","streetName":"Rue Constantin","absoluteDirection":"SOUTHWEST","stayOn":false,"area":false,"bogusName":false,"lon":-71.0658016,"lat":48.4484117,"elevation":[]}]},{"startTime":1522688622000,"endTime":1522689000000,"departureDelay":0,"arrivalDelay":0,"realTime":false,"distance":2548.333041774674,"pathway":false,"mode":"BUS","route":"22","agencyName":"Société de Transport du Saguenay","agencyUrl":"http://ville.saguenay.ca/fr/services-aux-citoyens/transport-sts","agencyTimeZoneOffset":-14400000,"routeColor":"C0C000","routeType":3,"routeId":"1:22","routeTextColor":"000000","interlineWithPreviousLeg":false,"tripBlockId":"1","headsign":"Terminus Chicoutimi","agencyId":"0","tripId":"1:217142","serviceDate":"20180402","from":{"name":"Constantin / Cabot","stopId":"1:766","stopCode":"766","lon":-71.066135,"lat":48.448135,"arrival":1522688621000,"departure":1522688622000,"zoneId":"NA","stopIndex":30,"stopSequence":31,"vertexType":"TRANSIT"},"to":{"name":"Terminus Chicoutimi","stopId":"1:1289","stopCode":"1289","lon":-71.066163,"lat":48.428677,"arrival":1522689000000,"departure":1522689300000,"zoneId":"NA","stopIndex":35,"stopSequence":36,"vertexType":"TRANSIT"},"legGeometry":{"points":"uoufH`bwpLbA`A|BrBnDrCl@f@|BlBrAbAj@d@ZTXNd@@lA[ZxDN|Ad@fAz@tB~AzDZ|@Zv@x@vBP\\h@~@PVrCmFhHqN~@eBr@cAt@_Av@}@RQPMz@k@tAe@REZG^Af@@X@VF`@Jn@XbClAr@Xt\\`PrAb@pA^hBTjAFj@Pb@JPHLLJNJRFXDT?X?ZEVEVKTMNMHMFOB}DWSGOSYcAN}FFkAF}DJyDd@wPV_HjAN~ALIzBQb@e@@","length":80},"routeShortName":"22","routeLongName":"Vanier","rentedBike":false,"transitLeg":true,"duration":378.0,"steps":[]},{"startTime":1522689300000,"endTime":1522690559000,"departureDelay":0,"arrivalDelay":0,"realTime":false,"distance":5344.788688857265,"pathway":false,"mode":"BUS","route":"15","agencyName":"Société de Transport du Saguenay","agencyUrl":"http://ville.saguenay.ca/fr/services-aux-citoyens/transport-sts","agencyTimeZoneOffset":-14400000,"routeColor":"FF00FF","routeType":3,"routeId":"1:15","routeTextColor":"FFFFFF","interlineWithPreviousLeg":false,"tripBlockId":"33","headsign":"Talbot / Barrette","agencyId":"0","tripId":"1:218185","serviceDate":"20180402","from":{"name":"Terminus Chicoutimi","stopId":"1:1289","stopCode":"1289","lon":-71.066163,"lat":48.428677,"arrival":1522689000000,"departure":1522689300000,"zoneId":"NA","stopIndex":0,"stopSequence":1,"vertexType":"TRANSIT"},"to":{"name":"Saguenéens  / Bach","stopId":"1:575","stopCode":"575","lon":-71.061104,"lat":48.403689,"arrival":1522690559000,"departure":1522690560000,"zoneId":"NA","stopIndex":23,"stopSequence":24,"vertexType":"TRANSIT"},"legGeometry":{"points":"evqfHpbwpLPiCjKx@HiEZkS\\aSN_K^eIrBpBvIpIr@r@\\mBfAaA`@gBOkB_@uF|DyL|DpDQ|@|@z@bA`ATw@dD~Ch@fA@`E~AjGuH`Iy@bBi@dCbEdEjJlJ`HbHlJpJ|J~JdAfALzDNzDrAdBrEKvBEbCv@d@TvFlC|DlBpMlGrB`AM}@hAwEC{B]oBiBmBsH_@_K{H`EgIvCaGfEoItDsH~DeI","length":58},"routeShortName":"15","routeLongName":"Term. Chic / Costco","rentedBike":false,"transitLeg":true,"duration":1259.0,"steps":[]},{"startTime":1522690560000,"endTime":1522690899000,"departureDelay":0,"arrivalDelay":0,"realTime":false,"distance":440.878,"pathway":false,"mode":"WALK","route":"","agencyTimeZoneOffset":-14400000,"interlineWithPreviousLeg":false,"from":{"name":"Saguenéens  / Bach","stopId":"1:575","stopCode":"575","lon":-71.061104,"lat":48.403689,"arrival":1522690559000,"departure":1522690560000,"zoneId":"NA","stopIndex":23,"stopSequence":24,"vertexType":"TRANSIT"},"to":{"name":"Destination","lon":-71.062047,"lat":48.400583,"arrival":1522690899000,"orig":"","vertexType":"NORMAL"},"legGeometry":{"points":"wylfHfcvpLxBwFJW@EVVLJzDpDzFlF","length":8},"rentedBike":false,"transitLeg":false,"duration":339.0,"steps":[{"distance":126.98400000000001,"relativeDirection":"DEPART","streetName":"Rue des Saguenéens","absoluteDirection":"SOUTHEAST","stayOn":false,"area":false,"bogusName":false,"lon":-71.0611521754673,"lat":48.403646208471976,"elevation":[]},{"distance":313.894,"relativeDirection":"RIGHT","streetName":"Boulevard Talbot","absoluteDirection":"SOUTHWEST","stayOn":false,"area":false,"bogusName":false,"lon":-71.0597697,"lat":48.402967000000004,"elevation":[]}]}],"tooSloped":false},{"duration":2959,"startTime":1522689557000,"endTime":1522692516000,"walkTime":636,"transitTime":1721,"waitingTime":602,"walkDistance":811.1430902195593,"walkLimitExceeded":false,"elevationLost":0.0,"elevationGained":0.0,"transfers":1,"legs":[{"startTime":1522689557000,"endTime":1522689900000,"departureDelay":0,"arrivalDelay":0,"realTime":false,"distance":434.351,"pathway":false,"mode":"WALK","route":"","agencyTimeZoneOffset":-14400000,"interlineWithPreviousLeg":false,"from":{"name":"Origin","lon":-71.062128,"lat":48.444658,"departure":1522689557000,"orig":"","vertexType":"NORMAL"},"to":{"name":"Cabot / St-Rémi","stopId":"1:789","stopCode":"789","lon":-71.061808,"lat":48.447435,"arrival":1522689900000,"departure":1522689901000,"zoneId":"NA","stopIndex":12,"stopSequence":13,"vertexType":"TRANSIT"},"legGeometry":{"points":"i|tfHhdvpLa@Xy@DqB{@XaBK]cBq@gC_@eAfI","length":9},"rentedBike":false,"transitLeg":false,"duration":343.0,"steps":[{"distance":53.381,"relativeDirection":"DEPART","streetName":"Rue Comtois","absoluteDirection":"NORTHWEST","stayOn":false,"area":false,"bogusName":false,"lon":-71.06133,"lat":48.445014,"elevation":[]},{"distance":67.044,"relativeDirection":"SLIGHTLY_RIGHT","streetName":"Rue Belley","absoluteDirection":"NORTH","stayOn":false,"area":false,"bogusName":false,"lon":-71.0614881,"lat":48.445473,"elevation":[]},{"distance":186.612,"relativeDirection":"RIGHT","streetName":"Rue Flamand","absoluteDirection":"EAST","stayOn":false,"area":false,"bogusName":false,"lon":-71.0611887,"lat":48.4460423,"elevation":[]},{"distance":127.314,"relativeDirection":"LEFT","streetName":"Rue Cabot","absoluteDirection":"WEST","stayOn":false,"area":false,"bogusName":false,"lon":-71.0601321,"lat":48.44715,"elevation":[]}]},{"startTime":1522689901000,"endTime":1522690500000,"departureDelay":0,"arrivalDelay":0,"realTime":false,"distance":3970.6550991448576,"pathway":false,"mode":"BUS","route":"23","agencyName":"Société de Transport du Saguenay","agencyUrl":"http://ville.saguenay.ca/fr/services-aux-citoyens/transport-sts","agencyTimeZoneOffset":-14400000,"routeColor":"FF00FF","routeType":3,"routeId":"1:23","routeTextColor":"FFFFFF","interlineWithPreviousLeg":false,"tripBlockId":"4","headsign":"Terminus Chicoutimi","agencyId":"0","tripId":"1:217236","serviceDate":"20180402","from":{"name":"Cabot / St-Rémi","stopId":"1:789","stopCode":"789","lon":-71.061808,"lat":48.447435,"arrival":1522689900000,"departure":1522689901000,"zoneId":"NA","stopIndex":12,"stopSequence":13,"vertexType":"TRANSIT"},"to":{"name":"Terminus Chicoutimi","stopId":"1:1289","stopCode":"1289","lon":-71.066163,"lat":48.428677,"arrival":1522690500000,"departure":1522691100000,"zoneId":"NA","stopIndex":26,"stopSequence":27,"vertexType":"TRANSIT"},"legGeometry":{"points":"}kufH`gvpLz@oGBU?UAWCWUwAWD]B]AUEoAc@kE}AOIq@g@g@u@]w@b@s@T[~CkFf@s@\\e@x@}@jAeAXQZStBaAh@]`@]`@i@l@kDF_@R{AFWFMPIPC`@BT@V?TAVKLENCLCJ@J@xAb@x@Zz@\\CP?R@N@NFLFF`GtBx@Xw@pG@l@B\\DXL\\RZDFXPf@N@v@Bp@Dr@l@~HNlAH\\@HLd@\\z@Xd@X\\RTXRr@Zn@PfExAvDpALnBJt@Pp@|@`DHZPn@`@rBNnAFr@DbA?bB@jABzA?p@A???A???A?A???A@??A?A@??A@?@A??@A@???@A@?@?@A@?@?@?@?@???@?@?@?@?@?@@@?@?@@@?@@@?@@@?@@?@@??@@@?E`@Kr@]rACVEl@I|AAr@JbAWJe@FUAM?a@Ke@YYWWa@v@}@RQPMz@k@tAe@REZG^Af@@X@VF`@Jn@XbClAr@Xt\\`PrAb@pA^hBTjAFj@Pb@JPHLLJNJRFXDT?X?ZEVEVKTMNMHMFOB}DWSGOSYcAN}FFkAF}DJyDd@wPV_HjAN~ALI`C","length":212},"routeShortName":"23","routeLongName":"Côte Verdun via Aréna du Plateau","rentedBike":false,"transitLeg":true,"duration":599.0,"steps":[]},{"startTime":1522691100000,"endTime":1522692222000,"departureDelay":0,"arrivalDelay":0,"realTime":false,"distance":5658.9744227296305,"pathway":false,"mode":"BUS","route":"175","agencyName":"Société de Transport du Saguenay","agencyUrl":"http://ville.saguenay.ca/fr/services-aux-citoyens/transport-sts","agencyTimeZoneOffset":-14400000,"routeColor":"FF00FF","routeType":3,"routeId":"1:175","routeTextColor":"FFFFFF","interlineWithPreviousLeg":false,"tripBlockId":"8","headsign":"Costco","agencyId":"0","tripId":"1:217371","serviceDate":"20180402","from":{"name":"Terminus Chicoutimi","stopId":"1:1289","stopCode":"1289","lon":-71.066163,"lat":48.428677,"arrival":1522690500000,"departure":1522691100000,"zoneId":"NA","stopIndex":0,"stopSequence":1,"vertexType":"TRANSIT"},"to":{"name":"boul. Talbot (no.1600) (mode Choc)","stopId":"1:86","stopCode":"86","lon":-71.06283,"lat":48.40025,"arrival":1522692222000,"departure":1522692223000,"zoneId":"NA","stopIndex":22,"stopSequence":23,"vertexType":"TRANSIT"},"legGeometry":{"points":"kvqfH~awpL~CgBbAqa@FwCBkAOsHAg@bAYUwMKoE@mB@kJ@iFbEf@xEj@iCtYp@r@z@`ABBvHtHXRx@l@VwAvAgB\\qBIuAC]g@yEzDuLbBbBvAxAMx@|@v@`A~@Xw@~D~DPxFZtA~ApE`N{LpFmEb@[ROl@[vDQXKfA[|@q@fAsBlEmMr@sBhCsKz@dAjB|@dM`GzCvAXrCr@~Gx@]PEr@ObACn@FrBb@|@Ch@Kx@U~HsB^KZ|DJpII~Fa@rFUzBi@bDUxAm@nCcAlDM^RTfD`DjF`FjCrC","length":83},"routeShortName":"175","routeLongName":"Term. Chic / Costco","rentedBike":false,"transitLeg":true,"duration":1122.0,"steps":[]},{"startTime":1522692223000,"endTime":1522692516000,"departureDelay":0,"arrivalDelay":0,"realTime":false,"distance":376.606,"pathway":false,"mode":"WALK","route":"","agencyTimeZoneOffset":-14400000,"interlineWithPreviousLeg":false,"from":{"name":"boul. Talbot (no.1600) (mode Choc)","stopId":"1:86","stopCode":"86","lon":-71.06283,"lat":48.40025,"arrival":1522692222000,"departure":1522692223000,"zoneId":"NA","stopIndex":22,"stopSequence":23,"vertexType":"TRANSIT"},"to":{"name":"Destination","lon":-71.062047,"lat":48.400583,"arrival":1522692516000,"orig":"","vertexType":"NORMAL"},"legGeometry":{"points":"edlfHbmvpLt@`AhCfDLNPc@eB_CoCqDu@q@","length":8},"rentedBike":false,"transitLeg":false,"duration":293.0,"steps":[{"distance":146.836,"relativeDirection":"DEPART","streetName":"Boulevard Talbot","absoluteDirection":"SOUTHWEST","stayOn":false,"area":false,"bogusName":false,"lon":-71.06273598252479,"lat":48.400199941215426,"elevation":[]},{"distance":229.76999999999998,"relativeDirection":"UTURN_LEFT","streetName":"Boulevard Talbot","absoluteDirection":"NORTHEAST","stayOn":true,"area":false,"bogusName":false,"lon":-71.06380730000001,"lat":48.3990713,"elevation":[]}]}],"tooSloped":false}]},"debugOutput":{"precalculationTime":25,"pathCalculationTime":27,"pathTimes":[16,5,6],"renderingTime":0,"totalTime":52,"timedOut":false},"elevationMetadata":{"ellipsoidToGeoidDifference":-28.885904201182168,"geoidElevation":false}}