{"requestParameters":{"date":"2018/04/02","walkSpeed":"1.33","walkReluctance":"2.0","fromPlace":"48.408201,-71.05544999","maxWalkDistance":"3000","waitReluctance":"1.0","carSpeed":"33","numItineraries":"3","waitAtBeginningFactor":"0.4","mode":"TRANSIT,WALK","ignoreRealtimeUpdates":"false","stairsReluctance":"2.0","toPlace":"48.427726,-71.056876","time":"10:30:00"},"plan":{"date":1522679400000,"from":{"name":"Origin","lon":-71.05544999,"lat":48.408201,"orig":"","vertexType":"NORMAL"},"to":{"name":"Destination","lon":-71.056876,"lat":48.427726,"orig":"","vertexType":"NORMAL"},"itineraries":[{"duration":1064,"startTime":1522679634000,"endTime":1522680698000,"walkTime":758,"transitTime":304,"waitingTime":2,"walkDistance":949.921586460209,"walkLimitExceeded":false,"elevationLost":0.0,"elevationGained":0.0,"transfers":0,"legs":[{"startTime":1522679634000,"endTime":1522679819000,"departureDelay":0,"arrivalDelay":0,"realTime":false,"distance":238.345,"pathway":false,"mode":"WALK","route":"","agencyTimeZoneOffset":-14400000,"interlineWithPreviousLeg":false,"from":{"name":"Origin","lon":-71.05544999,"lat":48.408201,"departure":1522679634000,"orig":"","vertexType":"NORMAL"},"to":{"name":"Place du Royaume (Champs-Élysées)","stopId":"1:193","stopCode":"193","lon":-71.052659,"lat":48.407065,"arrival":1522679819000,"departure":1522679820000,"zoneId":"NA","stopIndex":28,"stopSequence":29,"vertexType":"TRANSIT"},"legGeometry":{"points":"ivmfHn_upLL]FQNa@HSj@_Br@qB`A_DNc@PU","length":10},"rentedBike":false,"transitLeg":false,"duration":185.0,"steps":[{"distance":238.345,"relativeDirection":"DEPART","streetName":"Rue des Champs-Élysées","absoluteDirection":"SOUTHEAST","stayOn":false,"area":false,"bogusName":false,"lon":-71.0554337699895,"lat":48.408215883566115,"elevation":[]}]},{"startTime":1522679820000,"endTime":1522680124000,"departureDelay":0,"arrivalDelay":0,"realTime":false,"distance":2405.4713113591724,"pathway":false,"mode":"BUS","route":"12","agencyName":"Société de Transport du Saguenay","agencyUrl":"http://ville.saguenay.ca/fr/services-aux-citoyens/transport-sts","agencyTimeZoneOffset":-14400000,"routeColor":"556B2F","routeType":3,"routeId":"1:12","routeTextColor":"FFFFFF","interlineWithPreviousLeg":false,"tripBlockId":"28","headsign":"Terminus UQAC","agencyId":"0","tripId":"1:218033","serviceDate":"20180402","from":{"name":"Place du Royaume (Champs-Élysées)","stopId":"1:193","stopCode":"193","lon":-71.052659,"lat":48.407065,"arrival":1522679819000,"departure":1522679820000,"zoneId":"NA","stopIndex":28,"stopSequence":29,"vertexType":"TRANSIT"},"to":{"name":"Cégep de Chicoutimi (voie réservée)","stopId":"1:75","stopCode":"75","lon":-71.055283,"lat":48.422761,"arrival":1522680124000,"departure":1522680125000,"zoneId":"NA","stopIndex":37,"stopSequence":38,"vertexType":"TRANSIT"},"legGeometry":{"points":"comfHbntpLcP~b@iHhDaGz@uSl[uCYmIeIeJ_J{J{JwCiT","length":10},"routeShortName":"12","routeLongName":"Rivière du Moulin","rentedBike":false,"transitLeg":true,"duration":304.0,"steps":[]},{"startTime":1522680125000,"endTime":1522680698000,"departureDelay":0,"arrivalDelay":0,"realTime":false,"distance":711.3919999999998,"pathway":false,"mode":"WALK","route":"","agencyTimeZoneOffset":-14400000,"interlineWithPreviousLeg":false,"from":{"name":"Cégep de Chicoutimi (voie réservée)","stopId":"1:75","stopCode":"75","lon":-71.055283,"lat":48.422761,"arrival":1522680124000,"departure":1522680125000,"zoneId":"NA","stopIndex":37,"stopSequence":38,"vertexType":"TRANSIT"},"to":{"name":"Destination","lon":-71.056876,"lat":48.427726,"arrival":1522680698000,"orig":"","vertexType":"NORMAL"},"legGeometry":{"points":"mqpfHr~tpLGi@M@[DK@S?UCGAUGGCSIECOGwBKMAY`@_@hAa@jBC~ACvCiAAgBOuAIoCK_@?SBQDo@N]FOs@","length":30},"rentedBike":false,"transitLeg":false,"duration":573.0,"steps":[{"distance":16.607,"relativeDirection":"DEPART","streetName":"Chemin Saint Thomas","absoluteDirection":"EAST","stayOn":false,"area":false,"bogusName":false,"lon":-71.05529730066766,"lat":48.42279572871795,"elevation":[]},{"distance":167.118,"relativeDirection":"LEFT","streetName":"service road","absoluteDirection":"NORTH","stayOn":false,"area":false,"bogusName":true,"lon":-71.0550802,"lat":48.4228351,"elevation":[]},{"distance":195.33299999999997,"relativeDirection":"CONTINUE","streetName":"Rue Price Est","absoluteDirection":"NORTH","stayOn":false,"area":false,"bogusName":false,"lon":-71.0548701,"lat":48.424313700000006,"elevation":[]},{"distance":310.798,"relativeDirection":"RIGHT","streetName":"Rue Labrecque","absoluteDirection":"NORTH","stayOn":false,"area":false,"bogusName":false,"lon":-71.0571863,"lat":48.424884500000005,"elevation":[]},{"distance":21.536,"relativeDirection":"RIGHT","streetName":"Rue Racine Est","absoluteDirection":"NORTHEAST","stayOn":false,"area":false,"bogusName":false,"lon":-71.0571547,"lat":48.427663,"elevation":[]}]}],"tooSloped":false},{"duration":1134,"startTime":1522680539000,"endTime":1522681673000,"walkTime":393,"transitTime":739,"waitingTime":2,"walkDistance":488.25540600979724,"walkLimitExceeded":false,"elevationLost":0.0,"elevationGained":0.0,"transfers":0,"legs":[{"startTime":1522680539000,"endTime":1522680899000,"departureDelay":0,"arrivalDelay":0,"realTime":false,"distance":450.17,"pathway":false,"mode":"WALK","route":"","agencyTimeZoneOffset":-14400000,"interlineWithPreviousLeg":false,"from":{"name":"Origin","lon":-71.05544999,"lat":48.408201,"departure":1522680539000,"orig":"","vertexType":"NORMAL"},"to":{"name":"Place Royaume","stopId":"1:1801","stopCode":"1801","lon":-71.057017,"lat":48.405588,"arrival":1522680899000,"departure":1522680900000,"zoneId":"NA","stopIndex":10,"stopSequence":11,"vertexType":"TRANSIT"},"legGeometry":{"points":"ivmfHn_upLL]FQNa@JJzFjF|DpDDKn@}BZXa@zA","length":11},"rentedBike":false,"transitLeg":false,"duration":360.0,"steps":[{"distance":36.775000000000006,"relativeDirection":"DEPART","streetName":"Rue des Champs-Élysées","absoluteDirection":"SOUTHEAST","stayOn":false,"area":false,"bogusName":false,"lon":-71.0554337699895,"lat":48.408215883566115,"elevation":[]},{"distance":297.435,"relativeDirection":"RIGHT","streetName":"Boulevard Talbot","absoluteDirection":"SOUTHWEST","stayOn":false,"area":false,"bogusName":false,"lon":-71.05502820000001,"lat":48.4080238,"elevation":[]},{"distance":59.3,"relativeDirection":"LEFT","streetName":"service road","absoluteDirection":"SOUTHEAST","stayOn":false,"area":false,"bogusName":true,"lon":-71.0571583,"lat":48.4057532,"elevation":[]},{"distance":56.66,"relativeDirection":"RIGHT","streetName":"parking aisle","absoluteDirection":"SOUTHWEST","stayOn":true,"area":false,"bogusName":true,"lon":-71.0564657,"lat":48.405483000000004,"elevation":[]}]},{"startTime":1522680900000,"endTime":1522681639000,"departureDelay":0,"arrivalDelay":0,"realTime":false,"distance":3489.152109094112,"pathway":false,"mode":"BUS","route":"175","agencyName":"Société de Transport du Saguenay","agencyUrl":"http://ville.saguenay.ca/fr/services-aux-citoyens/transport-sts","agencyTimeZoneOffset":-14400000,"routeColor":"FF00FF","routeType":3,"routeId":"1:175","routeTextColor":"FFFFFF","interlineWithPreviousLeg":false,"tripBlockId":"11","headsign":"Terminus Chicoutimi","agencyId":"0","tripId":"1:217470","serviceDate":"20180402","from":{"name":"Place Royaume","stopId":"1:1801","stopCode":"1801","lon":-71.057017,"lat":48.405588,"arrival":1522680899000,"departure":1522680900000,"zoneId":"NA","stopIndex":10,"stopSequence":11,"vertexType":"TRANSIT"},"to":{"name":"Labrecque / Racine","stopId":"1:336","stopCode":"336","lon":-71.057034,"lat":48.427529,"arrival":1522681639000,"departure":1522681640000,"zoneId":"NA","stopIndex":23,"stopSequence":24,"vertexType":"TRANSIT"},"legGeometry":{"points":"sfmfH`kupL_U_TcNgNcBcB{E`Jc@x@qG~@{BlAk@XgSrQqB_GAeFiEeEOt@gAeA_A_ATm@yAwAgBeBqDnL@nBF`@f@|C[dCuAfB]xAs@OmCmCmEkE]a@g@i@ZiGTmEl@oLaEe@cFk@?pH?tJDvBPjMB~Bo@P","length":42},"routeShortName":"175","routeLongName":"Term. Chic / Costco","rentedBike":false,"transitLeg":true,"duration":739.0,"steps":[]},{"startTime":1522681640000,"endTime":1522681673000,"departureDelay":0,"arrivalDelay":0,"realTime":false,"distance":37.923,"pathway":false,"mode":"WALK","route":"","agencyTimeZoneOffset":-14400000,"interlineWithPreviousLeg":false,"from":{"name":"Labrecque / Racine","stopId":"1:336","stopCode":"336","lon":-71.057034,"lat":48.427529,"arrival":1522681639000,"departure":1522681640000,"zoneId":"NA","stopIndex":23,"stopSequence":24,"vertexType":"TRANSIT"},"to":{"name":"Destination","lon":-71.056876,"lat":48.427726,"arrival":1522681673000,"orig":"","vertexType":"NORMAL"},"legGeometry":{"points":"}nqfH~iupL]FOs@","length":3},"rentedBike":false,"transitLeg":false,"duration":33.0,"steps":[{"distance":16.387,"relativeDirection":"DEPART","streetName":"Rue Labrecque","absoluteDirection":"NORTH","stayOn":false,"area":false,"bogusName":false,"lon":-71.05711000873124,"lat":48.42751863891179,"elevation":[]},{"distance":21.536,"relativeDirection":"RIGHT","streetName":"Rue Racine Est","absoluteDirection":"NORTHEAST","stayOn":false,"area":false,"bogusName":false,"lon":-71.0571547,"lat":48.427663,"elevation":[]}]}],"tooSloped":false},{"duration":1814,"startTime":1522680475000,"endTime":1522682289000,"walkTime":54,"transitTime":1758,"waitingTime":2,"walkDistance":68.02313533821243,"walkLimitExceeded":false,"elevationLost":0.0,"elevationGained":0.0,"transfers":0,"legs":[{"startTime":1522680475000,"endTime":1522680498000,"departureDelay":0,"arrivalDelay":0,"realTime":false,"distance":29.276,"pathway":false,"mode":"WALK","route":"","agencyTimeZoneOffset":-14400000,"interlineWithPreviousLeg":false,"from":{"name":"Origin","lon":-71.05544999,"lat":48.408201,"departure":1522680475000,"orig":"","vertexType":"NORMAL"},"to":{"name":"Place du Saguenay (Champs-Élysées)","stopId":"1:571","stopCode":"571","lon":-71.055824,"lat":48.408307,"arrival":1522680498000,"departure":1522680499000,"zoneId":"NA","stopIndex":12,"stopSequence":13,"vertexType":"TRANSIT"},"legGeometry":{"points":"ivmfHn_upL_@~@","length":2},"rentedBike":false,"transitLeg":false,"duration":23.0,"steps":[{"distance":29.276,"relativeDirection":"DEPART","streetName":"Rue des Champs-Élysées","absoluteDirection":"NORTHWEST","stayOn":false,"area":false,"bogusName":false,"lon":-71.0554337699895,"lat":48.408215883566115,"elevation":[]}]},{"startTime":1522680499000,"endTime":1522681860000,"departureDelay":0,"arrivalDelay":0,"realTime":false,"distance":8492.902354570804,"pathway":false,"mode":"BUS","route":"12","agencyName":"Société de Transport du Saguenay","agencyUrl":"http://ville.saguenay.ca/fr/services-aux-citoyens/transport-sts","agencyTimeZoneOffset":-14400000,"routeColor":"556B2F","routeType":3,"routeId":"1:12","routeTextColor":"FFFFFF","interlineWithPreviousLeg":false,"tripBlockId":"29","headsign":"Terminus Chicoutimi","agencyId":"0","tripId":"1:218060","serviceDate":"20180402","from":{"name":"Place du Saguenay (Champs-Élysées)","stopId":"1:571","stopCode":"571","lon":-71.055824,"lat":48.408307,"arrival":1522680498000,"departure":1522680499000,"zoneId":"NA","stopIndex":12,"stopSequence":13,"vertexType":"TRANSIT"},"to":{"name":"Terminus Chicoutimi","stopId":"1:1289","stopCode":"1289","lon":-71.066163,"lat":48.428677,"arrival":1522681860000,"departure":1522682100000,"zoneId":"NA","stopIndex":33,"stopSequence":34,"vertexType":"TRANSIT"},"legGeometry":{"points":"{vmfH|aupLxFoNlCyGa@yFYkD}CyA}KmFgD_BgAgBn@kFD_NoIgrAmD_WcAaLaDHoDJi`@wVoAbDbA|AnBU|B|AfBlAyLtKoGxFcFqDkJaHgEoDmDwC_TqQsBeB{HjWfAvAfM|O|FlHmB`IgA|Cy@`UYzHZvMR~Hr@~ZPvHsCrMFxf@|ApJj@nDDl]BvZdCXJhC","length":50},"routeShortName":"12","routeLongName":"Rivière du Moulin","rentedBike":false,"transitLeg":true,"duration":1361.0,"steps":[]},{"startTime":1522682100000,"endTime":1522682257000,"departureDelay":0,"arrivalDelay":0,"realTime":false,"distance":669.0312154213282,"pathway":false,"mode":"BUS","route":"10","agencyName":"Société de Transport du Saguenay","agencyUrl":"http://ville.saguenay.ca/fr/services-aux-citoyens/transport-sts","agencyTimeZoneOffset":-14400000,"routeColor":"0000FF","routeType":3,"routeId":"1:10","routeTextColor":"FFFFFF","interlineWithPreviousLeg":true,"tripBlockId":"29","headsign":"Terminus UQAC","agencyId":"0","tripId":"1:218061","serviceDate":"20180402","from":{"name":"Terminus Chicoutimi","stopId":"1:1289","stopCode":"1289","lon":-71.066163,"lat":48.428677,"arrival":1522681860000,"departure":1522682100000,"zoneId":"NA","stopIndex":0,"stopSequence":1,"vertexType":"TRANSIT"},"to":{"name":"Racine / Labrecque","stopId":"1:515","stopCode":"515","lon":-71.057333,"lat":48.427512,"arrival":1522682257000,"departure":1522682258000,"zoneId":"NA","stopIndex":2,"stopSequence":3,"vertexType":"TRANSIT"},"legGeometry":{"points":"svqfHnbwpLDmCdDZ\\kO`@mQBuCD}DQ_E","length":8},"routeShortName":"10","routeLongName":"Notre-Dame du Saguenay","rentedBike":false,"transitLeg":true,"duration":157.0,"steps":[]},{"startTime":1522682258000,"endTime":1522682289000,"departureDelay":0,"arrivalDelay":0,"realTime":false,"distance":38.743,"pathway":false,"mode":"WALK","route":"","agencyTimeZoneOffset":-14400000,"interlineWithPreviousLeg":false,"from":{"name":"Racine / Labrecque","stopId":"1:515","stopCode":"515","lon":-71.057333,"lat":48.427512,"arrival":1522682257000,"departure":1522682258000,"zoneId":"NA","stopIndex":2,"stopSequence":3,"vertexType":"TRANSIT"},"to":{"name":"Destination","lon":-71.056876,"lat":48.427726,"arrival":1522682289000,"orig":"","vertexType":"NORMAL"},"legGeometry":{"points":"soqfHrkupLGk@Os@","length":3},"rentedBike":false,"transitLeg":false,"duration":31.0,"steps":[{"distance":38.743,"relativeDirection":"DEPART","streetName":"Rue Racine Est","absoluteDirection":"EAST","stayOn":false,"area":false,"bogusName":false,"lon":-71.05737919931526,"lat":48.42762116546726,"elevation":[]}]}],"tooSloped":false}]},"debugOutput":{"precalculationTime":49,"pathCalculationTime":41,"pathTimes":[20,12,9],"renderingTime":0,"totalTime":90,"timedOut":false},"elevationMetadata":{"ellipsoidToGeoidDifference":-28.885904201182168,"geoidElevation":false}}