{"requestParameters":{"date":"2018/04/02","walkSpeed":"1.33","walkReluctance":"2.0","fromPlace":"48.427726,-71.056876","maxWalkDistance":"3000","waitReluctance":"1.0","carSpeed":"33","numItineraries":"3","waitAtBeginningFactor":"0.4","mode":"TRANSIT,WALK","ignoreRealtimeUpdates":"false","stairsReluctance":"2.0","toPlace":"48.406613,-71.04881398","time":"8:50:00"},"plan":{"date":1522673400000,"from":{"name":"Origin","lon":-71.056876,"lat":48.427726,"orig":"","vertexType":"NORMAL"},"to":{"name":"Destination","lon":-71.04881398,"lat":48.406613,"orig":"","vertexType":"NORMAL"},"itineraries":[{"duration":1360,"startTime":1522674171000,"endTime":1522675531000,"walkTime":876,"transitTime":482,"waitingTime":2,"walkDistance":1106.7771428504586,"walkLimitExceeded":false,"elevationLost":0.0,"elevationGained":0.0,"transfers":0,"legs":[{"startTime":1522674171000,"endTime":1522674740000,"departureDelay":0,"arrivalDelay":0,"realTime":false,"distance":712.5609999999999,"pathway":false,"mode":"WALK","route":"","agencyTimeZoneOffset":-14400000,"interlineWithPreviousLeg":false,"from":{"name":"Origin","lon":-71.056876,"lat":48.427726,"departure":1522674171000,"orig":"","vertexType":"NORMAL"},"to":{"name":"Bégin / Saint-Thomas","stopId":"1:1998","stopCode":"1998","lon":-71.058439,"lat":48.422491,"arrival":1522674740000,"departure":1522674741000,"zoneId":"NA","stopIndex":3,"stopSequence":4,"vertexType":"TRANSIT"},"legGeometry":{"points":"kpqfHrhupLNr@\\Gn@OPERC^?nCJtAHfBNhA@BwCPe@LILB~@x@pBlBXVDDJHHHVVRN`AbAhAfAVX","length":26},"rentedBike":false,"transitLeg":false,"duration":569.0,"steps":[{"distance":21.536,"relativeDirection":"DEPART","streetName":"Rue Racine Est","absoluteDirection":"SOUTHWEST","stayOn":false,"area":false,"bogusName":false,"lon":-71.05689317209777,"lat":48.42774899503141,"elevation":[]},{"distance":310.798,"relativeDirection":"LEFT","streetName":"Rue Labrecque","absoluteDirection":"SOUTH","stayOn":false,"area":false,"bogusName":false,"lon":-71.0571547,"lat":48.427663,"elevation":[]},{"distance":56.45,"relativeDirection":"LEFT","streetName":"Rue Price Est","absoluteDirection":"EAST","stayOn":false,"area":false,"bogusName":false,"lon":-71.0571863,"lat":48.424884500000005,"elevation":[]},{"distance":33.132,"relativeDirection":"SLIGHTLY_RIGHT","streetName":"link","absoluteDirection":"SOUTHEAST","stayOn":false,"area":false,"bogusName":true,"lon":-71.0564219,"lat":48.4248641,"elevation":[]},{"distance":290.64500000000004,"relativeDirection":"SLIGHTLY_RIGHT","streetName":"Rue Bégin","absoluteDirection":"SOUTHWEST","stayOn":false,"area":false,"bogusName":false,"lon":-71.0562029,"lat":48.4246391,"elevation":[]}]},{"startTime":1522674741000,"endTime":1522675223000,"departureDelay":0,"arrivalDelay":0,"realTime":false,"distance":2788.848434223808,"pathway":false,"mode":"BUS","route":"12","agencyName":"Société de Transport du Saguenay","agencyUrl":"http://ville.saguenay.ca/fr/services-aux-citoyens/transport-sts","agencyTimeZoneOffset":-14400000,"routeColor":"556B2F","routeType":3,"routeId":"1:12","routeTextColor":"FFFFFF","interlineWithPreviousLeg":false,"tripBlockId":"26","headsign":"Terminus Chicoutimi","agencyId":"0","tripId":"1:217969","serviceDate":"20180402","from":{"name":"Bégin / Saint-Thomas","stopId":"1:1998","stopCode":"1998","lon":-71.058439,"lat":48.422491,"arrival":1522674740000,"departure":1522674741000,"zoneId":"NA","stopIndex":3,"stopSequence":4,"vertexType":"TRANSIT"},"to":{"name":"Sûreté du Québec (Roitelets / Lorenzo-Genest)","stopId":"1:195","stopCode":"195","lon":-71.048189,"lat":48.4095,"arrival":1522675223000,"departure":1522675224000,"zoneId":"NA","stopIndex":16,"stopSequence":17,"vertexType":"TRANSIT"},"legGeometry":{"points":"copfHjqupL~MfNjJnJ~GbHnCpCv@iBlAgIdCmFbAqDtBeCjFm@`Gs@hFo@xAmBrGcPxFoNlCyGa@yFYkD}CyA}KmF","length":21},"routeShortName":"12","routeLongName":"Rivière du Moulin","rentedBike":false,"transitLeg":true,"duration":482.0,"steps":[]},{"startTime":1522675224000,"endTime":1522675531000,"departureDelay":0,"arrivalDelay":0,"realTime":false,"distance":394.009,"pathway":false,"mode":"WALK","route":"","agencyTimeZoneOffset":-14400000,"interlineWithPreviousLeg":false,"from":{"name":"Sûreté du Québec (Roitelets / Lorenzo-Genest)","stopId":"1:195","stopCode":"195","lon":-71.048189,"lat":48.4095,"arrival":1522675223000,"departure":1522675224000,"zoneId":"NA","stopIndex":16,"stopSequence":17,"vertexType":"TRANSIT"},"to":{"name":"Destination","lon":-71.04881398,"lat":48.406613,"arrival":1522675531000,"orig":"","vertexType":"NORMAL"},"legGeometry":{"points":"o~mfHtrspLFBpAp@t@eErDlBfFlCXA","length":7},"rentedBike":false,"transitLeg":false,"duration":307.0,"steps":[{"distance":53.338,"relativeDirection":"DEPART","streetName":"Rue Des Roitelets","absoluteDirection":"SOUTH","stayOn":false,"area":false,"bogusName":false,"lon":-71.04826942089277,"lat":48.40952065789795,"elevation":[]},{"distance":78.536,"relativeDirection":"LEFT","streetName":"Rue Gaudiose-Brassard","absoluteDirection":"EAST","stayOn":false,"area":false,"bogusName":false,"lon":-71.0485302,"lat":48.4090733,"elevation":[]},{"distance":262.135,"relativeDirection":"RIGHT","streetName":"Rue Joseph-Dandurand","absoluteDirection":"SOUTH","stayOn":false,"area":false,"bogusName":false,"lon":-71.0475432,"lat":48.408809500000004,"elevation":[]}]}],"tooSloped":false},{"duration":1048,"startTime":1522675021000,"endTime":1522676069000,"walkTime":359,"transitTime":687,"waitingTime":2,"walkDistance":459.6456766894488,"walkLimitExceeded":false,"elevationLost":0.0,"elevationGained":0.0,"transfers":0,"legs":[{"startTime":1522675021000,"endTime":1522675052000,"departureDelay":0,"arrivalDelay":0,"realTime":false,"distance":38.743,"pathway":false,"mode":"WALK","route":"","agencyTimeZoneOffset":-14400000,"interlineWithPreviousLeg":false,"from":{"name":"Origin","lon":-71.056876,"lat":48.427726,"departure":1522675021000,"orig":"","vertexType":"NORMAL"},"to":{"name":"Racine / Labrecque","stopId":"1:515","stopCode":"515","lon":-71.057333,"lat":48.427512,"arrival":1522675052000,"departure":1522675053000,"zoneId":"NA","stopIndex":2,"stopSequence":3,"vertexType":"TRANSIT"},"legGeometry":{"points":"kpqfHrhupLNr@Fj@","length":3},"rentedBike":false,"transitLeg":false,"duration":31.0,"steps":[{"distance":38.743,"relativeDirection":"DEPART","streetName":"Rue Racine Est","absoluteDirection":"SOUTHWEST","stayOn":false,"area":false,"bogusName":false,"lon":-71.05689317209777,"lat":48.42774899503141,"elevation":[]}]},{"startTime":1522675053000,"endTime":1522675740000,"departureDelay":0,"arrivalDelay":0,"realTime":false,"distance":3105.016618838949,"pathway":false,"mode":"BUS","route":"175","agencyName":"Société de Transport du Saguenay","agencyUrl":"http://ville.saguenay.ca/fr/services-aux-citoyens/transport-sts","agencyTimeZoneOffset":-14400000,"routeColor":"FF00FF","routeType":3,"routeId":"1:175","routeTextColor":"FFFFFF","interlineWithPreviousLeg":false,"tripBlockId":"8","headsign":"Costco","agencyId":"0","tripId":"1:217362","serviceDate":"20180402","from":{"name":"Racine / Labrecque","stopId":"1:515","stopCode":"515","lon":-71.057333,"lat":48.427512,"arrival":1522675052000,"departure":1522675053000,"zoneId":"NA","stopIndex":2,"stopSequence":3,"vertexType":"TRANSIT"},"to":{"name":"Sûreté du Québec (Roitelets / Lorenzo-Genest)","stopId":"1:58","stopCode":"58","lon":-71.048311,"lat":48.40979,"arrival":1522675740000,"departure":1522675741000,"zoneId":"NA","stopIndex":15,"stopSequence":16,"vertexType":"TRANSIT"},"legGeometry":{"points":"koqfHlkupLAg@bAYUwMKoE@mB@kJ@iFbEf@xEj@iCtYp@r@z@`ABBvHtHXRx@l@VwAvAgB\\qBIuAC]g@yEzDuLbBbBvAxAMx@|@v@`A~@Xw@~D~DPxFZtA~ApE`N{LpFmEb@[ROl@[vDQXKfA[|@q@fAsBlEmMr@sBhCsKz@dAjB|@","length":49},"routeShortName":"175","routeLongName":"Term. Chic / Costco","rentedBike":false,"transitLeg":true,"duration":687.0,"steps":[]},{"startTime":1522675741000,"endTime":1522676069000,"departureDelay":0,"arrivalDelay":0,"realTime":false,"distance":420.832,"pathway":false,"mode":"WALK","route":"","agencyTimeZoneOffset":-14400000,"interlineWithPreviousLeg":false,"from":{"name":"Sûreté du Québec (Roitelets / Lorenzo-Genest)","stopId":"1:58","stopCode":"58","lon":-71.048311,"lat":48.40979,"arrival":1522675740000,"departure":1522675741000,"zoneId":"NA","stopIndex":15,"stopSequence":16,"vertexType":"TRANSIT"},"to":{"name":"Destination","lon":-71.04881398,"lat":48.406613,"arrival":1522676069000,"orig":"","vertexType":"NORMAL"},"legGeometry":{"points":"{_nfHzqspLj@XFBpAp@t@eErDlBfFlCXA","length":8},"rentedBike":false,"transitLeg":false,"duration":328.0,"steps":[{"distance":80.161,"relativeDirection":"DEPART","streetName":"Rue Des Roitelets","absoluteDirection":"SOUTH","stayOn":false,"area":false,"bogusName":false,"lon":-71.04813827023435,"lat":48.409745631017636,"elevation":[]},{"distance":78.536,"relativeDirection":"LEFT","streetName":"Rue Gaudiose-Brassard","absoluteDirection":"EAST","stayOn":false,"area":false,"bogusName":false,"lon":-71.0485302,"lat":48.4090733,"elevation":[]},{"distance":262.135,"relativeDirection":"RIGHT","streetName":"Rue Joseph-Dandurand","absoluteDirection":"SOUTH","stayOn":false,"area":false,"bogusName":false,"lon":-71.0475432,"lat":48.408809500000004,"elevation":[]}]}],"tooSloped":false},{"duration":1502,"startTime":1522674963000,"endTime":1522676465000,"walkTime":359,"transitTime":1141,"waitingTime":2,"walkDistance":459.6456766894488,"walkLimitExceeded":false,"elevationLost":0.0,"elevationGained":0.0,"transfers":0,"legs":[{"startTime":1522674963000,"endTime":1522674994000,"departureDelay":0,"arrivalDelay":0,"realTime":false,"distance":38.743,"pathway":false,"mode":"WALK","route":"","agencyTimeZoneOffset":-14400000,"interlineWithPreviousLeg":false,"from":{"name":"Origin","lon":-71.056876,"lat":48.427726,"departure":1522674963000,"orig":"","vertexType":"NORMAL"},"to":{"name":"Racine / Labrecque","stopId":"1:515","stopCode":"515","lon":-71.057333,"lat":48.427512,"arrival":1522674994000,"departure":1522674995000,"zoneId":"NA","stopIndex":2,"stopSequence":3,"vertexType":"TRANSIT"},"legGeometry":{"points":"kpqfHrhupLNr@Fj@","length":3},"rentedBike":false,"transitLeg":false,"duration":31.0,"steps":[{"distance":38.743,"relativeDirection":"DEPART","streetName":"Rue Racine Est","absoluteDirection":"SOUTHWEST","stayOn":false,"area":false,"bogusName":false,"lon":-71.05689317209777,"lat":48.42774899503141,"elevation":[]}]},{"startTime":1522674995000,"endTime":1522676136000,"departureDelay":0,"arrivalDelay":0,"realTime":false,"distance":7196.285197560315,"pathway":false,"mode":"BUS","route":"12","agencyName":"Société de Transport du Saguenay","agencyUrl":"http://ville.saguenay.ca/fr/services-aux-citoyens/transport-sts","agencyTimeZoneOffset":-14400000,"routeColor":"556B2F","routeType":3,"routeId":"1:12","routeTextColor":"FFFFFF","interlineWithPreviousLeg":false,"tripBlockId":"28","headsign":"Terminus UQAC","agencyId":"0","tripId":"1:218031","serviceDate":"20180402","from":{"name":"Racine / Labrecque","stopId":"1:515","stopCode":"515","lon":-71.057333,"lat":48.427512,"arrival":1522674994000,"departure":1522674995000,"zoneId":"NA","stopIndex":2,"stopSequence":3,"vertexType":"TRANSIT"},"to":{"name":"Sûreté du Québec (Roitelets / Lorenzo-Genest)","stopId":"1:58","stopCode":"58","lon":-71.048311,"lat":48.40979,"arrival":1522676136000,"departure":1522676137000,"zoneId":"NA","stopIndex":26,"stopSequence":27,"vertexType":"TRANSIT"},"legGeometry":{"points":"}nqfHjkupLmFy^_DaZz@u]SeV}@aNs@gKToKd@gTnCyHkGuLqFqJ_DeFf@iIvGsKlIrH`JlH`EfDnOdIdGlGjL|BzBiLv@}L`b@fNvVvrC","length":25},"routeShortName":"12","routeLongName":"Rivière du Moulin","rentedBike":false,"transitLeg":true,"duration":1141.0,"steps":[]},{"startTime":1522676137000,"endTime":1522676465000,"departureDelay":0,"arrivalDelay":0,"realTime":false,"distance":420.832,"pathway":false,"mode":"WALK","route":"","agencyTimeZoneOffset":-14400000,"interlineWithPreviousLeg":false,"from":{"name":"Sûreté du Québec (Roitelets / Lorenzo-Genest)","stopId":"1:58","stopCode":"58","lon":-71.048311,"lat":48.40979,"arrival":1522676136000,"departure":1522676137000,"zoneId":"NA","stopIndex":26,"stopSequence":27,"vertexType":"TRANSIT"},"to":{"name":"Destination","lon":-71.04881398,"lat":48.406613,"arrival":1522676465000,"orig":"","vertexType":"NORMAL"},"legGeometry":{"points":"{_nfHzqspLj@XFBpAp@t@eErDlBfFlCXA","length":8},"rentedBike":false,"transitLeg":false,"duration":328.0,"steps":[{"distance":80.161,"relativeDirection":"DEPART","streetName":"Rue Des Roitelets","absoluteDirection":"SOUTH","stayOn":false,"area":false,"bogusName":false,"lon":-71.04813827023435,"lat":48.409745631017636,"elevation":[]},{"distance":78.536,"relativeDirection":"LEFT","streetName":"Rue Gaudiose-Brassard","absoluteDirection":"EAST","stayOn":false,"area":false,"bogusName":false,"lon":-71.0485302,"lat":48.4090733,"elevation":[]},{"distance":262.135,"relativeDirection":"RIGHT","streetName":"Rue Joseph-Dandurand","absoluteDirection":"SOUTH","stayOn":false,"area":false,"bogusName":false,"lon":-71.0475432,"lat":48.408809500000004,"elevation":[]}]}],"tooSloped":false}]},"debugOutput":{"precalculationTime":42,"pathCalculationTime":32,"pathTimes":[16,8,8],"renderingTime":0,"totalTime":74,"timedOut":false},"elevationMetadata":{"ellipsoidToGeoidDifference":-28.885904201182168,"geoidElevation":false}}