{"requestParameters":{"date":"2018/04/02","walkSpeed":"1.33","walkReluctance":"2.0","fromPlace":"48.426591,-71.057782","maxWalkDistance":"3000","waitReluctance":"1.0","carSpeed":"33","numItineraries":"3","waitAtBeginningFactor":"0.4","mode":"TRANSIT,WALK","ignoreRealtimeUpdates":"false","stairsReluctance":"2.0","toPlace":"48.411103,-71.05284299","time":"10:20:00"},"plan":{"date":1522678800000,"from":{"name":"Origin","lon":-71.057782,"lat":48.426591,"orig":"","vertexType":"NORMAL"},"to":{"name":"Destination","lon":-71.05284299,"lat":48.411103,"orig":"","vertexType":"NORMAL"},"itineraries":[{"duration":1101,"startTime":1522678949000,"endTime":1522680050000,"walkTime":675,"transitTime":424,"waitingTime":2,"walkDistance":846.0376240537089,"walkLimitExceeded":false,"elevationLost":0.0,"elevationGained":0.0,"transfers":0,"legs":[{"startTime":1522678949000,"endTime":1522679422000,"departureDelay":0,"arrivalDelay":0,"realTime":false,"distance":583.7559999999999,"pathway":false,"mode":"WALK","route":"","agencyTimeZoneOffset":-14400000,"interlineWithPreviousLeg":false,"from":{"name":"Origin","lon":-71.057782,"lat":48.426591,"departure":1522678949000,"orig":"","vertexType":"NORMAL"},"to":{"name":"Cégep de Chicoutimi (voie réservée)","stopId":"1:75","stopCode":"75","lon":-71.055283,"lat":48.422761,"arrival":1522679422000,"departure":1522679423000,"zoneId":"NA","stopIndex":55,"stopSequence":56,"vertexType":"TRANSIT"},"legGeometry":{"points":"_gqfHlnupLF{CtAHfBNhA@BwCB_B`@kB^iAXa@L@vBJNFDBRHFBTFF@TBR?JAZELAFh@","length":24},"rentedBike":false,"transitLeg":false,"duration":473.0,"steps":[{"distance":57.56,"relativeDirection":"DEPART","streetName":"Rue Jacques-Cartier Est","absoluteDirection":"EAST","stayOn":false,"area":false,"bogusName":false,"lon":-71.05782220488472,"lat":48.42624330360103,"elevation":[]},{"distance":147.138,"relativeDirection":"RIGHT","streetName":"Rue Labrecque","absoluteDirection":"SOUTH","stayOn":false,"area":false,"bogusName":false,"lon":-71.05704440000001,"lat":48.4262037,"elevation":[]},{"distance":187.416,"relativeDirection":"LEFT","streetName":"Rue Price Est","absoluteDirection":"EAST","stayOn":false,"area":false,"bogusName":false,"lon":-71.0571863,"lat":48.424884500000005,"elevation":[]},{"distance":7.917,"relativeDirection":"RIGHT","streetName":"Rue Price Est","absoluteDirection":"SOUTH","stayOn":true,"area":false,"bogusName":false,"lon":-71.0548694,"lat":48.4243849,"elevation":[]},{"distance":167.118,"relativeDirection":"CONTINUE","streetName":"service road","absoluteDirection":"SOUTH","stayOn":false,"area":false,"bogusName":true,"lon":-71.0548701,"lat":48.424313700000006,"elevation":[]},{"distance":16.607,"relativeDirection":"RIGHT","streetName":"Chemin Saint Thomas","absoluteDirection":"WEST","stayOn":false,"area":false,"bogusName":false,"lon":-71.0550802,"lat":48.4228351,"elevation":[]}]},{"startTime":1522679423000,"endTime":1522679460000,"departureDelay":0,"arrivalDelay":0,"realTime":false,"distance":354.63646711528844,"pathway":false,"mode":"BUS","route":"6","agencyName":"Société de Transport du Saguenay","agencyUrl":"http://ville.saguenay.ca/fr/services-aux-citoyens/transport-sts","agencyTimeZoneOffset":-14400000,"routeColor":"FF0000","routeType":3,"routeId":"1:6","routeTextColor":"FFFFFF","interlineWithPreviousLeg":false,"tripBlockId":"25","headsign":"Terminus UQAC","agencyId":"0","tripId":"1:217934","serviceDate":"20180402","from":{"name":"Cégep de Chicoutimi (voie réservée)","stopId":"1:75","stopCode":"75","lon":-71.055283,"lat":48.422761,"arrival":1522679422000,"departure":1522679423000,"zoneId":"NA","stopIndex":55,"stopSequence":56,"vertexType":"TRANSIT"},"to":{"name":"Terminus UQAC","stopId":"1:1670","stopCode":"1670","lon":-71.053369,"lat":48.420903,"arrival":1522679460000,"departure":1522679700000,"zoneId":"NA","stopIndex":57,"stopSequence":58,"vertexType":"TRANSIT"},"legGeometry":{"points":"oqpfHt~tpLe@gED{@nDqLdBfBxAzAQp@z@~@","length":8},"routeShortName":"6","routeLongName":"Term. Chic/Term. Baie via ch.Plateau","rentedBike":false,"transitLeg":true,"duration":37.0,"steps":[]},{"startTime":1522679700000,"endTime":1522679847000,"departureDelay":0,"arrivalDelay":0,"realTime":false,"distance":1155.3685626166505,"pathway":false,"mode":"BUS","route":"5","agencyName":"Société de Transport du Saguenay","agencyUrl":"http://ville.saguenay.ca/fr/services-aux-citoyens/transport-sts","agencyTimeZoneOffset":-14400000,"routeColor":"FF0000","routeType":3,"routeId":"1:5","routeTextColor":"FFFFFF","interlineWithPreviousLeg":true,"tripBlockId":"25","headsign":"Terminus La Baie","agencyId":"0","tripId":"1:217935","serviceDate":"20180402","from":{"name":"Terminus UQAC","stopId":"1:1670","stopCode":"1670","lon":-71.053369,"lat":48.420903,"arrival":1522679460000,"departure":1522679700000,"zoneId":"NA","stopIndex":0,"stopSequence":1,"vertexType":"TRANSIT"},"to":{"name":"boul. Université / Murdock","stopId":"1:80","stopCode":"80","lon":-71.050111,"lat":48.411498,"arrival":1522679847000,"departure":1522679848000,"zoneId":"NA","stopIndex":3,"stopSequence":4,"vertexType":"TRANSIT"},"legGeometry":{"points":"sepfHtrtpLbA`ATs@bB~A~A|ALb@E`EnBvHtNsL~FeFROHI\\Q^Mb@I~CIJCJAXKXMXQRQPQT[\\s@^aAn@mBnCgI","length":28},"routeShortName":"5","routeLongName":"Term. Chic/Term. Baie via St-J.Batiste","rentedBike":false,"transitLeg":true,"duration":147.0,"steps":[]},{"startTime":1522679848000,"endTime":1522680050000,"departureDelay":0,"arrivalDelay":0,"realTime":false,"distance":262.082,"pathway":false,"mode":"WALK","route":"","agencyTimeZoneOffset":-14400000,"interlineWithPreviousLeg":false,"from":{"name":"boul. Université / Murdock","stopId":"1:80","stopCode":"80","lon":-71.050111,"lat":48.411498,"arrival":1522679847000,"departure":1522679848000,"zoneId":"NA","stopIndex":3,"stopSequence":4,"vertexType":"TRANSIT"},"to":{"name":"Destination","lon":-71.05284299,"lat":48.411103,"arrival":1522680050000,"orig":"","vertexType":"NORMAL"},"legGeometry":{"points":"aknfH|}spL}AlEO`@n@r@vDvD","length":5},"rentedBike":false,"transitLeg":false,"duration":202.0,"steps":[{"distance":106.955,"relativeDirection":"DEPART","streetName":"Boulevard de l'Université","absoluteDirection":"NORTHWEST","stayOn":false,"area":false,"bogusName":false,"lon":-71.05006857152243,"lat":48.41153928216614,"elevation":[]},{"distance":155.127,"relativeDirection":"LEFT","streetName":"Boulevard Talbot","absoluteDirection":"SOUTHWEST","stayOn":false,"area":false,"bogusName":false,"lon":-71.051266,"lat":48.412081,"elevation":[]}]}],"tooSloped":false},{"duration":857,"startTime":1522680429000,"endTime":1522681286000,"walkTime":459,"transitTime":396,"waitingTime":2,"walkDistance":584.967789469948,"walkLimitExceeded":false,"elevationLost":0.0,"elevationGained":0.0,"transfers":0,"legs":[{"startTime":1522680429000,"endTime":1522680686000,"departureDelay":0,"arrivalDelay":0,"realTime":false,"distance":322.77,"pathway":false,"mode":"WALK","route":"","agencyTimeZoneOffset":-14400000,"interlineWithPreviousLeg":false,"from":{"name":"Origin","lon":-71.057782,"lat":48.426591,"departure":1522680429000,"orig":"","vertexType":"NORMAL"},"to":{"name":"Bégin / Jacques-Cartier","stopId":"1:67","stopCode":"67","lon":-71.055431,"lat":48.425501,"arrival":1522680686000,"departure":1522680687000,"zoneId":"NA","stopIndex":7,"stopSequence":8,"vertexType":"TRANSIT"},"legGeometry":{"points":"_gqfHlnupLF{CN{H@c@PyADSp@p@`@`@b@b@KZ","length":10},"rentedBike":false,"transitLeg":false,"duration":257.0,"steps":[{"distance":230.703,"relativeDirection":"DEPART","streetName":"Rue Jacques-Cartier Est","absoluteDirection":"EAST","stayOn":false,"area":false,"bogusName":false,"lon":-71.05782220488472,"lat":48.42624330360103,"elevation":[]},{"distance":80.02199999999999,"relativeDirection":"RIGHT","streetName":"Rue Bégin","absoluteDirection":"SOUTHWEST","stayOn":false,"area":false,"bogusName":false,"lon":-71.0547356,"lat":48.4259915,"elevation":[]},{"distance":12.045,"relativeDirection":"RIGHT","streetName":"Rue Gaudreault","absoluteDirection":"NORTHWEST","stayOn":false,"area":false,"bogusName":false,"lon":-71.0553392,"lat":48.4253936,"elevation":[]}]},{"startTime":1522680687000,"endTime":1522681083000,"departureDelay":0,"arrivalDelay":0,"realTime":false,"distance":1915.4280255922547,"pathway":false,"mode":"BUS","route":"175","agencyName":"Société de Transport du Saguenay","agencyUrl":"http://ville.saguenay.ca/fr/services-aux-citoyens/transport-sts","agencyTimeZoneOffset":-14400000,"routeColor":"FF00FF","routeType":3,"routeId":"1:175","routeTextColor":"FFFFFF","interlineWithPreviousLeg":false,"tripBlockId":"8","headsign":"Costco","agencyId":"0","tripId":"1:217365","serviceDate":"20180402","from":{"name":"Bégin / Jacques-Cartier","stopId":"1:67","stopCode":"67","lon":-71.055431,"lat":48.425501,"arrival":1522680686000,"departure":1522680687000,"zoneId":"NA","stopIndex":7,"stopSequence":8,"vertexType":"TRANSIT"},"to":{"name":"boul. Université / Murdock","stopId":"1:80","stopCode":"80","lon":-71.050111,"lat":48.411498,"arrival":1522681083000,"departure":1522681084000,"zoneId":"NA","stopIndex":14,"stopSequence":15,"vertexType":"TRANSIT"},"legGeometry":{"points":"cbqfH~~tpLBBvHtHXRx@l@VwAvAgB\\qBIuAC]g@yEzDuLbBbBvAxAMx@|@v@`A~@Xw@~D~DPxFZtA~ApE`N{LpFmEb@[ROl@[vDQXKfA[|@q@fAsBlEmM","length":33},"routeShortName":"175","routeLongName":"Term. Chic / Costco","rentedBike":false,"transitLeg":true,"duration":396.0,"steps":[]},{"startTime":1522681084000,"endTime":1522681286000,"departureDelay":0,"arrivalDelay":0,"realTime":false,"distance":262.082,"pathway":false,"mode":"WALK","route":"","agencyTimeZoneOffset":-14400000,"interlineWithPreviousLeg":false,"from":{"name":"boul. Université / Murdock","stopId":"1:80","stopCode":"80","lon":-71.050111,"lat":48.411498,"arrival":1522681083000,"departure":1522681084000,"zoneId":"NA","stopIndex":14,"stopSequence":15,"vertexType":"TRANSIT"},"to":{"name":"Destination","lon":-71.05284299,"lat":48.411103,"arrival":1522681286000,"orig":"","vertexType":"NORMAL"},"legGeometry":{"points":"aknfH|}spL}AlEO`@n@r@vDvD","length":5},"rentedBike":false,"transitLeg":false,"duration":202.0,"steps":[{"distance":106.955,"relativeDirection":"DEPART","streetName":"Boulevard de l'Université","absoluteDirection":"NORTHWEST","stayOn":false,"area":false,"bogusName":false,"lon":-71.05006857152243,"lat":48.41153928216614,"elevation":[]},{"distance":155.127,"relativeDirection":"LEFT","streetName":"Boulevard Talbot","absoluteDirection":"SOUTHWEST","stayOn":false,"area":false,"bogusName":false,"lon":-71.051266,"lat":48.412081,"elevation":[]}]}],"tooSloped":false},{"duration":1223,"startTime":1522680264000,"endTime":1522681487000,"walkTime":402,"transitTime":819,"waitingTime":2,"walkDistance":508.7704135301105,"walkLimitExceeded":false,"elevationLost":0.0,"elevationGained":0.0,"transfers":0,"legs":[{"startTime":1522680264000,"endTime":1522680456000,"departureDelay":0,"arrivalDelay":0,"realTime":false,"distance":238.42700000000002,"pathway":false,"mode":"WALK","route":"","agencyTimeZoneOffset":-14400000,"interlineWithPreviousLeg":false,"from":{"name":"Origin","lon":-71.057782,"lat":48.426591,"departure":1522680264000,"orig":"","vertexType":"NORMAL"},"to":{"name":"Racine / Labrecque","stopId":"1:515","stopCode":"515","lon":-71.057333,"lat":48.427512,"arrival":1522680456000,"departure":1522680457000,"zoneId":"NA","stopIndex":2,"stopSequence":3,"vertexType":"TRANSIT"},"legGeometry":{"points":"_gqfHlnupLF{CoCK_@?SBQDo@N]FFj@","length":9},"rentedBike":false,"transitLeg":false,"duration":192.0,"steps":[{"distance":57.56,"relativeDirection":"DEPART","streetName":"Rue Jacques-Cartier Est","absoluteDirection":"EAST","stayOn":false,"area":false,"bogusName":false,"lon":-71.05782220488472,"lat":48.42624330360103,"elevation":[]},{"distance":163.66,"relativeDirection":"LEFT","streetName":"Rue Labrecque","absoluteDirection":"NORTH","stayOn":false,"area":false,"bogusName":false,"lon":-71.05704440000001,"lat":48.4262037,"elevation":[]},{"distance":17.207,"relativeDirection":"LEFT","streetName":"Rue Racine Est","absoluteDirection":"WEST","stayOn":false,"area":false,"bogusName":false,"lon":-71.0571547,"lat":48.427663,"elevation":[]}]},{"startTime":1522680457000,"endTime":1522681276000,"departureDelay":0,"arrivalDelay":0,"realTime":false,"distance":4149.305637141043,"pathway":false,"mode":"BUS","route":"10","agencyName":"Société de Transport du Saguenay","agencyUrl":"http://ville.saguenay.ca/fr/services-aux-citoyens/transport-sts","agencyTimeZoneOffset":-14400000,"routeColor":"0000FF","routeType":3,"routeId":"1:10","routeTextColor":"FFFFFF","interlineWithPreviousLeg":false,"tripBlockId":"26","headsign":"Terminus UQAC","agencyId":"0","tripId":"1:217972","serviceDate":"20180402","from":{"name":"Racine / Labrecque","stopId":"1:515","stopCode":"515","lon":-71.057333,"lat":48.427512,"arrival":1522680456000,"departure":1522680457000,"zoneId":"NA","stopIndex":2,"stopSequence":3,"vertexType":"TRANSIT"},"to":{"name":"boul. Université / Murdock","stopId":"1:59","stopCode":"59","lon":-71.049971,"lat":48.411755,"arrival":1522681276000,"departure":1522681277000,"zoneId":"NA","stopIndex":21,"stopSequence":22,"vertexType":"TRANSIT"},"legGeometry":{"points":"ooqfHnkupLCk@^Cd@QWkL?m@IuF@gA?eH?cAEuEDO^AjD`@B@rEf@T_FjBXpDd@hCObDaCfCaHbFqN`CwG_J_CwMiDGe@T}C\\yELaCJeAJcAXw@Fk@M_@xBwVr@^LJ|@z@HdAlBbD`Av@b@\\v@d@`@BpBAzAXl@t@XZt@lCl@tAnBpB~@~@lDjDr@r@zDrDnAlAjBrBl@pBPlBCj@KrAAHSpAe@jB_A|Bz@xAvA~BvB|BdN|Nc@bA","length":71},"routeShortName":"10","routeLongName":"Notre-Dame du Saguenay","rentedBike":false,"transitLeg":true,"duration":819.0,"steps":[]},{"startTime":1522681277000,"endTime":1522681487000,"departureDelay":0,"arrivalDelay":0,"realTime":false,"distance":270.228,"pathway":false,"mode":"WALK","route":"","agencyTimeZoneOffset":-14400000,"interlineWithPreviousLeg":false,"from":{"name":"boul. Université / Murdock","stopId":"1:59","stopCode":"59","lon":-71.049971,"lat":48.411755,"arrival":1522681276000,"departure":1522681277000,"zoneId":"NA","stopIndex":21,"stopSequence":22,"vertexType":"TRANSIT"},"to":{"name":"Destination","lon":-71.05284299,"lat":48.411103,"arrival":1522681487000,"orig":"","vertexType":"NORMAL"},"legGeometry":{"points":"_lnfHx}spLoAhDELOb@TVn@r@vDvD","length":7},"rentedBike":false,"transitLeg":false,"duration":210.0,"steps":[{"distance":99.045,"relativeDirection":"DEPART","streetName":"Boulevard de l'Université","absoluteDirection":"NORTHWEST","stayOn":false,"area":false,"bogusName":false,"lon":-71.05004245459075,"lat":48.41168714240219,"elevation":[]},{"distance":171.18300000000002,"relativeDirection":"LEFT","streetName":"Boulevard Talbot","absoluteDirection":"SOUTHWEST","stayOn":false,"area":false,"bogusName":false,"lon":-71.05114060000001,"lat":48.412199,"elevation":[]}]}],"tooSloped":false}]},"debugOutput":{"precalculationTime":49,"pathCalculationTime":34,"pathTimes":[20,7,7],"renderingTime":0,"totalTime":83,"timedOut":false},"elevationMetadata":{"ellipsoidToGeoidDifference":-28.885904201182168,"geoidElevation":false}}