{"requestParameters":{"date":"2018/04/02","walkSpeed":"1.33","walkReluctance":"2.0","fromPlace":"48.450959,-71.020759","maxWalkDistance":"3000","waitReluctance":"1.0","carSpeed":"33","numItineraries":"3","waitAtBeginningFactor":"0.4","mode":"TRANSIT,WALK","ignoreRealtimeUpdates":"false","stairsReluctance":"2.0","toPlace":"48.444207,-71.035887","time":"15:50:00"},"plan":{"date":1522698600000,"from":{"name":"Origin","lon":-71.020759,"lat":48.450959,"orig":"","vertexType":"NORMAL"},"to":{"name":"Destination","lon":-71.035887,"lat":48.444207,"orig":"","vertexType":"NORMAL"},"itineraries":[{"duration":231,"startTime":1522699138000,"endTime":1522699369000,"walkTime":85,"transitTime":144,"waitingTime":2,"walkDistance":100.55602255448649,"walkLimitExceeded":false,"elevationLost":0.0,"elevationGained":0.0,"transfers":0,"legs":[{"startTime":1522699138000,"endTime":1522699158000,"departureDelay":0,"arrivalDelay":0,"realTime":false,"distance":21.975,"pathway":false,"mode":"WALK","route":"","agencyTimeZoneOffset":-14400000,"interlineWithPreviousLeg":false,"from":{"name":"Origin","lon":-71.020759,"lat":48.450959,"departure":1522699138000,"orig":"","vertexType":"NORMAL"},"to":{"name":"Anna / boul. Tadoussac","stopId":"1:1573","stopCode":"1573","lon":-71.020808,"lat":48.451078,"arrival":1522699158000,"departure":1522699159000,"zoneId":"NA","stopIndex":17,"stopSequence":18,"vertexType":"TRANSIT"},"legGeometry":{"points":"mavfHvfnpLEEKQMJ","length":4},"rentedBike":false,"transitLeg":false,"duration":20.0,"steps":[{"distance":12.984,"relativeDirection":"DEPART","streetName":"Route de Tadoussac","absoluteDirection":"NORTHEAST","stayOn":false,"area":false,"bogusName":false,"lon":-71.02075875760283,"lat":48.45095884996824,"elevation":[]},{"distance":8.991,"relativeDirection":"LEFT","streetName":"Rue Anna","absoluteDirection":"NORTHWEST","stayOn":false,"area":false,"bogusName":false,"lon":-71.0206378,"lat":48.4510437,"elevation":[]}]},{"startTime":1522699159000,"endTime":1522699303000,"departureDelay":0,"arrivalDelay":0,"realTime":false,"distance":1356.9914656691244,"pathway":false,"mode":"BUS","route":"25","agencyName":"Société de Transport du Saguenay","agencyUrl":"http://ville.saguenay.ca/fr/services-aux-citoyens/transport-sts","agencyTimeZoneOffset":-14400000,"routeColor":"00FFFF","routeType":3,"routeId":"1:25","routeTextColor":"000000","interlineWithPreviousLeg":false,"tripBlockId":"68","headsign":"Terminus Chicoutimi","agencyId":"0","tripId":"1:218586","serviceDate":"20180402","from":{"name":"Anna / boul. Tadoussac","stopId":"1:1573","stopCode":"1573","lon":-71.020808,"lat":48.451078,"arrival":1522699158000,"departure":1522699159000,"zoneId":"NA","stopIndex":17,"stopSequence":18,"vertexType":"TRANSIT"},"to":{"name":"boul. Tadoussac (no. 1189)","stopId":"1:2025","stopCode":"2025","lon":-71.03511,"lat":48.444289,"arrival":1522699303000,"departure":1522699304000,"zoneId":"NA","stopIndex":20,"stopSequence":21,"vertexType":"TRANSIT"},"legGeometry":{"points":"qbvfHnfnpLLSnAnBtJ|K~MtOnC~Cz@t@lBrB`@d@`@n@`@v@Tp@Nh@ZlATfAJz@Fj@H`AB|@?t@@`AIrB[hEOrBm@vI","length":25},"routeShortName":"25","routeLongName":"Valin","rentedBike":false,"transitLeg":true,"duration":144.0,"steps":[]},{"startTime":1522699304000,"endTime":1522699369000,"departureDelay":0,"arrivalDelay":0,"realTime":false,"distance":78.52199999999999,"pathway":false,"mode":"WALK","route":"","agencyTimeZoneOffset":-14400000,"interlineWithPreviousLeg":false,"from":{"name":"boul. Tadoussac (no. 1189)","stopId":"1:2025","stopCode":"2025","lon":-71.03511,"lat":48.444289,"arrival":1522699303000,"departure":1522699304000,"zoneId":"NA","stopIndex":20,"stopSequence":21,"vertexType":"TRANSIT"},"to":{"name":"Destination","lon":-71.035887,"lat":48.444207,"arrival":1522699369000,"orig":"","vertexType":"NORMAL"},"legGeometry":{"points":"swtfHn_qpLRDCZEr@M~A","length":5},"rentedBike":false,"transitLeg":false,"duration":65.0,"steps":[{"distance":12.135,"relativeDirection":"DEPART","streetName":"service road","absoluteDirection":"SOUTH","stayOn":false,"area":false,"bogusName":true,"lon":-71.03495108245288,"lat":48.44426842638378,"elevation":[]},{"distance":66.387,"relativeDirection":"RIGHT","streetName":"Boulevard de Tadoussac","absoluteDirection":"WEST","stayOn":false,"area":false,"bogusName":false,"lon":-71.0349826,"lat":48.444161300000005,"elevation":[]}]}],"tooSloped":false},{"duration":1146,"startTime":1522698600000,"endTime":1522699746000,"walkTime":1146,"transitTime":0,"waitingTime":0,"walkDistance":1506.8577518780617,"walkLimitExceeded":false,"elevationLost":0.0,"elevationGained":0.0,"transfers":0,"legs":[{"startTime":1522698600000,"endTime":1522699746000,"departureDelay":0,"arrivalDelay":0,"realTime":false,"distance":1506.807,"pathway":false,"mode":"WALK","route":"","agencyTimeZoneOffset":-14400000,"interlineWithPreviousLeg":false,"from":{"name":"Origin","lon":-71.020759,"lat":48.450959,"departure":1522698600000,"orig":"","vertexType":"NORMAL"},"to":{"name":"Destination","lon":-71.035887,"lat":48.444207,"arrival":1522699746000,"orig":"","vertexType":"NORMAL"},"legGeometry":{"points":"mavfHvfnpL\\j@d@p@NPvErFz@~@bAjABBdMvNXZv@|@f@h@|A~AdBfBh@l@JPX`@Vf@Vh@Rh@Rh@@FLb@Lj@Jj@Jl@J~@?@Dh@D|@Bz@?vAAr@AHI~A[nECPWjDCb@U|CCZEr@M~A","length":43},"rentedBike":false,"transitLeg":false,"duration":1146.0,"steps":[{"distance":763.6189999999999,"relativeDirection":"DEPART","streetName":"Route de Tadoussac","absoluteDirection":"SOUTHWEST","stayOn":false,"area":false,"bogusName":false,"lon":-71.02075875760283,"lat":48.45095884996824,"elevation":[]},{"distance":743.188,"relativeDirection":"CONTINUE","streetName":"Boulevard de Tadoussac","absoluteDirection":"SOUTHWEST","stayOn":false,"area":false,"bogusName":false,"lon":-71.0269191,"lat":48.4454427,"elevation":[]}]}],"tooSloped":false},{"duration":231,"startTime":1522704658000,"endTime":1522704889000,"walkTime":85,"transitTime":144,"waitingTime":2,"walkDistance":100.55602255448649,"walkLimitExceeded":false,"elevationLost":0.0,"elevationGained":0.0,"transfers":0,"legs":[{"startTime":1522704658000,"endTime":1522704678000,"departureDelay":0,"arrivalDelay":0,"realTime":false,"distance":21.975,"pathway":false,"mode":"WALK","route":"","agencyTimeZoneOffset":-14400000,"interlineWithPreviousLeg":false,"from":{"name":"Origin","lon":-71.020759,"lat":48.450959,"departure":1522704658000,"orig":"","vertexType":"NORMAL"},"to":{"name":"Anna / boul. Tadoussac","stopId":"1:1573","stopCode":"1573","lon":-71.020808,"lat":48.451078,"arrival":1522704678000,"departure":1522704679000,"zoneId":"NA","stopIndex":17,"stopSequence":18,"vertexType":"TRANSIT"},"legGeometry":{"points":"mavfHvfnpLEEKQMJ","length":4},"rentedBike":false,"transitLeg":false,"duration":20.0,"steps":[{"distance":12.984,"relativeDirection":"DEPART","streetName":"Route de Tadoussac","absoluteDirection":"NORTHEAST","stayOn":false,"area":false,"bogusName":false,"lon":-71.02075875760283,"lat":48.45095884996824,"elevation":[]},{"distance":8.991,"relativeDirection":"LEFT","streetName":"Rue Anna","absoluteDirection":"NORTHWEST","stayOn":false,"area":false,"bogusName":false,"lon":-71.0206378,"lat":48.4510437,"elevation":[]}]},{"startTime":1522704679000,"endTime":1522704823000,"departureDelay":0,"arrivalDelay":0,"realTime":false,"distance":1356.9914656691244,"pathway":false,"mode":"BUS","route":"25","agencyName":"Société de Transport du Saguenay","agencyUrl":"http://ville.saguenay.ca/fr/services-aux-citoyens/transport-sts","agencyTimeZoneOffset":-14400000,"routeColor":"00FFFF","routeType":3,"routeId":"1:25","routeTextColor":"000000","interlineWithPreviousLeg":false,"tripBlockId":"97","headsign":"Terminus Chicoutimi","agencyId":"0","tripId":"1:218742","serviceDate":"20180402","from":{"name":"Anna / boul. Tadoussac","stopId":"1:1573","stopCode":"1573","lon":-71.020808,"lat":48.451078,"arrival":1522704678000,"departure":1522704679000,"zoneId":"NA","stopIndex":17,"stopSequence":18,"vertexType":"TRANSIT"},"to":{"name":"boul. Tadoussac (no. 1189)","stopId":"1:2025","stopCode":"2025","lon":-71.03511,"lat":48.444289,"arrival":1522704823000,"departure":1522704824000,"zoneId":"NA","stopIndex":20,"stopSequence":21,"vertexType":"TRANSIT"},"legGeometry":{"points":"qbvfHnfnpLLSnAnBtJ|K~MtOnC~Cz@t@lBrB`@d@`@n@`@v@Tp@Nh@ZlATfAJz@Fj@H`AB|@?t@@`AIrB[hEOrBm@vI","length":25},"routeShortName":"25","routeLongName":"Valin","rentedBike":false,"transitLeg":true,"duration":144.0,"steps":[]},{"startTime":1522704824000,"endTime":1522704889000,"departureDelay":0,"arrivalDelay":0,"realTime":false,"distance":78.52199999999999,"pathway":false,"mode":"WALK","route":"","agencyTimeZoneOffset":-14400000,"interlineWithPreviousLeg":false,"from":{"name":"boul. Tadoussac (no. 1189)","stopId":"1:2025","stopCode":"2025","lon":-71.03511,"lat":48.444289,"arrival":1522704823000,"departure":1522704824000,"zoneId":"NA","stopIndex":20,"stopSequence":21,"vertexType":"TRANSIT"},"to":{"name":"Destination","lon":-71.035887,"lat":48.444207,"arrival":1522704889000,"orig":"","vertexType":"NORMAL"},"legGeometry":{"points":"swtfHn_qpLRDCZEr@M~A","length":5},"rentedBike":false,"transitLeg":false,"duration":65.0,"steps":[{"distance":12.135,"relativeDirection":"DEPART","streetName":"service road","absoluteDirection":"SOUTH","stayOn":false,"area":false,"bogusName":true,"lon":-71.03495108245288,"lat":48.44426842638378,"elevation":[]},{"distance":66.387,"relativeDirection":"RIGHT","streetName":"Boulevard de Tadoussac","absoluteDirection":"WEST","stayOn":false,"area":false,"bogusName":false,"lon":-71.0349826,"lat":48.444161300000005,"elevation":[]}]}],"tooSloped":false}]},"debugOutput":{"precalculationTime":6,"pathCalculationTime":7,"pathTimes":[1,2,4],"renderingTime":0,"totalTime":13,"timedOut":false},"elevationMetadata":{"ellipsoidToGeoidDifference":-28.885904201182168,"geoidElevation":false}}