{"requestParameters":{"date":"2018/04/02","walkSpeed":"1.33","walkReluctance":"2.0","fromPlace":"48.440148,-71.061485","maxWalkDistance":"3000","waitReluctance":"1.0","carSpeed":"33","numItineraries":"3","waitAtBeginningFactor":"0.4","mode":"TRANSIT,WALK","ignoreRealtimeUpdates":"false","stairsReluctance":"2.0","toPlace":"48.444207,-71.035887","time":"15:50:00"},"plan":{"date":1522698600000,"from":{"name":"Origin","lon":-71.061485,"lat":48.440148,"orig":"","vertexType":"NORMAL"},"to":{"name":"Destination","lon":-71.035887,"lat":48.444207,"orig":"","vertexType":"NORMAL"},"itineraries":[{"duration":1565,"startTime":1522698600000,"endTime":1522700165000,"walkTime":1565,"transitTime":0,"waitingTime":0,"walkDistance":2033.2956315756355,"walkLimitExceeded":false,"elevationLost":0.0,"elevationGained":0.0,"transfers":0,"legs":[{"startTime":1522698600000,"endTime":1522700165000,"departureDelay":0,"arrivalDelay":0,"realTime":false,"distance":2033.193,"pathway":false,"mode":"WALK","route":"","agencyTimeZoneOffset":-14400000,"interlineWithPreviousLeg":false,"from":{"name":"Origin","lon":-71.061485,"lat":48.440148,"departure":1522698600000,"orig":"","vertexType":"NORMAL"},"to":{"name":"Destination","lon":-71.035887,"lat":48.444207,"arrival":1522700165000,"orig":"","vertexType":"NORMAL"},"legGeometry":{"points":"e}sfHravpLk@S{Ao@e@i@A?W]U_@ACSe@M[CKMa@AGCMG]CQE_@WcDSeBEq@AMC_@Ck@Ae@Ai@Bw@Fk@Da@F]F_@Hi@VmBPoAD]Fc@Hy@BW@Y@K?k@?G?c@Eu@Gc@AICMAIKc@Oc@o@gBM[IOuAkD_AaCYw@GQUs@]qAc@eBAE[eBWcBAIOoAGc@Iw@IeCCe@AU[cFG{AGmAKiB[iGQmD?EKoBKqBO}CAo@AO?}A@_AD{@@a@TcDHiA","length":87},"rentedBike":false,"transitLeg":false,"duration":1565.0,"steps":[{"distance":2033.193,"relativeDirection":"DEPART","streetName":"Boulevard de Tadoussac","absoluteDirection":"NORTH","stayOn":false,"area":false,"bogusName":false,"lon":-71.0608976234176,"lat":48.440033678177144,"elevation":[]}]}],"tooSloped":false},{"duration":623,"startTime":1522700196000,"endTime":1522700819000,"walkTime":249,"transitTime":372,"waitingTime":2,"walkDistance":317.9250451105863,"walkLimitExceeded":false,"elevationLost":0.0,"elevationGained":0.0,"transfers":0,"legs":[{"startTime":1522700196000,"endTime":1522700402000,"departureDelay":0,"arrivalDelay":0,"realTime":false,"distance":262.038,"pathway":false,"mode":"WALK","route":"","agencyTimeZoneOffset":-14400000,"interlineWithPreviousLeg":false,"from":{"name":"Origin","lon":-71.061485,"lat":48.440148,"departure":1522700196000,"orig":"","vertexType":"NORMAL"},"to":{"name":"Napoléon / Roussel","stopId":"1:805","stopCode":"805","lon":-71.059698,"lat":48.438926,"arrival":1522700402000,"departure":1522700403000,"zoneId":"NA","stopIndex":3,"stopSequence":4,"vertexType":"TRANSIT"},"legGeometry":{"points":"e}sfHravpLk@Sx@mHjE`B","length":4},"rentedBike":false,"transitLeg":false,"duration":206.0,"steps":[{"distance":26.157,"relativeDirection":"DEPART","streetName":"Boulevard de Tadoussac","absoluteDirection":"NORTH","stayOn":false,"area":false,"bogusName":false,"lon":-71.0608976234176,"lat":48.440033678177144,"elevation":[]},{"distance":116.708,"relativeDirection":"RIGHT","streetName":"Rue De Bienville","absoluteDirection":"EAST","stayOn":false,"area":false,"bogusName":false,"lon":-71.0607978,"lat":48.4402594,"elevation":[]},{"distance":119.173,"relativeDirection":"RIGHT","streetName":"Rue Napoléon","absoluteDirection":"SOUTH","stayOn":false,"area":false,"bogusName":false,"lon":-71.0592803,"lat":48.4399625,"elevation":[]}]},{"startTime":1522700403000,"endTime":1522700775000,"departureDelay":0,"arrivalDelay":0,"realTime":false,"distance":2753.4434367774006,"pathway":false,"mode":"BUS","route":"24","agencyName":"Société de Transport du Saguenay","agencyUrl":"http://ville.saguenay.ca/fr/services-aux-citoyens/transport-sts","agencyTimeZoneOffset":-14400000,"routeColor":"00FF00","routeType":3,"routeId":"1:24","routeTextColor":"000000","interlineWithPreviousLeg":false,"tripBlockId":"5","headsign":"Terminus Chicoutimi","agencyId":"0","tripId":"1:217269","serviceDate":"20180402","from":{"name":"Napoléon / Roussel","stopId":"1:805","stopCode":"805","lon":-71.059698,"lat":48.438926,"arrival":1522700402000,"departure":1522700403000,"zoneId":"NA","stopIndex":3,"stopSequence":4,"vertexType":"TRANSIT"},"to":{"name":"boul. Tadoussac (no. 1189)","stopId":"1:818","stopCode":"818","lon":-71.03515,"lat":48.444092,"arrival":1522700775000,"departure":1522700776000,"zoneId":"NA","stopIndex":14,"stopSequence":15,"vertexType":"TRANSIT"},"legGeometry":{"points":"ivsfHpzupLiE}Ah@}DH}@?c@Ea@[_BA?My@Cm@?Y@g@Hu@b@sD\\_DBSyHsC_@MBQA}@IwAUoAcAkCWo@qDgJg@cBk@uBi@sC]aCWwCiKuDwQuGDWbAoGV{AxG~BPFhCdAn@Lx@BxA]QeDI}AzAW~ASQoDg@eKG{A?_@?m@?i@LeCJkAd@yG","length":54},"routeShortName":"24","routeLongName":"Saint-Luc","rentedBike":false,"transitLeg":true,"duration":372.0,"steps":[]},{"startTime":1522700776000,"endTime":1522700819000,"departureDelay":0,"arrivalDelay":0,"realTime":false,"distance":55.819,"pathway":false,"mode":"WALK","route":"","agencyTimeZoneOffset":-14400000,"interlineWithPreviousLeg":false,"from":{"name":"boul. Tadoussac (no. 1189)","stopId":"1:818","stopCode":"818","lon":-71.03515,"lat":48.444092,"arrival":1522700775000,"departure":1522700776000,"zoneId":"NA","stopIndex":14,"stopSequence":15,"vertexType":"TRANSIT"},"to":{"name":"Destination","lon":-71.035887,"lat":48.444207,"arrival":1522700819000,"orig":"","vertexType":"NORMAL"},"legGeometry":{"points":"cwtfHp`qpLEr@M~A","length":3},"rentedBike":false,"transitLeg":false,"duration":43.0,"steps":[{"distance":55.819,"relativeDirection":"DEPART","streetName":"Boulevard de Tadoussac","absoluteDirection":"WEST","stayOn":false,"area":false,"bogusName":false,"lon":-71.03512301599895,"lat":48.44418020282193,"elevation":[]}]}],"tooSloped":false},{"duration":623,"startTime":1522701996000,"endTime":1522702619000,"walkTime":249,"transitTime":372,"waitingTime":2,"walkDistance":317.9250451105863,"walkLimitExceeded":false,"elevationLost":0.0,"elevationGained":0.0,"transfers":0,"legs":[{"startTime":1522701996000,"endTime":1522702202000,"departureDelay":0,"arrivalDelay":0,"realTime":false,"distance":262.038,"pathway":false,"mode":"WALK","route":"","agencyTimeZoneOffset":-14400000,"interlineWithPreviousLeg":false,"from":{"name":"Origin","lon":-71.061485,"lat":48.440148,"departure":1522701996000,"orig":"","vertexType":"NORMAL"},"to":{"name":"Napoléon / Roussel","stopId":"1:805","stopCode":"805","lon":-71.059698,"lat":48.438926,"arrival":1522702202000,"departure":1522702203000,"zoneId":"NA","stopIndex":3,"stopSequence":4,"vertexType":"TRANSIT"},"legGeometry":{"points":"e}sfHravpLk@Sx@mHjE`B","length":4},"rentedBike":false,"transitLeg":false,"duration":206.0,"steps":[{"distance":26.157,"relativeDirection":"DEPART","streetName":"Boulevard de Tadoussac","absoluteDirection":"NORTH","stayOn":false,"area":false,"bogusName":false,"lon":-71.0608976234176,"lat":48.440033678177144,"elevation":[]},{"distance":116.708,"relativeDirection":"RIGHT","streetName":"Rue De Bienville","absoluteDirection":"EAST","stayOn":false,"area":false,"bogusName":false,"lon":-71.0607978,"lat":48.4402594,"elevation":[]},{"distance":119.173,"relativeDirection":"RIGHT","streetName":"Rue Napoléon","absoluteDirection":"SOUTH","stayOn":false,"area":false,"bogusName":false,"lon":-71.0592803,"lat":48.4399625,"elevation":[]}]},{"startTime":1522702203000,"endTime":1522702575000,"departureDelay":0,"arrivalDelay":0,"realTime":false,"distance":2753.4434367774006,"pathway":false,"mode":"BUS","route":"24","agencyName":"Société de Transport du Saguenay","agencyUrl":"http://ville.saguenay.ca/fr/services-aux-citoyens/transport-sts","agencyTimeZoneOffset":-14400000,"routeColor":"00FF00","routeType":3,"routeId":"1:24","routeTextColor":"000000","interlineWithPreviousLeg":false,"tripBlockId":"4","headsign":"Terminus Chicoutimi","agencyId":"0","tripId":"1:217243","serviceDate":"20180402","from":{"name":"Napoléon / Roussel","stopId":"1:805","stopCode":"805","lon":-71.059698,"lat":48.438926,"arrival":1522702202000,"departure":1522702203000,"zoneId":"NA","stopIndex":3,"stopSequence":4,"vertexType":"TRANSIT"},"to":{"name":"boul. Tadoussac (no. 1189)","stopId":"1:818","stopCode":"818","lon":-71.03515,"lat":48.444092,"arrival":1522702575000,"departure":1522702576000,"zoneId":"NA","stopIndex":14,"stopSequence":15,"vertexType":"TRANSIT"},"legGeometry":{"points":"ivsfHpzupLiE}Ah@}DH}@?c@Ea@[_BA?My@Cm@?Y@g@Hu@b@sD\\_DBSyHsC_@MBQA}@IwAUoAcAkCWo@qDgJg@cBk@uBi@sC]aCWwCiKuDwQuGDWbAoGV{AxG~BPFhCdAn@Lx@BxA]QeDI}AzAW~ASQoDg@eKG{A?_@?m@?i@LeCJkAd@yG","length":54},"routeShortName":"24","routeLongName":"Saint-Luc","rentedBike":false,"transitLeg":true,"duration":372.0,"steps":[]},{"startTime":1522702576000,"endTime":1522702619000,"departureDelay":0,"arrivalDelay":0,"realTime":false,"distance":55.819,"pathway":false,"mode":"WALK","route":"","agencyTimeZoneOffset":-14400000,"interlineWithPreviousLeg":false,"from":{"name":"boul. Tadoussac (no. 1189)","stopId":"1:818","stopCode":"818","lon":-71.03515,"lat":48.444092,"arrival":1522702575000,"departure":1522702576000,"zoneId":"NA","stopIndex":14,"stopSequence":15,"vertexType":"TRANSIT"},"to":{"name":"Destination","lon":-71.035887,"lat":48.444207,"arrival":1522702619000,"orig":"","vertexType":"NORMAL"},"legGeometry":{"points":"cwtfHp`qpLEr@M~A","length":3},"rentedBike":false,"transitLeg":false,"duration":43.0,"steps":[{"distance":55.819,"relativeDirection":"DEPART","streetName":"Boulevard de Tadoussac","absoluteDirection":"WEST","stayOn":false,"area":false,"bogusName":false,"lon":-71.03512301599895,"lat":48.44418020282193,"elevation":[]}]}],"tooSloped":false}]},"debugOutput":{"precalculationTime":20,"pathCalculationTime":27,"pathTimes":[17,5,5],"renderingTime":0,"totalTime":47,"timedOut":false},"elevationMetadata":{"ellipsoidToGeoidDifference":-28.885904201182168,"geoidElevation":false}}