{"requestParameters":{"date":"2018/04/02","walkSpeed":"1.33","walkReluctance":"2.0","fromPlace":"48.440844,-71.041499","maxWalkDistance":"3000","waitReluctance":"1.0","carSpeed":"33","numItineraries":"3","waitAtBeginningFactor":"0.4","mode":"TRANSIT,WALK","ignoreRealtimeUpdates":"false","stairsReluctance":"2.0","toPlace":"48.426899,-71.064687","time":"12:30:00"},"plan":{"date":1522686600000,"from":{"name":"Origin","lon":-71.041499,"lat":48.440844,"orig":"","vertexType":"NORMAL"},"to":{"name":"Destination","lon":-71.064687,"lat":48.426899,"orig":"","vertexType":"NORMAL"},"itineraries":[{"duration":1667,"startTime":1522687294000,"endTime":1522688961000,"walkTime":1262,"transitTime":403,"waitingTime":2,"walkDistance":1607.707699237482,"walkLimitExceeded":false,"elevationLost":0.0,"elevationGained":0.0,"transfers":0,"legs":[{"startTime":1522687294000,"endTime":1522688296000,"departureDelay":0,"arrivalDelay":0,"realTime":false,"distance":1278.2499999999995,"pathway":false,"mode":"WALK","route":"","agencyTimeZoneOffset":-14400000,"interlineWithPreviousLeg":false,"from":{"name":"Origin","lon":-71.041499,"lat":48.440844,"departure":1522687294000,"orig":"","vertexType":"NORMAL"},"to":{"name":"Boileau / Colbert","stopId":"1:2019","stopCode":"2019","lon":-71.054133,"lat":48.442456,"arrival":1522688296000,"departure":1522688297000,"zoneId":"NA","stopIndex":18,"stopSequence":19,"vertexType":"TRANSIT"},"legGeometry":{"points":"ubtfHfjrpLlBx@CRCXA\\UlBK`ACx@AnA@vADvA@xAGdBWfC{B}@o@dEHBMtAE\\?Z@NDNDNHHFHLFBBrAf@UrBNpD@n@RdCJ`BUvAqAzB@HFb@Dt@?b@?F?j@AJcC_Ae@~D}@Y","length":45},"rentedBike":false,"transitLeg":false,"duration":1002.0,"steps":[{"distance":64.635,"relativeDirection":"DEPART","streetName":"Rue Olier","absoluteDirection":"SOUTH","stayOn":false,"area":false,"bogusName":false,"lon":-71.041792409056,"lat":48.44091367254956,"elevation":[]},{"distance":335.231,"relativeDirection":"RIGHT","streetName":"Rue de Belleville","absoluteDirection":"WEST","stayOn":false,"area":false,"bogusName":false,"lon":-71.04208770000001,"lat":48.4403664,"elevation":[]},{"distance":73.277,"relativeDirection":"RIGHT","streetName":"Rue Louvois","absoluteDirection":"NORTH","stayOn":false,"area":false,"bogusName":false,"lon":-71.0465581,"lat":48.4407221,"elevation":[]},{"distance":76.918,"relativeDirection":"LEFT","streetName":"Rue Jogues","absoluteDirection":"WEST","stayOn":false,"area":false,"bogusName":false,"lon":-71.04625,"lat":48.441348600000005,"elevation":[]},{"distance":5.474,"relativeDirection":"LEFT","streetName":"Rue Saint-Émile","absoluteDirection":"SOUTH","stayOn":false,"area":false,"bogusName":false,"lon":-71.04723220000001,"lat":48.441580900000005,"elevation":[]},{"distance":145.997,"relativeDirection":"RIGHT","streetName":"Rue du Beaujolais","absoluteDirection":"WEST","stayOn":false,"area":false,"bogusName":false,"lon":-71.04725330000001,"lat":48.4415337,"elevation":[]},{"distance":315.517,"relativeDirection":"RIGHT","streetName":"path","absoluteDirection":"WEST","stayOn":false,"area":false,"bogusName":true,"lon":-71.0485709,"lat":48.4409676,"elevation":[]},{"distance":74.69,"relativeDirection":"LEFT","streetName":"Boulevard de Tadoussac","absoluteDirection":"WEST","stayOn":false,"area":false,"bogusName":false,"lon":-71.0525068,"lat":48.441346100000004,"elevation":[]},{"distance":76.812,"relativeDirection":"RIGHT","streetName":"Rue Viau","absoluteDirection":"NORTH","stayOn":false,"area":false,"bogusName":false,"lon":-71.05350340000001,"lat":48.4412736,"elevation":[]},{"distance":74.473,"relativeDirection":"LEFT","streetName":"Rue Colbert","absoluteDirection":"WEST","stayOn":false,"area":false,"bogusName":false,"lon":-71.0531831,"lat":48.4419309,"elevation":[]},{"distance":35.226,"relativeDirection":"RIGHT","streetName":"Rue Boileau","absoluteDirection":"NORTH","stayOn":false,"area":false,"bogusName":false,"lon":-71.0541475,"lat":48.4421291,"elevation":[]}]},{"startTime":1522688297000,"endTime":1522688700000,"departureDelay":0,"arrivalDelay":0,"realTime":false,"distance":2618.6893635583783,"pathway":false,"mode":"BUS","route":"23","agencyName":"Société de Transport du Saguenay","agencyUrl":"http://ville.saguenay.ca/fr/services-aux-citoyens/transport-sts","agencyTimeZoneOffset":-14400000,"routeColor":"FF00FF","routeType":3,"routeId":"1:23","routeTextColor":"FFFFFF","interlineWithPreviousLeg":false,"tripBlockId":"5","headsign":"Terminus Chicoutimi","agencyId":"0","tripId":"1:217262","serviceDate":"20180402","from":{"name":"Boileau / Colbert","stopId":"1:2019","stopCode":"2019","lon":-71.054133,"lat":48.442456,"arrival":1522688296000,"departure":1522688297000,"zoneId":"NA","stopIndex":18,"stopSequence":19,"vertexType":"TRANSIT"},"to":{"name":"Terminus Chicoutimi","stopId":"1:1289","stopCode":"1289","lon":-71.066163,"lat":48.428677,"arrival":1522688700000,"departure":1522688701000,"zoneId":"NA","stopIndex":26,"stopSequence":27,"vertexType":"TRANSIT"},"legGeometry":{"points":"eltfHvvtpLx@Xw@pG@l@B\\DXL\\RZDFXPf@N@v@Bp@Dr@l@~HNlAH\\@HLd@\\z@Xd@X\\RTXRr@Zn@PfExAvDpALnBJt@Pp@|@`DHZPn@`@rBNnAFr@DbA?bB@jABzA?p@A???A???A?A???A@??A?A@??A@?@A??@A@???@A@?@?@A@?@?@?@?@???@?@?@?@?@?@@@?@?@@@?@@@?@@@?@@?@@??@@@?E`@Kr@]rACVEl@I|AAr@JbAWJe@FUAM?a@Ke@YYWWa@v@}@RQPMz@k@tAe@REZG^Af@@X@VF`@Jn@XbClAr@Xt\\`PrAb@pA^hBTjAFj@Pb@JPHLLJNJRFXDT?X?ZEVEVKTMNMHMFOB}DWSGOSYcAN}FFkAF}DJyDd@wPV_HjAN~ALI`C","length":156},"routeShortName":"23","routeLongName":"Côte Verdun via Aréna du Plateau","rentedBike":false,"transitLeg":true,"duration":403.0,"steps":[]},{"startTime":1522688701000,"endTime":1522688961000,"departureDelay":0,"arrivalDelay":0,"realTime":false,"distance":329.12800000000004,"pathway":false,"mode":"WALK","route":"","agencyTimeZoneOffset":-14400000,"interlineWithPreviousLeg":false,"from":{"name":"Terminus Chicoutimi","stopId":"1:1289","stopCode":"1289","lon":-71.066163,"lat":48.428677,"arrival":1522688700000,"departure":1522688701000,"zoneId":"NA","stopIndex":26,"stopSequence":27,"vertexType":"TRANSIT"},"to":{"name":"Destination","lon":-71.064687,"lat":48.426899,"arrival":1522688961000,"orig":"","vertexType":"NORMAL"},"legGeometry":{"points":"{uqfHb~vpLbAJR@JDb@LrBHP@jCPDwC@s@@_@EKGM","length":13},"rentedBike":false,"transitLeg":false,"duration":260.0,"steps":[{"distance":229.71300000000002,"relativeDirection":"DEPART","streetName":"Rue Morin","absoluteDirection":"SOUTH","stayOn":false,"area":false,"bogusName":false,"lon":-71.0654590096484,"lat":48.428628638946556,"elevation":[]},{"distance":87.542,"relativeDirection":"LEFT","streetName":"Rue Jacques-Cartier Est","absoluteDirection":"EAST","stayOn":false,"area":false,"bogusName":false,"lon":-71.0657774,"lat":48.426577300000005,"elevation":[]},{"distance":11.873,"relativeDirection":"LEFT","streetName":"Rue de l'Hôtel-de-Ville","absoluteDirection":"NORTHEAST","stayOn":false,"area":false,"bogusName":false,"lon":-71.0645932,"lat":48.4265291,"elevation":[]}]}],"tooSloped":false},{"duration":1253,"startTime":1522688068000,"endTime":1522689321000,"walkTime":703,"transitTime":548,"waitingTime":2,"walkDistance":890.3194736780966,"walkLimitExceeded":false,"elevationLost":0.0,"elevationGained":0.0,"transfers":0,"legs":[{"startTime":1522688068000,"endTime":1522688511000,"departureDelay":0,"arrivalDelay":0,"realTime":false,"distance":561.002,"pathway":false,"mode":"WALK","route":"","agencyTimeZoneOffset":-14400000,"interlineWithPreviousLeg":false,"from":{"name":"Origin","lon":-71.041499,"lat":48.440844,"departure":1522688068000,"orig":"","vertexType":"NORMAL"},"to":{"name":"St-Émile / Jogues","stopId":"1:827","stopCode":"827","lon":-71.04715,"lat":48.441462,"arrival":1522688511000,"departure":1522688512000,"zoneId":"NA","stopIndex":25,"stopSequence":26,"vertexType":"TRANSIT"},"legGeometry":{"points":"ubtfHfjrpLlBx@CRCXA\\UlBK`ACx@AnA@vADvA@xAGdBWfC{B}@o@dEHBHB","length":18},"rentedBike":false,"transitLeg":false,"duration":443.0,"steps":[{"distance":64.635,"relativeDirection":"DEPART","streetName":"Rue Olier","absoluteDirection":"SOUTH","stayOn":false,"area":false,"bogusName":false,"lon":-71.041792409056,"lat":48.44091367254956,"elevation":[]},{"distance":335.231,"relativeDirection":"RIGHT","streetName":"Rue de Belleville","absoluteDirection":"WEST","stayOn":false,"area":false,"bogusName":false,"lon":-71.04208770000001,"lat":48.4403664,"elevation":[]},{"distance":73.277,"relativeDirection":"RIGHT","streetName":"Rue Louvois","absoluteDirection":"NORTH","stayOn":false,"area":false,"bogusName":false,"lon":-71.0465581,"lat":48.4407221,"elevation":[]},{"distance":76.918,"relativeDirection":"LEFT","streetName":"Rue Jogues","absoluteDirection":"WEST","stayOn":false,"area":false,"bogusName":false,"lon":-71.04625,"lat":48.441348600000005,"elevation":[]},{"distance":10.940999999999999,"relativeDirection":"LEFT","streetName":"Rue Saint-Émile","absoluteDirection":"SOUTH","stayOn":false,"area":false,"bogusName":false,"lon":-71.04723220000001,"lat":48.441580900000005,"elevation":[]}]},{"startTime":1522688512000,"endTime":1522689060000,"departureDelay":0,"arrivalDelay":0,"realTime":false,"distance":3432.668605912259,"pathway":false,"mode":"BUS","route":"24","agencyName":"Société de Transport du Saguenay","agencyUrl":"http://ville.saguenay.ca/fr/services-aux-citoyens/transport-sts","agencyTimeZoneOffset":-14400000,"routeColor":"00FF00","routeType":3,"routeId":"1:24","routeTextColor":"000000","interlineWithPreviousLeg":false,"tripBlockId":"4","headsign":"Terminus Chicoutimi","agencyId":"0","tripId":"1:217235","serviceDate":"20180402","from":{"name":"St-Émile / Jogues","stopId":"1:827","stopCode":"827","lon":-71.04715,"lat":48.441462,"arrival":1522688511000,"departure":1522688512000,"zoneId":"NA","stopIndex":25,"stopSequence":26,"vertexType":"TRANSIT"},"to":{"name":"Terminus Chicoutimi","stopId":"1:1289","stopCode":"1289","lon":-71.066163,"lat":48.428677,"arrival":1522689060000,"departure":1522689061000,"zoneId":"NA","stopIndex":35,"stopSequence":36,"vertexType":"TRANSIT"},"legGeometry":{"points":"iftfHrlspLsJqD_A]VvC\\`Ch@rCj@tBf@bBxDxJN\\bAjCTnAHvA@|@CPIpAe@pDUfBCTEXK~@MxAEn@@v@Bp@Dr@l@~HNlAH\\@HLd@\\z@Xd@X\\RTXRr@Zn@PfExAvDpALnBJt@Pp@Nj@l@tBHZPn@`@rBNnAFr@DbA?bB@jABzA?p@A???A???A?A???A@??A?A@??A@?@A??@A@???@A@?@?@A@?@?@?@?@???@?@?@?@?@?@@@?@?@@@?@@@?@@@?@@?@@??@@@?E`@Kr@]rACVEl@I|AAr@JbAWJe@FUAM?a@Ke@YYWWa@v@}@RQPMz@k@tAe@REZG^Af@@X@VF`@Jn@XbClAr@Xt\\`PrAb@pA^hBTjAFj@Pb@JPHLLJNJRFXDT?X?ZEVEVKTMNMHMFOB}DWSGOSYcAN}FFkAF}DJyDPwGvAHN_HDiB@m@","length":169},"routeShortName":"24","routeLongName":"Saint-Luc","rentedBike":false,"transitLeg":true,"duration":548.0,"steps":[]},{"startTime":1522689061000,"endTime":1522689321000,"departureDelay":0,"arrivalDelay":0,"realTime":false,"distance":329.12800000000004,"pathway":false,"mode":"WALK","route":"","agencyTimeZoneOffset":-14400000,"interlineWithPreviousLeg":false,"from":{"name":"Terminus Chicoutimi","stopId":"1:1289","stopCode":"1289","lon":-71.066163,"lat":48.428677,"arrival":1522689060000,"departure":1522689061000,"zoneId":"NA","stopIndex":35,"stopSequence":36,"vertexType":"TRANSIT"},"to":{"name":"Destination","lon":-71.064687,"lat":48.426899,"arrival":1522689321000,"orig":"","vertexType":"NORMAL"},"legGeometry":{"points":"{uqfHb~vpLbAJR@JDb@LrBHP@jCPDwC@s@@_@EKGM","length":13},"rentedBike":false,"transitLeg":false,"duration":260.0,"steps":[{"distance":229.71300000000002,"relativeDirection":"DEPART","streetName":"Rue Morin","absoluteDirection":"SOUTH","stayOn":false,"area":false,"bogusName":false,"lon":-71.0654590096484,"lat":48.428628638946556,"elevation":[]},{"distance":87.542,"relativeDirection":"LEFT","streetName":"Rue Jacques-Cartier Est","absoluteDirection":"EAST","stayOn":false,"area":false,"bogusName":false,"lon":-71.0657774,"lat":48.426577300000005,"elevation":[]},{"distance":11.873,"relativeDirection":"LEFT","streetName":"Rue de l'Hôtel-de-Ville","absoluteDirection":"NORTHEAST","stayOn":false,"area":false,"bogusName":false,"lon":-71.0645932,"lat":48.4265291,"elevation":[]}]}],"tooSloped":false},{"duration":1179,"startTime":1522689882000,"endTime":1522691061000,"walkTime":599,"transitTime":578,"waitingTime":2,"walkDistance":767.8618872146607,"walkLimitExceeded":false,"elevationLost":0.0,"elevationGained":0.0,"transfers":0,"legs":[{"startTime":1522689882000,"endTime":1522690221000,"departureDelay":0,"arrivalDelay":0,"realTime":false,"distance":438.629,"pathway":false,"mode":"WALK","route":"","agencyTimeZoneOffset":-14400000,"interlineWithPreviousLeg":false,"from":{"name":"Origin","lon":-71.041499,"lat":48.440844,"departure":1522689882000,"orig":"","vertexType":"NORMAL"},"to":{"name":"boul. Tadoussac (no. 817)","stopId":"1:2024","stopCode":"2024","lon":-71.040586,"lat":48.444395,"arrival":1522690221000,"departure":1522690222000,"zoneId":"NA","stopIndex":28,"stopSequence":29,"vertexType":"TRANSIT"},"legGeometry":{"points":"ubtfHfjrpLiAg@w@U]Ia@K[M[MYG_@Ec@?[?g@Fy@JwDd@QmD?E","length":16},"rentedBike":false,"transitLeg":false,"duration":339.0,"steps":[{"distance":372.004,"relativeDirection":"DEPART","streetName":"Rue Olier","absoluteDirection":"NORTH","stayOn":false,"area":false,"bogusName":false,"lon":-71.041792409056,"lat":48.44091367254956,"elevation":[]},{"distance":66.625,"relativeDirection":"RIGHT","streetName":"Boulevard de Tadoussac","absoluteDirection":"EAST","stayOn":false,"area":false,"bogusName":false,"lon":-71.0414514,"lat":48.44418700000001,"elevation":[]}]},{"startTime":1522690222000,"endTime":1522690800000,"departureDelay":0,"arrivalDelay":0,"realTime":false,"distance":3655.0959397921583,"pathway":false,"mode":"BUS","route":"26","agencyName":"Société de Transport du Saguenay","agencyUrl":"http://ville.saguenay.ca/fr/services-aux-citoyens/transport-sts","agencyTimeZoneOffset":-14400000,"routeColor":"00FFFF","routeType":3,"routeId":"1:26","routeTextColor":"000000","interlineWithPreviousLeg":false,"headsign":"Terminus Chicoutimi","agencyId":"0","tripId":"1:218590","serviceDate":"20180402","from":{"name":"boul. Tadoussac (no. 817)","stopId":"1:2024","stopCode":"2024","lon":-71.040586,"lat":48.444395,"arrival":1522690221000,"departure":1522690222000,"zoneId":"NA","stopIndex":28,"stopSequence":29,"vertexType":"TRANSIT"},"to":{"name":"Terminus Chicoutimi","stopId":"1:1289","stopCode":"1289","lon":-71.066163,"lat":48.428677,"arrival":1522690800000,"departure":1522690801000,"zoneId":"NA","stopIndex":38,"stopSequence":39,"vertexType":"TRANSIT"},"legGeometry":{"points":"uwtfHnbrpLPtDn@~L@^r@|MVvC\\`Ch@rCj@tBf@bBxDxJN\\bAjCTnAHvA@|@CPIpAS`BQnAUfBCTEXK~@MxAEn@@v@Bp@Dr@l@~HNlAH\\@HLd@\\z@Xd@X\\RTXRr@Zn@PzBv@jA`@l@RhC|@LnBJt@Pp@Nj@l@tBHZPn@`@rBNnAFr@DbA?bB@jABzA?p@A???A???A?A???A@??A?A@??A@?@A??@A@???@A@?@?@A@?@?@?@?@???@?@?@?@?@?@@@?@?@@@?@@@?@@@?@@?@@??@@@?E`@Kr@]rACVEl@I|AAr@JbAWJe@FUAM?a@Ke@YYWWa@v@}@RQPMz@k@tAe@REZG^Af@@X@VF`@Jn@XbClAr@Xt\\`PrAb@pA^hBTjAFj@Pb@JPHLLJNJRFXDT?X?ZEVEVKTMNMHMFOB}DWSGOSYcAN}FFkAF}DJyDPwGj@_QjANAn@d@D","length":174},"routeShortName":"26","routeLongName":"St-Fulgence","rentedBike":false,"transitLeg":true,"duration":578.0,"steps":[]},{"startTime":1522690801000,"endTime":1522691061000,"departureDelay":0,"arrivalDelay":0,"realTime":false,"distance":329.12800000000004,"pathway":false,"mode":"WALK","route":"","agencyTimeZoneOffset":-14400000,"interlineWithPreviousLeg":false,"from":{"name":"Terminus Chicoutimi","stopId":"1:1289","stopCode":"1289","lon":-71.066163,"lat":48.428677,"arrival":1522690800000,"departure":1522690801000,"zoneId":"NA","stopIndex":38,"stopSequence":39,"vertexType":"TRANSIT"},"to":{"name":"Destination","lon":-71.064687,"lat":48.426899,"arrival":1522691061000,"orig":"","vertexType":"NORMAL"},"legGeometry":{"points":"{uqfHb~vpLbAJR@JDb@LrBHP@jCPDwC@s@@_@EKGM","length":13},"rentedBike":false,"transitLeg":false,"duration":260.0,"steps":[{"distance":229.71300000000002,"relativeDirection":"DEPART","streetName":"Rue Morin","absoluteDirection":"SOUTH","stayOn":false,"area":false,"bogusName":false,"lon":-71.0654590096484,"lat":48.428628638946556,"elevation":[]},{"distance":87.542,"relativeDirection":"LEFT","streetName":"Rue Jacques-Cartier Est","absoluteDirection":"EAST","stayOn":false,"area":false,"bogusName":false,"lon":-71.0657774,"lat":48.426577300000005,"elevation":[]},{"distance":11.873,"relativeDirection":"LEFT","streetName":"Rue de l'Hôtel-de-Ville","absoluteDirection":"NORTHEAST","stayOn":false,"area":false,"bogusName":false,"lon":-71.0645932,"lat":48.4265291,"elevation":[]}]}],"tooSloped":false}]},"debugOutput":{"precalculationTime":31,"pathCalculationTime":19,"pathTimes":[13,3,3],"renderingTime":0,"totalTime":50,"timedOut":false},"elevationMetadata":{"ellipsoidToGeoidDifference":-28.885904201182168,"geoidElevation":false}}