{"requestParameters":{"date":"2018/04/02","walkSpeed":"1.33","walkReluctance":"2.0","fromPlace":"48.442106,-71.059971","maxWalkDistance":"3000","waitReluctance":"1.0","carSpeed":"33","numItineraries":"3","waitAtBeginningFactor":"0.4","mode":"TRANSIT,WALK","ignoreRealtimeUpdates":"false","stairsReluctance":"2.0","toPlace":"48.442376,-71.040853","time":"18:30:00"},"plan":{"date":1522708200000,"from":{"name":"Origin","lon":-71.059971,"lat":48.442106,"orig":"","vertexType":"NORMAL"},"to":{"name":"Destination","lon":-71.040853,"lat":48.442376,"orig":"","vertexType":"NORMAL"},"itineraries":[{"duration":1371,"startTime":1522708200000,"endTime":1522709571000,"walkTime":1371,"transitTime":0,"waitingTime":0,"walkDistance":1773.586751874835,"walkLimitExceeded":false,"elevationLost":0.0,"elevationGained":0.0,"transfers":0,"legs":[{"startTime":1522708200000,"endTime":1522709571000,"departureDelay":0,"arrivalDelay":0,"realTime":false,"distance":1773.436,"pathway":false,"mode":"WALK","route":"","agencyTimeZoneOffset":-14400000,"interlineWithPreviousLeg":false,"from":{"name":"Origin","lon":-71.059971,"lat":48.442106,"departure":1522708200000,"orig":"","vertexType":"NORMAL"},"to":{"name":"Destination","lon":-71.040853,"lat":48.442376,"arrival":1522709571000,"orig":"","vertexType":"NORMAL"},"legGeometry":{"points":"qjtfHb~upLtAd@PcAH]FOJMPSPSCKMa@AGCMG]CQE_@WcDSeBEq@AMC_@Ck@Ae@Ai@Bw@Fk@Da@F]F_@Hi@VmBPoAD]Fc@Hy@BW@Y@K?k@?G?c@Eu@Gc@AICMAIKc@Oc@o@gBM[IOuAkD_AaCYw@GQUs@]qAc@eBAE[eBWcBAIOoAGc@Iw@IeCCe@AU[cFG{AGmAKiB[iGvDe@x@Kf@GZ?b@?J@","length":78},"rentedBike":false,"transitLeg":false,"duration":1371.0,"steps":[{"distance":49.675,"relativeDirection":"DEPART","streetName":"Rue du Régent","absoluteDirection":"SOUTH","stayOn":false,"area":false,"bogusName":false,"lon":-71.06033651682873,"lat":48.44217607951115,"elevation":[]},{"distance":80.529,"relativeDirection":"LEFT","streetName":"Rue Talon","absoluteDirection":"SOUTHEAST","stayOn":false,"area":false,"bogusName":false,"lon":-71.0605235,"lat":48.441746900000005,"elevation":[]},{"distance":1442.7319999999997,"relativeDirection":"LEFT","streetName":"Boulevard de Tadoussac","absoluteDirection":"NORTHEAST","stayOn":false,"area":false,"bogusName":false,"lon":-71.0596842,"lat":48.441320700000006,"elevation":[]},{"distance":200.5,"relativeDirection":"RIGHT","streetName":"Rue Olier","absoluteDirection":"SOUTH","stayOn":false,"area":false,"bogusName":false,"lon":-71.0414514,"lat":48.44418700000001,"elevation":[]}]}],"tooSloped":false},{"duration":898,"startTime":1522710833000,"endTime":1522711731000,"walkTime":574,"transitTime":322,"waitingTime":2,"walkDistance":735.4987293187351,"walkLimitExceeded":false,"elevationLost":0.0,"elevationGained":0.0,"transfers":0,"legs":[{"startTime":1522710833000,"endTime":1522711202000,"departureDelay":0,"arrivalDelay":0,"realTime":false,"distance":470.488,"pathway":false,"mode":"WALK","route":"","agencyTimeZoneOffset":-14400000,"interlineWithPreviousLeg":false,"from":{"name":"Origin","lon":-71.059971,"lat":48.442106,"departure":1522710833000,"orig":"","vertexType":"NORMAL"},"to":{"name":"Napoléon / Roussel","stopId":"1:805","stopCode":"805","lon":-71.059698,"lat":48.438926,"arrival":1522711202000,"departure":1522711203000,"zoneId":"NA","stopIndex":3,"stopSequence":4,"vertexType":"TRANSIT"},"legGeometry":{"points":"qjtfHb~upLtAd@bD~@JBFCDE@GLk@zAn@x@mHjE`B","length":11},"alerts":[{"alertHeaderText":"Unpaved surface"}],"rentedBike":false,"transitLeg":false,"duration":369.0,"steps":[{"distance":180.752,"relativeDirection":"DEPART","streetName":"Rue du Régent","absoluteDirection":"SOUTH","stayOn":false,"area":false,"bogusName":false,"lon":-71.06033651682873,"lat":48.44217607951115,"elevation":[],"alerts":[{"alertHeaderText":"Unpaved surface"}]},{"distance":53.855,"relativeDirection":"RIGHT","streetName":"Boulevard de Tadoussac","absoluteDirection":"SOUTH","stayOn":false,"area":false,"bogusName":false,"lon":-71.06055090000001,"lat":48.4407152,"elevation":[]},{"distance":116.708,"relativeDirection":"LEFT","streetName":"Rue De Bienville","absoluteDirection":"EAST","stayOn":false,"area":false,"bogusName":false,"lon":-71.0607978,"lat":48.4402594,"elevation":[]},{"distance":119.173,"relativeDirection":"RIGHT","streetName":"Rue Napoléon","absoluteDirection":"SOUTH","stayOn":false,"area":false,"bogusName":false,"lon":-71.0592803,"lat":48.4399625,"elevation":[]}]},{"startTime":1522711203000,"endTime":1522711525000,"departureDelay":0,"arrivalDelay":0,"realTime":false,"distance":2353.3195229744483,"pathway":false,"mode":"BUS","route":"24","agencyName":"Société de Transport du Saguenay","agencyUrl":"http://ville.saguenay.ca/fr/services-aux-citoyens/transport-sts","agencyTimeZoneOffset":-14400000,"routeColor":"00FF00","routeType":3,"routeId":"1:24","routeTextColor":"000000","interlineWithPreviousLeg":false,"tripBlockId":"5","headsign":"Terminus Chicoutimi","agencyId":"0","tripId":"1:217275","serviceDate":"20180402","from":{"name":"Napoléon / Roussel","stopId":"1:805","stopCode":"805","lon":-71.059698,"lat":48.438926,"arrival":1522711202000,"departure":1522711203000,"zoneId":"NA","stopIndex":3,"stopSequence":4,"vertexType":"TRANSIT"},"to":{"name":"Fix Auto (boul. Tadoussac)","stopId":"1:817","stopCode":"817","lon":-71.040572,"lat":48.444203,"arrival":1522711525000,"departure":1522711526000,"zoneId":"NA","stopIndex":13,"stopSequence":14,"vertexType":"TRANSIT"},"legGeometry":{"points":"ivsfHpzupLiE}Ah@}DH}@?c@Ea@[_BA?My@Cm@?Y@g@Hu@b@sD\\_DBSyHsC_@MBQA}@IwAUoAcAkCWo@qDgJg@cBk@uBi@sC]aCWwCiKuDwQuGDWbAoGV{AxG~BPFhCdAn@Lx@BxA]QeDI}AzAW~ASQoD","length":46},"routeShortName":"24","routeLongName":"Saint-Luc","rentedBike":false,"transitLeg":true,"duration":322.0,"steps":[]},{"startTime":1522711526000,"endTime":1522711731000,"departureDelay":0,"arrivalDelay":0,"realTime":false,"distance":264.86899999999997,"pathway":false,"mode":"WALK","route":"","agencyTimeZoneOffset":-14400000,"interlineWithPreviousLeg":false,"from":{"name":"Fix Auto (boul. Tadoussac)","stopId":"1:817","stopCode":"817","lon":-71.040572,"lat":48.444203,"arrival":1522711525000,"departure":1522711526000,"zoneId":"NA","stopIndex":13,"stopSequence":14,"vertexType":"TRANSIT"},"to":{"name":"Destination","lon":-71.040853,"lat":48.442376,"arrival":1522711731000,"orig":"","vertexType":"NORMAL"},"legGeometry":{"points":"uwtfHtbrpLPlDvDe@x@Kf@GZ?b@?J@","length":8},"rentedBike":false,"transitLeg":false,"duration":205.0,"steps":[{"distance":64.369,"relativeDirection":"DEPART","streetName":"Boulevard de Tadoussac","absoluteDirection":"WEST","stayOn":false,"area":false,"bogusName":false,"lon":-71.04058906896485,"lat":48.44427587567354,"elevation":[]},{"distance":200.5,"relativeDirection":"LEFT","streetName":"Rue Olier","absoluteDirection":"SOUTH","stayOn":false,"area":false,"bogusName":false,"lon":-71.0414514,"lat":48.44418700000001,"elevation":[]}]}],"tooSloped":false}]},"debugOutput":{"precalculationTime":17,"pathCalculationTime":33,"pathTimes":[18,7,8],"renderingTime":0,"totalTime":50,"timedOut":false},"elevationMetadata":{"ellipsoidToGeoidDifference":-28.885904201182168,"geoidElevation":false}}