{"requestParameters":{"date":"2018/04/02","walkSpeed":"1.33","walkReluctance":"2.0","fromPlace":"48.440749,-71.044607","maxWalkDistance":"3000","waitReluctance":"1.0","carSpeed":"33","numItineraries":"3","waitAtBeginningFactor":"0.4","mode":"TRANSIT,WALK","ignoreRealtimeUpdates":"false","stairsReluctance":"2.0","toPlace":"48.4239,-71.052937","time":"7:30:00"},"plan":{"date":1522668600000,"from":{"name":"Origin","lon":-71.044607,"lat":48.440749,"orig":"","vertexType":"NORMAL"},"to":{"name":"Destination","lon":-71.052937,"lat":48.4239,"orig":"","vertexType":"NORMAL"},"itineraries":[{"duration":1463,"startTime":1522670263000,"endTime":1522671726000,"walkTime":434,"transitTime":787,"waitingTime":242,"walkDistance":543.1420601447596,"walkLimitExceeded":false,"elevationLost":0.0,"elevationGained":0.0,"transfers":1,"legs":[{"startTime":1522670263000,"endTime":1522670511000,"departureDelay":0,"arrivalDelay":0,"realTime":false,"distance":308.993,"pathway":false,"mode":"WALK","route":"","agencyTimeZoneOffset":-14400000,"interlineWithPreviousLeg":false,"from":{"name":"Origin","lon":-71.044607,"lat":48.440749,"departure":1522670263000,"orig":"","vertexType":"NORMAL"},"to":{"name":"St-Émile / Jogues","stopId":"1:827","stopCode":"827","lon":-71.04715,"lat":48.441462,"arrival":1522670511000,"departure":1522670512000,"zoneId":"NA","stopIndex":25,"stopSequence":26,"vertexType":"TRANSIT"},"legGeometry":{"points":"u`tfHt{rpLB`A@xAGdBWfC{B}@o@dEHBHB","length":9},"rentedBike":false,"transitLeg":false,"duration":248.0,"steps":[{"distance":147.857,"relativeDirection":"DEPART","streetName":"Rue de Belleville","absoluteDirection":"WEST","stayOn":false,"area":false,"bogusName":false,"lon":-71.0445832052327,"lat":48.44059833999504,"elevation":[]},{"distance":73.277,"relativeDirection":"RIGHT","streetName":"Rue Louvois","absoluteDirection":"NORTH","stayOn":false,"area":false,"bogusName":false,"lon":-71.0465581,"lat":48.4407221,"elevation":[]},{"distance":76.918,"relativeDirection":"LEFT","streetName":"Rue Jogues","absoluteDirection":"WEST","stayOn":false,"area":false,"bogusName":false,"lon":-71.04625,"lat":48.441348600000005,"elevation":[]},{"distance":10.940999999999999,"relativeDirection":"LEFT","streetName":"Rue Saint-Émile","absoluteDirection":"SOUTH","stayOn":false,"area":false,"bogusName":false,"lon":-71.04723220000001,"lat":48.441580900000005,"elevation":[]}]},{"startTime":1522670512000,"endTime":1522671060000,"departureDelay":0,"arrivalDelay":0,"realTime":false,"distance":3432.668605912259,"pathway":false,"mode":"BUS","route":"24","agencyName":"Société de Transport du Saguenay","agencyUrl":"http://ville.saguenay.ca/fr/services-aux-citoyens/transport-sts","agencyTimeZoneOffset":-14400000,"routeColor":"00FF00","routeType":3,"routeId":"1:24","routeTextColor":"000000","interlineWithPreviousLeg":false,"tripBlockId":"4","headsign":"Terminus Chicoutimi","agencyId":"0","tripId":"1:217225","serviceDate":"20180402","from":{"name":"St-Émile / Jogues","stopId":"1:827","stopCode":"827","lon":-71.04715,"lat":48.441462,"arrival":1522670511000,"departure":1522670512000,"zoneId":"NA","stopIndex":25,"stopSequence":26,"vertexType":"TRANSIT"},"to":{"name":"Terminus Chicoutimi","stopId":"1:1289","stopCode":"1289","lon":-71.066163,"lat":48.428677,"arrival":1522671060000,"departure":1522671300000,"zoneId":"NA","stopIndex":35,"stopSequence":36,"vertexType":"TRANSIT"},"legGeometry":{"points":"iftfHrlspLsJqD_A]VvC\\`Ch@rCj@tBf@bBxDxJN\\bAjCTnAHvA@|@CPIpAe@pDUfBCTEXK~@MxAEn@@v@Bp@Dr@l@~HNlAH\\@HLd@\\z@Xd@X\\RTXRr@Zn@PfExAvDpALnBJt@Pp@Nj@l@tBHZPn@`@rBNnAFr@DbA?bB@jABzA?p@A???A???A?A???A@??A?A@??A@?@A??@A@???@A@?@?@A@?@?@?@?@???@?@?@?@?@?@@@?@?@@@?@@@?@@@?@@?@@??@@@?E`@Kr@]rACVEl@I|AAr@JbAWJe@FUAM?a@Ke@YYWWa@v@}@RQPMz@k@tAe@REZG^Af@@X@VF`@Jn@XbClAr@Xt\\`PrAb@pA^hBTjAFj@Pb@JPHLLJNJRFXDT?X?ZEVEVKTMNMHMFOB}DWSGOSYcAN}FFkAF}DJyDPwGvAHN_HDiB@m@","length":169},"routeShortName":"24","routeLongName":"Saint-Luc","rentedBike":false,"transitLeg":true,"duration":548.0,"steps":[]},{"startTime":1522671300000,"endTime":1522671539000,"departureDelay":0,"arrivalDelay":0,"realTime":false,"distance":1169.0968840426099,"pathway":false,"mode":"BUS","route":"203S","agencyName":"Société de Transport du Saguenay","agencyUrl":"http://ville.saguenay.ca/fr/services-aux-citoyens/transport-sts","agencyTimeZoneOffset":-14400000,"routeColor":"8B0000","routeType":3,"routeId":"1:203S","routeTextColor":"FFFFFF","interlineWithPreviousLeg":false,"tripBlockId":"99","headsign":"Séminaire","agencyId":"0","tripId":"1:218751","serviceDate":"20180402","from":{"name":"Terminus Chicoutimi","stopId":"1:1289","stopCode":"1289","lon":-71.066163,"lat":48.428677,"arrival":1522671060000,"departure":1522671300000,"zoneId":"NA","stopIndex":0,"stopSequence":1,"vertexType":"TRANSIT"},"to":{"name":"Jacques-Cartier / Séminaire","stopId":"1:1918","stopCode":"1918","lon":-71.052669,"lat":48.425403,"arrival":1522671539000,"departure":1522671540000,"zoneId":"NA","stopIndex":4,"stopSequence":5,"vertexType":"TRANSIT"},"legGeometry":{"points":"_vqfH``wpLe@E@o@zDX|BXfCNF}D@YRcFJgLNuNDkCHkFVoKT}@x@yCPcAFiAJeC","length":19},"routeShortName":"203S","routeLongName":"Séminaire - Term. Chic","rentedBike":false,"transitLeg":true,"duration":239.0,"steps":[]},{"startTime":1522671540000,"endTime":1522671726000,"departureDelay":0,"arrivalDelay":0,"realTime":false,"distance":233.97500000000002,"pathway":false,"mode":"WALK","route":"","agencyTimeZoneOffset":-14400000,"interlineWithPreviousLeg":false,"from":{"name":"Jacques-Cartier / Séminaire","stopId":"1:1918","stopCode":"1918","lon":-71.052669,"lat":48.425403,"arrival":1522671539000,"departure":1522671540000,"zoneId":"NA","stopIndex":4,"stopSequence":5,"vertexType":"TRANSIT"},"to":{"name":"Destination","lon":-71.052937,"lat":48.4239,"arrival":1522671726000,"orig":"","vertexType":"NORMAL"},"legGeometry":{"points":"obqfH`ntpLHuBn@PLTJRHTNVBFDHNbABX|B|@","length":12},"rentedBike":false,"transitLeg":false,"duration":186.0,"steps":[{"distance":43.835,"relativeDirection":"DEPART","streetName":"Rue Jacques-Cartier Est","absoluteDirection":"EAST","stayOn":false,"area":false,"bogusName":false,"lon":-71.05264627987177,"lat":48.42552496441786,"elevation":[]},{"distance":190.14000000000001,"relativeDirection":"RIGHT","streetName":"service road","absoluteDirection":"SOUTH","stayOn":false,"area":false,"bogusName":true,"lon":-71.05205670000001,"lat":48.4254766,"elevation":[]}]}],"tooSloped":false},{"duration":2283,"startTime":1522669489000,"endTime":1522671772000,"walkTime":1043,"transitTime":818,"waitingTime":422,"walkDistance":1320.9900902147194,"walkLimitExceeded":false,"elevationLost":0.0,"elevationGained":0.0,"transfers":1,"legs":[{"startTime":1522669489000,"endTime":1522670296000,"departureDelay":0,"arrivalDelay":0,"realTime":false,"distance":1026.241,"pathway":false,"mode":"WALK","route":"","agencyTimeZoneOffset":-14400000,"interlineWithPreviousLeg":false,"from":{"name":"Origin","lon":-71.044607,"lat":48.440749,"departure":1522669489000,"orig":"","vertexType":"NORMAL"},"to":{"name":"Boileau / Colbert","stopId":"1:2019","stopCode":"2019","lon":-71.054133,"lat":48.442456,"arrival":1522670296000,"departure":1522670297000,"zoneId":"NA","stopIndex":18,"stopSequence":19,"vertexType":"TRANSIT"},"legGeometry":{"points":"u`tfHt{rpLB`A@xAGdBWfC{B}@o@dEHBMtAE\\?Z@NDNDNHHFHLFBBrAf@UrBNpD@n@RdCJ`BUvAqAzB@HFb@Dt@?b@?F?j@AJcC_Ae@~D}@Y","length":36},"rentedBike":false,"transitLeg":false,"duration":807.0,"steps":[{"distance":147.857,"relativeDirection":"DEPART","streetName":"Rue de Belleville","absoluteDirection":"WEST","stayOn":false,"area":false,"bogusName":false,"lon":-71.0445832052327,"lat":48.44059833999504,"elevation":[]},{"distance":73.277,"relativeDirection":"RIGHT","streetName":"Rue Louvois","absoluteDirection":"NORTH","stayOn":false,"area":false,"bogusName":false,"lon":-71.0465581,"lat":48.4407221,"elevation":[]},{"distance":76.918,"relativeDirection":"LEFT","streetName":"Rue Jogues","absoluteDirection":"WEST","stayOn":false,"area":false,"bogusName":false,"lon":-71.04625,"lat":48.441348600000005,"elevation":[]},{"distance":5.474,"relativeDirection":"LEFT","streetName":"Rue Saint-Émile","absoluteDirection":"SOUTH","stayOn":false,"area":false,"bogusName":false,"lon":-71.04723220000001,"lat":48.441580900000005,"elevation":[]},{"distance":145.997,"relativeDirection":"RIGHT","streetName":"Rue du Beaujolais","absoluteDirection":"WEST","stayOn":false,"area":false,"bogusName":false,"lon":-71.04725330000001,"lat":48.4415337,"elevation":[]},{"distance":315.517,"relativeDirection":"RIGHT","streetName":"path","absoluteDirection":"WEST","stayOn":false,"area":false,"bogusName":true,"lon":-71.0485709,"lat":48.4409676,"elevation":[]},{"distance":74.69,"relativeDirection":"LEFT","streetName":"Boulevard de Tadoussac","absoluteDirection":"WEST","stayOn":false,"area":false,"bogusName":false,"lon":-71.0525068,"lat":48.441346100000004,"elevation":[]},{"distance":76.812,"relativeDirection":"RIGHT","streetName":"Rue Viau","absoluteDirection":"NORTH","stayOn":false,"area":false,"bogusName":false,"lon":-71.05350340000001,"lat":48.4412736,"elevation":[]},{"distance":74.473,"relativeDirection":"LEFT","streetName":"Rue Colbert","absoluteDirection":"WEST","stayOn":false,"area":false,"bogusName":false,"lon":-71.0531831,"lat":48.4419309,"elevation":[]},{"distance":35.226,"relativeDirection":"RIGHT","streetName":"Rue Boileau","absoluteDirection":"NORTH","stayOn":false,"area":false,"bogusName":false,"lon":-71.0541475,"lat":48.4421291,"elevation":[]}]},{"startTime":1522670297000,"endTime":1522670880000,"departureDelay":0,"arrivalDelay":0,"realTime":false,"distance":2618.6893635583783,"pathway":false,"mode":"BUS","route":"23","agencyName":"Société de Transport du Saguenay","agencyUrl":"http://ville.saguenay.ca/fr/services-aux-citoyens/transport-sts","agencyTimeZoneOffset":-14400000,"routeColor":"FF00FF","routeType":3,"routeId":"1:23","routeTextColor":"FFFFFF","interlineWithPreviousLeg":false,"tripBlockId":"5","headsign":"Terminus Chicoutimi","agencyId":"0","tripId":"1:217252","serviceDate":"20180402","from":{"name":"Boileau / Colbert","stopId":"1:2019","stopCode":"2019","lon":-71.054133,"lat":48.442456,"arrival":1522670296000,"departure":1522670297000,"zoneId":"NA","stopIndex":18,"stopSequence":19,"vertexType":"TRANSIT"},"to":{"name":"Terminus Chicoutimi","stopId":"1:1289","stopCode":"1289","lon":-71.066163,"lat":48.428677,"arrival":1522670880000,"departure":1522671300000,"zoneId":"NA","stopIndex":26,"stopSequence":27,"vertexType":"TRANSIT"},"legGeometry":{"points":"eltfHvvtpLx@Xw@pG@l@B\\DXL\\RZDFXPf@N@v@Bp@Dr@l@~HNlAH\\@HLd@\\z@Xd@X\\RTXRr@Zn@PfExAvDpALnBJt@Pp@|@`DHZPn@`@rBNnAFr@DbA?bB@jABzA?p@A???A???A?A???A@??A?A@??A@?@A??@A@???@A@?@?@A@?@?@?@?@???@?@?@?@?@?@@@?@?@@@?@@@?@@@?@@?@@??@@@?E`@Kr@]rACVEl@I|AAr@JbAWJe@FUAM?a@Ke@YYWWa@v@}@RQPMz@k@tAe@REZG^Af@@X@VF`@Jn@XbClAr@Xt\\`PrAb@pA^hBTjAFj@Pb@JPHLLJNJRFXDT?X?ZEVEVKTMNMHMFOB}DWSGOSYcAN}FFkAF}DJyDd@wPV_HjAN~ALI`C","length":156},"routeShortName":"23","routeLongName":"Côte Verdun via Aréna du Plateau","rentedBike":false,"transitLeg":true,"duration":583.0,"steps":[]},{"startTime":1522671300000,"endTime":1522671535000,"departureDelay":0,"arrivalDelay":0,"realTime":false,"distance":969.6177754081375,"pathway":false,"mode":"BUS","route":"15","agencyName":"Société de Transport du Saguenay","agencyUrl":"http://ville.saguenay.ca/fr/services-aux-citoyens/transport-sts","agencyTimeZoneOffset":-14400000,"routeColor":"FF00FF","routeType":3,"routeId":"1:15","routeTextColor":"FFFFFF","interlineWithPreviousLeg":false,"tripBlockId":"33","headsign":"Talbot / Barrette","agencyId":"0","tripId":"1:218175","serviceDate":"20180402","from":{"name":"Terminus Chicoutimi","stopId":"1:1289","stopCode":"1289","lon":-71.066163,"lat":48.428677,"arrival":1522670880000,"departure":1522671300000,"zoneId":"NA","stopIndex":0,"stopSequence":1,"vertexType":"TRANSIT"},"to":{"name":"Bégin / Jacques-Cartier","stopId":"1:67","stopCode":"67","lon":-71.055431,"lat":48.425501,"arrival":1522671535000,"departure":1522671536000,"zoneId":"NA","stopIndex":4,"stopSequence":5,"vertexType":"TRANSIT"},"legGeometry":{"points":"evqfHpbwpLPiCjKx@HiEZkS\\aSN_K^eIrBpB","length":9},"routeShortName":"15","routeLongName":"Term. Chic / Costco","rentedBike":false,"transitLeg":true,"duration":235.0,"steps":[]},{"startTime":1522671536000,"endTime":1522671772000,"departureDelay":0,"arrivalDelay":0,"realTime":false,"distance":294.413,"pathway":false,"mode":"WALK","route":"","agencyTimeZoneOffset":-14400000,"interlineWithPreviousLeg":false,"from":{"name":"Bégin / Jacques-Cartier","stopId":"1:67","stopCode":"67","lon":-71.055431,"lat":48.425501,"arrival":1522671535000,"departure":1522671536000,"zoneId":"NA","stopIndex":4,"stopSequence":5,"vertexType":"TRANSIT"},"to":{"name":"Destination","lon":-71.052937,"lat":48.4239,"arrival":1522671772000,"orig":"","vertexType":"NORMAL"},"legGeometry":{"points":"abqfHv_upLJ[Z\\d@r@LR\\R`@kB^iAXa@?i@GCl@kF","length":12},"rentedBike":false,"transitLeg":false,"duration":236.0,"steps":[{"distance":12.045,"relativeDirection":"DEPART","streetName":"Rue Gaudreault","absoluteDirection":"SOUTHEAST","stayOn":false,"area":false,"bogusName":false,"lon":-71.055478000161,"lat":48.42545061207084,"elevation":[]},{"distance":75.709,"relativeDirection":"RIGHT","streetName":"Rue Bégin","absoluteDirection":"SOUTHWEST","stayOn":false,"area":false,"bogusName":false,"lon":-71.0553392,"lat":48.4253936,"elevation":[]},{"distance":95.624,"relativeDirection":"LEFT","streetName":"Rue Price Est","absoluteDirection":"SOUTHEAST","stayOn":false,"area":false,"bogusName":false,"lon":-71.0559435,"lat":48.424848700000005,"elevation":[]},{"distance":111.035,"relativeDirection":"LEFT","streetName":"service road","absoluteDirection":"EAST","stayOn":false,"area":false,"bogusName":true,"lon":-71.0548694,"lat":48.4243849,"elevation":[]}]}],"tooSloped":false},{"duration":1509,"startTime":1522672063000,"endTime":1522673572000,"walkTime":484,"transitTime":783,"waitingTime":242,"walkDistance":603.6018646553342,"walkLimitExceeded":false,"elevationLost":0.0,"elevationGained":0.0,"transfers":1,"legs":[{"startTime":1522672063000,"endTime":1522672311000,"departureDelay":0,"arrivalDelay":0,"realTime":false,"distance":308.993,"pathway":false,"mode":"WALK","route":"","agencyTimeZoneOffset":-14400000,"interlineWithPreviousLeg":false,"from":{"name":"Origin","lon":-71.044607,"lat":48.440749,"departure":1522672063000,"orig":"","vertexType":"NORMAL"},"to":{"name":"St-Émile / Jogues","stopId":"1:827","stopCode":"827","lon":-71.04715,"lat":48.441462,"arrival":1522672311000,"departure":1522672312000,"zoneId":"NA","stopIndex":25,"stopSequence":26,"vertexType":"TRANSIT"},"legGeometry":{"points":"u`tfHt{rpLB`A@xAGdBWfC{B}@o@dEHBHB","length":9},"rentedBike":false,"transitLeg":false,"duration":248.0,"steps":[{"distance":147.857,"relativeDirection":"DEPART","streetName":"Rue de Belleville","absoluteDirection":"WEST","stayOn":false,"area":false,"bogusName":false,"lon":-71.0445832052327,"lat":48.44059833999504,"elevation":[]},{"distance":73.277,"relativeDirection":"RIGHT","streetName":"Rue Louvois","absoluteDirection":"NORTH","stayOn":false,"area":false,"bogusName":false,"lon":-71.0465581,"lat":48.4407221,"elevation":[]},{"distance":76.918,"relativeDirection":"LEFT","streetName":"Rue Jogues","absoluteDirection":"WEST","stayOn":false,"area":false,"bogusName":false,"lon":-71.04625,"lat":48.441348600000005,"elevation":[]},{"distance":10.940999999999999,"relativeDirection":"LEFT","streetName":"Rue Saint-Émile","absoluteDirection":"SOUTH","stayOn":false,"area":false,"bogusName":false,"lon":-71.04723220000001,"lat":48.441580900000005,"elevation":[]}]},{"startTime":1522672312000,"endTime":1522672860000,"departureDelay":0,"arrivalDelay":0,"realTime":false,"distance":3432.668605912259,"pathway":false,"mode":"BUS","route":"24","agencyName":"Société de Transport du Saguenay","agencyUrl":"http://ville.saguenay.ca/fr/services-aux-citoyens/transport-sts","agencyTimeZoneOffset":-14400000,"routeColor":"00FF00","routeType":3,"routeId":"1:24","routeTextColor":"000000","interlineWithPreviousLeg":false,"tripBlockId":"5","headsign":"Terminus Chicoutimi","agencyId":"0","tripId":"1:217253","serviceDate":"20180402","from":{"name":"St-Émile / Jogues","stopId":"1:827","stopCode":"827","lon":-71.04715,"lat":48.441462,"arrival":1522672311000,"departure":1522672312000,"zoneId":"NA","stopIndex":25,"stopSequence":26,"vertexType":"TRANSIT"},"to":{"name":"Terminus Chicoutimi","stopId":"1:1289","stopCode":"1289","lon":-71.066163,"lat":48.428677,"arrival":1522672860000,"departure":1522673100000,"zoneId":"NA","stopIndex":35,"stopSequence":36,"vertexType":"TRANSIT"},"legGeometry":{"points":"iftfHrlspLsJqD_A]VvC\\`Ch@rCj@tBf@bBxDxJN\\bAjCTnAHvA@|@CPIpAe@pDUfBCTEXK~@MxAEn@@v@Bp@Dr@l@~HNlAH\\@HLd@\\z@Xd@X\\RTXRr@Zn@PfExAvDpALnBJt@Pp@Nj@l@tBHZPn@`@rBNnAFr@DbA?bB@jABzA?p@A???A???A?A???A@??A?A@??A@?@A??@A@???@A@?@?@A@?@?@?@?@???@?@?@?@?@?@@@?@?@@@?@@@?@@@?@@?@@??@@@?E`@Kr@]rACVEl@I|AAr@JbAWJe@FUAM?a@Ke@YYWWa@v@}@RQPMz@k@tAe@REZG^Af@@X@VF`@Jn@XbClAr@Xt\\`PrAb@pA^hBTjAFj@Pb@JPHLLJNJRFXDT?X?ZEVEVKTMNMHMFOB}DWSGOSYcAN}FFkAF}DJyDPwGvAHN_HDiB@m@","length":169},"routeShortName":"24","routeLongName":"Saint-Luc","rentedBike":false,"transitLeg":true,"duration":548.0,"steps":[]},{"startTime":1522673100000,"endTime":1522673335000,"departureDelay":0,"arrivalDelay":0,"realTime":false,"distance":969.6177754081375,"pathway":false,"mode":"BUS","route":"15","agencyName":"Société de Transport du Saguenay","agencyUrl":"http://ville.saguenay.ca/fr/services-aux-citoyens/transport-sts","agencyTimeZoneOffset":-14400000,"routeColor":"FF00FF","routeType":3,"routeId":"1:15","routeTextColor":"FFFFFF","interlineWithPreviousLeg":false,"tripBlockId":"31","headsign":"Talbot / Barrette","agencyId":"0","tripId":"1:218126","serviceDate":"20180402","from":{"name":"Terminus Chicoutimi","stopId":"1:1289","stopCode":"1289","lon":-71.066163,"lat":48.428677,"arrival":1522672860000,"departure":1522673100000,"zoneId":"NA","stopIndex":0,"stopSequence":1,"vertexType":"TRANSIT"},"to":{"name":"Bégin / Jacques-Cartier","stopId":"1:67","stopCode":"67","lon":-71.055431,"lat":48.425501,"arrival":1522673335000,"departure":1522673336000,"zoneId":"NA","stopIndex":4,"stopSequence":5,"vertexType":"TRANSIT"},"legGeometry":{"points":"evqfHpbwpLPiCjKx@HiEZkS\\aSN_K^eIrBpB","length":9},"routeShortName":"15","routeLongName":"Term. Chic / Costco","rentedBike":false,"transitLeg":true,"duration":235.0,"steps":[]},{"startTime":1522673336000,"endTime":1522673572000,"departureDelay":0,"arrivalDelay":0,"realTime":false,"distance":294.413,"pathway":false,"mode":"WALK","route":"","agencyTimeZoneOffset":-14400000,"interlineWithPreviousLeg":false,"from":{"name":"Bégin / Jacques-Cartier","stopId":"1:67","stopCode":"67","lon":-71.055431,"lat":48.425501,"arrival":1522673335000,"departure":1522673336000,"zoneId":"NA","stopIndex":4,"stopSequence":5,"vertexType":"TRANSIT"},"to":{"name":"Destination","lon":-71.052937,"lat":48.4239,"arrival":1522673572000,"orig":"","vertexType":"NORMAL"},"legGeometry":{"points":"abqfHv_upLJ[Z\\d@r@LR\\R`@kB^iAXa@?i@GCl@kF","length":12},"rentedBike":false,"transitLeg":false,"duration":236.0,"steps":[{"distance":12.045,"relativeDirection":"DEPART","streetName":"Rue Gaudreault","absoluteDirection":"SOUTHEAST","stayOn":false,"area":false,"bogusName":false,"lon":-71.055478000161,"lat":48.42545061207084,"elevation":[]},{"distance":75.709,"relativeDirection":"RIGHT","streetName":"Rue Bégin","absoluteDirection":"SOUTHWEST","stayOn":false,"area":false,"bogusName":false,"lon":-71.0553392,"lat":48.4253936,"elevation":[]},{"distance":95.624,"relativeDirection":"LEFT","streetName":"Rue Price Est","absoluteDirection":"SOUTHEAST","stayOn":false,"area":false,"bogusName":false,"lon":-71.0559435,"lat":48.424848700000005,"elevation":[]},{"distance":111.035,"relativeDirection":"LEFT","streetName":"service road","absoluteDirection":"EAST","stayOn":false,"area":false,"bogusName":true,"lon":-71.0548694,"lat":48.4243849,"elevation":[]}]}],"tooSloped":false}]},"debugOutput":{"precalculationTime":27,"pathCalculationTime":22,"pathTimes":[13,5,4],"renderingTime":1,"totalTime":50,"timedOut":false},"elevationMetadata":{"ellipsoidToGeoidDifference":-28.885904201182168,"geoidElevation":false}}