{"requestParameters":{"date":"2018/04/02","walkSpeed":"1.33","walkReluctance":"2.0","fromPlace":"48.414055,-71.06882799","maxWalkDistance":"3000","waitReluctance":"1.0","carSpeed":"33","numItineraries":"3","waitAtBeginningFactor":"0.4","mode":"TRANSIT,WALK","ignoreRealtimeUpdates":"false","stairsReluctance":"2.0","toPlace":"48.440749,-71.044607","time":"11:50:00"},"plan":{"date":1522684200000,"from":{"name":"Origin","lon":-71.06882799,"lat":48.414055,"orig":"","vertexType":"NORMAL"},"to":{"name":"Destination","lon":-71.044607,"lat":48.440749,"orig":"","vertexType":"NORMAL"},"itineraries":[{"duration":2513,"startTime":1522684448000,"endTime":1522686961000,"walkTime":386,"transitTime":1705,"waitingTime":422,"walkDistance":485.8122105219852,"walkLimitExceeded":false,"elevationLost":0.0,"elevationGained":0.0,"transfers":1,"legs":[{"startTime":1522684448000,"endTime":1522684586000,"departureDelay":0,"arrivalDelay":0,"realTime":false,"distance":176.685,"pathway":false,"mode":"WALK","route":"","agencyTimeZoneOffset":-14400000,"interlineWithPreviousLeg":false,"from":{"name":"Origin","lon":-71.06882799,"lat":48.414055,"departure":1522684448000,"orig":"","vertexType":"NORMAL"},"to":{"name":"École secondaire de l'Odyssé Dominique-Racine","stopId":"1:580","stopCode":"580","lon":-71.067703,"lat":48.412977,"arrival":1522684586000,"departure":1522684587000,"zoneId":"NA","stopIndex":24,"stopSequence":25,"vertexType":"TRANSIT"},"legGeometry":{"points":"{znfHbswpLXu@|AiEHQTHz@t@","length":6},"rentedBike":false,"transitLeg":false,"duration":138.0,"steps":[{"distance":124.463,"relativeDirection":"DEPART","streetName":"Rue Des Oblats Est","absoluteDirection":"SOUTHEAST","stayOn":false,"area":false,"bogusName":false,"lon":-71.0688188011251,"lat":48.41406360813132,"elevation":[]},{"distance":52.222,"relativeDirection":"RIGHT","streetName":"Rue Bégin","absoluteDirection":"SOUTH","stayOn":false,"area":false,"bogusName":false,"lon":-71.06744280000001,"lat":48.413416500000004,"elevation":[]}]},{"startTime":1522684587000,"endTime":1522685280000,"departureDelay":0,"arrivalDelay":0,"realTime":false,"distance":3444.734109095533,"pathway":false,"mode":"BUS","route":"15","agencyName":"Société de Transport du Saguenay","agencyUrl":"http://ville.saguenay.ca/fr/services-aux-citoyens/transport-sts","agencyTimeZoneOffset":-14400000,"routeColor":"FF00FF","routeType":3,"routeId":"1:15","routeTextColor":"FFFFFF","interlineWithPreviousLeg":false,"tripBlockId":"32","headsign":"Terminus Chicoutimi","agencyId":"0","tripId":"1:218157","serviceDate":"20180402","from":{"name":"École secondaire de l'Odyssé Dominique-Racine","stopId":"1:580","stopCode":"580","lon":-71.067703,"lat":48.412977,"arrival":1522684586000,"departure":1522684587000,"zoneId":"NA","stopIndex":24,"stopSequence":25,"vertexType":"TRANSIT"},"to":{"name":"Terminus Chicoutimi","stopId":"1:1289","stopCode":"1289","lon":-71.066163,"lat":48.428677,"arrival":1522685280000,"departure":1522685700000,"zoneId":"NA","stopIndex":39,"stopSequence":40,"vertexType":"TRANSIT"},"legGeometry":{"points":"ktnfH~lwpLsAkAoBwB_EcE{A_BoAmAk@o@cCaCkIkIaJaJUUwBaCj@wCjAsCzGoG_CoHL{D_@kAqD{CQr@iAcAy@w@L{@wAuA_B_B_EpLDh@NbBVvCIxBg@`Am@l@Sb@a@rAqDqDmEkE]a@kAqAU|@WnKG|DGxDOdPKvJU|F?XQlJC~@ChAIzEcCOaIi@VwL","length":53},"routeShortName":"15","routeLongName":"Term. Chic / Costco","rentedBike":false,"transitLeg":true,"duration":693.0,"steps":[]},{"startTime":1522685700000,"endTime":1522686712000,"departureDelay":0,"arrivalDelay":0,"realTime":false,"distance":6609.749982746157,"pathway":false,"mode":"BUS","route":"24","agencyName":"Société de Transport du Saguenay","agencyUrl":"http://ville.saguenay.ca/fr/services-aux-citoyens/transport-sts","agencyTimeZoneOffset":-14400000,"routeColor":"00FF00","routeType":3,"routeId":"1:24","routeTextColor":"000000","interlineWithPreviousLeg":false,"tripBlockId":"5","headsign":"Terminus Chicoutimi","agencyId":"0","tripId":"1:217261","serviceDate":"20180402","from":{"name":"Terminus Chicoutimi","stopId":"1:1289","stopCode":"1289","lon":-71.066163,"lat":48.428677,"arrival":1522685280000,"departure":1522685700000,"zoneId":"NA","stopIndex":0,"stopSequence":1,"vertexType":"TRANSIT"},"to":{"name":"St-Émile / Jogues","stopId":"1:827","stopCode":"827","lon":-71.04715,"lat":48.441462,"arrival":1522686712000,"departure":1522686713000,"zoneId":"NA","stopIndex":25,"stopSequence":26,"vertexType":"TRANSIT"},"legGeometry":{"points":"evqfHzcwpLg@?EhBO~GoBKCp@O\\WjGOfGCRK^KJMHQB_AMg@Gm\\wO]i@wAyA_@WUKMEwEm@Js@Da@??@@??@?@???@???@?@??A@???@A@??A@??A@A??@A?A??@A?A?A?A@A?A???A?A?A???A?A?A?A???A?AAA?A???AAA?A??AA?AA??AA??A??AA??A??AA?A???A????q@C{AAaB?mAEcAGs@OoAa@sB[kAYcASq@Ok@Qq@Ku@MoBKmAa@eHi@FKC_@I??iE}Ah@}DH}@?c@Ea@[_BA?My@Cm@?Y@g@Hu@b@sD\\_DBSyHsC_@MBQA}@IwAUoAcAkCWo@qDgJg@cBk@uBi@sC]aCWwCiKuDwQuGDWbAoGV{AxG~BPFhCdAn@Lx@BxA]QeDI}AzAW~ASQoDg@eKG{A?_@?m@?i@LeCJkAd@yGxAqSBs@p@^VRPRbF~FlCxBxB|B~JjK`IjIRPb@^r@d@rAp@\\T\\ZNVRd@J\\Nd@Hf@F`@@DFr@LtAJpB@jAAt@ObEIzAKbBUrBMp@Sn@gAlCk@pAw@fCwB|HCNk@jCeDuAq@UC?mG_CaHiC","length":208},"routeShortName":"24","routeLongName":"Saint-Luc","rentedBike":false,"transitLeg":true,"duration":1012.0,"steps":[]},{"startTime":1522686713000,"endTime":1522686961000,"departureDelay":0,"arrivalDelay":0,"realTime":false,"distance":308.99300000000005,"pathway":false,"mode":"WALK","route":"","agencyTimeZoneOffset":-14400000,"interlineWithPreviousLeg":false,"from":{"name":"St-Émile / Jogues","stopId":"1:827","stopCode":"827","lon":-71.04715,"lat":48.441462,"arrival":1522686712000,"departure":1522686713000,"zoneId":"NA","stopIndex":25,"stopSequence":26,"vertexType":"TRANSIT"},"to":{"name":"Destination","lon":-71.044607,"lat":48.440749,"arrival":1522686961000,"orig":"","vertexType":"NORMAL"},"legGeometry":{"points":"gftfHnlspLICICn@eEzB|@VgCFeBAyACaA","length":9},"rentedBike":false,"transitLeg":false,"duration":248.0,"steps":[{"distance":10.940999999999999,"relativeDirection":"DEPART","streetName":"Rue Saint-Émile","absoluteDirection":"NORTH","stayOn":false,"area":false,"bogusName":false,"lon":-71.04727444723207,"lat":48.44148657796171,"elevation":[]},{"distance":76.918,"relativeDirection":"RIGHT","streetName":"Rue Jogues","absoluteDirection":"EAST","stayOn":false,"area":false,"bogusName":false,"lon":-71.04723220000001,"lat":48.441580900000005,"elevation":[]},{"distance":73.277,"relativeDirection":"RIGHT","streetName":"Rue Louvois","absoluteDirection":"SOUTH","stayOn":false,"area":false,"bogusName":false,"lon":-71.04625,"lat":48.441348600000005,"elevation":[]},{"distance":147.857,"relativeDirection":"LEFT","streetName":"Rue de Belleville","absoluteDirection":"EAST","stayOn":false,"area":false,"bogusName":false,"lon":-71.0465581,"lat":48.4407221,"elevation":[]}]}],"tooSloped":false},{"duration":2219,"startTime":1522686248000,"endTime":1522688467000,"walkTime":670,"transitTime":1127,"waitingTime":422,"walkDistance":865.1897894699481,"walkLimitExceeded":false,"elevationLost":0.0,"elevationGained":0.0,"transfers":1,"legs":[{"startTime":1522686248000,"endTime":1522686386000,"departureDelay":0,"arrivalDelay":0,"realTime":false,"distance":176.685,"pathway":false,"mode":"WALK","route":"","agencyTimeZoneOffset":-14400000,"interlineWithPreviousLeg":false,"from":{"name":"Origin","lon":-71.06882799,"lat":48.414055,"departure":1522686248000,"orig":"","vertexType":"NORMAL"},"to":{"name":"École secondaire de l'Odyssé Dominique-Racine","stopId":"1:580","stopCode":"580","lon":-71.067703,"lat":48.412977,"arrival":1522686386000,"departure":1522686387000,"zoneId":"NA","stopIndex":24,"stopSequence":25,"vertexType":"TRANSIT"},"legGeometry":{"points":"{znfHbswpLXu@|AiEHQTHz@t@","length":6},"rentedBike":false,"transitLeg":false,"duration":138.0,"steps":[{"distance":124.463,"relativeDirection":"DEPART","streetName":"Rue Des Oblats Est","absoluteDirection":"SOUTHEAST","stayOn":false,"area":false,"bogusName":false,"lon":-71.0688188011251,"lat":48.41406360813132,"elevation":[]},{"distance":52.222,"relativeDirection":"RIGHT","streetName":"Rue Bégin","absoluteDirection":"SOUTH","stayOn":false,"area":false,"bogusName":false,"lon":-71.06744280000001,"lat":48.413416500000004,"elevation":[]}]},{"startTime":1522686387000,"endTime":1522687080000,"departureDelay":0,"arrivalDelay":0,"realTime":false,"distance":3444.734109095533,"pathway":false,"mode":"BUS","route":"15","agencyName":"Société de Transport du Saguenay","agencyUrl":"http://ville.saguenay.ca/fr/services-aux-citoyens/transport-sts","agencyTimeZoneOffset":-14400000,"routeColor":"FF00FF","routeType":3,"routeId":"1:15","routeTextColor":"FFFFFF","interlineWithPreviousLeg":false,"tripBlockId":"30","headsign":"Terminus Chicoutimi","agencyId":"0","tripId":"1:218098","serviceDate":"20180402","from":{"name":"École secondaire de l'Odyssé Dominique-Racine","stopId":"1:580","stopCode":"580","lon":-71.067703,"lat":48.412977,"arrival":1522686386000,"departure":1522686387000,"zoneId":"NA","stopIndex":24,"stopSequence":25,"vertexType":"TRANSIT"},"to":{"name":"Terminus Chicoutimi","stopId":"1:1289","stopCode":"1289","lon":-71.066163,"lat":48.428677,"arrival":1522687080000,"departure":1522687500000,"zoneId":"NA","stopIndex":39,"stopSequence":40,"vertexType":"TRANSIT"},"legGeometry":{"points":"ktnfH~lwpLsAkAoBwB_EcE{A_BoAmAk@o@cCaCkIkIaJaJUUwBaCj@wCjAsCzGoG_CoHL{D_@kAqD{CQr@iAcAy@w@L{@wAuA_B_B_EpLDh@NbBVvCIxBg@`Am@l@Sb@a@rAqDqDmEkE]a@kAqAU|@WnKG|DGxDOdPKvJU|F?XQlJC~@ChAIzEcCOaIi@VwL","length":53},"routeShortName":"15","routeLongName":"Term. Chic / Costco","rentedBike":false,"transitLeg":true,"duration":693.0,"steps":[]},{"startTime":1522687500000,"endTime":1522687934000,"departureDelay":0,"arrivalDelay":0,"realTime":false,"distance":3069.8616776932686,"pathway":false,"mode":"BUS","route":"26","agencyName":"Société de Transport du Saguenay","agencyUrl":"http://ville.saguenay.ca/fr/services-aux-citoyens/transport-sts","agencyTimeZoneOffset":-14400000,"routeColor":"00FFFF","routeType":3,"routeId":"1:26","routeTextColor":"000000","interlineWithPreviousLeg":false,"headsign":"Terminus Chicoutimi","agencyId":"0","tripId":"1:218590","serviceDate":"20180402","from":{"name":"Terminus Chicoutimi","stopId":"1:1289","stopCode":"1289","lon":-71.066163,"lat":48.428677,"arrival":1522687080000,"departure":1522687500000,"zoneId":"NA","stopIndex":0,"stopSequence":1,"vertexType":"TRANSIT"},"to":{"name":"Fix Auto (boul. Tadoussac)","stopId":"1:817","stopCode":"817","lon":-71.040572,"lat":48.444203,"arrival":1522687934000,"departure":1522687935000,"zoneId":"NA","stopIndex":6,"stopSequence":7,"vertexType":"TRANSIT"},"legGeometry":{"points":"avqfH``wpLc@E@o@kAOYCm@rRO\\WjGOfGCRK^KJMHQB_AMg@Gm\\wO]i@wAyA_@WUKMEwEm@Js@Da@??@@??@?@???@???@?@??A@???@A@??A@??A@A??@A?A??@A?A?A?A@A?A???A?A?A???A?A?A?A???A?AAA?A???AAA?A??AA?AA??AA??A??AA??A??AA?A???A????q@C{AAaB?mAEcAGs@OoAa@sB[kAYcASq@Ok@Qq@Ku@MoBiC}@yBu@AAyBu@o@Qs@[YSSUY]Ye@]{@Me@Kg@K{@CQm@_IEs@Cq@Aw@Do@LyAJ_ADYBUf@wDRaBHqABQA}@IwAUoAcAkCWo@qDgJg@cBk@uBi@sC]aCWwCs@}Mq@_NQoD","length":146},"routeShortName":"26","routeLongName":"St-Fulgence","rentedBike":false,"transitLeg":true,"duration":434.0,"steps":[]},{"startTime":1522687935000,"endTime":1522688467000,"departureDelay":0,"arrivalDelay":0,"realTime":false,"distance":688.389,"pathway":false,"mode":"WALK","route":"","agencyTimeZoneOffset":-14400000,"interlineWithPreviousLeg":false,"from":{"name":"Fix Auto (boul. Tadoussac)","stopId":"1:817","stopCode":"817","lon":-71.040572,"lat":48.444203,"arrival":1522687934000,"departure":1522687935000,"zoneId":"NA","stopIndex":6,"stopSequence":7,"vertexType":"TRANSIT"},"to":{"name":"Destination","lon":-71.044607,"lat":48.440749,"arrival":1522688467000,"orig":"","vertexType":"NORMAL"},"legGeometry":{"points":"uwtfHtbrpLPlDvDe@x@Kf@GZ?b@?^DXFZLZL`@J\\Hv@TvD`BCRCXA\\UlBK`ACx@AnA@vA@T","length":24},"rentedBike":false,"transitLeg":false,"duration":532.0,"steps":[{"distance":64.369,"relativeDirection":"DEPART","streetName":"Boulevard de Tadoussac","absoluteDirection":"WEST","stayOn":false,"area":false,"bogusName":false,"lon":-71.04058906896485,"lat":48.44427587567354,"elevation":[]},{"distance":436.639,"relativeDirection":"LEFT","streetName":"Rue Olier","absoluteDirection":"SOUTH","stayOn":false,"area":false,"bogusName":false,"lon":-71.0414514,"lat":48.44418700000001,"elevation":[]},{"distance":187.381,"relativeDirection":"RIGHT","streetName":"Rue de Belleville","absoluteDirection":"WEST","stayOn":false,"area":false,"bogusName":false,"lon":-71.04208770000001,"lat":48.4403664,"elevation":[]}]}],"tooSloped":false},{"duration":2622,"startTime":1522686139000,"endTime":1522688761000,"walkTime":1608,"transitTime":1012,"waitingTime":2,"walkDistance":2068.733894730135,"walkLimitExceeded":false,"elevationLost":0.0,"elevationGained":0.0,"transfers":0,"legs":[{"startTime":1522686139000,"endTime":1522687499000,"departureDelay":0,"arrivalDelay":0,"realTime":false,"distance":1759.5330000000004,"pathway":false,"mode":"WALK","route":"","agencyTimeZoneOffset":-14400000,"interlineWithPreviousLeg":false,"from":{"name":"Origin","lon":-71.06882799,"lat":48.414055,"departure":1522686139000,"orig":"","vertexType":"NORMAL"},"to":{"name":"Terminus Chicoutimi","stopId":"1:1289","stopCode":"1289","lon":-71.066163,"lat":48.428677,"arrival":1522687499000,"departure":1522687500000,"zoneId":"NA","stopIndex":0,"stopSequence":1,"vertexType":"TRANSIT"},"legGeometry":{"points":"{znfHbswpLOb@c@jAeEUaAEaBE}CKsBIO?c@CW?o@L_@J]DGBy@VYJ{@@e@BiBO]DSCgCQkBOMAQASAs@Eu@EyAGe@C{BOm@Ec@o@MMi@oAaBuDg@eAo@qBk@g@Ao@QG_@C{BUsAGkCQQAsBIc@MKESAcAK","length":52},"rentedBike":false,"transitLeg":false,"duration":1360.0,"steps":[{"distance":50.439,"relativeDirection":"DEPART","streetName":"Rue Des Oblats Est","absoluteDirection":"NORTHWEST","stayOn":false,"area":false,"bogusName":false,"lon":-71.0688188011251,"lat":48.41406360813132,"elevation":[]},{"distance":496.916,"relativeDirection":"RIGHT","streetName":"Rue Jolliet","absoluteDirection":"NORTH","stayOn":false,"area":false,"bogusName":false,"lon":-71.0693767,"lat":48.414325600000005,"elevation":[]},{"distance":547.586,"relativeDirection":"CONTINUE","streetName":"Rue Sainte-Anne","absoluteDirection":"NORTH","stayOn":false,"area":false,"bogusName":false,"lon":-71.0693796,"lat":48.418765,"elevation":[]},{"distance":272.594,"relativeDirection":"SLIGHTLY_RIGHT","streetName":"path","absoluteDirection":"NORTHEAST","stayOn":false,"area":false,"bogusName":true,"lon":-71.06896330000001,"lat":48.423667200000004,"elevation":[]},{"distance":17.515,"relativeDirection":"RIGHT","streetName":"Rue Price Est","absoluteDirection":"EAST","stayOn":false,"area":false,"bogusName":false,"lon":-71.0662212,"lat":48.425276600000004,"elevation":[]},{"distance":374.483,"relativeDirection":"LEFT","streetName":"Rue Morin","absoluteDirection":"NORTH","stayOn":false,"area":false,"bogusName":false,"lon":-71.06598410000001,"lat":48.4252842,"elevation":[]}]},{"startTime":1522687500000,"endTime":1522688512000,"departureDelay":0,"arrivalDelay":0,"realTime":false,"distance":6609.749982746157,"pathway":false,"mode":"BUS","route":"24","agencyName":"Société de Transport du Saguenay","agencyUrl":"http://ville.saguenay.ca/fr/services-aux-citoyens/transport-sts","agencyTimeZoneOffset":-14400000,"routeColor":"00FF00","routeType":3,"routeId":"1:24","routeTextColor":"000000","interlineWithPreviousLeg":false,"tripBlockId":"4","headsign":"Terminus Chicoutimi","agencyId":"0","tripId":"1:217235","serviceDate":"20180402","from":{"name":"Terminus Chicoutimi","stopId":"1:1289","stopCode":"1289","lon":-71.066163,"lat":48.428677,"arrival":1522687499000,"departure":1522687500000,"zoneId":"NA","stopIndex":0,"stopSequence":1,"vertexType":"TRANSIT"},"to":{"name":"St-Émile / Jogues","stopId":"1:827","stopCode":"827","lon":-71.04715,"lat":48.441462,"arrival":1522688512000,"departure":1522688513000,"zoneId":"NA","stopIndex":25,"stopSequence":26,"vertexType":"TRANSIT"},"legGeometry":{"points":"evqfHzcwpLg@?EhBO~GoBKCp@O\\WjGOfGCRK^KJMHQB_AMg@Gm\\wO]i@wAyA_@WUKMEwEm@Js@Da@??@@??@?@???@???@?@??A@???@A@??A@??A@A??@A?A??@A?A?A?A@A?A???A?A?A???A?A?A?A???A?AAA?A???AAA?A??AA?AA??AA??A??AA??A??AA?A???A????q@C{AAaB?mAEcAGs@OoAa@sB[kAYcASq@Ok@Qq@Ku@MoBKmAa@eHi@FKC_@I??iE}Ah@}DH}@?c@Ea@[_BA?My@Cm@?Y@g@Hu@b@sD\\_DBSyHsC_@MBQA}@IwAUoAcAkCWo@qDgJg@cBk@uBi@sC]aCWwCiKuDwQuGDWbAoGV{AxG~BPFhCdAn@Lx@BxA]QeDI}AzAW~ASQoDg@eKG{A?_@?m@?i@LeCJkAd@yGxAqSBs@p@^VRPRbF~FlCxBxB|B~JjK`IjIRPb@^r@d@rAp@\\T\\ZNVRd@J\\Nd@Hf@F`@@DFr@LtAJpB@jAAt@ObEIzAKbBUrBMp@Sn@gAlCk@pAw@fCwB|HCNk@jCeDuAq@UC?mG_CaHiC","length":208},"routeShortName":"24","routeLongName":"Saint-Luc","rentedBike":false,"transitLeg":true,"duration":1012.0,"steps":[]},{"startTime":1522688513000,"endTime":1522688761000,"departureDelay":0,"arrivalDelay":0,"realTime":false,"distance":308.99300000000005,"pathway":false,"mode":"WALK","route":"","agencyTimeZoneOffset":-14400000,"interlineWithPreviousLeg":false,"from":{"name":"St-Émile / Jogues","stopId":"1:827","stopCode":"827","lon":-71.04715,"lat":48.441462,"arrival":1522688512000,"departure":1522688513000,"zoneId":"NA","stopIndex":25,"stopSequence":26,"vertexType":"TRANSIT"},"to":{"name":"Destination","lon":-71.044607,"lat":48.440749,"arrival":1522688761000,"orig":"","vertexType":"NORMAL"},"legGeometry":{"points":"gftfHnlspLICICn@eEzB|@VgCFeBAyACaA","length":9},"rentedBike":false,"transitLeg":false,"duration":248.0,"steps":[{"distance":10.940999999999999,"relativeDirection":"DEPART","streetName":"Rue Saint-Émile","absoluteDirection":"NORTH","stayOn":false,"area":false,"bogusName":false,"lon":-71.04727444723207,"lat":48.44148657796171,"elevation":[]},{"distance":76.918,"relativeDirection":"RIGHT","streetName":"Rue Jogues","absoluteDirection":"EAST","stayOn":false,"area":false,"bogusName":false,"lon":-71.04723220000001,"lat":48.441580900000005,"elevation":[]},{"distance":73.277,"relativeDirection":"RIGHT","streetName":"Rue Louvois","absoluteDirection":"SOUTH","stayOn":false,"area":false,"bogusName":false,"lon":-71.04625,"lat":48.441348600000005,"elevation":[]},{"distance":147.857,"relativeDirection":"LEFT","streetName":"Rue de Belleville","absoluteDirection":"EAST","stayOn":false,"area":false,"bogusName":false,"lon":-71.0465581,"lat":48.4407221,"elevation":[]}]}],"tooSloped":false}]},"debugOutput":{"precalculationTime":35,"pathCalculationTime":80,"pathTimes":[32,26,22],"renderingTime":0,"totalTime":115,"timedOut":false},"elevationMetadata":{"ellipsoidToGeoidDifference":-28.885904201182168,"geoidElevation":false}}