{"requestParameters":{"date":"2018/04/02","walkSpeed":"1.33","walkReluctance":"2.0","fromPlace":"48.461121,-71.02449699","maxWalkDistance":"3000","waitReluctance":"1.0","carSpeed":"33","numItineraries":"3","waitAtBeginningFactor":"0.4","mode":"TRANSIT,WALK","ignoreRealtimeUpdates":"false","stairsReluctance":"2.0","toPlace":"48.449229,-71.048605","time":"9:20:00"},"plan":{"date":1522675200000,"from":{"name":"Origin","lon":-71.02449699,"lat":48.461121,"orig":"","vertexType":"NORMAL"},"to":{"name":"Destination","lon":-71.048605,"lat":48.449229,"orig":"","vertexType":"NORMAL"},"itineraries":[{"duration":2526,"startTime":1522675290000,"endTime":1522677816000,"walkTime":2500,"transitTime":24,"waitingTime":2,"walkDistance":3275.219255632571,"walkLimitExceeded":false,"elevationLost":0.0,"elevationGained":0.0,"transfers":0,"legs":[{"startTime":1522675290000,"endTime":1522677243000,"departureDelay":0,"arrivalDelay":0,"realTime":false,"distance":2565.4219999999996,"pathway":false,"mode":"WALK","route":"","agencyTimeZoneOffset":-14400000,"interlineWithPreviousLeg":false,"from":{"name":"Origin","lon":-71.02449699,"lat":48.461121,"departure":1522675290000,"orig":"","vertexType":"NORMAL"},"to":{"name":"Adam / Thibeault","stopId":"1:814","stopCode":"814","lon":-71.042521,"lat":48.448191,"arrival":1522677243000,"departure":1522677244000,"zoneId":"NA","stopIndex":10,"stopSequence":11,"vertexType":"TRANSIT"},"legGeometry":{"points":"_axfHb~npLf@LbATND\\J|EzAtA^THNFFDHDLNHJHLPd@DVBNBP@VDj@Jv@NlAPz@BL@N@d@ALCXAVCTIj@Ej@QtAMxAGr@MxAI~@KlAQ|AUdCEh@Id@Kz@CPKt@E\\CRAP?L@H@b@@F?@BLJNLL^Pb@PVFv@VbATB@hAb@rA`@jAZfA^tC|@VHTFNBHBH@R@H?\\BR@T?J@JBHBFBRNNJVVHFDDD@r@Rp@VfBf@pBr@dEnAvHrBH@jC`AnCz@\\JB?O`AAFvBjAk@tEGNQp@}@bGW`B","length":106},"alerts":[{"alertHeaderText":"Unpaved surface"}],"rentedBike":false,"transitLeg":false,"duration":1953.0,"steps":[{"distance":956.703,"relativeDirection":"DEPART","streetName":"Chemin Raymond","absoluteDirection":"SOUTH","stayOn":false,"area":false,"bogusName":false,"lon":-71.02449853861047,"lat":48.46112122831833,"elevation":[],"alerts":[{"alertHeaderText":"Unpaved surface"}]},{"distance":1254.893,"relativeDirection":"SLIGHTLY_LEFT","streetName":"Chemin Raymond","absoluteDirection":"SOUTHWEST","stayOn":true,"area":false,"bogusName":false,"lon":-71.0340072,"lat":48.4588416,"elevation":[],"alerts":[{"alertHeaderText":"Unpaved surface"}]},{"distance":28.982,"relativeDirection":"RIGHT","streetName":"Rue de Vimy","absoluteDirection":"WEST","stayOn":false,"area":false,"bogusName":false,"lon":-71.03852780000001,"lat":48.448007800000006,"elevation":[]},{"distance":155.755,"relativeDirection":"LEFT","streetName":"path","absoluteDirection":"SOUTH","stayOn":false,"area":false,"bogusName":true,"lon":-71.0388973,"lat":48.448096500000005,"elevation":[]},{"distance":169.089,"relativeDirection":"CONTINUE","streetName":"Rue Adam","absoluteDirection":"NORTHWEST","stayOn":false,"area":false,"bogusName":false,"lon":-71.04034370000001,"lat":48.447717700000005,"elevation":[]}]},{"startTime":1522677244000,"endTime":1522677268000,"departureDelay":0,"arrivalDelay":0,"realTime":false,"distance":160.4256282113781,"pathway":false,"mode":"BUS","route":"24","agencyName":"Société de Transport du Saguenay","agencyUrl":"http://ville.saguenay.ca/fr/services-aux-citoyens/transport-sts","agencyTimeZoneOffset":-14400000,"routeColor":"00FF00","routeType":3,"routeId":"1:24","routeTextColor":"000000","interlineWithPreviousLeg":false,"tripBlockId":"4","headsign":"Terminus Chicoutimi","agencyId":"0","tripId":"1:217229","serviceDate":"20180402","from":{"name":"Adam / Thibeault","stopId":"1:814","stopCode":"814","lon":-71.042521,"lat":48.448191,"arrival":1522677243000,"departure":1522677244000,"zoneId":"NA","stopIndex":10,"stopSequence":11,"vertexType":"TRANSIT"},"to":{"name":"Thibeault / Diamant","stopId":"1:815","stopCode":"815","lon":-71.042731,"lat":48.446755,"arrival":1522677268000,"departure":1522677269000,"zoneId":"NA","stopIndex":11,"stopSequence":12,"vertexType":"TRANSIT"},"legGeometry":{"points":"upufHnnrpLV{AxG~B","length":3},"routeShortName":"24","routeLongName":"Saint-Luc","rentedBike":false,"transitLeg":true,"duration":24.0,"steps":[]},{"startTime":1522677269000,"endTime":1522677816000,"departureDelay":0,"arrivalDelay":0,"realTime":false,"distance":709.595,"pathway":false,"mode":"WALK","route":"","agencyTimeZoneOffset":-14400000,"interlineWithPreviousLeg":false,"from":{"name":"Thibeault / Diamant","stopId":"1:815","stopCode":"815","lon":-71.042731,"lat":48.446755,"arrival":1522677268000,"departure":1522677269000,"zoneId":"NA","stopIndex":11,"stopSequence":12,"vertexType":"TRANSIT"},"to":{"name":"Destination","lon":-71.048605,"lat":48.449229,"arrival":1522677816000,"orig":"","vertexType":"NORMAL"},"legGeometry":{"points":"agufHrorpLe@SuFsBW`BcAdGG^I`@gBpKU~AYfBm@~DfBbA","length":12},"rentedBike":false,"transitLeg":false,"duration":547.0,"steps":[{"distance":165.077,"relativeDirection":"DEPART","streetName":"Rue Thibeault","absoluteDirection":"NORTH","stayOn":false,"area":false,"bogusName":false,"lon":-71.04265067831268,"lat":48.446737444504414,"elevation":[]},{"distance":481.341,"relativeDirection":"LEFT","streetName":"Rue Adam","absoluteDirection":"WEST","stayOn":false,"area":false,"bogusName":false,"lon":-71.0419758,"lat":48.448152900000004,"elevation":[]},{"distance":63.177,"relativeDirection":"LEFT","streetName":"Rue Pierre-De La Vérendrye","absoluteDirection":"SOUTHWEST","stayOn":false,"area":false,"bogusName":false,"lon":-71.0480732,"lat":48.449695600000005,"elevation":[]}]}],"tooSloped":false},{"duration":2444,"startTime":1522676989000,"endTime":1522679433000,"walkTime":2427,"transitTime":15,"waitingTime":2,"walkDistance":3196.064691725235,"walkLimitExceeded":false,"elevationLost":0.0,"elevationGained":0.0,"transfers":0,"legs":[{"startTime":1522676989000,"endTime":1522679028000,"departureDelay":0,"arrivalDelay":0,"realTime":false,"distance":2690.4399999999996,"pathway":false,"mode":"WALK","route":"","agencyTimeZoneOffset":-14400000,"interlineWithPreviousLeg":false,"from":{"name":"Origin","lon":-71.02449699,"lat":48.461121,"departure":1522676989000,"orig":"","vertexType":"NORMAL"},"to":{"name":"St-Émile / Adam","stopId":"1:813","stopCode":"813","lon":-71.043871,"lat":48.448542,"arrival":1522679028000,"departure":1522679029000,"zoneId":"NA","stopIndex":9,"stopSequence":10,"vertexType":"TRANSIT"},"legGeometry":{"points":"_axfHb~npLf@LbATND\\J|EzAtA^THNFFDHDLNHJHLPd@DVBNBP@VDj@Jv@NlAPz@BL@N@d@ALCXAVCTIj@Ej@QtAMxAGr@MxAI~@KlAQ|AUdCEh@Id@Kz@CPKt@E\\CRAP?L@H@b@@F?@BLJNLL^Pb@PVFv@VbATB@hAb@rA`@jAZfA^tC|@VHTFNBHBH@R@H?\\BR@T?J@JBHBFBRNNJVVHFDDD@r@Rp@VfBf@pBr@dEnAvHrBH@jC`AnCz@\\JB?O`AAFW`B_@pBm@nDSnAQbBU~BYzBa@lClBl@PF","length":110},"alerts":[{"alertHeaderText":"Unpaved surface"}],"rentedBike":false,"transitLeg":false,"duration":2039.0,"steps":[{"distance":956.703,"relativeDirection":"DEPART","streetName":"Chemin Raymond","absoluteDirection":"SOUTH","stayOn":false,"area":false,"bogusName":false,"lon":-71.02449853861047,"lat":48.46112122831833,"elevation":[],"alerts":[{"alertHeaderText":"Unpaved surface"}]},{"distance":1254.893,"relativeDirection":"SLIGHTLY_LEFT","streetName":"Chemin Raymond","absoluteDirection":"SOUTHWEST","stayOn":true,"area":false,"bogusName":false,"lon":-71.0340072,"lat":48.4588416,"elevation":[],"alerts":[{"alertHeaderText":"Unpaved surface"}]},{"distance":404.778,"relativeDirection":"RIGHT","streetName":"Rue de Vimy","absoluteDirection":"WEST","stayOn":false,"area":false,"bogusName":false,"lon":-71.03852780000001,"lat":48.448007800000006,"elevation":[]},{"distance":74.066,"relativeDirection":"LEFT","streetName":"Rue Saint-Émile","absoluteDirection":"SOUTH","stayOn":false,"area":false,"bogusName":false,"lon":-71.0437059,"lat":48.449203100000005,"elevation":[]}]},{"startTime":1522679029000,"endTime":1522679044000,"departureDelay":0,"arrivalDelay":0,"realTime":false,"distance":106.94563601925294,"pathway":false,"mode":"BUS","route":"24","agencyName":"Société de Transport du Saguenay","agencyUrl":"http://ville.saguenay.ca/fr/services-aux-citoyens/transport-sts","agencyTimeZoneOffset":-14400000,"routeColor":"00FF00","routeType":3,"routeId":"1:24","routeTextColor":"000000","interlineWithPreviousLeg":false,"tripBlockId":"5","headsign":"Terminus Chicoutimi","agencyId":"0","tripId":"1:217257","serviceDate":"20180402","from":{"name":"St-Émile / Adam","stopId":"1:813","stopCode":"813","lon":-71.043871,"lat":48.448542,"arrival":1522679028000,"departure":1522679029000,"zoneId":"NA","stopIndex":9,"stopSequence":10,"vertexType":"TRANSIT"},"to":{"name":"Adam / Thibeault","stopId":"1:814","stopCode":"814","lon":-71.042521,"lat":48.448191,"arrival":1522679044000,"departure":1522679045000,"zoneId":"NA","stopIndex":10,"stopSequence":11,"vertexType":"TRANSIT"},"legGeometry":{"points":"yrufH~vrpLbAoG","length":2},"routeShortName":"24","routeLongName":"Saint-Luc","rentedBike":false,"transitLeg":true,"duration":15.0,"steps":[]},{"startTime":1522679045000,"endTime":1522679433000,"departureDelay":0,"arrivalDelay":0,"realTime":false,"distance":505.49800000000005,"pathway":false,"mode":"WALK","route":"","agencyTimeZoneOffset":-14400000,"interlineWithPreviousLeg":false,"from":{"name":"Adam / Thibeault","stopId":"1:814","stopCode":"814","lon":-71.042521,"lat":48.448191,"arrival":1522679044000,"departure":1522679045000,"zoneId":"NA","stopIndex":10,"stopSequence":11,"vertexType":"TRANSIT"},"to":{"name":"Destination","lon":-71.048605,"lat":48.449229,"arrival":1522679433000,"orig":"","vertexType":"NORMAL"},"legGeometry":{"points":"upufHlnrpLcAdGG^I`@gBpKU~AYfBm@~DfBbA","length":9},"rentedBike":false,"transitLeg":false,"duration":388.0,"steps":[{"distance":442.321,"relativeDirection":"DEPART","streetName":"Rue Adam","absoluteDirection":"WEST","stayOn":false,"area":false,"bogusName":false,"lon":-71.04246901244274,"lat":48.448279857146716,"elevation":[]},{"distance":63.177,"relativeDirection":"LEFT","streetName":"Rue Pierre-De La Vérendrye","absoluteDirection":"SOUTHWEST","stayOn":false,"area":false,"bogusName":false,"lon":-71.0480732,"lat":48.449695600000005,"elevation":[]}]}],"tooSloped":false},{"duration":2444,"startTime":1522678789000,"endTime":1522681233000,"walkTime":2427,"transitTime":15,"waitingTime":2,"walkDistance":3196.064691725235,"walkLimitExceeded":false,"elevationLost":0.0,"elevationGained":0.0,"transfers":0,"legs":[{"startTime":1522678789000,"endTime":1522680828000,"departureDelay":0,"arrivalDelay":0,"realTime":false,"distance":2690.4399999999996,"pathway":false,"mode":"WALK","route":"","agencyTimeZoneOffset":-14400000,"interlineWithPreviousLeg":false,"from":{"name":"Origin","lon":-71.02449699,"lat":48.461121,"departure":1522678789000,"orig":"","vertexType":"NORMAL"},"to":{"name":"St-Émile / Adam","stopId":"1:813","stopCode":"813","lon":-71.043871,"lat":48.448542,"arrival":1522680828000,"departure":1522680829000,"zoneId":"NA","stopIndex":9,"stopSequence":10,"vertexType":"TRANSIT"},"legGeometry":{"points":"_axfHb~npLf@LbATND\\J|EzAtA^THNFFDHDLNHJHLPd@DVBNBP@VDj@Jv@NlAPz@BL@N@d@ALCXAVCTIj@Ej@QtAMxAGr@MxAI~@KlAQ|AUdCEh@Id@Kz@CPKt@E\\CRAP?L@H@b@@F?@BLJNLL^Pb@PVFv@VbATB@hAb@rA`@jAZfA^tC|@VHTFNBHBH@R@H?\\BR@T?J@JBHBFBRNNJVVHFDDD@r@Rp@VfBf@pBr@dEnAvHrBH@jC`AnCz@\\JB?O`AAFW`B_@pBm@nDSnAQbBU~BYzBa@lClBl@PF","length":110},"alerts":[{"alertHeaderText":"Unpaved surface"}],"rentedBike":false,"transitLeg":false,"duration":2039.0,"steps":[{"distance":956.703,"relativeDirection":"DEPART","streetName":"Chemin Raymond","absoluteDirection":"SOUTH","stayOn":false,"area":false,"bogusName":false,"lon":-71.02449853861047,"lat":48.46112122831833,"elevation":[],"alerts":[{"alertHeaderText":"Unpaved surface"}]},{"distance":1254.893,"relativeDirection":"SLIGHTLY_LEFT","streetName":"Chemin Raymond","absoluteDirection":"SOUTHWEST","stayOn":true,"area":false,"bogusName":false,"lon":-71.0340072,"lat":48.4588416,"elevation":[],"alerts":[{"alertHeaderText":"Unpaved surface"}]},{"distance":404.778,"relativeDirection":"RIGHT","streetName":"Rue de Vimy","absoluteDirection":"WEST","stayOn":false,"area":false,"bogusName":false,"lon":-71.03852780000001,"lat":48.448007800000006,"elevation":[]},{"distance":74.066,"relativeDirection":"LEFT","streetName":"Rue Saint-Émile","absoluteDirection":"SOUTH","stayOn":false,"area":false,"bogusName":false,"lon":-71.0437059,"lat":48.449203100000005,"elevation":[]}]},{"startTime":1522680829000,"endTime":1522680844000,"departureDelay":0,"arrivalDelay":0,"realTime":false,"distance":106.94563601925294,"pathway":false,"mode":"BUS","route":"24","agencyName":"Société de Transport du Saguenay","agencyUrl":"http://ville.saguenay.ca/fr/services-aux-citoyens/transport-sts","agencyTimeZoneOffset":-14400000,"routeColor":"00FF00","routeType":3,"routeId":"1:24","routeTextColor":"000000","interlineWithPreviousLeg":false,"tripBlockId":"4","headsign":"Terminus Chicoutimi","agencyId":"0","tripId":"1:217231","serviceDate":"20180402","from":{"name":"St-Émile / Adam","stopId":"1:813","stopCode":"813","lon":-71.043871,"lat":48.448542,"arrival":1522680828000,"departure":1522680829000,"zoneId":"NA","stopIndex":9,"stopSequence":10,"vertexType":"TRANSIT"},"to":{"name":"Adam / Thibeault","stopId":"1:814","stopCode":"814","lon":-71.042521,"lat":48.448191,"arrival":1522680844000,"departure":1522680845000,"zoneId":"NA","stopIndex":10,"stopSequence":11,"vertexType":"TRANSIT"},"legGeometry":{"points":"yrufH~vrpLbAoG","length":2},"routeShortName":"24","routeLongName":"Saint-Luc","rentedBike":false,"transitLeg":true,"duration":15.0,"steps":[]},{"startTime":1522680845000,"endTime":1522681233000,"departureDelay":0,"arrivalDelay":0,"realTime":false,"distance":505.49800000000005,"pathway":false,"mode":"WALK","route":"","agencyTimeZoneOffset":-14400000,"interlineWithPreviousLeg":false,"from":{"name":"Adam / Thibeault","stopId":"1:814","stopCode":"814","lon":-71.042521,"lat":48.448191,"arrival":1522680844000,"departure":1522680845000,"zoneId":"NA","stopIndex":10,"stopSequence":11,"vertexType":"TRANSIT"},"to":{"name":"Destination","lon":-71.048605,"lat":48.449229,"arrival":1522681233000,"orig":"","vertexType":"NORMAL"},"legGeometry":{"points":"upufHlnrpLcAdGG^I`@gBpKU~AYfBm@~DfBbA","length":9},"rentedBike":false,"transitLeg":false,"duration":388.0,"steps":[{"distance":442.321,"relativeDirection":"DEPART","streetName":"Rue Adam","absoluteDirection":"WEST","stayOn":false,"area":false,"bogusName":false,"lon":-71.04246901244274,"lat":48.448279857146716,"elevation":[]},{"distance":63.177,"relativeDirection":"LEFT","streetName":"Rue Pierre-De La Vérendrye","absoluteDirection":"SOUTHWEST","stayOn":false,"area":false,"bogusName":false,"lon":-71.0480732,"lat":48.449695600000005,"elevation":[]}]}],"tooSloped":false}]},"debugOutput":{"precalculationTime":5,"pathCalculationTime":8,"pathTimes":[3,3,2],"renderingTime":0,"totalTime":13,"timedOut":false},"elevationMetadata":{"ellipsoidToGeoidDifference":-28.885904201182168,"geoidElevation":false}}