{"requestParameters":{"date":"2018/04/02","walkSpeed":"1.33","walkReluctance":"2.0","fromPlace":"48.440608,-71.040131","maxWalkDistance":"3000","waitReluctance":"1.0","carSpeed":"33","numItineraries":"3","waitAtBeginningFactor":"0.4","mode":"TRANSIT,WALK","ignoreRealtimeUpdates":"false","stairsReluctance":"2.0","toPlace":"48.427572,-71.059494","time":"10:30:00"},"plan":{"date":1522679400000,"from":{"name":"Origin","lon":-71.040131,"lat":48.440608,"orig":"","vertexType":"NORMAL"},"to":{"name":"Destination","lon":-71.059494,"lat":48.427572,"orig":"","vertexType":"NORMAL"},"itineraries":[{"duration":1987,"startTime":1522679926000,"endTime":1522681913000,"walkTime":1552,"transitTime":433,"waitingTime":2,"walkDistance":2003.5260375870462,"walkLimitExceeded":false,"elevationLost":0.0,"elevationGained":0.0,"transfers":0,"legs":[{"startTime":1522679926000,"endTime":1522681066000,"departureDelay":0,"arrivalDelay":0,"realTime":false,"distance":1471.9050000000002,"pathway":false,"mode":"WALK","route":"","agencyTimeZoneOffset":-14400000,"interlineWithPreviousLeg":false,"from":{"name":"Origin","lon":-71.040131,"lat":48.440608,"departure":1522679926000,"orig":"","vertexType":"NORMAL"},"to":{"name":"Verdun / Mgr Laval","stopId":"1:795","stopCode":"795","lon":-71.052912,"lat":48.444125,"arrival":1522681066000,"departure":1522681067000,"zoneId":"NA","stopIndex":17,"stopSequence":18,"vertexType":"TRANSIT"},"legGeometry":{"points":"k`tfHj~qpL_@Qm@Y_@dEE`@Ed@YpBw@U]Ia@K[M[MYG_@Ec@?[?g@Fy@JwDd@ZhGJhBFlAFzAZbF@TBd@HdCHv@Fb@NnA@HVbBZdB@Db@dB\\pATr@FP}@v@QPKNIXId@WhCs@~GQrB_A_@","length":47},"rentedBike":false,"transitLeg":false,"duration":1140.0,"steps":[{"distance":45.51,"relativeDirection":"DEPART","streetName":"Rue Roxanna","absoluteDirection":"NORTH","stayOn":false,"area":false,"bogusName":false,"lon":-71.03989788997563,"lat":48.44054856571086,"elevation":[]},{"distance":146.704,"relativeDirection":"LEFT","streetName":"Rue Diana","absoluteDirection":"WEST","stayOn":false,"area":false,"bogusName":false,"lon":-71.0396777,"lat":48.440930900000005,"elevation":[]},{"distance":328.291,"relativeDirection":"RIGHT","streetName":"Rue Olier","absoluteDirection":"NORTH","stayOn":false,"area":false,"bogusName":false,"lon":-71.04159270000001,"lat":48.4412838,"elevation":[]},{"distance":620.202,"relativeDirection":"LEFT","streetName":"Boulevard de Tadoussac","absoluteDirection":"WEST","stayOn":false,"area":false,"bogusName":false,"lon":-71.0414514,"lat":48.44418700000001,"elevation":[]},{"distance":293.978,"relativeDirection":"RIGHT","streetName":"Rue Monseigneur-Laval","absoluteDirection":"NORTHWEST","stayOn":false,"area":false,"bogusName":false,"lon":-71.0494919,"lat":48.442756900000006,"elevation":[]},{"distance":37.22,"relativeDirection":"RIGHT","streetName":"Rue de Verdun","absoluteDirection":"NORTH","stayOn":false,"area":false,"bogusName":false,"lon":-71.05297780000001,"lat":48.4437865,"elevation":[]}]},{"startTime":1522681067000,"endTime":1522681500000,"departureDelay":0,"arrivalDelay":0,"realTime":false,"distance":2824.97357990408,"pathway":false,"mode":"BUS","route":"23","agencyName":"Société de Transport du Saguenay","agencyUrl":"http://ville.saguenay.ca/fr/services-aux-citoyens/transport-sts","agencyTimeZoneOffset":-14400000,"routeColor":"FF00FF","routeType":3,"routeId":"1:23","routeTextColor":"FFFFFF","interlineWithPreviousLeg":false,"tripBlockId":"5","headsign":"Terminus Chicoutimi","agencyId":"0","tripId":"1:217258","serviceDate":"20180402","from":{"name":"Verdun / Mgr Laval","stopId":"1:795","stopCode":"795","lon":-71.052912,"lat":48.444125,"arrival":1522681066000,"departure":1522681067000,"zoneId":"NA","stopIndex":17,"stopSequence":18,"vertexType":"TRANSIT"},"to":{"name":"Terminus Chicoutimi","stopId":"1:1289","stopCode":"1289","lon":-71.066163,"lat":48.428677,"arrival":1522681500000,"departure":1522681501000,"zoneId":"NA","stopIndex":26,"stopSequence":27,"vertexType":"TRANSIT"},"legGeometry":{"points":"svtfHfotpLz@\\CP?R@N@NFLFF`GtBx@Xw@pG@l@B\\DXL\\RZDFXPf@N@v@Bp@Dr@l@~HNlAH\\@HLd@\\z@Xd@X\\RTXRr@Zn@PfExAvDpALnBJt@Pp@|@`DHZPn@`@rBNnAFr@DbA?bB@jABzA?p@A???A???A?A???A@??A?A@??A@?@A??@A@???@A@?@?@A@?@?@?@?@???@?@?@?@?@?@@@?@?@@@?@@@?@@@?@@?@@??@@@?E`@Kr@]rACVEl@I|AAr@JbAWJe@FUAM?a@Ke@YYWWa@v@}@RQPMz@k@tAe@REZG^Af@@X@VF`@Jn@XbClAr@Xt\\`PrAb@pA^hBTjAFj@Pb@JPHLLJNJRFXDT?X?ZEVEVKTMNMHMFOB}DWSGOSYcAN}FFkAF}DJyDd@wPV_HjAN~ALI`C","length":164},"routeShortName":"23","routeLongName":"Côte Verdun via Aréna du Plateau","rentedBike":false,"transitLeg":true,"duration":433.0,"steps":[]},{"startTime":1522681501000,"endTime":1522681913000,"departureDelay":0,"arrivalDelay":0,"realTime":false,"distance":531.4060000000001,"pathway":false,"mode":"WALK","route":"","agencyTimeZoneOffset":-14400000,"interlineWithPreviousLeg":false,"from":{"name":"Terminus Chicoutimi","stopId":"1:1289","stopCode":"1289","lon":-71.066163,"lat":48.428677,"arrival":1522681500000,"departure":1522681501000,"zoneId":"NA","stopIndex":26,"stopSequence":27,"vertexType":"TRANSIT"},"to":{"name":"Destination","lon":-71.059494,"lat":48.427572,"arrival":1522681913000,"orig":"","vertexType":"NORMAL"},"legGeometry":{"points":"{uqfHb~vpLbAJR@JDb@LR{H@k@@YFqB@i@HyEBw@?S@m@JqFDuA?Q","length":17},"rentedBike":false,"transitLeg":false,"duration":412.0,"steps":[{"distance":77.207,"relativeDirection":"DEPART","streetName":"Rue Morin","absoluteDirection":"SOUTH","stayOn":false,"area":false,"bogusName":false,"lon":-71.0654590096484,"lat":48.428628638946556,"elevation":[]},{"distance":454.19900000000007,"relativeDirection":"LEFT","streetName":"Rue Racine Est","absoluteDirection":"EAST","stayOn":false,"area":false,"bogusName":false,"lon":-71.0656238,"lat":48.4279449,"elevation":[]}]}],"tooSloped":false},{"duration":1566,"startTime":1522680707000,"endTime":1522682273000,"walkTime":792,"transitTime":772,"waitingTime":2,"walkDistance":1012.9614060114106,"walkLimitExceeded":false,"elevationLost":0.0,"elevationGained":0.0,"transfers":0,"legs":[{"startTime":1522680707000,"endTime":1522681087000,"departureDelay":0,"arrivalDelay":0,"realTime":false,"distance":481.443,"pathway":false,"mode":"WALK","route":"","agencyTimeZoneOffset":-14400000,"interlineWithPreviousLeg":false,"from":{"name":"Origin","lon":-71.040131,"lat":48.440608,"departure":1522680707000,"orig":"","vertexType":"NORMAL"},"to":{"name":"Roussel / Sabrina","stopId":"1:821","stopCode":"821","lon":-71.036499,"lat":48.438915,"arrival":1522681087000,"departure":1522681088000,"zoneId":"NA","stopIndex":17,"stopSequence":18,"vertexType":"TRANSIT"},"legGeometry":{"points":"k`tfHj~qpL_@Qm@YFk@Fa@BSFa@Hy@`@cD\\_Bd@}ADMRi@Zy@Vy@N_@Z{@f@f@dAbAPNVV","length":21},"rentedBike":false,"transitLeg":false,"duration":380.0,"steps":[{"distance":45.51,"relativeDirection":"DEPART","streetName":"Rue Roxanna","absoluteDirection":"NORTH","stayOn":false,"area":false,"bogusName":false,"lon":-71.03989788997563,"lat":48.44054856571086,"elevation":[]},{"distance":335.194,"relativeDirection":"RIGHT","streetName":"Rue Diana","absoluteDirection":"EAST","stayOn":false,"area":false,"bogusName":false,"lon":-71.0396777,"lat":48.440930900000005,"elevation":[]},{"distance":100.739,"relativeDirection":"RIGHT","streetName":"Rue Roussel","absoluteDirection":"SOUTHWEST","stayOn":false,"area":false,"bogusName":false,"lon":-71.0356349,"lat":48.4396234,"elevation":[]}]},{"startTime":1522681088000,"endTime":1522681860000,"departureDelay":0,"arrivalDelay":0,"realTime":false,"distance":5006.970604243938,"pathway":false,"mode":"BUS","route":"24","agencyName":"Société de Transport du Saguenay","agencyUrl":"http://ville.saguenay.ca/fr/services-aux-citoyens/transport-sts","agencyTimeZoneOffset":-14400000,"routeColor":"00FF00","routeType":3,"routeId":"1:24","routeTextColor":"000000","interlineWithPreviousLeg":false,"tripBlockId":"4","headsign":"Terminus Chicoutimi","agencyId":"0","tripId":"1:217231","serviceDate":"20180402","from":{"name":"Roussel / Sabrina","stopId":"1:821","stopCode":"821","lon":-71.036499,"lat":48.438915,"arrival":1522681087000,"departure":1522681088000,"zoneId":"NA","stopIndex":17,"stopSequence":18,"vertexType":"TRANSIT"},"to":{"name":"Terminus Chicoutimi","stopId":"1:1289","stopCode":"1289","lon":-71.066163,"lat":48.428677,"arrival":1522681860000,"departure":1522681861000,"zoneId":"NA","stopIndex":35,"stopSequence":36,"vertexType":"TRANSIT"},"legGeometry":{"points":"_vsfHthqpL`IjIRPb@^r@d@rAp@\\T\\ZNVRd@J\\Nd@Hf@F`@@DFr@LtAJpB@jAAt@ObEIzAKbBUrBMp@Sn@gAlCk@pAw@fCwB|HCNk@jCeDuAq@UC?mG_CaHiCsJqD_A]VvC\\`Ch@rCj@tBf@bBxDxJN\\bAjCTnAHvA@|@CPIpAe@pDUfBCTEXK~@MxAEn@@v@Bp@Dr@l@~HNlAH\\@HLd@\\z@Xd@X\\RTXRr@Zn@PfExAvDpALnBJt@Pp@Nj@l@tBHZPn@`@rBNnAFr@DbA?bB@jABzA?p@A???A???A?A???A@??A?A@??A@?@A??@A@???@A@?@?@A@?@?@?@?@???@?@?@?@?@?@@@?@?@@@?@@@?@@@?@@?@@??@@@?E`@Kr@]rACVEl@I|AAr@JbAWJe@FUAM?a@Ke@YYWWa@v@}@RQPMz@k@tAe@REZG^Af@@X@VF`@Jn@XbClAr@Xt\\`PrAb@pA^hBTjAFj@Pb@JPHLLJNJRFXDT?X?ZEVEVKTMNMHMFOB}DWSGOSYcAN}FFkAF}DJyDPwGvAHN_HDiB@m@","length":205},"routeShortName":"24","routeLongName":"Saint-Luc","rentedBike":false,"transitLeg":true,"duration":772.0,"steps":[]},{"startTime":1522681861000,"endTime":1522682273000,"departureDelay":0,"arrivalDelay":0,"realTime":false,"distance":531.4060000000001,"pathway":false,"mode":"WALK","route":"","agencyTimeZoneOffset":-14400000,"interlineWithPreviousLeg":false,"from":{"name":"Terminus Chicoutimi","stopId":"1:1289","stopCode":"1289","lon":-71.066163,"lat":48.428677,"arrival":1522681860000,"departure":1522681861000,"zoneId":"NA","stopIndex":35,"stopSequence":36,"vertexType":"TRANSIT"},"to":{"name":"Destination","lon":-71.059494,"lat":48.427572,"arrival":1522682273000,"orig":"","vertexType":"NORMAL"},"legGeometry":{"points":"{uqfHb~vpLbAJR@JDb@LR{H@k@@YFqB@i@HyEBw@?S@m@JqFDuA?Q","length":17},"rentedBike":false,"transitLeg":false,"duration":412.0,"steps":[{"distance":77.207,"relativeDirection":"DEPART","streetName":"Rue Morin","absoluteDirection":"SOUTH","stayOn":false,"area":false,"bogusName":false,"lon":-71.0654590096484,"lat":48.428628638946556,"elevation":[]},{"distance":454.19900000000007,"relativeDirection":"LEFT","streetName":"Rue Racine Est","absoluteDirection":"EAST","stayOn":false,"area":false,"bogusName":false,"lon":-71.0656238,"lat":48.4279449,"elevation":[]}]}],"tooSloped":false},{"duration":1566,"startTime":1522682507000,"endTime":1522684073000,"walkTime":792,"transitTime":772,"waitingTime":2,"walkDistance":1012.9614060114106,"walkLimitExceeded":false,"elevationLost":0.0,"elevationGained":0.0,"transfers":0,"legs":[{"startTime":1522682507000,"endTime":1522682887000,"departureDelay":0,"arrivalDelay":0,"realTime":false,"distance":481.443,"pathway":false,"mode":"WALK","route":"","agencyTimeZoneOffset":-14400000,"interlineWithPreviousLeg":false,"from":{"name":"Origin","lon":-71.040131,"lat":48.440608,"departure":1522682507000,"orig":"","vertexType":"NORMAL"},"to":{"name":"Roussel / Sabrina","stopId":"1:821","stopCode":"821","lon":-71.036499,"lat":48.438915,"arrival":1522682887000,"departure":1522682888000,"zoneId":"NA","stopIndex":17,"stopSequence":18,"vertexType":"TRANSIT"},"legGeometry":{"points":"k`tfHj~qpL_@Qm@YFk@Fa@BSFa@Hy@`@cD\\_Bd@}ADMRi@Zy@Vy@N_@Z{@f@f@dAbAPNVV","length":21},"rentedBike":false,"transitLeg":false,"duration":380.0,"steps":[{"distance":45.51,"relativeDirection":"DEPART","streetName":"Rue Roxanna","absoluteDirection":"NORTH","stayOn":false,"area":false,"bogusName":false,"lon":-71.03989788997563,"lat":48.44054856571086,"elevation":[]},{"distance":335.194,"relativeDirection":"RIGHT","streetName":"Rue Diana","absoluteDirection":"EAST","stayOn":false,"area":false,"bogusName":false,"lon":-71.0396777,"lat":48.440930900000005,"elevation":[]},{"distance":100.739,"relativeDirection":"RIGHT","streetName":"Rue Roussel","absoluteDirection":"SOUTHWEST","stayOn":false,"area":false,"bogusName":false,"lon":-71.0356349,"lat":48.4396234,"elevation":[]}]},{"startTime":1522682888000,"endTime":1522683660000,"departureDelay":0,"arrivalDelay":0,"realTime":false,"distance":5006.970604243938,"pathway":false,"mode":"BUS","route":"24","agencyName":"Société de Transport du Saguenay","agencyUrl":"http://ville.saguenay.ca/fr/services-aux-citoyens/transport-sts","agencyTimeZoneOffset":-14400000,"routeColor":"00FF00","routeType":3,"routeId":"1:24","routeTextColor":"000000","interlineWithPreviousLeg":false,"tripBlockId":"5","headsign":"Terminus Chicoutimi","agencyId":"0","tripId":"1:217259","serviceDate":"20180402","from":{"name":"Roussel / Sabrina","stopId":"1:821","stopCode":"821","lon":-71.036499,"lat":48.438915,"arrival":1522682887000,"departure":1522682888000,"zoneId":"NA","stopIndex":17,"stopSequence":18,"vertexType":"TRANSIT"},"to":{"name":"Terminus Chicoutimi","stopId":"1:1289","stopCode":"1289","lon":-71.066163,"lat":48.428677,"arrival":1522683660000,"departure":1522683661000,"zoneId":"NA","stopIndex":35,"stopSequence":36,"vertexType":"TRANSIT"},"legGeometry":{"points":"_vsfHthqpL`IjIRPb@^r@d@rAp@\\T\\ZNVRd@J\\Nd@Hf@F`@@DFr@LtAJpB@jAAt@ObEIzAKbBUrBMp@Sn@gAlCk@pAw@fCwB|HCNk@jCeDuAq@UC?mG_CaHiCsJqD_A]VvC\\`Ch@rCj@tBf@bBxDxJN\\bAjCTnAHvA@|@CPIpAe@pDUfBCTEXK~@MxAEn@@v@Bp@Dr@l@~HNlAH\\@HLd@\\z@Xd@X\\RTXRr@Zn@PfExAvDpALnBJt@Pp@Nj@l@tBHZPn@`@rBNnAFr@DbA?bB@jABzA?p@A???A???A?A???A@??A?A@??A@?@A??@A@???@A@?@?@A@?@?@?@?@???@?@?@?@?@?@@@?@?@@@?@@@?@@@?@@?@@??@@@?E`@Kr@]rACVEl@I|AAr@JbAWJe@FUAM?a@Ke@YYWWa@v@}@RQPMz@k@tAe@REZG^Af@@X@VF`@Jn@XbClAr@Xt\\`PrAb@pA^hBTjAFj@Pb@JPHLLJNJRFXDT?X?ZEVEVKTMNMHMFOB}DWSGOSYcAN}FFkAF}DJyDPwGvAHN_HDiB@m@","length":205},"routeShortName":"24","routeLongName":"Saint-Luc","rentedBike":false,"transitLeg":true,"duration":772.0,"steps":[]},{"startTime":1522683661000,"endTime":1522684073000,"departureDelay":0,"arrivalDelay":0,"realTime":false,"distance":531.4060000000001,"pathway":false,"mode":"WALK","route":"","agencyTimeZoneOffset":-14400000,"interlineWithPreviousLeg":false,"from":{"name":"Terminus Chicoutimi","stopId":"1:1289","stopCode":"1289","lon":-71.066163,"lat":48.428677,"arrival":1522683660000,"departure":1522683661000,"zoneId":"NA","stopIndex":35,"stopSequence":36,"vertexType":"TRANSIT"},"to":{"name":"Destination","lon":-71.059494,"lat":48.427572,"arrival":1522684073000,"orig":"","vertexType":"NORMAL"},"legGeometry":{"points":"{uqfHb~vpLbAJR@JDb@LR{H@k@@YFqB@i@HyEBw@?S@m@JqFDuA?Q","length":17},"rentedBike":false,"transitLeg":false,"duration":412.0,"steps":[{"distance":77.207,"relativeDirection":"DEPART","streetName":"Rue Morin","absoluteDirection":"SOUTH","stayOn":false,"area":false,"bogusName":false,"lon":-71.0654590096484,"lat":48.428628638946556,"elevation":[]},{"distance":454.19900000000007,"relativeDirection":"LEFT","streetName":"Rue Racine Est","absoluteDirection":"EAST","stayOn":false,"area":false,"bogusName":false,"lon":-71.0656238,"lat":48.4279449,"elevation":[]}]}],"tooSloped":false}]},"debugOutput":{"precalculationTime":29,"pathCalculationTime":20,"pathTimes":[13,3,4],"renderingTime":0,"totalTime":49,"timedOut":false},"elevationMetadata":{"ellipsoidToGeoidDifference":-28.885904201182168,"geoidElevation":false}}