{"requestParameters":{"date":"2018/04/02","walkSpeed":"1.33","walkReluctance":"2.0","fromPlace":"48.44044,-71.041305","maxWalkDistance":"3000","waitReluctance":"1.0","carSpeed":"33","numItineraries":"3","waitAtBeginningFactor":"0.4","mode":"TRANSIT,WALK","ignoreRealtimeUpdates":"false","stairsReluctance":"2.0","toPlace":"48.439907,-71.075502","time":"16:30:00"},"plan":{"date":1522701000000,"from":{"name":"Origin","lon":-71.041305,"lat":48.44044,"orig":"","vertexType":"NORMAL"},"to":{"name":"Destination","lon":-71.075502,"lat":48.439907,"orig":"","vertexType":"NORMAL"},"itineraries":[{"duration":1889,"startTime":1522701556000,"endTime":1522703445000,"walkTime":1664,"transitTime":223,"waitingTime":2,"walkDistance":2146.9219774342196,"walkLimitExceeded":false,"elevationLost":0.0,"elevationGained":0.0,"transfers":0,"legs":[{"startTime":1522701556000,"endTime":1522702666000,"departureDelay":0,"arrivalDelay":0,"realTime":false,"distance":1434.335,"pathway":false,"mode":"WALK","route":"","agencyTimeZoneOffset":-14400000,"interlineWithPreviousLeg":false,"from":{"name":"Origin","lon":-71.041305,"lat":48.44044,"departure":1522701556000,"orig":"","vertexType":"NORMAL"},"to":{"name":"Verdun / Mgr Laval","stopId":"1:795","stopCode":"795","lon":-71.052912,"lat":48.444125,"arrival":1522702666000,"departure":1522702667000,"zoneId":"NA","stopIndex":17,"stopSequence":18,"vertexType":"TRANSIT"},"legGeometry":{"points":"i_tfHherpLqBs@MGOGE`@Ed@YpBw@U]Ia@K[M[MYG_@Ec@?[?g@Fy@JwDd@ZhGJhBFlAFzAZbF@TBd@HdCHv@Fb@NnA@HVbBZdB@Db@dB\\pATr@FP}@v@QPKNIXId@WhCs@~GQrB_A_@","length":47},"rentedBike":false,"transitLeg":false,"duration":1110.0,"steps":[{"distance":83.202,"relativeDirection":"DEPART","streetName":"Rue Johanna","absoluteDirection":"NORTH","stayOn":false,"area":false,"bogusName":false,"lon":-71.04100824095296,"lat":48.440379650101676,"elevation":[]},{"distance":71.442,"relativeDirection":"LEFT","streetName":"Rue Diana","absoluteDirection":"WEST","stayOn":false,"area":false,"bogusName":false,"lon":-71.04066830000001,"lat":48.441093,"elevation":[]},{"distance":328.291,"relativeDirection":"RIGHT","streetName":"Rue Olier","absoluteDirection":"NORTH","stayOn":false,"area":false,"bogusName":false,"lon":-71.04159270000001,"lat":48.4412838,"elevation":[]},{"distance":620.202,"relativeDirection":"LEFT","streetName":"Boulevard de Tadoussac","absoluteDirection":"WEST","stayOn":false,"area":false,"bogusName":false,"lon":-71.0414514,"lat":48.44418700000001,"elevation":[]},{"distance":293.978,"relativeDirection":"RIGHT","streetName":"Rue Monseigneur-Laval","absoluteDirection":"NORTHWEST","stayOn":false,"area":false,"bogusName":false,"lon":-71.0494919,"lat":48.442756900000006,"elevation":[]},{"distance":37.22,"relativeDirection":"RIGHT","streetName":"Rue de Verdun","absoluteDirection":"NORTH","stayOn":false,"area":false,"bogusName":false,"lon":-71.05297780000001,"lat":48.4437865,"elevation":[]}]},{"startTime":1522702667000,"endTime":1522702890000,"departureDelay":0,"arrivalDelay":0,"realTime":false,"distance":1600.6007787851495,"pathway":false,"mode":"BUS","route":"23","agencyName":"Société de Transport du Saguenay","agencyUrl":"http://ville.saguenay.ca/fr/services-aux-citoyens/transport-sts","agencyTimeZoneOffset":-14400000,"routeColor":"FF00FF","routeType":3,"routeId":"1:23","routeTextColor":"FFFFFF","interlineWithPreviousLeg":false,"tripBlockId":"5","headsign":"Terminus Chicoutimi","agencyId":"0","tripId":"1:217270","serviceDate":"20180402","from":{"name":"Verdun / Mgr Laval","stopId":"1:795","stopCode":"795","lon":-71.052912,"lat":48.444125,"arrival":1522702666000,"departure":1522702667000,"zoneId":"NA","stopIndex":17,"stopSequence":18,"vertexType":"TRANSIT"},"to":{"name":"Liberté / Roussel","stopId":"1:833","stopCode":"833","lon":-71.069708,"lat":48.437999,"arrival":1522702890000,"departure":1522702891000,"zoneId":"NA","stopIndex":24,"stopSequence":25,"vertexType":"TRANSIT"},"legGeometry":{"points":"svtfHfotpLz@\\CP?R@N@NFLFF`GtBx@Xw@pG@l@B\\DXL\\RZDFXPf@N@v@Bp@Dr@l@~HNlAH\\@HLd@\\z@Xd@X\\RTXRr@Zn@PfExAvDpALnBJt@Pp@|@`DHZPn@`@rBNnAFr@DbA?bB@jABzA?p@A???A???A?A???A@??A?A@??A@?@A??@A@???@A@?@?@A@?@?@?@?@???@?@?@?@?@?@@@?@?@@@?@@@?@@@?@@?@@??@@@?E`@Kr@]rACVEl@I|AAr@JbAWJe@FUA","length":109},"routeShortName":"23","routeLongName":"Côte Verdun via Aréna du Plateau","rentedBike":false,"transitLeg":true,"duration":223.0,"steps":[]},{"startTime":1522702891000,"endTime":1522703445000,"departureDelay":0,"arrivalDelay":0,"realTime":false,"distance":712.296,"pathway":false,"mode":"WALK","route":"","agencyTimeZoneOffset":-14400000,"interlineWithPreviousLeg":false,"from":{"name":"Liberté / Roussel","stopId":"1:833","stopCode":"833","lon":-71.069708,"lat":48.437999,"arrival":1522702890000,"departure":1522702891000,"zoneId":"NA","stopIndex":24,"stopSequence":25,"vertexType":"TRANSIT"},"to":{"name":"Destination","lon":-71.075502,"lat":48.439907,"arrival":1522703445000,"orig":"","vertexType":"NORMAL"},"legGeometry":{"points":"mpsfHbywpLQ?eAe@c@W[Ug@j@gAbBsAlC}AvCPVJXDLDNBJBNFRFPFNTZPPY|BE^Kz@ERUdBe@Zu@Mz@bCNd@JTTb@?@","length":32},"rentedBike":false,"transitLeg":false,"duration":554.0,"steps":[{"distance":90.008,"relativeDirection":"DEPART","streetName":"Rue de la Liberté","absoluteDirection":"NORTH","stayOn":false,"area":false,"bogusName":false,"lon":-71.06977728382226,"lat":48.43799835897345,"elevation":[]},{"distance":229.39800000000002,"relativeDirection":"LEFT","streetName":"Boulevard Sainte-Geneviève","absoluteDirection":"NORTHWEST","stayOn":false,"area":false,"bogusName":false,"lon":-71.0693565,"lat":48.4387504,"elevation":[]},{"distance":102.176,"relativeDirection":"LEFT","streetName":"Rue des Hydrangées","absoluteDirection":"SOUTHWEST","stayOn":false,"area":false,"bogusName":false,"lon":-71.07154390000001,"lat":48.440209900000006,"elevation":[]},{"distance":49.331,"relativeDirection":"RIGHT","streetName":"Rue de la Reine","absoluteDirection":"WEST","stayOn":false,"area":false,"bogusName":false,"lon":-71.0725805,"lat":48.439631000000006,"elevation":[]},{"distance":137.06,"relativeDirection":"CONTINUE","streetName":"Rue Masson","absoluteDirection":"WEST","stayOn":false,"area":false,"bogusName":false,"lon":-71.0732198,"lat":48.4397612,"elevation":[]},{"distance":104.323,"relativeDirection":"HARD_LEFT","streetName":"Rue des Champs","absoluteDirection":"SOUTHWEST","stayOn":false,"area":false,"bogusName":false,"lon":-71.07435980000001,"lat":48.4404586,"elevation":[]}]}],"tooSloped":false},{"duration":1586,"startTime":1522702221000,"endTime":1522703807000,"walkTime":1020,"transitTime":564,"waitingTime":2,"walkDistance":1306.8843533772842,"walkLimitExceeded":false,"elevationLost":0.0,"elevationGained":0.0,"transfers":0,"legs":[{"startTime":1522702221000,"endTime":1522702687000,"departureDelay":0,"arrivalDelay":0,"realTime":false,"distance":594.397,"pathway":false,"mode":"WALK","route":"","agencyTimeZoneOffset":-14400000,"interlineWithPreviousLeg":false,"from":{"name":"Origin","lon":-71.041305,"lat":48.44044,"departure":1522702221000,"orig":"","vertexType":"NORMAL"},"to":{"name":"Roussel / Sabrina","stopId":"1:821","stopCode":"821","lon":-71.036499,"lat":48.438915,"arrival":1522702687000,"departure":1522702688000,"zoneId":"NA","stopIndex":17,"stopSequence":18,"vertexType":"TRANSIT"},"legGeometry":{"points":"i_tfHherpLqBs@MGOG^eEFk@Fa@BSFa@Hy@`@cD\\_Bd@}ADMRi@Zy@Vy@N_@Z{@f@f@dAbAPNVV","length":23},"rentedBike":false,"transitLeg":false,"duration":466.0,"steps":[{"distance":83.202,"relativeDirection":"DEPART","streetName":"Rue Johanna","absoluteDirection":"NORTH","stayOn":false,"area":false,"bogusName":false,"lon":-71.04100824095296,"lat":48.440379650101676,"elevation":[]},{"distance":410.456,"relativeDirection":"RIGHT","streetName":"Rue Diana","absoluteDirection":"EAST","stayOn":false,"area":false,"bogusName":false,"lon":-71.04066830000001,"lat":48.441093,"elevation":[]},{"distance":100.739,"relativeDirection":"RIGHT","streetName":"Rue Roussel","absoluteDirection":"SOUTHWEST","stayOn":false,"area":false,"bogusName":false,"lon":-71.0356349,"lat":48.4396234,"elevation":[]}]},{"startTime":1522702688000,"endTime":1522703252000,"departureDelay":0,"arrivalDelay":0,"realTime":false,"distance":3782.597803125008,"pathway":false,"mode":"BUS","route":"24","agencyName":"Société de Transport du Saguenay","agencyUrl":"http://ville.saguenay.ca/fr/services-aux-citoyens/transport-sts","agencyTimeZoneOffset":-14400000,"routeColor":"00FF00","routeType":3,"routeId":"1:24","routeTextColor":"000000","interlineWithPreviousLeg":false,"tripBlockId":"4","headsign":"Terminus Chicoutimi","agencyId":"0","tripId":"1:217243","serviceDate":"20180402","from":{"name":"Roussel / Sabrina","stopId":"1:821","stopCode":"821","lon":-71.036499,"lat":48.438915,"arrival":1522702687000,"departure":1522702688000,"zoneId":"NA","stopIndex":17,"stopSequence":18,"vertexType":"TRANSIT"},"to":{"name":"Liberté / Roussel","stopId":"1:833","stopCode":"833","lon":-71.069708,"lat":48.437999,"arrival":1522703252000,"departure":1522703253000,"zoneId":"NA","stopIndex":33,"stopSequence":34,"vertexType":"TRANSIT"},"legGeometry":{"points":"_vsfHthqpL`IjIRPb@^r@d@rAp@\\T\\ZNVRd@J\\Nd@Hf@F`@@DFr@LtAJpB@jAAt@ObEIzAKbBUrBMp@Sn@gAlCk@pAw@fCwB|HCNk@jCeDuAq@UC?mG_CaHiCsJqD_A]VvC\\`Ch@rCj@tBf@bBxDxJN\\bAjCTnAHvA@|@CPIpAe@pDUfBCTEXK~@MxAEn@@v@Bp@Dr@l@~HNlAH\\@HLd@\\z@Xd@X\\RTXRr@Zn@PfExAvDpALnBJt@Pp@Nj@l@tBHZPn@`@rBNnAFr@DbA?bB@jABzA?p@A???A???A?A???A@??A?A@??A@?@A??@A@???@A@?@?@A@?@?@?@?@???@?@?@?@?@?@@@?@?@@@?@@@?@@@?@@?@@??@@@?E`@Kr@]rACVEl@I|AAr@JbAWJe@FUA","length":150},"routeShortName":"24","routeLongName":"Saint-Luc","rentedBike":false,"transitLeg":true,"duration":564.0,"steps":[]},{"startTime":1522703253000,"endTime":1522703807000,"departureDelay":0,"arrivalDelay":0,"realTime":false,"distance":712.296,"pathway":false,"mode":"WALK","route":"","agencyTimeZoneOffset":-14400000,"interlineWithPreviousLeg":false,"from":{"name":"Liberté / Roussel","stopId":"1:833","stopCode":"833","lon":-71.069708,"lat":48.437999,"arrival":1522703252000,"departure":1522703253000,"zoneId":"NA","stopIndex":33,"stopSequence":34,"vertexType":"TRANSIT"},"to":{"name":"Destination","lon":-71.075502,"lat":48.439907,"arrival":1522703807000,"orig":"","vertexType":"NORMAL"},"legGeometry":{"points":"mpsfHbywpLQ?eAe@c@W[Ug@j@gAbBsAlC}AvCPVJXDLDNBJBNFRFPFNTZPPY|BE^Kz@ERUdBe@Zu@Mz@bCNd@JTTb@?@","length":32},"rentedBike":false,"transitLeg":false,"duration":554.0,"steps":[{"distance":90.008,"relativeDirection":"DEPART","streetName":"Rue de la Liberté","absoluteDirection":"NORTH","stayOn":false,"area":false,"bogusName":false,"lon":-71.06977728382226,"lat":48.43799835897345,"elevation":[]},{"distance":229.39800000000002,"relativeDirection":"LEFT","streetName":"Boulevard Sainte-Geneviève","absoluteDirection":"NORTHWEST","stayOn":false,"area":false,"bogusName":false,"lon":-71.0693565,"lat":48.4387504,"elevation":[]},{"distance":102.176,"relativeDirection":"LEFT","streetName":"Rue des Hydrangées","absoluteDirection":"SOUTHWEST","stayOn":false,"area":false,"bogusName":false,"lon":-71.07154390000001,"lat":48.440209900000006,"elevation":[]},{"distance":49.331,"relativeDirection":"RIGHT","streetName":"Rue de la Reine","absoluteDirection":"WEST","stayOn":false,"area":false,"bogusName":false,"lon":-71.0725805,"lat":48.439631000000006,"elevation":[]},{"distance":137.06,"relativeDirection":"CONTINUE","streetName":"Rue Masson","absoluteDirection":"WEST","stayOn":false,"area":false,"bogusName":false,"lon":-71.0732198,"lat":48.4397612,"elevation":[]},{"distance":104.323,"relativeDirection":"HARD_LEFT","streetName":"Rue des Champs","absoluteDirection":"SOUTHWEST","stayOn":false,"area":false,"bogusName":false,"lon":-71.07435980000001,"lat":48.4404586,"elevation":[]}]}],"tooSloped":false},{"duration":1241,"startTime":1522704433000,"endTime":1522705674000,"walkTime":982,"transitTime":257,"waitingTime":2,"walkDistance":1262.070661647209,"walkLimitExceeded":false,"elevationLost":0.0,"elevationGained":0.0,"transfers":0,"legs":[{"startTime":1522704433000,"endTime":1522704861000,"departureDelay":0,"arrivalDelay":0,"realTime":false,"distance":549.56,"pathway":false,"mode":"WALK","route":"","agencyTimeZoneOffset":-14400000,"interlineWithPreviousLeg":false,"from":{"name":"Origin","lon":-71.041305,"lat":48.44044,"departure":1522704433000,"orig":"","vertexType":"NORMAL"},"to":{"name":"boul. Tadoussac (no. 817)","stopId":"1:2024","stopCode":"2024","lon":-71.040586,"lat":48.444395,"arrival":1522704861000,"departure":1522704862000,"zoneId":"NA","stopIndex":21,"stopSequence":22,"vertexType":"TRANSIT"},"legGeometry":{"points":"i_tfHherpLqBs@MGOGE`@Ed@YpBw@U]Ia@K[M[MYG_@Ec@?[?g@Fy@JwDd@QmD?E","length":21},"rentedBike":false,"transitLeg":false,"duration":428.0,"steps":[{"distance":83.202,"relativeDirection":"DEPART","streetName":"Rue Johanna","absoluteDirection":"NORTH","stayOn":false,"area":false,"bogusName":false,"lon":-71.04100824095296,"lat":48.440379650101676,"elevation":[]},{"distance":71.442,"relativeDirection":"LEFT","streetName":"Rue Diana","absoluteDirection":"WEST","stayOn":false,"area":false,"bogusName":false,"lon":-71.04066830000001,"lat":48.441093,"elevation":[]},{"distance":328.291,"relativeDirection":"RIGHT","streetName":"Rue Olier","absoluteDirection":"NORTH","stayOn":false,"area":false,"bogusName":false,"lon":-71.04159270000001,"lat":48.4412838,"elevation":[]},{"distance":66.625,"relativeDirection":"RIGHT","streetName":"Boulevard de Tadoussac","absoluteDirection":"EAST","stayOn":false,"area":false,"bogusName":false,"lon":-71.0414514,"lat":48.44418700000001,"elevation":[]}]},{"startTime":1522704862000,"endTime":1522705119000,"departureDelay":0,"arrivalDelay":0,"realTime":false,"distance":2430.723138673228,"pathway":false,"mode":"BUS","route":"25","agencyName":"Société de Transport du Saguenay","agencyUrl":"http://ville.saguenay.ca/fr/services-aux-citoyens/transport-sts","agencyTimeZoneOffset":-14400000,"routeColor":"00FFFF","routeType":3,"routeId":"1:25","routeTextColor":"000000","interlineWithPreviousLeg":false,"tripBlockId":"97","headsign":"Terminus Chicoutimi","agencyId":"0","tripId":"1:218742","serviceDate":"20180402","from":{"name":"boul. Tadoussac (no. 817)","stopId":"1:2024","stopCode":"2024","lon":-71.040586,"lat":48.444395,"arrival":1522704861000,"departure":1522704862000,"zoneId":"NA","stopIndex":21,"stopSequence":22,"vertexType":"TRANSIT"},"to":{"name":"Liberté / Roussel","stopId":"1:833","stopCode":"833","lon":-71.069708,"lat":48.437999,"arrival":1522705119000,"departure":1522705120000,"zoneId":"NA","stopIndex":29,"stopSequence":30,"vertexType":"TRANSIT"},"legGeometry":{"points":"uwtfHnbrpLPtDn@~L@^r@|MVvC\\`Ch@rCj@tBf@bBxDxJN\\bAjCTnAHvA@|@CPIpAS`BQnAUfBCTEXK~@MxAEn@@v@Bp@Dr@l@~HNlAH\\@HLd@\\z@Xd@X\\RTXRr@Zn@PzBv@jA`@l@RhC|@LnBJt@Pp@Nj@l@tBHZPn@`@rBNnAFr@DbA?bB@jABzA?p@A???A???A?A???A@??A?A@??A@?@A??@A@???@A@?@?@A@?@?@?@?@???@?@?@?@?@?@@@?@?@@@?@@@?@@@?@@?@@??@@@?E`@Kr@]rACVEl@I|AAr@JbAWJe@FUA","length":119},"routeShortName":"25","routeLongName":"Valin","rentedBike":false,"transitLeg":true,"duration":257.0,"steps":[]},{"startTime":1522705120000,"endTime":1522705674000,"departureDelay":0,"arrivalDelay":0,"realTime":false,"distance":712.296,"pathway":false,"mode":"WALK","route":"","agencyTimeZoneOffset":-14400000,"interlineWithPreviousLeg":false,"from":{"name":"Liberté / Roussel","stopId":"1:833","stopCode":"833","lon":-71.069708,"lat":48.437999,"arrival":1522705119000,"departure":1522705120000,"zoneId":"NA","stopIndex":29,"stopSequence":30,"vertexType":"TRANSIT"},"to":{"name":"Destination","lon":-71.075502,"lat":48.439907,"arrival":1522705674000,"orig":"","vertexType":"NORMAL"},"legGeometry":{"points":"mpsfHbywpLQ?eAe@c@W[Ug@j@gAbBsAlC}AvCPVJXDLDNBJBNFRFPFNTZPPY|BE^Kz@ERUdBe@Zu@Mz@bCNd@JTTb@?@","length":32},"rentedBike":false,"transitLeg":false,"duration":554.0,"steps":[{"distance":90.008,"relativeDirection":"DEPART","streetName":"Rue de la Liberté","absoluteDirection":"NORTH","stayOn":false,"area":false,"bogusName":false,"lon":-71.06977728382226,"lat":48.43799835897345,"elevation":[]},{"distance":229.39800000000002,"relativeDirection":"LEFT","streetName":"Boulevard Sainte-Geneviève","absoluteDirection":"NORTHWEST","stayOn":false,"area":false,"bogusName":false,"lon":-71.0693565,"lat":48.4387504,"elevation":[]},{"distance":102.176,"relativeDirection":"LEFT","streetName":"Rue des Hydrangées","absoluteDirection":"SOUTHWEST","stayOn":false,"area":false,"bogusName":false,"lon":-71.07154390000001,"lat":48.440209900000006,"elevation":[]},{"distance":49.331,"relativeDirection":"RIGHT","streetName":"Rue de la Reine","absoluteDirection":"WEST","stayOn":false,"area":false,"bogusName":false,"lon":-71.0725805,"lat":48.439631000000006,"elevation":[]},{"distance":137.06,"relativeDirection":"CONTINUE","streetName":"Rue Masson","absoluteDirection":"WEST","stayOn":false,"area":false,"bogusName":false,"lon":-71.0732198,"lat":48.4397612,"elevation":[]},{"distance":104.323,"relativeDirection":"HARD_LEFT","streetName":"Rue des Champs","absoluteDirection":"SOUTHWEST","stayOn":false,"area":false,"bogusName":false,"lon":-71.07435980000001,"lat":48.4404586,"elevation":[]}]}],"tooSloped":false}]},"debugOutput":{"precalculationTime":15,"pathCalculationTime":18,"pathTimes":[13,2,3],"renderingTime":0,"totalTime":33,"timedOut":false},"elevationMetadata":{"ellipsoidToGeoidDifference":-28.885904201182168,"geoidElevation":false}}