{"requestParameters":{"date":"2018/04/02","walkSpeed":"1.33","walkReluctance":"2.0","fromPlace":"48.440091,-71.037125","maxWalkDistance":"3000","waitReluctance":"1.0","carSpeed":"33","numItineraries":"3","waitAtBeginningFactor":"0.4","mode":"TRANSIT,WALK","ignoreRealtimeUpdates":"false","stairsReluctance":"2.0","toPlace":"48.41803,-71.083128","time":"19:30:00"},"plan":{"date":1522711800000,"from":{"name":"Origin","lon":-71.037125,"lat":48.440091,"orig":"","vertexType":"NORMAL"},"to":{"name":"Destination","lon":-71.083128,"lat":48.41803,"orig":"","vertexType":"NORMAL"},"itineraries":[{"duration":3214,"startTime":1522712199000,"endTime":1522715413000,"walkTime":2821,"transitTime":391,"waitingTime":2,"walkDistance":3635.6732180310055,"walkLimitExceeded":false,"elevationLost":0.0,"elevationGained":0.0,"transfers":0,"legs":[{"startTime":1522712199000,"endTime":1522713466000,"departureDelay":0,"arrivalDelay":0,"realTime":false,"distance":1640.814,"pathway":false,"mode":"WALK","route":"","agencyTimeZoneOffset":-14400000,"interlineWithPreviousLeg":false,"from":{"name":"Origin","lon":-71.037125,"lat":48.440091,"departure":1522712199000,"orig":"","vertexType":"NORMAL"},"to":{"name":"Verdun / Mgr Laval","stopId":"1:795","stopCode":"795","lon":-71.052912,"lat":48.444125,"arrival":1522713466000,"departure":1522713467000,"zoneId":"NA","stopIndex":17,"stopSequence":18,"vertexType":"TRANSIT"},"legGeometry":{"points":"o~sfHdlqpLc@vA]~Aa@bDIx@G`@CRG`@Gj@_@dEE`@Ed@YpBw@U]Ia@K[M[MYG_@Ec@?[?g@Fy@JwDd@ZhGJhBFlAFzAZbF@TBd@HdCHv@Fb@NnA@HVbBZdB@Db@dB\\pATr@FP}@v@QPKNIXId@WhCs@~GQrB_A_@","length":53},"rentedBike":false,"transitLeg":false,"duration":1267.0,"steps":[{"distance":361.123,"relativeDirection":"DEPART","streetName":"Rue Diana","absoluteDirection":"NORTHWEST","stayOn":false,"area":false,"bogusName":false,"lon":-71.03698013760666,"lat":48.44024192881661,"elevation":[]},{"distance":328.291,"relativeDirection":"RIGHT","streetName":"Rue Olier","absoluteDirection":"NORTH","stayOn":false,"area":false,"bogusName":false,"lon":-71.04159270000001,"lat":48.4412838,"elevation":[]},{"distance":620.202,"relativeDirection":"LEFT","streetName":"Boulevard de Tadoussac","absoluteDirection":"WEST","stayOn":false,"area":false,"bogusName":false,"lon":-71.0414514,"lat":48.44418700000001,"elevation":[]},{"distance":293.978,"relativeDirection":"RIGHT","streetName":"Rue Monseigneur-Laval","absoluteDirection":"NORTHWEST","stayOn":false,"area":false,"bogusName":false,"lon":-71.0494919,"lat":48.442756900000006,"elevation":[]},{"distance":37.22,"relativeDirection":"RIGHT","streetName":"Rue de Verdun","absoluteDirection":"NORTH","stayOn":false,"area":false,"bogusName":false,"lon":-71.05297780000001,"lat":48.4437865,"elevation":[]}]},{"startTime":1522713467000,"endTime":1522713858000,"departureDelay":0,"arrivalDelay":0,"realTime":false,"distance":2549.6511078459525,"pathway":false,"mode":"BUS","route":"23","agencyName":"Société de Transport du Saguenay","agencyUrl":"http://ville.saguenay.ca/fr/services-aux-citoyens/transport-sts","agencyTimeZoneOffset":-14400000,"routeColor":"FF00FF","routeType":3,"routeId":"1:23","routeTextColor":"FFFFFF","interlineWithPreviousLeg":false,"tripBlockId":"5","headsign":"Terminus Chicoutimi","agencyId":"0","tripId":"1:217276","serviceDate":"20180402","from":{"name":"Verdun / Mgr Laval","stopId":"1:795","stopCode":"795","lon":-71.052912,"lat":48.444125,"arrival":1522713466000,"departure":1522713467000,"zoneId":"NA","stopIndex":17,"stopSequence":18,"vertexType":"TRANSIT"},"to":{"name":"boul. Saguenay / Ste-Anne","stopId":"1:160","stopCode":"160","lon":-71.069701,"lat":48.429464,"arrival":1522713858000,"departure":1522713859000,"zoneId":"NA","stopIndex":25,"stopSequence":26,"vertexType":"TRANSIT"},"legGeometry":{"points":"svtfHfotpLz@\\CP?R@N@NFLFF`GtBx@Xw@pG@l@B\\DXL\\RZDFXPf@N@v@Bp@Dr@l@~HNlAH\\@HLd@\\z@Xd@X\\RTXRr@Zn@PfExAvDpALnBJt@Pp@|@`DHZPn@`@rBNnAFr@DbA?bB@jABzA?p@A???A???A?A???A@??A?A@??A@?@A??@A@???@A@?@?@A@?@?@?@?@???@?@?@?@?@?@@@?@?@@@?@@@?@@@?@@?@@??@@@?E`@Kr@]rACVEl@I|AAr@JbAWJe@FUAM?a@Ke@YYWWa@v@}@RQPMz@k@tAe@REZG^Af@@X@VF`@Jn@XbClAr@Xt\\`PrAb@pA^hBTjAFj@Pb@JPHLLJNJRFXDT?X?ZEVEVKTMNMHMFOB}DWSGOSYcAN}FFkAF}DJyD","length":159},"routeShortName":"23","routeLongName":"Côte Verdun via Aréna du Plateau","rentedBike":false,"transitLeg":true,"duration":391.0,"steps":[]},{"startTime":1522713859000,"endTime":1522715413000,"departureDelay":0,"arrivalDelay":0,"realTime":false,"distance":1994.4220000000003,"pathway":false,"mode":"WALK","route":"","agencyTimeZoneOffset":-14400000,"interlineWithPreviousLeg":false,"from":{"name":"boul. Saguenay / Ste-Anne","stopId":"1:160","stopCode":"160","lon":-71.069701,"lat":48.429464,"arrival":1522713858000,"departure":1522713859000,"zoneId":"NA","stopIndex":25,"stopSequence":26,"vertexType":"TRANSIT"},"to":{"name":"Destination","lon":-71.083128,"lat":48.41803,"arrival":1522715413000,"orig":"","vertexType":"NORMAL"},"legGeometry":{"points":"s{qfHrxwpLAZGxEDl@Ph@DDLNn@^n@CpAQn@CtBI~AI|@CjAJVJRXJRFFJBJEBG`AXNLDb@xBa@f@?jAJPBnBJ|@Hf@Fb@PZTLHj@t@~@jAJLRZ?d@@n@D|@Bd@XbAFb@|@~@TV|B|BhCjCh@j@NNvDzDw@xB]fAdAtChChCzA`Bk@`DiAzG","length":59},"rentedBike":false,"transitLeg":false,"duration":1554.0,"steps":[{"distance":90.943,"relativeDirection":"DEPART","streetName":"Boulevard du Saguenay Ouest","absoluteDirection":"WEST","stayOn":false,"area":false,"bogusName":false,"lon":-71.06969134971845,"lat":48.42954562670822,"elevation":[]},{"distance":78.91,"relativeDirection":"CONTINUE","streetName":"link","absoluteDirection":"WEST","stayOn":false,"area":false,"bogusName":true,"lon":-71.07092130000001,"lat":48.429599100000004,"elevation":[]},{"distance":356.799,"relativeDirection":"SLIGHTLY_LEFT","streetName":"Rue Montcalm","absoluteDirection":"SOUTH","stayOn":false,"area":false,"bogusName":false,"lon":-71.07163890000001,"lat":48.4291351,"elevation":[]},{"distance":48.492,"relativeDirection":"SLIGHTLY_RIGHT","streetName":"path","absoluteDirection":"SOUTH","stayOn":false,"area":false,"bogusName":true,"lon":-71.0717267,"lat":48.426028200000005,"elevation":[]},{"distance":13.871,"relativeDirection":"RIGHT","streetName":"Rue Price Ouest","absoluteDirection":"WEST","stayOn":false,"area":false,"bogusName":false,"lon":-71.0719217,"lat":48.425614800000005,"elevation":[]},{"distance":410.991,"relativeDirection":"LEFT","streetName":"Boulevard Saint-Paul","absoluteDirection":"SOUTH","stayOn":false,"area":false,"bogusName":false,"lon":-71.0721044,"lat":48.4255854,"elevation":[]},{"distance":508.621,"relativeDirection":"RIGHT","streetName":"Rue Saint-Paul","absoluteDirection":"WEST","stayOn":false,"area":false,"bogusName":false,"lon":-71.0732783,"lat":48.4221458,"elevation":[]},{"distance":86.137,"relativeDirection":"RIGHT","streetName":"Rue Saint-Henri","absoluteDirection":"NORTHWEST","stayOn":false,"area":false,"bogusName":false,"lon":-71.07773680000001,"lat":48.418960000000006,"elevation":[]},{"distance":222.874,"relativeDirection":"LEFT","streetName":"Rue Saint-Jean","absoluteDirection":"SOUTHWEST","stayOn":false,"area":false,"bogusName":false,"lon":-71.07870050000001,"lat":48.419397000000004,"elevation":[]},{"distance":176.784,"relativeDirection":"RIGHT","streetName":"Rue Cimon","absoluteDirection":"WEST","stayOn":false,"area":false,"bogusName":false,"lon":-71.0806349,"lat":48.41789300000001,"elevation":[]}]}],"tooSloped":false},{"duration":1789,"startTime":1522715110000,"endTime":1522716899000,"walkTime":430,"transitTime":1117,"waitingTime":242,"walkDistance":544.4432030048987,"walkLimitExceeded":false,"elevationLost":0.0,"elevationGained":0.0,"transfers":1,"legs":[{"startTime":1522715110000,"endTime":1522715287000,"departureDelay":0,"arrivalDelay":0,"realTime":false,"distance":221.519,"pathway":false,"mode":"WALK","route":"","agencyTimeZoneOffset":-14400000,"interlineWithPreviousLeg":false,"from":{"name":"Origin","lon":-71.037125,"lat":48.440091,"departure":1522715110000,"orig":"","vertexType":"NORMAL"},"to":{"name":"Roussel / Sabrina","stopId":"1:821","stopCode":"821","lon":-71.036499,"lat":48.438915,"arrival":1522715287000,"departure":1522715288000,"zoneId":"NA","stopIndex":17,"stopSequence":18,"vertexType":"TRANSIT"},"legGeometry":{"points":"o~sfHdlqpL@EDMRi@Zy@Vy@N_@Z{@f@f@dAbAPNVV","length":12},"rentedBike":false,"transitLeg":false,"duration":177.0,"steps":[{"distance":120.78,"relativeDirection":"DEPART","streetName":"Rue Diana","absoluteDirection":"SOUTHEAST","stayOn":false,"area":false,"bogusName":false,"lon":-71.03698013760666,"lat":48.44024192881661,"elevation":[]},{"distance":100.739,"relativeDirection":"RIGHT","streetName":"Rue Roussel","absoluteDirection":"SOUTHWEST","stayOn":false,"area":false,"bogusName":false,"lon":-71.0356349,"lat":48.4396234,"elevation":[]}]},{"startTime":1522715288000,"endTime":1522716060000,"departureDelay":0,"arrivalDelay":0,"realTime":false,"distance":5006.970604243938,"pathway":false,"mode":"BUS","route":"24","agencyName":"Société de Transport du Saguenay","agencyUrl":"http://ville.saguenay.ca/fr/services-aux-citoyens/transport-sts","agencyTimeZoneOffset":-14400000,"routeColor":"00FF00","routeType":3,"routeId":"1:24","routeTextColor":"000000","interlineWithPreviousLeg":false,"tripBlockId":"5","headsign":"Terminus Chicoutimi","agencyId":"0","tripId":"1:217277","serviceDate":"20180402","from":{"name":"Roussel / Sabrina","stopId":"1:821","stopCode":"821","lon":-71.036499,"lat":48.438915,"arrival":1522715287000,"departure":1522715288000,"zoneId":"NA","stopIndex":17,"stopSequence":18,"vertexType":"TRANSIT"},"to":{"name":"Terminus Chicoutimi","stopId":"1:1289","stopCode":"1289","lon":-71.066163,"lat":48.428677,"arrival":1522716060000,"departure":1522716300000,"zoneId":"NA","stopIndex":35,"stopSequence":36,"vertexType":"TRANSIT"},"legGeometry":{"points":"_vsfHthqpL`IjIRPb@^r@d@rAp@\\T\\ZNVRd@J\\Nd@Hf@F`@@DFr@LtAJpB@jAAt@ObEIzAKbBUrBMp@Sn@gAlCk@pAw@fCwB|HCNk@jCeDuAq@UC?mG_CaHiCsJqD_A]VvC\\`Ch@rCj@tBf@bBxDxJN\\bAjCTnAHvA@|@CPIpAe@pDUfBCTEXK~@MxAEn@@v@Bp@Dr@l@~HNlAH\\@HLd@\\z@Xd@X\\RTXRr@Zn@PfExAvDpALnBJt@Pp@Nj@l@tBHZPn@`@rBNnAFr@DbA?bB@jABzA?p@A???A???A?A???A@??A?A@??A@?@A??@A@???@A@?@?@A@?@?@?@?@???@?@?@?@?@?@@@?@?@@@?@@@?@@@?@@?@@??@@@?E`@Kr@]rACVEl@I|AAr@JbAWJe@FUAM?a@Ke@YYWWa@v@}@RQPMz@k@tAe@REZG^Af@@X@VF`@Jn@XbClAr@Xt\\`PrAb@pA^hBTjAFj@Pb@JPHLLJNJRFXDT?X?ZEVEVKTMNMHMFOB}DWSGOSYcAN}FFkAF}DJyDPwGvAHN_HDiB@m@","length":205},"routeShortName":"24","routeLongName":"Saint-Luc","rentedBike":false,"transitLeg":true,"duration":772.0,"steps":[]},{"startTime":1522716300000,"endTime":1522716645000,"departureDelay":0,"arrivalDelay":0,"realTime":false,"distance":1854.3190171871854,"pathway":false,"mode":"BUS","route":"11","agencyName":"Société de Transport du Saguenay","agencyUrl":"http://ville.saguenay.ca/fr/services-aux-citoyens/transport-sts","agencyTimeZoneOffset":-14400000,"routeColor":"FF0000","routeType":3,"routeId":"1:11","routeTextColor":"FFFFFF","interlineWithPreviousLeg":false,"tripBlockId":"34","headsign":"Boul.Royaume/St-Pierre","agencyId":"0","tripId":"1:218235","serviceDate":"20180402","from":{"name":"Terminus Chicoutimi","stopId":"1:1289","stopCode":"1289","lon":-71.066163,"lat":48.428677,"arrival":1522716060000,"departure":1522716300000,"zoneId":"NA","stopIndex":0,"stopSequence":1,"vertexType":"TRANSIT"},"to":{"name":"Saint-Paul / Cimon","stopId":"1:423","stopCode":"423","lon":-71.079825,"lat":48.41719,"arrival":1522716645000,"departure":1522716646000,"zoneId":"NA","stopIndex":10,"stopSequence":11,"vertexType":"TRANSIT"},"legGeometry":{"points":"evqfHzcwpLk@?UhKfIh@dKp@GnDIfDOtEE~@Ff@x@rEF~@CbAALO~ADRNJXBr@DfGRPBPJLN@@FPFTBX?TE`BhBR@?J@NELKFOlAiDL[bA`AfIjIbGdGzDzD`A~An@`A","length":43},"routeShortName":"11","routeLongName":"Chic/Faubourg via St-Paul","rentedBike":false,"transitLeg":true,"duration":345.0,"steps":[]},{"startTime":1522716646000,"endTime":1522716899000,"departureDelay":0,"arrivalDelay":0,"realTime":false,"distance":322.843,"pathway":false,"mode":"WALK","route":"","agencyTimeZoneOffset":-14400000,"interlineWithPreviousLeg":false,"from":{"name":"Saint-Paul / Cimon","stopId":"1:423","stopCode":"423","lon":-71.079825,"lat":48.41719,"arrival":1522716645000,"departure":1522716646000,"zoneId":"NA","stopIndex":10,"stopSequence":11,"vertexType":"TRANSIT"},"to":{"name":"Destination","lon":-71.083128,"lat":48.41803,"arrival":1522716899000,"orig":"","vertexType":"NORMAL"},"legGeometry":{"points":"cnofHnwypLIOg@w@iA|CYxAk@`DiAzG","length":7},"rentedBike":false,"transitLeg":false,"duration":253.0,"steps":[{"distance":38.302,"relativeDirection":"DEPART","streetName":"Rue Saint-Paul","absoluteDirection":"NORTHEAST","stayOn":false,"area":false,"bogusName":false,"lon":-71.07975235507416,"lat":48.417143630279,"elevation":[]},{"distance":284.541,"relativeDirection":"LEFT","streetName":"Rue Cimon","absoluteDirection":"NORTHWEST","stayOn":false,"area":false,"bogusName":false,"lon":-71.0793926,"lat":48.417391900000005,"elevation":[]}]}],"tooSloped":false},{"duration":1789,"startTime":1522718710000,"endTime":1522720499000,"walkTime":430,"transitTime":1117,"waitingTime":242,"walkDistance":544.4432030048987,"walkLimitExceeded":false,"elevationLost":0.0,"elevationGained":0.0,"transfers":1,"legs":[{"startTime":1522718710000,"endTime":1522718887000,"departureDelay":0,"arrivalDelay":0,"realTime":false,"distance":221.519,"pathway":false,"mode":"WALK","route":"","agencyTimeZoneOffset":-14400000,"interlineWithPreviousLeg":false,"from":{"name":"Origin","lon":-71.037125,"lat":48.440091,"departure":1522718710000,"orig":"","vertexType":"NORMAL"},"to":{"name":"Roussel / Sabrina","stopId":"1:821","stopCode":"821","lon":-71.036499,"lat":48.438915,"arrival":1522718887000,"departure":1522718888000,"zoneId":"NA","stopIndex":17,"stopSequence":18,"vertexType":"TRANSIT"},"legGeometry":{"points":"o~sfHdlqpL@EDMRi@Zy@Vy@N_@Z{@f@f@dAbAPNVV","length":12},"rentedBike":false,"transitLeg":false,"duration":177.0,"steps":[{"distance":120.78,"relativeDirection":"DEPART","streetName":"Rue Diana","absoluteDirection":"SOUTHEAST","stayOn":false,"area":false,"bogusName":false,"lon":-71.03698013760666,"lat":48.44024192881661,"elevation":[]},{"distance":100.739,"relativeDirection":"RIGHT","streetName":"Rue Roussel","absoluteDirection":"SOUTHWEST","stayOn":false,"area":false,"bogusName":false,"lon":-71.0356349,"lat":48.4396234,"elevation":[]}]},{"startTime":1522718888000,"endTime":1522719660000,"departureDelay":0,"arrivalDelay":0,"realTime":false,"distance":5006.970604243938,"pathway":false,"mode":"BUS","route":"24","agencyName":"Société de Transport du Saguenay","agencyUrl":"http://ville.saguenay.ca/fr/services-aux-citoyens/transport-sts","agencyTimeZoneOffset":-14400000,"routeColor":"00FF00","routeType":3,"routeId":"1:24","routeTextColor":"000000","interlineWithPreviousLeg":false,"tripBlockId":"5","headsign":"Terminus Chicoutimi","agencyId":"0","tripId":"1:217279","serviceDate":"20180402","from":{"name":"Roussel / Sabrina","stopId":"1:821","stopCode":"821","lon":-71.036499,"lat":48.438915,"arrival":1522718887000,"departure":1522718888000,"zoneId":"NA","stopIndex":17,"stopSequence":18,"vertexType":"TRANSIT"},"to":{"name":"Terminus Chicoutimi","stopId":"1:1289","stopCode":"1289","lon":-71.066163,"lat":48.428677,"arrival":1522719660000,"departure":1522719900000,"zoneId":"NA","stopIndex":35,"stopSequence":36,"vertexType":"TRANSIT"},"legGeometry":{"points":"_vsfHthqpL`IjIRPb@^r@d@rAp@\\T\\ZNVRd@J\\Nd@Hf@F`@@DFr@LtAJpB@jAAt@ObEIzAKbBUrBMp@Sn@gAlCk@pAw@fCwB|HCNk@jCeDuAq@UC?mG_CaHiCsJqD_A]VvC\\`Ch@rCj@tBf@bBxDxJN\\bAjCTnAHvA@|@CPIpAe@pDUfBCTEXK~@MxAEn@@v@Bp@Dr@l@~HNlAH\\@HLd@\\z@Xd@X\\RTXRr@Zn@PfExAvDpALnBJt@Pp@Nj@l@tBHZPn@`@rBNnAFr@DbA?bB@jABzA?p@A???A???A?A???A@??A?A@??A@?@A??@A@???@A@?@?@A@?@?@?@?@???@?@?@?@?@?@@@?@?@@@?@@@?@@@?@@?@@??@@@?E`@Kr@]rACVEl@I|AAr@JbAWJe@FUAM?a@Ke@YYWWa@v@}@RQPMz@k@tAe@REZG^Af@@X@VF`@Jn@XbClAr@Xt\\`PrAb@pA^hBTjAFj@Pb@JPHLLJNJRFXDT?X?ZEVEVKTMNMHMFOB}DWSGOSYcAN}FFkAF}DJyDPwGvAHN_HDiB@m@","length":205},"routeShortName":"24","routeLongName":"Saint-Luc","rentedBike":false,"transitLeg":true,"duration":772.0,"steps":[]},{"startTime":1522719900000,"endTime":1522720245000,"departureDelay":0,"arrivalDelay":0,"realTime":false,"distance":1854.3190171871854,"pathway":false,"mode":"BUS","route":"11","agencyName":"Société de Transport du Saguenay","agencyUrl":"http://ville.saguenay.ca/fr/services-aux-citoyens/transport-sts","agencyTimeZoneOffset":-14400000,"routeColor":"FF0000","routeType":3,"routeId":"1:11","routeTextColor":"FFFFFF","interlineWithPreviousLeg":false,"tripBlockId":"35","headsign":"Boul.Royaume/St-Pierre","agencyId":"0","tripId":"1:218272","serviceDate":"20180402","from":{"name":"Terminus Chicoutimi","stopId":"1:1289","stopCode":"1289","lon":-71.066163,"lat":48.428677,"arrival":1522719660000,"departure":1522719900000,"zoneId":"NA","stopIndex":0,"stopSequence":1,"vertexType":"TRANSIT"},"to":{"name":"Saint-Paul / Cimon","stopId":"1:423","stopCode":"423","lon":-71.079825,"lat":48.41719,"arrival":1522720245000,"departure":1522720246000,"zoneId":"NA","stopIndex":10,"stopSequence":11,"vertexType":"TRANSIT"},"legGeometry":{"points":"evqfHzcwpLk@?UhKfIh@dKp@GnDIfDOtEE~@Ff@x@rEF~@CbAALO~ADRNJXBr@DfGRPBPJLN@@FPFTBX?TE`BhBR@?J@NELKFOlAiDL[bA`AfIjIbGdGzDzD`A~An@`A","length":43},"routeShortName":"11","routeLongName":"Chic/Faubourg via St-Paul","rentedBike":false,"transitLeg":true,"duration":345.0,"steps":[]},{"startTime":1522720246000,"endTime":1522720499000,"departureDelay":0,"arrivalDelay":0,"realTime":false,"distance":322.843,"pathway":false,"mode":"WALK","route":"","agencyTimeZoneOffset":-14400000,"interlineWithPreviousLeg":false,"from":{"name":"Saint-Paul / Cimon","stopId":"1:423","stopCode":"423","lon":-71.079825,"lat":48.41719,"arrival":1522720245000,"departure":1522720246000,"zoneId":"NA","stopIndex":10,"stopSequence":11,"vertexType":"TRANSIT"},"to":{"name":"Destination","lon":-71.083128,"lat":48.41803,"arrival":1522720499000,"orig":"","vertexType":"NORMAL"},"legGeometry":{"points":"cnofHnwypLIOg@w@iA|CYxAk@`DiAzG","length":7},"rentedBike":false,"transitLeg":false,"duration":253.0,"steps":[{"distance":38.302,"relativeDirection":"DEPART","streetName":"Rue Saint-Paul","absoluteDirection":"NORTHEAST","stayOn":false,"area":false,"bogusName":false,"lon":-71.07975235507416,"lat":48.417143630279,"elevation":[]},{"distance":284.541,"relativeDirection":"LEFT","streetName":"Rue Cimon","absoluteDirection":"NORTHWEST","stayOn":false,"area":false,"bogusName":false,"lon":-71.0793926,"lat":48.417391900000005,"elevation":[]}]}],"tooSloped":false}]},"debugOutput":{"precalculationTime":19,"pathCalculationTime":21,"pathTimes":[14,4,3],"renderingTime":1,"totalTime":41,"timedOut":false},"elevationMetadata":{"ellipsoidToGeoidDifference":-28.885904201182168,"geoidElevation":false}}