{"requestParameters":{"date":"2018/04/02","walkSpeed":"1.33","walkReluctance":"2.0","fromPlace":"48.42036,-71.061801","maxWalkDistance":"3000","waitReluctance":"1.0","carSpeed":"33","numItineraries":"3","waitAtBeginningFactor":"0.4","mode":"TRANSIT,WALK","ignoreRealtimeUpdates":"false","stairsReluctance":"2.0","toPlace":"48.440366,-71.03802","time":"15:30:00"},"plan":{"date":1522697400000,"from":{"name":"Origin","lon":-71.061801,"lat":48.42036,"orig":"","vertexType":"NORMAL"},"to":{"name":"Destination","lon":-71.03802,"lat":48.440366,"orig":"","vertexType":"NORMAL"},"itineraries":[{"duration":2106,"startTime":1522699018000,"endTime":1522701124000,"walkTime":348,"transitTime":1336,"waitingTime":422,"walkDistance":439.70724059839836,"walkLimitExceeded":false,"elevationLost":0.0,"elevationGained":0.0,"transfers":1,"legs":[{"startTime":1522699018000,"endTime":1522699131000,"departureDelay":0,"arrivalDelay":0,"realTime":false,"distance":139.327,"pathway":false,"mode":"WALK","route":"","agencyTimeZoneOffset":-14400000,"interlineWithPreviousLeg":false,"from":{"name":"Origin","lon":-71.061801,"lat":48.42036,"departure":1522699018000,"orig":"","vertexType":"NORMAL"},"to":{"name":"Centre George Vézina (Bégin)","stopId":"1:583","stopCode":"583","lon":-71.0606,"lat":48.4201,"arrival":1522699131000,"departure":1522699132000,"zoneId":"NA","stopIndex":28,"stopSequence":29,"vertexType":"TRANSIT"},"legGeometry":{"points":"cdpfHbgvpL@aA@y@@qAp@?PIJWRR","length":8},"rentedBike":false,"transitLeg":false,"duration":113.0,"steps":[{"distance":76.278,"relativeDirection":"DEPART","streetName":"path","absoluteDirection":"EAST","stayOn":false,"area":false,"bogusName":false,"lon":-71.06177859566745,"lat":48.42066097034975,"elevation":[]},{"distance":49.063,"relativeDirection":"RIGHT","streetName":"Rue LaFontaine","absoluteDirection":"SOUTH","stayOn":false,"area":false,"bogusName":false,"lon":-71.0607459,"lat":48.4206323,"elevation":[]},{"distance":13.986,"relativeDirection":"RIGHT","streetName":"Rue Bégin","absoluteDirection":"SOUTHWEST","stayOn":false,"area":false,"bogusName":false,"lon":-71.0605723,"lat":48.4202391,"elevation":[]}]},{"startTime":1522699132000,"endTime":1522699680000,"departureDelay":0,"arrivalDelay":0,"realTime":false,"distance":2494.889526397538,"pathway":false,"mode":"BUS","route":"15","agencyName":"Société de Transport du Saguenay","agencyUrl":"http://ville.saguenay.ca/fr/services-aux-citoyens/transport-sts","agencyTimeZoneOffset":-14400000,"routeColor":"FF00FF","routeType":3,"routeId":"1:15","routeTextColor":"FFFFFF","interlineWithPreviousLeg":false,"tripBlockId":"32","headsign":"Terminus Chicoutimi","agencyId":"0","tripId":"1:218165","serviceDate":"20180402","from":{"name":"Centre George Vézina (Bégin)","stopId":"1:583","stopCode":"583","lon":-71.0606,"lat":48.4201,"arrival":1522699131000,"departure":1522699132000,"zoneId":"NA","stopIndex":28,"stopSequence":29,"vertexType":"TRANSIT"},"to":{"name":"Terminus Chicoutimi","stopId":"1:1289","stopCode":"1289","lon":-71.066163,"lat":48.428677,"arrival":1522699680000,"departure":1522700100000,"zoneId":"NA","stopIndex":39,"stopSequence":40,"vertexType":"TRANSIT"},"legGeometry":{"points":"y`pfHh`vpLUUwBaCj@wCjAsCzGoG_CoHL{D_@kAqD{CQr@iAcAy@w@L{@wAuA_B_B_EpLDh@NbBVvCIxBg@`Am@l@Sb@a@rAqDqDmEkE]a@kAqAU|@WnKG|DGxDOdPKvJU|F?XQlJC~@ChAIzEcCOaIi@VwL","length":44},"routeShortName":"15","routeLongName":"Term. Chic / Costco","rentedBike":false,"transitLeg":true,"duration":548.0,"steps":[]},{"startTime":1522700100000,"endTime":1522700888000,"departureDelay":0,"arrivalDelay":0,"realTime":false,"distance":5035.447984414477,"pathway":false,"mode":"BUS","route":"24","agencyName":"Société de Transport du Saguenay","agencyUrl":"http://ville.saguenay.ca/fr/services-aux-citoyens/transport-sts","agencyTimeZoneOffset":-14400000,"routeColor":"00FF00","routeType":3,"routeId":"1:24","routeTextColor":"000000","interlineWithPreviousLeg":false,"tripBlockId":"5","headsign":"Terminus Chicoutimi","agencyId":"0","tripId":"1:217269","serviceDate":"20180402","from":{"name":"Terminus Chicoutimi","stopId":"1:1289","stopCode":"1289","lon":-71.066163,"lat":48.428677,"arrival":1522699680000,"departure":1522700100000,"zoneId":"NA","stopIndex":0,"stopSequence":1,"vertexType":"TRANSIT"},"to":{"name":"Roussel / Sabrina","stopId":"1:821","stopCode":"821","lon":-71.036499,"lat":48.438915,"arrival":1522700888000,"departure":1522700889000,"zoneId":"NA","stopIndex":17,"stopSequence":18,"vertexType":"TRANSIT"},"legGeometry":{"points":"evqfHzcwpLg@?EhBO~GoBKCp@O\\WjGOfGCRK^KJMHQB_AMg@Gm\\wO]i@wAyA_@WUKMEwEm@Js@Da@??@@??@?@???@???@?@??A@???@A@??A@??A@A??@A?A??@A?A?A?A@A?A???A?A?A???A?A?A?A???A?AAA?A???AAA?A??AA?AA??AA??A??AA??A??AA?A???A????q@C{AAaB?mAEcAGs@OoAa@sB[kAYcASq@Ok@Qq@Ku@MoBKmAa@eHi@FKC_@I??iE}Ah@}DH}@?c@Ea@[_BA?My@Cm@?Y@g@Hu@b@sD\\_DBSyHsC_@MBQA}@IwAUoAcAkCWo@qDgJg@cBk@uBi@sC]aCWwCiKuDwQuGDWbAoGV{AxG~BPFhCdAn@Lx@BxA]QeDI}AzAW~ASQoDg@eKG{A?_@?m@?i@LeCJkAd@yGxAqSBs@p@^VRPRbF~FlCxBxB|B~JjK","length":172},"routeShortName":"24","routeLongName":"Saint-Luc","rentedBike":false,"transitLeg":true,"duration":788.0,"steps":[]},{"startTime":1522700889000,"endTime":1522701124000,"departureDelay":0,"arrivalDelay":0,"realTime":false,"distance":300.28400000000005,"pathway":false,"mode":"WALK","route":"","agencyTimeZoneOffset":-14400000,"interlineWithPreviousLeg":false,"from":{"name":"Roussel / Sabrina","stopId":"1:821","stopCode":"821","lon":-71.036499,"lat":48.438915,"arrival":1522700888000,"departure":1522700889000,"zoneId":"NA","stopIndex":17,"stopSequence":18,"vertexType":"TRANSIT"},"to":{"name":"Destination","lon":-71.03802,"lat":48.440366,"arrival":1522701124000,"orig":"","vertexType":"NORMAL"},"legGeometry":{"points":"{usfHjhqpLWWQOeAcAg@g@[z@O^Wx@[x@Sh@ELe@|A]~A?@","length":14},"rentedBike":false,"transitLeg":false,"duration":235.0,"steps":[{"distance":100.739,"relativeDirection":"DEPART","streetName":"Rue Roussel","absoluteDirection":"NORTHEAST","stayOn":false,"area":false,"bogusName":false,"lon":-71.03637845087752,"lat":48.43886349987849,"elevation":[]},{"distance":199.54500000000002,"relativeDirection":"LEFT","streetName":"Rue Diana","absoluteDirection":"NORTHWEST","stayOn":false,"area":false,"bogusName":false,"lon":-71.0356349,"lat":48.4396234,"elevation":[]}]}],"tooSloped":false},{"duration":2066,"startTime":1522700858000,"endTime":1522702924000,"walkTime":1276,"transitTime":788,"waitingTime":2,"walkDistance":1645.669796988648,"walkLimitExceeded":false,"elevationLost":0.0,"elevationGained":0.0,"transfers":0,"legs":[{"startTime":1522700858000,"endTime":1522701899000,"departureDelay":0,"arrivalDelay":0,"realTime":false,"distance":1345.2669999999998,"pathway":false,"mode":"WALK","route":"","agencyTimeZoneOffset":-14400000,"interlineWithPreviousLeg":false,"from":{"name":"Origin","lon":-71.061801,"lat":48.42036,"departure":1522700858000,"orig":"","vertexType":"NORMAL"},"to":{"name":"Terminus Chicoutimi","stopId":"1:1289","stopCode":"1289","lon":-71.066163,"lat":48.428677,"arrival":1522701899000,"departure":1522701900000,"zoneId":"NA","stopIndex":0,"stopSequence":1,"vertexType":"TRANSIT"},"legGeometry":{"points":"cdpfHbgvpL@aA@y@@qAi@AMAm@hQAb@An@EtBCj@QfHMAM?qBCs@?O?}@EcAIw@EuAKs@CgDS}AKQG_@C{BUsAGkCQQAsBIc@MKESAcAK","length":35},"rentedBike":false,"transitLeg":false,"duration":1041.0,"steps":[{"distance":76.278,"relativeDirection":"DEPART","streetName":"path","absoluteDirection":"EAST","stayOn":false,"area":false,"bogusName":false,"lon":-71.06177859566745,"lat":48.42066097034975,"elevation":[]},{"distance":31.787,"relativeDirection":"LEFT","streetName":"Rue LaFontaine","absoluteDirection":"NORTH","stayOn":false,"area":false,"bogusName":false,"lon":-71.0607459,"lat":48.4206323,"elevation":[]},{"distance":418.618,"relativeDirection":"LEFT","streetName":"Boulevard de l'Université","absoluteDirection":"WEST","stayOn":false,"area":false,"bogusName":false,"lon":-71.0607224,"lat":48.420917700000004,"elevation":[]},{"distance":818.5840000000001,"relativeDirection":"RIGHT","streetName":"Rue Morin","absoluteDirection":"NORTH","stayOn":false,"area":false,"bogusName":false,"lon":-71.06636540000001,"lat":48.4213,"elevation":[]}]},{"startTime":1522701900000,"endTime":1522702688000,"departureDelay":0,"arrivalDelay":0,"realTime":false,"distance":5035.447984414477,"pathway":false,"mode":"BUS","route":"24","agencyName":"Société de Transport du Saguenay","agencyUrl":"http://ville.saguenay.ca/fr/services-aux-citoyens/transport-sts","agencyTimeZoneOffset":-14400000,"routeColor":"00FF00","routeType":3,"routeId":"1:24","routeTextColor":"000000","interlineWithPreviousLeg":false,"tripBlockId":"4","headsign":"Terminus Chicoutimi","agencyId":"0","tripId":"1:217243","serviceDate":"20180402","from":{"name":"Terminus Chicoutimi","stopId":"1:1289","stopCode":"1289","lon":-71.066163,"lat":48.428677,"arrival":1522701899000,"departure":1522701900000,"zoneId":"NA","stopIndex":0,"stopSequence":1,"vertexType":"TRANSIT"},"to":{"name":"Roussel / Sabrina","stopId":"1:821","stopCode":"821","lon":-71.036499,"lat":48.438915,"arrival":1522702688000,"departure":1522702689000,"zoneId":"NA","stopIndex":17,"stopSequence":18,"vertexType":"TRANSIT"},"legGeometry":{"points":"evqfHzcwpLg@?EhBO~GoBKCp@O\\WjGOfGCRK^KJMHQB_AMg@Gm\\wO]i@wAyA_@WUKMEwEm@Js@Da@??@@??@?@???@???@?@??A@???@A@??A@??A@A??@A?A??@A?A?A?A@A?A???A?A?A???A?A?A?A???A?AAA?A???AAA?A??AA?AA??AA??A??AA??A??AA?A???A????q@C{AAaB?mAEcAGs@OoAa@sB[kAYcASq@Ok@Qq@Ku@MoBKmAa@eHi@FKC_@I??iE}Ah@}DH}@?c@Ea@[_BA?My@Cm@?Y@g@Hu@b@sD\\_DBSyHsC_@MBQA}@IwAUoAcAkCWo@qDgJg@cBk@uBi@sC]aCWwCiKuDwQuGDWbAoGV{AxG~BPFhCdAn@Lx@BxA]QeDI}AzAW~ASQoDg@eKG{A?_@?m@?i@LeCJkAd@yGxAqSBs@p@^VRPRbF~FlCxBxB|B~JjK","length":172},"routeShortName":"24","routeLongName":"Saint-Luc","rentedBike":false,"transitLeg":true,"duration":788.0,"steps":[]},{"startTime":1522702689000,"endTime":1522702924000,"departureDelay":0,"arrivalDelay":0,"realTime":false,"distance":300.28400000000005,"pathway":false,"mode":"WALK","route":"","agencyTimeZoneOffset":-14400000,"interlineWithPreviousLeg":false,"from":{"name":"Roussel / Sabrina","stopId":"1:821","stopCode":"821","lon":-71.036499,"lat":48.438915,"arrival":1522702688000,"departure":1522702689000,"zoneId":"NA","stopIndex":17,"stopSequence":18,"vertexType":"TRANSIT"},"to":{"name":"Destination","lon":-71.03802,"lat":48.440366,"arrival":1522702924000,"orig":"","vertexType":"NORMAL"},"legGeometry":{"points":"{usfHjhqpLWWQOeAcAg@g@[z@O^Wx@[x@Sh@ELe@|A]~A?@","length":14},"rentedBike":false,"transitLeg":false,"duration":235.0,"steps":[{"distance":100.739,"relativeDirection":"DEPART","streetName":"Rue Roussel","absoluteDirection":"NORTHEAST","stayOn":false,"area":false,"bogusName":false,"lon":-71.03637845087752,"lat":48.43886349987849,"elevation":[]},{"distance":199.54500000000002,"relativeDirection":"LEFT","streetName":"Rue Diana","absoluteDirection":"NORTHWEST","stayOn":false,"area":false,"bogusName":false,"lon":-71.0356349,"lat":48.4396234,"elevation":[]}]}],"tooSloped":false},{"duration":2066,"startTime":1522702658000,"endTime":1522704724000,"walkTime":1276,"transitTime":788,"waitingTime":2,"walkDistance":1645.669796988648,"walkLimitExceeded":false,"elevationLost":0.0,"elevationGained":0.0,"transfers":0,"legs":[{"startTime":1522702658000,"endTime":1522703699000,"departureDelay":0,"arrivalDelay":0,"realTime":false,"distance":1345.2669999999998,"pathway":false,"mode":"WALK","route":"","agencyTimeZoneOffset":-14400000,"interlineWithPreviousLeg":false,"from":{"name":"Origin","lon":-71.061801,"lat":48.42036,"departure":1522702658000,"orig":"","vertexType":"NORMAL"},"to":{"name":"Terminus Chicoutimi","stopId":"1:1289","stopCode":"1289","lon":-71.066163,"lat":48.428677,"arrival":1522703699000,"departure":1522703700000,"zoneId":"NA","stopIndex":0,"stopSequence":1,"vertexType":"TRANSIT"},"legGeometry":{"points":"cdpfHbgvpL@aA@y@@qAi@AMAm@hQAb@An@EtBCj@QfHMAM?qBCs@?O?}@EcAIw@EuAKs@CgDS}AKQG_@C{BUsAGkCQQAsBIc@MKESAcAK","length":35},"rentedBike":false,"transitLeg":false,"duration":1041.0,"steps":[{"distance":76.278,"relativeDirection":"DEPART","streetName":"path","absoluteDirection":"EAST","stayOn":false,"area":false,"bogusName":false,"lon":-71.06177859566745,"lat":48.42066097034975,"elevation":[]},{"distance":31.787,"relativeDirection":"LEFT","streetName":"Rue LaFontaine","absoluteDirection":"NORTH","stayOn":false,"area":false,"bogusName":false,"lon":-71.0607459,"lat":48.4206323,"elevation":[]},{"distance":418.618,"relativeDirection":"LEFT","streetName":"Boulevard de l'Université","absoluteDirection":"WEST","stayOn":false,"area":false,"bogusName":false,"lon":-71.0607224,"lat":48.420917700000004,"elevation":[]},{"distance":818.5840000000001,"relativeDirection":"RIGHT","streetName":"Rue Morin","absoluteDirection":"NORTH","stayOn":false,"area":false,"bogusName":false,"lon":-71.06636540000001,"lat":48.4213,"elevation":[]}]},{"startTime":1522703700000,"endTime":1522704488000,"departureDelay":0,"arrivalDelay":0,"realTime":false,"distance":5035.447984414477,"pathway":false,"mode":"BUS","route":"24","agencyName":"Société de Transport du Saguenay","agencyUrl":"http://ville.saguenay.ca/fr/services-aux-citoyens/transport-sts","agencyTimeZoneOffset":-14400000,"routeColor":"00FF00","routeType":3,"routeId":"1:24","routeTextColor":"000000","interlineWithPreviousLeg":false,"tripBlockId":"5","headsign":"Terminus Chicoutimi","agencyId":"0","tripId":"1:217271","serviceDate":"20180402","from":{"name":"Terminus Chicoutimi","stopId":"1:1289","stopCode":"1289","lon":-71.066163,"lat":48.428677,"arrival":1522703699000,"departure":1522703700000,"zoneId":"NA","stopIndex":0,"stopSequence":1,"vertexType":"TRANSIT"},"to":{"name":"Roussel / Sabrina","stopId":"1:821","stopCode":"821","lon":-71.036499,"lat":48.438915,"arrival":1522704488000,"departure":1522704489000,"zoneId":"NA","stopIndex":17,"stopSequence":18,"vertexType":"TRANSIT"},"legGeometry":{"points":"evqfHzcwpLg@?EhBO~GoBKCp@O\\WjGOfGCRK^KJMHQB_AMg@Gm\\wO]i@wAyA_@WUKMEwEm@Js@Da@??@@??@?@???@???@?@??A@???@A@??A@??A@A??@A?A??@A?A?A?A@A?A???A?A?A???A?A?A?A???A?AAA?A???AAA?A??AA?AA??AA??A??AA??A??AA?A???A????q@C{AAaB?mAEcAGs@OoAa@sB[kAYcASq@Ok@Qq@Ku@MoBKmAa@eHi@FKC_@I??iE}Ah@}DH}@?c@Ea@[_BA?My@Cm@?Y@g@Hu@b@sD\\_DBSyHsC_@MBQA}@IwAUoAcAkCWo@qDgJg@cBk@uBi@sC]aCWwCiKuDwQuGDWbAoGV{AxG~BPFhCdAn@Lx@BxA]QeDI}AzAW~ASQoDg@eKG{A?_@?m@?i@LeCJkAd@yGxAqSBs@p@^VRPRbF~FlCxBxB|B~JjK","length":172},"routeShortName":"24","routeLongName":"Saint-Luc","rentedBike":false,"transitLeg":true,"duration":788.0,"steps":[]},{"startTime":1522704489000,"endTime":1522704724000,"departureDelay":0,"arrivalDelay":0,"realTime":false,"distance":300.28400000000005,"pathway":false,"mode":"WALK","route":"","agencyTimeZoneOffset":-14400000,"interlineWithPreviousLeg":false,"from":{"name":"Roussel / Sabrina","stopId":"1:821","stopCode":"821","lon":-71.036499,"lat":48.438915,"arrival":1522704488000,"departure":1522704489000,"zoneId":"NA","stopIndex":17,"stopSequence":18,"vertexType":"TRANSIT"},"to":{"name":"Destination","lon":-71.03802,"lat":48.440366,"arrival":1522704724000,"orig":"","vertexType":"NORMAL"},"legGeometry":{"points":"{usfHjhqpLWWQOeAcAg@g@[z@O^Wx@[x@Sh@ELe@|A]~A?@","length":14},"rentedBike":false,"transitLeg":false,"duration":235.0,"steps":[{"distance":100.739,"relativeDirection":"DEPART","streetName":"Rue Roussel","absoluteDirection":"NORTHEAST","stayOn":false,"area":false,"bogusName":false,"lon":-71.03637845087752,"lat":48.43886349987849,"elevation":[]},{"distance":199.54500000000002,"relativeDirection":"LEFT","streetName":"Rue Diana","absoluteDirection":"NORTHWEST","stayOn":false,"area":false,"bogusName":false,"lon":-71.0356349,"lat":48.4396234,"elevation":[]}]}],"tooSloped":false}]},"debugOutput":{"precalculationTime":33,"pathCalculationTime":79,"pathTimes":[32,22,25],"renderingTime":0,"totalTime":112,"timedOut":false},"elevationMetadata":{"ellipsoidToGeoidDifference":-28.885904201182168,"geoidElevation":false}}