{"requestParameters":{"date":"2018/04/02","walkSpeed":"1.33","walkReluctance":"2.0","fromPlace":"48.399871,-71.08912598","maxWalkDistance":"3000","waitReluctance":"1.0","carSpeed":"33","numItineraries":"3","waitAtBeginningFactor":"0.4","mode":"TRANSIT,WALK","ignoreRealtimeUpdates":"false","stairsReluctance":"2.0","toPlace":"48.42175,-71.058578","time":"10:0:00"},"plan":{"date":1522677600000,"from":{"name":"Origin","lon":-71.08912598,"lat":48.399871,"orig":"","vertexType":"NORMAL"},"to":{"name":"Destination","lon":-71.058578,"lat":48.42175,"orig":"","vertexType":"NORMAL"},"itineraries":[{"duration":1487,"startTime":1522678028000,"endTime":1522679515000,"walkTime":298,"transitTime":1187,"waitingTime":2,"walkDistance":370.69950375612325,"walkLimitExceeded":false,"elevationLost":0.0,"elevationGained":0.0,"transfers":0,"legs":[{"startTime":1522678028000,"endTime":1522678144000,"departureDelay":0,"arrivalDelay":0,"realTime":false,"distance":135.29000000000002,"pathway":false,"mode":"WALK","route":"","agencyTimeZoneOffset":-14400000,"interlineWithPreviousLeg":false,"from":{"name":"Origin","lon":-71.08912598,"lat":48.399871,"departure":1522678028000,"orig":"","vertexType":"NORMAL"},"to":{"name":"boul. Barrette / passerelle rue Balzac","stopId":"1:44","stopCode":"44","lon":-71.089717,"lat":48.400646,"arrival":1522678144000,"departure":1522678145000,"zoneId":"NA","stopIndex":30,"stopSequence":31,"vertexType":"TRANSIT"},"legGeometry":{"points":"cblfHzq{pLGEQBMXi@jCiAu@CJ","length":7},"rentedBike":false,"transitLeg":false,"duration":116.0,"steps":[{"distance":15.107,"relativeDirection":"DEPART","streetName":"Rue Colette","absoluteDirection":"NORTH","stayOn":false,"area":false,"bogusName":false,"lon":-71.0890922152931,"lat":48.39986089903233,"elevation":[]},{"distance":69.466,"relativeDirection":"LEFT","streetName":"Rue Balzac","absoluteDirection":"NORTHWEST","stayOn":false,"area":false,"bogusName":false,"lon":-71.0890818,"lat":48.3999922,"elevation":[]},{"distance":45.643,"relativeDirection":"RIGHT","streetName":"path","absoluteDirection":"NORTHEAST","stayOn":false,"area":false,"bogusName":true,"lon":-71.0899188,"lat":48.400272900000004,"elevation":[]},{"distance":5.074,"relativeDirection":"LEFT","streetName":"bike path","absoluteDirection":"NORTHWEST","stayOn":true,"area":false,"bogusName":true,"lon":-71.0896446,"lat":48.400640800000005,"elevation":[]}]},{"startTime":1522678145000,"endTime":1522678260000,"departureDelay":0,"arrivalDelay":0,"realTime":false,"distance":1698.2474604213025,"pathway":false,"mode":"BUS","route":"14","agencyName":"Société de Transport du Saguenay","agencyUrl":"http://ville.saguenay.ca/fr/services-aux-citoyens/transport-sts","agencyTimeZoneOffset":-14400000,"routeColor":"C0C000","routeType":3,"routeId":"1:14","routeTextColor":"000000","interlineWithPreviousLeg":false,"tripBlockId":"30","headsign":"Talbot / Barrette","agencyId":"0","tripId":"1:218093","serviceDate":"20180402","from":{"name":"boul. Barrette / passerelle rue Balzac","stopId":"1:44","stopCode":"44","lon":-71.089717,"lat":48.400646,"arrival":1522678144000,"departure":1522678145000,"zoneId":"NA","stopIndex":30,"stopSequence":31,"vertexType":"TRANSIT"},"to":{"name":"Roitelets / Sapins","stopId":"1:1543","stopCode":"1543","lon":-71.069553,"lat":48.393375,"arrival":1522678260000,"departure":1522678260000,"zoneId":"NA","stopIndex":35,"stopSequence":36,"vertexType":"TRANSIT"},"legGeometry":{"points":"{glfHdu{pLtGm[j@oCvEoSl@_CxCmLjAeFpCeKrByHfAqCvH_SLa@","length":12},"routeShortName":"14","routeLongName":"Coopérative","rentedBike":false,"transitLeg":true,"duration":115.0,"steps":[]},{"startTime":1522678260000,"endTime":1522679332000,"departureDelay":0,"arrivalDelay":0,"realTime":false,"distance":6677.593015986816,"pathway":false,"mode":"BUS","route":"15","agencyName":"Société de Transport du Saguenay","agencyUrl":"http://ville.saguenay.ca/fr/services-aux-citoyens/transport-sts","agencyTimeZoneOffset":-14400000,"routeColor":"FF00FF","routeType":3,"routeId":"1:15","routeTextColor":"FFFFFF","interlineWithPreviousLeg":true,"tripBlockId":"30","headsign":"Terminus Chicoutimi","agencyId":"0","tripId":"1:218094","serviceDate":"20180402","from":{"name":"Roitelets / Sapins","stopId":"1:1543","stopCode":"1543","lon":-71.069553,"lat":48.393375,"arrival":1522678260000,"departure":1522678260000,"zoneId":"NA","stopIndex":0,"stopSequence":1,"vertexType":"TRANSIT"},"to":{"name":"Centre George Vézina (Bégin)","stopId":"1:583","stopCode":"583","lon":-71.0606,"lat":48.4201,"arrival":1522679332000,"departure":1522679333000,"zoneId":"NA","stopIndex":28,"stopSequence":29,"vertexType":"TRANSIT"},"legGeometry":{"points":"_zjfHfwwpLx@}BHa@NaADq@@y@Cy@I{@Ka@O[Sg@c@mAWwAMyA?EC]?wABuABmFB{@BmDFuH@i@F[FsC@c@TuGEGVsHPuDLuBXsFDoA?W@]Cu@GcAKu@Q_ASo@a@y@a@o@MOUUeCqBiDsDqE{EiAcAcB_AqBgA_AQaBSaBG_@Bu@FG?h@fNKnDpCfBkAzDgA}@y@q@sDy@GAeGT~@~KKrKyAnL[hBUxAm@nCcAlDeCvGmA|CUr@}@~A_@\\_DvCEZcA|@UP_@d@Yl@oBdFeCxG_CfGYVQXS\\dK|HlFZbC\\p@zA\\rB@hBiArG{BNw@FiG}@iDwAECcCcBo@y@sEeGe@o@qAa@m@MoB?C@}BZwAc@oA_Bs@gDCKZ{Di@QECc@_@sAkAoBwB_EcE{A_BoAmAk@o@cCaCkIkIaJaJ","length":127},"routeShortName":"15","routeLongName":"Term. Chic / Costco","rentedBike":false,"transitLeg":true,"duration":1072.0,"steps":[]},{"startTime":1522679333000,"endTime":1522679515000,"departureDelay":0,"arrivalDelay":0,"realTime":false,"distance":235.308,"pathway":false,"mode":"WALK","route":"","agencyTimeZoneOffset":-14400000,"interlineWithPreviousLeg":false,"from":{"name":"Centre George Vézina (Bégin)","stopId":"1:583","stopCode":"583","lon":-71.0606,"lat":48.4201,"arrival":1522679332000,"departure":1522679333000,"zoneId":"NA","stopIndex":28,"stopSequence":29,"vertexType":"TRANSIT"},"to":{"name":"Destination","lon":-71.058578,"lat":48.42175,"arrival":1522679515000,"orig":"","vertexType":"NORMAL"},"legGeometry":{"points":"y`pfHf`vpLSScAeAg@i@KMYYSQ{B{Bg@i@","length":9},"rentedBike":false,"transitLeg":false,"duration":182.0,"steps":[{"distance":235.308,"relativeDirection":"DEPART","streetName":"Rue Bégin","absoluteDirection":"NORTHEAST","stayOn":false,"area":false,"bogusName":false,"lon":-71.06067782404135,"lat":48.420134620151806,"elevation":[]}]}],"tooSloped":false},{"duration":1573,"startTime":1522678306000,"endTime":1522679879000,"walkTime":398,"transitTime":1173,"waitingTime":2,"walkDistance":495.90148120002345,"walkLimitExceeded":false,"elevationLost":0.0,"elevationGained":0.0,"transfers":0,"legs":[{"startTime":1522678306000,"endTime":1522678438000,"departureDelay":0,"arrivalDelay":0,"realTime":false,"distance":157.983,"pathway":false,"mode":"WALK","route":"","agencyTimeZoneOffset":-14400000,"interlineWithPreviousLeg":false,"from":{"name":"Origin","lon":-71.08912598,"lat":48.399871,"departure":1522678306000,"orig":"","vertexType":"NORMAL"},"to":{"name":"boul. Barrette passerelle Verlaine","stopId":"1:1899","stopCode":"1899","lon":-71.089455,"lat":48.400859,"arrival":1522678438000,"departure":1522678439000,"zoneId":"NA","stopIndex":5,"stopSequence":6,"vertexType":"TRANSIT"},"legGeometry":{"points":"cblfHzq{pLGEQBMXi@jCiAu@SMSOCA","length":9},"rentedBike":false,"transitLeg":false,"duration":132.0,"steps":[{"distance":15.107,"relativeDirection":"DEPART","streetName":"Rue Colette","absoluteDirection":"NORTH","stayOn":false,"area":false,"bogusName":false,"lon":-71.0890922152931,"lat":48.39986089903233,"elevation":[]},{"distance":69.466,"relativeDirection":"LEFT","streetName":"Rue Balzac","absoluteDirection":"NORTHWEST","stayOn":false,"area":false,"bogusName":false,"lon":-71.0890818,"lat":48.3999922,"elevation":[]},{"distance":73.41000000000001,"relativeDirection":"RIGHT","streetName":"path","absoluteDirection":"NORTHEAST","stayOn":false,"area":false,"bogusName":true,"lon":-71.0899188,"lat":48.400272900000004,"elevation":[]}]},{"startTime":1522678439000,"endTime":1522679612000,"departureDelay":0,"arrivalDelay":0,"realTime":false,"distance":6774.506971393752,"pathway":false,"mode":"BUS","route":"14","agencyName":"Société de Transport du Saguenay","agencyUrl":"http://ville.saguenay.ca/fr/services-aux-citoyens/transport-sts","agencyTimeZoneOffset":-14400000,"routeColor":"C0C000","routeType":3,"routeId":"1:14","routeTextColor":"000000","interlineWithPreviousLeg":false,"tripBlockId":"31","headsign":"Terminus Chicoutimi","agencyId":"0","tripId":"1:218129","serviceDate":"20180402","from":{"name":"boul. Barrette passerelle Verlaine","stopId":"1:1899","stopCode":"1899","lon":-71.089455,"lat":48.400859,"arrival":1522678438000,"departure":1522678439000,"zoneId":"NA","stopIndex":5,"stopSequence":6,"vertexType":"TRANSIT"},"to":{"name":"Cégep de Chicoutimi (Bégin)","stopId":"1:66","stopCode":"66","lon":-71.056314,"lat":48.424377,"arrival":1522679612000,"departure":1522679613000,"zoneId":"NA","stopIndex":32,"stopSequence":33,"vertexType":"TRANSIT"},"legGeometry":{"points":"qglfHrt{pLaDxOdFtFhCtCdDY|F_On@aB`B_GNoBvAyT|@sNuAyAuF}F}AaB_BkAC@qC\\gAWiBwBiKgMiCwEgEyHCGy@uB}@rAa@nAc@lFEf@mGvUYfAqCs@ICMCqFmDc@s@mAkBuEoESUgAhDiAfD}@zDyAcA_@Um@U{AWgB_Au@s@EEsBkCqFgF{IiI][aBhE}@}@oBmBwE{EwE{Ej@mBZeAa@SyEQg@CPcALuCx@{b@t@{[XoDd@sBl@iB~@gA`G{F{A{D_@sBFqDOq@iG{FGIoCkCgBgBsDpLHzBBT`@~COnBQf@gAjAg@bBuDmD","length":88},"routeShortName":"14","routeLongName":"Coopérative","rentedBike":false,"transitLeg":true,"duration":1173.0,"steps":[]},{"startTime":1522679613000,"endTime":1522679879000,"departureDelay":0,"arrivalDelay":0,"realTime":false,"distance":337.826,"pathway":false,"mode":"WALK","route":"","agencyTimeZoneOffset":-14400000,"interlineWithPreviousLeg":false,"from":{"name":"Cégep de Chicoutimi (Bégin)","stopId":"1:66","stopCode":"66","lon":-71.056314,"lat":48.424377,"arrival":1522679612000,"departure":1522679613000,"zoneId":"NA","stopIndex":32,"stopSequence":33,"vertexType":"TRANSIT"},"to":{"name":"Destination","lon":-71.058578,"lat":48.42175,"arrival":1522679879000,"orig":"","vertexType":"NORMAL"},"legGeometry":{"points":"k{pfH`eupLJJ`A~@rAjAH^HHVVRN`AbAhAfAVXdAjAJHZZ","length":14},"rentedBike":false,"transitLeg":false,"duration":266.0,"steps":[{"distance":119.033,"relativeDirection":"DEPART","streetName":"sidewalk","absoluteDirection":"SOUTHWEST","stayOn":false,"area":false,"bogusName":true,"lon":-71.0563254039123,"lat":48.42438196430904,"elevation":[]},{"distance":218.793,"relativeDirection":"SLIGHTLY_LEFT","streetName":"Rue Bégin","absoluteDirection":"SOUTHWEST","stayOn":false,"area":false,"bogusName":false,"lon":-71.0572466,"lat":48.423523700000004,"elevation":[]}]}],"tooSloped":false},{"duration":1487,"startTime":1522679828000,"endTime":1522681315000,"walkTime":298,"transitTime":1187,"waitingTime":2,"walkDistance":370.69950375612325,"walkLimitExceeded":false,"elevationLost":0.0,"elevationGained":0.0,"transfers":0,"legs":[{"startTime":1522679828000,"endTime":1522679944000,"departureDelay":0,"arrivalDelay":0,"realTime":false,"distance":135.29000000000002,"pathway":false,"mode":"WALK","route":"","agencyTimeZoneOffset":-14400000,"interlineWithPreviousLeg":false,"from":{"name":"Origin","lon":-71.08912598,"lat":48.399871,"departure":1522679828000,"orig":"","vertexType":"NORMAL"},"to":{"name":"boul. Barrette / passerelle rue Balzac","stopId":"1:44","stopCode":"44","lon":-71.089717,"lat":48.400646,"arrival":1522679944000,"departure":1522679945000,"zoneId":"NA","stopIndex":30,"stopSequence":31,"vertexType":"TRANSIT"},"legGeometry":{"points":"cblfHzq{pLGEQBMXi@jCiAu@CJ","length":7},"rentedBike":false,"transitLeg":false,"duration":116.0,"steps":[{"distance":15.107,"relativeDirection":"DEPART","streetName":"Rue Colette","absoluteDirection":"NORTH","stayOn":false,"area":false,"bogusName":false,"lon":-71.0890922152931,"lat":48.39986089903233,"elevation":[]},{"distance":69.466,"relativeDirection":"LEFT","streetName":"Rue Balzac","absoluteDirection":"NORTHWEST","stayOn":false,"area":false,"bogusName":false,"lon":-71.0890818,"lat":48.3999922,"elevation":[]},{"distance":45.643,"relativeDirection":"RIGHT","streetName":"path","absoluteDirection":"NORTHEAST","stayOn":false,"area":false,"bogusName":true,"lon":-71.0899188,"lat":48.400272900000004,"elevation":[]},{"distance":5.074,"relativeDirection":"LEFT","streetName":"bike path","absoluteDirection":"NORTHWEST","stayOn":true,"area":false,"bogusName":true,"lon":-71.0896446,"lat":48.400640800000005,"elevation":[]}]},{"startTime":1522679945000,"endTime":1522680060000,"departureDelay":0,"arrivalDelay":0,"realTime":false,"distance":1698.2474604213025,"pathway":false,"mode":"BUS","route":"14","agencyName":"Société de Transport du Saguenay","agencyUrl":"http://ville.saguenay.ca/fr/services-aux-citoyens/transport-sts","agencyTimeZoneOffset":-14400000,"routeColor":"C0C000","routeType":3,"routeId":"1:14","routeTextColor":"000000","interlineWithPreviousLeg":false,"tripBlockId":"32","headsign":"Talbot / Barrette","agencyId":"0","tripId":"1:218154","serviceDate":"20180402","from":{"name":"boul. Barrette / passerelle rue Balzac","stopId":"1:44","stopCode":"44","lon":-71.089717,"lat":48.400646,"arrival":1522679944000,"departure":1522679945000,"zoneId":"NA","stopIndex":30,"stopSequence":31,"vertexType":"TRANSIT"},"to":{"name":"Roitelets / Sapins","stopId":"1:1543","stopCode":"1543","lon":-71.069553,"lat":48.393375,"arrival":1522680060000,"departure":1522680060000,"zoneId":"NA","stopIndex":35,"stopSequence":36,"vertexType":"TRANSIT"},"legGeometry":{"points":"{glfHdu{pLtGm[j@oCvEoSl@_CxCmLjAeFpCeKrByHfAqCvH_SLa@","length":12},"routeShortName":"14","routeLongName":"Coopérative","rentedBike":false,"transitLeg":true,"duration":115.0,"steps":[]},{"startTime":1522680060000,"endTime":1522681132000,"departureDelay":0,"arrivalDelay":0,"realTime":false,"distance":6677.593015986816,"pathway":false,"mode":"BUS","route":"15","agencyName":"Société de Transport du Saguenay","agencyUrl":"http://ville.saguenay.ca/fr/services-aux-citoyens/transport-sts","agencyTimeZoneOffset":-14400000,"routeColor":"FF00FF","routeType":3,"routeId":"1:15","routeTextColor":"FFFFFF","interlineWithPreviousLeg":true,"tripBlockId":"32","headsign":"Terminus Chicoutimi","agencyId":"0","tripId":"1:218155","serviceDate":"20180402","from":{"name":"Roitelets / Sapins","stopId":"1:1543","stopCode":"1543","lon":-71.069553,"lat":48.393375,"arrival":1522680060000,"departure":1522680060000,"zoneId":"NA","stopIndex":0,"stopSequence":1,"vertexType":"TRANSIT"},"to":{"name":"Centre George Vézina (Bégin)","stopId":"1:583","stopCode":"583","lon":-71.0606,"lat":48.4201,"arrival":1522681132000,"departure":1522681133000,"zoneId":"NA","stopIndex":28,"stopSequence":29,"vertexType":"TRANSIT"},"legGeometry":{"points":"_zjfHfwwpLx@}BHa@NaADq@@y@Cy@I{@Ka@O[Sg@c@mAWwAMyA?EC]?wABuABmFB{@BmDFuH@i@F[FsC@c@TuGEGVsHPuDLuBXsFDoA?W@]Cu@GcAKu@Q_ASo@a@y@a@o@MOUUeCqBiDsDqE{EiAcAcB_AqBgA_AQaBSaBG_@Bu@FG?h@fNKnDpCfBkAzDgA}@y@q@sDy@GAeGT~@~KKrKyAnL[hBUxAm@nCcAlDeCvGmA|CUr@}@~A_@\\_DvCEZcA|@UP_@d@Yl@oBdFeCxG_CfGYVQXS\\dK|HlFZbC\\p@zA\\rB@hBiArG{BNw@FiG}@iDwAECcCcBo@y@sEeGe@o@qAa@m@MoB?C@}BZwAc@oA_Bs@gDCKZ{Di@QECc@_@sAkAoBwB_EcE{A_BoAmAk@o@cCaCkIkIaJaJ","length":127},"routeShortName":"15","routeLongName":"Term. Chic / Costco","rentedBike":false,"transitLeg":true,"duration":1072.0,"steps":[]},{"startTime":1522681133000,"endTime":1522681315000,"departureDelay":0,"arrivalDelay":0,"realTime":false,"distance":235.308,"pathway":false,"mode":"WALK","route":"","agencyTimeZoneOffset":-14400000,"interlineWithPreviousLeg":false,"from":{"name":"Centre George Vézina (Bégin)","stopId":"1:583","stopCode":"583","lon":-71.0606,"lat":48.4201,"arrival":1522681132000,"departure":1522681133000,"zoneId":"NA","stopIndex":28,"stopSequence":29,"vertexType":"TRANSIT"},"to":{"name":"Destination","lon":-71.058578,"lat":48.42175,"arrival":1522681315000,"orig":"","vertexType":"NORMAL"},"legGeometry":{"points":"y`pfHf`vpLSScAeAg@i@KMYYSQ{B{Bg@i@","length":9},"rentedBike":false,"transitLeg":false,"duration":182.0,"steps":[{"distance":235.308,"relativeDirection":"DEPART","streetName":"Rue Bégin","absoluteDirection":"NORTHEAST","stayOn":false,"area":false,"bogusName":false,"lon":-71.06067782404135,"lat":48.420134620151806,"elevation":[]}]}],"tooSloped":false}]},"debugOutput":{"precalculationTime":35,"pathCalculationTime":23,"pathTimes":[17,3,3],"renderingTime":1,"totalTime":59,"timedOut":false},"elevationMetadata":{"ellipsoidToGeoidDifference":-28.885904201182168,"geoidElevation":false}}