{"requestParameters":{"date":"2018/04/02","walkSpeed":"1.33","walkReluctance":"2.0","fromPlace":"48.411025,-71.054072","maxWalkDistance":"3000","waitReluctance":"1.0","carSpeed":"33","numItineraries":"3","waitAtBeginningFactor":"0.4","mode":"TRANSIT,WALK","ignoreRealtimeUpdates":"false","stairsReluctance":"2.0","toPlace":"48.402555,-71.059413","time":"19:30:00"},"plan":{"date":1522711800000,"from":{"name":"Origin","lon":-71.054072,"lat":48.411025,"orig":"","vertexType":"NORMAL"},"to":{"name":"Destination","lon":-71.059413,"lat":48.402555,"orig":"","vertexType":"NORMAL"},"itineraries":[{"duration":1203,"startTime":1522711800000,"endTime":1522713003000,"walkTime":1203,"transitTime":0,"waitingTime":0,"walkDistance":1565.9665488683231,"walkLimitExceeded":false,"elevationLost":0.0,"elevationGained":0.0,"transfers":0,"legs":[{"startTime":1522711800000,"endTime":1522713003000,"departureDelay":0,"arrivalDelay":0,"realTime":false,"distance":1565.847,"pathway":false,"mode":"WALK","route":"","agencyTimeZoneOffset":-14400000,"interlineWithPreviousLeg":false,"from":{"name":"Origin","lon":-71.054072,"lat":48.411025,"departure":1522711800000,"orig":"","vertexType":"NORMAL"},"to":{"name":"Destination","lon":-71.059413,"lat":48.402555,"arrival":1522713003000,"orig":"","vertexType":"NORMAL"},"legGeometry":{"points":"ilnfHnztpLAEm@aC?uDMqAqAkAIIfA}CJ]n@r@lGnGlAhANNhD`DdE`ENNjEzD`A~@pD|CJHtAlAtEjEjF~EPPVTL[f@mB","length":27},"rentedBike":false,"transitLeg":false,"duration":1203.0,"steps":[{"distance":215.618,"relativeDirection":"DEPART","streetName":"Rue Thérèse-Casgrain","absoluteDirection":"NORTHEAST","stayOn":false,"area":false,"bogusName":false,"lon":-71.05463999054896,"lat":48.41173622293649,"elevation":[]},{"distance":84.041,"relativeDirection":"RIGHT","streetName":"Boulevard de l'Université","absoluteDirection":"SOUTHEAST","stayOn":false,"area":false,"bogusName":false,"lon":-71.0522085,"lat":48.412505100000004,"elevation":[]},{"distance":1207.208,"relativeDirection":"RIGHT","streetName":"Boulevard Talbot","absoluteDirection":"SOUTHWEST","stayOn":false,"area":false,"bogusName":false,"lon":-71.051266,"lat":48.412081,"elevation":[]},{"distance":58.980000000000004,"relativeDirection":"LEFT","streetName":"Rue des Saguenéens","absoluteDirection":"SOUTHEAST","stayOn":false,"area":false,"bogusName":false,"lon":-71.0600254,"lat":48.4029151,"elevation":[]}]}],"tooSloped":false},{"duration":699,"startTime":1522713135000,"endTime":1522713834000,"walkTime":401,"transitTime":296,"waitingTime":2,"walkDistance":506.1502255593851,"walkLimitExceeded":false,"elevationLost":0.0,"elevationGained":0.0,"transfers":0,"legs":[{"startTime":1522713135000,"endTime":1522713423000,"departureDelay":0,"arrivalDelay":0,"realTime":false,"distance":367.999,"pathway":false,"mode":"WALK","route":"","agencyTimeZoneOffset":-14400000,"interlineWithPreviousLeg":false,"from":{"name":"Origin","lon":-71.054072,"lat":48.411025,"departure":1522713135000,"orig":"","vertexType":"NORMAL"},"to":{"name":"boul. Université / Thérèse Casgrain","stopId":"1:83","stopCode":"83","lon":-71.053451,"lat":48.413578,"arrival":1522713423000,"departure":1522713424000,"zoneId":"NA","stopIndex":13,"stopSequence":14,"vertexType":"TRANSIT"},"legGeometry":{"points":"ilnfHnztpLAEm@aC?uDMqAqAkAIIOb@MZq@lAgA`A_AV","length":12},"rentedBike":false,"transitLeg":false,"duration":288.0,"steps":[{"distance":215.618,"relativeDirection":"DEPART","streetName":"Rue Thérèse-Casgrain","absoluteDirection":"NORTHEAST","stayOn":false,"area":false,"bogusName":false,"lon":-71.05463999054896,"lat":48.41173622293649,"elevation":[]},{"distance":152.381,"relativeDirection":"LEFT","streetName":"Boulevard de l'Université","absoluteDirection":"NORTHWEST","stayOn":false,"area":false,"bogusName":false,"lon":-71.0522085,"lat":48.412505100000004,"elevation":[]}]},{"startTime":1522713424000,"endTime":1522713720000,"departureDelay":0,"arrivalDelay":0,"realTime":false,"distance":1963.1856387467492,"pathway":false,"mode":"BUS","route":"175","agencyName":"Société de Transport du Saguenay","agencyUrl":"http://ville.saguenay.ca/fr/services-aux-citoyens/transport-sts","agencyTimeZoneOffset":-14400000,"routeColor":"FF00FF","routeType":3,"routeId":"1:175","routeTextColor":"FFFFFF","interlineWithPreviousLeg":false,"tripBlockId":"8","headsign":"Costco","agencyId":"0","tripId":"1:217383","serviceDate":"20180402","from":{"name":"boul. Université / Thérèse Casgrain","stopId":"1:83","stopCode":"83","lon":-71.053451,"lat":48.413578,"arrival":1522713423000,"departure":1522713424000,"zoneId":"NA","stopIndex":13,"stopSequence":14,"vertexType":"TRANSIT"},"to":{"name":"Place du Royaume (Saguenéens)","stopId":"1:1294","stopCode":"1294","lon":-71.057691,"lat":48.402355,"arrival":1522713720000,"departure":1522713721000,"zoneId":"NA","stopIndex":20,"stopSequence":21,"vertexType":"TRANSIT"},"legGeometry":{"points":"}wnfHnrtpLfA[|@q@fAsBlEmMr@sBhCsKz@dAjB|@dM`GzCvAXrCr@~Gx@]PEr@ObACn@FrBb@|@Ch@Kx@U~HsB^KZ|DJpII~Fa@rFUzBi@bD","length":30},"routeShortName":"175","routeLongName":"Term. Chic / Costco","rentedBike":false,"transitLeg":true,"duration":296.0,"steps":[]},{"startTime":1522713721000,"endTime":1522713834000,"departureDelay":0,"arrivalDelay":0,"realTime":false,"distance":138.011,"pathway":false,"mode":"WALK","route":"","agencyTimeZoneOffset":-14400000,"interlineWithPreviousLeg":false,"from":{"name":"Place du Royaume (Saguenéens)","stopId":"1:1294","stopCode":"1294","lon":-71.057691,"lat":48.402355,"arrival":1522713720000,"departure":1522713721000,"zoneId":"NA","stopIndex":20,"stopSequence":21,"vertexType":"TRANSIT"},"to":{"name":"Destination","lon":-71.059413,"lat":48.402555,"arrival":1522713834000,"orig":"","vertexType":"NORMAL"},"legGeometry":{"points":"iqlfHxmupLa@dCMh@TPa@bBIZ","length":6},"rentedBike":false,"transitLeg":false,"duration":113.0,"steps":[{"distance":70.008,"relativeDirection":"DEPART","streetName":"Rue des Saguenéens","absoluteDirection":"WEST","stayOn":false,"area":false,"bogusName":false,"lon":-71.05772328170832,"lat":48.402297506554895,"elevation":[]},{"distance":68.003,"relativeDirection":"LEFT","streetName":"Rue des Saguenéens","absoluteDirection":"SOUTHWEST","stayOn":true,"area":false,"bogusName":false,"lon":-71.0586019,"lat":48.4025327,"elevation":[]}]}],"tooSloped":false},{"duration":699,"startTime":1522714935000,"endTime":1522715634000,"walkTime":401,"transitTime":296,"waitingTime":2,"walkDistance":506.1502255593851,"walkLimitExceeded":false,"elevationLost":0.0,"elevationGained":0.0,"transfers":0,"legs":[{"startTime":1522714935000,"endTime":1522715223000,"departureDelay":0,"arrivalDelay":0,"realTime":false,"distance":367.999,"pathway":false,"mode":"WALK","route":"","agencyTimeZoneOffset":-14400000,"interlineWithPreviousLeg":false,"from":{"name":"Origin","lon":-71.054072,"lat":48.411025,"departure":1522714935000,"orig":"","vertexType":"NORMAL"},"to":{"name":"boul. Université / Thérèse Casgrain","stopId":"1:83","stopCode":"83","lon":-71.053451,"lat":48.413578,"arrival":1522715223000,"departure":1522715224000,"zoneId":"NA","stopIndex":13,"stopSequence":14,"vertexType":"TRANSIT"},"legGeometry":{"points":"ilnfHnztpLAEm@aC?uDMqAqAkAIIOb@MZq@lAgA`A_AV","length":12},"rentedBike":false,"transitLeg":false,"duration":288.0,"steps":[{"distance":215.618,"relativeDirection":"DEPART","streetName":"Rue Thérèse-Casgrain","absoluteDirection":"NORTHEAST","stayOn":false,"area":false,"bogusName":false,"lon":-71.05463999054896,"lat":48.41173622293649,"elevation":[]},{"distance":152.381,"relativeDirection":"LEFT","streetName":"Boulevard de l'Université","absoluteDirection":"NORTHWEST","stayOn":false,"area":false,"bogusName":false,"lon":-71.0522085,"lat":48.412505100000004,"elevation":[]}]},{"startTime":1522715224000,"endTime":1522715520000,"departureDelay":0,"arrivalDelay":0,"realTime":false,"distance":1963.1856387467492,"pathway":false,"mode":"BUS","route":"175","agencyName":"Société de Transport du Saguenay","agencyUrl":"http://ville.saguenay.ca/fr/services-aux-citoyens/transport-sts","agencyTimeZoneOffset":-14400000,"routeColor":"FF00FF","routeType":3,"routeId":"1:175","routeTextColor":"FFFFFF","interlineWithPreviousLeg":false,"tripBlockId":"6","headsign":"Costco","agencyId":"0","tripId":"1:217312","serviceDate":"20180402","from":{"name":"boul. Université / Thérèse Casgrain","stopId":"1:83","stopCode":"83","lon":-71.053451,"lat":48.413578,"arrival":1522715223000,"departure":1522715224000,"zoneId":"NA","stopIndex":13,"stopSequence":14,"vertexType":"TRANSIT"},"to":{"name":"Place du Royaume (Saguenéens)","stopId":"1:1294","stopCode":"1294","lon":-71.057691,"lat":48.402355,"arrival":1522715520000,"departure":1522715521000,"zoneId":"NA","stopIndex":20,"stopSequence":21,"vertexType":"TRANSIT"},"legGeometry":{"points":"}wnfHnrtpLfA[|@q@fAsBlEmMr@sBhCsKz@dAjB|@dM`GzCvAXrCr@~Gx@]PEr@ObACn@FrBb@|@Ch@Kx@U~HsB^KZ|DJpII~Fa@rFUzBi@bD","length":30},"routeShortName":"175","routeLongName":"Term. Chic / Costco","rentedBike":false,"transitLeg":true,"duration":296.0,"steps":[]},{"startTime":1522715521000,"endTime":1522715634000,"departureDelay":0,"arrivalDelay":0,"realTime":false,"distance":138.011,"pathway":false,"mode":"WALK","route":"","agencyTimeZoneOffset":-14400000,"interlineWithPreviousLeg":false,"from":{"name":"Place du Royaume (Saguenéens)","stopId":"1:1294","stopCode":"1294","lon":-71.057691,"lat":48.402355,"arrival":1522715520000,"departure":1522715521000,"zoneId":"NA","stopIndex":20,"stopSequence":21,"vertexType":"TRANSIT"},"to":{"name":"Destination","lon":-71.059413,"lat":48.402555,"arrival":1522715634000,"orig":"","vertexType":"NORMAL"},"legGeometry":{"points":"iqlfHxmupLa@dCMh@TPa@bBIZ","length":6},"rentedBike":false,"transitLeg":false,"duration":113.0,"steps":[{"distance":70.008,"relativeDirection":"DEPART","streetName":"Rue des Saguenéens","absoluteDirection":"WEST","stayOn":false,"area":false,"bogusName":false,"lon":-71.05772328170832,"lat":48.402297506554895,"elevation":[]},{"distance":68.003,"relativeDirection":"LEFT","streetName":"Rue des Saguenéens","absoluteDirection":"SOUTHWEST","stayOn":true,"area":false,"bogusName":false,"lon":-71.0586019,"lat":48.4025327,"elevation":[]}]}],"tooSloped":false}]},"debugOutput":{"precalculationTime":47,"pathCalculationTime":32,"pathTimes":[15,6,11],"renderingTime":0,"totalTime":79,"timedOut":false},"elevationMetadata":{"ellipsoidToGeoidDifference":-28.885904201182168,"geoidElevation":false}}