{"requestParameters":{"date":"2018/04/02","walkSpeed":"1.33","walkReluctance":"2.0","fromPlace":"48.404004,-71.060804","maxWalkDistance":"3000","waitReluctance":"1.0","carSpeed":"33","numItineraries":"3","waitAtBeginningFactor":"0.4","mode":"TRANSIT,WALK","ignoreRealtimeUpdates":"false","stairsReluctance":"2.0","toPlace":"48.403374,-71.058501","time":"9:25:00"},"plan":{"date":1522675500000,"from":{"name":"Origin","lon":-71.060804,"lat":48.404004,"orig":"","vertexType":"NORMAL"},"to":{"name":"Destination","lon":-71.058501,"lat":48.403374,"orig":"","vertexType":"NORMAL"},"itineraries":[{"duration":222,"startTime":1522675500000,"endTime":1522675722000,"walkTime":222,"transitTime":0,"waitingTime":0,"walkDistance":273.87826315449814,"walkLimitExceeded":false,"elevationLost":0.0,"elevationGained":0.0,"transfers":0,"legs":[{"startTime":1522675500000,"endTime":1522675722000,"departureDelay":0,"arrivalDelay":0,"realTime":false,"distance":273.77299999999997,"pathway":false,"mode":"WALK","route":"","agencyTimeZoneOffset":-14400000,"interlineWithPreviousLeg":false,"from":{"name":"Origin","lon":-71.060804,"lat":48.404004,"departure":1522675500000,"orig":"","vertexType":"NORMAL"},"to":{"name":"Destination","lon":-71.058501,"lat":48.403374,"arrival":1522675722000,"orig":"","vertexType":"NORMAL"},"legGeometry":{"points":"{ylfHlcvpLBExBwFJW@EkBeBH]HS`@iA[Y","length":10},"rentedBike":false,"transitLeg":false,"duration":222.0,"steps":[{"distance":130.214,"relativeDirection":"DEPART","streetName":"Rue des Saguenéens","absoluteDirection":"SOUTHEAST","stayOn":false,"area":false,"bogusName":false,"lon":-71.061187230541,"lat":48.40366360231969,"elevation":[]},{"distance":71.246,"relativeDirection":"LEFT","streetName":"Boulevard Talbot","absoluteDirection":"NORTHEAST","stayOn":false,"area":false,"bogusName":false,"lon":-71.0597697,"lat":48.402967000000004,"elevation":[]},{"distance":72.313,"relativeDirection":"RIGHT","streetName":"parking aisle","absoluteDirection":"SOUTHEAST","stayOn":false,"area":false,"bogusName":true,"lon":-71.05925210000001,"lat":48.4035078,"elevation":[]}]}],"tooSloped":false},{"duration":241,"startTime":1522676155000,"endTime":1522676396000,"walkTime":178,"transitTime":61,"waitingTime":2,"walkDistance":214.76803759027305,"walkLimitExceeded":false,"elevationLost":0.0,"elevationGained":0.0,"transfers":0,"legs":[{"startTime":1522676155000,"endTime":1522676158000,"departureDelay":0,"arrivalDelay":0,"realTime":false,"distance":3.23,"pathway":false,"mode":"WALK","route":"","agencyTimeZoneOffset":-14400000,"interlineWithPreviousLeg":false,"from":{"name":"Origin","lon":-71.060804,"lat":48.404004,"departure":1522676155000,"orig":"","vertexType":"NORMAL"},"to":{"name":"Saguenéens  / Bach","stopId":"1:575","stopCode":"575","lon":-71.061104,"lat":48.403689,"arrival":1522676158000,"departure":1522676159000,"zoneId":"NA","stopIndex":23,"stopSequence":24,"vertexType":"TRANSIT"},"legGeometry":{"points":"{ylfHlcvpLBE","length":2},"rentedBike":false,"transitLeg":false,"duration":3.0,"steps":[{"distance":3.23,"relativeDirection":"DEPART","streetName":"Rue des Saguenéens","absoluteDirection":"SOUTHEAST","stayOn":false,"area":false,"bogusName":false,"lon":-71.061187230541,"lat":48.40366360231969,"elevation":[]}]},{"startTime":1522676159000,"endTime":1522676220000,"departureDelay":0,"arrivalDelay":0,"realTime":false,"distance":292.3736010886008,"pathway":false,"mode":"BUS","route":"15","agencyName":"Société de Transport du Saguenay","agencyUrl":"http://ville.saguenay.ca/fr/services-aux-citoyens/transport-sts","agencyTimeZoneOffset":-14400000,"routeColor":"FF00FF","routeType":3,"routeId":"1:15","routeTextColor":"FFFFFF","interlineWithPreviousLeg":false,"tripBlockId":"33","headsign":"Talbot / Barrette","agencyId":"0","tripId":"1:218177","serviceDate":"20180402","from":{"name":"Saguenéens  / Bach","stopId":"1:575","stopCode":"575","lon":-71.061104,"lat":48.403689,"arrival":1522676158000,"departure":1522676159000,"zoneId":"NA","stopIndex":23,"stopSequence":24,"vertexType":"TRANSIT"},"to":{"name":"Place du Royaume (Saguenéens)","stopId":"1:1294","stopCode":"1294","lon":-71.057691,"lat":48.402355,"arrival":1522676220000,"departure":1522676221000,"zoneId":"NA","stopIndex":24,"stopSequence":25,"vertexType":"TRANSIT"},"legGeometry":{"points":"ezlfHvbvpLtC{FnBoL","length":3},"routeShortName":"15","routeLongName":"Term. Chic / Costco","rentedBike":false,"transitLeg":true,"duration":61.0,"steps":[]},{"startTime":1522676221000,"endTime":1522676396000,"departureDelay":0,"arrivalDelay":0,"realTime":false,"distance":211.423,"pathway":false,"mode":"WALK","route":"","agencyTimeZoneOffset":-14400000,"interlineWithPreviousLeg":false,"from":{"name":"Place du Royaume (Saguenéens)","stopId":"1:1294","stopCode":"1294","lon":-71.057691,"lat":48.402355,"arrival":1522676220000,"departure":1522676221000,"zoneId":"NA","stopIndex":24,"stopSequence":25,"vertexType":"TRANSIT"},"to":{"name":"Destination","lon":-71.058501,"lat":48.403374,"arrival":1522676396000,"orig":"","vertexType":"NORMAL"},"legGeometry":{"points":"iqlfHxmupLa@dCMh@GM[m@i@aAMZe@pAIT[Y","length":10},"rentedBike":false,"transitLeg":false,"duration":175.0,"steps":[{"distance":70.008,"relativeDirection":"DEPART","streetName":"Rue des Saguenéens","absoluteDirection":"WEST","stayOn":false,"area":false,"bogusName":false,"lon":-71.05772328170832,"lat":48.402297506554895,"elevation":[]},{"distance":63.614000000000004,"relativeDirection":"RIGHT","streetName":"service road","absoluteDirection":"NORTHEAST","stayOn":false,"area":false,"bogusName":true,"lon":-71.0586019,"lat":48.4025327,"elevation":[]},{"distance":77.801,"relativeDirection":"LEFT","streetName":"parking aisle","absoluteDirection":"NORTHWEST","stayOn":true,"area":false,"bogusName":true,"lon":-71.0579793,"lat":48.402928200000005,"elevation":[]}]}],"tooSloped":false}]},"debugOutput":{"precalculationTime":43,"pathCalculationTime":19,"pathTimes":[3,11,5],"renderingTime":0,"totalTime":62,"timedOut":false},"elevationMetadata":{"ellipsoidToGeoidDifference":-28.885904201182168,"geoidElevation":false}}