{"requestParameters":{"date":"2018/04/02","walkSpeed":"1.33","walkReluctance":"2.0","fromPlace":"48.428889,-71.046113","maxWalkDistance":"3000","waitReluctance":"1.0","carSpeed":"33","numItineraries":"3","waitAtBeginningFactor":"0.4","mode":"TRANSIT,WALK","ignoreRealtimeUpdates":"false","stairsReluctance":"2.0","toPlace":"48.412051,-71.05021899","time":"11:30:00"},"plan":{"date":1522683000000,"from":{"name":"Origin","lon":-71.046113,"lat":48.428889,"orig":"","vertexType":"NORMAL"},"to":{"name":"Destination","lon":-71.05021899,"lat":48.412051,"orig":"","vertexType":"NORMAL"},"itineraries":[{"duration":1114,"startTime":1522683654000,"endTime":1522684768000,"walkTime":586,"transitTime":526,"waitingTime":2,"walkDistance":751.7978345821476,"walkLimitExceeded":false,"elevationLost":0.0,"elevationGained":0.0,"transfers":0,"legs":[{"startTime":1522683654000,"endTime":1522684156000,"departureDelay":0,"arrivalDelay":0,"realTime":false,"distance":653.8530000000001,"pathway":false,"mode":"WALK","route":"","agencyTimeZoneOffset":-14400000,"interlineWithPreviousLeg":false,"from":{"name":"Origin","lon":-71.046113,"lat":48.428889,"departure":1522683654000,"orig":"","vertexType":"NORMAL"},"to":{"name":"Hôtel-Dieu / Séminaire","stopId":"1:341","stopCode":"341","lon":-71.05125,"lat":48.42738,"arrival":1522684156000,"departure":1522684157000,"zoneId":"NA","stopIndex":5,"stopSequence":6,"vertexType":"TRANSIT"},"legGeometry":{"points":"}{qfHbespL?H?|@?ZAzA?jDAjC?f@AtHBp@Hl@l@bBl@v@NPf@|@TEVEdBWp@Mb@G^M@sA","length":22},"rentedBike":false,"transitLeg":false,"duration":502.0,"steps":[{"distance":471.723,"relativeDirection":"DEPART","streetName":"Rue Racine Est","absoluteDirection":"WEST","stayOn":false,"area":false,"bogusName":false,"lon":-71.04609506966572,"lat":48.42959744359158,"elevation":[]},{"distance":151.044,"relativeDirection":"LEFT","streetName":"Rue du Séminaire","absoluteDirection":"SOUTH","stayOn":false,"area":false,"bogusName":false,"lon":-71.0520228,"lat":48.4288171,"elevation":[]},{"distance":31.086,"relativeDirection":"LEFT","streetName":"Rue de l'Hôtel-Dieu","absoluteDirection":"EAST","stayOn":false,"area":false,"bogusName":false,"lon":-71.05166870000001,"lat":48.42748,"elevation":[]}]},{"startTime":1522684157000,"endTime":1522684683000,"departureDelay":0,"arrivalDelay":0,"realTime":false,"distance":2421.9399891222515,"pathway":false,"mode":"BUS","route":"175","agencyName":"Société de Transport du Saguenay","agencyUrl":"http://ville.saguenay.ca/fr/services-aux-citoyens/transport-sts","agencyTimeZoneOffset":-14400000,"routeColor":"FF00FF","routeType":3,"routeId":"1:175","routeTextColor":"FFFFFF","interlineWithPreviousLeg":false,"tripBlockId":"7","headsign":"Costco","agencyId":"0","tripId":"1:217331","serviceDate":"20180402","from":{"name":"Hôtel-Dieu / Séminaire","stopId":"1:341","stopCode":"341","lon":-71.05125,"lat":48.42738,"arrival":1522684156000,"departure":1522684157000,"zoneId":"NA","stopIndex":5,"stopSequence":6,"vertexType":"TRANSIT"},"to":{"name":"boul. Université / Murdock","stopId":"1:80","stopCode":"80","lon":-71.050111,"lat":48.411498,"arrival":1522684683000,"departure":1522684684000,"zoneId":"NA","stopIndex":14,"stopSequence":15,"vertexType":"TRANSIT"},"legGeometry":{"points":"gnqfHhetpL@iFbEf@xEj@iCtYp@r@z@`ABBvHtHXRx@l@VwAvAgB\\qBIuAC]g@yEzDuLbBbBvAxAMx@|@v@`A~@Xw@~D~DPxFZtA~ApE`N{LpFmEb@[ROl@[vDQXKfA[|@q@fAsBlEmM","length":39},"routeShortName":"175","routeLongName":"Term. Chic / Costco","rentedBike":false,"transitLeg":true,"duration":526.0,"steps":[]},{"startTime":1522684684000,"endTime":1522684768000,"departureDelay":0,"arrivalDelay":0,"realTime":false,"distance":97.811,"pathway":false,"mode":"WALK","route":"","agencyTimeZoneOffset":-14400000,"interlineWithPreviousLeg":false,"from":{"name":"boul. Université / Murdock","stopId":"1:80","stopCode":"80","lon":-71.050111,"lat":48.411498,"arrival":1522684683000,"departure":1522684684000,"zoneId":"NA","stopIndex":14,"stopSequence":15,"vertexType":"TRANSIT"},"to":{"name":"Destination","lon":-71.05021899,"lat":48.412051,"arrival":1522684768000,"orig":"","vertexType":"NORMAL"},"legGeometry":{"points":"aknfH|}spLTo@WQ[|@c@hA","length":5},"rentedBike":false,"transitLeg":false,"duration":84.0,"steps":[{"distance":21.602,"relativeDirection":"DEPART","streetName":"Boulevard de l'Université","absoluteDirection":"SOUTHEAST","stayOn":false,"area":false,"bogusName":false,"lon":-71.05006857152243,"lat":48.41153928216614,"elevation":[]},{"distance":76.209,"relativeDirection":"UTURN_LEFT","streetName":"Boulevard de l'Université","absoluteDirection":"NORTHWEST","stayOn":true,"area":false,"bogusName":false,"lon":-71.04973220000001,"lat":48.411543200000004,"elevation":[]}]}],"tooSloped":false},{"duration":1661,"startTime":1522683242000,"endTime":1522684903000,"walkTime":205,"transitTime":1454,"waitingTime":2,"walkDistance":264.85538345853746,"walkLimitExceeded":false,"elevationLost":0.0,"elevationGained":0.0,"transfers":0,"legs":[{"startTime":1522683242000,"endTime":1522683421000,"departureDelay":0,"arrivalDelay":0,"realTime":false,"distance":230.994,"pathway":false,"mode":"WALK","route":"","agencyTimeZoneOffset":-14400000,"interlineWithPreviousLeg":false,"from":{"name":"Origin","lon":-71.046113,"lat":48.428889,"departure":1522683242000,"orig":"","vertexType":"NORMAL"},"to":{"name":"boul. Saguenay / Bon-Conseil","stopId":"1:1990","stopCode":"1990","lon":-71.043002,"lat":48.429311,"arrival":1522683421000,"departure":1522683422000,"zoneId":"NA","stopIndex":30,"stopSequence":31,"vertexType":"TRANSIT"},"legGeometry":{"points":"}{qfHbespL?WDmAB[PuBHkAB[Dy@DqA@q@@}@@M","length":12},"rentedBike":false,"transitLeg":false,"duration":179.0,"steps":[{"distance":184.47,"relativeDirection":"DEPART","streetName":"Rue Racine Est","absoluteDirection":"EAST","stayOn":false,"area":false,"bogusName":false,"lon":-71.04609506966572,"lat":48.42959744359158,"elevation":[]},{"distance":46.524,"relativeDirection":"CONTINUE","streetName":"Boulevard du Saguenay Est","absoluteDirection":"EAST","stayOn":false,"area":false,"bogusName":false,"lon":-71.04363190000001,"lat":48.4293294,"elevation":[]}]},{"startTime":1522683422000,"endTime":1522683660000,"departureDelay":0,"arrivalDelay":0,"realTime":false,"distance":1722.6244316128991,"pathway":false,"mode":"BUS","route":"12","agencyName":"Société de Transport du Saguenay","agencyUrl":"http://ville.saguenay.ca/fr/services-aux-citoyens/transport-sts","agencyTimeZoneOffset":-14400000,"routeColor":"556B2F","routeType":3,"routeId":"1:12","routeTextColor":"FFFFFF","interlineWithPreviousLeg":false,"tripBlockId":"26","headsign":"Terminus Chicoutimi","agencyId":"0","tripId":"1:217973","serviceDate":"20180402","from":{"name":"boul. Saguenay / Bon-Conseil","stopId":"1:1990","stopCode":"1990","lon":-71.043002,"lat":48.429311,"arrival":1522683421000,"departure":1522683422000,"zoneId":"NA","stopIndex":30,"stopSequence":31,"vertexType":"TRANSIT"},"to":{"name":"Terminus Chicoutimi","stopId":"1:1289","stopCode":"1289","lon":-71.066163,"lat":48.428677,"arrival":1522683660000,"departure":1522683900000,"zoneId":"NA","stopIndex":33,"stopSequence":34,"vertexType":"TRANSIT"},"legGeometry":{"points":"q{qfH~qrpLPvHsCrMFxf@|ApJj@nDDl]BvZdCXJhC","length":10},"routeShortName":"12","routeLongName":"Rivière du Moulin","rentedBike":false,"transitLeg":true,"duration":238.0,"steps":[]},{"startTime":1522683900000,"endTime":1522684876000,"departureDelay":0,"arrivalDelay":0,"realTime":false,"distance":4818.336852562372,"pathway":false,"mode":"BUS","route":"10","agencyName":"Société de Transport du Saguenay","agencyUrl":"http://ville.saguenay.ca/fr/services-aux-citoyens/transport-sts","agencyTimeZoneOffset":-14400000,"routeColor":"0000FF","routeType":3,"routeId":"1:10","routeTextColor":"FFFFFF","interlineWithPreviousLeg":true,"tripBlockId":"26","headsign":"Terminus UQAC","agencyId":"0","tripId":"1:217974","serviceDate":"20180402","from":{"name":"Terminus Chicoutimi","stopId":"1:1289","stopCode":"1289","lon":-71.066163,"lat":48.428677,"arrival":1522683660000,"departure":1522683900000,"zoneId":"NA","stopIndex":0,"stopSequence":1,"vertexType":"TRANSIT"},"to":{"name":"boul. Université / Murdock","stopId":"1:59","stopCode":"59","lon":-71.049971,"lat":48.411755,"arrival":1522684876000,"departure":1522684877000,"zoneId":"NA","stopIndex":21,"stopSequence":22,"vertexType":"TRANSIT"},"legGeometry":{"points":"svqfHnbwpLDmCdDZ\\kO`@mQBuCD}DQ_ECk@^Cd@QWkL?m@IuF@gA?eH?cAEuEDO^AjD`@B@rEf@T_FjBXpDd@hCObDaCfCaHbFqN`CwG_J_CwMiDGe@T}C\\yELaCJeAJcAXw@Fk@M_@xBwVr@^LJ|@z@HdAlBbD`Av@b@\\v@d@`@BpBAzAXl@t@XZt@lCl@tAnBpB~@~@lDjDr@r@zDrDnAlAjBrBl@pBPlBCj@KrAAHSpAe@jB_A|Bz@xAvA~BvB|BdN|Nc@bA","length":78},"routeShortName":"10","routeLongName":"Notre-Dame du Saguenay","rentedBike":false,"transitLeg":true,"duration":976.0,"steps":[]},{"startTime":1522684877000,"endTime":1522684903000,"departureDelay":0,"arrivalDelay":0,"realTime":false,"distance":33.858,"pathway":false,"mode":"WALK","route":"","agencyTimeZoneOffset":-14400000,"interlineWithPreviousLeg":false,"from":{"name":"boul. Université / Murdock","stopId":"1:59","stopCode":"59","lon":-71.049971,"lat":48.411755,"arrival":1522684876000,"departure":1522684877000,"zoneId":"NA","stopIndex":21,"stopSequence":22,"vertexType":"TRANSIT"},"to":{"name":"Destination","lon":-71.05021899,"lat":48.412051,"arrival":1522684903000,"orig":"","vertexType":"NORMAL"},"legGeometry":{"points":"_lnfHx}spLc@hA","length":2},"rentedBike":false,"transitLeg":false,"duration":26.0,"steps":[{"distance":33.858,"relativeDirection":"DEPART","streetName":"Boulevard de l'Université","absoluteDirection":"NORTHWEST","stayOn":false,"area":false,"bogusName":false,"lon":-71.05004245459075,"lat":48.41168714240219,"elevation":[]}]}],"tooSloped":false},{"duration":1419,"startTime":1522683993000,"endTime":1522685412000,"walkTime":376,"transitTime":1041,"waitingTime":2,"walkDistance":478.35090225206056,"walkLimitExceeded":false,"elevationLost":0.0,"elevationGained":0.0,"transfers":0,"legs":[{"startTime":1522683993000,"endTime":1522684094000,"departureDelay":0,"arrivalDelay":0,"realTime":false,"distance":134.021,"pathway":false,"mode":"WALK","route":"","agencyTimeZoneOffset":-14400000,"interlineWithPreviousLeg":false,"from":{"name":"Origin","lon":-71.046113,"lat":48.428889,"departure":1522683993000,"orig":"","vertexType":"NORMAL"},"to":{"name":"Soeur de Notre-Dame du Bon-Conseil (Racine)","stopId":"1:490","stopCode":"490","lon":-71.047913,"lat":48.4295,"arrival":1522684094000,"departure":1522684095000,"zoneId":"NA","stopIndex":4,"stopSequence":5,"vertexType":"TRANSIT"},"legGeometry":{"points":"}{qfHbespL?H?|@?ZAzA?jD","length":6},"rentedBike":false,"transitLeg":false,"duration":101.0,"steps":[{"distance":134.021,"relativeDirection":"DEPART","streetName":"Rue Racine Est","absoluteDirection":"WEST","stayOn":false,"area":false,"bogusName":false,"lon":-71.04609506966572,"lat":48.42959744359158,"elevation":[]}]},{"startTime":1522684095000,"endTime":1522685136000,"departureDelay":0,"arrivalDelay":0,"realTime":false,"distance":6466.489308229316,"pathway":false,"mode":"BUS","route":"12","agencyName":"Société de Transport du Saguenay","agencyUrl":"http://ville.saguenay.ca/fr/services-aux-citoyens/transport-sts","agencyTimeZoneOffset":-14400000,"routeColor":"556B2F","routeType":3,"routeId":"1:12","routeTextColor":"FFFFFF","interlineWithPreviousLeg":false,"tripBlockId":"27","headsign":"Terminus UQAC","agencyId":"0","tripId":"1:218010","serviceDate":"20180402","from":{"name":"Soeur de Notre-Dame du Bon-Conseil (Racine)","stopId":"1:490","stopCode":"490","lon":-71.047913,"lat":48.4295,"arrival":1522684094000,"departure":1522684095000,"zoneId":"NA","stopIndex":4,"stopSequence":5,"vertexType":"TRANSIT"},"to":{"name":"Sûreté du Québec (Roitelets / Lorenzo-Genest)","stopId":"1:58","stopCode":"58","lon":-71.048311,"lat":48.40979,"arrival":1522685136000,"departure":1522685137000,"zoneId":"NA","stopIndex":26,"stopSequence":27,"vertexType":"TRANSIT"},"legGeometry":{"points":"k{qfHnpspLz@u]SeV}@aNs@gKToKd@gTnCyHkGuLqFqJ_DeFf@iIvGsKlIrH`JlH`EfDnOdIdGlGjL|BzBiLv@}L`b@fNvVvrC","length":23},"routeShortName":"12","routeLongName":"Rivière du Moulin","rentedBike":false,"transitLeg":true,"duration":1041.0,"steps":[]},{"startTime":1522685137000,"endTime":1522685412000,"departureDelay":0,"arrivalDelay":0,"realTime":false,"distance":344.219,"pathway":false,"mode":"WALK","route":"","agencyTimeZoneOffset":-14400000,"interlineWithPreviousLeg":false,"from":{"name":"Sûreté du Québec (Roitelets / Lorenzo-Genest)","stopId":"1:58","stopCode":"58","lon":-71.048311,"lat":48.40979,"arrival":1522685136000,"departure":1522685137000,"zoneId":"NA","stopIndex":26,"stopSequence":27,"vertexType":"TRANSIT"},"to":{"name":"Destination","lon":-71.05021899,"lat":48.412051,"arrival":1522685412000,"orig":"","vertexType":"NORMAL"},"legGeometry":{"points":"{_nfHzqspL_Bw@KEe@JYLa@n@G^yBdHWQ[|@c@hA","length":11},"rentedBike":false,"transitLeg":false,"duration":275.0,"steps":[{"distance":64.153,"relativeDirection":"DEPART","streetName":"Rue Des Roitelets","absoluteDirection":"NORTH","stayOn":false,"area":false,"bogusName":false,"lon":-71.04813827023435,"lat":48.409745631017636,"elevation":[]},{"distance":62.949,"relativeDirection":"SLIGHTLY_LEFT","streetName":"link","absoluteDirection":"NORTH","stayOn":false,"area":false,"bogusName":true,"lon":-71.0478246,"lat":48.4102837,"elevation":[]},{"distance":217.117,"relativeDirection":"SLIGHTLY_LEFT","streetName":"Boulevard de l'Université","absoluteDirection":"NORTHWEST","stayOn":false,"area":false,"bogusName":false,"lon":-71.04819570000001,"lat":48.410774100000005,"elevation":[]}]}],"tooSloped":false}]},"debugOutput":{"precalculationTime":41,"pathCalculationTime":32,"pathTimes":[18,5,9],"renderingTime":0,"totalTime":73,"timedOut":false},"elevationMetadata":{"ellipsoidToGeoidDifference":-28.885904201182168,"geoidElevation":false}}