{"requestParameters":{"date":"2018/04/02","walkSpeed":"1.33","walkReluctance":"2.0","fromPlace":"48.403952,-71.054642","maxWalkDistance":"3000","waitReluctance":"1.0","carSpeed":"33","numItineraries":"3","waitAtBeginningFactor":"0.4","mode":"TRANSIT,WALK","ignoreRealtimeUpdates":"false","stairsReluctance":"2.0","toPlace":"48.410863,-71.067079","time":"17:15:00"},"plan":{"date":1522703700000,"from":{"name":"Origin","lon":-71.054642,"lat":48.403952,"orig":"","vertexType":"NORMAL"},"to":{"name":"Destination","lon":-71.067079,"lat":48.410863,"orig":"","vertexType":"NORMAL"},"itineraries":[{"duration":1357,"startTime":1522703700000,"endTime":1522705057000,"walkTime":1357,"transitTime":0,"waitingTime":0,"walkDistance":1740.7443082634709,"walkLimitExceeded":false,"elevationLost":0.0,"elevationGained":0.0,"transfers":0,"legs":[{"startTime":1522703700000,"endTime":1522705057000,"departureDelay":0,"arrivalDelay":0,"realTime":false,"distance":1740.5209999999997,"pathway":false,"mode":"WALK","route":"","agencyTimeZoneOffset":-14400000,"interlineWithPreviousLeg":false,"from":{"name":"Origin","lon":-71.054642,"lat":48.403952,"departure":1522703700000,"orig":"","vertexType":"NORMAL"},"to":{"name":"Destination","lon":-71.067079,"lat":48.410863,"arrival":1522705057000,"orig":"","vertexType":"NORMAL"},"legGeometry":{"points":"{zlfHhytpLJPNVVq@PCk@vDmBtGZZRPVVXXXXr@p@XVXXb@`@h@`AZl@FLmArEGRADKVyBvFgAnCaAzBu@~@WZaA|@aA~@IVcA~@CB?@gAvA{@dCm@|AGNgBxEGNELqB{BiAnCeHXWl@Ya@q@W[Ia@YQ_@","length":50},"rentedBike":false,"transitLeg":false,"duration":1357.0,"steps":[{"distance":55.269,"relativeDirection":"DEPART","streetName":"parking aisle","absoluteDirection":"SOUTHWEST","stayOn":false,"area":false,"bogusName":false,"lon":-71.05444515294332,"lat":48.40382759190054,"elevation":[]},{"distance":191.916,"relativeDirection":"HARD_RIGHT","streetName":"path","absoluteDirection":"WEST","stayOn":false,"area":false,"bogusName":true,"lon":-71.0543818,"lat":48.403475,"elevation":[]},{"distance":237.68300000000002,"relativeDirection":"LEFT","streetName":"service road","absoluteDirection":"SOUTHWEST","stayOn":true,"area":false,"bogusName":true,"lon":-71.0566984,"lat":48.4042426,"elevation":[]},{"distance":825.5319999999999,"relativeDirection":"RIGHT","streetName":"Rue des Saguenéens","absoluteDirection":"NORTHWEST","stayOn":false,"area":false,"bogusName":false,"lon":-71.0586019,"lat":48.4025327,"elevation":[]},{"distance":77.658,"relativeDirection":"RIGHT","streetName":"path","absoluteDirection":"NORTHEAST","stayOn":false,"area":false,"bogusName":true,"lon":-71.0669515,"lat":48.4073198,"elevation":[]},{"distance":230.146,"relativeDirection":"LEFT","streetName":"Rue Duhaime","absoluteDirection":"NORTHWEST","stayOn":false,"area":false,"bogusName":false,"lon":-71.0663385,"lat":48.4078874,"elevation":[]},{"distance":21.727,"relativeDirection":"LEFT","streetName":"Rue Don Bosco","absoluteDirection":"NORTHWEST","stayOn":false,"area":false,"bogusName":false,"lon":-71.0671829,"lat":48.4097206,"elevation":[]},{"distance":100.59,"relativeDirection":"RIGHT","streetName":"service road","absoluteDirection":"NORTHEAST","stayOn":false,"area":false,"bogusName":false,"lon":-71.0674104,"lat":48.4098446,"elevation":[]}]}],"tooSloped":false},{"duration":1252,"startTime":1522704600000,"endTime":1522705852000,"walkTime":1190,"transitTime":60,"waitingTime":2,"walkDistance":1510.707218035845,"walkLimitExceeded":false,"elevationLost":0.0,"elevationGained":0.0,"transfers":0,"legs":[{"startTime":1522704600000,"endTime":1522705019000,"departureDelay":0,"arrivalDelay":0,"realTime":false,"distance":526.571,"pathway":false,"mode":"WALK","route":"","agencyTimeZoneOffset":-14400000,"interlineWithPreviousLeg":false,"from":{"name":"Origin","lon":-71.054642,"lat":48.403952,"departure":1522704600000,"orig":"","vertexType":"NORMAL"},"to":{"name":"Place du Royaume (Champs-Élysées)","stopId":"1:193","stopCode":"193","lon":-71.052659,"lat":48.407065,"arrival":1522705019000,"departure":1522705020000,"zoneId":"NA","stopIndex":28,"stopSequence":29,"vertexType":"TRANSIT"},"legGeometry":{"points":"{zlfHhytpLKMS]U_@S]Yc@Vu@Ng@QSYWWUYWYY[YSSFS?eB}@M}@Cq@Dm@Pu@\\cA`AgAtA","length":24},"rentedBike":false,"transitLeg":false,"duration":419.0,"steps":[{"distance":117.35300000000001,"relativeDirection":"DEPART","streetName":"parking aisle","absoluteDirection":"NORTHEAST","stayOn":false,"area":false,"bogusName":false,"lon":-71.05444515294332,"lat":48.40382759190054,"elevation":[]},{"distance":110.875,"relativeDirection":"LEFT","streetName":"service road","absoluteDirection":"NORTHEAST","stayOn":false,"area":false,"bogusName":true,"lon":-71.0532652,"lat":48.4041209,"elevation":[]},{"distance":46.581,"relativeDirection":"RIGHT","streetName":"service road","absoluteDirection":"EAST","stayOn":true,"area":false,"bogusName":true,"lon":-71.05245930000001,"lat":48.4049623,"elevation":[]},{"distance":251.762,"relativeDirection":"LEFT","streetName":"Rue des Champs-Élysées","absoluteDirection":"NORTH","stayOn":false,"area":false,"bogusName":false,"lon":-71.05184220000001,"lat":48.4049276,"elevation":[]}]},{"startTime":1522705020000,"endTime":1522705080000,"departureDelay":0,"arrivalDelay":0,"realTime":false,"distance":522.6389508338427,"pathway":false,"mode":"BUS","route":"12","agencyName":"Société de Transport du Saguenay","agencyUrl":"http://ville.saguenay.ca/fr/services-aux-citoyens/transport-sts","agencyTimeZoneOffset":-14400000,"routeColor":"556B2F","routeType":3,"routeId":"1:12","routeTextColor":"FFFFFF","interlineWithPreviousLeg":false,"tripBlockId":"28","headsign":"Terminus UQAC","agencyId":"0","tripId":"1:218047","serviceDate":"20180402","from":{"name":"Place du Royaume (Champs-Élysées)","stopId":"1:193","stopCode":"193","lon":-71.052659,"lat":48.407065,"arrival":1522705019000,"departure":1522705020000,"zoneId":"NA","stopIndex":28,"stopSequence":29,"vertexType":"TRANSIT"},"to":{"name":"Champs-Élysées / Chopin","stopId":"1:584","stopCode":"584","lon":-71.058412,"lat":48.409805,"arrival":1522705080000,"departure":1522705081000,"zoneId":"NA","stopIndex":29,"stopSequence":30,"vertexType":"TRANSIT"},"legGeometry":{"points":"comfHbntpLcP~b@","length":2},"routeShortName":"12","routeLongName":"Rivière du Moulin","rentedBike":false,"transitLeg":true,"duration":60.0,"steps":[]},{"startTime":1522705081000,"endTime":1522705852000,"departureDelay":0,"arrivalDelay":0,"realTime":false,"distance":983.8489999999999,"pathway":false,"mode":"WALK","route":"","agencyTimeZoneOffset":-14400000,"interlineWithPreviousLeg":false,"from":{"name":"Champs-Élysées / Chopin","stopId":"1:584","stopCode":"584","lon":-71.058412,"lat":48.409805,"arrival":1522705080000,"departure":1522705081000,"zoneId":"NA","stopIndex":29,"stopSequence":30,"vertexType":"TRANSIT"},"to":{"name":"Destination","lon":-71.067079,"lat":48.410863,"arrival":1522705852000,"orig":"","vertexType":"NORMAL"},"legGeometry":{"points":"{_nfHprupL?@o@|A|@h@hAd@DBj@d@d@`@pAfAqC|Hk@fBG`ACZAvAHr@~@jGlAx@aDbJg@lAWl@Ya@q@W[Ia@YQ_@","length":25},"rentedBike":false,"transitLeg":false,"duration":771.0,"steps":[{"distance":44.609,"relativeDirection":"DEPART","streetName":"Rue des Champs-Élysées","absoluteDirection":"NORTHWEST","stayOn":false,"area":false,"bogusName":false,"lon":-71.05848639303342,"lat":48.40974208921815,"elevation":[]},{"distance":191.274,"relativeDirection":"LEFT","streetName":"Rue Bizet","absoluteDirection":"SOUTHWEST","stayOn":false,"area":false,"bogusName":false,"lon":-71.0589618,"lat":48.409989800000005,"elevation":[]},{"distance":430.196,"relativeDirection":"RIGHT","streetName":"Rue Belleau","absoluteDirection":"NORTHWEST","stayOn":false,"area":false,"bogusName":false,"lon":-71.0601022,"lat":48.4084523,"elevation":[]},{"distance":217.18,"relativeDirection":"RIGHT","streetName":"Rue Don Bosco","absoluteDirection":"NORTHWEST","stayOn":false,"area":false,"bogusName":false,"lon":-71.06501420000001,"lat":48.408712400000006,"elevation":[]},{"distance":100.59,"relativeDirection":"RIGHT","streetName":"service road","absoluteDirection":"NORTHEAST","stayOn":false,"area":false,"bogusName":false,"lon":-71.0674104,"lat":48.4098446,"elevation":[]}]}],"tooSloped":false},{"duration":861,"startTime":1522705369000,"endTime":1522706230000,"walkTime":720,"transitTime":139,"waitingTime":2,"walkDistance":889.9820676602327,"walkLimitExceeded":false,"elevationLost":0.0,"elevationGained":0.0,"transfers":0,"legs":[{"startTime":1522705369000,"endTime":1522705739000,"departureDelay":0,"arrivalDelay":0,"realTime":false,"distance":443.3719999999999,"pathway":false,"mode":"WALK","route":"","agencyTimeZoneOffset":-14400000,"interlineWithPreviousLeg":false,"from":{"name":"Origin","lon":-71.054642,"lat":48.403952,"departure":1522705369000,"orig":"","vertexType":"NORMAL"},"to":{"name":"Place du Royaume (Saguenéens)","stopId":"1:1294","stopCode":"1294","lon":-71.057691,"lat":48.402355,"arrival":1522705739000,"departure":1522705740000,"zoneId":"NA","stopIndex":11,"stopSequence":12,"vertexType":"TRANSIT"},"legGeometry":{"points":"{zlfHhytpLJPNVVq@PCb@TTYFH@DTRVXJJPFXFDBXFFBVFHB\\HFr@BLo@dEJJDZBLRh@k@vD","length":28},"rentedBike":false,"transitLeg":false,"duration":370.0,"steps":[{"distance":55.269,"relativeDirection":"DEPART","streetName":"parking aisle","absoluteDirection":"SOUTHWEST","stayOn":false,"area":false,"bogusName":false,"lon":-71.05444515294332,"lat":48.40382759190054,"elevation":[]},{"distance":37.529,"relativeDirection":"RIGHT","streetName":"parking aisle","absoluteDirection":"SOUTHWEST","stayOn":true,"area":false,"bogusName":true,"lon":-71.0543818,"lat":48.403475,"elevation":[]},{"distance":131.32600000000002,"relativeDirection":"RIGHT","streetName":"service road","absoluteDirection":"SOUTHWEST","stayOn":true,"area":false,"bogusName":true,"lon":-71.0543643,"lat":48.403182300000005,"elevation":[]},{"distance":102.75299999999999,"relativeDirection":"RIGHT","streetName":"parking aisle","absoluteDirection":"WEST","stayOn":true,"area":false,"bogusName":true,"lon":-71.0550072,"lat":48.402104300000005,"elevation":[]},{"distance":44.199,"relativeDirection":"LEFT","streetName":"service road","absoluteDirection":"SOUTHWEST","stayOn":true,"area":false,"bogusName":true,"lon":-71.0563248,"lat":48.4022894,"elevation":[]},{"distance":72.296,"relativeDirection":"RIGHT","streetName":"Rue des Saguenéens","absoluteDirection":"WEST","stayOn":false,"area":false,"bogusName":false,"lon":-71.0568056,"lat":48.4020704,"elevation":[]}]},{"startTime":1522705740000,"endTime":1522705879000,"departureDelay":0,"arrivalDelay":0,"realTime":false,"distance":906.2361680325896,"pathway":false,"mode":"BUS","route":"15","agencyName":"Société de Transport du Saguenay","agencyUrl":"http://ville.saguenay.ca/fr/services-aux-citoyens/transport-sts","agencyTimeZoneOffset":-14400000,"routeColor":"FF00FF","routeType":3,"routeId":"1:15","routeTextColor":"FFFFFF","interlineWithPreviousLeg":false,"tripBlockId":"32","headsign":"Terminus Chicoutimi","agencyId":"0","tripId":"1:218169","serviceDate":"20180402","from":{"name":"Place du Royaume (Saguenéens)","stopId":"1:1294","stopCode":"1294","lon":-71.057691,"lat":48.402355,"arrival":1522705739000,"departure":1522705740000,"zoneId":"NA","stopIndex":11,"stopSequence":12,"vertexType":"TRANSIT"},"to":{"name":"Saguenéens (no. 129)","stopId":"1:2000","stopCode":"2000","lon":-71.067064,"lat":48.407463,"arrival":1522705879000,"departure":1522705880000,"zoneId":"NA","stopIndex":16,"stopSequence":17,"vertexType":"TRANSIT"},"legGeometry":{"points":"eqlfHzmupLUxAm@nCcAlDeCvGmA|CUr@}@~A_@\\_DvCEZcA|@UP_@d@Yl@oBdFeCxG","length":17},"routeShortName":"15","routeLongName":"Term. Chic / Costco","rentedBike":false,"transitLeg":true,"duration":139.0,"steps":[]},{"startTime":1522705880000,"endTime":1522706230000,"departureDelay":0,"arrivalDelay":0,"realTime":false,"distance":446.33299999999997,"pathway":false,"mode":"WALK","route":"","agencyTimeZoneOffset":-14400000,"interlineWithPreviousLeg":false,"from":{"name":"Saguenéens (no. 129)","stopId":"1:2000","stopCode":"2000","lon":-71.067064,"lat":48.407463,"arrival":1522705879000,"departure":1522705880000,"zoneId":"NA","stopIndex":16,"stopSequence":17,"vertexType":"TRANSIT"},"to":{"name":"Destination","lon":-71.067079,"lat":48.410863,"arrival":1522706230000,"orig":"","vertexType":"NORMAL"},"legGeometry":{"points":"gqmfHphwpLPa@qB{BiAnCeHXWl@Ya@q@W[Ia@YQ_@","length":11},"rentedBike":false,"transitLeg":false,"duration":350.0,"steps":[{"distance":16.212,"relativeDirection":"DEPART","streetName":"Rue des Saguenéens","absoluteDirection":"SOUTHEAST","stayOn":false,"area":false,"bogusName":false,"lon":-71.06712694989164,"lat":48.40740751123809,"elevation":[]},{"distance":77.658,"relativeDirection":"LEFT","streetName":"path","absoluteDirection":"NORTHEAST","stayOn":false,"area":false,"bogusName":true,"lon":-71.0669515,"lat":48.4073198,"elevation":[]},{"distance":230.146,"relativeDirection":"LEFT","streetName":"Rue Duhaime","absoluteDirection":"NORTHWEST","stayOn":false,"area":false,"bogusName":false,"lon":-71.0663385,"lat":48.4078874,"elevation":[]},{"distance":21.727,"relativeDirection":"LEFT","streetName":"Rue Don Bosco","absoluteDirection":"NORTHWEST","stayOn":false,"area":false,"bogusName":false,"lon":-71.0671829,"lat":48.4097206,"elevation":[]},{"distance":100.59,"relativeDirection":"RIGHT","streetName":"service road","absoluteDirection":"NORTHEAST","stayOn":false,"area":false,"bogusName":false,"lon":-71.0674104,"lat":48.4098446,"elevation":[]}]}],"tooSloped":false}]},"debugOutput":{"precalculationTime":48,"pathCalculationTime":36,"pathTimes":[20,6,10],"renderingTime":1,"totalTime":85,"timedOut":false},"elevationMetadata":{"ellipsoidToGeoidDifference":-28.885904201182168,"geoidElevation":false}}