{"requestParameters":{"date":"2018/04/02","walkSpeed":"1.33","walkReluctance":"2.0","fromPlace":"48.383492,-71.08352999","maxWalkDistance":"3000","waitReluctance":"1.0","carSpeed":"33","numItineraries":"3","waitAtBeginningFactor":"0.4","mode":"TRANSIT,WALK","ignoreRealtimeUpdates":"false","stairsReluctance":"2.0","toPlace":"48.403249,-71.05108199","time":"14:40:00"},"plan":{"date":1522694400000,"from":{"name":"Origin","lon":-71.08352999,"lat":48.383492,"orig":"","vertexType":"NORMAL"},"to":{"name":"Destination","lon":-71.05108199,"lat":48.403249,"orig":"","vertexType":"NORMAL"},"itineraries":[{"duration":1049,"startTime":1522694708000,"endTime":1522695757000,"walkTime":474,"transitTime":573,"waitingTime":2,"walkDistance":596.7410902211726,"walkLimitExceeded":false,"elevationLost":0.0,"elevationGained":0.0,"transfers":0,"legs":[{"startTime":1522694708000,"endTime":1522694726000,"departureDelay":0,"arrivalDelay":0,"realTime":false,"distance":23.36,"pathway":false,"mode":"WALK","route":"","agencyTimeZoneOffset":-14400000,"interlineWithPreviousLeg":false,"from":{"name":"Origin","lon":-71.08352999,"lat":48.383492,"departure":1522694708000,"orig":"","vertexType":"NORMAL"},"to":{"name":"COSTCO","stopId":"1:1542","stopCode":"1542","lon":-71.084272,"lat":48.383644,"arrival":1522694726000,"departure":1522694727000,"zoneId":"NA","stopIndex":1,"stopSequence":2,"vertexType":"TRANSIT"},"legGeometry":{"points":"_~hfH|rzpLTZJJ","length":3},"rentedBike":false,"transitLeg":false,"duration":18.0,"steps":[{"distance":23.36,"relativeDirection":"DEPART","streetName":"service road","absoluteDirection":"SOUTHWEST","stayOn":false,"area":false,"bogusName":false,"lon":-71.08414271500874,"lat":48.383841239633476,"elevation":[]}]},{"startTime":1522694727000,"endTime":1522695300000,"departureDelay":0,"arrivalDelay":0,"realTime":false,"distance":3349.4821877715963,"pathway":false,"mode":"BUS","route":"175","agencyName":"Société de Transport du Saguenay","agencyUrl":"http://ville.saguenay.ca/fr/services-aux-citoyens/transport-sts","agencyTimeZoneOffset":-14400000,"routeColor":"FF00FF","routeType":3,"routeId":"1:175","routeTextColor":"FFFFFF","interlineWithPreviousLeg":false,"tripBlockId":"9","headsign":"Terminus Chicoutimi","agencyId":"0","tripId":"1:217408","serviceDate":"20180402","from":{"name":"COSTCO","stopId":"1:1542","stopCode":"1542","lon":-71.084272,"lat":48.383644,"arrival":1522694726000,"departure":1522694727000,"zoneId":"NA","stopIndex":1,"stopSequence":2,"vertexType":"TRANSIT"},"to":{"name":"Place Royaume","stopId":"1:1801","stopCode":"1801","lon":-71.057017,"lat":48.405588,"arrival":1522695300000,"departure":1522695301000,"zoneId":"NA","stopIndex":10,"stopSequence":11,"vertexType":"TRANSIT"},"legGeometry":{"points":"y|hfHzszpLwCqDrCsGN_@uEoFoEiFUWSUqCwC]a@{ByC{@cAkJuKoAwA_CeCeExJ~AlB`@mAu@k@}@q@|C}Iw@}@aO_QkEsEiAoAgEsFkFsHqJ_N}FkImPkOuO{N","length":31},"routeShortName":"175","routeLongName":"Term. Chic / Costco","rentedBike":false,"transitLeg":true,"duration":573.0,"steps":[]},{"startTime":1522695301000,"endTime":1522695757000,"departureDelay":0,"arrivalDelay":0,"realTime":false,"distance":573.245,"pathway":false,"mode":"WALK","route":"","agencyTimeZoneOffset":-14400000,"interlineWithPreviousLeg":false,"from":{"name":"Place Royaume","stopId":"1:1801","stopCode":"1801","lon":-71.057017,"lat":48.405588,"arrival":1522695300000,"departure":1522695301000,"zoneId":"NA","stopIndex":10,"stopSequence":11,"vertexType":"TRANSIT"},"to":{"name":"Destination","lon":-71.05108199,"lat":48.403249,"arrival":1522695757000,"orig":"","vertexType":"NORMAL"},"legGeometry":{"points":"memfHriupL`@{Ap@uBYUb@_B?q@O]WWzCgKp@{BRH\\EA{Ad@MNGjBi@","length":16},"rentedBike":false,"transitLeg":false,"duration":456.0,"steps":[{"distance":90.318,"relativeDirection":"DEPART","streetName":"parking aisle","absoluteDirection":"SOUTHEAST","stayOn":false,"area":false,"bogusName":true,"lon":-71.0570537,"lat":48.405519700000006,"elevation":[]},{"distance":105.386,"relativeDirection":"LEFT","streetName":"service road","absoluteDirection":"NORTHEAST","stayOn":true,"area":false,"bogusName":true,"lon":-71.05600720000001,"lat":48.4050992,"elevation":[]},{"distance":284.657,"relativeDirection":"RIGHT","streetName":"path","absoluteDirection":"SOUTHEAST","stayOn":true,"area":false,"bogusName":true,"lon":-71.054893,"lat":48.4052475,"elevation":[]},{"distance":92.884,"relativeDirection":"RIGHT","streetName":"Rue des Champs-Élysées","absoluteDirection":"SOUTH","stayOn":false,"area":false,"bogusName":false,"lon":-71.0518792,"lat":48.4039711,"elevation":[]}]}],"tooSloped":false},{"duration":1049,"startTime":1522696508000,"endTime":1522697557000,"walkTime":474,"transitTime":573,"waitingTime":2,"walkDistance":596.7410902211726,"walkLimitExceeded":false,"elevationLost":0.0,"elevationGained":0.0,"transfers":0,"legs":[{"startTime":1522696508000,"endTime":1522696526000,"departureDelay":0,"arrivalDelay":0,"realTime":false,"distance":23.36,"pathway":false,"mode":"WALK","route":"","agencyTimeZoneOffset":-14400000,"interlineWithPreviousLeg":false,"from":{"name":"Origin","lon":-71.08352999,"lat":48.383492,"departure":1522696508000,"orig":"","vertexType":"NORMAL"},"to":{"name":"COSTCO","stopId":"1:1542","stopCode":"1542","lon":-71.084272,"lat":48.383644,"arrival":1522696526000,"departure":1522696527000,"zoneId":"NA","stopIndex":1,"stopSequence":2,"vertexType":"TRANSIT"},"legGeometry":{"points":"_~hfH|rzpLTZJJ","length":3},"rentedBike":false,"transitLeg":false,"duration":18.0,"steps":[{"distance":23.36,"relativeDirection":"DEPART","streetName":"service road","absoluteDirection":"SOUTHWEST","stayOn":false,"area":false,"bogusName":false,"lon":-71.08414271500874,"lat":48.383841239633476,"elevation":[]}]},{"startTime":1522696527000,"endTime":1522697100000,"departureDelay":0,"arrivalDelay":0,"realTime":false,"distance":3349.4821877715963,"pathway":false,"mode":"BUS","route":"175","agencyName":"Société de Transport du Saguenay","agencyUrl":"http://ville.saguenay.ca/fr/services-aux-citoyens/transport-sts","agencyTimeZoneOffset":-14400000,"routeColor":"FF00FF","routeType":3,"routeId":"1:175","routeTextColor":"FFFFFF","interlineWithPreviousLeg":false,"tripBlockId":"11","headsign":"Terminus Chicoutimi","agencyId":"0","tripId":"1:217479","serviceDate":"20180402","from":{"name":"COSTCO","stopId":"1:1542","stopCode":"1542","lon":-71.084272,"lat":48.383644,"arrival":1522696526000,"departure":1522696527000,"zoneId":"NA","stopIndex":1,"stopSequence":2,"vertexType":"TRANSIT"},"to":{"name":"Place Royaume","stopId":"1:1801","stopCode":"1801","lon":-71.057017,"lat":48.405588,"arrival":1522697100000,"departure":1522697101000,"zoneId":"NA","stopIndex":10,"stopSequence":11,"vertexType":"TRANSIT"},"legGeometry":{"points":"y|hfHzszpLwCqDrCsGN_@uEoFoEiFUWSUqCwC]a@{ByC{@cAkJuKoAwA_CeCeExJ~AlB`@mAu@k@}@q@|C}Iw@}@aO_QkEsEiAoAgEsFkFsHqJ_N}FkImPkOuO{N","length":31},"routeShortName":"175","routeLongName":"Term. Chic / Costco","rentedBike":false,"transitLeg":true,"duration":573.0,"steps":[]},{"startTime":1522697101000,"endTime":1522697557000,"departureDelay":0,"arrivalDelay":0,"realTime":false,"distance":573.245,"pathway":false,"mode":"WALK","route":"","agencyTimeZoneOffset":-14400000,"interlineWithPreviousLeg":false,"from":{"name":"Place Royaume","stopId":"1:1801","stopCode":"1801","lon":-71.057017,"lat":48.405588,"arrival":1522697100000,"departure":1522697101000,"zoneId":"NA","stopIndex":10,"stopSequence":11,"vertexType":"TRANSIT"},"to":{"name":"Destination","lon":-71.05108199,"lat":48.403249,"arrival":1522697557000,"orig":"","vertexType":"NORMAL"},"legGeometry":{"points":"memfHriupL`@{Ap@uBYUb@_B?q@O]WWzCgKp@{BRH\\EA{Ad@MNGjBi@","length":16},"rentedBike":false,"transitLeg":false,"duration":456.0,"steps":[{"distance":90.318,"relativeDirection":"DEPART","streetName":"parking aisle","absoluteDirection":"SOUTHEAST","stayOn":false,"area":false,"bogusName":true,"lon":-71.0570537,"lat":48.405519700000006,"elevation":[]},{"distance":105.386,"relativeDirection":"LEFT","streetName":"service road","absoluteDirection":"NORTHEAST","stayOn":true,"area":false,"bogusName":true,"lon":-71.05600720000001,"lat":48.4050992,"elevation":[]},{"distance":284.657,"relativeDirection":"RIGHT","streetName":"path","absoluteDirection":"SOUTHEAST","stayOn":true,"area":false,"bogusName":true,"lon":-71.054893,"lat":48.4052475,"elevation":[]},{"distance":92.884,"relativeDirection":"RIGHT","streetName":"Rue des Champs-Élysées","absoluteDirection":"SOUTH","stayOn":false,"area":false,"bogusName":false,"lon":-71.0518792,"lat":48.4039711,"elevation":[]}]}],"tooSloped":false},{"duration":1049,"startTime":1522697408000,"endTime":1522698457000,"walkTime":474,"transitTime":573,"waitingTime":2,"walkDistance":596.7410902211726,"walkLimitExceeded":false,"elevationLost":0.0,"elevationGained":0.0,"transfers":0,"legs":[{"startTime":1522697408000,"endTime":1522697426000,"departureDelay":0,"arrivalDelay":0,"realTime":false,"distance":23.36,"pathway":false,"mode":"WALK","route":"","agencyTimeZoneOffset":-14400000,"interlineWithPreviousLeg":false,"from":{"name":"Origin","lon":-71.08352999,"lat":48.383492,"departure":1522697408000,"orig":"","vertexType":"NORMAL"},"to":{"name":"COSTCO","stopId":"1:1542","stopCode":"1542","lon":-71.084272,"lat":48.383644,"arrival":1522697426000,"departure":1522697427000,"zoneId":"NA","stopIndex":1,"stopSequence":2,"vertexType":"TRANSIT"},"legGeometry":{"points":"_~hfH|rzpLTZJJ","length":3},"rentedBike":false,"transitLeg":false,"duration":18.0,"steps":[{"distance":23.36,"relativeDirection":"DEPART","streetName":"service road","absoluteDirection":"SOUTHWEST","stayOn":false,"area":false,"bogusName":false,"lon":-71.08414271500874,"lat":48.383841239633476,"elevation":[]}]},{"startTime":1522697427000,"endTime":1522698000000,"departureDelay":0,"arrivalDelay":0,"realTime":false,"distance":3349.4821877715963,"pathway":false,"mode":"BUS","route":"175","agencyName":"Société de Transport du Saguenay","agencyUrl":"http://ville.saguenay.ca/fr/services-aux-citoyens/transport-sts","agencyTimeZoneOffset":-14400000,"routeColor":"FF00FF","routeType":3,"routeId":"1:175","routeTextColor":"FFFFFF","interlineWithPreviousLeg":false,"tripBlockId":"80","headsign":"Terminus Chicoutimi","agencyId":"0","tripId":"1:218653","serviceDate":"20180402","from":{"name":"COSTCO","stopId":"1:1542","stopCode":"1542","lon":-71.084272,"lat":48.383644,"arrival":1522697426000,"departure":1522697427000,"zoneId":"NA","stopIndex":1,"stopSequence":2,"vertexType":"TRANSIT"},"to":{"name":"Place Royaume","stopId":"1:1801","stopCode":"1801","lon":-71.057017,"lat":48.405588,"arrival":1522698000000,"departure":1522698001000,"zoneId":"NA","stopIndex":10,"stopSequence":11,"vertexType":"TRANSIT"},"legGeometry":{"points":"y|hfHzszpLwCqDrCsGN_@uEoFoEiFUWSUqCwC]a@{ByC{@cAkJuKoAwA_CeCeExJ~AlB`@mAu@k@}@q@|C}Iw@}@aO_QkEsEiAoAgEsFkFsHqJ_N}FkImPkOuO{N","length":31},"routeShortName":"175","routeLongName":"Term. Chic / Costco","rentedBike":false,"transitLeg":true,"duration":573.0,"steps":[]},{"startTime":1522698001000,"endTime":1522698457000,"departureDelay":0,"arrivalDelay":0,"realTime":false,"distance":573.245,"pathway":false,"mode":"WALK","route":"","agencyTimeZoneOffset":-14400000,"interlineWithPreviousLeg":false,"from":{"name":"Place Royaume","stopId":"1:1801","stopCode":"1801","lon":-71.057017,"lat":48.405588,"arrival":1522698000000,"departure":1522698001000,"zoneId":"NA","stopIndex":10,"stopSequence":11,"vertexType":"TRANSIT"},"to":{"name":"Destination","lon":-71.05108199,"lat":48.403249,"arrival":1522698457000,"orig":"","vertexType":"NORMAL"},"legGeometry":{"points":"memfHriupL`@{Ap@uBYUb@_B?q@O]WWzCgKp@{BRH\\EA{Ad@MNGjBi@","length":16},"rentedBike":false,"transitLeg":false,"duration":456.0,"steps":[{"distance":90.318,"relativeDirection":"DEPART","streetName":"parking aisle","absoluteDirection":"SOUTHEAST","stayOn":false,"area":false,"bogusName":true,"lon":-71.0570537,"lat":48.405519700000006,"elevation":[]},{"distance":105.386,"relativeDirection":"LEFT","streetName":"service road","absoluteDirection":"NORTHEAST","stayOn":true,"area":false,"bogusName":true,"lon":-71.05600720000001,"lat":48.4050992,"elevation":[]},{"distance":284.657,"relativeDirection":"RIGHT","streetName":"path","absoluteDirection":"SOUTHEAST","stayOn":true,"area":false,"bogusName":true,"lon":-71.054893,"lat":48.4052475,"elevation":[]},{"distance":92.884,"relativeDirection":"RIGHT","streetName":"Rue des Champs-Élysées","absoluteDirection":"SOUTH","stayOn":false,"area":false,"bogusName":false,"lon":-71.0518792,"lat":48.4039711,"elevation":[]}]}],"tooSloped":false}]},"debugOutput":{"precalculationTime":15,"pathCalculationTime":11,"pathTimes":[4,4,3],"renderingTime":1,"totalTime":27,"timedOut":false},"elevationMetadata":{"ellipsoidToGeoidDifference":-28.885904201182168,"geoidElevation":false}}