{"requestParameters":{"date":"2018/04/02","walkSpeed":"1.33","walkReluctance":"2.0","fromPlace":"48.42027,-71.068763","maxWalkDistance":"3000","waitReluctance":"1.0","carSpeed":"33","numItineraries":"3","waitAtBeginningFactor":"0.4","mode":"TRANSIT,WALK","ignoreRealtimeUpdates":"false","stairsReluctance":"2.0","toPlace":"48.428136,-71.055077","time":"6:0:00"},"plan":{"date":1522663200000,"from":{"name":"Origin","lon":-71.068763,"lat":48.42027,"orig":"","vertexType":"NORMAL"},"to":{"name":"Destination","lon":-71.055077,"lat":48.428136,"orig":"","vertexType":"NORMAL"},"itineraries":[{"duration":1309,"startTime":1522663200000,"endTime":1522664509000,"walkTime":1309,"transitTime":0,"waitingTime":0,"walkDistance":1682.0336992407088,"walkLimitExceeded":false,"elevationLost":0.0,"elevationGained":0.0,"transfers":0,"legs":[{"startTime":1522663200000,"endTime":1522664509000,"departureDelay":0,"arrivalDelay":0,"realTime":false,"distance":1681.804,"pathway":false,"mode":"WALK","route":"","agencyTimeZoneOffset":-14400000,"interlineWithPreviousLeg":false,"from":{"name":"Origin","lon":-71.068763,"lat":48.42027,"departure":1522663200000,"orig":"","vertexType":"NORMAL"},"to":{"name":"Destination","lon":-71.055077,"lat":48.428136,"arrival":1522664509000,"orig":"","vertexType":"NORMAL"},"legGeometry":{"points":"{`pfHzrwpLCzBgCQkBOMAQASAs@Eu@EyAGe@C{BOm@Ec@o@MMi@oAaBuDg@eAo@qBk@g@Ao@QGWo@Wo@u@kBcAyBs@qBKQEQS_BIs@Ak@Cu@?_ACkAGuAG_@Ic@Kc@YoA@o@_@AmAEDuAB_A@_ABsB?K?mBMiAGk@mBoIQu@b@K","length":54},"rentedBike":false,"transitLeg":false,"duration":1309.0,"steps":[{"distance":46.031,"relativeDirection":"DEPART","streetName":"Rue Saint-Dominique Est","absoluteDirection":"WEST","stayOn":false,"area":false,"bogusName":false,"lon":-71.06877544274116,"lat":48.42014294999775,"elevation":[]},{"distance":390.247,"relativeDirection":"RIGHT","streetName":"Rue Sainte-Anne","absoluteDirection":"NORTH","stayOn":false,"area":false,"bogusName":false,"lon":-71.0693979,"lat":48.420169800000004,"elevation":[]},{"distance":272.594,"relativeDirection":"SLIGHTLY_RIGHT","streetName":"path","absoluteDirection":"NORTHEAST","stayOn":false,"area":false,"bogusName":true,"lon":-71.06896330000001,"lat":48.423667200000004,"elevation":[]},{"distance":17.515,"relativeDirection":"RIGHT","streetName":"Rue Price Est","absoluteDirection":"EAST","stayOn":false,"area":false,"bogusName":false,"lon":-71.0662212,"lat":48.425276600000004,"elevation":[]},{"distance":10.208,"relativeDirection":"LEFT","streetName":"Rue Morin","absoluteDirection":"NORTH","stayOn":false,"area":false,"bogusName":false,"lon":-71.06598410000001,"lat":48.4252842,"elevation":[]},{"distance":490.783,"relativeDirection":"SLIGHTLY_RIGHT","streetName":"path","absoluteDirection":"NORTHEAST","stayOn":false,"area":false,"bogusName":true,"lon":-71.0659473,"lat":48.425372700000004,"elevation":[]},{"distance":61.031000000000006,"relativeDirection":"LEFT","streetName":"Rue La Fontaine","absoluteDirection":"NORTH","stayOn":false,"area":false,"bogusName":false,"lon":-71.0600417,"lat":48.427084,"elevation":[]},{"distance":372.945,"relativeDirection":"RIGHT","streetName":"Rue Racine Est","absoluteDirection":"EAST","stayOn":false,"area":false,"bogusName":false,"lon":-71.0600075,"lat":48.4276324,"elevation":[]},{"distance":20.45,"relativeDirection":"RIGHT","streetName":"Rue Riverin","absoluteDirection":"SOUTH","stayOn":false,"area":false,"bogusName":false,"lon":-71.0552071,"lat":48.4283045,"elevation":[]}]}],"tooSloped":false},{"duration":1152,"startTime":1522665045000,"endTime":1522666197000,"walkTime":948,"transitTime":202,"waitingTime":2,"walkDistance":1215.62696992036,"walkLimitExceeded":false,"elevationLost":0.0,"elevationGained":0.0,"transfers":0,"legs":[{"startTime":1522665045000,"endTime":1522665899000,"departureDelay":0,"arrivalDelay":0,"realTime":false,"distance":1100.87,"pathway":false,"mode":"WALK","route":"","agencyTimeZoneOffset":-14400000,"interlineWithPreviousLeg":false,"from":{"name":"Origin","lon":-71.068763,"lat":48.42027,"departure":1522665045000,"orig":"","vertexType":"NORMAL"},"to":{"name":"Terminus Chicoutimi","stopId":"1:1289","stopCode":"1289","lon":-71.066163,"lat":48.428677,"arrival":1522665899000,"departure":1522665900000,"zoneId":"NA","stopIndex":0,"stopSequence":1,"vertexType":"TRANSIT"},"legGeometry":{"points":"{`pfHzrwpLCzBgCQkBOMAQASAs@Eu@EyAGe@C{BOm@Ec@o@MMi@oAaBuDg@eAo@qBk@g@Ao@QG_@C{BUsAGkCQQAsBIc@MKESAcAK","length":32},"rentedBike":false,"transitLeg":false,"duration":854.0,"steps":[{"distance":46.031,"relativeDirection":"DEPART","streetName":"Rue Saint-Dominique Est","absoluteDirection":"WEST","stayOn":false,"area":false,"bogusName":false,"lon":-71.06877544274116,"lat":48.42014294999775,"elevation":[]},{"distance":390.247,"relativeDirection":"RIGHT","streetName":"Rue Sainte-Anne","absoluteDirection":"NORTH","stayOn":false,"area":false,"bogusName":false,"lon":-71.0693979,"lat":48.420169800000004,"elevation":[]},{"distance":272.594,"relativeDirection":"SLIGHTLY_RIGHT","streetName":"path","absoluteDirection":"NORTHEAST","stayOn":false,"area":false,"bogusName":true,"lon":-71.06896330000001,"lat":48.423667200000004,"elevation":[]},{"distance":17.515,"relativeDirection":"RIGHT","streetName":"Rue Price Est","absoluteDirection":"EAST","stayOn":false,"area":false,"bogusName":false,"lon":-71.0662212,"lat":48.425276600000004,"elevation":[]},{"distance":374.483,"relativeDirection":"LEFT","streetName":"Rue Morin","absoluteDirection":"NORTH","stayOn":false,"area":false,"bogusName":false,"lon":-71.06598410000001,"lat":48.4252842,"elevation":[]}]},{"startTime":1522665900000,"endTime":1522666102000,"departureDelay":0,"arrivalDelay":0,"realTime":false,"distance":869.3992494751024,"pathway":false,"mode":"BUS","route":"175","agencyName":"Société de Transport du Saguenay","agencyUrl":"http://ville.saguenay.ca/fr/services-aux-citoyens/transport-sts","agencyTimeZoneOffset":-14400000,"routeColor":"FF00FF","routeType":3,"routeId":"1:175","routeTextColor":"FFFFFF","interlineWithPreviousLeg":false,"tripBlockId":"6","headsign":"Costco","agencyId":"0","tripId":"1:217285","serviceDate":"20180402","from":{"name":"Terminus Chicoutimi","stopId":"1:1289","stopCode":"1289","lon":-71.066163,"lat":48.428677,"arrival":1522665899000,"departure":1522665900000,"zoneId":"NA","stopIndex":0,"stopSequence":1,"vertexType":"TRANSIT"},"to":{"name":"Hôtel-Dieu / Riverin","stopId":"1:339","stopCode":"339","lon":-71.054645,"lat":48.427256,"arrival":1522666102000,"departure":1522666103000,"zoneId":"NA","stopIndex":3,"stopSequence":4,"vertexType":"TRANSIT"},"legGeometry":{"points":"kvqfH~awpL~CgBbAqa@FwCBkAOsHAg@bAYUwM","length":9},"routeShortName":"175","routeLongName":"Term. Chic / Costco","rentedBike":false,"transitLeg":true,"duration":202.0,"steps":[]},{"startTime":1522666103000,"endTime":1522666197000,"departureDelay":0,"arrivalDelay":0,"realTime":false,"distance":114.619,"pathway":false,"mode":"WALK","route":"","agencyTimeZoneOffset":-14400000,"interlineWithPreviousLeg":false,"from":{"name":"Hôtel-Dieu / Riverin","stopId":"1:339","stopCode":"339","lon":-71.054645,"lat":48.427256,"arrival":1522666102000,"departure":1522666103000,"zoneId":"NA","stopIndex":3,"stopSequence":4,"vertexType":"TRANSIT"},"to":{"name":"Destination","lon":-71.055077,"lat":48.428136,"arrival":1522666197000,"orig":"","vertexType":"NORMAL"},"legGeometry":{"points":"cmqfHtztpLOr@QEM@cCn@","length":5},"rentedBike":false,"transitLeg":false,"duration":94.0,"steps":[{"distance":21.438,"relativeDirection":"DEPART","streetName":"Rue Saint-François-Xavier","absoluteDirection":"NORTHWEST","stayOn":false,"area":false,"bogusName":false,"lon":-71.05466735454019,"lat":48.42722515087243,"elevation":[]},{"distance":93.181,"relativeDirection":"RIGHT","streetName":"Rue Riverin","absoluteDirection":"NORTH","stayOn":false,"area":false,"bogusName":false,"lon":-71.0549292,"lat":48.427308700000005,"elevation":[]}]}],"tooSloped":false},{"duration":1155,"startTime":1522665045000,"endTime":1522666200000,"walkTime":948,"transitTime":205,"waitingTime":2,"walkDistance":1215.62696992036,"walkLimitExceeded":false,"elevationLost":0.0,"elevationGained":0.0,"transfers":0,"legs":[{"startTime":1522665045000,"endTime":1522665899000,"departureDelay":0,"arrivalDelay":0,"realTime":false,"distance":1100.87,"pathway":false,"mode":"WALK","route":"","agencyTimeZoneOffset":-14400000,"interlineWithPreviousLeg":false,"from":{"name":"Origin","lon":-71.068763,"lat":48.42027,"departure":1522665045000,"orig":"","vertexType":"NORMAL"},"to":{"name":"Terminus Chicoutimi","stopId":"1:1289","stopCode":"1289","lon":-71.066163,"lat":48.428677,"arrival":1522665899000,"departure":1522665900000,"zoneId":"NA","stopIndex":0,"stopSequence":1,"vertexType":"TRANSIT"},"legGeometry":{"points":"{`pfHzrwpLCzBgCQkBOMAQASAs@Eu@EyAGe@C{BOm@Ec@o@MMi@oAaBuDg@eAo@qBk@g@Ao@QG_@C{BUsAGkCQQAsBIc@MKESAcAK","length":32},"rentedBike":false,"transitLeg":false,"duration":854.0,"steps":[{"distance":46.031,"relativeDirection":"DEPART","streetName":"Rue Saint-Dominique Est","absoluteDirection":"WEST","stayOn":false,"area":false,"bogusName":false,"lon":-71.06877544274116,"lat":48.42014294999775,"elevation":[]},{"distance":390.247,"relativeDirection":"RIGHT","streetName":"Rue Sainte-Anne","absoluteDirection":"NORTH","stayOn":false,"area":false,"bogusName":false,"lon":-71.0693979,"lat":48.420169800000004,"elevation":[]},{"distance":272.594,"relativeDirection":"SLIGHTLY_RIGHT","streetName":"path","absoluteDirection":"NORTHEAST","stayOn":false,"area":false,"bogusName":true,"lon":-71.06896330000001,"lat":48.423667200000004,"elevation":[]},{"distance":17.515,"relativeDirection":"RIGHT","streetName":"Rue Price Est","absoluteDirection":"EAST","stayOn":false,"area":false,"bogusName":false,"lon":-71.0662212,"lat":48.425276600000004,"elevation":[]},{"distance":374.483,"relativeDirection":"LEFT","streetName":"Rue Morin","absoluteDirection":"NORTH","stayOn":false,"area":false,"bogusName":false,"lon":-71.06598410000001,"lat":48.4252842,"elevation":[]}]},{"startTime":1522665900000,"endTime":1522666105000,"departureDelay":0,"arrivalDelay":0,"realTime":false,"distance":869.3992494751024,"pathway":false,"mode":"BUS","route":"10","agencyName":"Société de Transport du Saguenay","agencyUrl":"http://ville.saguenay.ca/fr/services-aux-citoyens/transport-sts","agencyTimeZoneOffset":-14400000,"routeColor":"0000FF","routeType":3,"routeId":"1:10","routeTextColor":"FFFFFF","interlineWithPreviousLeg":false,"tripBlockId":"26","headsign":"Terminus UQAC","agencyId":"0","tripId":"1:217964","serviceDate":"20180402","from":{"name":"Terminus Chicoutimi","stopId":"1:1289","stopCode":"1289","lon":-71.066163,"lat":48.428677,"arrival":1522665899000,"departure":1522665900000,"zoneId":"NA","stopIndex":0,"stopSequence":1,"vertexType":"TRANSIT"},"to":{"name":"Hôtel-Dieu / Riverin","stopId":"1:339","stopCode":"339","lon":-71.054645,"lat":48.427256,"arrival":1522666105000,"departure":1522666106000,"zoneId":"NA","stopIndex":3,"stopSequence":4,"vertexType":"TRANSIT"},"legGeometry":{"points":"svqfHnbwpLDmCdDZ\\kO`@mQBuCD}DQ_ECk@^Cd@QWkL?m@","length":13},"routeShortName":"10","routeLongName":"Notre-Dame du Saguenay","rentedBike":false,"transitLeg":true,"duration":205.0,"steps":[]},{"startTime":1522666106000,"endTime":1522666200000,"departureDelay":0,"arrivalDelay":0,"realTime":false,"distance":114.619,"pathway":false,"mode":"WALK","route":"","agencyTimeZoneOffset":-14400000,"interlineWithPreviousLeg":false,"from":{"name":"Hôtel-Dieu / Riverin","stopId":"1:339","stopCode":"339","lon":-71.054645,"lat":48.427256,"arrival":1522666105000,"departure":1522666106000,"zoneId":"NA","stopIndex":3,"stopSequence":4,"vertexType":"TRANSIT"},"to":{"name":"Destination","lon":-71.055077,"lat":48.428136,"arrival":1522666200000,"orig":"","vertexType":"NORMAL"},"legGeometry":{"points":"cmqfHtztpLOr@QEM@cCn@","length":5},"rentedBike":false,"transitLeg":false,"duration":94.0,"steps":[{"distance":21.438,"relativeDirection":"DEPART","streetName":"Rue Saint-François-Xavier","absoluteDirection":"NORTHWEST","stayOn":false,"area":false,"bogusName":false,"lon":-71.05466735454019,"lat":48.42722515087243,"elevation":[]},{"distance":93.181,"relativeDirection":"RIGHT","streetName":"Rue Riverin","absoluteDirection":"NORTH","stayOn":false,"area":false,"bogusName":false,"lon":-71.0549292,"lat":48.427308700000005,"elevation":[]}]}],"tooSloped":false}]},"debugOutput":{"precalculationTime":31,"pathCalculationTime":35,"pathTimes":[19,8,8],"renderingTime":0,"totalTime":66,"timedOut":false},"elevationMetadata":{"ellipsoidToGeoidDifference":-28.885904201182168,"geoidElevation":false}}