{"requestParameters":{"date":"2018/04/02","walkSpeed":"1.33","walkReluctance":"2.0","fromPlace":"48.416941,-71.048934","maxWalkDistance":"3000","waitReluctance":"1.0","carSpeed":"33","numItineraries":"3","waitAtBeginningFactor":"0.4","mode":"TRANSIT,WALK","ignoreRealtimeUpdates":"false","stairsReluctance":"2.0","toPlace":"48.406351,-71.05878699","time":"14:0:00"},"plan":{"date":1522692000000,"from":{"name":"Origin","lon":-71.048934,"lat":48.416941,"orig":"","vertexType":"NORMAL"},"to":{"name":"Destination","lon":-71.05878699,"lat":48.406351,"orig":"","vertexType":"NORMAL"},"itineraries":[{"duration":1294,"startTime":1522692000000,"endTime":1522693294000,"walkTime":1294,"transitTime":0,"waitingTime":0,"walkDistance":1673.668353375671,"walkLimitExceeded":false,"elevationLost":0.0,"elevationGained":0.0,"transfers":0,"legs":[{"startTime":1522692000000,"endTime":1522693294000,"departureDelay":0,"arrivalDelay":0,"realTime":false,"distance":1673.4269999999997,"pathway":false,"mode":"WALK","route":"","agencyTimeZoneOffset":-14400000,"interlineWithPreviousLeg":false,"from":{"name":"Origin","lon":-71.048934,"lat":48.416941,"departure":1522692000000,"orig":"","vertexType":"NORMAL"},"to":{"name":"Destination","lon":-71.05878699,"lat":48.406351,"arrival":1522693294000,"orig":"","vertexType":"NORMAL"},"legGeometry":{"points":"{kofHxwspLM\\`N~LJJx@t@TPXAt@[z@]ZBzAtAHFXVfA}CJ]n@r@lGnGlAhANNhD`DdE`ENNGPm@|A]|@O`@M\\fBfBcAvCLJXV\\ZfGrFj@f@","length":34},"rentedBike":false,"transitLeg":false,"duration":1294.0,"steps":[{"distance":13.462,"relativeDirection":"DEPART","streetName":"Rue Chabanel","absoluteDirection":"NORTHWEST","stayOn":false,"area":false,"bogusName":false,"lon":-71.04908288980329,"lat":48.41678908411017,"elevation":[]},{"distance":555.03,"relativeDirection":"LEFT","streetName":"Rue d'Alma","absoluteDirection":"SOUTHWEST","stayOn":false,"area":false,"bogusName":false,"lon":-71.0492358,"lat":48.41685510000001,"elevation":[]},{"distance":84.041,"relativeDirection":"LEFT","streetName":"Boulevard de l'Université","absoluteDirection":"SOUTHEAST","stayOn":false,"area":false,"bogusName":false,"lon":-71.0522085,"lat":48.412505100000004,"elevation":[]},{"distance":529.195,"relativeDirection":"RIGHT","streetName":"Boulevard Talbot","absoluteDirection":"SOUTHWEST","stayOn":false,"area":false,"bogusName":false,"lon":-71.051266,"lat":48.412081,"elevation":[]},{"distance":108.344,"relativeDirection":"RIGHT","streetName":"Rue des Champs-Élysées","absoluteDirection":"NORTHWEST","stayOn":false,"area":false,"bogusName":false,"lon":-71.0551966,"lat":48.4081015,"elevation":[]},{"distance":69.905,"relativeDirection":"LEFT","streetName":"Rue Plamondon","absoluteDirection":"SOUTHWEST","stayOn":false,"area":false,"bogusName":false,"lon":-71.0563831,"lat":48.4086751,"elevation":[]},{"distance":67.359,"relativeDirection":"RIGHT","streetName":"Rue Plamondon","absoluteDirection":"NORTHWEST","stayOn":true,"area":false,"bogusName":false,"lon":-71.05690750000001,"lat":48.408151600000004,"elevation":[]},{"distance":246.091,"relativeDirection":"LEFT","streetName":"Rue Bach","absoluteDirection":"SOUTHWEST","stayOn":false,"area":false,"bogusName":false,"lon":-71.05766410000001,"lat":48.408490300000004,"elevation":[]}]}],"tooSloped":false},{"duration":1257,"startTime":1522692189000,"endTime":1522693446000,"walkTime":363,"transitTime":892,"waitingTime":2,"walkDistance":458.7616842065354,"walkLimitExceeded":false,"elevationLost":0.0,"elevationGained":0.0,"transfers":0,"legs":[{"startTime":1522692189000,"endTime":1522692206000,"departureDelay":0,"arrivalDelay":0,"realTime":false,"distance":17.854,"pathway":false,"mode":"WALK","route":"","agencyTimeZoneOffset":-14400000,"interlineWithPreviousLeg":false,"from":{"name":"Origin","lon":-71.048934,"lat":48.416941,"departure":1522692189000,"orig":"","vertexType":"NORMAL"},"to":{"name":"Clinique St-George (St-Thomas)","stopId":"1:359","stopCode":"359","lon":-71.04918,"lat":48.416897,"arrival":1522692206000,"departure":1522692207000,"zoneId":"NA","stopIndex":22,"stopSequence":23,"vertexType":"TRANSIT"},"legGeometry":{"points":"{kofHxwspLM\\G?","length":3},"rentedBike":false,"transitLeg":false,"duration":17.0,"steps":[{"distance":13.462,"relativeDirection":"DEPART","streetName":"Rue Chabanel","absoluteDirection":"NORTHWEST","stayOn":false,"area":false,"bogusName":false,"lon":-71.04908288980329,"lat":48.41678908411017,"elevation":[]},{"distance":4.392,"relativeDirection":"RIGHT","streetName":"Rue d'Alma","absoluteDirection":"NORTH","stayOn":false,"area":false,"bogusName":false,"lon":-71.0492358,"lat":48.41685510000001,"elevation":[]}]},{"startTime":1522692207000,"endTime":1522692420000,"departureDelay":0,"arrivalDelay":0,"realTime":false,"distance":737.274407588463,"pathway":false,"mode":"BUS","route":"10","agencyName":"Société de Transport du Saguenay","agencyUrl":"http://ville.saguenay.ca/fr/services-aux-citoyens/transport-sts","agencyTimeZoneOffset":-14400000,"routeColor":"0000FF","routeType":3,"routeId":"1:10","routeTextColor":"FFFFFF","interlineWithPreviousLeg":false,"tripBlockId":"26","headsign":"Terminus UQAC","agencyId":"0","tripId":"1:217978","serviceDate":"20180402","from":{"name":"Clinique St-George (St-Thomas)","stopId":"1:359","stopCode":"359","lon":-71.04918,"lat":48.416897,"arrival":1522692206000,"departure":1522692207000,"zoneId":"NA","stopIndex":22,"stopSequence":23,"vertexType":"TRANSIT"},"to":{"name":"Terminus UQAC","stopId":"1:1670","stopCode":"1670","lon":-71.053369,"lat":48.420903,"arrival":1522692420000,"departure":1522692600000,"zoneId":"NA","stopIndex":24,"stopSequence":25,"vertexType":"TRANSIT"},"legGeometry":{"points":"ilofHtxspLeIrU|D~EfDdEwLpKeBgGAsE]gAoD}CUt@a@_@USMM","length":13},"routeShortName":"10","routeLongName":"Notre-Dame du Saguenay","rentedBike":false,"transitLeg":true,"duration":213.0,"steps":[]},{"startTime":1522692600000,"endTime":1522693099000,"departureDelay":0,"arrivalDelay":0,"realTime":false,"distance":2601.259953128011,"pathway":false,"mode":"BUS","route":"12","agencyName":"Société de Transport du Saguenay","agencyUrl":"http://ville.saguenay.ca/fr/services-aux-citoyens/transport-sts","agencyTimeZoneOffset":-14400000,"routeColor":"556B2F","routeType":3,"routeId":"1:12","routeTextColor":"FFFFFF","interlineWithPreviousLeg":true,"tripBlockId":"26","headsign":"Terminus Chicoutimi","agencyId":"0","tripId":"1:217979","serviceDate":"20180402","from":{"name":"Terminus UQAC","stopId":"1:1670","stopCode":"1670","lon":-71.053369,"lat":48.420903,"arrival":1522692420000,"departure":1522692600000,"zoneId":"NA","stopIndex":0,"stopSequence":1,"vertexType":"TRANSIT"},"to":{"name":"Place du Saguenay (Champs-Élysées)","stopId":"1:571","stopCode":"571","lon":-71.055824,"lat":48.408307,"arrival":1522693099000,"departure":1522693100000,"zoneId":"NA","stopIndex":12,"stopSequence":13,"vertexType":"TRANSIT"},"legGeometry":{"points":"sepfHprtpL}@y@Pw@wAsAaB{A}DrL?jCv@fCa@nDaC`D~E`F~MfNjJnJ~GbHnCpCv@iBlAgIdCmFbAqDtBeCjFm@`Gs@hFo@xAmBrGcP","length":25},"routeShortName":"12","routeLongName":"Rivière du Moulin","rentedBike":false,"transitLeg":true,"duration":499.0,"steps":[]},{"startTime":1522693100000,"endTime":1522693446000,"departureDelay":0,"arrivalDelay":0,"realTime":false,"distance":440.784,"pathway":false,"mode":"WALK","route":"","agencyTimeZoneOffset":-14400000,"interlineWithPreviousLeg":false,"from":{"name":"Place du Saguenay (Champs-Élysées)","stopId":"1:571","stopCode":"571","lon":-71.055824,"lat":48.408307,"arrival":1522693099000,"departure":1522693100000,"zoneId":"NA","stopIndex":12,"stopSequence":13,"vertexType":"TRANSIT"},"to":{"name":"Destination","lon":-71.05878699,"lat":48.406351,"arrival":1522693446000,"orig":"","vertexType":"NORMAL"},"legGeometry":{"points":"iwmfHnaupL]|@O`@M\\fBfBcAvCLJXV\\ZfGrFj@f@","length":11},"rentedBike":false,"transitLeg":false,"duration":346.0,"steps":[{"distance":57.429,"relativeDirection":"DEPART","streetName":"Rue des Champs-Élysées","absoluteDirection":"NORTHWEST","stayOn":false,"area":false,"bogusName":false,"lon":-71.05575512063196,"lat":48.408370203803415,"elevation":[]},{"distance":69.905,"relativeDirection":"LEFT","streetName":"Rue Plamondon","absoluteDirection":"SOUTHWEST","stayOn":false,"area":false,"bogusName":false,"lon":-71.0563831,"lat":48.4086751,"elevation":[]},{"distance":67.359,"relativeDirection":"RIGHT","streetName":"Rue Plamondon","absoluteDirection":"NORTHWEST","stayOn":true,"area":false,"bogusName":false,"lon":-71.05690750000001,"lat":48.408151600000004,"elevation":[]},{"distance":246.091,"relativeDirection":"LEFT","streetName":"Rue Bach","absoluteDirection":"SOUTHWEST","stayOn":false,"area":false,"bogusName":false,"lon":-71.05766410000001,"lat":48.408490300000004,"elevation":[]}]}],"tooSloped":false},{"duration":1257,"startTime":1522693989000,"endTime":1522695246000,"walkTime":363,"transitTime":892,"waitingTime":2,"walkDistance":458.7616842065354,"walkLimitExceeded":false,"elevationLost":0.0,"elevationGained":0.0,"transfers":0,"legs":[{"startTime":1522693989000,"endTime":1522694006000,"departureDelay":0,"arrivalDelay":0,"realTime":false,"distance":17.854,"pathway":false,"mode":"WALK","route":"","agencyTimeZoneOffset":-14400000,"interlineWithPreviousLeg":false,"from":{"name":"Origin","lon":-71.048934,"lat":48.416941,"departure":1522693989000,"orig":"","vertexType":"NORMAL"},"to":{"name":"Clinique St-George (St-Thomas)","stopId":"1:359","stopCode":"359","lon":-71.04918,"lat":48.416897,"arrival":1522694006000,"departure":1522694007000,"zoneId":"NA","stopIndex":22,"stopSequence":23,"vertexType":"TRANSIT"},"legGeometry":{"points":"{kofHxwspLM\\G?","length":3},"rentedBike":false,"transitLeg":false,"duration":17.0,"steps":[{"distance":13.462,"relativeDirection":"DEPART","streetName":"Rue Chabanel","absoluteDirection":"NORTHWEST","stayOn":false,"area":false,"bogusName":false,"lon":-71.04908288980329,"lat":48.41678908411017,"elevation":[]},{"distance":4.392,"relativeDirection":"RIGHT","streetName":"Rue d'Alma","absoluteDirection":"NORTH","stayOn":false,"area":false,"bogusName":false,"lon":-71.0492358,"lat":48.41685510000001,"elevation":[]}]},{"startTime":1522694007000,"endTime":1522694220000,"departureDelay":0,"arrivalDelay":0,"realTime":false,"distance":737.274407588463,"pathway":false,"mode":"BUS","route":"10","agencyName":"Société de Transport du Saguenay","agencyUrl":"http://ville.saguenay.ca/fr/services-aux-citoyens/transport-sts","agencyTimeZoneOffset":-14400000,"routeColor":"0000FF","routeType":3,"routeId":"1:10","routeTextColor":"FFFFFF","interlineWithPreviousLeg":false,"tripBlockId":"29","headsign":"Terminus UQAC","agencyId":"0","tripId":"1:218067","serviceDate":"20180402","from":{"name":"Clinique St-George (St-Thomas)","stopId":"1:359","stopCode":"359","lon":-71.04918,"lat":48.416897,"arrival":1522694006000,"departure":1522694007000,"zoneId":"NA","stopIndex":22,"stopSequence":23,"vertexType":"TRANSIT"},"to":{"name":"Terminus UQAC","stopId":"1:1670","stopCode":"1670","lon":-71.053369,"lat":48.420903,"arrival":1522694220000,"departure":1522694400000,"zoneId":"NA","stopIndex":24,"stopSequence":25,"vertexType":"TRANSIT"},"legGeometry":{"points":"ilofHtxspLeIrU|D~EfDdEwLpKeBgGAsE]gAoD}CUt@a@_@USMM","length":13},"routeShortName":"10","routeLongName":"Notre-Dame du Saguenay","rentedBike":false,"transitLeg":true,"duration":213.0,"steps":[]},{"startTime":1522694400000,"endTime":1522694899000,"departureDelay":0,"arrivalDelay":0,"realTime":false,"distance":2601.259953128011,"pathway":false,"mode":"BUS","route":"12","agencyName":"Société de Transport du Saguenay","agencyUrl":"http://ville.saguenay.ca/fr/services-aux-citoyens/transport-sts","agencyTimeZoneOffset":-14400000,"routeColor":"556B2F","routeType":3,"routeId":"1:12","routeTextColor":"FFFFFF","interlineWithPreviousLeg":true,"tripBlockId":"29","headsign":"Terminus Chicoutimi","agencyId":"0","tripId":"1:218068","serviceDate":"20180402","from":{"name":"Terminus UQAC","stopId":"1:1670","stopCode":"1670","lon":-71.053369,"lat":48.420903,"arrival":1522694220000,"departure":1522694400000,"zoneId":"NA","stopIndex":0,"stopSequence":1,"vertexType":"TRANSIT"},"to":{"name":"Place du Saguenay (Champs-Élysées)","stopId":"1:571","stopCode":"571","lon":-71.055824,"lat":48.408307,"arrival":1522694899000,"departure":1522694900000,"zoneId":"NA","stopIndex":12,"stopSequence":13,"vertexType":"TRANSIT"},"legGeometry":{"points":"sepfHprtpL}@y@Pw@wAsAaB{A}DrL?jCv@fCa@nDaC`D~E`F~MfNjJnJ~GbHnCpCv@iBlAgIdCmFbAqDtBeCjFm@`Gs@hFo@xAmBrGcP","length":25},"routeShortName":"12","routeLongName":"Rivière du Moulin","rentedBike":false,"transitLeg":true,"duration":499.0,"steps":[]},{"startTime":1522694900000,"endTime":1522695246000,"departureDelay":0,"arrivalDelay":0,"realTime":false,"distance":440.784,"pathway":false,"mode":"WALK","route":"","agencyTimeZoneOffset":-14400000,"interlineWithPreviousLeg":false,"from":{"name":"Place du Saguenay (Champs-Élysées)","stopId":"1:571","stopCode":"571","lon":-71.055824,"lat":48.408307,"arrival":1522694899000,"departure":1522694900000,"zoneId":"NA","stopIndex":12,"stopSequence":13,"vertexType":"TRANSIT"},"to":{"name":"Destination","lon":-71.05878699,"lat":48.406351,"arrival":1522695246000,"orig":"","vertexType":"NORMAL"},"legGeometry":{"points":"iwmfHnaupL]|@O`@M\\fBfBcAvCLJXV\\ZfGrFj@f@","length":11},"rentedBike":false,"transitLeg":false,"duration":346.0,"steps":[{"distance":57.429,"relativeDirection":"DEPART","streetName":"Rue des Champs-Élysées","absoluteDirection":"NORTHWEST","stayOn":false,"area":false,"bogusName":false,"lon":-71.05575512063196,"lat":48.408370203803415,"elevation":[]},{"distance":69.905,"relativeDirection":"LEFT","streetName":"Rue Plamondon","absoluteDirection":"SOUTHWEST","stayOn":false,"area":false,"bogusName":false,"lon":-71.0563831,"lat":48.4086751,"elevation":[]},{"distance":67.359,"relativeDirection":"RIGHT","streetName":"Rue Plamondon","absoluteDirection":"NORTHWEST","stayOn":true,"area":false,"bogusName":false,"lon":-71.05690750000001,"lat":48.408151600000004,"elevation":[]},{"distance":246.091,"relativeDirection":"LEFT","streetName":"Rue Bach","absoluteDirection":"SOUTHWEST","stayOn":false,"area":false,"bogusName":false,"lon":-71.05766410000001,"lat":48.408490300000004,"elevation":[]}]}],"tooSloped":false}]},"debugOutput":{"precalculationTime":50,"pathCalculationTime":35,"pathTimes":[19,6,10],"renderingTime":1,"totalTime":86,"timedOut":false},"elevationMetadata":{"ellipsoidToGeoidDifference":-28.885904201182168,"geoidElevation":false}}