{"requestParameters":{"date":"2018/04/02","walkSpeed":"1.33","walkReluctance":"2.0","fromPlace":"48.429062,-71.030237","maxWalkDistance":"3000","waitReluctance":"1.0","carSpeed":"33","numItineraries":"3","waitAtBeginningFactor":"0.4","mode":"TRANSIT,WALK","ignoreRealtimeUpdates":"false","stairsReluctance":"2.0","toPlace":"48.392027,-70.98362","time":"16:0:00"},"plan":{"date":1522699200000,"from":{"name":"Origin","lon":-71.030237,"lat":48.429062,"orig":"","vertexType":"NORMAL"},"to":{"name":"Destination","lon":-70.98362,"lat":48.392027,"orig":"","vertexType":"NORMAL"},"itineraries":[{"duration":656,"startTime":1522699615000,"endTime":1522700271000,"walkTime":192,"transitTime":462,"waitingTime":2,"walkDistance":241.89513533659908,"walkLimitExceeded":false,"elevationLost":0.0,"elevationGained":0.0,"transfers":0,"legs":[{"startTime":1522699615000,"endTime":1522699768000,"departureDelay":0,"arrivalDelay":0,"realTime":false,"distance":196.382,"pathway":false,"mode":"WALK","route":"","agencyTimeZoneOffset":-14400000,"interlineWithPreviousLeg":false,"from":{"name":"Origin","lon":-71.030237,"lat":48.429062,"departure":1522699615000,"orig":"","vertexType":"NORMAL"},"to":{"name":"Auberge Le Parasol (boul. Saguenay)","stopId":"1:496","stopCode":"496","lon":-71.027958,"lat":48.428859,"arrival":1522699768000,"departure":1522699769000,"zoneId":"NA","stopIndex":8,"stopSequence":9,"vertexType":"TRANSIT"},"legGeometry":{"points":"m|qfHvappL@kA@y@@c@^s@f@_Aj@cBBM@CRw@","length":10},"rentedBike":false,"transitLeg":false,"duration":153.0,"steps":[{"distance":196.382,"relativeDirection":"DEPART","streetName":"Boulevard du Saguenay Est","absoluteDirection":"EAST","stayOn":false,"area":false,"bogusName":false,"lon":-71.03019364379003,"lat":48.42967286386844,"elevation":[]}]},{"startTime":1522699769000,"endTime":1522700231000,"departureDelay":0,"arrivalDelay":0,"realTime":false,"distance":5625.229916966305,"pathway":false,"mode":"BUS","route":"2S","agencyName":"Société de Transport du Saguenay","agencyUrl":"http://ville.saguenay.ca/fr/services-aux-citoyens/transport-sts","agencyTimeZoneOffset":-14400000,"routeColor":"8B0000","routeType":3,"routeId":"1:2S","routeTextColor":"FFFFFF","interlineWithPreviousLeg":false,"tripBlockId":"100","headsign":"Terminus La Baie","agencyId":"0","tripId":"1:218759","serviceDate":"20180402","from":{"name":"Auberge Le Parasol (boul. Saguenay)","stopId":"1:496","stopCode":"496","lon":-71.027958,"lat":48.428859,"arrival":1522699768000,"departure":1522699769000,"zoneId":"NA","stopIndex":8,"stopSequence":9,"vertexType":"TRANSIT"},"to":{"name":"boul. St-Jean-Baptiste / Girard","stopId":"1:203","stopCode":"203","lon":-70.983956,"lat":48.391634,"arrival":1522700231000,"departure":1522700232000,"zoneId":"NA","stopIndex":20,"stopSequence":21,"vertexType":"TRANSIT"},"legGeometry":{"points":"swqfHnsopLdC_Kf@kBh@_B|AaEhFqLf@cAv@{AjA{A`B_BlAu@dBm@hAWhBMbBHnATlA`@n@ZlFbD|\\xTnBz@vA\\nADpAOjA[xAo@\\UZUdDeD|IoJp@u@l@_Ah@{@f@{@DMp@uAt@iBnAgDrQme@lKwXnGoPlAaDjAsD~@aENy@jCeO\\{ANi@l@cBt@aBr@kAdAuAlEsFrAuBJO`B}CdAmCtEeMtEaMhCeHhJ}V","length":61},"routeShortName":"2S","routeLongName":"Navette Hopital - La Baie","rentedBike":false,"transitLeg":true,"duration":462.0,"steps":[]},{"startTime":1522700232000,"endTime":1522700271000,"departureDelay":0,"arrivalDelay":0,"realTime":false,"distance":45.459,"pathway":false,"mode":"WALK","route":"","agencyTimeZoneOffset":-14400000,"interlineWithPreviousLeg":false,"from":{"name":"boul. St-Jean-Baptiste / Girard","stopId":"1:203","stopCode":"203","lon":-70.983956,"lat":48.391634,"arrival":1522700231000,"departure":1522700232000,"zoneId":"NA","stopIndex":20,"stopSequence":21,"vertexType":"TRANSIT"},"to":{"name":"Destination","lon":-70.98362,"lat":48.392027,"arrival":1522700271000,"orig":"","vertexType":"NORMAL"},"legGeometry":{"points":"aojfHj`gpLCFKMo@u@","length":4},"rentedBike":false,"transitLeg":false,"duration":39.0,"steps":[{"distance":3.793,"relativeDirection":"DEPART","streetName":"Boulevard Saint-Jean-Baptiste","absoluteDirection":"NORTHWEST","stayOn":false,"area":false,"bogusName":false,"lon":-70.98389084555129,"lat":48.39169430964637,"elevation":[]},{"distance":41.666,"relativeDirection":"RIGHT","streetName":"Rue Girard","absoluteDirection":"NORTHEAST","stayOn":false,"area":false,"bogusName":false,"lon":-70.9839326,"lat":48.3917142,"elevation":[]}]}],"tooSloped":false},{"duration":1488,"startTime":1522700434000,"endTime":1522701922000,"walkTime":157,"transitTime":832,"waitingTime":499,"walkDistance":198.3795864650494,"walkLimitExceeded":false,"elevationLost":0.0,"elevationGained":0.0,"transfers":1,"legs":[{"startTime":1522700434000,"endTime":1522700472000,"departureDelay":0,"arrivalDelay":0,"realTime":false,"distance":49.425,"pathway":false,"mode":"WALK","route":"","agencyTimeZoneOffset":-14400000,"interlineWithPreviousLeg":false,"from":{"name":"Origin","lon":-71.030237,"lat":48.429062,"departure":1522700434000,"orig":"","vertexType":"NORMAL"},"to":{"name":"Saguenay / Renaud","stopId":"1:1919","stopCode":"1919","lon":-71.02953,"lat":48.429578,"arrival":1522700472000,"departure":1522700473000,"zoneId":"NA","stopIndex":10,"stopSequence":11,"vertexType":"TRANSIT"},"legGeometry":{"points":"m|qfHvappL@kA@y@","length":3},"rentedBike":false,"transitLeg":false,"duration":38.0,"steps":[{"distance":49.425,"relativeDirection":"DEPART","streetName":"Boulevard du Saguenay Est","absoluteDirection":"EAST","stayOn":false,"area":false,"bogusName":false,"lon":-71.03019364379003,"lat":48.42967286386844,"elevation":[]}]},{"startTime":1522700473000,"endTime":1522701083000,"departureDelay":0,"arrivalDelay":0,"realTime":false,"distance":3306.203330167864,"pathway":false,"mode":"BUS","route":"12","agencyName":"Société de Transport du Saguenay","agencyUrl":"http://ville.saguenay.ca/fr/services-aux-citoyens/transport-sts","agencyTimeZoneOffset":-14400000,"routeColor":"556B2F","routeType":3,"routeId":"1:12","routeTextColor":"FFFFFF","interlineWithPreviousLeg":false,"tripBlockId":"28","headsign":"Terminus UQAC","agencyId":"0","tripId":"1:218045","serviceDate":"20180402","from":{"name":"Saguenay / Renaud","stopId":"1:1919","stopCode":"1919","lon":-71.02953,"lat":48.429578,"arrival":1522700472000,"departure":1522700473000,"zoneId":"NA","stopIndex":10,"stopSequence":11,"vertexType":"TRANSIT"},"to":{"name":"nouveau","stopId":"1:2297","stopCode":"2297","lon":-71.02468,"lat":48.413593,"arrival":1522701083000,"departure":1522701083000,"zoneId":"NA","stopIndex":25,"stopSequence":26,"vertexType":"TRANSIT"},"legGeometry":{"points":"y{qfHp}opLnCyHkGuLqFqJ_DeFf@iIvGsKlIrH`JlH`EfDnOdIdGlGjL|BzBiLv@}L`b@fN","length":16},"routeShortName":"12","routeLongName":"Rivière du Moulin","rentedBike":false,"transitLeg":true,"duration":610.0,"steps":[]},{"startTime":1522701083000,"endTime":1522701163000,"departureDelay":0,"arrivalDelay":0,"realTime":false,"distance":103.461,"pathway":false,"mode":"WALK","route":"","agencyTimeZoneOffset":-14400000,"interlineWithPreviousLeg":false,"from":{"name":"nouveau","stopId":"1:2297","stopCode":"2297","lon":-71.02468,"lat":48.413593,"arrival":1522701083000,"departure":1522701083000,"zoneId":"NA","stopIndex":25,"stopSequence":26,"vertexType":"TRANSIT"},"to":{"name":"boul. St-Jean-Baptiste / boul. Université","stopId":"1:196","stopCode":"196","lon":-71.024224,"lat":48.412686,"arrival":1522701163000,"departure":1522701660000,"zoneId":"NA","stopIndex":4,"stopSequence":5,"vertexType":"TRANSIT"},"legGeometry":{"points":"axnfHb~npLTEp@KfBeA","length":4},"rentedBike":false,"transitLeg":false,"duration":80.0,"steps":[{"distance":40.223,"relativeDirection":"DEPART","streetName":"Boulevard du Saguenay Est","absoluteDirection":"SOUTH","stayOn":false,"area":false,"bogusName":false,"lon":-71.02449091813529,"lat":48.41361228978169,"elevation":[]},{"distance":63.238,"relativeDirection":"CONTINUE","streetName":"Boulevard Saint-Jean-Baptiste","absoluteDirection":"SOUTHEAST","stayOn":false,"area":false,"bogusName":false,"lon":-71.0244078,"lat":48.413254800000004,"elevation":[]}]},{"startTime":1522701660000,"endTime":1522701882000,"departureDelay":0,"arrivalDelay":0,"realTime":false,"distance":3805.88351862574,"pathway":false,"mode":"BUS","route":"5","agencyName":"Société de Transport du Saguenay","agencyUrl":"http://ville.saguenay.ca/fr/services-aux-citoyens/transport-sts","agencyTimeZoneOffset":-14400000,"routeColor":"FF0000","routeType":3,"routeId":"1:5","routeTextColor":"FFFFFF","interlineWithPreviousLeg":false,"tripBlockId":"25","headsign":"Terminus La Baie","agencyId":"0","tripId":"1:217947","serviceDate":"20180402","from":{"name":"boul. St-Jean-Baptiste / boul. Université","stopId":"1:196","stopCode":"196","lon":-71.024224,"lat":48.412686,"arrival":1522701163000,"departure":1522701660000,"zoneId":"NA","stopIndex":4,"stopSequence":5,"vertexType":"TRANSIT"},"to":{"name":"boul. St-Jean-Baptiste / Girard","stopId":"1:203","stopCode":"203","lon":-70.983956,"lat":48.391634,"arrival":1522701882000,"departure":1522701883000,"zoneId":"NA","stopIndex":15,"stopSequence":16,"vertexType":"TRANSIT"},"legGeometry":{"points":"qrnfHr{npLZUdDeD|IoJp@u@l@_Ah@{@f@{@DMp@uAt@iBnAgDrQme@lKwXnGoPlAaDjAsD~@aENy@jCeO\\{ANi@l@cBt@aBr@kAdAuAlEsFrAuBJO`B}CdAmCtEeMtEaMhCeHhJ}V","length":35},"routeShortName":"5","routeLongName":"Term. Chic/Term. Baie via St-J.Batiste","rentedBike":false,"transitLeg":true,"duration":222.0,"steps":[]},{"startTime":1522701883000,"endTime":1522701922000,"departureDelay":0,"arrivalDelay":0,"realTime":false,"distance":45.459,"pathway":false,"mode":"WALK","route":"","agencyTimeZoneOffset":-14400000,"interlineWithPreviousLeg":false,"from":{"name":"boul. St-Jean-Baptiste / Girard","stopId":"1:203","stopCode":"203","lon":-70.983956,"lat":48.391634,"arrival":1522701882000,"departure":1522701883000,"zoneId":"NA","stopIndex":15,"stopSequence":16,"vertexType":"TRANSIT"},"to":{"name":"Destination","lon":-70.98362,"lat":48.392027,"arrival":1522701922000,"orig":"","vertexType":"NORMAL"},"legGeometry":{"points":"aojfHj`gpLCFKMo@u@","length":4},"rentedBike":false,"transitLeg":false,"duration":39.0,"steps":[{"distance":3.793,"relativeDirection":"DEPART","streetName":"Boulevard Saint-Jean-Baptiste","absoluteDirection":"NORTHWEST","stayOn":false,"area":false,"bogusName":false,"lon":-70.98389084555129,"lat":48.39169430964637,"elevation":[]},{"distance":41.666,"relativeDirection":"RIGHT","streetName":"Rue Girard","absoluteDirection":"NORTHEAST","stayOn":false,"area":false,"bogusName":false,"lon":-70.9839326,"lat":48.3917142,"elevation":[]}]}],"tooSloped":false},{"duration":2077,"startTime":1522701045000,"endTime":1522703122000,"walkTime":1853,"transitTime":222,"waitingTime":2,"walkDistance":2428.889067665072,"walkLimitExceeded":false,"elevationLost":0.0,"elevationGained":0.0,"transfers":0,"legs":[{"startTime":1522701045000,"endTime":1522702859000,"departureDelay":0,"arrivalDelay":0,"realTime":false,"distance":2383.3029999999994,"pathway":false,"mode":"WALK","route":"","agencyTimeZoneOffset":-14400000,"interlineWithPreviousLeg":false,"from":{"name":"Origin","lon":-71.030237,"lat":48.429062,"departure":1522701045000,"orig":"","vertexType":"NORMAL"},"to":{"name":"boul. St-Jean-Baptiste / boul. Université","stopId":"1:196","stopCode":"196","lon":-71.024224,"lat":48.412686,"arrival":1522702859000,"departure":1522702860000,"zoneId":"NA","stopIndex":4,"stopSequence":5,"vertexType":"TRANSIT"},"legGeometry":{"points":"m|qfHvappL@kA@y@@c@^s@f@_Aj@cBBM@CRw@H]h@sBDOdCaJXeAvAoDRg@`AaChAqCx@aBd@_A`@w@Zm@xAyB`B}AvBmAzAg@fBYvBBbC\\vAn@|ExCZRfVtOfIjF~CTNC`BUTEp@KfBeA","length":41},"rentedBike":false,"transitLeg":false,"duration":1814.0,"steps":[{"distance":2320.0649999999996,"relativeDirection":"DEPART","streetName":"Boulevard du Saguenay Est","absoluteDirection":"EAST","stayOn":false,"area":false,"bogusName":false,"lon":-71.03019364379003,"lat":48.42967286386844,"elevation":[]},{"distance":63.238,"relativeDirection":"CONTINUE","streetName":"Boulevard Saint-Jean-Baptiste","absoluteDirection":"SOUTHEAST","stayOn":false,"area":false,"bogusName":false,"lon":-71.0244078,"lat":48.413254800000004,"elevation":[]}]},{"startTime":1522702860000,"endTime":1522703082000,"departureDelay":0,"arrivalDelay":0,"realTime":false,"distance":3805.88351862574,"pathway":false,"mode":"BUS","route":"6","agencyName":"Société de Transport du Saguenay","agencyUrl":"http://ville.saguenay.ca/fr/services-aux-citoyens/transport-sts","agencyTimeZoneOffset":-14400000,"routeColor":"FF0000","routeType":3,"routeId":"1:6","routeTextColor":"FFFFFF","interlineWithPreviousLeg":false,"tripBlockId":"24","headsign":"Terminus La Baie","agencyId":"0","tripId":"1:217920","serviceDate":"20180402","from":{"name":"boul. St-Jean-Baptiste / boul. Université","stopId":"1:196","stopCode":"196","lon":-71.024224,"lat":48.412686,"arrival":1522702859000,"departure":1522702860000,"zoneId":"NA","stopIndex":4,"stopSequence":5,"vertexType":"TRANSIT"},"to":{"name":"boul. St-Jean-Baptiste / Girard","stopId":"1:203","stopCode":"203","lon":-70.983956,"lat":48.391634,"arrival":1522703082000,"departure":1522703083000,"zoneId":"NA","stopIndex":15,"stopSequence":16,"vertexType":"TRANSIT"},"legGeometry":{"points":"qrnfHr{npLZUdDeD|IoJp@u@l@_Ah@{@f@{@DMp@uAt@iBnAgDrQme@lKwXnGoPlAaDjAsD~@aENy@jCeO\\{ANi@l@cBt@aBr@kAdAuAlEsFrAuBJO`B}CdAmCtEeMtEaMhCeHhJ}V","length":35},"routeShortName":"6","routeLongName":"Term. Chic/Term. Baie via ch.Plateau","rentedBike":false,"transitLeg":true,"duration":222.0,"steps":[]},{"startTime":1522703083000,"endTime":1522703122000,"departureDelay":0,"arrivalDelay":0,"realTime":false,"distance":45.459,"pathway":false,"mode":"WALK","route":"","agencyTimeZoneOffset":-14400000,"interlineWithPreviousLeg":false,"from":{"name":"boul. St-Jean-Baptiste / Girard","stopId":"1:203","stopCode":"203","lon":-70.983956,"lat":48.391634,"arrival":1522703082000,"departure":1522703083000,"zoneId":"NA","stopIndex":15,"stopSequence":16,"vertexType":"TRANSIT"},"to":{"name":"Destination","lon":-70.98362,"lat":48.392027,"arrival":1522703122000,"orig":"","vertexType":"NORMAL"},"legGeometry":{"points":"aojfHj`gpLCFKMo@u@","length":4},"rentedBike":false,"transitLeg":false,"duration":39.0,"steps":[{"distance":3.793,"relativeDirection":"DEPART","streetName":"Boulevard Saint-Jean-Baptiste","absoluteDirection":"NORTHWEST","stayOn":false,"area":false,"bogusName":false,"lon":-70.98389084555129,"lat":48.39169430964637,"elevation":[]},{"distance":41.666,"relativeDirection":"RIGHT","streetName":"Rue Girard","absoluteDirection":"NORTHEAST","stayOn":false,"area":false,"bogusName":false,"lon":-70.9839326,"lat":48.3917142,"elevation":[]}]}],"tooSloped":false}]},"debugOutput":{"precalculationTime":10,"pathCalculationTime":28,"pathTimes":[7,9,12],"renderingTime":0,"totalTime":38,"timedOut":false},"elevationMetadata":{"ellipsoidToGeoidDifference":-28.885904201182168,"geoidElevation":false}}