{"requestParameters":{"date":"2018/04/02","walkSpeed":"1.33","walkReluctance":"2.0","fromPlace":"48.426529,-71.06890099","maxWalkDistance":"3000","waitReluctance":"1.0","carSpeed":"33","numItineraries":"3","waitAtBeginningFactor":"0.4","mode":"TRANSIT,WALK","ignoreRealtimeUpdates":"false","stairsReluctance":"2.0","toPlace":"48.42757,-71.070938","time":"13:0:00"},"plan":{"date":1522688400000,"from":{"name":"Origin","lon":-71.06890099,"lat":48.426529,"orig":"","vertexType":"NORMAL"},"to":{"name":"Destination","lon":-71.070938,"lat":48.42757,"orig":"","vertexType":"NORMAL"},"itineraries":[{"duration":245,"startTime":1522688400000,"endTime":1522688645000,"walkTime":245,"transitTime":0,"waitingTime":0,"walkDistance":308.2429172910738,"walkLimitExceeded":false,"elevationLost":0.0,"elevationGained":0.0,"transfers":0,"legs":[{"startTime":1522688400000,"endTime":1522688645000,"departureDelay":0,"arrivalDelay":0,"realTime":false,"distance":308.17600000000004,"pathway":false,"mode":"WALK","route":"","agencyTimeZoneOffset":-14400000,"interlineWithPreviousLeg":false,"from":{"name":"Origin","lon":-71.06890099,"lat":48.426529,"departure":1522688400000,"orig":"","vertexType":"NORMAL"},"to":{"name":"Destination","lon":-71.070938,"lat":48.42757,"arrival":1522688645000,"orig":"","vertexType":"NORMAL"},"legGeometry":{"points":"uhqfHxqwpLi@EMrEInCAj@A`D}@BiAF","length":8},"rentedBike":false,"transitLeg":false,"duration":245.0,"steps":[{"distance":23.499,"relativeDirection":"DEPART","streetName":"Rue Sainte-Anne","absoluteDirection":"NORTH","stayOn":false,"area":false,"bogusName":false,"lon":-71.0686001925559,"lat":48.42651056278557,"elevation":[]},{"distance":208.179,"relativeDirection":"LEFT","streetName":"Rue Jacques-Cartier Ouest","absoluteDirection":"WEST","stayOn":false,"area":false,"bogusName":false,"lon":-71.0685709,"lat":48.426721,"elevation":[]},{"distance":76.498,"relativeDirection":"RIGHT","streetName":"Rue Montcalm","absoluteDirection":"NORTH","stayOn":false,"area":false,"bogusName":false,"lon":-71.0713817,"lat":48.426863100000006,"elevation":[]}]}],"tooSloped":false}]},"debugOutput":{"precalculationTime":48,"pathCalculationTime":16,"pathTimes":[3,10,3],"renderingTime":0,"totalTime":64,"timedOut":false},"elevationMetadata":{"ellipsoidToGeoidDifference":-28.885904201182168,"geoidElevation":false}}