{"requestParameters":{"date":"2018/04/02","walkSpeed":"1.33","walkReluctance":"2.0","fromPlace":"48.414505,-71.082993","maxWalkDistance":"3000","waitReluctance":"1.0","carSpeed":"33","numItineraries":"3","waitAtBeginningFactor":"0.4","mode":"TRANSIT,WALK","ignoreRealtimeUpdates":"false","stairsReluctance":"2.0","toPlace":"48.420781,-71.07792899","time":"15:45:00"},"plan":{"date":1522698300000,"from":{"name":"Origin","lon":-71.082993,"lat":48.414505,"orig":"","vertexType":"NORMAL"},"to":{"name":"Destination","lon":-71.07792899,"lat":48.420781,"orig":"","vertexType":"NORMAL"},"itineraries":[{"duration":696,"startTime":1522698300000,"endTime":1522698996000,"walkTime":696,"transitTime":0,"waitingTime":0,"walkDistance":897.7373759366109,"walkLimitExceeded":false,"elevationLost":0.0,"elevationGained":0.0,"transfers":0,"legs":[{"startTime":1522698300000,"endTime":1522698996000,"departureDelay":0,"arrivalDelay":0,"realTime":false,"distance":897.6370000000001,"pathway":false,"mode":"WALK","route":"","agencyTimeZoneOffset":-14400000,"interlineWithPreviousLeg":false,"from":{"name":"Origin","lon":-71.082993,"lat":48.414505,"departure":1522698300000,"orig":"","vertexType":"NORMAL"},"to":{"name":"Destination","lon":-71.07792899,"lat":48.420781,"arrival":1522698996000,"orig":"","vertexType":"NORMAL"},"legGeometry":{"points":"w~nfHpmzpL{EwHc@s@IOaFeIIOg@w@{EiFACa@a@y@{@w@xB]fAkGgEQb@","length":15},"rentedBike":false,"transitLeg":false,"duration":696.0,"steps":[{"distance":628.771,"relativeDirection":"DEPART","streetName":"Rue Saint-Paul","absoluteDirection":"NORTHEAST","stayOn":false,"area":false,"bogusName":false,"lon":-71.08328277597808,"lat":48.41468647782652,"elevation":[]},{"distance":86.137,"relativeDirection":"LEFT","streetName":"Rue Saint-Henri","absoluteDirection":"NORTHWEST","stayOn":false,"area":false,"bogusName":false,"lon":-71.07773680000001,"lat":48.418960000000006,"elevation":[]},{"distance":166.106,"relativeDirection":"RIGHT","streetName":"Rue Taché","absoluteDirection":"NORTHEAST","stayOn":false,"area":false,"bogusName":false,"lon":-71.07870050000001,"lat":48.419397000000004,"elevation":[]},{"distance":16.623,"relativeDirection":"LEFT","streetName":"Rue Fafard","absoluteDirection":"NORTHWEST","stayOn":false,"area":false,"bogusName":false,"lon":-71.077702,"lat":48.4207358,"elevation":[]}]}],"tooSloped":false},{"duration":246,"startTime":1522699294000,"endTime":1522699540000,"walkTime":155,"transitTime":89,"waitingTime":2,"walkDistance":197.44245864553693,"walkLimitExceeded":false,"elevationLost":0.0,"elevationGained":0.0,"transfers":0,"legs":[{"startTime":1522699294000,"endTime":1522699319000,"departureDelay":0,"arrivalDelay":0,"realTime":false,"distance":32.796,"pathway":false,"mode":"WALK","route":"","agencyTimeZoneOffset":-14400000,"interlineWithPreviousLeg":false,"from":{"name":"Origin","lon":-71.082993,"lat":48.414505,"departure":1522699294000,"orig":"","vertexType":"NORMAL"},"to":{"name":"Saint-Paul / Sainte-Thérèse","stopId":"1:1890","stopCode":"1890","lon":-71.083492,"lat":48.414412,"arrival":1522699319000,"departure":1522699320000,"zoneId":"NA","stopIndex":18,"stopSequence":19,"vertexType":"TRANSIT"},"legGeometry":{"points":"w~nfHpmzpLh@z@","length":2},"rentedBike":false,"transitLeg":false,"duration":25.0,"steps":[{"distance":32.796,"relativeDirection":"DEPART","streetName":"Rue Saint-Paul","absoluteDirection":"SOUTHWEST","stayOn":false,"area":false,"bogusName":false,"lon":-71.08328277597808,"lat":48.41468647782652,"elevation":[]}]},{"startTime":1522699320000,"endTime":1522699409000,"departureDelay":0,"arrivalDelay":0,"realTime":false,"distance":786.5003845586078,"pathway":false,"mode":"BUS","route":"11","agencyName":"Société de Transport du Saguenay","agencyUrl":"http://ville.saguenay.ca/fr/services-aux-citoyens/transport-sts","agencyTimeZoneOffset":-14400000,"routeColor":"FF0000","routeType":3,"routeId":"1:11","routeTextColor":"FFFFFF","interlineWithPreviousLeg":false,"tripBlockId":"36","headsign":"Terminus Chicoutimi","agencyId":"0","tripId":"1:218295","serviceDate":"20180402","from":{"name":"Saint-Paul / Sainte-Thérèse","stopId":"1:1890","stopCode":"1890","lon":-71.083492,"lat":48.414412,"arrival":1522699319000,"departure":1522699320000,"zoneId":"NA","stopIndex":18,"stopSequence":19,"vertexType":"TRANSIT"},"to":{"name":"Saint-Paul / Fafard","stopId":"1:1894","stopCode":"1894","lon":-71.076709,"lat":48.419846,"arrival":1522699409000,"departure":1522699410000,"zoneId":"NA","stopIndex":22,"stopSequence":23,"vertexType":"TRANSIT"},"legGeometry":{"points":"k}nfHlozpLkHgL{C{E}AcCc@o@q@gAOWwCyCyGyG","length":9},"routeShortName":"11","routeLongName":"Chic/Faubourg via St-Paul","rentedBike":false,"transitLeg":true,"duration":89.0,"steps":[]},{"startTime":1522699410000,"endTime":1522699540000,"departureDelay":0,"arrivalDelay":0,"realTime":false,"distance":164.613,"pathway":false,"mode":"WALK","route":"","agencyTimeZoneOffset":-14400000,"interlineWithPreviousLeg":false,"from":{"name":"Saint-Paul / Fafard","stopId":"1:1894","stopCode":"1894","lon":-71.076709,"lat":48.419846,"arrival":1522699409000,"departure":1522699410000,"zoneId":"NA","stopIndex":22,"stopSequence":23,"vertexType":"TRANSIT"},"to":{"name":"Destination","lon":-71.07792899,"lat":48.420781,"arrival":1522699540000,"orig":"","vertexType":"NORMAL"},"legGeometry":{"points":"g_pfH~dypLOOi@k@y@zBu@tBQb@","length":6},"rentedBike":false,"transitLeg":false,"duration":130.0,"steps":[{"distance":39.295,"relativeDirection":"DEPART","streetName":"Rue Saint-Paul","absoluteDirection":"NORTHEAST","stayOn":false,"area":false,"bogusName":false,"lon":-71.07679301822392,"lat":48.419883806353,"elevation":[]},{"distance":125.318,"relativeDirection":"LEFT","streetName":"Rue Fafard","absoluteDirection":"NORTHWEST","stayOn":false,"area":false,"bogusName":false,"lon":-71.0764942,"lat":48.4201763,"elevation":[]}]}],"tooSloped":false},{"duration":246,"startTime":1522701094000,"endTime":1522701340000,"walkTime":155,"transitTime":89,"waitingTime":2,"walkDistance":197.44245864553693,"walkLimitExceeded":false,"elevationLost":0.0,"elevationGained":0.0,"transfers":0,"legs":[{"startTime":1522701094000,"endTime":1522701119000,"departureDelay":0,"arrivalDelay":0,"realTime":false,"distance":32.796,"pathway":false,"mode":"WALK","route":"","agencyTimeZoneOffset":-14400000,"interlineWithPreviousLeg":false,"from":{"name":"Origin","lon":-71.082993,"lat":48.414505,"departure":1522701094000,"orig":"","vertexType":"NORMAL"},"to":{"name":"Saint-Paul / Sainte-Thérèse","stopId":"1:1890","stopCode":"1890","lon":-71.083492,"lat":48.414412,"arrival":1522701119000,"departure":1522701120000,"zoneId":"NA","stopIndex":18,"stopSequence":19,"vertexType":"TRANSIT"},"legGeometry":{"points":"w~nfHpmzpLh@z@","length":2},"rentedBike":false,"transitLeg":false,"duration":25.0,"steps":[{"distance":32.796,"relativeDirection":"DEPART","streetName":"Rue Saint-Paul","absoluteDirection":"SOUTHWEST","stayOn":false,"area":false,"bogusName":false,"lon":-71.08328277597808,"lat":48.41468647782652,"elevation":[]}]},{"startTime":1522701120000,"endTime":1522701209000,"departureDelay":0,"arrivalDelay":0,"realTime":false,"distance":786.5003845586078,"pathway":false,"mode":"BUS","route":"11","agencyName":"Société de Transport du Saguenay","agencyUrl":"http://ville.saguenay.ca/fr/services-aux-citoyens/transport-sts","agencyTimeZoneOffset":-14400000,"routeColor":"FF0000","routeType":3,"routeId":"1:11","routeTextColor":"FFFFFF","interlineWithPreviousLeg":false,"tripBlockId":"35","headsign":"Terminus Chicoutimi","agencyId":"0","tripId":"1:218261","serviceDate":"20180402","from":{"name":"Saint-Paul / Sainte-Thérèse","stopId":"1:1890","stopCode":"1890","lon":-71.083492,"lat":48.414412,"arrival":1522701119000,"departure":1522701120000,"zoneId":"NA","stopIndex":18,"stopSequence":19,"vertexType":"TRANSIT"},"to":{"name":"Saint-Paul / Fafard","stopId":"1:1894","stopCode":"1894","lon":-71.076709,"lat":48.419846,"arrival":1522701209000,"departure":1522701210000,"zoneId":"NA","stopIndex":22,"stopSequence":23,"vertexType":"TRANSIT"},"legGeometry":{"points":"k}nfHlozpLkHgL{C{E}AcCc@o@q@gAOWwCyCyGyG","length":9},"routeShortName":"11","routeLongName":"Chic/Faubourg via St-Paul","rentedBike":false,"transitLeg":true,"duration":89.0,"steps":[]},{"startTime":1522701210000,"endTime":1522701340000,"departureDelay":0,"arrivalDelay":0,"realTime":false,"distance":164.613,"pathway":false,"mode":"WALK","route":"","agencyTimeZoneOffset":-14400000,"interlineWithPreviousLeg":false,"from":{"name":"Saint-Paul / Fafard","stopId":"1:1894","stopCode":"1894","lon":-71.076709,"lat":48.419846,"arrival":1522701209000,"departure":1522701210000,"zoneId":"NA","stopIndex":22,"stopSequence":23,"vertexType":"TRANSIT"},"to":{"name":"Destination","lon":-71.07792899,"lat":48.420781,"arrival":1522701340000,"orig":"","vertexType":"NORMAL"},"legGeometry":{"points":"g_pfH~dypLOOi@k@y@zBu@tBQb@","length":6},"rentedBike":false,"transitLeg":false,"duration":130.0,"steps":[{"distance":39.295,"relativeDirection":"DEPART","streetName":"Rue Saint-Paul","absoluteDirection":"NORTHEAST","stayOn":false,"area":false,"bogusName":false,"lon":-71.07679301822392,"lat":48.419883806353,"elevation":[]},{"distance":125.318,"relativeDirection":"LEFT","streetName":"Rue Fafard","absoluteDirection":"NORTHWEST","stayOn":false,"area":false,"bogusName":false,"lon":-71.0764942,"lat":48.4201763,"elevation":[]}]}],"tooSloped":false}]},"debugOutput":{"precalculationTime":24,"pathCalculationTime":12,"pathTimes":[3,4,5],"renderingTime":0,"totalTime":36,"timedOut":false},"elevationMetadata":{"ellipsoidToGeoidDifference":-28.885904201182168,"geoidElevation":false}}