{"requestParameters":{"date":"2018/04/02","walkSpeed":"1.33","walkReluctance":"2.0","fromPlace":"48.452699,-71.06197299","maxWalkDistance":"3000","waitReluctance":"1.0","carSpeed":"33","numItineraries":"3","waitAtBeginningFactor":"0.4","mode":"TRANSIT,WALK","ignoreRealtimeUpdates":"false","stairsReluctance":"2.0","toPlace":"48.40969,-71.05486799","time":"7:50:00"},"plan":{"date":1522669800000,"from":{"name":"Origin","lon":-71.06197299,"lat":48.452699,"orig":"","vertexType":"NORMAL"},"to":{"name":"Destination","lon":-71.05486799,"lat":48.40969,"orig":"","vertexType":"NORMAL"},"itineraries":[{"duration":2573,"startTime":1522670354000,"endTime":1522672927000,"walkTime":321,"transitTime":1950,"waitingTime":302,"walkDistance":417.37521052521186,"walkLimitExceeded":false,"elevationLost":0.0,"elevationGained":0.0,"transfers":1,"legs":[{"startTime":1522670354000,"endTime":1522670429000,"departureDelay":0,"arrivalDelay":0,"realTime":false,"distance":99.718,"pathway":false,"mode":"WALK","route":"","agencyTimeZoneOffset":-14400000,"interlineWithPreviousLeg":false,"from":{"name":"Origin","lon":-71.06197299,"lat":48.452699,"departure":1522670354000,"orig":"","vertexType":"NORMAL"},"to":{"name":"Delisle / Dupré","stopId":"1:106","stopCode":"106","lon":-71.062068,"lat":48.451776,"arrival":1522670429000,"departure":1522670430000,"zoneId":"NA","stopIndex":23,"stopSequence":24,"vertexType":"TRANSIT"},"legGeometry":{"points":"ukvfHlevpLhDrA","length":2},"rentedBike":false,"transitLeg":false,"duration":75.0,"steps":[{"distance":99.718,"relativeDirection":"DEPART","streetName":"Rue Delisle","absoluteDirection":"SOUTH","stayOn":false,"area":false,"bogusName":false,"lon":-71.06150703552997,"lat":48.4525978098598,"elevation":[]}]},{"startTime":1522670430000,"endTime":1522671000000,"departureDelay":0,"arrivalDelay":0,"realTime":false,"distance":3569.6530061332123,"pathway":false,"mode":"BUS","route":"22","agencyName":"Société de Transport du Saguenay","agencyUrl":"http://ville.saguenay.ca/fr/services-aux-citoyens/transport-sts","agencyTimeZoneOffset":-14400000,"routeColor":"C0C000","routeType":3,"routeId":"1:22","routeTextColor":"000000","interlineWithPreviousLeg":false,"tripBlockId":"1","headsign":"Terminus Chicoutimi","agencyId":"0","tripId":"1:217132","serviceDate":"20180402","from":{"name":"Delisle / Dupré","stopId":"1:106","stopCode":"106","lon":-71.062068,"lat":48.451776,"arrival":1522670429000,"departure":1522670430000,"zoneId":"NA","stopIndex":23,"stopSequence":24,"vertexType":"TRANSIT"},"to":{"name":"Terminus Chicoutimi","stopId":"1:1289","stopCode":"1289","lon":-71.066163,"lat":48.428677,"arrival":1522671000000,"departure":1522671300000,"zoneId":"NA","stopIndex":35,"stopSequence":36,"vertexType":"TRANSIT"},"legGeometry":{"points":"mfvfHjhvpLhAb@qAfJSzAMr@Yz@xAhDFNpBdFRp@Hl@Jz@BXXrCHl@Lh@Nf@r@nAr@r@`@PLFbAVH_AXeC@IdB_Mh@_EJk@x@x@bA`A|BrBnDrCl@f@|BlBrAbAj@d@ZTXNd@@lA[ZxDN|Ad@fAz@tB~AzDZ|@Zv@x@vBP\\h@~@PVrCmFhHqN~@eBr@cAt@_Av@}@RQPMz@k@tAe@REZG^Af@@X@VF`@Jn@XbClAr@Xt\\`PrAb@pA^hBTjAFj@Pb@JPHLLJNJRFXDT?X?ZEVEVKTMNMHMFOB}DWSGOSYcAN}FFkAF}DJyDd@wPV_HjAN~ALIzBQb@e@@","length":108},"routeShortName":"22","routeLongName":"Vanier","rentedBike":false,"transitLeg":true,"duration":570.0,"steps":[]},{"startTime":1522671300000,"endTime":1522672680000,"departureDelay":0,"arrivalDelay":0,"realTime":false,"distance":8921.890108417734,"pathway":false,"mode":"BUS","route":"12","agencyName":"Société de Transport du Saguenay","agencyUrl":"http://ville.saguenay.ca/fr/services-aux-citoyens/transport-sts","agencyTimeZoneOffset":-14400000,"routeColor":"556B2F","routeType":3,"routeId":"1:12","routeTextColor":"FFFFFF","interlineWithPreviousLeg":false,"tripBlockId":"28","headsign":"Terminus UQAC","agencyId":"0","tripId":"1:218029","serviceDate":"20180402","from":{"name":"Terminus Chicoutimi","stopId":"1:1289","stopCode":"1289","lon":-71.066163,"lat":48.428677,"arrival":1522671000000,"departure":1522671300000,"zoneId":"NA","stopIndex":0,"stopSequence":1,"vertexType":"TRANSIT"},"to":{"name":"Champs-Élysées / Chopin","stopId":"1:584","stopCode":"584","lon":-71.058412,"lat":48.409805,"arrival":1522672680000,"departure":1522672681000,"zoneId":"NA","stopIndex":29,"stopSequence":30,"vertexType":"TRANSIT"},"legGeometry":{"points":"evqfHpbwpLpFcj@IaKmFy^_DaZz@u]SeV}@aNs@gKToKd@gTnCyHkGuLqFqJ_DeFf@iIvGsKlIrH`JlH`EfDnOdIdGlGjL|BzBiLv@}L`b@fNvVvrCdRvMcAjKcP~b@","length":30},"routeShortName":"12","routeLongName":"Rivière du Moulin","rentedBike":false,"transitLeg":true,"duration":1380.0,"steps":[]},{"startTime":1522672681000,"endTime":1522672927000,"departureDelay":0,"arrivalDelay":0,"realTime":false,"distance":317.62300000000005,"pathway":false,"mode":"WALK","route":"","agencyTimeZoneOffset":-14400000,"interlineWithPreviousLeg":false,"from":{"name":"Champs-Élysées / Chopin","stopId":"1:584","stopCode":"584","lon":-71.058412,"lat":48.409805,"arrival":1522672680000,"departure":1522672681000,"zoneId":"NA","stopIndex":29,"stopSequence":30,"vertexType":"TRANSIT"},"to":{"name":"Destination","lon":-71.05486799,"lat":48.40969,"arrival":1522672927000,"orig":"","vertexType":"NORMAL"},"legGeometry":{"points":"{_nfHprupL`@}@lCcHaCmC}AiB","length":5},"rentedBike":false,"transitLeg":false,"duration":246.0,"steps":[{"distance":163.292,"relativeDirection":"DEPART","streetName":"Rue des Champs-Élysées","absoluteDirection":"SOUTHEAST","stayOn":false,"area":false,"bogusName":false,"lon":-71.05848639303342,"lat":48.40974208921815,"elevation":[]},{"distance":154.33100000000002,"relativeDirection":"LEFT","streetName":"Rue Mozart","absoluteDirection":"NORTHEAST","stayOn":false,"area":false,"bogusName":false,"lon":-71.05671190000001,"lat":48.4088653,"elevation":[]}]}],"tooSloped":false},{"duration":2997,"startTime":1522671553000,"endTime":1522674550000,"walkTime":966,"transitTime":1429,"waitingTime":602,"walkDistance":1243.8720300715734,"walkLimitExceeded":false,"elevationLost":0.0,"elevationGained":0.0,"transfers":1,"legs":[{"startTime":1522671553000,"endTime":1522671959000,"departureDelay":0,"arrivalDelay":0,"realTime":false,"distance":525.938,"pathway":false,"mode":"WALK","route":"","agencyTimeZoneOffset":-14400000,"interlineWithPreviousLeg":false,"from":{"name":"Origin","lon":-71.06197299,"lat":48.452699,"departure":1522671553000,"orig":"","vertexType":"NORMAL"},"to":{"name":"Verdun / Riviera","stopId":"1:2023","stopCode":"2023","lon":-71.057875,"lat":48.449739,"arrival":1522671959000,"departure":1522671960000,"zoneId":"NA","stopIndex":14,"stopSequence":15,"vertexType":"TRANSIT"},"legGeometry":{"points":"ukvfHlevpLhDrAhAd@VJ\\oBb@mBjAcJn@{C~@sAf@y@","length":10},"rentedBike":false,"transitLeg":false,"duration":406.0,"steps":[{"distance":157.445,"relativeDirection":"DEPART","streetName":"Rue Delisle","absoluteDirection":"SOUTH","stayOn":false,"area":false,"bogusName":false,"lon":-71.06150703552997,"lat":48.4525978098598,"elevation":[]},{"distance":291.353,"relativeDirection":"LEFT","streetName":"path","absoluteDirection":"EAST","stayOn":false,"area":false,"bogusName":true,"lon":-71.0621742,"lat":48.451252800000006,"elevation":[]},{"distance":77.14,"relativeDirection":"SLIGHTLY_RIGHT","streetName":"Rue de Verdun","absoluteDirection":"SOUTHEAST","stayOn":false,"area":false,"bogusName":false,"lon":-71.05850140000001,"lat":48.450301200000006,"elevation":[]}]},{"startTime":1522671960000,"endTime":1522672500000,"departureDelay":0,"arrivalDelay":0,"realTime":false,"distance":3566.9301798582574,"pathway":false,"mode":"BUS","route":"23","agencyName":"Société de Transport du Saguenay","agencyUrl":"http://ville.saguenay.ca/fr/services-aux-citoyens/transport-sts","agencyTimeZoneOffset":-14400000,"routeColor":"FF00FF","routeType":3,"routeId":"1:23","routeTextColor":"FFFFFF","interlineWithPreviousLeg":false,"tripBlockId":"4","headsign":"Terminus Chicoutimi","agencyId":"0","tripId":"1:217226","serviceDate":"20180402","from":{"name":"Verdun / Riviera","stopId":"1:2023","stopCode":"2023","lon":-71.057875,"lat":48.449739,"arrival":1522671959000,"departure":1522671960000,"zoneId":"NA","stopIndex":14,"stopSequence":15,"vertexType":"TRANSIT"},"to":{"name":"Terminus Chicoutimi","stopId":"1:1289","stopCode":"1289","lon":-71.066163,"lat":48.428677,"arrival":1522672500000,"departure":1522673100000,"zoneId":"NA","stopIndex":26,"stopSequence":27,"vertexType":"TRANSIT"},"legGeometry":{"points":"czufHhnupLT[~CkFf@s@\\e@x@}@jAeAXQZStBaAh@]`@]`@i@l@kDF_@R{AFWFMPIPC`@BT@V?TAVKLENCLCJ@J@xAb@x@Zz@\\CP?R@N@NFLFF`GtBx@Xw@pG@l@B\\DXL\\RZDFXPf@N@v@Bp@Dr@l@~HNlAH\\@HLd@\\z@Xd@X\\RTXRr@Zn@PfExAvDpALnBJt@Pp@|@`DHZPn@`@rBNnAFr@DbA?bB@jABzA?p@A???A???A?A???A@??A?A@??A@?@A??@A@???@A@?@?@A@?@?@?@?@???@?@?@?@?@?@@@?@?@@@?@@@?@@@?@@?@@??@@@?E`@Kr@]rACVEl@I|AAr@JbAWJe@FUAM?a@Ke@YYWWa@v@}@RQPMz@k@tAe@REZG^Af@@X@VF`@Jn@XbClAr@Xt\\`PrAb@pA^hBTjAFj@Pb@JPHLLJNJRFXDT?X?ZEVEVKTMNMHMFOB}DWSGOSYcAN}FFkAF}DJyDd@wPV_HjAN~ALI`C","length":195},"routeShortName":"23","routeLongName":"Côte Verdun via Aréna du Plateau","rentedBike":false,"transitLeg":true,"duration":540.0,"steps":[]},{"startTime":1522673100000,"endTime":1522673989000,"departureDelay":0,"arrivalDelay":0,"realTime":false,"distance":4161.798962757783,"pathway":false,"mode":"BUS","route":"175","agencyName":"Société de Transport du Saguenay","agencyUrl":"http://ville.saguenay.ca/fr/services-aux-citoyens/transport-sts","agencyTimeZoneOffset":-14400000,"routeColor":"FF00FF","routeType":3,"routeId":"1:175","routeTextColor":"FFFFFF","interlineWithPreviousLeg":false,"tripBlockId":"7","headsign":"Costco","agencyId":"0","tripId":"1:217325","serviceDate":"20180402","from":{"name":"Terminus Chicoutimi","stopId":"1:1289","stopCode":"1289","lon":-71.066163,"lat":48.428677,"arrival":1522672500000,"departure":1522673100000,"zoneId":"NA","stopIndex":0,"stopSequence":1,"vertexType":"TRANSIT"},"to":{"name":"Émile Girardin / Roitelets","stopId":"1:253","stopCode":"253","lon":-71.050677,"lat":48.406726,"arrival":1522673989000,"departure":1522673990000,"zoneId":"NA","stopIndex":17,"stopSequence":18,"vertexType":"TRANSIT"},"legGeometry":{"points":"kvqfH~awpL~CgBbAqa@FwCBkAOsHAg@bAYUwMKoE@mB@kJ@iFbEf@xEj@iCtYp@r@z@`ABBvHtHXRx@l@VwAvAgB\\qBIuAC]g@yEzDuLbBbBvAxAMx@|@v@`A~@Xw@~D~DPxFZtA~ApE`N{LpFmEb@[ROl@[vDQXKfA[|@q@fAsBlEmMr@sBhCsKz@dAjB|@dM`GzCvAXrC","length":57},"routeShortName":"175","routeLongName":"Term. Chic / Costco","rentedBike":false,"transitLeg":true,"duration":889.0,"steps":[]},{"startTime":1522673990000,"endTime":1522674550000,"departureDelay":0,"arrivalDelay":0,"realTime":false,"distance":717.822,"pathway":false,"mode":"WALK","route":"","agencyTimeZoneOffset":-14400000,"interlineWithPreviousLeg":false,"from":{"name":"Émile Girardin / Roitelets","stopId":"1:253","stopCode":"253","lon":-71.050677,"lat":48.406726,"arrival":1522673989000,"departure":1522673990000,"zoneId":"NA","stopIndex":17,"stopSequence":18,"vertexType":"TRANSIT"},"to":{"name":"Destination","lon":-71.05486799,"lat":48.40969,"arrival":1522674550000,"orig":"","vertexType":"NORMAL"},"legGeometry":{"points":"qlmfHnatpL@J@FFn@z@pEcA`AgAtAQTOb@aA~Cs@pBk@~AIRO`@GPm@|A]|@O`@M\\e@`AaCmC}AiB","length":22},"rentedBike":false,"transitLeg":false,"duration":560.0,"steps":[{"distance":110.098,"relativeDirection":"DEPART","streetName":"Rue Émile-Girardin","absoluteDirection":"WEST","stayOn":false,"area":false,"bogusName":false,"lon":-71.05063801296859,"lat":48.406654574894674,"elevation":[]},{"distance":453.39300000000003,"relativeDirection":"RIGHT","streetName":"Rue des Champs-Élysées","absoluteDirection":"NORTHWEST","stayOn":false,"area":false,"bogusName":false,"lon":-71.05202630000001,"lat":48.4062974,"elevation":[]},{"distance":154.33100000000002,"relativeDirection":"RIGHT","streetName":"Rue Mozart","absoluteDirection":"NORTHEAST","stayOn":false,"area":false,"bogusName":false,"lon":-71.05671190000001,"lat":48.4088653,"elevation":[]}]}],"tooSloped":false},{"duration":2573,"startTime":1522672154000,"endTime":1522674727000,"walkTime":321,"transitTime":1950,"waitingTime":302,"walkDistance":417.37521052521186,"walkLimitExceeded":false,"elevationLost":0.0,"elevationGained":0.0,"transfers":1,"legs":[{"startTime":1522672154000,"endTime":1522672229000,"departureDelay":0,"arrivalDelay":0,"realTime":false,"distance":99.718,"pathway":false,"mode":"WALK","route":"","agencyTimeZoneOffset":-14400000,"interlineWithPreviousLeg":false,"from":{"name":"Origin","lon":-71.06197299,"lat":48.452699,"departure":1522672154000,"orig":"","vertexType":"NORMAL"},"to":{"name":"Delisle / Dupré","stopId":"1:106","stopCode":"106","lon":-71.062068,"lat":48.451776,"arrival":1522672229000,"departure":1522672230000,"zoneId":"NA","stopIndex":23,"stopSequence":24,"vertexType":"TRANSIT"},"legGeometry":{"points":"ukvfHlevpLhDrA","length":2},"rentedBike":false,"transitLeg":false,"duration":75.0,"steps":[{"distance":99.718,"relativeDirection":"DEPART","streetName":"Rue Delisle","absoluteDirection":"SOUTH","stayOn":false,"area":false,"bogusName":false,"lon":-71.06150703552997,"lat":48.4525978098598,"elevation":[]}]},{"startTime":1522672230000,"endTime":1522672800000,"departureDelay":0,"arrivalDelay":0,"realTime":false,"distance":3569.6530061332123,"pathway":false,"mode":"BUS","route":"22","agencyName":"Société de Transport du Saguenay","agencyUrl":"http://ville.saguenay.ca/fr/services-aux-citoyens/transport-sts","agencyTimeZoneOffset":-14400000,"routeColor":"C0C000","routeType":3,"routeId":"1:22","routeTextColor":"000000","interlineWithPreviousLeg":false,"tripBlockId":"3","headsign":"Terminus Chicoutimi","agencyId":"0","tripId":"1:217190","serviceDate":"20180402","from":{"name":"Delisle / Dupré","stopId":"1:106","stopCode":"106","lon":-71.062068,"lat":48.451776,"arrival":1522672229000,"departure":1522672230000,"zoneId":"NA","stopIndex":23,"stopSequence":24,"vertexType":"TRANSIT"},"to":{"name":"Terminus Chicoutimi","stopId":"1:1289","stopCode":"1289","lon":-71.066163,"lat":48.428677,"arrival":1522672800000,"departure":1522673100000,"zoneId":"NA","stopIndex":35,"stopSequence":36,"vertexType":"TRANSIT"},"legGeometry":{"points":"mfvfHjhvpLhAb@qAfJSzAMr@Yz@xAhDFNpBdFRp@Hl@Jz@BXXrCHl@Lh@Nf@r@nAr@r@`@PLFbAVH_AXeC@IdB_Mh@_EJk@x@x@bA`A|BrBnDrCl@f@|BlBrAbAj@d@ZTXNd@@lA[ZxDN|Ad@fAz@tB~AzDZ|@Zv@x@vBP\\h@~@PVrCmFhHqN~@eBr@cAt@_Av@}@RQPMz@k@tAe@REZG^Af@@X@VF`@Jn@XbClAr@Xt\\`PrAb@pA^hBTjAFj@Pb@JPHLLJNJRFXDT?X?ZEVEVKTMNMHMFOB}DWSGOSYcAN}FFkAF}DJyDd@wPV_HjAN~ALIzBQb@e@@","length":108},"routeShortName":"22","routeLongName":"Vanier","rentedBike":false,"transitLeg":true,"duration":570.0,"steps":[]},{"startTime":1522673100000,"endTime":1522674480000,"departureDelay":0,"arrivalDelay":0,"realTime":false,"distance":8921.890108417734,"pathway":false,"mode":"BUS","route":"12","agencyName":"Société de Transport du Saguenay","agencyUrl":"http://ville.saguenay.ca/fr/services-aux-citoyens/transport-sts","agencyTimeZoneOffset":-14400000,"routeColor":"556B2F","routeType":3,"routeId":"1:12","routeTextColor":"FFFFFF","interlineWithPreviousLeg":false,"tripBlockId":"27","headsign":"Terminus UQAC","agencyId":"0","tripId":"1:218004","serviceDate":"20180402","from":{"name":"Terminus Chicoutimi","stopId":"1:1289","stopCode":"1289","lon":-71.066163,"lat":48.428677,"arrival":1522672800000,"departure":1522673100000,"zoneId":"NA","stopIndex":0,"stopSequence":1,"vertexType":"TRANSIT"},"to":{"name":"Champs-Élysées / Chopin","stopId":"1:584","stopCode":"584","lon":-71.058412,"lat":48.409805,"arrival":1522674480000,"departure":1522674481000,"zoneId":"NA","stopIndex":29,"stopSequence":30,"vertexType":"TRANSIT"},"legGeometry":{"points":"evqfHpbwpLpFcj@IaKmFy^_DaZz@u]SeV}@aNs@gKToKd@gTnCyHkGuLqFqJ_DeFf@iIvGsKlIrH`JlH`EfDnOdIdGlGjL|BzBiLv@}L`b@fNvVvrCdRvMcAjKcP~b@","length":30},"routeShortName":"12","routeLongName":"Rivière du Moulin","rentedBike":false,"transitLeg":true,"duration":1380.0,"steps":[]},{"startTime":1522674481000,"endTime":1522674727000,"departureDelay":0,"arrivalDelay":0,"realTime":false,"distance":317.62300000000005,"pathway":false,"mode":"WALK","route":"","agencyTimeZoneOffset":-14400000,"interlineWithPreviousLeg":false,"from":{"name":"Champs-Élysées / Chopin","stopId":"1:584","stopCode":"584","lon":-71.058412,"lat":48.409805,"arrival":1522674480000,"departure":1522674481000,"zoneId":"NA","stopIndex":29,"stopSequence":30,"vertexType":"TRANSIT"},"to":{"name":"Destination","lon":-71.05486799,"lat":48.40969,"arrival":1522674727000,"orig":"","vertexType":"NORMAL"},"legGeometry":{"points":"{_nfHprupL`@}@lCcHaCmC}AiB","length":5},"rentedBike":false,"transitLeg":false,"duration":246.0,"steps":[{"distance":163.292,"relativeDirection":"DEPART","streetName":"Rue des Champs-Élysées","absoluteDirection":"SOUTHEAST","stayOn":false,"area":false,"bogusName":false,"lon":-71.05848639303342,"lat":48.40974208921815,"elevation":[]},{"distance":154.33100000000002,"relativeDirection":"LEFT","streetName":"Rue Mozart","absoluteDirection":"NORTHEAST","stayOn":false,"area":false,"bogusName":false,"lon":-71.05671190000001,"lat":48.4088653,"elevation":[]}]}],"tooSloped":false}]},"debugOutput":{"precalculationTime":35,"pathCalculationTime":32,"pathTimes":[20,6,6],"renderingTime":1,"totalTime":68,"timedOut":false},"elevationMetadata":{"ellipsoidToGeoidDifference":-28.885904201182168,"geoidElevation":false}}