{"requestParameters":{"date":"2018/04/02","walkSpeed":"1.33","walkReluctance":"2.0","fromPlace":"48.483904,-71.051536","maxWalkDistance":"3000","waitReluctance":"1.0","carSpeed":"33","numItineraries":"3","waitAtBeginningFactor":"0.4","mode":"TRANSIT,WALK","ignoreRealtimeUpdates":"false","stairsReluctance":"2.0","toPlace":"48.452699,-71.06197299","time":"7:30:00"},"plan":{"date":1522668600000,"from":{"name":"Origin","lon":-71.051536,"lat":48.483904,"orig":"","vertexType":"NORMAL"},"to":{"name":"Destination","lon":-71.06197299,"lat":48.452699,"orig":"","vertexType":"NORMAL"},"itineraries":[{"duration":1394,"startTime":1522701453000,"endTime":1522702847000,"walkTime":918,"transitTime":474,"waitingTime":2,"walkDistance":1206.6925338325364,"walkLimitExceeded":false,"elevationLost":0.0,"elevationGained":0.0,"transfers":0,"legs":[{"startTime":1522701453000,"endTime":1522702291000,"departureDelay":0,"arrivalDelay":0,"realTime":false,"distance":1100.996,"pathway":false,"mode":"WALK","route":"","agencyTimeZoneOffset":-14400000,"interlineWithPreviousLeg":false,"from":{"name":"Origin","lon":-71.051536,"lat":48.483904,"departure":1522701453000,"orig":"","vertexType":"NORMAL"},"to":{"name":"Madoc / ch. Ruisseaux","stopId":"1:1797","stopCode":"1797","lon":-71.047484,"lat":48.491855,"arrival":1522702291000,"departure":1522702292000,"zoneId":"NA","stopIndex":19,"stopSequence":20,"vertexType":"TRANSIT"},"legGeometry":{"points":"on|fHjjtpLYNo@lBsAhBM_@i@_C}@wGm@yAu@}@_CyAgEwAi[uKA?","length":13},"alerts":[{"alertHeaderText":"Unpaved surface"}],"rentedBike":false,"transitLeg":false,"duration":838.0,"steps":[{"distance":125.269,"relativeDirection":"DEPART","streetName":"Chemin des Eaux Vives","absoluteDirection":"NORTH","stayOn":false,"area":false,"bogusName":false,"lon":-71.05205475364707,"lat":48.48376484565035,"elevation":[],"alerts":[{"alertHeaderText":"Unpaved surface"}]},{"distance":975.7269999999999,"relativeDirection":"RIGHT","streetName":"Route Madoc","absoluteDirection":"NORTHEAST","stayOn":false,"area":false,"bogusName":false,"lon":-71.05321570000001,"lat":48.484557800000005,"elevation":[]}]},{"startTime":1522702292000,"endTime":1522702766000,"departureDelay":0,"arrivalDelay":0,"realTime":false,"distance":4379.6894159501135,"pathway":false,"mode":"BUS","route":"27","agencyName":"Société de Transport du Saguenay","agencyUrl":"http://ville.saguenay.ca/fr/services-aux-citoyens/transport-sts","agencyTimeZoneOffset":-14400000,"routeColor":"00FFFF","routeType":3,"routeId":"1:27","routeTextColor":"000000","interlineWithPreviousLeg":false,"tripBlockId":"97","headsign":"Terminus Chicoutimi","agencyId":"0","tripId":"1:218741","serviceDate":"20180402","from":{"name":"Madoc / ch. Ruisseaux","stopId":"1:1797","stopCode":"1797","lon":-71.047484,"lat":48.491855,"arrival":1522702291000,"departure":1522702292000,"zoneId":"NA","stopIndex":19,"stopSequence":20,"vertexType":"TRANSIT"},"to":{"name":"Delisle / Vimy","stopId":"1:759","stopCode":"759","lon":-71.061215,"lat":48.453534,"arrival":1522702766000,"departure":1522702767000,"zoneId":"NA","stopIndex":20,"stopSequence":21,"vertexType":"TRANSIT"},"legGeometry":{"points":"}`~fHbmspL|CfAvBt@tRzG^J`A`@dA\\`@L\\LPJRJLFLLPJj@t@JLLRLRDHFNDNDPBPDJLn@j@pE`@lBN`@Pb@HNLNNPVPJHb@ZvAp@j@RjBd@XHj@`@LRRTt@x@NJ^Rr@Zj@PN?^A`@E`AYTCXDZNLHjAfAh@Xx@`@`APf@Fz@B~@?v@K~Ao@`@WVWb@g@b@u@`@cAVyAJc@Ha@Nc@Te@^q@RWLILIb@MRA|CGf@BRDXLzJnFhB|ATNl@Xp@NjA^RHRNZ\\Xh@x@hDRn@Xj@VXNRPPNJXPVJn@NvE?\\Bl@DTD`Bb@jCz@\\F`@Hb@Br@BX@~@HRDNFJH\\`@^\\n@XVHXBTKNUlBqPH[FOHKHGJEZFjYhJd@R^P`At@XJTF^@h@A]~D~TxH~@^","length":144},"routeShortName":"27","routeLongName":"St-Honoré","rentedBike":false,"transitLeg":true,"duration":474.0,"steps":[]},{"startTime":1522702767000,"endTime":1522702847000,"departureDelay":0,"arrivalDelay":0,"realTime":false,"distance":105.633,"pathway":false,"mode":"WALK","route":"","agencyTimeZoneOffset":-14400000,"interlineWithPreviousLeg":false,"from":{"name":"Delisle / Vimy","stopId":"1:759","stopCode":"759","lon":-71.061215,"lat":48.453534,"arrival":1522702766000,"departure":1522702767000,"zoneId":"NA","stopIndex":20,"stopSequence":21,"vertexType":"TRANSIT"},"to":{"name":"Destination","lon":-71.06197299,"lat":48.452699,"arrival":1522702847000,"orig":"","vertexType":"NORMAL"},"legGeometry":{"points":"kqvfHtbvpLtDvA","length":2},"rentedBike":false,"transitLeg":false,"duration":80.0,"steps":[{"distance":105.633,"relativeDirection":"DEPART","streetName":"Rue Delisle","absoluteDirection":"SOUTH","stayOn":false,"area":false,"bogusName":false,"lon":-71.06106132215041,"lat":48.45350062727222,"elevation":[]}]}],"tooSloped":false},{"duration":1396,"startTime":1522705531000,"endTime":1522706927000,"walkTime":918,"transitTime":476,"waitingTime":2,"walkDistance":1206.6925338325364,"walkLimitExceeded":false,"elevationLost":0.0,"elevationGained":0.0,"transfers":0,"legs":[{"startTime":1522705531000,"endTime":1522706369000,"departureDelay":0,"arrivalDelay":0,"realTime":false,"distance":1100.996,"pathway":false,"mode":"WALK","route":"","agencyTimeZoneOffset":-14400000,"interlineWithPreviousLeg":false,"from":{"name":"Origin","lon":-71.051536,"lat":48.483904,"departure":1522705531000,"orig":"","vertexType":"NORMAL"},"to":{"name":"Madoc / ch. Ruisseaux","stopId":"1:1797","stopCode":"1797","lon":-71.047484,"lat":48.491855,"arrival":1522706369000,"departure":1522706370000,"zoneId":"NA","stopIndex":28,"stopSequence":29,"vertexType":"TRANSIT"},"legGeometry":{"points":"on|fHjjtpLYNo@lBsAhBM_@i@_C}@wGm@yAu@}@_CyAgEwAi[uKA?","length":13},"alerts":[{"alertHeaderText":"Unpaved surface"}],"rentedBike":false,"transitLeg":false,"duration":838.0,"steps":[{"distance":125.269,"relativeDirection":"DEPART","streetName":"Chemin des Eaux Vives","absoluteDirection":"NORTH","stayOn":false,"area":false,"bogusName":false,"lon":-71.05205475364707,"lat":48.48376484565035,"elevation":[],"alerts":[{"alertHeaderText":"Unpaved surface"}]},{"distance":975.7269999999999,"relativeDirection":"RIGHT","streetName":"Route Madoc","absoluteDirection":"NORTHEAST","stayOn":false,"area":false,"bogusName":false,"lon":-71.05321570000001,"lat":48.484557800000005,"elevation":[]}]},{"startTime":1522706370000,"endTime":1522706846000,"departureDelay":0,"arrivalDelay":0,"realTime":false,"distance":4379.6894159501135,"pathway":false,"mode":"BUS","route":"27","agencyName":"Société de Transport du Saguenay","agencyUrl":"http://ville.saguenay.ca/fr/services-aux-citoyens/transport-sts","agencyTimeZoneOffset":-14400000,"routeColor":"00FFFF","routeType":3,"routeId":"1:27","routeTextColor":"000000","interlineWithPreviousLeg":false,"tripBlockId":"100","headsign":"Terminus Chicoutimi","agencyId":"0","tripId":"1:218761","serviceDate":"20180402","from":{"name":"Madoc / ch. Ruisseaux","stopId":"1:1797","stopCode":"1797","lon":-71.047484,"lat":48.491855,"arrival":1522706369000,"departure":1522706370000,"zoneId":"NA","stopIndex":28,"stopSequence":29,"vertexType":"TRANSIT"},"to":{"name":"Delisle / Vimy","stopId":"1:759","stopCode":"759","lon":-71.061215,"lat":48.453534,"arrival":1522706846000,"departure":1522706847000,"zoneId":"NA","stopIndex":29,"stopSequence":30,"vertexType":"TRANSIT"},"legGeometry":{"points":"{`~fH~lspLla@jNdCtAx@fAf@nAv@dGd@rBX`Ax@vAvDrB|C|@tD`DnA`@xDWnCfBf@Zp@TfAVpAFf@AZA~@IdA_@d@Yf@]b@s@r@aAPk@LcAXoAp@oBz@aARQX?`@EbBA|@Ad@BTHfAh@fCpAt@^rAt@x@f@hAdAdAz@p@PjATf@Xz@z@^lAf@`DHb@DZPh@r@l@lAt@~@ZvARf@A^OVKZUXKXEt@Fn@Jr@PbAb@tAf@^J|@DlA?`AJf@b@h@f@jAf@VBTEPUHWj@eFp@qHVs@l@WzBv@~UxHd@R^P`At@XJTF^@h@A]~D~TxH~@^","length":97},"routeShortName":"27","routeLongName":"St-Honoré","rentedBike":false,"transitLeg":true,"duration":476.0,"steps":[]},{"startTime":1522706847000,"endTime":1522706927000,"departureDelay":0,"arrivalDelay":0,"realTime":false,"distance":105.633,"pathway":false,"mode":"WALK","route":"","agencyTimeZoneOffset":-14400000,"interlineWithPreviousLeg":false,"from":{"name":"Delisle / Vimy","stopId":"1:759","stopCode":"759","lon":-71.061215,"lat":48.453534,"arrival":1522706846000,"departure":1522706847000,"zoneId":"NA","stopIndex":29,"stopSequence":30,"vertexType":"TRANSIT"},"to":{"name":"Destination","lon":-71.06197299,"lat":48.452699,"arrival":1522706927000,"orig":"","vertexType":"NORMAL"},"legGeometry":{"points":"kqvfHtbvpLtDvA","length":2},"rentedBike":false,"transitLeg":false,"duration":80.0,"steps":[{"distance":105.633,"relativeDirection":"DEPART","streetName":"Rue Delisle","absoluteDirection":"SOUTH","stayOn":false,"area":false,"bogusName":false,"lon":-71.06106132215041,"lat":48.45350062727222,"elevation":[]}]}],"tooSloped":false}]},"debugOutput":{"precalculationTime":7,"pathCalculationTime":4,"pathTimes":[2,1],"renderingTime":0,"totalTime":11,"timedOut":false},"elevationMetadata":{"ellipsoidToGeoidDifference":-28.885904201182168,"geoidElevation":false}}