{"requestParameters":{"date":"2018/04/02","walkSpeed":"1.33","walkReluctance":"2.0","fromPlace":"48.403952,-71.054642","maxWalkDistance":"3000","waitReluctance":"1.0","carSpeed":"33","numItineraries":"3","waitAtBeginningFactor":"0.4","mode":"TRANSIT,WALK","ignoreRealtimeUpdates":"false","stairsReluctance":"2.0","toPlace":"48.475693,-71.055099","time":"12:0:00"},"plan":{"date":1522684800000,"from":{"name":"Origin","lon":-71.054642,"lat":48.403952,"orig":"","vertexType":"NORMAL"},"to":{"name":"Destination","lon":-71.055099,"lat":48.475693,"orig":"","vertexType":"NORMAL"},"itineraries":[{"duration":4098,"startTime":1522685939000,"endTime":1522690037000,"walkTime":2336,"transitTime":1460,"waitingTime":302,"walkDistance":3040.5025338244695,"walkLimitExceeded":false,"elevationLost":0.0,"elevationGained":0.0,"transfers":1,"legs":[{"startTime":1522685939000,"endTime":1522686299000,"departureDelay":0,"arrivalDelay":0,"realTime":false,"distance":446.63599999999997,"pathway":false,"mode":"WALK","route":"","agencyTimeZoneOffset":-14400000,"interlineWithPreviousLeg":false,"from":{"name":"Origin","lon":-71.054642,"lat":48.403952,"departure":1522685939000,"orig":"","vertexType":"NORMAL"},"to":{"name":"Place Royaume","stopId":"1:1801","stopCode":"1801","lon":-71.057017,"lat":48.405588,"arrival":1522686299000,"departure":1522686300000,"zoneId":"NA","stopIndex":10,"stopSequence":11,"vertexType":"TRANSIT"},"legGeometry":{"points":"{zlfHhytpLJPNVVq@PCk@vDmBtGYWGGUCCCYU]Y[YYWq@tBa@zA","length":17},"rentedBike":false,"transitLeg":false,"duration":360.0,"steps":[{"distance":55.269,"relativeDirection":"DEPART","streetName":"parking aisle","absoluteDirection":"SOUTHWEST","stayOn":false,"area":false,"bogusName":false,"lon":-71.05444515294332,"lat":48.40382759190054,"elevation":[]},{"distance":191.916,"relativeDirection":"HARD_RIGHT","streetName":"path","absoluteDirection":"WEST","stayOn":false,"area":false,"bogusName":true,"lon":-71.0543818,"lat":48.403475,"elevation":[]},{"distance":109.13299999999998,"relativeDirection":"RIGHT","streetName":"service road","absoluteDirection":"NORTHEAST","stayOn":true,"area":false,"bogusName":true,"lon":-71.0566984,"lat":48.4042426,"elevation":[]},{"distance":90.318,"relativeDirection":"LEFT","streetName":"parking aisle","absoluteDirection":"NORTHWEST","stayOn":true,"area":false,"bogusName":true,"lon":-71.05600720000001,"lat":48.4050992,"elevation":[]}]},{"startTime":1522686300000,"endTime":1522687200000,"departureDelay":0,"arrivalDelay":0,"realTime":false,"distance":4188.036446582453,"pathway":false,"mode":"BUS","route":"175","agencyName":"Société de Transport du Saguenay","agencyUrl":"http://ville.saguenay.ca/fr/services-aux-citoyens/transport-sts","agencyTimeZoneOffset":-14400000,"routeColor":"FF00FF","routeType":3,"routeId":"1:175","routeTextColor":"FFFFFF","interlineWithPreviousLeg":false,"tripBlockId":"11","headsign":"Terminus Chicoutimi","agencyId":"0","tripId":"1:217473","serviceDate":"20180402","from":{"name":"Place Royaume","stopId":"1:1801","stopCode":"1801","lon":-71.057017,"lat":48.405588,"arrival":1522686299000,"departure":1522686300000,"zoneId":"NA","stopIndex":10,"stopSequence":11,"vertexType":"TRANSIT"},"to":{"name":"Terminus Chicoutimi","stopId":"1:1289","stopCode":"1289","lon":-71.066163,"lat":48.428677,"arrival":1522687200000,"departure":1522687500000,"zoneId":"NA","stopIndex":27,"stopSequence":28,"vertexType":"TRANSIT"},"legGeometry":{"points":"sfmfH`kupL_U_TcNgNcBcB{E`Jc@x@qG~@{BlAk@XgSrQqB_GAeFiEeEOt@gAeA_A_ATm@yAwAgBeBqDnL@nBF`@f@|C[dCuAfB]xAs@OmCmCmEkE]a@g@i@ZiGTmEl@oLaEe@cFk@?pH?tJDvBPjMB~Bo@PQDRbFKdGMhIOvIK|EQpHoCQEdC","length":51},"routeShortName":"175","routeLongName":"Term. Chic / Costco","rentedBike":false,"transitLeg":true,"duration":900.0,"steps":[]},{"startTime":1522687500000,"endTime":1522688060000,"departureDelay":0,"arrivalDelay":0,"realTime":false,"distance":3581.4223851499373,"pathway":false,"mode":"BUS","route":"22","agencyName":"Société de Transport du Saguenay","agencyUrl":"http://ville.saguenay.ca/fr/services-aux-citoyens/transport-sts","agencyTimeZoneOffset":-14400000,"routeColor":"C0C000","routeType":3,"routeId":"1:22","routeTextColor":"000000","interlineWithPreviousLeg":false,"tripBlockId":"1","headsign":"Terminus Chicoutimi","agencyId":"0","tripId":"1:217142","serviceDate":"20180402","from":{"name":"Terminus Chicoutimi","stopId":"1:1289","stopCode":"1289","lon":-71.066163,"lat":48.428677,"arrival":1522687200000,"departure":1522687500000,"zoneId":"NA","stopIndex":0,"stopSequence":1,"vertexType":"TRANSIT"},"to":{"name":"Caroline / Clovis","stopId":"1:747","stopCode":"747","lon":-71.058151,"lat":48.456691,"arrival":1522688060000,"departure":1522688061000,"zoneId":"NA","stopIndex":11,"stopSequence":12,"vertexType":"TRANSIT"},"legGeometry":{"points":"evqfHzcwpLg@?UhKxDVOhHMrH~CYhBBInAKXSNg@L{JHgBMoA[s@Usb@gS}@g@u@Su@Ia@Ck@Dm@HwAf@c@VeAx@iAlAU^[d@eLtTsAvBMJYF[EMIQ]y@wB[y@[{@_B{D{@uBe@gAO}AGw@SaCmAZe@AYOy@o@MKsAcA}BmBuC}BgA}@}BsBaAaA{@y@d@kDp@uEyIkDqHwC_@QmLyEy@]}I_D\\cDBWwCgAcCy@NoA","length":70},"routeShortName":"22","routeLongName":"Vanier","rentedBike":false,"transitLeg":true,"duration":560.0,"steps":[]},{"startTime":1522688061000,"endTime":1522690037000,"departureDelay":0,"arrivalDelay":0,"realTime":false,"distance":2593.553,"pathway":false,"mode":"WALK","route":"","agencyTimeZoneOffset":-14400000,"interlineWithPreviousLeg":false,"from":{"name":"Caroline / Clovis","stopId":"1:747","stopCode":"747","lon":-71.058151,"lat":48.456691,"arrival":1522688060000,"departure":1522688061000,"zoneId":"NA","stopIndex":11,"stopSequence":12,"vertexType":"TRANSIT"},"to":{"name":"Destination","lon":-71.055099,"lat":48.475693,"arrival":1522690037000,"orig":"","vertexType":"NORMAL"},"legGeometry":{"points":"uewfHhpupLOvAqAg@i@EU?QAQEMGMGQKQMOKOKICIEKCIGaDeAaDgAwE{AkAe@MzIuBb@cBvAiArAsBc@CFCFGHIHC@GBG?SEIAGESESKOGECGEOKMOIGGKKIMMGAEAMAMCYAwAAW?OAMCQCGEGAUIUIUKQIQISISGSIKEMC]Gu@IUAI?MBI@KDKDOFMHYPMDG@EBQ@I?G?O?MAGAIASEOEWGUG[OOIuA_A][Qm@CQIe@Gc@CQMu@K{@Uo@EMEIUWe@a@GEECWOSEMGSCSEKCOEGAGAICGCKIGECEECEEYWYWYWGGQOSOQICAIGcAi@e@WyAu@]S}@c@y@c@GAKEKAICK@I?I?}@B]?u@Aa@DOAIBKDG@E@MLGJILGHGLGJGHELGNIVELGRGPCJENEPETCR","length":177},"alerts":[{"alertHeaderText":"Unpaved surface"}],"rentedBike":false,"transitLeg":false,"duration":1976.0,"steps":[{"distance":33.754,"relativeDirection":"DEPART","streetName":"Rue Caroline","absoluteDirection":"WEST","stayOn":false,"area":false,"bogusName":false,"lon":-71.05812376906464,"lat":48.45675224112756,"elevation":[]},{"distance":47.987,"relativeDirection":"RIGHT","streetName":"Rue Clovis","absoluteDirection":"NORTH","stayOn":false,"area":false,"bogusName":false,"lon":-71.0585628,"lat":48.456838100000006,"elevation":[],"alerts":[{"alertHeaderText":"Unpaved surface"}]},{"distance":496.231,"relativeDirection":"CONTINUE","streetName":"Route Madoc","absoluteDirection":"NORTH","stayOn":false,"area":false,"bogusName":false,"lon":-71.0583606,"lat":48.4572483,"elevation":[]},{"distance":378.32899999999995,"relativeDirection":"LEFT","streetName":"path","absoluteDirection":"WEST","stayOn":false,"area":false,"bogusName":true,"lon":-71.0564945,"lat":48.4615184,"elevation":[]},{"distance":12.737,"relativeDirection":"LEFT","streetName":"Rue Madoc","absoluteDirection":"NORTHWEST","stayOn":false,"area":false,"bogusName":false,"lon":-71.0590954,"lat":48.4636274,"elevation":[]},{"distance":1624.515,"relativeDirection":"SLIGHTLY_RIGHT","streetName":"Route Madoc","absoluteDirection":"NORTHWEST","stayOn":false,"area":false,"bogusName":false,"lon":-71.0592213,"lat":48.463703,"elevation":[]}]}],"tooSloped":false},{"duration":4098,"startTime":1522687739000,"endTime":1522691837000,"walkTime":2336,"transitTime":1460,"waitingTime":302,"walkDistance":3040.5025338244695,"walkLimitExceeded":false,"elevationLost":0.0,"elevationGained":0.0,"transfers":1,"legs":[{"startTime":1522687739000,"endTime":1522688099000,"departureDelay":0,"arrivalDelay":0,"realTime":false,"distance":446.63599999999997,"pathway":false,"mode":"WALK","route":"","agencyTimeZoneOffset":-14400000,"interlineWithPreviousLeg":false,"from":{"name":"Origin","lon":-71.054642,"lat":48.403952,"departure":1522687739000,"orig":"","vertexType":"NORMAL"},"to":{"name":"Place Royaume","stopId":"1:1801","stopCode":"1801","lon":-71.057017,"lat":48.405588,"arrival":1522688099000,"departure":1522688100000,"zoneId":"NA","stopIndex":10,"stopSequence":11,"vertexType":"TRANSIT"},"legGeometry":{"points":"{zlfHhytpLJPNVVq@PCk@vDmBtGYWGGUCCCYU]Y[YYWq@tBa@zA","length":17},"rentedBike":false,"transitLeg":false,"duration":360.0,"steps":[{"distance":55.269,"relativeDirection":"DEPART","streetName":"parking aisle","absoluteDirection":"SOUTHWEST","stayOn":false,"area":false,"bogusName":false,"lon":-71.05444515294332,"lat":48.40382759190054,"elevation":[]},{"distance":191.916,"relativeDirection":"HARD_RIGHT","streetName":"path","absoluteDirection":"WEST","stayOn":false,"area":false,"bogusName":true,"lon":-71.0543818,"lat":48.403475,"elevation":[]},{"distance":109.13299999999998,"relativeDirection":"RIGHT","streetName":"service road","absoluteDirection":"NORTHEAST","stayOn":true,"area":false,"bogusName":true,"lon":-71.0566984,"lat":48.4042426,"elevation":[]},{"distance":90.318,"relativeDirection":"LEFT","streetName":"parking aisle","absoluteDirection":"NORTHWEST","stayOn":true,"area":false,"bogusName":true,"lon":-71.05600720000001,"lat":48.4050992,"elevation":[]}]},{"startTime":1522688100000,"endTime":1522689000000,"departureDelay":0,"arrivalDelay":0,"realTime":false,"distance":4188.036446582453,"pathway":false,"mode":"BUS","route":"175","agencyName":"Société de Transport du Saguenay","agencyUrl":"http://ville.saguenay.ca/fr/services-aux-citoyens/transport-sts","agencyTimeZoneOffset":-14400000,"routeColor":"FF00FF","routeType":3,"routeId":"1:175","routeTextColor":"FFFFFF","interlineWithPreviousLeg":false,"tripBlockId":"10","headsign":"Terminus Chicoutimi","agencyId":"0","tripId":"1:217439","serviceDate":"20180402","from":{"name":"Place Royaume","stopId":"1:1801","stopCode":"1801","lon":-71.057017,"lat":48.405588,"arrival":1522688099000,"departure":1522688100000,"zoneId":"NA","stopIndex":10,"stopSequence":11,"vertexType":"TRANSIT"},"to":{"name":"Terminus Chicoutimi","stopId":"1:1289","stopCode":"1289","lon":-71.066163,"lat":48.428677,"arrival":1522689000000,"departure":1522689300000,"zoneId":"NA","stopIndex":27,"stopSequence":28,"vertexType":"TRANSIT"},"legGeometry":{"points":"sfmfH`kupL_U_TcNgNcBcB{E`Jc@x@qG~@{BlAk@XgSrQqB_GAeFiEeEOt@gAeA_A_ATm@yAwAgBeBqDnL@nBF`@f@|C[dCuAfB]xAs@OmCmCmEkE]a@g@i@ZiGTmEl@oLaEe@cFk@?pH?tJDvBPjMB~Bo@PQDRbFKdGMhIOvIK|EQpHoCQEdC","length":51},"routeShortName":"175","routeLongName":"Term. Chic / Costco","rentedBike":false,"transitLeg":true,"duration":900.0,"steps":[]},{"startTime":1522689300000,"endTime":1522689860000,"departureDelay":0,"arrivalDelay":0,"realTime":false,"distance":3581.4223851499373,"pathway":false,"mode":"BUS","route":"22","agencyName":"Société de Transport du Saguenay","agencyUrl":"http://ville.saguenay.ca/fr/services-aux-citoyens/transport-sts","agencyTimeZoneOffset":-14400000,"routeColor":"C0C000","routeType":3,"routeId":"1:22","routeTextColor":"000000","interlineWithPreviousLeg":false,"tripBlockId":"3","headsign":"Terminus Chicoutimi","agencyId":"0","tripId":"1:217200","serviceDate":"20180402","from":{"name":"Terminus Chicoutimi","stopId":"1:1289","stopCode":"1289","lon":-71.066163,"lat":48.428677,"arrival":1522689000000,"departure":1522689300000,"zoneId":"NA","stopIndex":0,"stopSequence":1,"vertexType":"TRANSIT"},"to":{"name":"Caroline / Clovis","stopId":"1:747","stopCode":"747","lon":-71.058151,"lat":48.456691,"arrival":1522689860000,"departure":1522689861000,"zoneId":"NA","stopIndex":11,"stopSequence":12,"vertexType":"TRANSIT"},"legGeometry":{"points":"evqfHzcwpLg@?UhKxDVOhHMrH~CYhBBInAKXSNg@L{JHgBMoA[s@Usb@gS}@g@u@Su@Ia@Ck@Dm@HwAf@c@VeAx@iAlAU^[d@eLtTsAvBMJYF[EMIQ]y@wB[y@[{@_B{D{@uBe@gAO}AGw@SaCmAZe@AYOy@o@MKsAcA}BmBuC}BgA}@}BsBaAaA{@y@d@kDp@uEyIkDqHwC_@QmLyEy@]}I_D\\cDBWwCgAcCy@NoA","length":70},"routeShortName":"22","routeLongName":"Vanier","rentedBike":false,"transitLeg":true,"duration":560.0,"steps":[]},{"startTime":1522689861000,"endTime":1522691837000,"departureDelay":0,"arrivalDelay":0,"realTime":false,"distance":2593.553,"pathway":false,"mode":"WALK","route":"","agencyTimeZoneOffset":-14400000,"interlineWithPreviousLeg":false,"from":{"name":"Caroline / Clovis","stopId":"1:747","stopCode":"747","lon":-71.058151,"lat":48.456691,"arrival":1522689860000,"departure":1522689861000,"zoneId":"NA","stopIndex":11,"stopSequence":12,"vertexType":"TRANSIT"},"to":{"name":"Destination","lon":-71.055099,"lat":48.475693,"arrival":1522691837000,"orig":"","vertexType":"NORMAL"},"legGeometry":{"points":"uewfHhpupLOvAqAg@i@EU?QAQEMGMGQKQMOKOKICIEKCIGaDeAaDgAwE{AkAe@MzIuBb@cBvAiArAsBc@CFCFGHIHC@GBG?SEIAGESESKOGECGEOKMOIGGKKIMMGAEAMAMCYAwAAW?OAMCQCGEGAUIUIUKQIQISISGSIKEMC]Gu@IUAI?MBI@KDKDOFMHYPMDG@EBQ@I?G?O?MAGAIASEOEWGUG[OOIuA_A][Qm@CQIe@Gc@CQMu@K{@Uo@EMEIUWe@a@GEECWOSEMGSCSEKCOEGAGAICGCKIGECEECEEYWYWYWGGQOSOQICAIGcAi@e@WyAu@]S}@c@y@c@GAKEKAICK@I?I?}@B]?u@Aa@DOAIBKDG@E@MLGJILGHGLGJGHELGNIVELGRGPCJENEPETCR","length":177},"alerts":[{"alertHeaderText":"Unpaved surface"}],"rentedBike":false,"transitLeg":false,"duration":1976.0,"steps":[{"distance":33.754,"relativeDirection":"DEPART","streetName":"Rue Caroline","absoluteDirection":"WEST","stayOn":false,"area":false,"bogusName":false,"lon":-71.05812376906464,"lat":48.45675224112756,"elevation":[]},{"distance":47.987,"relativeDirection":"RIGHT","streetName":"Rue Clovis","absoluteDirection":"NORTH","stayOn":false,"area":false,"bogusName":false,"lon":-71.0585628,"lat":48.456838100000006,"elevation":[],"alerts":[{"alertHeaderText":"Unpaved surface"}]},{"distance":496.231,"relativeDirection":"CONTINUE","streetName":"Route Madoc","absoluteDirection":"NORTH","stayOn":false,"area":false,"bogusName":false,"lon":-71.0583606,"lat":48.4572483,"elevation":[]},{"distance":378.32899999999995,"relativeDirection":"LEFT","streetName":"path","absoluteDirection":"WEST","stayOn":false,"area":false,"bogusName":true,"lon":-71.0564945,"lat":48.4615184,"elevation":[]},{"distance":12.737,"relativeDirection":"LEFT","streetName":"Rue Madoc","absoluteDirection":"NORTHWEST","stayOn":false,"area":false,"bogusName":false,"lon":-71.0590954,"lat":48.4636274,"elevation":[]},{"distance":1624.515,"relativeDirection":"SLIGHTLY_RIGHT","streetName":"Route Madoc","absoluteDirection":"NORTHWEST","stayOn":false,"area":false,"bogusName":false,"lon":-71.0592213,"lat":48.463703,"elevation":[]}]}],"tooSloped":false},{"duration":4098,"startTime":1522689539000,"endTime":1522693637000,"walkTime":2336,"transitTime":1460,"waitingTime":302,"walkDistance":3040.5025338244695,"walkLimitExceeded":false,"elevationLost":0.0,"elevationGained":0.0,"transfers":1,"legs":[{"startTime":1522689539000,"endTime":1522689899000,"departureDelay":0,"arrivalDelay":0,"realTime":false,"distance":446.63599999999997,"pathway":false,"mode":"WALK","route":"","agencyTimeZoneOffset":-14400000,"interlineWithPreviousLeg":false,"from":{"name":"Origin","lon":-71.054642,"lat":48.403952,"departure":1522689539000,"orig":"","vertexType":"NORMAL"},"to":{"name":"Place Royaume","stopId":"1:1801","stopCode":"1801","lon":-71.057017,"lat":48.405588,"arrival":1522689899000,"departure":1522689900000,"zoneId":"NA","stopIndex":10,"stopSequence":11,"vertexType":"TRANSIT"},"legGeometry":{"points":"{zlfHhytpLJPNVVq@PCk@vDmBtGYWGGUCCCYU]Y[YYWq@tBa@zA","length":17},"rentedBike":false,"transitLeg":false,"duration":360.0,"steps":[{"distance":55.269,"relativeDirection":"DEPART","streetName":"parking aisle","absoluteDirection":"SOUTHWEST","stayOn":false,"area":false,"bogusName":false,"lon":-71.05444515294332,"lat":48.40382759190054,"elevation":[]},{"distance":191.916,"relativeDirection":"HARD_RIGHT","streetName":"path","absoluteDirection":"WEST","stayOn":false,"area":false,"bogusName":true,"lon":-71.0543818,"lat":48.403475,"elevation":[]},{"distance":109.13299999999998,"relativeDirection":"RIGHT","streetName":"service road","absoluteDirection":"NORTHEAST","stayOn":true,"area":false,"bogusName":true,"lon":-71.0566984,"lat":48.4042426,"elevation":[]},{"distance":90.318,"relativeDirection":"LEFT","streetName":"parking aisle","absoluteDirection":"NORTHWEST","stayOn":true,"area":false,"bogusName":true,"lon":-71.05600720000001,"lat":48.4050992,"elevation":[]}]},{"startTime":1522689900000,"endTime":1522690800000,"departureDelay":0,"arrivalDelay":0,"realTime":false,"distance":4188.036446582453,"pathway":false,"mode":"BUS","route":"175","agencyName":"Société de Transport du Saguenay","agencyUrl":"http://ville.saguenay.ca/fr/services-aux-citoyens/transport-sts","agencyTimeZoneOffset":-14400000,"routeColor":"FF00FF","routeType":3,"routeId":"1:175","routeTextColor":"FFFFFF","interlineWithPreviousLeg":false,"tripBlockId":"9","headsign":"Terminus Chicoutimi","agencyId":"0","tripId":"1:217405","serviceDate":"20180402","from":{"name":"Place Royaume","stopId":"1:1801","stopCode":"1801","lon":-71.057017,"lat":48.405588,"arrival":1522689899000,"departure":1522689900000,"zoneId":"NA","stopIndex":10,"stopSequence":11,"vertexType":"TRANSIT"},"to":{"name":"Terminus Chicoutimi","stopId":"1:1289","stopCode":"1289","lon":-71.066163,"lat":48.428677,"arrival":1522690800000,"departure":1522691100000,"zoneId":"NA","stopIndex":27,"stopSequence":28,"vertexType":"TRANSIT"},"legGeometry":{"points":"sfmfH`kupL_U_TcNgNcBcB{E`Jc@x@qG~@{BlAk@XgSrQqB_GAeFiEeEOt@gAeA_A_ATm@yAwAgBeBqDnL@nBF`@f@|C[dCuAfB]xAs@OmCmCmEkE]a@g@i@ZiGTmEl@oLaEe@cFk@?pH?tJDvBPjMB~Bo@PQDRbFKdGMhIOvIK|EQpHoCQEdC","length":51},"routeShortName":"175","routeLongName":"Term. Chic / Costco","rentedBike":false,"transitLeg":true,"duration":900.0,"steps":[]},{"startTime":1522691100000,"endTime":1522691660000,"departureDelay":0,"arrivalDelay":0,"realTime":false,"distance":3581.4223851499373,"pathway":false,"mode":"BUS","route":"22","agencyName":"Société de Transport du Saguenay","agencyUrl":"http://ville.saguenay.ca/fr/services-aux-citoyens/transport-sts","agencyTimeZoneOffset":-14400000,"routeColor":"C0C000","routeType":3,"routeId":"1:22","routeTextColor":"000000","interlineWithPreviousLeg":false,"tripBlockId":"1","headsign":"Terminus Chicoutimi","agencyId":"0","tripId":"1:217144","serviceDate":"20180402","from":{"name":"Terminus Chicoutimi","stopId":"1:1289","stopCode":"1289","lon":-71.066163,"lat":48.428677,"arrival":1522690800000,"departure":1522691100000,"zoneId":"NA","stopIndex":0,"stopSequence":1,"vertexType":"TRANSIT"},"to":{"name":"Caroline / Clovis","stopId":"1:747","stopCode":"747","lon":-71.058151,"lat":48.456691,"arrival":1522691660000,"departure":1522691661000,"zoneId":"NA","stopIndex":11,"stopSequence":12,"vertexType":"TRANSIT"},"legGeometry":{"points":"evqfHzcwpLg@?UhKxDVOhHMrH~CYhBBInAKXSNg@L{JHgBMoA[s@Usb@gS}@g@u@Su@Ia@Ck@Dm@HwAf@c@VeAx@iAlAU^[d@eLtTsAvBMJYF[EMIQ]y@wB[y@[{@_B{D{@uBe@gAO}AGw@SaCmAZe@AYOy@o@MKsAcA}BmBuC}BgA}@}BsBaAaA{@y@d@kDp@uEyIkDqHwC_@QmLyEy@]}I_D\\cDBWwCgAcCy@NoA","length":70},"routeShortName":"22","routeLongName":"Vanier","rentedBike":false,"transitLeg":true,"duration":560.0,"steps":[]},{"startTime":1522691661000,"endTime":1522693637000,"departureDelay":0,"arrivalDelay":0,"realTime":false,"distance":2593.553,"pathway":false,"mode":"WALK","route":"","agencyTimeZoneOffset":-14400000,"interlineWithPreviousLeg":false,"from":{"name":"Caroline / Clovis","stopId":"1:747","stopCode":"747","lon":-71.058151,"lat":48.456691,"arrival":1522691660000,"departure":1522691661000,"zoneId":"NA","stopIndex":11,"stopSequence":12,"vertexType":"TRANSIT"},"to":{"name":"Destination","lon":-71.055099,"lat":48.475693,"arrival":1522693637000,"orig":"","vertexType":"NORMAL"},"legGeometry":{"points":"uewfHhpupLOvAqAg@i@EU?QAQEMGMGQKQMOKOKICIEKCIGaDeAaDgAwE{AkAe@MzIuBb@cBvAiArAsBc@CFCFGHIHC@GBG?SEIAGESESKOGECGEOKMOIGGKKIMMGAEAMAMCYAwAAW?OAMCQCGEGAUIUIUKQIQISISGSIKEMC]Gu@IUAI?MBI@KDKDOFMHYPMDG@EBQ@I?G?O?MAGAIASEOEWGUG[OOIuA_A][Qm@CQIe@Gc@CQMu@K{@Uo@EMEIUWe@a@GEECWOSEMGSCSEKCOEGAGAICGCKIGECEECEEYWYWYWGGQOSOQICAIGcAi@e@WyAu@]S}@c@y@c@GAKEKAICK@I?I?}@B]?u@Aa@DOAIBKDG@E@MLGJILGHGLGJGHELGNIVELGRGPCJENEPETCR","length":177},"alerts":[{"alertHeaderText":"Unpaved surface"}],"rentedBike":false,"transitLeg":false,"duration":1976.0,"steps":[{"distance":33.754,"relativeDirection":"DEPART","streetName":"Rue Caroline","absoluteDirection":"WEST","stayOn":false,"area":false,"bogusName":false,"lon":-71.05812376906464,"lat":48.45675224112756,"elevation":[]},{"distance":47.987,"relativeDirection":"RIGHT","streetName":"Rue Clovis","absoluteDirection":"NORTH","stayOn":false,"area":false,"bogusName":false,"lon":-71.0585628,"lat":48.456838100000006,"elevation":[],"alerts":[{"alertHeaderText":"Unpaved surface"}]},{"distance":496.231,"relativeDirection":"CONTINUE","streetName":"Route Madoc","absoluteDirection":"NORTH","stayOn":false,"area":false,"bogusName":false,"lon":-71.0583606,"lat":48.4572483,"elevation":[]},{"distance":378.32899999999995,"relativeDirection":"LEFT","streetName":"path","absoluteDirection":"WEST","stayOn":false,"area":false,"bogusName":true,"lon":-71.0564945,"lat":48.4615184,"elevation":[]},{"distance":12.737,"relativeDirection":"LEFT","streetName":"Rue Madoc","absoluteDirection":"NORTHWEST","stayOn":false,"area":false,"bogusName":false,"lon":-71.0590954,"lat":48.4636274,"elevation":[]},{"distance":1624.515,"relativeDirection":"SLIGHTLY_RIGHT","streetName":"Route Madoc","absoluteDirection":"NORTHWEST","stayOn":false,"area":false,"bogusName":false,"lon":-71.0592213,"lat":48.463703,"elevation":[]}]}],"tooSloped":false}]},"debugOutput":{"precalculationTime":20,"pathCalculationTime":75,"pathTimes":[26,23,26],"renderingTime":1,"totalTime":96,"timedOut":false},"elevationMetadata":{"ellipsoidToGeoidDifference":-28.885904201182168,"geoidElevation":false}}