{"requestParameters":{"date":"2018/04/02","walkSpeed":"1.33","walkReluctance":"2.0","fromPlace":"48.409314,-71.05405399","maxWalkDistance":"3000","waitReluctance":"1.0","carSpeed":"33","numItineraries":"3","waitAtBeginningFactor":"0.4","mode":"TRANSIT,WALK","ignoreRealtimeUpdates":"false","stairsReluctance":"2.0","toPlace":"48.475142,-71.051941","time":"12:40:00"},"plan":{"date":1522687200000,"from":{"name":"Origin","lon":-71.05405399,"lat":48.409314,"orig":"","vertexType":"NORMAL"},"to":{"name":"Destination","lon":-71.051941,"lat":48.475142,"orig":"","vertexType":"NORMAL"},"itineraries":[{"duration":3734,"startTime":1522687959000,"endTime":1522691693000,"walkTime":2092,"transitTime":1340,"waitingTime":302,"walkDistance":2736.618075180546,"walkLimitExceeded":false,"elevationLost":0.0,"elevationGained":0.0,"transfers":1,"legs":[{"startTime":1522687959000,"endTime":1522688219000,"departureDelay":0,"arrivalDelay":0,"realTime":false,"distance":334.071,"pathway":false,"mode":"WALK","route":"","agencyTimeZoneOffset":-14400000,"interlineWithPreviousLeg":false,"from":{"name":"Origin","lon":-71.05405399,"lat":48.409314,"departure":1522687959000,"orig":"","vertexType":"NORMAL"},"to":{"name":"missingStopName","stopId":"1:1812","stopCode":"1812","lon":-71.051352,"lat":48.411592,"arrival":1522688219000,"departure":1522688220000,"zoneId":"NA","stopIndex":11,"stopSequence":12,"vertexType":"TRANSIT"},"legGeometry":{"points":"c}mfHtvtpLoCiCJ_@kDmDcDgD","length":5},"rentedBike":false,"transitLeg":false,"duration":260.0,"steps":[{"distance":334.071,"relativeDirection":"DEPART","streetName":"Boulevard Talbot","absoluteDirection":"NORTHEAST","stayOn":false,"area":false,"bogusName":false,"lon":-71.05402489680034,"lat":48.40930174681405,"elevation":[]}]},{"startTime":1522688220000,"endTime":1522689000000,"departureDelay":0,"arrivalDelay":0,"realTime":false,"distance":3400.2803451917603,"pathway":false,"mode":"BUS","route":"175","agencyName":"Société de Transport du Saguenay","agencyUrl":"http://ville.saguenay.ca/fr/services-aux-citoyens/transport-sts","agencyTimeZoneOffset":-14400000,"routeColor":"FF00FF","routeType":3,"routeId":"1:175","routeTextColor":"FFFFFF","interlineWithPreviousLeg":false,"tripBlockId":"10","headsign":"Terminus Chicoutimi","agencyId":"0","tripId":"1:217439","serviceDate":"20180402","from":{"name":"missingStopName","stopId":"1:1812","stopCode":"1812","lon":-71.051352,"lat":48.411592,"arrival":1522688219000,"departure":1522688220000,"zoneId":"NA","stopIndex":11,"stopSequence":12,"vertexType":"TRANSIT"},"to":{"name":"Terminus Chicoutimi","stopId":"1:1289","stopCode":"1289","lon":-71.066163,"lat":48.428677,"arrival":1522689000000,"departure":1522689300000,"zoneId":"NA","stopIndex":27,"stopSequence":28,"vertexType":"TRANSIT"},"legGeometry":{"points":"wknfHxftpLcBcB{E`Jc@x@qG~@{BlAk@XgSrQqB_GAeFiEeEOt@gAeA_A_ATm@yAwAgBeBqDnL@nBF`@f@|C[dCuAfB]xAs@OmCmCmEkE]a@g@i@ZiGTmEl@oLaEe@cFk@?pH?tJDvBPjMB~Bo@PQDRbFKdGMhIOvIK|EQpHoCQEdC","length":49},"routeShortName":"175","routeLongName":"Term. Chic / Costco","rentedBike":false,"transitLeg":true,"duration":780.0,"steps":[]},{"startTime":1522689300000,"endTime":1522689860000,"departureDelay":0,"arrivalDelay":0,"realTime":false,"distance":3581.4223851499373,"pathway":false,"mode":"BUS","route":"22","agencyName":"Société de Transport du Saguenay","agencyUrl":"http://ville.saguenay.ca/fr/services-aux-citoyens/transport-sts","agencyTimeZoneOffset":-14400000,"routeColor":"C0C000","routeType":3,"routeId":"1:22","routeTextColor":"000000","interlineWithPreviousLeg":false,"tripBlockId":"3","headsign":"Terminus Chicoutimi","agencyId":"0","tripId":"1:217200","serviceDate":"20180402","from":{"name":"Terminus Chicoutimi","stopId":"1:1289","stopCode":"1289","lon":-71.066163,"lat":48.428677,"arrival":1522689000000,"departure":1522689300000,"zoneId":"NA","stopIndex":0,"stopSequence":1,"vertexType":"TRANSIT"},"to":{"name":"Caroline / Clovis","stopId":"1:747","stopCode":"747","lon":-71.058151,"lat":48.456691,"arrival":1522689860000,"departure":1522689861000,"zoneId":"NA","stopIndex":11,"stopSequence":12,"vertexType":"TRANSIT"},"legGeometry":{"points":"evqfHzcwpLg@?UhKxDVOhHMrH~CYhBBInAKXSNg@L{JHgBMoA[s@Usb@gS}@g@u@Su@Ia@Ck@Dm@HwAf@c@VeAx@iAlAU^[d@eLtTsAvBMJYF[EMIQ]y@wB[y@[{@_B{D{@uBe@gAO}AGw@SaCmAZe@AYOy@o@MKsAcA}BmBuC}BgA}@}BsBaAaA{@y@d@kDp@uEyIkDqHwC_@QmLyEy@]}I_D\\cDBWwCgAcCy@NoA","length":70},"routeShortName":"22","routeLongName":"Vanier","rentedBike":false,"transitLeg":true,"duration":560.0,"steps":[]},{"startTime":1522689861000,"endTime":1522691693000,"departureDelay":0,"arrivalDelay":0,"realTime":false,"distance":2402.317,"pathway":false,"mode":"WALK","route":"","agencyTimeZoneOffset":-14400000,"interlineWithPreviousLeg":false,"from":{"name":"Caroline / Clovis","stopId":"1:747","stopCode":"747","lon":-71.058151,"lat":48.456691,"arrival":1522689860000,"departure":1522689861000,"zoneId":"NA","stopIndex":11,"stopSequence":12,"vertexType":"TRANSIT"},"to":{"name":"Destination","lon":-71.051941,"lat":48.475142,"arrival":1522691693000,"orig":"","vertexType":"NORMAL"},"legGeometry":{"points":"uewfHhpupLOvAqAg@i@EU?QAQEMGMGQKQMOKOKICIEKCIGaDeAaDgAwE{AkAe@MzIuBb@cBvAiArAsBc@CFCFGHIHC@GBG?SEIAGESESKOGECGEOKMOIGGKKIMMGAEAMAMCYAwAAW?OAMCQCGEGAUIUIUKQIQISISGSIKEMC]Gu@IUAI?MBI@KDKDOFMHYPMDG@EBQ@I?G?O?MAGAIASEOEWGUG[OOIuA_A][Qm@CQIe@Gc@CQMu@K{@Uo@EMEIUWe@a@GEECWOSEMGSCSEKCOEGAGAICGCKIGECEECEEYWYWYWGGQOSOQICAIGcAi@e@WyAu@]S}@c@y@c@GAKEKAICK@I?I?}@B]?]?","length":153},"alerts":[{"alertHeaderText":"Unpaved surface"}],"rentedBike":false,"transitLeg":false,"duration":1832.0,"steps":[{"distance":33.754,"relativeDirection":"DEPART","streetName":"Rue Caroline","absoluteDirection":"WEST","stayOn":false,"area":false,"bogusName":false,"lon":-71.05812376906464,"lat":48.45675224112756,"elevation":[]},{"distance":47.987,"relativeDirection":"RIGHT","streetName":"Rue Clovis","absoluteDirection":"NORTH","stayOn":false,"area":false,"bogusName":false,"lon":-71.0585628,"lat":48.456838100000006,"elevation":[],"alerts":[{"alertHeaderText":"Unpaved surface"}]},{"distance":496.231,"relativeDirection":"CONTINUE","streetName":"Route Madoc","absoluteDirection":"NORTH","stayOn":false,"area":false,"bogusName":false,"lon":-71.0583606,"lat":48.4572483,"elevation":[]},{"distance":378.32899999999995,"relativeDirection":"LEFT","streetName":"path","absoluteDirection":"WEST","stayOn":false,"area":false,"bogusName":true,"lon":-71.0564945,"lat":48.4615184,"elevation":[]},{"distance":12.737,"relativeDirection":"LEFT","streetName":"Rue Madoc","absoluteDirection":"NORTHWEST","stayOn":false,"area":false,"bogusName":false,"lon":-71.0590954,"lat":48.4636274,"elevation":[]},{"distance":1433.279,"relativeDirection":"SLIGHTLY_RIGHT","streetName":"Route Madoc","absoluteDirection":"NORTHWEST","stayOn":false,"area":false,"bogusName":false,"lon":-71.0592213,"lat":48.463703,"elevation":[]}]}],"tooSloped":false},{"duration":4158,"startTime":1522689335000,"endTime":1522693493000,"walkTime":1995,"transitTime":1921,"waitingTime":242,"walkDistance":2612.466624053709,"walkLimitExceeded":false,"elevationLost":0.0,"elevationGained":0.0,"transfers":1,"legs":[{"startTime":1522689335000,"endTime":1522689498000,"departureDelay":0,"arrivalDelay":0,"realTime":false,"distance":209.95,"pathway":false,"mode":"WALK","route":"","agencyTimeZoneOffset":-14400000,"interlineWithPreviousLeg":false,"from":{"name":"Origin","lon":-71.05405399,"lat":48.409314,"departure":1522689335000,"orig":"","vertexType":"NORMAL"},"to":{"name":"Place du Saguenay (Champs-Élysées)","stopId":"1:571","stopCode":"571","lon":-71.055824,"lat":48.408307,"arrival":1522689498000,"departure":1522689499000,"zoneId":"NA","stopIndex":12,"stopSequence":13,"vertexType":"TRANSIT"},"legGeometry":{"points":"c}mfHtvtpLXVdE`ENNGPm@|A","length":6},"rentedBike":false,"transitLeg":false,"duration":163.0,"steps":[{"distance":159.035,"relativeDirection":"DEPART","streetName":"Boulevard Talbot","absoluteDirection":"SOUTHWEST","stayOn":false,"area":false,"bogusName":false,"lon":-71.05402489680034,"lat":48.40930174681405,"elevation":[]},{"distance":50.915,"relativeDirection":"RIGHT","streetName":"Rue des Champs-Élysées","absoluteDirection":"NORTHWEST","stayOn":false,"area":false,"bogusName":false,"lon":-71.0551966,"lat":48.4081015,"elevation":[]}]},{"startTime":1522689499000,"endTime":1522690860000,"departureDelay":0,"arrivalDelay":0,"realTime":false,"distance":8492.902354570804,"pathway":false,"mode":"BUS","route":"12","agencyName":"Société de Transport du Saguenay","agencyUrl":"http://ville.saguenay.ca/fr/services-aux-citoyens/transport-sts","agencyTimeZoneOffset":-14400000,"routeColor":"556B2F","routeType":3,"routeId":"1:12","routeTextColor":"FFFFFF","interlineWithPreviousLeg":false,"tripBlockId":"26","headsign":"Terminus Chicoutimi","agencyId":"0","tripId":"1:217977","serviceDate":"20180402","from":{"name":"Place du Saguenay (Champs-Élysées)","stopId":"1:571","stopCode":"571","lon":-71.055824,"lat":48.408307,"arrival":1522689498000,"departure":1522689499000,"zoneId":"NA","stopIndex":12,"stopSequence":13,"vertexType":"TRANSIT"},"to":{"name":"Terminus Chicoutimi","stopId":"1:1289","stopCode":"1289","lon":-71.066163,"lat":48.428677,"arrival":1522690860000,"departure":1522691100000,"zoneId":"NA","stopIndex":33,"stopSequence":34,"vertexType":"TRANSIT"},"legGeometry":{"points":"{vmfH|aupLxFoNlCyGa@yFYkD}CyA}KmFgD_BgAgBn@kFD_NoIgrAmD_WcAaLaDHoDJi`@wVoAbDbA|AnBU|B|AfBlAyLtKoGxFcFqDkJaHgEoDmDwC_TqQsBeB{HjWfAvAfM|O|FlHmB`IgA|Cy@`UYzHZvMR~Hr@~ZPvHsCrMFxf@|ApJj@nDDl]BvZdCXJhC","length":50},"routeShortName":"12","routeLongName":"Rivière du Moulin","rentedBike":false,"transitLeg":true,"duration":1361.0,"steps":[]},{"startTime":1522691100000,"endTime":1522691660000,"departureDelay":0,"arrivalDelay":0,"realTime":false,"distance":3581.4223851499373,"pathway":false,"mode":"BUS","route":"22","agencyName":"Société de Transport du Saguenay","agencyUrl":"http://ville.saguenay.ca/fr/services-aux-citoyens/transport-sts","agencyTimeZoneOffset":-14400000,"routeColor":"C0C000","routeType":3,"routeId":"1:22","routeTextColor":"000000","interlineWithPreviousLeg":false,"tripBlockId":"1","headsign":"Terminus Chicoutimi","agencyId":"0","tripId":"1:217144","serviceDate":"20180402","from":{"name":"Terminus Chicoutimi","stopId":"1:1289","stopCode":"1289","lon":-71.066163,"lat":48.428677,"arrival":1522690860000,"departure":1522691100000,"zoneId":"NA","stopIndex":0,"stopSequence":1,"vertexType":"TRANSIT"},"to":{"name":"Caroline / Clovis","stopId":"1:747","stopCode":"747","lon":-71.058151,"lat":48.456691,"arrival":1522691660000,"departure":1522691661000,"zoneId":"NA","stopIndex":11,"stopSequence":12,"vertexType":"TRANSIT"},"legGeometry":{"points":"evqfHzcwpLg@?UhKxDVOhHMrH~CYhBBInAKXSNg@L{JHgBMoA[s@Usb@gS}@g@u@Su@Ia@Ck@Dm@HwAf@c@VeAx@iAlAU^[d@eLtTsAvBMJYF[EMIQ]y@wB[y@[{@_B{D{@uBe@gAO}AGw@SaCmAZe@AYOy@o@MKsAcA}BmBuC}BgA}@}BsBaAaA{@y@d@kDp@uEyIkDqHwC_@QmLyEy@]}I_D\\cDBWwCgAcCy@NoA","length":70},"routeShortName":"22","routeLongName":"Vanier","rentedBike":false,"transitLeg":true,"duration":560.0,"steps":[]},{"startTime":1522691661000,"endTime":1522693493000,"departureDelay":0,"arrivalDelay":0,"realTime":false,"distance":2402.317,"pathway":false,"mode":"WALK","route":"","agencyTimeZoneOffset":-14400000,"interlineWithPreviousLeg":false,"from":{"name":"Caroline / Clovis","stopId":"1:747","stopCode":"747","lon":-71.058151,"lat":48.456691,"arrival":1522691660000,"departure":1522691661000,"zoneId":"NA","stopIndex":11,"stopSequence":12,"vertexType":"TRANSIT"},"to":{"name":"Destination","lon":-71.051941,"lat":48.475142,"arrival":1522693493000,"orig":"","vertexType":"NORMAL"},"legGeometry":{"points":"uewfHhpupLOvAqAg@i@EU?QAQEMGMGQKQMOKOKICIEKCIGaDeAaDgAwE{AkAe@MzIuBb@cBvAiArAsBc@CFCFGHIHC@GBG?SEIAGESESKOGECGEOKMOIGGKKIMMGAEAMAMCYAwAAW?OAMCQCGEGAUIUIUKQIQISISGSIKEMC]Gu@IUAI?MBI@KDKDOFMHYPMDG@EBQ@I?G?O?MAGAIASEOEWGUG[OOIuA_A][Qm@CQIe@Gc@CQMu@K{@Uo@EMEIUWe@a@GEECWOSEMGSCSEKCOEGAGAICGCKIGECEECEEYWYWYWGGQOSOQICAIGcAi@e@WyAu@]S}@c@y@c@GAKEKAICK@I?I?}@B]?]?","length":153},"alerts":[{"alertHeaderText":"Unpaved surface"}],"rentedBike":false,"transitLeg":false,"duration":1832.0,"steps":[{"distance":33.754,"relativeDirection":"DEPART","streetName":"Rue Caroline","absoluteDirection":"WEST","stayOn":false,"area":false,"bogusName":false,"lon":-71.05812376906464,"lat":48.45675224112756,"elevation":[]},{"distance":47.987,"relativeDirection":"RIGHT","streetName":"Rue Clovis","absoluteDirection":"NORTH","stayOn":false,"area":false,"bogusName":false,"lon":-71.0585628,"lat":48.456838100000006,"elevation":[],"alerts":[{"alertHeaderText":"Unpaved surface"}]},{"distance":496.231,"relativeDirection":"CONTINUE","streetName":"Route Madoc","absoluteDirection":"NORTH","stayOn":false,"area":false,"bogusName":false,"lon":-71.0583606,"lat":48.4572483,"elevation":[]},{"distance":378.32899999999995,"relativeDirection":"LEFT","streetName":"path","absoluteDirection":"WEST","stayOn":false,"area":false,"bogusName":true,"lon":-71.0564945,"lat":48.4615184,"elevation":[]},{"distance":12.737,"relativeDirection":"LEFT","streetName":"Rue Madoc","absoluteDirection":"NORTHWEST","stayOn":false,"area":false,"bogusName":false,"lon":-71.0590954,"lat":48.4636274,"elevation":[]},{"distance":1433.279,"relativeDirection":"SLIGHTLY_RIGHT","streetName":"Route Madoc","absoluteDirection":"NORTHWEST","stayOn":false,"area":false,"bogusName":false,"lon":-71.0592213,"lat":48.463703,"elevation":[]}]}],"tooSloped":false},{"duration":4601,"startTime":1522690692000,"endTime":1522695293000,"walkTime":4039,"transitTime":560,"waitingTime":2,"walkDistance":5274.46249623097,"walkLimitExceeded":false,"elevationLost":0.0,"elevationGained":0.0,"transfers":0,"legs":[{"startTime":1522690692000,"endTime":1522692899000,"departureDelay":0,"arrivalDelay":0,"realTime":false,"distance":2871.8469999999998,"pathway":false,"mode":"WALK","route":"","agencyTimeZoneOffset":-14400000,"interlineWithPreviousLeg":false,"from":{"name":"Origin","lon":-71.05405399,"lat":48.409314,"departure":1522690692000,"orig":"","vertexType":"NORMAL"},"to":{"name":"Terminus Chicoutimi","stopId":"1:1289","stopCode":"1289","lon":-71.066163,"lat":48.428677,"arrival":1522692899000,"departure":1522692900000,"zoneId":"NA","stopIndex":0,"stopSequence":1,"vertexType":"TRANSIT"},"legGeometry":{"points":"c}mfHtvtpLoCiCOOmAiAmGoGo@s@K\\gA|COb@MZq@lAgA`A_AVwADoAD}@Vq@^_@ToCbCWPmBbBQNOLoDxCaGbFOLiFbFu@fAi@bBm@tCCh@KpBm@hQAb@An@EtBCj@QfHMAM?qBCs@?O?}@EcAIw@EuAKs@CgDS}AKQG_@C{BUsAGkCQQAsBIc@MKESAcAK","length":61},"rentedBike":false,"transitLeg":false,"duration":2207.0,"steps":[{"distance":370.159,"relativeDirection":"DEPART","streetName":"Boulevard Talbot","absoluteDirection":"NORTHEAST","stayOn":false,"area":false,"bogusName":false,"lon":-71.05402489680034,"lat":48.40930174681405,"elevation":[]},{"distance":1683.1039999999998,"relativeDirection":"LEFT","streetName":"Boulevard de l'Université","absoluteDirection":"NORTHWEST","stayOn":false,"area":false,"bogusName":false,"lon":-71.051266,"lat":48.412081,"elevation":[]},{"distance":818.5840000000001,"relativeDirection":"RIGHT","streetName":"Rue Morin","absoluteDirection":"NORTH","stayOn":false,"area":false,"bogusName":false,"lon":-71.06636540000001,"lat":48.4213,"elevation":[]}]},{"startTime":1522692900000,"endTime":1522693460000,"departureDelay":0,"arrivalDelay":0,"realTime":false,"distance":3581.4223851499373,"pathway":false,"mode":"BUS","route":"22","agencyName":"Société de Transport du Saguenay","agencyUrl":"http://ville.saguenay.ca/fr/services-aux-citoyens/transport-sts","agencyTimeZoneOffset":-14400000,"routeColor":"C0C000","routeType":3,"routeId":"1:22","routeTextColor":"000000","interlineWithPreviousLeg":false,"tripBlockId":"3","headsign":"Terminus Chicoutimi","agencyId":"0","tripId":"1:217202","serviceDate":"20180402","from":{"name":"Terminus Chicoutimi","stopId":"1:1289","stopCode":"1289","lon":-71.066163,"lat":48.428677,"arrival":1522692899000,"departure":1522692900000,"zoneId":"NA","stopIndex":0,"stopSequence":1,"vertexType":"TRANSIT"},"to":{"name":"Caroline / Clovis","stopId":"1:747","stopCode":"747","lon":-71.058151,"lat":48.456691,"arrival":1522693460000,"departure":1522693461000,"zoneId":"NA","stopIndex":11,"stopSequence":12,"vertexType":"TRANSIT"},"legGeometry":{"points":"evqfHzcwpLg@?UhKxDVOhHMrH~CYhBBInAKXSNg@L{JHgBMoA[s@Usb@gS}@g@u@Su@Ia@Ck@Dm@HwAf@c@VeAx@iAlAU^[d@eLtTsAvBMJYF[EMIQ]y@wB[y@[{@_B{D{@uBe@gAO}AGw@SaCmAZe@AYOy@o@MKsAcA}BmBuC}BgA}@}BsBaAaA{@y@d@kDp@uEyIkDqHwC_@QmLyEy@]}I_D\\cDBWwCgAcCy@NoA","length":70},"routeShortName":"22","routeLongName":"Vanier","rentedBike":false,"transitLeg":true,"duration":560.0,"steps":[]},{"startTime":1522693461000,"endTime":1522695293000,"departureDelay":0,"arrivalDelay":0,"realTime":false,"distance":2402.317,"pathway":false,"mode":"WALK","route":"","agencyTimeZoneOffset":-14400000,"interlineWithPreviousLeg":false,"from":{"name":"Caroline / Clovis","stopId":"1:747","stopCode":"747","lon":-71.058151,"lat":48.456691,"arrival":1522693460000,"departure":1522693461000,"zoneId":"NA","stopIndex":11,"stopSequence":12,"vertexType":"TRANSIT"},"to":{"name":"Destination","lon":-71.051941,"lat":48.475142,"arrival":1522695293000,"orig":"","vertexType":"NORMAL"},"legGeometry":{"points":"uewfHhpupLOvAqAg@i@EU?QAQEMGMGQKQMOKOKICIEKCIGaDeAaDgAwE{AkAe@MzIuBb@cBvAiArAsBc@CFCFGHIHC@GBG?SEIAGESESKOGECGEOKMOIGGKKIMMGAEAMAMCYAwAAW?OAMCQCGEGAUIUIUKQIQISISGSIKEMC]Gu@IUAI?MBI@KDKDOFMHYPMDG@EBQ@I?G?O?MAGAIASEOEWGUG[OOIuA_A][Qm@CQIe@Gc@CQMu@K{@Uo@EMEIUWe@a@GEECWOSEMGSCSEKCOEGAGAICGCKIGECEECEEYWYWYWGGQOSOQICAIGcAi@e@WyAu@]S}@c@y@c@GAKEKAICK@I?I?}@B]?]?","length":153},"alerts":[{"alertHeaderText":"Unpaved surface"}],"rentedBike":false,"transitLeg":false,"duration":1832.0,"steps":[{"distance":33.754,"relativeDirection":"DEPART","streetName":"Rue Caroline","absoluteDirection":"WEST","stayOn":false,"area":false,"bogusName":false,"lon":-71.05812376906464,"lat":48.45675224112756,"elevation":[]},{"distance":47.987,"relativeDirection":"RIGHT","streetName":"Rue Clovis","absoluteDirection":"NORTH","stayOn":false,"area":false,"bogusName":false,"lon":-71.0585628,"lat":48.456838100000006,"elevation":[],"alerts":[{"alertHeaderText":"Unpaved surface"}]},{"distance":496.231,"relativeDirection":"CONTINUE","streetName":"Route Madoc","absoluteDirection":"NORTH","stayOn":false,"area":false,"bogusName":false,"lon":-71.0583606,"lat":48.4572483,"elevation":[]},{"distance":378.32899999999995,"relativeDirection":"LEFT","streetName":"path","absoluteDirection":"WEST","stayOn":false,"area":false,"bogusName":true,"lon":-71.0564945,"lat":48.4615184,"elevation":[]},{"distance":12.737,"relativeDirection":"LEFT","streetName":"Rue Madoc","absoluteDirection":"NORTHWEST","stayOn":false,"area":false,"bogusName":false,"lon":-71.0590954,"lat":48.4636274,"elevation":[]},{"distance":1433.279,"relativeDirection":"SLIGHTLY_RIGHT","streetName":"Route Madoc","absoluteDirection":"NORTHWEST","stayOn":false,"area":false,"bogusName":false,"lon":-71.0592213,"lat":48.463703,"elevation":[]}]}],"tooSloped":false}]},"debugOutput":{"precalculationTime":33,"pathCalculationTime":92,"pathTimes":[30,26,36],"renderingTime":0,"totalTime":125,"timedOut":false},"elevationMetadata":{"ellipsoidToGeoidDifference":-28.885904201182168,"geoidElevation":false}}