{"requestParameters":{"date":"2018/04/02","walkSpeed":"1.33","walkReluctance":"2.0","fromPlace":"48.405598,-71.06785899","maxWalkDistance":"3000","waitReluctance":"1.0","carSpeed":"33","numItineraries":"3","waitAtBeginningFactor":"0.4","mode":"TRANSIT,WALK","ignoreRealtimeUpdates":"false","stairsReluctance":"2.0","toPlace":"48.442047,-71.05367699","time":"16:45:00"},"plan":{"date":1522701900000,"from":{"name":"Origin","lon":-71.06785899,"lat":48.405598,"orig":"","vertexType":"NORMAL"},"to":{"name":"Destination","lon":-71.05367699,"lat":48.442047,"orig":"","vertexType":"NORMAL"},"itineraries":[{"duration":2091,"startTime":1522702102000,"endTime":1522704193000,"walkTime":283,"transitTime":1386,"waitingTime":422,"walkDistance":358.12881202766124,"walkLimitExceeded":false,"elevationLost":0.0,"elevationGained":0.0,"transfers":1,"legs":[{"startTime":1522702102000,"endTime":1522702278000,"departureDelay":0,"arrivalDelay":0,"realTime":false,"distance":224.93499999999997,"pathway":false,"mode":"WALK","route":"","agencyTimeZoneOffset":-14400000,"interlineWithPreviousLeg":false,"from":{"name":"Origin","lon":-71.06785899,"lat":48.405598,"departure":1522702102000,"orig":"","vertexType":"NORMAL"},"to":{"name":"Saguenéens (no. 129)","stopId":"1:2000","stopCode":"2000","lon":-71.067064,"lat":48.407463,"arrival":1522702278000,"departure":1522702279000,"zoneId":"NA","stopIndex":16,"stopSequence":17,"vertexType":"TRANSIT"},"legGeometry":{"points":"qfmfHhowpLiEcCsBcCELQ`@","length":5},"rentedBike":false,"transitLeg":false,"duration":176.0,"steps":[{"distance":122.077,"relativeDirection":"DEPART","streetName":"Rue Jean Bourdon","absoluteDirection":"NORTHEAST","stayOn":false,"area":false,"bogusName":false,"lon":-71.06820773554738,"lat":48.405699646218096,"elevation":[]},{"distance":80.88,"relativeDirection":"CONTINUE","streetName":"path","absoluteDirection":"NORTHEAST","stayOn":false,"area":false,"bogusName":true,"lon":-71.0675429,"lat":48.4067049,"elevation":[]},{"distance":21.978,"relativeDirection":"LEFT","streetName":"Rue des Saguenéens","absoluteDirection":"NORTHWEST","stayOn":false,"area":false,"bogusName":false,"lon":-71.0668891,"lat":48.4072886,"elevation":[]}]},{"startTime":1522702279000,"endTime":1522703280000,"departureDelay":0,"arrivalDelay":0,"realTime":false,"distance":5122.6153558366095,"pathway":false,"mode":"BUS","route":"15","agencyName":"Société de Transport du Saguenay","agencyUrl":"http://ville.saguenay.ca/fr/services-aux-citoyens/transport-sts","agencyTimeZoneOffset":-14400000,"routeColor":"FF00FF","routeType":3,"routeId":"1:15","routeTextColor":"FFFFFF","interlineWithPreviousLeg":false,"tripBlockId":"32","headsign":"Terminus Chicoutimi","agencyId":"0","tripId":"1:218167","serviceDate":"20180402","from":{"name":"Saguenéens (no. 129)","stopId":"1:2000","stopCode":"2000","lon":-71.067064,"lat":48.407463,"arrival":1522702278000,"departure":1522702279000,"zoneId":"NA","stopIndex":16,"stopSequence":17,"vertexType":"TRANSIT"},"to":{"name":"Terminus Chicoutimi","stopId":"1:1289","stopCode":"1289","lon":-71.066163,"lat":48.428677,"arrival":1522703280000,"departure":1522703700000,"zoneId":"NA","stopIndex":39,"stopSequence":40,"vertexType":"TRANSIT"},"legGeometry":{"points":"eqmfHrhwpL_CfGYVQXS\\dK|HlFZbC\\p@zA\\rB@hBiArG{BNw@FiG}@iDwAECcCcBo@y@sEeGe@o@qAa@m@MoB?C@}BZwAc@oA_Bs@gDCKZ{Di@QECc@_@sAkAoBwB_EcE{A_BoAmAk@o@cCaCkIkIaJaJUUwBaCj@wCjAsCzGoG_CoHL{D_@kAqD{CQr@iAcAy@w@L{@wAuA_B_B_EpLDh@NbBVvCIxBg@`Am@l@Sb@a@rAqDqDmEkE]a@kAqAU|@WnKG|DGxDOdPKvJU|F?XQlJC~@ChAIzEcCOaIi@VwL","length":86},"routeShortName":"15","routeLongName":"Term. Chic / Costco","rentedBike":false,"transitLeg":true,"duration":1001.0,"steps":[]},{"startTime":1522703700000,"endTime":1522704085000,"departureDelay":0,"arrivalDelay":0,"realTime":false,"distance":2053.3038354187433,"pathway":false,"mode":"BUS","route":"24","agencyName":"Société de Transport du Saguenay","agencyUrl":"http://ville.saguenay.ca/fr/services-aux-citoyens/transport-sts","agencyTimeZoneOffset":-14400000,"routeColor":"00FF00","routeType":3,"routeId":"1:24","routeTextColor":"000000","interlineWithPreviousLeg":false,"tripBlockId":"5","headsign":"Terminus Chicoutimi","agencyId":"0","tripId":"1:217271","serviceDate":"20180402","from":{"name":"Terminus Chicoutimi","stopId":"1:1289","stopCode":"1289","lon":-71.066163,"lat":48.428677,"arrival":1522703280000,"departure":1522703700000,"zoneId":"NA","stopIndex":0,"stopSequence":1,"vertexType":"TRANSIT"},"to":{"name":"Viau / boul. Tadoussac","stopId":"1:809","stopCode":"809","lon":-71.053452,"lat":48.441096,"arrival":1522704085000,"departure":1522704086000,"zoneId":"NA","stopIndex":6,"stopSequence":7,"vertexType":"TRANSIT"},"legGeometry":{"points":"evqfHzcwpLg@?EhBO~GoBKCp@O\\WjGOfGCRK^KJMHQB_AMg@Gm\\wO]i@wAyA_@WUKMEwEm@Js@Da@??@@??@?@???@???@?@??A@???@A@??A@??A@A??@A?A??@A?A?A?A@A?A???A?A?A???A?A?A?A???A?AAA?A???AAA?A??AA?AA??AA??A??AA??A??AA?A???A????q@C{AAaB?mAEcAGs@OoAa@sB[kAYcASq@Ok@Qq@Ku@MoBKmAa@eHi@FKC_@I??iE}Ah@}DH}@?c@Ea@[_BA?My@Cm@?Y@g@Hu@b@sD\\_DBSyHsC","length":126},"routeShortName":"24","routeLongName":"Saint-Luc","rentedBike":false,"transitLeg":true,"duration":385.0,"steps":[]},{"startTime":1522704086000,"endTime":1522704193000,"departureDelay":0,"arrivalDelay":0,"realTime":false,"distance":133.119,"pathway":false,"mode":"WALK","route":"","agencyTimeZoneOffset":-14400000,"interlineWithPreviousLeg":false,"from":{"name":"Viau / boul. Tadoussac","stopId":"1:809","stopCode":"809","lon":-71.053452,"lat":48.441096,"arrival":1522704085000,"departure":1522704086000,"zoneId":"NA","stopIndex":6,"stopSequence":7,"vertexType":"TRANSIT"},"to":{"name":"Destination","lon":-71.05367699,"lat":48.442047,"arrival":1522704193000,"orig":"","vertexType":"NORMAL"},"legGeometry":{"points":"_dtfHzstpL]McC_ASbB","length":4},"rentedBike":false,"transitLeg":false,"duration":107.0,"steps":[{"distance":94.499,"relativeDirection":"DEPART","streetName":"Rue Viau","absoluteDirection":"NORTH","stayOn":false,"area":false,"bogusName":false,"lon":-71.05357568173918,"lat":48.44112194220283,"elevation":[]},{"distance":38.62,"relativeDirection":"LEFT","streetName":"Rue Colbert","absoluteDirection":"WEST","stayOn":false,"area":false,"bogusName":false,"lon":-71.0531831,"lat":48.4419309,"elevation":[]}]}],"tooSloped":false},{"duration":2091,"startTime":1522703902000,"endTime":1522705993000,"walkTime":283,"transitTime":1386,"waitingTime":422,"walkDistance":358.12881202766124,"walkLimitExceeded":false,"elevationLost":0.0,"elevationGained":0.0,"transfers":1,"legs":[{"startTime":1522703902000,"endTime":1522704078000,"departureDelay":0,"arrivalDelay":0,"realTime":false,"distance":224.93499999999997,"pathway":false,"mode":"WALK","route":"","agencyTimeZoneOffset":-14400000,"interlineWithPreviousLeg":false,"from":{"name":"Origin","lon":-71.06785899,"lat":48.405598,"departure":1522703902000,"orig":"","vertexType":"NORMAL"},"to":{"name":"Saguenéens (no. 129)","stopId":"1:2000","stopCode":"2000","lon":-71.067064,"lat":48.407463,"arrival":1522704078000,"departure":1522704079000,"zoneId":"NA","stopIndex":16,"stopSequence":17,"vertexType":"TRANSIT"},"legGeometry":{"points":"qfmfHhowpLiEcCsBcCELQ`@","length":5},"rentedBike":false,"transitLeg":false,"duration":176.0,"steps":[{"distance":122.077,"relativeDirection":"DEPART","streetName":"Rue Jean Bourdon","absoluteDirection":"NORTHEAST","stayOn":false,"area":false,"bogusName":false,"lon":-71.06820773554738,"lat":48.405699646218096,"elevation":[]},{"distance":80.88,"relativeDirection":"CONTINUE","streetName":"path","absoluteDirection":"NORTHEAST","stayOn":false,"area":false,"bogusName":true,"lon":-71.0675429,"lat":48.4067049,"elevation":[]},{"distance":21.978,"relativeDirection":"LEFT","streetName":"Rue des Saguenéens","absoluteDirection":"NORTHWEST","stayOn":false,"area":false,"bogusName":false,"lon":-71.0668891,"lat":48.4072886,"elevation":[]}]},{"startTime":1522704079000,"endTime":1522705080000,"departureDelay":0,"arrivalDelay":0,"realTime":false,"distance":5122.6153558366095,"pathway":false,"mode":"BUS","route":"15","agencyName":"Société de Transport du Saguenay","agencyUrl":"http://ville.saguenay.ca/fr/services-aux-citoyens/transport-sts","agencyTimeZoneOffset":-14400000,"routeColor":"FF00FF","routeType":3,"routeId":"1:15","routeTextColor":"FFFFFF","interlineWithPreviousLeg":false,"tripBlockId":"30","headsign":"Terminus Chicoutimi","agencyId":"0","tripId":"1:218108","serviceDate":"20180402","from":{"name":"Saguenéens (no. 129)","stopId":"1:2000","stopCode":"2000","lon":-71.067064,"lat":48.407463,"arrival":1522704078000,"departure":1522704079000,"zoneId":"NA","stopIndex":16,"stopSequence":17,"vertexType":"TRANSIT"},"to":{"name":"Terminus Chicoutimi","stopId":"1:1289","stopCode":"1289","lon":-71.066163,"lat":48.428677,"arrival":1522705080000,"departure":1522705500000,"zoneId":"NA","stopIndex":39,"stopSequence":40,"vertexType":"TRANSIT"},"legGeometry":{"points":"eqmfHrhwpL_CfGYVQXS\\dK|HlFZbC\\p@zA\\rB@hBiArG{BNw@FiG}@iDwAECcCcBo@y@sEeGe@o@qAa@m@MoB?C@}BZwAc@oA_Bs@gDCKZ{Di@QECc@_@sAkAoBwB_EcE{A_BoAmAk@o@cCaCkIkIaJaJUUwBaCj@wCjAsCzGoG_CoHL{D_@kAqD{CQr@iAcAy@w@L{@wAuA_B_B_EpLDh@NbBVvCIxBg@`Am@l@Sb@a@rAqDqDmEkE]a@kAqAU|@WnKG|DGxDOdPKvJU|F?XQlJC~@ChAIzEcCOaIi@VwL","length":86},"routeShortName":"15","routeLongName":"Term. Chic / Costco","rentedBike":false,"transitLeg":true,"duration":1001.0,"steps":[]},{"startTime":1522705500000,"endTime":1522705885000,"departureDelay":0,"arrivalDelay":0,"realTime":false,"distance":2053.3038354187433,"pathway":false,"mode":"BUS","route":"24","agencyName":"Société de Transport du Saguenay","agencyUrl":"http://ville.saguenay.ca/fr/services-aux-citoyens/transport-sts","agencyTimeZoneOffset":-14400000,"routeColor":"00FF00","routeType":3,"routeId":"1:24","routeTextColor":"000000","interlineWithPreviousLeg":false,"tripBlockId":"4","headsign":"Terminus Chicoutimi","agencyId":"0","tripId":"1:217245","serviceDate":"20180402","from":{"name":"Terminus Chicoutimi","stopId":"1:1289","stopCode":"1289","lon":-71.066163,"lat":48.428677,"arrival":1522705080000,"departure":1522705500000,"zoneId":"NA","stopIndex":0,"stopSequence":1,"vertexType":"TRANSIT"},"to":{"name":"Viau / boul. Tadoussac","stopId":"1:809","stopCode":"809","lon":-71.053452,"lat":48.441096,"arrival":1522705885000,"departure":1522705886000,"zoneId":"NA","stopIndex":6,"stopSequence":7,"vertexType":"TRANSIT"},"legGeometry":{"points":"evqfHzcwpLg@?EhBO~GoBKCp@O\\WjGOfGCRK^KJMHQB_AMg@Gm\\wO]i@wAyA_@WUKMEwEm@Js@Da@??@@??@?@???@???@?@??A@???@A@??A@??A@A??@A?A??@A?A?A?A@A?A???A?A?A???A?A?A?A???A?AAA?A???AAA?A??AA?AA??AA??A??AA??A??AA?A???A????q@C{AAaB?mAEcAGs@OoAa@sB[kAYcASq@Ok@Qq@Ku@MoBKmAa@eHi@FKC_@I??iE}Ah@}DH}@?c@Ea@[_BA?My@Cm@?Y@g@Hu@b@sD\\_DBSyHsC","length":126},"routeShortName":"24","routeLongName":"Saint-Luc","rentedBike":false,"transitLeg":true,"duration":385.0,"steps":[]},{"startTime":1522705886000,"endTime":1522705993000,"departureDelay":0,"arrivalDelay":0,"realTime":false,"distance":133.119,"pathway":false,"mode":"WALK","route":"","agencyTimeZoneOffset":-14400000,"interlineWithPreviousLeg":false,"from":{"name":"Viau / boul. Tadoussac","stopId":"1:809","stopCode":"809","lon":-71.053452,"lat":48.441096,"arrival":1522705885000,"departure":1522705886000,"zoneId":"NA","stopIndex":6,"stopSequence":7,"vertexType":"TRANSIT"},"to":{"name":"Destination","lon":-71.05367699,"lat":48.442047,"arrival":1522705993000,"orig":"","vertexType":"NORMAL"},"legGeometry":{"points":"_dtfHzstpL]McC_ASbB","length":4},"rentedBike":false,"transitLeg":false,"duration":107.0,"steps":[{"distance":94.499,"relativeDirection":"DEPART","streetName":"Rue Viau","absoluteDirection":"NORTH","stayOn":false,"area":false,"bogusName":false,"lon":-71.05357568173918,"lat":48.44112194220283,"elevation":[]},{"distance":38.62,"relativeDirection":"LEFT","streetName":"Rue Colbert","absoluteDirection":"WEST","stayOn":false,"area":false,"bogusName":false,"lon":-71.0531831,"lat":48.4419309,"elevation":[]}]}],"tooSloped":false},{"duration":3266,"startTime":1522702857000,"endTime":1522706123000,"walkTime":415,"transitTime":2429,"waitingTime":422,"walkDistance":523.2760902211726,"walkLimitExceeded":false,"elevationLost":0.0,"elevationGained":0.0,"transfers":1,"legs":[{"startTime":1522702857000,"endTime":1522703033000,"departureDelay":0,"arrivalDelay":0,"realTime":false,"distance":224.93499999999997,"pathway":false,"mode":"WALK","route":"","agencyTimeZoneOffset":-14400000,"interlineWithPreviousLeg":false,"from":{"name":"Origin","lon":-71.06785899,"lat":48.405598,"departure":1522702857000,"orig":"","vertexType":"NORMAL"},"to":{"name":"Saguenéens (no. 129)","stopId":"1:2000","stopCode":"2000","lon":-71.067064,"lat":48.407463,"arrival":1522703033000,"departure":1522703034000,"zoneId":"NA","stopIndex":19,"stopSequence":20,"vertexType":"TRANSIT"},"legGeometry":{"points":"qfmfHhowpLiEcCsBcCELQ`@","length":5},"rentedBike":false,"transitLeg":false,"duration":176.0,"steps":[{"distance":122.077,"relativeDirection":"DEPART","streetName":"Rue Jean Bourdon","absoluteDirection":"NORTHEAST","stayOn":false,"area":false,"bogusName":false,"lon":-71.06820773554738,"lat":48.405699646218096,"elevation":[]},{"distance":80.88,"relativeDirection":"CONTINUE","streetName":"path","absoluteDirection":"NORTHEAST","stayOn":false,"area":false,"bogusName":true,"lon":-71.0675429,"lat":48.4067049,"elevation":[]},{"distance":21.978,"relativeDirection":"LEFT","streetName":"Rue des Saguenéens","absoluteDirection":"NORTHWEST","stayOn":false,"area":false,"bogusName":false,"lon":-71.0668891,"lat":48.4072886,"elevation":[]}]},{"startTime":1522703034000,"endTime":1522703520000,"departureDelay":0,"arrivalDelay":0,"realTime":false,"distance":4049.867186547347,"pathway":false,"mode":"BUS","route":"15","agencyName":"Société de Transport du Saguenay","agencyUrl":"http://ville.saguenay.ca/fr/services-aux-citoyens/transport-sts","agencyTimeZoneOffset":-14400000,"routeColor":"FF00FF","routeType":3,"routeId":"1:15","routeTextColor":"FFFFFF","interlineWithPreviousLeg":false,"tripBlockId":"31","headsign":"Talbot / Barrette","agencyId":"0","tripId":"1:218142","serviceDate":"20180402","from":{"name":"Saguenéens (no. 129)","stopId":"1:2000","stopCode":"2000","lon":-71.067064,"lat":48.407463,"arrival":1522703033000,"departure":1522703034000,"zoneId":"NA","stopIndex":19,"stopSequence":20,"vertexType":"TRANSIT"},"to":{"name":"Roitelets / Sapins","stopId":"1:1543","stopCode":"1543","lon":-71.069553,"lat":48.393375,"arrival":1522703520000,"departure":1522703520000,"zoneId":"NA","stopIndex":35,"stopSequence":36,"vertexType":"TRANSIT"},"legGeometry":{"points":"{pmfHbiwpLvCaGfEoItDsH~DeItC{FnBoLbCaO?qLa@uJzF`ApF~@~@PzAgEeDcBf@qAWcKUqEx@Ef@ExDVjDxAFBrBvAfGjG@BjCzC~DxC@@zA~Cb@fCJlC?BsBre@?DWbOAn@?nEGnM@H\\hCzA~ELvAAlAi@jDo@nB","length":46},"routeShortName":"15","routeLongName":"Term. Chic / Costco","rentedBike":false,"transitLeg":true,"duration":486.0,"steps":[]},{"startTime":1522703520000,"endTime":1522705080000,"departureDelay":0,"arrivalDelay":0,"realTime":false,"distance":9621.046301683697,"pathway":false,"mode":"BUS","route":"14","agencyName":"Société de Transport du Saguenay","agencyUrl":"http://ville.saguenay.ca/fr/services-aux-citoyens/transport-sts","agencyTimeZoneOffset":-14400000,"routeColor":"C0C000","routeType":3,"routeId":"1:14","routeTextColor":"000000","interlineWithPreviousLeg":true,"tripBlockId":"31","headsign":"Terminus Chicoutimi","agencyId":"0","tripId":"1:218143","serviceDate":"20180402","from":{"name":"Roitelets / Sapins","stopId":"1:1513","stopCode":"1513","lon":-71.069396,"lat":48.393523,"arrival":1522703520000,"departure":1522703520000,"zoneId":"NA","stopIndex":0,"stopSequence":1,"vertexType":"TRANSIT"},"to":{"name":"Terminus Chicoutimi","stopId":"1:1289","stopCode":"1289","lon":-71.066163,"lat":48.428677,"arrival":1522705080000,"departure":1522705500000,"zoneId":"NA","stopIndex":37,"stopSequence":38,"vertexType":"TRANSIT"},"legGeometry":{"points":"azjfHfwwpLiEfLuBzFsAnDgGzSWfAcD`Mi@dCgChLmCzMwGd\\aDxOdFtFhCtCdDY|F_On@aB`B_GNoBvAyT|@sNuAyAuF}F}AaB_BkAC@qC\\gAWiBwBiKgMiCwEgEyHCGy@uB}@rAa@nAc@lFEf@mGvUYfAqCs@ICMCqFmDc@s@mAkBuEoESUgAhDiAfD}@zDyAcA_@Um@U{AWgB_Au@s@EEsBkCqFgF{IiI][aBhE}@}@oBmBwE{EwE{Ej@mBZeAa@SyEQg@CPcALuCx@{b@t@{[XoDd@sBl@iB~@gA`G{F{A{D_@sBFqDOq@iG{FGIoCkCgBgBsDpLHzBBT`@~COnBQf@gAjAg@bBuDmDmFgFa@_@w@s@CfAOrBEtAGbA?jBQtC?|@ExKMdIG~EUnLEhC}CKkBOkCOYbC","length":117},"routeShortName":"14","routeLongName":"Coopérative","rentedBike":false,"transitLeg":true,"duration":1560.0,"steps":[]},{"startTime":1522705500000,"endTime":1522705883000,"departureDelay":0,"arrivalDelay":0,"realTime":false,"distance":2240.0045718936785,"pathway":false,"mode":"BUS","route":"26","agencyName":"Société de Transport du Saguenay","agencyUrl":"http://ville.saguenay.ca/fr/services-aux-citoyens/transport-sts","agencyTimeZoneOffset":-14400000,"routeColor":"00FFFF","routeType":3,"routeId":"1:26","routeTextColor":"000000","interlineWithPreviousLeg":false,"tripBlockId":"107","headsign":"Terminus Chicoutimi","agencyId":"0","tripId":"1:218825","serviceDate":"20180402","from":{"name":"Terminus Chicoutimi","stopId":"1:1289","stopCode":"1289","lon":-71.066163,"lat":48.428677,"arrival":1522705080000,"departure":1522705500000,"zoneId":"NA","stopIndex":0,"stopSequence":1,"vertexType":"TRANSIT"},"to":{"name":"boul. Tadoussac (no. 1845)","stopId":"1:810","stopCode":"810","lon":-71.051242,"lat":48.441837,"arrival":1522705883000,"departure":1522705884000,"zoneId":"NA","stopIndex":5,"stopSequence":6,"vertexType":"TRANSIT"},"legGeometry":{"points":"avqfH``wpLc@E@o@kAOYCm@rRO\\WjGOfGCRK^KJMHQB_AMg@Gm\\wO]i@wAyA_@WUKMEwEm@Js@Da@??@@??@?@???@???@?@??A@???@A@??A@??A@A??@A?A??@A?A?A?A@A?A???A?A?A???A?A?A?A???A?AAA?A???AAA?A??AA?AA??AA??A??AA??A??AA?A???A????q@C{AAaB?mAEcAGs@OoAa@sB[kAYcASq@Ok@Qq@Ku@MoBiC}@yBu@AAyBu@o@Qs@[YSSUY]Ye@]{@Me@Kg@K{@CQm@_IEs@Cq@Aw@Do@LyAJ_ADYBUf@wDRaBHqABQA}@IwAUoAcAkCWo@","length":137},"routeShortName":"26","routeLongName":"St-Fulgence","rentedBike":false,"transitLeg":true,"duration":383.0,"steps":[]},{"startTime":1522705884000,"endTime":1522706123000,"departureDelay":0,"arrivalDelay":0,"realTime":false,"distance":298.205,"pathway":false,"mode":"WALK","route":"","agencyTimeZoneOffset":-14400000,"interlineWithPreviousLeg":false,"from":{"name":"boul. Tadoussac (no. 1845)","stopId":"1:810","stopCode":"810","lon":-71.051242,"lat":48.441837,"arrival":1522705883000,"departure":1522705884000,"zoneId":"NA","stopIndex":5,"stopSequence":6,"vertexType":"TRANSIT"},"to":{"name":"Destination","lon":-71.05367699,"lat":48.442047,"arrival":1522706123000,"orig":"","vertexType":"NORMAL"},"legGeometry":{"points":"uhtfHpetpLHNLZn@fBNb@Jb@@HBL@HFb@Dt@?b@?F?j@AJcC_ASbB","length":17},"rentedBike":false,"transitLeg":false,"duration":239.0,"steps":[{"distance":182.773,"relativeDirection":"DEPART","streetName":"Boulevard de Tadoussac","absoluteDirection":"SOUTHWEST","stayOn":false,"area":false,"bogusName":false,"lon":-71.05128079749537,"lat":48.44187102242561,"elevation":[]},{"distance":76.812,"relativeDirection":"RIGHT","streetName":"Rue Viau","absoluteDirection":"NORTH","stayOn":false,"area":false,"bogusName":false,"lon":-71.05350340000001,"lat":48.4412736,"elevation":[]},{"distance":38.62,"relativeDirection":"LEFT","streetName":"Rue Colbert","absoluteDirection":"WEST","stayOn":false,"area":false,"bogusName":false,"lon":-71.0531831,"lat":48.4419309,"elevation":[]}]}],"tooSloped":false}]},"debugOutput":{"precalculationTime":34,"pathCalculationTime":67,"pathTimes":[25,20,22],"renderingTime":1,"totalTime":102,"timedOut":false},"elevationMetadata":{"ellipsoidToGeoidDifference":-28.885904201182168,"geoidElevation":false}}