{"requestParameters":{"date":"2018/04/02","walkSpeed":"1.33","walkReluctance":"2.0","fromPlace":"48.444119,-71.080494","maxWalkDistance":"3000","waitReluctance":"1.0","carSpeed":"33","numItineraries":"3","waitAtBeginningFactor":"0.4","mode":"TRANSIT,WALK","ignoreRealtimeUpdates":"false","stairsReluctance":"2.0","toPlace":"48.436685,-71.06115499","time":"15:0:00"},"plan":{"date":1522695600000,"from":{"name":"Origin","lon":-71.080494,"lat":48.444119,"orig":"","vertexType":"NORMAL"},"to":{"name":"Destination","lon":-71.06115499,"lat":48.436685,"orig":"","vertexType":"NORMAL"},"itineraries":[{"duration":1153,"startTime":1522695885000,"endTime":1522697038000,"walkTime":263,"transitTime":588,"waitingTime":302,"walkDistance":336.73465413334895,"walkLimitExceeded":false,"elevationLost":0.0,"elevationGained":0.0,"transfers":1,"legs":[{"startTime":1522695885000,"endTime":1522695914000,"departureDelay":0,"arrivalDelay":0,"realTime":false,"distance":38.415,"pathway":false,"mode":"WALK","route":"","agencyTimeZoneOffset":-14400000,"interlineWithPreviousLeg":false,"from":{"name":"Origin","lon":-71.080494,"lat":48.444119,"departure":1522695885000,"orig":"","vertexType":"NORMAL"},"to":{"name":"Place de la Colline (boul. Ste-Geneviève)","stopId":"1:2009","stopCode":"2009","lon":-71.080522,"lat":48.444768,"arrival":1522695914000,"departure":1522695915000,"zoneId":"NA","stopIndex":31,"stopSequence":32,"vertexType":"TRANSIT"},"legGeometry":{"points":"wytfHjyypLELa@fA","length":3},"rentedBike":false,"transitLeg":false,"duration":29.0,"steps":[{"distance":38.415,"relativeDirection":"DEPART","streetName":"Boulevard Sainte-Geneviève","absoluteDirection":"NORTHWEST","stayOn":false,"area":false,"bogusName":false,"lon":-71.08005452675857,"lat":48.4446094224144,"elevation":[]}]},{"startTime":1522695915000,"endTime":1522696200000,"departureDelay":0,"arrivalDelay":0,"realTime":false,"distance":2246.0175870948647,"pathway":false,"mode":"BUS","route":"21","agencyName":"Société de Transport du Saguenay","agencyUrl":"http://ville.saguenay.ca/fr/services-aux-citoyens/transport-sts","agencyTimeZoneOffset":-14400000,"routeColor":"556B2F","routeType":3,"routeId":"1:21","routeTextColor":"FFFFFF","interlineWithPreviousLeg":false,"tripBlockId":"2","headsign":"Terminus Chicoutimi","agencyId":"0","tripId":"1:217172","serviceDate":"20180402","from":{"name":"Place de la Colline (boul. Ste-Geneviève)","stopId":"1:2009","stopCode":"2009","lon":-71.080522,"lat":48.444768,"arrival":1522695914000,"departure":1522695915000,"zoneId":"NA","stopIndex":31,"stopSequence":32,"vertexType":"TRANSIT"},"to":{"name":"Terminus Chicoutimi","stopId":"1:1289","stopCode":"1289","lon":-71.066163,"lat":48.428677,"arrival":1522696200000,"departure":1522696500000,"zoneId":"NA","stopIndex":34,"stopSequence":35,"vertexType":"TRANSIT"},"legGeometry":{"points":"a{tfH~{ypL`CoHpCyJbAmCtAuCZg@|@gBxAsCrCmFhHqN~@eBr@cAt@_Av@}@RQPMz@k@tAe@REZG^Af@@X@VF`@Jn@XbClAr@Xt\\`PrAb@pA^hBTjAFj@Pb@JPHLLJNJRFXDT?X?ZEVEVKTMNMHMFOB}DWSGOSYcAN}FFkAF}DJyDPwGvAHVyL","length":61},"routeShortName":"21","routeLongName":"Boul. Ste-Geneviève/Élie","rentedBike":false,"transitLeg":true,"duration":285.0,"steps":[]},{"startTime":1522696500000,"endTime":1522696803000,"departureDelay":0,"arrivalDelay":0,"realTime":false,"distance":1445.1781370852384,"pathway":false,"mode":"BUS","route":"24","agencyName":"Société de Transport du Saguenay","agencyUrl":"http://ville.saguenay.ca/fr/services-aux-citoyens/transport-sts","agencyTimeZoneOffset":-14400000,"routeColor":"00FF00","routeType":3,"routeId":"1:24","routeTextColor":"000000","interlineWithPreviousLeg":false,"tripBlockId":"5","headsign":"Terminus Chicoutimi","agencyId":"0","tripId":"1:217267","serviceDate":"20180402","from":{"name":"Terminus Chicoutimi","stopId":"1:1289","stopCode":"1289","lon":-71.066163,"lat":48.428677,"arrival":1522696200000,"departure":1522696500000,"zoneId":"NA","stopIndex":0,"stopSequence":1,"vertexType":"TRANSIT"},"to":{"name":"Napoléon / Roussel","stopId":"1:805","stopCode":"805","lon":-71.059698,"lat":48.438926,"arrival":1522696803000,"departure":1522696804000,"zoneId":"NA","stopIndex":3,"stopSequence":4,"vertexType":"TRANSIT"},"legGeometry":{"points":"evqfHzcwpLg@?EhBO~GoBKCp@O\\WjGOfGCRK^KJMHQB_AMg@Gm\\wO]i@wAyA_@WUKMEwEm@Js@Da@??@@??@?@???@???@?@??A@???@A@??A@??A@A??@A?A??@A?A?A?A@A?A???A?A?A???A?A?A?A???A?AAA?A???AAA?A??AA?AA??AA??A??AA??A??AA?A???A????q@C{AAaB?mAEcAGs@OoAa@sB[kAYcASq@Ok@Qq@Ku@MoBKmAa@eHi@FKC_@I??","length":110},"routeShortName":"24","routeLongName":"Saint-Luc","rentedBike":false,"transitLeg":true,"duration":303.0,"steps":[]},{"startTime":1522696804000,"endTime":1522697038000,"departureDelay":0,"arrivalDelay":0,"realTime":false,"distance":298.25800000000004,"pathway":false,"mode":"WALK","route":"","agencyTimeZoneOffset":-14400000,"interlineWithPreviousLeg":false,"from":{"name":"Napoléon / Roussel","stopId":"1:805","stopCode":"805","lon":-71.059698,"lat":48.438926,"arrival":1522696803000,"departure":1522696804000,"zoneId":"NA","stopIndex":3,"stopSequence":4,"vertexType":"TRANSIT"},"to":{"name":"Destination","lon":-71.06115499,"lat":48.436685,"arrival":1522697038000,"orig":"","vertexType":"NORMAL"},"legGeometry":{"points":"kvsfHrzupLJBXBl@GJxBjB^rAf@tCdAND","length":9},"rentedBike":false,"transitLeg":false,"duration":234.0,"steps":[{"distance":46.409,"relativeDirection":"DEPART","streetName":"Rue Napoléon","absoluteDirection":"SOUTH","stayOn":false,"area":false,"bogusName":false,"lon":-71.05977092785905,"lat":48.43894142274176,"elevation":[]},{"distance":45.189,"relativeDirection":"RIGHT","streetName":"Rue Roussel","absoluteDirection":"WEST","stayOn":false,"area":false,"bogusName":false,"lon":-71.05977750000001,"lat":48.4385289,"elevation":[]},{"distance":206.66000000000003,"relativeDirection":"LEFT","streetName":"Rue Michaud","absoluteDirection":"SOUTH","stayOn":false,"area":false,"bogusName":false,"lon":-71.0603833,"lat":48.4384686,"elevation":[]}]}],"tooSloped":false},{"duration":1550,"startTime":1522695600000,"endTime":1522697150000,"walkTime":1550,"transitTime":0,"waitingTime":0,"walkDistance":1996.8785563821832,"walkLimitExceeded":false,"elevationLost":0.0,"elevationGained":0.0,"transfers":0,"legs":[{"startTime":1522695600000,"endTime":1522697150000,"departureDelay":0,"arrivalDelay":0,"realTime":false,"distance":1996.6060000000002,"pathway":false,"mode":"WALK","route":"","agencyTimeZoneOffset":-14400000,"interlineWithPreviousLeg":false,"from":{"name":"Origin","lon":-71.080494,"lat":48.444119,"departure":1522695600000,"orig":"","vertexType":"NORMAL"},"to":{"name":"Destination","lon":-71.06115499,"lat":48.436685,"arrival":1522697150000,"orig":"","vertexType":"NORMAL"},"legGeometry":{"points":"wytfHjyypLlAiEfByGhAiD|@wB~CcGrAiCSS`IiOzAwCvAoCb@{@h@{@Re@Xk@Zm@v@uAvAcCt@y@d@_@J??E@EBC@CBAD?BwC?eAASAyAKqCy@gDMc@I_@Y_AUs@Kc@S{@O}@Eo@Gw@bFbBAs@Wi@LcArA^JqAND","length":49},"rentedBike":false,"transitLeg":false,"duration":1550.0,"steps":[{"distance":1023.1240000000001,"relativeDirection":"DEPART","streetName":"Boulevard Sainte-Geneviève","absoluteDirection":"SOUTHEAST","stayOn":false,"area":false,"bogusName":false,"lon":-71.08005452675857,"lat":48.4446094224144,"elevation":[]},{"distance":243.155,"relativeDirection":"CONTINUE","streetName":"R 172","absoluteDirection":"SOUTHEAST","stayOn":false,"area":false,"bogusName":true,"lon":-71.0694016,"lat":48.4389935,"elevation":[]},{"distance":14.306,"relativeDirection":"CIRCLE_CLOCKWISE","streetName":"Rue Roussel","absoluteDirection":"SOUTHEAST","exit":"1","stayOn":false,"area":false,"bogusName":false,"lon":-71.0672278,"lat":48.4373869,"elevation":[]},{"distance":428.865,"relativeDirection":"LEFT","streetName":"Rue Roussel","absoluteDirection":"EAST","stayOn":false,"area":false,"bogusName":false,"lon":-71.0671123,"lat":48.437299200000005,"elevation":[]},{"distance":132.169,"relativeDirection":"HARD_RIGHT","streetName":"Boulevard de Tadoussac","absoluteDirection":"SOUTH","stayOn":false,"area":false,"bogusName":false,"lon":-71.0616517,"lat":48.4383174,"elevation":[]},{"distance":145.985,"relativeDirection":"LEFT","streetName":"path","absoluteDirection":"EAST","stayOn":false,"area":false,"bogusName":true,"lon":-71.0621543,"lat":48.4371765,"elevation":[]},{"distance":9.002,"relativeDirection":"RIGHT","streetName":"Rue Michaud","absoluteDirection":"SOUTH","stayOn":false,"area":false,"bogusName":false,"lon":-71.06109090000001,"lat":48.4367566,"elevation":[]}]}],"tooSloped":false},{"duration":1046,"startTime":1522696656000,"endTime":1522697702000,"walkTime":464,"transitTime":580,"waitingTime":2,"walkDistance":592.4922180406851,"walkLimitExceeded":false,"elevationLost":0.0,"elevationGained":0.0,"transfers":0,"legs":[{"startTime":1522696656000,"endTime":1522696818000,"departureDelay":0,"arrivalDelay":0,"realTime":false,"distance":203.312,"pathway":false,"mode":"WALK","route":"","agencyTimeZoneOffset":-14400000,"interlineWithPreviousLeg":false,"from":{"name":"Origin","lon":-71.080494,"lat":48.444119,"departure":1522696656000,"orig":"","vertexType":"NORMAL"},"to":{"name":"Place de la Colline (boul. Ste-Geneviève)","stopId":"1:706","stopCode":"706","lon":-71.080094,"lat":48.44485,"arrival":1522696818000,"departure":1522696819000,"zoneId":"NA","stopIndex":2,"stopSequence":3,"vertexType":"TRANSIT"},"legGeometry":{"points":"wytfHjyypLlAiEQSeBjF","length":4},"rentedBike":false,"transitLeg":false,"duration":162.0,"steps":[{"distance":86.223,"relativeDirection":"DEPART","streetName":"Boulevard Sainte-Geneviève","absoluteDirection":"SOUTHEAST","stayOn":false,"area":false,"bogusName":false,"lon":-71.08005452675857,"lat":48.4446094224144,"elevation":[]},{"distance":117.089,"relativeDirection":"UTURN_LEFT","streetName":"Boulevard Sainte-Geneviève","absoluteDirection":"NORTHWEST","stayOn":true,"area":false,"bogusName":false,"lon":-71.07894370000001,"lat":48.444307900000005,"elevation":[]}]},{"startTime":1522696819000,"endTime":1522697399000,"departureDelay":0,"arrivalDelay":0,"realTime":false,"distance":4363.5425764082065,"pathway":false,"mode":"BUS","route":"23","agencyName":"Société de Transport du Saguenay","agencyUrl":"http://ville.saguenay.ca/fr/services-aux-citoyens/transport-sts","agencyTimeZoneOffset":-14400000,"routeColor":"FF00FF","routeType":3,"routeId":"1:23","routeTextColor":"FFFFFF","interlineWithPreviousLeg":false,"tripBlockId":"4","headsign":"Terminus Chicoutimi","agencyId":"0","tripId":"1:217240","serviceDate":"20180402","from":{"name":"Place de la Colline (boul. Ste-Geneviève)","stopId":"1:706","stopCode":"706","lon":-71.080094,"lat":48.44485,"arrival":1522696818000,"departure":1522696819000,"zoneId":"NA","stopIndex":2,"stopSequence":3,"vertexType":"TRANSIT"},"to":{"name":"boul. Tadoussac / Bourget","stopId":"1:831","stopCode":"831","lon":-71.061384,"lat":48.43922,"arrival":1522697399000,"departure":1522697400000,"zoneId":"NA","stopIndex":21,"stopSequence":22,"vertexType":"TRANSIT"},"legGeometry":{"points":"{ztfH~yypLCD}@hCo@~Aq@pAs@fA{BlCqH|Iq@Bq@Im@UGCUi@Wm@ScA_@gGSaE@_@@_@@ERoBFe@No@`@gAbCyFNe@Ha@He@Fg@Du@Dg@Hc@Pa@RW\\S`@QZEm@eHM}B?GGi@Is@Ou@Qw@Mo@Kw@ImAGoBAk@aALa@?YEUKc@Yc@_@KOIUGUEWAW?YBqAH_AXeC@IdB_Mh@_EJk@d@kDhAqI`AgHz@oGBU?UAWCWUwAWD]B]AUEoAc@kE}AOIq@g@g@u@]w@b@s@T[~CkFf@s@\\e@x@}@jAeAXQZStBaAh@]`@]`@i@l@kDF_@R{AFWFMPIPC`@BT@V?TAVKLENCLCJ@J@xAb@x@Zz@\\CP?R@N@NFLFF`GtBx@Xw@pG@l@B\\DXL\\RZDFXPf@N@v@Bp@Dr@l@~HNlAH\\@HLd@\\z@Xd@X\\RTXRr@Zn@PfExA","length":153},"routeShortName":"23","routeLongName":"Côte Verdun via Aréna du Plateau","rentedBike":false,"transitLeg":true,"duration":580.0,"steps":[]},{"startTime":1522697400000,"endTime":1522697702000,"departureDelay":0,"arrivalDelay":0,"realTime":false,"distance":389.04300000000006,"pathway":false,"mode":"WALK","route":"","agencyTimeZoneOffset":-14400000,"interlineWithPreviousLeg":false,"from":{"name":"boul. Tadoussac / Bourget","stopId":"1:831","stopCode":"831","lon":-71.061384,"lat":48.43922,"arrival":1522697399000,"departure":1522697400000,"zoneId":"NA","stopIndex":21,"stopSequence":22,"vertexType":"TRANSIT"},"to":{"name":"Destination","lon":-71.06115499,"lat":48.436685,"arrival":1522697702000,"orig":"","vertexType":"NORMAL"},"legGeometry":{"points":"}wsfH|cvpLnDlAbFbBAs@Wi@LcArA^JqAND","length":9},"rentedBike":false,"transitLeg":false,"duration":302.0,"steps":[{"distance":234.056,"relativeDirection":"DEPART","streetName":"Boulevard de Tadoussac","absoluteDirection":"SOUTH","stayOn":false,"area":false,"bogusName":false,"lon":-71.06126606265329,"lat":48.43919724946793,"elevation":[]},{"distance":145.985,"relativeDirection":"LEFT","streetName":"path","absoluteDirection":"EAST","stayOn":false,"area":false,"bogusName":true,"lon":-71.0621543,"lat":48.4371765,"elevation":[]},{"distance":9.002,"relativeDirection":"RIGHT","streetName":"Rue Michaud","absoluteDirection":"SOUTH","stayOn":false,"area":false,"bogusName":false,"lon":-71.06109090000001,"lat":48.4367566,"elevation":[]}]}],"tooSloped":false}]},"debugOutput":{"precalculationTime":24,"pathCalculationTime":22,"pathTimes":[15,3,4],"renderingTime":0,"totalTime":46,"timedOut":false},"elevationMetadata":{"ellipsoidToGeoidDifference":-28.885904201182168,"geoidElevation":false}}