{"requestParameters":{"date":"2018/04/02","walkSpeed":"1.33","walkReluctance":"2.0","fromPlace":"48.443713,-71.068053","maxWalkDistance":"3000","waitReluctance":"1.0","carSpeed":"33","numItineraries":"3","waitAtBeginningFactor":"0.4","mode":"TRANSIT,WALK","ignoreRealtimeUpdates":"false","stairsReluctance":"2.0","toPlace":"48.452857,-71.0325","time":"16:5:00"},"plan":{"date":1522699500000,"from":{"name":"Origin","lon":-71.068053,"lat":48.443713,"orig":"","vertexType":"NORMAL"},"to":{"name":"Destination","lon":-71.0325,"lat":48.452857,"orig":"","vertexType":"NORMAL"},"itineraries":[{"duration":1879,"startTime":1522699579000,"endTime":1522701458000,"walkTime":1573,"transitTime":304,"waitingTime":2,"walkDistance":2029.4560451041327,"walkLimitExceeded":false,"elevationLost":0.0,"elevationGained":0.0,"transfers":0,"legs":[{"startTime":1522699579000,"endTime":1522700339000,"departureDelay":0,"arrivalDelay":0,"realTime":false,"distance":973.4350000000001,"pathway":false,"mode":"WALK","route":"","agencyTimeZoneOffset":-14400000,"interlineWithPreviousLeg":false,"from":{"name":"Origin","lon":-71.068053,"lat":48.443713,"departure":1522699579000,"orig":"","vertexType":"NORMAL"},"to":{"name":"Roussel / St-François","stopId":"1:1508","stopCode":"1508","lon":-71.065897,"lat":48.437206,"arrival":1522700339000,"departure":1522700340000,"zoneId":"NA","stopIndex":1,"stopSequence":2,"vertexType":"TRANSIT"},"legGeometry":{"points":"ystfHrpwpL`AY@Y@GBG@IFKDMHGF@lBp@hDnAxDp@\\CfApFlCMb@Vb@{@h@{@Re@Xk@Zm@v@uAvAcCt@y@d@_@J??E@EBC@CBAD?BwC?eAAS","length":36},"rentedBike":false,"transitLeg":false,"duration":760.0,"steps":[{"distance":37.996,"relativeDirection":"DEPART","streetName":"path","absoluteDirection":"SOUTH","stayOn":false,"area":false,"bogusName":false,"lon":-71.06841057285905,"lat":48.44365191196925,"elevation":[]},{"distance":38.33,"relativeDirection":"LEFT","streetName":"Rue Riel","absoluteDirection":"EAST","stayOn":false,"area":false,"bogusName":false,"lon":-71.0682821,"lat":48.443321000000005,"elevation":[]},{"distance":288.789,"relativeDirection":"RIGHT","streetName":"Rue Saint-Nicolas","absoluteDirection":"SOUTH","stayOn":false,"area":false,"bogusName":false,"lon":-71.06785640000001,"lat":48.4431554,"elevation":[]},{"distance":199.08,"relativeDirection":"RIGHT","streetName":"path","absoluteDirection":"SOUTHWEST","stayOn":false,"area":false,"bogusName":true,"lon":-71.06874350000001,"lat":48.4406393,"elevation":[]},{"distance":62.283,"relativeDirection":"LEFT","streetName":"Boulevard Sainte-Geneviève","absoluteDirection":"SOUTHEAST","stayOn":false,"area":false,"bogusName":false,"lon":-71.07000330000001,"lat":48.4393862,"elevation":[]},{"distance":243.155,"relativeDirection":"CONTINUE","streetName":"R 172","absoluteDirection":"SOUTHEAST","stayOn":false,"area":false,"bogusName":true,"lon":-71.0694016,"lat":48.4389935,"elevation":[]},{"distance":14.306,"relativeDirection":"CIRCLE_CLOCKWISE","streetName":"Rue Roussel","absoluteDirection":"SOUTHEAST","exit":"1","stayOn":false,"area":false,"bogusName":false,"lon":-71.0672278,"lat":48.4373869,"elevation":[]},{"distance":89.496,"relativeDirection":"LEFT","streetName":"Rue Roussel","absoluteDirection":"EAST","stayOn":false,"area":false,"bogusName":false,"lon":-71.0671123,"lat":48.437299200000005,"elevation":[]}]},{"startTime":1522700340000,"endTime":1522700644000,"departureDelay":0,"arrivalDelay":0,"realTime":false,"distance":2344.8295035551964,"pathway":false,"mode":"BUS","route":"24","agencyName":"Société de Transport du Saguenay","agencyUrl":"http://ville.saguenay.ca/fr/services-aux-citoyens/transport-sts","agencyTimeZoneOffset":-14400000,"routeColor":"00FF00","routeType":3,"routeId":"1:24","routeTextColor":"000000","interlineWithPreviousLeg":false,"tripBlockId":"5","headsign":"Terminus Chicoutimi","agencyId":"0","tripId":"1:217269","serviceDate":"20180402","from":{"name":"Roussel / St-François","stopId":"1:1508","stopCode":"1508","lon":-71.065897,"lat":48.437206,"arrival":1522700339000,"departure":1522700340000,"zoneId":"NA","stopIndex":1,"stopSequence":2,"vertexType":"TRANSIT"},"to":{"name":"Adam / Thibeault","stopId":"1:814","stopCode":"814","lon":-71.042521,"lat":48.448191,"arrival":1522700644000,"departure":1522700645000,"zoneId":"NA","stopIndex":10,"stopSequence":11,"vertexType":"TRANSIT"},"legGeometry":{"points":"_lsfHz`wpL?mAEcAGs@OoAa@sB[kAYcASq@Ok@Qq@Ku@MoBKmAa@eHi@FKC_@I??iE}Ah@}DH}@?c@Ea@[_BA?My@Cm@?Y@g@Hu@b@sD\\_DBSyHsC_@MBQA}@IwAUoAcAkCWo@qDgJg@cBk@uBi@sC]aCWwCiKuDwQuGDWbAoG","length":52},"routeShortName":"24","routeLongName":"Saint-Luc","rentedBike":false,"transitLeg":true,"duration":304.0,"steps":[]},{"startTime":1522700645000,"endTime":1522701458000,"departureDelay":0,"arrivalDelay":0,"realTime":false,"distance":1055.753,"pathway":false,"mode":"WALK","route":"","agencyTimeZoneOffset":-14400000,"interlineWithPreviousLeg":false,"from":{"name":"Adam / Thibeault","stopId":"1:814","stopCode":"814","lon":-71.042521,"lat":48.448191,"arrival":1522700644000,"departure":1522700645000,"zoneId":"NA","stopIndex":10,"stopSequence":11,"vertexType":"TRANSIT"},"to":{"name":"Destination","lon":-71.0325,"lat":48.452857,"arrival":1522701458000,"orig":"","vertexType":"NORMAL"},"legGeometry":{"points":"upufHlnrpLVaB|@cGPq@FOj@uEwBkA@GNaAC?]KoC{@kCaAIAwHsBeEoAqBs@gBg@q@Ws@SEAEEIGWWGE","length":25},"alerts":[{"alertHeaderText":"Unpaved surface"}],"rentedBike":false,"transitLeg":false,"duration":813.0,"steps":[{"distance":169.089,"relativeDirection":"DEPART","streetName":"Rue Adam","absoluteDirection":"EAST","stayOn":false,"area":false,"bogusName":false,"lon":-71.04246901244274,"lat":48.448279857146716,"elevation":[]},{"distance":155.755,"relativeDirection":"CONTINUE","streetName":"path","absoluteDirection":"EAST","stayOn":false,"area":false,"bogusName":true,"lon":-71.04034370000001,"lat":48.447717700000005,"elevation":[]},{"distance":28.982,"relativeDirection":"RIGHT","streetName":"Rue de Vimy","absoluteDirection":"EAST","stayOn":false,"area":false,"bogusName":false,"lon":-71.0388973,"lat":48.448096500000005,"elevation":[]},{"distance":701.9269999999999,"relativeDirection":"LEFT","streetName":"Chemin Raymond","absoluteDirection":"NORTH","stayOn":false,"area":false,"bogusName":false,"lon":-71.03852780000001,"lat":48.448007800000006,"elevation":[],"alerts":[{"alertHeaderText":"Unpaved surface"}]}]}],"tooSloped":false},{"duration":2148,"startTime":1522700274000,"endTime":1522702422000,"walkTime":1630,"transitTime":516,"waitingTime":2,"walkDistance":2139.3295714244223,"walkLimitExceeded":false,"elevationLost":0.0,"elevationGained":0.0,"transfers":0,"legs":[{"startTime":1522700274000,"endTime":1522700376000,"departureDelay":0,"arrivalDelay":0,"realTime":false,"distance":128.957,"pathway":false,"mode":"WALK","route":"","agencyTimeZoneOffset":-14400000,"interlineWithPreviousLeg":false,"from":{"name":"Origin","lon":-71.068053,"lat":48.443713,"departure":1522700274000,"orig":"","vertexType":"NORMAL"},"to":{"name":"Delisle / Pépin","stopId":"1:100","stopCode":"100","lon":-71.069702,"lat":48.443741,"arrival":1522700376000,"departure":1522700377000,"zoneId":"NA","stopIndex":2,"stopSequence":3,"vertexType":"TRANSIT"},"legGeometry":{"points":"ystfHrpwpLcAXPnBNzB","length":4},"rentedBike":false,"transitLeg":false,"duration":102.0,"steps":[{"distance":39.52,"relativeDirection":"DEPART","streetName":"path","absoluteDirection":"NORTH","stayOn":false,"area":false,"bogusName":false,"lon":-71.06841057285905,"lat":48.44365191196925,"elevation":[]},{"distance":89.437,"relativeDirection":"LEFT","streetName":"Rue Delisle","absoluteDirection":"WEST","stayOn":false,"area":false,"bogusName":false,"lon":-71.0685442,"lat":48.4439961,"elevation":[]}]},{"startTime":1522700377000,"endTime":1522700893000,"departureDelay":0,"arrivalDelay":0,"realTime":false,"distance":3006.184285064941,"pathway":false,"mode":"BUS","route":"22","agencyName":"Société de Transport du Saguenay","agencyUrl":"http://ville.saguenay.ca/fr/services-aux-citoyens/transport-sts","agencyTimeZoneOffset":-14400000,"routeColor":"C0C000","routeType":3,"routeId":"1:22","routeTextColor":"000000","interlineWithPreviousLeg":false,"tripBlockId":"3","headsign":"Terminus Chicoutimi","agencyId":"0","tripId":"1:217206","serviceDate":"20180402","from":{"name":"Delisle / Pépin","stopId":"1:100","stopCode":"100","lon":-71.069702,"lat":48.443741,"arrival":1522700376000,"departure":1522700377000,"zoneId":"NA","stopIndex":2,"stopSequence":3,"vertexType":"TRANSIT"},"to":{"name":"Guy / Vimy","stopId":"1:756","stopCode":"756","lon":-71.0539,"lat":48.4522,"arrival":1522700893000,"departure":1522700894000,"zoneId":"NA","stopIndex":20,"stopSequence":21,"vertexType":"TRANSIT"},"legGeometry":{"points":"yttfHxxwpLSaCmAZe@AYOy@o@MKsAcA}BmBuC}BgA}@}BsBaAaA{@y@d@kDp@uEyIkDqHwC_@QmLyEy@]}I_D\\cDBWwCgAcCy@NoAZoCH{@BaA@}AJuBBYTuBaAa@c@QEEACAG?G?G?KAGgE}HGMGOU{@EOp@m@FIHQFSDW^qDJB`@LHDFFFJ^hAFVDZBXBn@@H@RBLFTHNHHJFLBP@j@OLAJAN@@?l@NTwBDQFMFIJGHCL?H@hGjB`GjBz@VNJJRBTAVQdAn@X","length":96},"routeShortName":"22","routeLongName":"Vanier","rentedBike":false,"transitLeg":true,"duration":516.0,"steps":[]},{"startTime":1522700894000,"endTime":1522702422000,"departureDelay":0,"arrivalDelay":0,"realTime":false,"distance":2010.244,"pathway":false,"mode":"WALK","route":"","agencyTimeZoneOffset":-14400000,"interlineWithPreviousLeg":false,"from":{"name":"Guy / Vimy","stopId":"1:756","stopCode":"756","lon":-71.0539,"lat":48.4522,"arrival":1522700893000,"departure":1522700894000,"zoneId":"NA","stopIndex":20,"stopSequence":21,"vertexType":"TRANSIT"},"to":{"name":"Destination","lon":-71.0325,"lat":48.452857,"arrival":1522702422000,"orig":"","vertexType":"NORMAL"},"legGeometry":{"points":"civfHjutpLrAh@v@uFN{@Jq@jAsIp@_FV}Av@qFJsAXgBJa@LG^CVEJCLGHS@]?]AYEOEa@EYEUCWA[?UBMBUFYFa@R{@Ja@JYJa@N[`@mCX{BT_CPcBRoAl@oD^qBVaB@GNaAC?]KoC{@kCaAIAwHsBeEoAqBs@gBg@q@Ws@SEAEEIGWWGE","length":63},"alerts":[{"alertHeaderText":"Unpaved surface"}],"rentedBike":false,"transitLeg":false,"duration":1528.0,"steps":[{"distance":48.372,"relativeDirection":"DEPART","streetName":"Rue Guy","absoluteDirection":"SOUTH","stayOn":false,"area":false,"bogusName":false,"lon":-71.05381260386507,"lat":48.45218057637361,"elevation":[]},{"distance":1259.945,"relativeDirection":"LEFT","streetName":"Rue de Vimy","absoluteDirection":"EAST","stayOn":false,"area":false,"bogusName":false,"lon":-71.054021,"lat":48.4517681,"elevation":[]},{"distance":701.9269999999999,"relativeDirection":"LEFT","streetName":"Chemin Raymond","absoluteDirection":"NORTH","stayOn":false,"area":false,"bogusName":false,"lon":-71.03852780000001,"lat":48.448007800000006,"elevation":[],"alerts":[{"alertHeaderText":"Unpaved surface"}]}]}],"tooSloped":false},{"duration":1879,"startTime":1522701379000,"endTime":1522703258000,"walkTime":1573,"transitTime":304,"waitingTime":2,"walkDistance":2029.4560451041327,"walkLimitExceeded":false,"elevationLost":0.0,"elevationGained":0.0,"transfers":0,"legs":[{"startTime":1522701379000,"endTime":1522702139000,"departureDelay":0,"arrivalDelay":0,"realTime":false,"distance":973.4350000000001,"pathway":false,"mode":"WALK","route":"","agencyTimeZoneOffset":-14400000,"interlineWithPreviousLeg":false,"from":{"name":"Origin","lon":-71.068053,"lat":48.443713,"departure":1522701379000,"orig":"","vertexType":"NORMAL"},"to":{"name":"Roussel / St-François","stopId":"1:1508","stopCode":"1508","lon":-71.065897,"lat":48.437206,"arrival":1522702139000,"departure":1522702140000,"zoneId":"NA","stopIndex":1,"stopSequence":2,"vertexType":"TRANSIT"},"legGeometry":{"points":"ystfHrpwpL`AY@Y@GBG@IFKDMHGF@lBp@hDnAxDp@\\CfApFlCMb@Vb@{@h@{@Re@Xk@Zm@v@uAvAcCt@y@d@_@J??E@EBC@CBAD?BwC?eAAS","length":36},"rentedBike":false,"transitLeg":false,"duration":760.0,"steps":[{"distance":37.996,"relativeDirection":"DEPART","streetName":"path","absoluteDirection":"SOUTH","stayOn":false,"area":false,"bogusName":false,"lon":-71.06841057285905,"lat":48.44365191196925,"elevation":[]},{"distance":38.33,"relativeDirection":"LEFT","streetName":"Rue Riel","absoluteDirection":"EAST","stayOn":false,"area":false,"bogusName":false,"lon":-71.0682821,"lat":48.443321000000005,"elevation":[]},{"distance":288.789,"relativeDirection":"RIGHT","streetName":"Rue Saint-Nicolas","absoluteDirection":"SOUTH","stayOn":false,"area":false,"bogusName":false,"lon":-71.06785640000001,"lat":48.4431554,"elevation":[]},{"distance":199.08,"relativeDirection":"RIGHT","streetName":"path","absoluteDirection":"SOUTHWEST","stayOn":false,"area":false,"bogusName":true,"lon":-71.06874350000001,"lat":48.4406393,"elevation":[]},{"distance":62.283,"relativeDirection":"LEFT","streetName":"Boulevard Sainte-Geneviève","absoluteDirection":"SOUTHEAST","stayOn":false,"area":false,"bogusName":false,"lon":-71.07000330000001,"lat":48.4393862,"elevation":[]},{"distance":243.155,"relativeDirection":"CONTINUE","streetName":"R 172","absoluteDirection":"SOUTHEAST","stayOn":false,"area":false,"bogusName":true,"lon":-71.0694016,"lat":48.4389935,"elevation":[]},{"distance":14.306,"relativeDirection":"CIRCLE_CLOCKWISE","streetName":"Rue Roussel","absoluteDirection":"SOUTHEAST","exit":"1","stayOn":false,"area":false,"bogusName":false,"lon":-71.0672278,"lat":48.4373869,"elevation":[]},{"distance":89.496,"relativeDirection":"LEFT","streetName":"Rue Roussel","absoluteDirection":"EAST","stayOn":false,"area":false,"bogusName":false,"lon":-71.0671123,"lat":48.437299200000005,"elevation":[]}]},{"startTime":1522702140000,"endTime":1522702444000,"departureDelay":0,"arrivalDelay":0,"realTime":false,"distance":2344.8295035551964,"pathway":false,"mode":"BUS","route":"24","agencyName":"Société de Transport du Saguenay","agencyUrl":"http://ville.saguenay.ca/fr/services-aux-citoyens/transport-sts","agencyTimeZoneOffset":-14400000,"routeColor":"00FF00","routeType":3,"routeId":"1:24","routeTextColor":"000000","interlineWithPreviousLeg":false,"tripBlockId":"4","headsign":"Terminus Chicoutimi","agencyId":"0","tripId":"1:217243","serviceDate":"20180402","from":{"name":"Roussel / St-François","stopId":"1:1508","stopCode":"1508","lon":-71.065897,"lat":48.437206,"arrival":1522702139000,"departure":1522702140000,"zoneId":"NA","stopIndex":1,"stopSequence":2,"vertexType":"TRANSIT"},"to":{"name":"Adam / Thibeault","stopId":"1:814","stopCode":"814","lon":-71.042521,"lat":48.448191,"arrival":1522702444000,"departure":1522702445000,"zoneId":"NA","stopIndex":10,"stopSequence":11,"vertexType":"TRANSIT"},"legGeometry":{"points":"_lsfHz`wpL?mAEcAGs@OoAa@sB[kAYcASq@Ok@Qq@Ku@MoBKmAa@eHi@FKC_@I??iE}Ah@}DH}@?c@Ea@[_BA?My@Cm@?Y@g@Hu@b@sD\\_DBSyHsC_@MBQA}@IwAUoAcAkCWo@qDgJg@cBk@uBi@sC]aCWwCiKuDwQuGDWbAoG","length":52},"routeShortName":"24","routeLongName":"Saint-Luc","rentedBike":false,"transitLeg":true,"duration":304.0,"steps":[]},{"startTime":1522702445000,"endTime":1522703258000,"departureDelay":0,"arrivalDelay":0,"realTime":false,"distance":1055.753,"pathway":false,"mode":"WALK","route":"","agencyTimeZoneOffset":-14400000,"interlineWithPreviousLeg":false,"from":{"name":"Adam / Thibeault","stopId":"1:814","stopCode":"814","lon":-71.042521,"lat":48.448191,"arrival":1522702444000,"departure":1522702445000,"zoneId":"NA","stopIndex":10,"stopSequence":11,"vertexType":"TRANSIT"},"to":{"name":"Destination","lon":-71.0325,"lat":48.452857,"arrival":1522703258000,"orig":"","vertexType":"NORMAL"},"legGeometry":{"points":"upufHlnrpLVaB|@cGPq@FOj@uEwBkA@GNaAC?]KoC{@kCaAIAwHsBeEoAqBs@gBg@q@Ws@SEAEEIGWWGE","length":25},"alerts":[{"alertHeaderText":"Unpaved surface"}],"rentedBike":false,"transitLeg":false,"duration":813.0,"steps":[{"distance":169.089,"relativeDirection":"DEPART","streetName":"Rue Adam","absoluteDirection":"EAST","stayOn":false,"area":false,"bogusName":false,"lon":-71.04246901244274,"lat":48.448279857146716,"elevation":[]},{"distance":155.755,"relativeDirection":"CONTINUE","streetName":"path","absoluteDirection":"EAST","stayOn":false,"area":false,"bogusName":true,"lon":-71.04034370000001,"lat":48.447717700000005,"elevation":[]},{"distance":28.982,"relativeDirection":"RIGHT","streetName":"Rue de Vimy","absoluteDirection":"EAST","stayOn":false,"area":false,"bogusName":false,"lon":-71.0388973,"lat":48.448096500000005,"elevation":[]},{"distance":701.9269999999999,"relativeDirection":"LEFT","streetName":"Chemin Raymond","absoluteDirection":"NORTH","stayOn":false,"area":false,"bogusName":false,"lon":-71.03852780000001,"lat":48.448007800000006,"elevation":[],"alerts":[{"alertHeaderText":"Unpaved surface"}]}]}],"tooSloped":false}]},"debugOutput":{"precalculationTime":14,"pathCalculationTime":34,"pathTimes":[17,9,8],"renderingTime":1,"totalTime":49,"timedOut":false},"elevationMetadata":{"ellipsoidToGeoidDifference":-28.885904201182168,"geoidElevation":false}}