{"requestParameters":{"date":"2018/04/02","walkSpeed":"1.33","walkReluctance":"2.0","fromPlace":"48.443416,-71.07852499","maxWalkDistance":"3000","waitReluctance":"1.0","carSpeed":"33","numItineraries":"3","waitAtBeginningFactor":"0.4","mode":"TRANSIT,WALK","ignoreRealtimeUpdates":"false","stairsReluctance":"2.0","toPlace":"48.452857,-71.0325","time":"17:30:00"},"plan":{"date":1522704600000,"from":{"name":"Origin","lon":-71.07852499,"lat":48.443416,"orig":"","vertexType":"NORMAL"},"to":{"name":"Destination","lon":-71.0325,"lat":48.452857,"orig":"","vertexType":"NORMAL"},"itineraries":[{"duration":2097,"startTime":1522704761000,"endTime":1522706858000,"walkTime":966,"transitTime":829,"waitingTime":302,"walkDistance":1257.3224135301105,"walkLimitExceeded":false,"elevationLost":0.0,"elevationGained":0.0,"transfers":1,"legs":[{"startTime":1522704761000,"endTime":1522704914000,"departureDelay":0,"arrivalDelay":0,"realTime":false,"distance":201.454,"pathway":false,"mode":"WALK","route":"","agencyTimeZoneOffset":-14400000,"interlineWithPreviousLeg":false,"from":{"name":"Origin","lon":-71.07852499,"lat":48.443416,"departure":1522704761000,"orig":"","vertexType":"NORMAL"},"to":{"name":"Place de la Colline (boul. Ste-Geneviève)","stopId":"1:2009","stopCode":"2009","lon":-71.080522,"lat":48.444768,"arrival":1522704914000,"departure":1522704915000,"zoneId":"NA","stopIndex":31,"stopSequence":32,"vertexType":"TRANSIT"},"legGeometry":{"points":"eutfHjmypLcAtDsAvEa@fA","length":4},"rentedBike":false,"transitLeg":false,"duration":153.0,"steps":[{"distance":201.454,"relativeDirection":"DEPART","streetName":"Boulevard Sainte-Geneviève","absoluteDirection":"NORTHWEST","stayOn":false,"area":false,"bogusName":false,"lon":-71.0781387826346,"lat":48.44387841675082,"elevation":[]}]},{"startTime":1522704915000,"endTime":1522705200000,"departureDelay":0,"arrivalDelay":0,"realTime":false,"distance":2246.0175870948647,"pathway":false,"mode":"BUS","route":"21","agencyName":"Société de Transport du Saguenay","agencyUrl":"http://ville.saguenay.ca/fr/services-aux-citoyens/transport-sts","agencyTimeZoneOffset":-14400000,"routeColor":"556B2F","routeType":3,"routeId":"1:21","routeTextColor":"FFFFFF","interlineWithPreviousLeg":false,"tripBlockId":"2","headsign":"Terminus Chicoutimi","agencyId":"0","tripId":"1:217177","serviceDate":"20180402","from":{"name":"Place de la Colline (boul. Ste-Geneviève)","stopId":"1:2009","stopCode":"2009","lon":-71.080522,"lat":48.444768,"arrival":1522704914000,"departure":1522704915000,"zoneId":"NA","stopIndex":31,"stopSequence":32,"vertexType":"TRANSIT"},"to":{"name":"Terminus Chicoutimi","stopId":"1:1289","stopCode":"1289","lon":-71.066163,"lat":48.428677,"arrival":1522705200000,"departure":1522705500000,"zoneId":"NA","stopIndex":34,"stopSequence":35,"vertexType":"TRANSIT"},"legGeometry":{"points":"a{tfH~{ypL`CoHpCyJbAmCtAuCZg@|@gBxAsCrCmFhHqN~@eBr@cAt@_Av@}@RQPMz@k@tAe@REZG^Af@@X@VF`@Jn@XbClAr@Xt\\`PrAb@pA^hBTjAFj@Pb@JPHLLJNJRFXDT?X?ZEVEVKTMNMHMFOB}DWSGOSYcAN}FFkAF}DJyDPwGvAHVyL","length":61},"routeShortName":"21","routeLongName":"Boul. Ste-Geneviève/Élie","rentedBike":false,"transitLeg":true,"duration":285.0,"steps":[]},{"startTime":1522705500000,"endTime":1522706044000,"departureDelay":0,"arrivalDelay":0,"realTime":false,"distance":3293.4155472673556,"pathway":false,"mode":"BUS","route":"24","agencyName":"Société de Transport du Saguenay","agencyUrl":"http://ville.saguenay.ca/fr/services-aux-citoyens/transport-sts","agencyTimeZoneOffset":-14400000,"routeColor":"00FF00","routeType":3,"routeId":"1:24","routeTextColor":"000000","interlineWithPreviousLeg":false,"tripBlockId":"4","headsign":"Terminus Chicoutimi","agencyId":"0","tripId":"1:217245","serviceDate":"20180402","from":{"name":"Terminus Chicoutimi","stopId":"1:1289","stopCode":"1289","lon":-71.066163,"lat":48.428677,"arrival":1522705200000,"departure":1522705500000,"zoneId":"NA","stopIndex":0,"stopSequence":1,"vertexType":"TRANSIT"},"to":{"name":"Adam / Thibeault","stopId":"1:814","stopCode":"814","lon":-71.042521,"lat":48.448191,"arrival":1522706044000,"departure":1522706045000,"zoneId":"NA","stopIndex":10,"stopSequence":11,"vertexType":"TRANSIT"},"legGeometry":{"points":"evqfHzcwpLg@?EhBO~GoBKCp@O\\WjGOfGCRK^KJMHQB_AMg@Gm\\wO]i@wAyA_@WUKMEwEm@Js@Da@??@@??@?@???@???@?@??A@???@A@??A@??A@A??@A?A??@A?A?A?A@A?A???A?A?A???A?A?A?A???A?AAA?A???AAA?A??AA?AA??AA??A??AA??A??AA?A???A????q@C{AAaB?mAEcAGs@OoAa@sB[kAYcASq@Ok@Qq@Ku@MoBKmAa@eHi@FKC_@I??iE}Ah@}DH}@?c@Ea@[_BA?My@Cm@?Y@g@Hu@b@sD\\_DBSyHsC_@MBQA}@IwAUoAcAkCWo@qDgJg@cBk@uBi@sC]aCWwCiKuDwQuGDWbAoG","length":143},"routeShortName":"24","routeLongName":"Saint-Luc","rentedBike":false,"transitLeg":true,"duration":544.0,"steps":[]},{"startTime":1522706045000,"endTime":1522706858000,"departureDelay":0,"arrivalDelay":0,"realTime":false,"distance":1055.753,"pathway":false,"mode":"WALK","route":"","agencyTimeZoneOffset":-14400000,"interlineWithPreviousLeg":false,"from":{"name":"Adam / Thibeault","stopId":"1:814","stopCode":"814","lon":-71.042521,"lat":48.448191,"arrival":1522706044000,"departure":1522706045000,"zoneId":"NA","stopIndex":10,"stopSequence":11,"vertexType":"TRANSIT"},"to":{"name":"Destination","lon":-71.0325,"lat":48.452857,"arrival":1522706858000,"orig":"","vertexType":"NORMAL"},"legGeometry":{"points":"upufHlnrpLVaB|@cGPq@FOj@uEwBkA@GNaAC?]KoC{@kCaAIAwHsBeEoAqBs@gBg@q@Ws@SEAEEIGWWGE","length":25},"alerts":[{"alertHeaderText":"Unpaved surface"}],"rentedBike":false,"transitLeg":false,"duration":813.0,"steps":[{"distance":169.089,"relativeDirection":"DEPART","streetName":"Rue Adam","absoluteDirection":"EAST","stayOn":false,"area":false,"bogusName":false,"lon":-71.04246901244274,"lat":48.448279857146716,"elevation":[]},{"distance":155.755,"relativeDirection":"CONTINUE","streetName":"path","absoluteDirection":"EAST","stayOn":false,"area":false,"bogusName":true,"lon":-71.04034370000001,"lat":48.447717700000005,"elevation":[]},{"distance":28.982,"relativeDirection":"RIGHT","streetName":"Rue de Vimy","absoluteDirection":"EAST","stayOn":false,"area":false,"bogusName":false,"lon":-71.0388973,"lat":48.448096500000005,"elevation":[]},{"distance":701.9269999999999,"relativeDirection":"LEFT","streetName":"Chemin Raymond","absoluteDirection":"NORTH","stayOn":false,"area":false,"bogusName":false,"lon":-71.03852780000001,"lat":48.448007800000006,"elevation":[],"alerts":[{"alertHeaderText":"Unpaved surface"}]}]}],"tooSloped":false},{"duration":2165,"startTime":1522704867000,"endTime":1522707032000,"walkTime":2004,"transitTime":159,"waitingTime":2,"walkDistance":2590.2978796878942,"walkLimitExceeded":false,"elevationLost":0.0,"elevationGained":0.0,"transfers":0,"legs":[{"startTime":1522704867000,"endTime":1522705799000,"departureDelay":0,"arrivalDelay":0,"realTime":false,"distance":1207.048,"pathway":false,"mode":"WALK","route":"","agencyTimeZoneOffset":-14400000,"interlineWithPreviousLeg":false,"from":{"name":"Origin","lon":-71.07852499,"lat":48.443416,"departure":1522704867000,"orig":"","vertexType":"NORMAL"},"to":{"name":"Roussel / St-François","stopId":"1:1508","stopCode":"1508","lon":-71.065897,"lat":48.437206,"arrival":1522705799000,"departure":1522705800000,"zoneId":"NA","stopIndex":1,"stopSequence":2,"vertexType":"TRANSIT"},"legGeometry":{"points":"eutfHjmypLb@cBhAiD|@wB~CcGrAiCSS`IiOzAwCvAoCb@{@h@{@Re@Xk@Zm@v@uAvAcCt@y@d@_@J??E@EBC@CBAD?BwC?eAAS","length":29},"rentedBike":false,"transitLeg":false,"duration":932.0,"steps":[{"distance":860.091,"relativeDirection":"DEPART","streetName":"Boulevard Sainte-Geneviève","absoluteDirection":"SOUTHEAST","stayOn":false,"area":false,"bogusName":false,"lon":-71.0781387826346,"lat":48.44387841675082,"elevation":[]},{"distance":243.155,"relativeDirection":"CONTINUE","streetName":"R 172","absoluteDirection":"SOUTHEAST","stayOn":false,"area":false,"bogusName":true,"lon":-71.0694016,"lat":48.4389935,"elevation":[]},{"distance":14.306,"relativeDirection":"CIRCLE_CLOCKWISE","streetName":"Rue Roussel","absoluteDirection":"SOUTHEAST","exit":"1","stayOn":false,"area":false,"bogusName":false,"lon":-71.0672278,"lat":48.4373869,"elevation":[]},{"distance":89.496,"relativeDirection":"LEFT","streetName":"Rue Roussel","absoluteDirection":"EAST","stayOn":false,"area":false,"bogusName":false,"lon":-71.0671123,"lat":48.437299200000005,"elevation":[]}]},{"startTime":1522705800000,"endTime":1522705959000,"departureDelay":0,"arrivalDelay":0,"realTime":false,"distance":2521.3995477840617,"pathway":false,"mode":"BUS","route":"26","agencyName":"Société de Transport du Saguenay","agencyUrl":"http://ville.saguenay.ca/fr/services-aux-citoyens/transport-sts","agencyTimeZoneOffset":-14400000,"routeColor":"00FFFF","routeType":3,"routeId":"1:26","routeTextColor":"000000","interlineWithPreviousLeg":false,"tripBlockId":"107","headsign":"Terminus Chicoutimi","agencyId":"0","tripId":"1:218825","serviceDate":"20180402","from":{"name":"Roussel / St-François","stopId":"1:1508","stopCode":"1508","lon":-71.065897,"lat":48.437206,"arrival":1522705799000,"departure":1522705800000,"zoneId":"NA","stopIndex":1,"stopSequence":2,"vertexType":"TRANSIT"},"to":{"name":"boul. Tadoussac (no. 1189)","stopId":"1:818","stopCode":"818","lon":-71.03515,"lat":48.444092,"arrival":1522705959000,"departure":1522705960000,"zoneId":"NA","stopIndex":7,"stopSequence":8,"vertexType":"TRANSIT"},"legGeometry":{"points":"_lsfHz`wpL?mAEcAGs@OoAa@sB[kAYcASq@Ok@Qq@Ku@MoBiC}@yBu@AAyBu@o@Qs@[YSSUY]Ye@]{@Me@Kg@K{@CQm@_IEs@Cq@Aw@Do@LyAJ_ADYBUf@wDRaBHqABQA}@IwAUoAcAkCWo@qDgJg@cBk@uBi@sC]aCWwCs@}Mq@_NQoDg@eKG{A?_@?m@?i@LeCJkAd@yG","length":63},"routeShortName":"26","routeLongName":"St-Fulgence","rentedBike":false,"transitLeg":true,"duration":159.0,"steps":[]},{"startTime":1522705960000,"endTime":1522707032000,"departureDelay":0,"arrivalDelay":0,"realTime":false,"distance":1382.898,"pathway":false,"mode":"WALK","route":"","agencyTimeZoneOffset":-14400000,"interlineWithPreviousLeg":false,"from":{"name":"boul. Tadoussac (no. 1189)","stopId":"1:818","stopCode":"818","lon":-71.03515,"lat":48.444092,"arrival":1522705959000,"departure":1522705960000,"zoneId":"NA","stopIndex":7,"stopSequence":8,"vertexType":"TRANSIT"},"to":{"name":"Destination","lon":-71.0325,"lat":48.452857,"arrival":1522707032000,"orig":"","vertexType":"NORMAL"},"legGeometry":{"points":"cwtfHp`qpLEr@YG_@EW`Dc@I_@@c@`D]EWRCQEECAIAGCc@M_@IwA[aAWSIm@WiAs@SrAOjAa@hCO`Ae@lCC?]KoC{@kCaAIAwHsBeEoAqBs@gBg@q@Ws@SEAEEIGWWGE","length":43},"alerts":[{"alertHeaderText":"Unpaved surface"}],"rentedBike":false,"transitLeg":false,"duration":1072.0,"steps":[{"distance":19.846,"relativeDirection":"DEPART","streetName":"Boulevard de Tadoussac","absoluteDirection":"WEST","stayOn":false,"area":false,"bogusName":false,"lon":-71.03512301599895,"lat":48.44418020282193,"elevation":[]},{"distance":227.49900000000002,"relativeDirection":"RIGHT","streetName":"road","absoluteDirection":"NORTH","stayOn":false,"area":false,"bogusName":true,"lon":-71.0353867,"lat":48.4442157,"elevation":[]},{"distance":234.34199999999998,"relativeDirection":"RIGHT","streetName":"Rue Claudel","absoluteDirection":"NORTHEAST","stayOn":false,"area":false,"bogusName":false,"lon":-71.0369625,"lat":48.445415800000006,"elevation":[]},{"distance":199.284,"relativeDirection":"LEFT","streetName":"Rue de Vimy","absoluteDirection":"WEST","stayOn":false,"area":false,"bogusName":false,"lon":-71.03599460000001,"lat":48.447386200000004,"elevation":[]},{"distance":701.9269999999999,"relativeDirection":"RIGHT","streetName":"Chemin Raymond","absoluteDirection":"NORTH","stayOn":false,"area":false,"bogusName":false,"lon":-71.03852780000001,"lat":48.448007800000006,"elevation":[],"alerts":[{"alertHeaderText":"Unpaved surface"}]}]}],"tooSloped":false},{"duration":2218,"startTime":1522705663000,"endTime":1522707881000,"walkTime":1805,"transitTime":411,"waitingTime":2,"walkDistance":2340.5813308179577,"walkLimitExceeded":false,"elevationLost":0.0,"elevationGained":0.0,"transfers":0,"legs":[{"startTime":1522705663000,"endTime":1522705818000,"departureDelay":0,"arrivalDelay":0,"realTime":false,"distance":193.902,"pathway":false,"mode":"WALK","route":"","agencyTimeZoneOffset":-14400000,"interlineWithPreviousLeg":false,"from":{"name":"Origin","lon":-71.07852499,"lat":48.443416,"departure":1522705663000,"orig":"","vertexType":"NORMAL"},"to":{"name":"Place de la Colline (boul. Ste-Geneviève)","stopId":"1:706","stopCode":"706","lon":-71.080094,"lat":48.44485,"arrival":1522705818000,"departure":1522705819000,"zoneId":"NA","stopIndex":2,"stopSequence":3,"vertexType":"TRANSIT"},"legGeometry":{"points":"eutfHjmypLcAtDQSeBjF","length":4},"rentedBike":false,"transitLeg":false,"duration":155.0,"steps":[{"distance":193.902,"relativeDirection":"DEPART","streetName":"Boulevard Sainte-Geneviève","absoluteDirection":"NORTHWEST","stayOn":false,"area":false,"bogusName":false,"lon":-71.0781387826346,"lat":48.44387841675082,"elevation":[]}]},{"startTime":1522705819000,"endTime":1522706230000,"departureDelay":0,"arrivalDelay":0,"realTime":false,"distance":3228.521113856758,"pathway":false,"mode":"BUS","route":"23","agencyName":"Société de Transport du Saguenay","agencyUrl":"http://ville.saguenay.ca/fr/services-aux-citoyens/transport-sts","agencyTimeZoneOffset":-14400000,"routeColor":"FF00FF","routeType":3,"routeId":"1:23","routeTextColor":"FFFFFF","interlineWithPreviousLeg":false,"tripBlockId":"5","headsign":"Terminus Chicoutimi","agencyId":"0","tripId":"1:217272","serviceDate":"20180402","from":{"name":"Place de la Colline (boul. Ste-Geneviève)","stopId":"1:706","stopCode":"706","lon":-71.080094,"lat":48.44485,"arrival":1522705818000,"departure":1522705819000,"zoneId":"NA","stopIndex":2,"stopSequence":3,"vertexType":"TRANSIT"},"to":{"name":"Verdun / St-Éloi","stopId":"1:794","stopCode":"794","lon":-71.053519,"lat":48.446152,"arrival":1522706230000,"departure":1522706231000,"zoneId":"NA","stopIndex":16,"stopSequence":17,"vertexType":"TRANSIT"},"legGeometry":{"points":"{ztfH~yypLCD}@hCo@~Aq@pAs@fA{BlCqH|Iq@Bq@Im@UGCUi@Wm@ScA_@gGSaE@_@@_@@ERoBFe@No@`@gAbCyFNe@Ha@He@Fg@Du@Dg@Hc@Pa@RW\\S`@QZEm@eHM}B?GGi@Is@Ou@Qw@Mo@Kw@ImAGoBAk@aALa@?YEUKc@Yc@_@KOIUGUEWAW?YBqAH_AXeC@IdB_Mh@_EJk@d@kDhAqI`AgHz@oGBU?UAWCWUwAWD]B]AUEoAc@kE}AOIq@g@g@u@]w@b@s@T[~CkFf@s@\\e@x@}@jAeAXQZStBaAh@]`@]`@i@l@kD","length":101},"routeShortName":"23","routeLongName":"Côte Verdun via Aréna du Plateau","rentedBike":false,"transitLeg":true,"duration":411.0,"steps":[]},{"startTime":1522706231000,"endTime":1522707881000,"departureDelay":0,"arrivalDelay":0,"realTime":false,"distance":2146.397,"pathway":false,"mode":"WALK","route":"","agencyTimeZoneOffset":-14400000,"interlineWithPreviousLeg":false,"from":{"name":"Verdun / St-Éloi","stopId":"1:794","stopCode":"794","lon":-71.053519,"lat":48.446152,"arrival":1522706230000,"departure":1522706231000,"zoneId":"NA","stopIndex":16,"stopSequence":17,"vertexType":"TRANSIT"},"to":{"name":"Destination","lon":-71.0325,"lat":48.452857,"arrival":1522707881000,"orig":"","vertexType":"NORMAL"},"legGeometry":{"points":"wcufHhstpLDYBYFg@D_@BUDKDCCk@`@cEwBiEI?IKCKS@K?MAIAEAICGIIMs@sAQ]S]SYQUIG[M[Ma@OMC]M}BgAgCwAl@_EXgBq@UHS@]?]AYEOEa@EYEUCWA[?UBMBUFYFa@R{@Ja@JYJa@N[`@mCX{BT_CPcBRoAl@oD^qBVaB@GNaAC?]KoC{@kCaAIAwHsBeEoAqBs@gBg@q@Ws@SEAEEIGWWGE","length":84},"alerts":[{"alertHeaderText":"Unpaved surface"}],"rentedBike":false,"transitLeg":false,"duration":1650.0,"steps":[{"distance":65.60900000000001,"relativeDirection":"DEPART","streetName":"Rue de Verdun","absoluteDirection":"EAST","stayOn":false,"area":false,"bogusName":false,"lon":-71.05348776384805,"lat":48.4462094810194,"elevation":[]},{"distance":191.388,"relativeDirection":"SLIGHTLY_LEFT","streetName":"path","absoluteDirection":"EAST","stayOn":false,"area":false,"bogusName":true,"lon":-71.05267160000001,"lat":48.446006600000004,"elevation":[]},{"distance":414.088,"relativeDirection":"SLIGHTLY_LEFT","streetName":"Rue Pierre-De La Vérendrye","absoluteDirection":"NORTH","stayOn":false,"area":false,"bogusName":false,"lon":-71.05046250000001,"lat":48.4464551,"elevation":[]},{"distance":116.245,"relativeDirection":"RIGHT","streetName":"Rue Adam","absoluteDirection":"EAST","stayOn":false,"area":false,"bogusName":false,"lon":-71.0480732,"lat":48.449695600000005,"elevation":[]},{"distance":657.14,"relativeDirection":"LEFT","streetName":"Rue de Vimy","absoluteDirection":"NORTH","stayOn":false,"area":false,"bogusName":false,"lon":-71.0465923,"lat":48.4493377,"elevation":[]},{"distance":701.9269999999999,"relativeDirection":"LEFT","streetName":"Chemin Raymond","absoluteDirection":"NORTH","stayOn":false,"area":false,"bogusName":false,"lon":-71.03852780000001,"lat":48.448007800000006,"elevation":[],"alerts":[{"alertHeaderText":"Unpaved surface"}]}]}],"tooSloped":false}]},"debugOutput":{"precalculationTime":13,"pathCalculationTime":32,"pathTimes":[18,6,8],"renderingTime":0,"totalTime":45,"timedOut":false},"elevationMetadata":{"ellipsoidToGeoidDifference":-28.885904201182168,"geoidElevation":false}}