{"requestParameters":{"date":"2018/04/02","walkSpeed":"1.33","walkReluctance":"2.0","fromPlace":"48.451428,-71.051481","maxWalkDistance":"3000","waitReluctance":"1.0","carSpeed":"33","numItineraries":"3","waitAtBeginningFactor":"0.4","mode":"TRANSIT,WALK","ignoreRealtimeUpdates":"false","stairsReluctance":"2.0","toPlace":"48.403952,-71.054642","time":"12:0:00"},"plan":{"date":1522684800000,"from":{"name":"Origin","lon":-71.051481,"lat":48.451428,"orig":"","vertexType":"NORMAL"},"to":{"name":"Destination","lon":-71.054642,"lat":48.403952,"orig":"","vertexType":"NORMAL"},"itineraries":[{"duration":2564,"startTime":1522685942000,"endTime":1522688506000,"walkTime":1045,"transitTime":1082,"waitingTime":437,"walkDistance":1335.2535187886833,"walkLimitExceeded":false,"elevationLost":0.0,"elevationGained":0.0,"transfers":1,"legs":[{"startTime":1522685942000,"endTime":1522686398000,"departureDelay":0,"arrivalDelay":0,"realTime":false,"distance":586.594,"pathway":false,"mode":"WALK","route":"","agencyTimeZoneOffset":-14400000,"interlineWithPreviousLeg":false,"from":{"name":"Origin","lon":-71.051481,"lat":48.451428,"departure":1522685942000,"orig":"","vertexType":"NORMAL"},"to":{"name":"Verdun (no. 397)","stopId":"1:777","stopCode":"777","lon":-71.055381,"lat":48.447691,"arrival":1522686398000,"departure":1522686399000,"zoneId":"NA","stopIndex":15,"stopSequence":16,"vertexType":"TRANSIT"},"legGeometry":{"points":"}bvfHngtpL]`C^Nf@g@`@]bAQt@PfArBpAhBfB`BbCpBx@`ACxAPvALIRI","length":16},"rentedBike":false,"transitLeg":false,"duration":456.0,"steps":[{"distance":50.033,"relativeDirection":"DEPART","streetName":"Rue de Vimy","absoluteDirection":"WEST","stayOn":false,"area":false,"bogusName":false,"lon":-71.05159729864779,"lat":48.451199425387415,"elevation":[]},{"distance":448.84,"relativeDirection":"LEFT","streetName":"Sentier parc bon-air","absoluteDirection":"SOUTH","stayOn":false,"area":false,"bogusName":false,"lon":-71.0522401,"lat":48.451343300000005,"elevation":[]},{"distance":66.992,"relativeDirection":"RIGHT","streetName":"path","absoluteDirection":"WEST","stayOn":false,"area":false,"bogusName":true,"lon":-71.05447620000001,"lat":48.4479625,"elevation":[]},{"distance":20.729,"relativeDirection":"LEFT","streetName":"Rue de Verdun","absoluteDirection":"SOUTH","stayOn":false,"area":false,"bogusName":false,"lon":-71.0553617,"lat":48.4478954,"elevation":[]}]},{"startTime":1522686399000,"endTime":1522686900000,"departureDelay":0,"arrivalDelay":0,"realTime":false,"distance":3274.1926768927856,"pathway":false,"mode":"BUS","route":"23","agencyName":"Société de Transport du Saguenay","agencyUrl":"http://ville.saguenay.ca/fr/services-aux-citoyens/transport-sts","agencyTimeZoneOffset":-14400000,"routeColor":"FF00FF","routeType":3,"routeId":"1:23","routeTextColor":"FFFFFF","interlineWithPreviousLeg":false,"tripBlockId":"4","headsign":"Terminus Chicoutimi","agencyId":"0","tripId":"1:217234","serviceDate":"20180402","from":{"name":"Verdun (no. 397)","stopId":"1:777","stopCode":"777","lon":-71.055381,"lat":48.447691,"arrival":1522686398000,"departure":1522686399000,"zoneId":"NA","stopIndex":15,"stopSequence":16,"vertexType":"TRANSIT"},"to":{"name":"Terminus Chicoutimi","stopId":"1:1289","stopCode":"1289","lon":-71.066163,"lat":48.428677,"arrival":1522686900000,"departure":1522686900000,"zoneId":"NA","stopIndex":26,"stopSequence":27,"vertexType":"TRANSIT"},"legGeometry":{"points":"gmufHp~tpLZStBaAh@]`@]`@i@l@kDF_@R{AFWFMPIPC`@BT@V?TAVKLENCLCJ@J@xAb@x@Zz@\\CP?R@N@NFLFF`GtBx@Xw@pG@l@B\\DXL\\RZDFXPf@N@v@Bp@Dr@l@~HNlAH\\@HLd@\\z@Xd@X\\RTXRr@Zn@PfExAvDpALnBJt@Pp@|@`DHZPn@`@rBNnAFr@DbA?bB@jABzA?p@A???A???A?A???A@??A?A@??A@?@A??@A@???@A@?@?@A@?@?@?@?@???@?@?@?@?@?@@@?@?@@@?@@@?@@@?@@?@@??@@@?E`@Kr@]rACVEl@I|AAr@JbAWJe@FUAM?a@Ke@YYWWa@v@}@RQPMz@k@tAe@REZG^Af@@X@VF`@Jn@XbClAr@Xt\\`PrAb@pA^hBTjAFj@Pb@JPHLLJNJRFXDT?X?ZEVEVKTMNMHMFOB}DWSGOSYcAN}FFkAF}DJyDd@wPV_HjAN~ALI`C","length":188},"routeShortName":"23","routeLongName":"Côte Verdun via Aréna du Plateau","rentedBike":false,"transitLeg":true,"duration":501.0,"steps":[]},{"startTime":1522686900000,"endTime":1522687267000,"departureDelay":0,"arrivalDelay":0,"realTime":false,"distance":484.32800000000003,"pathway":false,"mode":"WALK","route":"","agencyTimeZoneOffset":-14400000,"interlineWithPreviousLeg":false,"from":{"name":"Terminus Chicoutimi","stopId":"1:1289","stopCode":"1289","lon":-71.066163,"lat":48.428677,"arrival":1522686900000,"departure":1522686900000,"zoneId":"NA","stopIndex":26,"stopSequence":27,"vertexType":"TRANSIT"},"to":{"name":"Price / Lemieux","stopId":"1:1897","stopCode":"1897","lon":-71.067472,"lat":48.425313,"arrival":1522687267000,"departure":1522687702000,"zoneId":"NA","stopIndex":13,"stopSequence":14,"vertexType":"TRANSIT"},"legGeometry":{"points":"{uqfHb~vpLbAJR@JDb@LrBHP@jCPrAFzBT^BPF@n@Ah@EfBEdB","length":16},"rentedBike":false,"transitLeg":false,"duration":367.0,"steps":[{"distance":374.48300000000006,"relativeDirection":"DEPART","streetName":"Rue Morin","absoluteDirection":"SOUTH","stayOn":false,"area":false,"bogusName":false,"lon":-71.0654590096484,"lat":48.428628638946556,"elevation":[]},{"distance":109.845,"relativeDirection":"RIGHT","streetName":"Rue Price Est","absoluteDirection":"WEST","stayOn":false,"area":false,"bogusName":false,"lon":-71.06598410000001,"lat":48.4252842,"elevation":[]}]},{"startTime":1522687702000,"endTime":1522688283000,"departureDelay":0,"arrivalDelay":0,"realTime":false,"distance":3437.4150508871107,"pathway":false,"mode":"BUS","route":"27","agencyName":"Société de Transport du Saguenay","agencyUrl":"http://ville.saguenay.ca/fr/services-aux-citoyens/transport-sts","agencyTimeZoneOffset":-14400000,"routeColor":"00FFFF","routeType":3,"routeId":"1:27","routeTextColor":"000000","interlineWithPreviousLeg":false,"tripBlockId":"98","headsign":"Place du Royaume","agencyId":"0","tripId":"1:218746","serviceDate":"20180402","from":{"name":"Price / Lemieux","stopId":"1:1897","stopCode":"1897","lon":-71.067472,"lat":48.425313,"arrival":1522687267000,"departure":1522687702000,"zoneId":"NA","stopIndex":13,"stopSequence":14,"vertexType":"TRANSIT"},"to":{"name":"Champs-Élysées (no. 1415)","stopId":"1:1925","stopCode":"1925","lon":-71.051931,"lat":48.403672,"arrival":1522688283000,"departure":1522688284000,"zoneId":"NA","stopIndex":24,"stopSequence":25,"vertexType":"TRANSIT"},"legGeometry":{"points":"maqfHtjwpL@CNsFCs@N}FDmBJyEReKDcDH_DCeA@yANyLRq@RIv@v@dA|@fB`BX{@^w@z@aAPc@NoA@e@Iw@?Cc@eEAo@v@_C^aBn@aBh@_BJEt@l@d@f@@?tAzAnAwDnAwDrCpClArA??|A|Av@|@LVnDpD?@`A~@hAnBb@fA|AuAnAeAvBkBb@UBAj@a@|@UjCG\\A??x@WhAcAr@kAhA_Dr@uB`BqE@CXy@nBqGLo@^k@VOf@KjB~@@@~DlB~C|AbBt@FD`Bv@LJ^l@BH?~@B^BL@LFn@`@pBZdBt@_@n@Qt@En@Dp@Ft@LzBB`@Gt@S","length":99},"routeShortName":"27","routeLongName":"St-Honoré","rentedBike":false,"transitLeg":true,"duration":581.0,"steps":[]},{"startTime":1522688284000,"endTime":1522688506000,"departureDelay":0,"arrivalDelay":0,"realTime":false,"distance":264.074,"pathway":false,"mode":"WALK","route":"","agencyTimeZoneOffset":-14400000,"interlineWithPreviousLeg":false,"from":{"name":"Champs-Élysées (no. 1415)","stopId":"1:1925","stopCode":"1925","lon":-71.051931,"lat":48.403672,"arrival":1522688283000,"departure":1522688284000,"zoneId":"NA","stopIndex":24,"stopSequence":25,"vertexType":"TRANSIT"},"to":{"name":"Destination","lon":-71.054642,"lat":48.403952,"arrival":1522688506000,"orig":"","vertexType":"NORMAL"},"legGeometry":{"points":"czlfHphtpLOFe@L@zA?p@ELPNk@hBOf@Wt@Xb@R\\T^R\\JL","length":15},"rentedBike":false,"transitLeg":false,"duration":222.0,"steps":[{"distance":31.103,"relativeDirection":"DEPART","streetName":"Rue des Champs-Élysées","absoluteDirection":"NORTH","stayOn":false,"area":false,"bogusName":false,"lon":-71.05176919271997,"lat":48.40370108692007,"elevation":[]},{"distance":232.97099999999998,"relativeDirection":"LEFT","streetName":"parking aisle","absoluteDirection":"WEST","stayOn":false,"area":false,"bogusName":true,"lon":-71.0518792,"lat":48.4039711,"elevation":[]}]}],"tooSloped":false},{"duration":2356,"startTime":1522686304000,"endTime":1522688660000,"walkTime":410,"transitTime":1644,"waitingTime":302,"walkDistance":502.26262405370903,"walkLimitExceeded":false,"elevationLost":0.0,"elevationGained":0.0,"transfers":1,"legs":[{"startTime":1522686304000,"endTime":1522686492000,"departureDelay":0,"arrivalDelay":0,"realTime":false,"distance":237.98900000000003,"pathway":false,"mode":"WALK","route":"","agencyTimeZoneOffset":-14400000,"interlineWithPreviousLeg":false,"from":{"name":"Origin","lon":-71.051481,"lat":48.451428,"departure":1522686304000,"orig":"","vertexType":"NORMAL"},"to":{"name":"Guy / Vimy","stopId":"1:756","stopCode":"756","lon":-71.0539,"lat":48.4522,"arrival":1522686492000,"departure":1522686493000,"zoneId":"NA","stopIndex":20,"stopSequence":21,"vertexType":"TRANSIT"},"legGeometry":{"points":"}bvfHngtpL]`CKp@Oz@w@tFsAi@","length":6},"rentedBike":false,"transitLeg":false,"duration":188.0,"steps":[{"distance":189.61700000000002,"relativeDirection":"DEPART","streetName":"Rue de Vimy","absoluteDirection":"WEST","stayOn":false,"area":false,"bogusName":false,"lon":-71.05159729864779,"lat":48.451199425387415,"elevation":[]},{"distance":48.372,"relativeDirection":"RIGHT","streetName":"Rue Guy","absoluteDirection":"NORTH","stayOn":false,"area":false,"bogusName":false,"lon":-71.054021,"lat":48.4517681,"elevation":[]}]},{"startTime":1522686493000,"endTime":1522687200000,"departureDelay":0,"arrivalDelay":0,"realTime":false,"distance":4336.504074318192,"pathway":false,"mode":"BUS","route":"22","agencyName":"Société de Transport du Saguenay","agencyUrl":"http://ville.saguenay.ca/fr/services-aux-citoyens/transport-sts","agencyTimeZoneOffset":-14400000,"routeColor":"C0C000","routeType":3,"routeId":"1:22","routeTextColor":"000000","interlineWithPreviousLeg":false,"tripBlockId":"3","headsign":"Terminus Chicoutimi","agencyId":"0","tripId":"1:217198","serviceDate":"20180402","from":{"name":"Guy / Vimy","stopId":"1:756","stopCode":"756","lon":-71.0539,"lat":48.4522,"arrival":1522686492000,"departure":1522686493000,"zoneId":"NA","stopIndex":20,"stopSequence":21,"vertexType":"TRANSIT"},"to":{"name":"Terminus Chicoutimi","stopId":"1:1289","stopCode":"1289","lon":-71.066163,"lat":48.428677,"arrival":1522687200000,"departure":1522687500000,"zoneId":"NA","stopIndex":35,"stopSequence":36,"vertexType":"TRANSIT"},"legGeometry":{"points":"civfHjutpLrAh@uCvSeA|He@hCo@|AiBbD~@^|IrDhAb@qAfJSzAMr@Yz@xAhDFNpBdFRp@Hl@Jz@BXXrCHl@Lh@Nf@r@nAr@r@`@PLFbAVH_AXeC@IdB_Mh@_EJk@x@x@bA`A|BrBnDrCl@f@|BlBrAbAj@d@ZTXNd@@lA[ZxDN|Ad@fAz@tB~AzDZ|@Zv@x@vBP\\h@~@PVrCmFhHqN~@eBr@cAt@_Av@}@RQPMz@k@tAe@REZG^Af@@X@VF`@Jn@XbClAr@Xt\\`PrAb@pA^hBTjAFj@Pb@JPHLLJNJRFXDT?X?ZEVEVKTMNMHMFOB}DWSGOSYcAN}FFkAF}DJyDd@wPV_HjAN~ALIzBQb@e@@","length":116},"routeShortName":"22","routeLongName":"Vanier","rentedBike":false,"transitLeg":true,"duration":707.0,"steps":[]},{"startTime":1522687500000,"endTime":1522688437000,"departureDelay":0,"arrivalDelay":0,"realTime":false,"distance":4513.779081531779,"pathway":false,"mode":"BUS","route":"175","agencyName":"Société de Transport du Saguenay","agencyUrl":"http://ville.saguenay.ca/fr/services-aux-citoyens/transport-sts","agencyTimeZoneOffset":-14400000,"routeColor":"FF00FF","routeType":3,"routeId":"1:175","routeTextColor":"FFFFFF","interlineWithPreviousLeg":false,"tripBlockId":"6","headsign":"Costco","agencyId":"0","tripId":"1:217297","serviceDate":"20180402","from":{"name":"Terminus Chicoutimi","stopId":"1:1289","stopCode":"1289","lon":-71.066163,"lat":48.428677,"arrival":1522687200000,"departure":1522687500000,"zoneId":"NA","stopIndex":0,"stopSequence":1,"vertexType":"TRANSIT"},"to":{"name":"Champs-Élysées (no. 1415)","stopId":"1:1925","stopCode":"1925","lon":-71.051931,"lat":48.403672,"arrival":1522688437000,"departure":1522688438000,"zoneId":"NA","stopIndex":18,"stopSequence":19,"vertexType":"TRANSIT"},"legGeometry":{"points":"kvqfH~awpL~CgBbAqa@FwCBkAOsHAg@bAYUwMKoE@mB@kJ@iFbEf@xEj@iCtYp@r@z@`ABBvHtHXRx@l@VwAvAgB\\qBIuAC]g@yEzDuLbBbBvAxAMx@|@v@`A~@Xw@~D~DPxFZtA~ApE`N{LpFmEb@[ROl@[vDQXKfA[|@q@fAsBlEmMr@sBhCsKz@dAjB|@dM`GzCvAXrCr@~Gx@]PEr@ObACn@FrBb@|@Ch@Kx@U","length":67},"routeShortName":"175","routeLongName":"Term. Chic / Costco","rentedBike":false,"transitLeg":true,"duration":937.0,"steps":[]},{"startTime":1522688438000,"endTime":1522688660000,"departureDelay":0,"arrivalDelay":0,"realTime":false,"distance":264.074,"pathway":false,"mode":"WALK","route":"","agencyTimeZoneOffset":-14400000,"interlineWithPreviousLeg":false,"from":{"name":"Champs-Élysées (no. 1415)","stopId":"1:1925","stopCode":"1925","lon":-71.051931,"lat":48.403672,"arrival":1522688437000,"departure":1522688438000,"zoneId":"NA","stopIndex":18,"stopSequence":19,"vertexType":"TRANSIT"},"to":{"name":"Destination","lon":-71.054642,"lat":48.403952,"arrival":1522688660000,"orig":"","vertexType":"NORMAL"},"legGeometry":{"points":"czlfHphtpLOFe@L@zA?p@ELPNk@hBOf@Wt@Xb@R\\T^R\\JL","length":15},"rentedBike":false,"transitLeg":false,"duration":222.0,"steps":[{"distance":31.103,"relativeDirection":"DEPART","streetName":"Rue des Champs-Élysées","absoluteDirection":"NORTH","stayOn":false,"area":false,"bogusName":false,"lon":-71.05176919271997,"lat":48.40370108692007,"elevation":[]},{"distance":232.97099999999998,"relativeDirection":"LEFT","streetName":"parking aisle","absoluteDirection":"WEST","stayOn":false,"area":false,"bogusName":true,"lon":-71.0518792,"lat":48.4039711,"elevation":[]}]}],"tooSloped":false},{"duration":2356,"startTime":1522688104000,"endTime":1522690460000,"walkTime":410,"transitTime":1644,"waitingTime":302,"walkDistance":502.26262405370903,"walkLimitExceeded":false,"elevationLost":0.0,"elevationGained":0.0,"transfers":1,"legs":[{"startTime":1522688104000,"endTime":1522688292000,"departureDelay":0,"arrivalDelay":0,"realTime":false,"distance":237.98900000000003,"pathway":false,"mode":"WALK","route":"","agencyTimeZoneOffset":-14400000,"interlineWithPreviousLeg":false,"from":{"name":"Origin","lon":-71.051481,"lat":48.451428,"departure":1522688104000,"orig":"","vertexType":"NORMAL"},"to":{"name":"Guy / Vimy","stopId":"1:756","stopCode":"756","lon":-71.0539,"lat":48.4522,"arrival":1522688292000,"departure":1522688293000,"zoneId":"NA","stopIndex":20,"stopSequence":21,"vertexType":"TRANSIT"},"legGeometry":{"points":"}bvfHngtpL]`CKp@Oz@w@tFsAi@","length":6},"rentedBike":false,"transitLeg":false,"duration":188.0,"steps":[{"distance":189.61700000000002,"relativeDirection":"DEPART","streetName":"Rue de Vimy","absoluteDirection":"WEST","stayOn":false,"area":false,"bogusName":false,"lon":-71.05159729864779,"lat":48.451199425387415,"elevation":[]},{"distance":48.372,"relativeDirection":"RIGHT","streetName":"Rue Guy","absoluteDirection":"NORTH","stayOn":false,"area":false,"bogusName":false,"lon":-71.054021,"lat":48.4517681,"elevation":[]}]},{"startTime":1522688293000,"endTime":1522689000000,"departureDelay":0,"arrivalDelay":0,"realTime":false,"distance":4336.504074318192,"pathway":false,"mode":"BUS","route":"22","agencyName":"Société de Transport du Saguenay","agencyUrl":"http://ville.saguenay.ca/fr/services-aux-citoyens/transport-sts","agencyTimeZoneOffset":-14400000,"routeColor":"C0C000","routeType":3,"routeId":"1:22","routeTextColor":"000000","interlineWithPreviousLeg":false,"tripBlockId":"1","headsign":"Terminus Chicoutimi","agencyId":"0","tripId":"1:217142","serviceDate":"20180402","from":{"name":"Guy / Vimy","stopId":"1:756","stopCode":"756","lon":-71.0539,"lat":48.4522,"arrival":1522688292000,"departure":1522688293000,"zoneId":"NA","stopIndex":20,"stopSequence":21,"vertexType":"TRANSIT"},"to":{"name":"Terminus Chicoutimi","stopId":"1:1289","stopCode":"1289","lon":-71.066163,"lat":48.428677,"arrival":1522689000000,"departure":1522689300000,"zoneId":"NA","stopIndex":35,"stopSequence":36,"vertexType":"TRANSIT"},"legGeometry":{"points":"civfHjutpLrAh@uCvSeA|He@hCo@|AiBbD~@^|IrDhAb@qAfJSzAMr@Yz@xAhDFNpBdFRp@Hl@Jz@BXXrCHl@Lh@Nf@r@nAr@r@`@PLFbAVH_AXeC@IdB_Mh@_EJk@x@x@bA`A|BrBnDrCl@f@|BlBrAbAj@d@ZTXNd@@lA[ZxDN|Ad@fAz@tB~AzDZ|@Zv@x@vBP\\h@~@PVrCmFhHqN~@eBr@cAt@_Av@}@RQPMz@k@tAe@REZG^Af@@X@VF`@Jn@XbClAr@Xt\\`PrAb@pA^hBTjAFj@Pb@JPHLLJNJRFXDT?X?ZEVEVKTMNMHMFOB}DWSGOSYcAN}FFkAF}DJyDd@wPV_HjAN~ALIzBQb@e@@","length":116},"routeShortName":"22","routeLongName":"Vanier","rentedBike":false,"transitLeg":true,"duration":707.0,"steps":[]},{"startTime":1522689300000,"endTime":1522690237000,"departureDelay":0,"arrivalDelay":0,"realTime":false,"distance":4513.779081531779,"pathway":false,"mode":"BUS","route":"175","agencyName":"Société de Transport du Saguenay","agencyUrl":"http://ville.saguenay.ca/fr/services-aux-citoyens/transport-sts","agencyTimeZoneOffset":-14400000,"routeColor":"FF00FF","routeType":3,"routeId":"1:175","routeTextColor":"FFFFFF","interlineWithPreviousLeg":false,"tripBlockId":"7","headsign":"Costco","agencyId":"0","tripId":"1:217334","serviceDate":"20180402","from":{"name":"Terminus Chicoutimi","stopId":"1:1289","stopCode":"1289","lon":-71.066163,"lat":48.428677,"arrival":1522689000000,"departure":1522689300000,"zoneId":"NA","stopIndex":0,"stopSequence":1,"vertexType":"TRANSIT"},"to":{"name":"Champs-Élysées (no. 1415)","stopId":"1:1925","stopCode":"1925","lon":-71.051931,"lat":48.403672,"arrival":1522690237000,"departure":1522690238000,"zoneId":"NA","stopIndex":18,"stopSequence":19,"vertexType":"TRANSIT"},"legGeometry":{"points":"kvqfH~awpL~CgBbAqa@FwCBkAOsHAg@bAYUwMKoE@mB@kJ@iFbEf@xEj@iCtYp@r@z@`ABBvHtHXRx@l@VwAvAgB\\qBIuAC]g@yEzDuLbBbBvAxAMx@|@v@`A~@Xw@~D~DPxFZtA~ApE`N{LpFmEb@[ROl@[vDQXKfA[|@q@fAsBlEmMr@sBhCsKz@dAjB|@dM`GzCvAXrCr@~Gx@]PEr@ObACn@FrBb@|@Ch@Kx@U","length":67},"routeShortName":"175","routeLongName":"Term. Chic / Costco","rentedBike":false,"transitLeg":true,"duration":937.0,"steps":[]},{"startTime":1522690238000,"endTime":1522690460000,"departureDelay":0,"arrivalDelay":0,"realTime":false,"distance":264.074,"pathway":false,"mode":"WALK","route":"","agencyTimeZoneOffset":-14400000,"interlineWithPreviousLeg":false,"from":{"name":"Champs-Élysées (no. 1415)","stopId":"1:1925","stopCode":"1925","lon":-71.051931,"lat":48.403672,"arrival":1522690237000,"departure":1522690238000,"zoneId":"NA","stopIndex":18,"stopSequence":19,"vertexType":"TRANSIT"},"to":{"name":"Destination","lon":-71.054642,"lat":48.403952,"arrival":1522690460000,"orig":"","vertexType":"NORMAL"},"legGeometry":{"points":"czlfHphtpLOFe@L@zA?p@ELPNk@hBOf@Wt@Xb@R\\T^R\\JL","length":15},"rentedBike":false,"transitLeg":false,"duration":222.0,"steps":[{"distance":31.103,"relativeDirection":"DEPART","streetName":"Rue des Champs-Élysées","absoluteDirection":"NORTH","stayOn":false,"area":false,"bogusName":false,"lon":-71.05176919271997,"lat":48.40370108692007,"elevation":[]},{"distance":232.97099999999998,"relativeDirection":"LEFT","streetName":"parking aisle","absoluteDirection":"WEST","stayOn":false,"area":false,"bogusName":true,"lon":-71.0518792,"lat":48.4039711,"elevation":[]}]}],"tooSloped":false}]},"debugOutput":{"precalculationTime":30,"pathCalculationTime":30,"pathTimes":[18,6,6],"renderingTime":0,"totalTime":60,"timedOut":false},"elevationMetadata":{"ellipsoidToGeoidDifference":-28.885904201182168,"geoidElevation":false}}