{"requestParameters":{"date":"2018/04/02","walkSpeed":"1.33","walkReluctance":"2.0","fromPlace":"48.447628,-71.035258","maxWalkDistance":"3000","waitReluctance":"1.0","carSpeed":"33","numItineraries":"3","waitAtBeginningFactor":"0.4","mode":"TRANSIT,WALK","ignoreRealtimeUpdates":"false","stairsReluctance":"2.0","toPlace":"48.437539,-71.06491499","time":"11:50:00"},"plan":{"date":1522684200000,"from":{"name":"Origin","lon":-71.035258,"lat":48.447628,"orig":"","vertexType":"NORMAL"},"to":{"name":"Destination","lon":-71.06491499,"lat":48.437539,"orig":"","vertexType":"NORMAL"},"itineraries":[{"duration":1522,"startTime":1522685188000,"endTime":1522686710000,"walkTime":1352,"transitTime":168,"waitingTime":2,"walkDistance":1751.8160375886596,"walkLimitExceeded":false,"elevationLost":0.0,"elevationGained":0.0,"transfers":0,"legs":[{"startTime":1522685188000,"endTime":1522686466000,"departureDelay":0,"arrivalDelay":0,"realTime":false,"distance":1655.514,"pathway":false,"mode":"WALK","route":"","agencyTimeZoneOffset":-14400000,"interlineWithPreviousLeg":false,"from":{"name":"Origin","lon":-71.035258,"lat":48.447628,"departure":1522685188000,"orig":"","vertexType":"NORMAL"},"to":{"name":"Verdun / Mgr Laval","stopId":"1:795","stopCode":"795","lon":-71.052912,"lat":48.444125,"arrival":1522686466000,"departure":1522686467000,"zoneId":"NA","stopIndex":17,"stopSequence":18,"vertexType":"TRANSIT"},"legGeometry":{"points":"kjufHpbqpLO`AGj@hAr@l@VRH`AVvAZ^Hb@LFBH@B@DDBPVS\\DhC`AEz@A~@?|A@N@n@N|CJpBJnB?DPlDZhGJhBFlAFzAZbF@TBd@HdCHv@Fb@NnA@HVbBZdB@Db@dB\\pATr@FP}@v@QPKNIXId@WhCs@~GQrB_A_@","length":56},"rentedBike":false,"transitLeg":false,"duration":1278.0,"steps":[{"distance":42.89,"relativeDirection":"DEPART","streetName":"Rue de Vimy","absoluteDirection":"WEST","stayOn":false,"area":false,"bogusName":false,"lon":-71.03544121903496,"lat":48.44726784427743,"elevation":[]},{"distance":234.34199999999998,"relativeDirection":"LEFT","streetName":"Rue Claudel","absoluteDirection":"SOUTHWEST","stayOn":false,"area":false,"bogusName":false,"lon":-71.03599460000001,"lat":48.447386200000004,"elevation":[]},{"distance":112.281,"relativeDirection":"LEFT","streetName":"path","absoluteDirection":"SOUTHEAST","stayOn":false,"area":false,"bogusName":true,"lon":-71.0369625,"lat":48.445415800000006,"elevation":[]},{"distance":934.8030000000001,"relativeDirection":"RIGHT","streetName":"Boulevard de Tadoussac","absoluteDirection":"WEST","stayOn":false,"area":false,"bogusName":false,"lon":-71.0372243,"lat":48.444455700000006,"elevation":[]},{"distance":293.978,"relativeDirection":"RIGHT","streetName":"Rue Monseigneur-Laval","absoluteDirection":"NORTHWEST","stayOn":false,"area":false,"bogusName":false,"lon":-71.0494919,"lat":48.442756900000006,"elevation":[]},{"distance":37.22,"relativeDirection":"RIGHT","streetName":"Rue de Verdun","absoluteDirection":"NORTH","stayOn":false,"area":false,"bogusName":false,"lon":-71.05297780000001,"lat":48.4437865,"elevation":[]}]},{"startTime":1522686467000,"endTime":1522686635000,"departureDelay":0,"arrivalDelay":0,"realTime":false,"distance":1143.1619618638867,"pathway":false,"mode":"BUS","route":"23","agencyName":"Société de Transport du Saguenay","agencyUrl":"http://ville.saguenay.ca/fr/services-aux-citoyens/transport-sts","agencyTimeZoneOffset":-14400000,"routeColor":"FF00FF","routeType":3,"routeId":"1:23","routeTextColor":"FFFFFF","interlineWithPreviousLeg":false,"tripBlockId":"4","headsign":"Terminus Chicoutimi","agencyId":"0","tripId":"1:217234","serviceDate":"20180402","from":{"name":"Verdun / Mgr Laval","stopId":"1:795","stopCode":"795","lon":-71.052912,"lat":48.444125,"arrival":1522686466000,"departure":1522686467000,"zoneId":"NA","stopIndex":17,"stopSequence":18,"vertexType":"TRANSIT"},"to":{"name":"Roussel / Victoire","stopId":"1:832","stopCode":"832","lon":-71.063742,"lat":48.43776,"arrival":1522686635000,"departure":1522686636000,"zoneId":"NA","stopIndex":22,"stopSequence":23,"vertexType":"TRANSIT"},"legGeometry":{"points":"svtfHfotpLz@\\CP?R@N@NFLFF`GtBx@Xw@pG@l@B\\DXL\\RZDFXPf@N@v@Bp@Dr@l@~HNlAH\\@HLd@\\z@Xd@X\\RTXRr@Zn@PfExAvDpALnBJt@Pp@|@`DHZ","length":41},"routeShortName":"23","routeLongName":"Côte Verdun via Aréna du Plateau","rentedBike":false,"transitLeg":true,"duration":168.0,"steps":[]},{"startTime":1522686636000,"endTime":1522686710000,"departureDelay":0,"arrivalDelay":0,"realTime":false,"distance":96.137,"pathway":false,"mode":"WALK","route":"","agencyTimeZoneOffset":-14400000,"interlineWithPreviousLeg":false,"from":{"name":"Roussel / Victoire","stopId":"1:832","stopCode":"832","lon":-71.063742,"lat":48.43776,"arrival":1522686635000,"departure":1522686636000,"zoneId":"NA","stopIndex":22,"stopSequence":23,"vertexType":"TRANSIT"},"to":{"name":"Destination","lon":-71.06491499,"lat":48.437539,"arrival":1522686710000,"orig":"","vertexType":"NORMAL"},"legGeometry":{"points":"unsfHdsvpLLb@x@fD@\\","length":4},"rentedBike":false,"transitLeg":false,"duration":74.0,"steps":[{"distance":96.137,"relativeDirection":"DEPART","streetName":"Rue Roussel","absoluteDirection":"SOUTHWEST","stayOn":false,"area":false,"bogusName":false,"lon":-71.06370265730197,"lat":48.437710505781055,"elevation":[]}]}],"tooSloped":false},{"duration":1116,"startTime":1522685952000,"endTime":1522687068000,"walkTime":496,"transitTime":618,"waitingTime":2,"walkDistance":620.9012180390719,"walkLimitExceeded":false,"elevationLost":0.0,"elevationGained":0.0,"transfers":0,"legs":[{"startTime":1522685952000,"endTime":1522686374000,"departureDelay":0,"arrivalDelay":0,"realTime":false,"distance":524.5769999999999,"pathway":false,"mode":"WALK","route":"","agencyTimeZoneOffset":-14400000,"interlineWithPreviousLeg":false,"from":{"name":"Origin","lon":-71.035258,"lat":48.447628,"departure":1522685952000,"orig":"","vertexType":"NORMAL"},"to":{"name":"boul. Tadoussac (no. 1189)","stopId":"1:818","stopCode":"818","lon":-71.03515,"lat":48.444092,"arrival":1522686374000,"departure":1522686375000,"zoneId":"NA","stopIndex":14,"stopSequence":15,"vertexType":"TRANSIT"},"legGeometry":{"points":"kjufHpbqpLO`AGj@hAr@l@VRH`AVvAZ^Hb@LFBH@B@DDBPVS\\Db@aD^Ab@HVaD^DXFDs@","length":24},"rentedBike":false,"transitLeg":false,"duration":422.0,"steps":[{"distance":42.89,"relativeDirection":"DEPART","streetName":"Rue de Vimy","absoluteDirection":"WEST","stayOn":false,"area":false,"bogusName":false,"lon":-71.03544121903496,"lat":48.44726784427743,"elevation":[]},{"distance":234.34199999999998,"relativeDirection":"LEFT","streetName":"Rue Claudel","absoluteDirection":"SOUTHWEST","stayOn":false,"area":false,"bogusName":false,"lon":-71.03599460000001,"lat":48.447386200000004,"elevation":[]},{"distance":227.49899999999997,"relativeDirection":"LEFT","streetName":"path","absoluteDirection":"SOUTHEAST","stayOn":false,"area":false,"bogusName":true,"lon":-71.0369625,"lat":48.445415800000006,"elevation":[]},{"distance":19.846,"relativeDirection":"LEFT","streetName":"Boulevard de Tadoussac","absoluteDirection":"EAST","stayOn":false,"area":false,"bogusName":false,"lon":-71.0353867,"lat":48.4442157,"elevation":[]}]},{"startTime":1522686375000,"endTime":1522686993000,"departureDelay":0,"arrivalDelay":0,"realTime":false,"distance":4161.985396755585,"pathway":false,"mode":"BUS","route":"24","agencyName":"Société de Transport du Saguenay","agencyUrl":"http://ville.saguenay.ca/fr/services-aux-citoyens/transport-sts","agencyTimeZoneOffset":-14400000,"routeColor":"00FF00","routeType":3,"routeId":"1:24","routeTextColor":"000000","interlineWithPreviousLeg":false,"tripBlockId":"5","headsign":"Terminus Chicoutimi","agencyId":"0","tripId":"1:217261","serviceDate":"20180402","from":{"name":"boul. Tadoussac (no. 1189)","stopId":"1:818","stopCode":"818","lon":-71.03515,"lat":48.444092,"arrival":1522686374000,"departure":1522686375000,"zoneId":"NA","stopIndex":14,"stopSequence":15,"vertexType":"TRANSIT"},"to":{"name":"Roussel / Victoire","stopId":"1:832","stopCode":"832","lon":-71.063742,"lat":48.43776,"arrival":1522686993000,"departure":1522686994000,"zoneId":"NA","stopIndex":31,"stopSequence":32,"vertexType":"TRANSIT"},"legGeometry":{"points":"ewtfHn`qpLxAqSBs@p@^VRPRbF~FlCxBxB|B~JjK`IjIRPb@^r@d@rAp@\\T\\ZNVRd@J\\Nd@Hf@F`@@DFr@LtAJpB@jAAt@ObEIzAKbBUrBMp@Sn@gAlCk@pAw@fCwB|HCNk@jCeDuAq@UC?mG_CaHiCsJqD_A]VvC\\`Ch@rCj@tBf@bBxDxJN\\bAjCTnAHvA@|@CPIpAe@pDUfBCTEXK~@MxAEn@@v@Bp@Dr@l@~HNlAH\\@HLd@\\z@Xd@X\\RTXRr@Zn@PfExAvDpALnBJt@Pp@Nj@l@tBHZ","length":91},"routeShortName":"24","routeLongName":"Saint-Luc","rentedBike":false,"transitLeg":true,"duration":618.0,"steps":[]},{"startTime":1522686994000,"endTime":1522687068000,"departureDelay":0,"arrivalDelay":0,"realTime":false,"distance":96.137,"pathway":false,"mode":"WALK","route":"","agencyTimeZoneOffset":-14400000,"interlineWithPreviousLeg":false,"from":{"name":"Roussel / Victoire","stopId":"1:832","stopCode":"832","lon":-71.063742,"lat":48.43776,"arrival":1522686993000,"departure":1522686994000,"zoneId":"NA","stopIndex":31,"stopSequence":32,"vertexType":"TRANSIT"},"to":{"name":"Destination","lon":-71.06491499,"lat":48.437539,"arrival":1522687068000,"orig":"","vertexType":"NORMAL"},"legGeometry":{"points":"unsfHdsvpLLb@x@fD@\\","length":4},"rentedBike":false,"transitLeg":false,"duration":74.0,"steps":[{"distance":96.137,"relativeDirection":"DEPART","streetName":"Rue Roussel","absoluteDirection":"SOUTHWEST","stayOn":false,"area":false,"bogusName":false,"lon":-71.06370265730197,"lat":48.437710505781055,"elevation":[]}]}],"tooSloped":false},{"duration":1116,"startTime":1522687752000,"endTime":1522688868000,"walkTime":496,"transitTime":618,"waitingTime":2,"walkDistance":620.9012180390719,"walkLimitExceeded":false,"elevationLost":0.0,"elevationGained":0.0,"transfers":0,"legs":[{"startTime":1522687752000,"endTime":1522688174000,"departureDelay":0,"arrivalDelay":0,"realTime":false,"distance":524.5769999999999,"pathway":false,"mode":"WALK","route":"","agencyTimeZoneOffset":-14400000,"interlineWithPreviousLeg":false,"from":{"name":"Origin","lon":-71.035258,"lat":48.447628,"departure":1522687752000,"orig":"","vertexType":"NORMAL"},"to":{"name":"boul. Tadoussac (no. 1189)","stopId":"1:818","stopCode":"818","lon":-71.03515,"lat":48.444092,"arrival":1522688174000,"departure":1522688175000,"zoneId":"NA","stopIndex":14,"stopSequence":15,"vertexType":"TRANSIT"},"legGeometry":{"points":"kjufHpbqpLO`AGj@hAr@l@VRH`AVvAZ^Hb@LFBH@B@DDBPVS\\Db@aD^Ab@HVaD^DXFDs@","length":24},"rentedBike":false,"transitLeg":false,"duration":422.0,"steps":[{"distance":42.89,"relativeDirection":"DEPART","streetName":"Rue de Vimy","absoluteDirection":"WEST","stayOn":false,"area":false,"bogusName":false,"lon":-71.03544121903496,"lat":48.44726784427743,"elevation":[]},{"distance":234.34199999999998,"relativeDirection":"LEFT","streetName":"Rue Claudel","absoluteDirection":"SOUTHWEST","stayOn":false,"area":false,"bogusName":false,"lon":-71.03599460000001,"lat":48.447386200000004,"elevation":[]},{"distance":227.49899999999997,"relativeDirection":"LEFT","streetName":"path","absoluteDirection":"SOUTHEAST","stayOn":false,"area":false,"bogusName":true,"lon":-71.0369625,"lat":48.445415800000006,"elevation":[]},{"distance":19.846,"relativeDirection":"LEFT","streetName":"Boulevard de Tadoussac","absoluteDirection":"EAST","stayOn":false,"area":false,"bogusName":false,"lon":-71.0353867,"lat":48.4442157,"elevation":[]}]},{"startTime":1522688175000,"endTime":1522688793000,"departureDelay":0,"arrivalDelay":0,"realTime":false,"distance":4161.985396755585,"pathway":false,"mode":"BUS","route":"24","agencyName":"Société de Transport du Saguenay","agencyUrl":"http://ville.saguenay.ca/fr/services-aux-citoyens/transport-sts","agencyTimeZoneOffset":-14400000,"routeColor":"00FF00","routeType":3,"routeId":"1:24","routeTextColor":"000000","interlineWithPreviousLeg":false,"tripBlockId":"4","headsign":"Terminus Chicoutimi","agencyId":"0","tripId":"1:217235","serviceDate":"20180402","from":{"name":"boul. Tadoussac (no. 1189)","stopId":"1:818","stopCode":"818","lon":-71.03515,"lat":48.444092,"arrival":1522688174000,"departure":1522688175000,"zoneId":"NA","stopIndex":14,"stopSequence":15,"vertexType":"TRANSIT"},"to":{"name":"Roussel / Victoire","stopId":"1:832","stopCode":"832","lon":-71.063742,"lat":48.43776,"arrival":1522688793000,"departure":1522688794000,"zoneId":"NA","stopIndex":31,"stopSequence":32,"vertexType":"TRANSIT"},"legGeometry":{"points":"ewtfHn`qpLxAqSBs@p@^VRPRbF~FlCxBxB|B~JjK`IjIRPb@^r@d@rAp@\\T\\ZNVRd@J\\Nd@Hf@F`@@DFr@LtAJpB@jAAt@ObEIzAKbBUrBMp@Sn@gAlCk@pAw@fCwB|HCNk@jCeDuAq@UC?mG_CaHiCsJqD_A]VvC\\`Ch@rCj@tBf@bBxDxJN\\bAjCTnAHvA@|@CPIpAe@pDUfBCTEXK~@MxAEn@@v@Bp@Dr@l@~HNlAH\\@HLd@\\z@Xd@X\\RTXRr@Zn@PfExAvDpALnBJt@Pp@Nj@l@tBHZ","length":91},"routeShortName":"24","routeLongName":"Saint-Luc","rentedBike":false,"transitLeg":true,"duration":618.0,"steps":[]},{"startTime":1522688794000,"endTime":1522688868000,"departureDelay":0,"arrivalDelay":0,"realTime":false,"distance":96.137,"pathway":false,"mode":"WALK","route":"","agencyTimeZoneOffset":-14400000,"interlineWithPreviousLeg":false,"from":{"name":"Roussel / Victoire","stopId":"1:832","stopCode":"832","lon":-71.063742,"lat":48.43776,"arrival":1522688793000,"departure":1522688794000,"zoneId":"NA","stopIndex":31,"stopSequence":32,"vertexType":"TRANSIT"},"to":{"name":"Destination","lon":-71.06491499,"lat":48.437539,"arrival":1522688868000,"orig":"","vertexType":"NORMAL"},"legGeometry":{"points":"unsfHdsvpLLb@x@fD@\\","length":4},"rentedBike":false,"transitLeg":false,"duration":74.0,"steps":[{"distance":96.137,"relativeDirection":"DEPART","streetName":"Rue Roussel","absoluteDirection":"SOUTHWEST","stayOn":false,"area":false,"bogusName":false,"lon":-71.06370265730197,"lat":48.437710505781055,"elevation":[]}]}],"tooSloped":false}]},"debugOutput":{"precalculationTime":21,"pathCalculationTime":20,"pathTimes":[12,5,3],"renderingTime":0,"totalTime":41,"timedOut":false},"elevationMetadata":{"ellipsoidToGeoidDifference":-28.885904201182168,"geoidElevation":false}}