{"requestParameters":{"date":"2018/04/02","walkSpeed":"1.33","walkReluctance":"2.0","fromPlace":"48.440148,-71.061485","maxWalkDistance":"3000","waitReluctance":"1.0","carSpeed":"33","numItineraries":"3","waitAtBeginningFactor":"0.4","mode":"TRANSIT,WALK","ignoreRealtimeUpdates":"false","stairsReluctance":"2.0","toPlace":"48.451398,-71.048249","time":"15:25:00"},"plan":{"date":1522697100000,"from":{"name":"Origin","lon":-71.061485,"lat":48.440148,"orig":"","vertexType":"NORMAL"},"to":{"name":"Destination","lon":-71.048249,"lat":48.451398,"orig":"","vertexType":"NORMAL"},"itineraries":[{"duration":1626,"startTime":1522697100000,"endTime":1522698726000,"walkTime":1626,"transitTime":0,"waitingTime":0,"walkDistance":2078.268819538294,"walkLimitExceeded":false,"elevationLost":0.0,"elevationGained":0.0,"transfers":0,"legs":[{"startTime":1522697100000,"endTime":1522698726000,"departureDelay":0,"arrivalDelay":0,"realTime":false,"distance":2077.941,"pathway":false,"mode":"WALK","route":"","agencyTimeZoneOffset":-14400000,"interlineWithPreviousLeg":false,"from":{"name":"Origin","lon":-71.061485,"lat":48.440148,"departure":1522697100000,"orig":"","vertexType":"NORMAL"},"to":{"name":"Destination","lon":-71.048249,"lat":48.451398,"arrival":1522698726000,"orig":"","vertexType":"NORMAL"},"legGeometry":{"points":"e}sfHravpLk@S{Ao@e@i@A?W]U_@ACSe@M[CKMa@AGCMG]CQE_@WcDSeBEq@AMC_@Ck@Ae@Ai@YECAIEGEECAAKKMWGOM_@GWCs@@Yz@eG}@YiGsBCECCAOAE?UBQBS_A_@{@]q@W[Ic@CYB_@N]J]?[A]AS@IHCk@`@cEwBiEI?IKCKS@K?MAIAEAICGIIMs@sAQ]S]SYQUIG[M[Ma@OMC]M}BgAgCwAl@_EXgBq@UMFKBWD_@BMFK`@YfBKrAk@|D","length":100},"rentedBike":false,"transitLeg":false,"duration":1626.0,"steps":[{"distance":416.605,"relativeDirection":"DEPART","streetName":"Boulevard de Tadoussac","absoluteDirection":"NORTH","stayOn":false,"area":false,"bogusName":false,"lon":-71.0608976234176,"lat":48.440033678177144,"elevation":[]},{"distance":214.32100000000003,"relativeDirection":"LEFT","streetName":"Rue Colbert","absoluteDirection":"NORTH","stayOn":false,"area":false,"bogusName":false,"lon":-71.0565172,"lat":48.4418598,"elevation":[]},{"distance":192.197,"relativeDirection":"LEFT","streetName":"Rue Boileau","absoluteDirection":"NORTH","stayOn":false,"area":false,"bogusName":false,"lon":-71.0541475,"lat":48.4421291,"elevation":[]},{"distance":8.555,"relativeDirection":"RIGHT","streetName":"Rue Boileau","absoluteDirection":"NORTHEAST","stayOn":true,"area":false,"bogusName":false,"lon":-71.0534092,"lat":48.4437835,"elevation":[]},{"distance":24.863,"relativeDirection":"SLIGHTLY_RIGHT","streetName":"Rue Monseigneur-Laval","absoluteDirection":"EAST","stayOn":false,"area":false,"bogusName":false,"lon":-71.05330690000001,"lat":48.4438144,"elevation":[]},{"distance":255.01500000000001,"relativeDirection":"LEFT","streetName":"Rue de Verdun","absoluteDirection":"NORTH","stayOn":false,"area":false,"bogusName":false,"lon":-71.05297780000001,"lat":48.4437865,"elevation":[]},{"distance":191.388,"relativeDirection":"RIGHT","streetName":"path","absoluteDirection":"EAST","stayOn":false,"area":false,"bogusName":true,"lon":-71.05267160000001,"lat":48.446006600000004,"elevation":[]},{"distance":414.088,"relativeDirection":"SLIGHTLY_LEFT","streetName":"Rue Pierre-De La Vérendrye","absoluteDirection":"NORTH","stayOn":false,"area":false,"bogusName":false,"lon":-71.05046250000001,"lat":48.4464551,"elevation":[]},{"distance":116.245,"relativeDirection":"RIGHT","streetName":"Rue Adam","absoluteDirection":"EAST","stayOn":false,"area":false,"bogusName":false,"lon":-71.0480732,"lat":48.449695600000005,"elevation":[]},{"distance":244.664,"relativeDirection":"LEFT","streetName":"Rue de Vimy","absoluteDirection":"NORTH","stayOn":false,"area":false,"bogusName":false,"lon":-71.0465923,"lat":48.4493377,"elevation":[]}]}],"tooSloped":false},{"duration":797,"startTime":1522698396000,"endTime":1522699193000,"walkTime":569,"transitTime":226,"waitingTime":2,"walkDistance":728.2663608975975,"walkLimitExceeded":false,"elevationLost":0.0,"elevationGained":0.0,"transfers":0,"legs":[{"startTime":1522698396000,"endTime":1522698602000,"departureDelay":0,"arrivalDelay":0,"realTime":false,"distance":262.038,"pathway":false,"mode":"WALK","route":"","agencyTimeZoneOffset":-14400000,"interlineWithPreviousLeg":false,"from":{"name":"Origin","lon":-71.061485,"lat":48.440148,"departure":1522698396000,"orig":"","vertexType":"NORMAL"},"to":{"name":"Napoléon / Roussel","stopId":"1:805","stopCode":"805","lon":-71.059698,"lat":48.438926,"arrival":1522698602000,"departure":1522698603000,"zoneId":"NA","stopIndex":3,"stopSequence":4,"vertexType":"TRANSIT"},"legGeometry":{"points":"e}sfHravpLk@Sx@mHjE`B","length":4},"rentedBike":false,"transitLeg":false,"duration":206.0,"steps":[{"distance":26.157,"relativeDirection":"DEPART","streetName":"Boulevard de Tadoussac","absoluteDirection":"NORTH","stayOn":false,"area":false,"bogusName":false,"lon":-71.0608976234176,"lat":48.440033678177144,"elevation":[]},{"distance":116.708,"relativeDirection":"RIGHT","streetName":"Rue De Bienville","absoluteDirection":"EAST","stayOn":false,"area":false,"bogusName":false,"lon":-71.0607978,"lat":48.4402594,"elevation":[]},{"distance":119.173,"relativeDirection":"RIGHT","streetName":"Rue Napoléon","absoluteDirection":"SOUTH","stayOn":false,"area":false,"bogusName":false,"lon":-71.0592803,"lat":48.4399625,"elevation":[]}]},{"startTime":1522698603000,"endTime":1522698829000,"departureDelay":0,"arrivalDelay":0,"realTime":false,"distance":1741.2917741628642,"pathway":false,"mode":"BUS","route":"24","agencyName":"Société de Transport du Saguenay","agencyUrl":"http://ville.saguenay.ca/fr/services-aux-citoyens/transport-sts","agencyTimeZoneOffset":-14400000,"routeColor":"00FF00","routeType":3,"routeId":"1:24","routeTextColor":"000000","interlineWithPreviousLeg":false,"tripBlockId":"4","headsign":"Terminus Chicoutimi","agencyId":"0","tripId":"1:217241","serviceDate":"20180402","from":{"name":"Napoléon / Roussel","stopId":"1:805","stopCode":"805","lon":-71.059698,"lat":48.438926,"arrival":1522698602000,"departure":1522698603000,"zoneId":"NA","stopIndex":3,"stopSequence":4,"vertexType":"TRANSIT"},"to":{"name":"St-Émile / Adam","stopId":"1:813","stopCode":"813","lon":-71.043871,"lat":48.448542,"arrival":1522698829000,"departure":1522698830000,"zoneId":"NA","stopIndex":9,"stopSequence":10,"vertexType":"TRANSIT"},"legGeometry":{"points":"ivsfHpzupLiE}Ah@}DH}@?c@Ea@[_BA?My@Cm@?Y@g@Hu@b@sD\\_DBSyHsC_@MBQA}@IwAUoAcAkCWo@qDgJg@cBk@uBi@sC]aCWwCiKuDwQuGDW","length":33},"routeShortName":"24","routeLongName":"Saint-Luc","rentedBike":false,"transitLeg":true,"duration":226.0,"steps":[]},{"startTime":1522698830000,"endTime":1522699193000,"departureDelay":0,"arrivalDelay":0,"realTime":false,"distance":466.084,"pathway":false,"mode":"WALK","route":"","agencyTimeZoneOffset":-14400000,"interlineWithPreviousLeg":false,"from":{"name":"St-Émile / Adam","stopId":"1:813","stopCode":"813","lon":-71.043871,"lat":48.448542,"arrival":1522698829000,"departure":1522698830000,"zoneId":"NA","stopIndex":9,"stopSequence":10,"vertexType":"TRANSIT"},"to":{"name":"Destination","lon":-71.048249,"lat":48.451398,"arrival":1522699193000,"orig":"","vertexType":"NORMAL"},"legGeometry":{"points":"orufHzwrpLQGI`@gBpKU~Aq@UMFKBWD_@BMFK`@YfBKrAk@|D","length":15},"rentedBike":false,"transitLeg":false,"duration":363.0,"steps":[{"distance":11.218,"relativeDirection":"DEPART","streetName":"Rue Saint-Émile","absoluteDirection":"NORTH","stayOn":false,"area":false,"bogusName":false,"lon":-71.04397392618085,"lat":48.448561174335026,"elevation":[]},{"distance":210.202,"relativeDirection":"LEFT","streetName":"Rue Adam","absoluteDirection":"WEST","stayOn":false,"area":false,"bogusName":false,"lon":-71.04393280000001,"lat":48.448658300000005,"elevation":[]},{"distance":244.664,"relativeDirection":"RIGHT","streetName":"Rue de Vimy","absoluteDirection":"NORTH","stayOn":false,"area":false,"bogusName":false,"lon":-71.0465923,"lat":48.4493377,"elevation":[]}]}],"tooSloped":false},{"duration":797,"startTime":1522700196000,"endTime":1522700993000,"walkTime":569,"transitTime":226,"waitingTime":2,"walkDistance":728.2663608975975,"walkLimitExceeded":false,"elevationLost":0.0,"elevationGained":0.0,"transfers":0,"legs":[{"startTime":1522700196000,"endTime":1522700402000,"departureDelay":0,"arrivalDelay":0,"realTime":false,"distance":262.038,"pathway":false,"mode":"WALK","route":"","agencyTimeZoneOffset":-14400000,"interlineWithPreviousLeg":false,"from":{"name":"Origin","lon":-71.061485,"lat":48.440148,"departure":1522700196000,"orig":"","vertexType":"NORMAL"},"to":{"name":"Napoléon / Roussel","stopId":"1:805","stopCode":"805","lon":-71.059698,"lat":48.438926,"arrival":1522700402000,"departure":1522700403000,"zoneId":"NA","stopIndex":3,"stopSequence":4,"vertexType":"TRANSIT"},"legGeometry":{"points":"e}sfHravpLk@Sx@mHjE`B","length":4},"rentedBike":false,"transitLeg":false,"duration":206.0,"steps":[{"distance":26.157,"relativeDirection":"DEPART","streetName":"Boulevard de Tadoussac","absoluteDirection":"NORTH","stayOn":false,"area":false,"bogusName":false,"lon":-71.0608976234176,"lat":48.440033678177144,"elevation":[]},{"distance":116.708,"relativeDirection":"RIGHT","streetName":"Rue De Bienville","absoluteDirection":"EAST","stayOn":false,"area":false,"bogusName":false,"lon":-71.0607978,"lat":48.4402594,"elevation":[]},{"distance":119.173,"relativeDirection":"RIGHT","streetName":"Rue Napoléon","absoluteDirection":"SOUTH","stayOn":false,"area":false,"bogusName":false,"lon":-71.0592803,"lat":48.4399625,"elevation":[]}]},{"startTime":1522700403000,"endTime":1522700629000,"departureDelay":0,"arrivalDelay":0,"realTime":false,"distance":1741.2917741628642,"pathway":false,"mode":"BUS","route":"24","agencyName":"Société de Transport du Saguenay","agencyUrl":"http://ville.saguenay.ca/fr/services-aux-citoyens/transport-sts","agencyTimeZoneOffset":-14400000,"routeColor":"00FF00","routeType":3,"routeId":"1:24","routeTextColor":"000000","interlineWithPreviousLeg":false,"tripBlockId":"5","headsign":"Terminus Chicoutimi","agencyId":"0","tripId":"1:217269","serviceDate":"20180402","from":{"name":"Napoléon / Roussel","stopId":"1:805","stopCode":"805","lon":-71.059698,"lat":48.438926,"arrival":1522700402000,"departure":1522700403000,"zoneId":"NA","stopIndex":3,"stopSequence":4,"vertexType":"TRANSIT"},"to":{"name":"St-Émile / Adam","stopId":"1:813","stopCode":"813","lon":-71.043871,"lat":48.448542,"arrival":1522700629000,"departure":1522700630000,"zoneId":"NA","stopIndex":9,"stopSequence":10,"vertexType":"TRANSIT"},"legGeometry":{"points":"ivsfHpzupLiE}Ah@}DH}@?c@Ea@[_BA?My@Cm@?Y@g@Hu@b@sD\\_DBSyHsC_@MBQA}@IwAUoAcAkCWo@qDgJg@cBk@uBi@sC]aCWwCiKuDwQuGDW","length":33},"routeShortName":"24","routeLongName":"Saint-Luc","rentedBike":false,"transitLeg":true,"duration":226.0,"steps":[]},{"startTime":1522700630000,"endTime":1522700993000,"departureDelay":0,"arrivalDelay":0,"realTime":false,"distance":466.084,"pathway":false,"mode":"WALK","route":"","agencyTimeZoneOffset":-14400000,"interlineWithPreviousLeg":false,"from":{"name":"St-Émile / Adam","stopId":"1:813","stopCode":"813","lon":-71.043871,"lat":48.448542,"arrival":1522700629000,"departure":1522700630000,"zoneId":"NA","stopIndex":9,"stopSequence":10,"vertexType":"TRANSIT"},"to":{"name":"Destination","lon":-71.048249,"lat":48.451398,"arrival":1522700993000,"orig":"","vertexType":"NORMAL"},"legGeometry":{"points":"orufHzwrpLQGI`@gBpKU~Aq@UMFKBWD_@BMFK`@YfBKrAk@|D","length":15},"rentedBike":false,"transitLeg":false,"duration":363.0,"steps":[{"distance":11.218,"relativeDirection":"DEPART","streetName":"Rue Saint-Émile","absoluteDirection":"NORTH","stayOn":false,"area":false,"bogusName":false,"lon":-71.04397392618085,"lat":48.448561174335026,"elevation":[]},{"distance":210.202,"relativeDirection":"LEFT","streetName":"Rue Adam","absoluteDirection":"WEST","stayOn":false,"area":false,"bogusName":false,"lon":-71.04393280000001,"lat":48.448658300000005,"elevation":[]},{"distance":244.664,"relativeDirection":"RIGHT","streetName":"Rue de Vimy","absoluteDirection":"NORTH","stayOn":false,"area":false,"bogusName":false,"lon":-71.0465923,"lat":48.4493377,"elevation":[]}]}],"tooSloped":false}]},"debugOutput":{"precalculationTime":21,"pathCalculationTime":28,"pathTimes":[15,6,7],"renderingTime":0,"totalTime":49,"timedOut":false},"elevationMetadata":{"ellipsoidToGeoidDifference":-28.885904201182168,"geoidElevation":false}}