{"requestParameters":{"date":"2018/04/02","walkSpeed":"1.33","walkReluctance":"2.0","fromPlace":"48.44914,-71.042655","maxWalkDistance":"3000","waitReluctance":"1.0","carSpeed":"33","numItineraries":"3","waitAtBeginningFactor":"0.4","mode":"TRANSIT,WALK","ignoreRealtimeUpdates":"false","stairsReluctance":"2.0","toPlace":"48.399047,-71.10515599","time":"6:40:00"},"plan":{"date":1522665600000,"from":{"name":"Origin","lon":-71.042655,"lat":48.44914,"orig":"","vertexType":"NORMAL"},"to":{"name":"Destination","lon":-71.10515599,"lat":48.399047,"orig":"","vertexType":"NORMAL"},"itineraries":[{"duration":2459,"startTime":1522666309000,"endTime":1522668768000,"walkTime":219,"transitTime":1998,"waitingTime":242,"walkDistance":283.0283383447244,"walkLimitExceeded":false,"elevationLost":0.0,"elevationGained":0.0,"transfers":1,"legs":[{"startTime":1522666309000,"endTime":1522666428000,"departureDelay":0,"arrivalDelay":0,"realTime":false,"distance":150.152,"pathway":false,"mode":"WALK","route":"","agencyTimeZoneOffset":-14400000,"interlineWithPreviousLeg":false,"from":{"name":"Origin","lon":-71.042655,"lat":48.44914,"departure":1522666309000,"orig":"","vertexType":"NORMAL"},"to":{"name":"St-Émile / Adam","stopId":"1:813","stopCode":"813","lon":-71.043871,"lat":48.448542,"arrival":1522666428000,"departure":1522666429000,"zoneId":"NA","stopIndex":9,"stopSequence":10,"vertexType":"TRANSIT"},"legGeometry":{"points":"cuufH`prpLIt@a@lClBl@PF","length":5},"rentedBike":false,"transitLeg":false,"duration":119.0,"steps":[{"distance":76.086,"relativeDirection":"DEPART","streetName":"Rue de Vimy","absoluteDirection":"WEST","stayOn":false,"area":false,"bogusName":false,"lon":-71.04272927573977,"lat":48.44898289735387,"elevation":[]},{"distance":74.066,"relativeDirection":"LEFT","streetName":"Rue Saint-Émile","absoluteDirection":"SOUTH","stayOn":false,"area":false,"bogusName":false,"lon":-71.0437059,"lat":48.449203100000005,"elevation":[]}]},{"startTime":1522666429000,"endTime":1522667460000,"departureDelay":0,"arrivalDelay":0,"realTime":false,"distance":6855.948677410314,"pathway":false,"mode":"BUS","route":"24","agencyName":"Société de Transport du Saguenay","agencyUrl":"http://ville.saguenay.ca/fr/services-aux-citoyens/transport-sts","agencyTimeZoneOffset":-14400000,"routeColor":"00FF00","routeType":3,"routeId":"1:24","routeTextColor":"000000","interlineWithPreviousLeg":false,"tripBlockId":"4","headsign":"Terminus Chicoutimi","agencyId":"0","tripId":"1:217223","serviceDate":"20180402","from":{"name":"St-Émile / Adam","stopId":"1:813","stopCode":"813","lon":-71.043871,"lat":48.448542,"arrival":1522666428000,"departure":1522666429000,"zoneId":"NA","stopIndex":9,"stopSequence":10,"vertexType":"TRANSIT"},"to":{"name":"Terminus Chicoutimi","stopId":"1:1289","stopCode":"1289","lon":-71.066163,"lat":48.428677,"arrival":1522667460000,"departure":1522667700000,"zoneId":"NA","stopIndex":35,"stopSequence":36,"vertexType":"TRANSIT"},"legGeometry":{"points":"yrufH~vrpLbAoGV{AxG~BPFhCdAn@Lx@BxA]QeDI}AzAW~ASQoDg@eKG{A?_@?m@?i@LeCJkAd@yGxAqSBs@p@^VRPRbF~FlCxBxB|B~JjK`IjIRPb@^r@d@rAp@\\T\\ZNVRd@J\\Nd@Hf@F`@@DFr@LtAJpB@jAAt@ObEIzAKbBUrBMp@Sn@gAlCk@pAw@fCwB|HCNk@jCeDuAq@UC?mG_CaHiCsJqD_A]VvC\\`Ch@rCj@tBf@bBxDxJN\\bAjCTnAHvA@|@CPIpAe@pDUfBCTEXK~@MxAEn@@v@Bp@Dr@l@~HNlAH\\@HLd@\\z@Xd@X\\RTXRr@Zn@PfExAvDpALnBJt@Pp@Nj@l@tBHZPn@`@rBNnAFr@DbA?bB@jABzA?p@A???A???A?A???A@??A?A@??A@?@A??@A@???@A@?@?@A@?@?@?@?@???@?@?@?@?@?@@@?@?@@@?@@@?@@@?@@?@@??@@@?E`@Kr@]rACVEl@I|AAr@JbAWJe@FUAM?a@Ke@YYWWa@v@}@RQPMz@k@tAe@REZG^Af@@X@VF`@Jn@XbClAr@Xt\\`PrAb@pA^hBTjAFj@Pb@JPHLLJNJRFXDT?X?ZEVEVKTMNMHMFOB}DWSGOSYcAN}FFkAF}DJyDPwGvAHN_HDiB@m@","length":235},"routeShortName":"24","routeLongName":"Saint-Luc","rentedBike":false,"transitLeg":true,"duration":1031.0,"steps":[]},{"startTime":1522667700000,"endTime":1522668667000,"departureDelay":0,"arrivalDelay":0,"realTime":false,"distance":5105.026131228896,"pathway":false,"mode":"BUS","route":"11","agencyName":"Société de Transport du Saguenay","agencyUrl":"http://ville.saguenay.ca/fr/services-aux-citoyens/transport-sts","agencyTimeZoneOffset":-14400000,"routeColor":"FF0000","routeType":3,"routeId":"1:11","routeTextColor":"FFFFFF","interlineWithPreviousLeg":false,"tripBlockId":"36","headsign":"Boul.Royaume/St-Pierre","agencyId":"0","tripId":"1:218278","serviceDate":"20180402","from":{"name":"Terminus Chicoutimi","stopId":"1:1289","stopCode":"1289","lon":-71.066163,"lat":48.428677,"arrival":1522667460000,"departure":1522667700000,"zoneId":"NA","stopIndex":0,"stopSequence":1,"vertexType":"TRANSIT"},"to":{"name":"St-Paul / Cossette","stopId":"1:122","stopCode":"122","lon":-71.103306,"lat":48.398662,"arrival":1522668667000,"departure":1522668668000,"zoneId":"NA","stopIndex":19,"stopSequence":20,"vertexType":"TRANSIT"},"legGeometry":{"points":"evqfHzcwpLk@?UhKfIh@dKp@GnDIfDOtEE~@Ff@x@rEF~@CbAALO~ADRNJXBr@DfGRPBPJLN@@FPFTBX?TE`BhBR@?J@NELKFOlAiDL[bA`AfIjIbGdGzDzD`A~An@`ApApBpClEvJrOR\\bAfBLa@t@]LjAVvAVbAVv@^bAXj@b@t@xEtGh@r@n@x@FDjA|AlBpCnJ|NNTX`@V`@eCtHpFjH{FhPcB|Ft@|CEAdCnEdHKrBz@lGiQ|CyI~IrJtAzAmKrWsE`LzJjL|P}d@Ri@hCpEpBdC","length":87},"routeShortName":"11","routeLongName":"Chic/Faubourg via St-Paul","rentedBike":false,"transitLeg":true,"duration":967.0,"steps":[]},{"startTime":1522668668000,"endTime":1522668768000,"departureDelay":0,"arrivalDelay":0,"realTime":false,"distance":132.841,"pathway":false,"mode":"WALK","route":"","agencyTimeZoneOffset":-14400000,"interlineWithPreviousLeg":false,"from":{"name":"St-Paul / Cossette","stopId":"1:122","stopCode":"122","lon":-71.103306,"lat":48.398662,"arrival":1522668667000,"departure":1522668668000,"zoneId":"NA","stopIndex":19,"stopSequence":20,"vertexType":"TRANSIT"},"to":{"name":"Destination","lon":-71.10515599,"lat":48.399047,"arrival":1522668768000,"orig":"","vertexType":"NORMAL"},"legGeometry":{"points":"{ykfHjk~pLuBdHGH","length":3},"rentedBike":false,"transitLeg":false,"duration":100.0,"steps":[{"distance":132.841,"relativeDirection":"DEPART","streetName":"Rue Cossette","absoluteDirection":"NORTHWEST","stayOn":false,"area":false,"bogusName":false,"lon":-71.10341204586585,"lat":48.398545146160764,"elevation":[]}]}],"tooSloped":false},{"duration":4532,"startTime":1522665759000,"endTime":1522670291000,"walkTime":2040,"transitTime":1890,"waitingTime":602,"walkDistance":2632.7155413447827,"walkLimitExceeded":false,"elevationLost":0.0,"elevationGained":0.0,"transfers":1,"legs":[{"startTime":1522665759000,"endTime":1522666629000,"departureDelay":0,"arrivalDelay":0,"realTime":false,"distance":1117.502,"pathway":false,"mode":"WALK","route":"","agencyTimeZoneOffset":-14400000,"interlineWithPreviousLeg":false,"from":{"name":"Origin","lon":-71.042655,"lat":48.44914,"departure":1522665759000,"orig":"","vertexType":"NORMAL"},"to":{"name":"Verdun / St-Éloi","stopId":"1:794","stopCode":"794","lon":-71.053519,"lat":48.446152,"arrival":1522666629000,"departure":1522666630000,"zoneId":"NA","stopIndex":16,"stopSequence":17,"vertexType":"TRANSIT"},"legGeometry":{"points":"cuufH`prpLIt@a@lClBl@PF??nBl@~CjAq@dEMr@Mn@CVEXAN?P^zFBJDTJZFRJRjAvBH^?VELoAlBr@rAHLFHHBD@H@L@J?RABJHJH?vBhEa@bEBj@EBEJCTE^Gf@CXEX","length":48},"rentedBike":false,"transitLeg":false,"duration":870.0,"steps":[{"distance":76.086,"relativeDirection":"DEPART","streetName":"Rue de Vimy","absoluteDirection":"WEST","stayOn":false,"area":false,"bogusName":false,"lon":-71.04272927573977,"lat":48.44898289735387,"elevation":[]},{"distance":231.662,"relativeDirection":"LEFT","streetName":"Rue Saint-Émile","absoluteDirection":"SOUTH","stayOn":false,"area":false,"bogusName":false,"lon":-71.0437059,"lat":48.449203100000005,"elevation":[]},{"distance":438.597,"relativeDirection":"RIGHT","streetName":"Rue Brûlé","absoluteDirection":"WEST","stayOn":false,"area":false,"bogusName":false,"lon":-71.04458170000001,"lat":48.4472025,"elevation":[]},{"distance":114.16,"relativeDirection":"LEFT","streetName":"Rue Pierre-De La Vérendrye","absoluteDirection":"SOUTHWEST","stayOn":false,"area":false,"bogusName":false,"lon":-71.0497625,"lat":48.4472803,"elevation":[]},{"distance":191.388,"relativeDirection":"SLIGHTLY_RIGHT","streetName":"path","absoluteDirection":"SOUTHWEST","stayOn":false,"area":false,"bogusName":true,"lon":-71.05046250000001,"lat":48.4464551,"elevation":[]},{"distance":65.60900000000001,"relativeDirection":"SLIGHTLY_RIGHT","streetName":"Rue de Verdun","absoluteDirection":"NORTHWEST","stayOn":false,"area":false,"bogusName":false,"lon":-71.05267160000001,"lat":48.446006600000004,"elevation":[]}]},{"startTime":1522666630000,"endTime":1522667100000,"departureDelay":0,"arrivalDelay":0,"realTime":false,"distance":3054.7698287012436,"pathway":false,"mode":"BUS","route":"23","agencyName":"Société de Transport du Saguenay","agencyUrl":"http://ville.saguenay.ca/fr/services-aux-citoyens/transport-sts","agencyTimeZoneOffset":-14400000,"routeColor":"FF00FF","routeType":3,"routeId":"1:23","routeTextColor":"FFFFFF","interlineWithPreviousLeg":false,"tripBlockId":"5","headsign":"Terminus Chicoutimi","agencyId":"0","tripId":"1:217250","serviceDate":"20180402","from":{"name":"Verdun / St-Éloi","stopId":"1:794","stopCode":"794","lon":-71.053519,"lat":48.446152,"arrival":1522666629000,"departure":1522666630000,"zoneId":"NA","stopIndex":16,"stopSequence":17,"vertexType":"TRANSIT"},"to":{"name":"Terminus Chicoutimi","stopId":"1:1289","stopCode":"1289","lon":-71.066163,"lat":48.428677,"arrival":1522667100000,"departure":1522667700000,"zoneId":"NA","stopIndex":26,"stopSequence":27,"vertexType":"TRANSIT"},"legGeometry":{"points":"ycufHhstpLF_@R{AFWFMPIPC`@BT@V?TAVKLENCLCJ@J@xAb@x@Zz@\\CP?R@N@NFLFF`GtBx@Xw@pG@l@B\\DXL\\RZDFXPf@N@v@Bp@Dr@l@~HNlAH\\@HLd@\\z@Xd@X\\RTXRr@Zn@PfExAvDpALnBJt@Pp@|@`DHZPn@`@rBNnAFr@DbA?bB@jABzA?p@A???A???A?A???A@??A?A@??A@?@A??@A@???@A@?@?@A@?@?@?@?@???@?@?@?@?@?@@@?@?@@@?@@@?@@@?@@?@@??@@@?E`@Kr@]rACVEl@I|AAr@JbAWJe@FUAM?a@Ke@YYWWa@v@}@RQPMz@k@tAe@REZG^Af@@X@VF`@Jn@XbClAr@Xt\\`PrAb@pA^hBTjAFj@Pb@JPHLLJNJRFXDT?X?ZEVEVKTMNMHMFOB}DWSGOSYcAN}FFkAF}DJyDd@wPV_HjAN~ALI`C","length":182},"routeShortName":"23","routeLongName":"Côte Verdun via Aréna du Plateau","rentedBike":false,"transitLeg":true,"duration":470.0,"steps":[]},{"startTime":1522667700000,"endTime":1522669120000,"departureDelay":0,"arrivalDelay":0,"realTime":false,"distance":7475.559574856033,"pathway":false,"mode":"BUS","route":"14","agencyName":"Société de Transport du Saguenay","agencyUrl":"http://ville.saguenay.ca/fr/services-aux-citoyens/transport-sts","agencyTimeZoneOffset":-14400000,"routeColor":"C0C000","routeType":3,"routeId":"1:14","routeTextColor":"000000","interlineWithPreviousLeg":false,"tripBlockId":"32","headsign":"Talbot / Barrette","agencyId":"0","tripId":"1:218148","serviceDate":"20180402","from":{"name":"Terminus Chicoutimi","stopId":"1:1289","stopCode":"1289","lon":-71.066163,"lat":48.428677,"arrival":1522667100000,"departure":1522667700000,"zoneId":"NA","stopIndex":0,"stopSequence":1,"vertexType":"TRANSIT"},"to":{"name":"Malraux / Pagnol","stopId":"1:1978","stopCode":"1978","lon":-71.093388,"lat":48.400416,"arrival":1522669120000,"departure":1522669121000,"zoneId":"NA","stopIndex":29,"stopSequence":30,"vertexType":"TRANSIT"},"legGeometry":{"points":"qvqfHnbwpLJkClLh@DsDTmSHwFB{I@m@@eBH_AF}A@w@Dq@@i@B}B@Y@e@D]F_@@SHQCKnBnBvIrIn@n@\\iATg@v@_ATg@LmABg@Is@c@iEAm@bAcDTcAtA{DJI|AxAvAvAQv@~@z@dA`ATq@`E~DL`@E`Ex@hDd@`B}FtFaAzAm@xAe@jCa@nDiAbm@SpKM`H]vBhDVzCTcAvCO^bEbEzK`LfBeEtK`KhAdAnCbCvBpCNR~BxAxBf@z@h@vAz@z@{DrCoITTlElEtAnB`@l@pFrD@?fDr@XgAjFuR\\yADm@b@gFd@_B`A}@tEvJBDvC`FtJ|LLNlClC|@^hCYVExCjCb@d@vE`F`BhB?pHaBhRqAbLK~@qBxFqB|FcC~GyC\\aDkD","length":112},"routeShortName":"14","routeLongName":"Coopérative","rentedBike":false,"transitLeg":true,"duration":1420.0,"steps":[]},{"startTime":1522669121000,"endTime":1522670291000,"departureDelay":0,"arrivalDelay":0,"realTime":false,"distance":1514.9470000000001,"pathway":false,"mode":"WALK","route":"","agencyTimeZoneOffset":-14400000,"interlineWithPreviousLeg":false,"from":{"name":"Malraux / Pagnol","stopId":"1:1978","stopCode":"1978","lon":-71.093388,"lat":48.400416,"arrival":1522669120000,"departure":1522669121000,"zoneId":"NA","stopIndex":29,"stopSequence":30,"vertexType":"TRANSIT"},"to":{"name":"Destination","lon":-71.10515599,"lat":48.399047,"arrival":1522670291000,"orig":"","vertexType":"NORMAL"},"legGeometry":{"points":"selfHzl|pLkF{Fa@jAA?{EvMy@tBGPsCrHpA~AbAjAf@h@z@dA~@dAf@j@HJvA`BLNf@l@hAnAvAbBxAdBFFd@h@NPPRBDfF`GRVK^uBdHGH","length":31},"rentedBike":false,"transitLeg":false,"duration":1170.0,"steps":[{"distance":160.301,"relativeDirection":"DEPART","streetName":"Rue Malraux","absoluteDirection":"NORTHEAST","stayOn":false,"area":false,"bogusName":false,"lon":-71.09341079342245,"lat":48.40042668071038,"elevation":[]},{"distance":449.30899999999997,"relativeDirection":"LEFT","streetName":"Boulevard Barrette","absoluteDirection":"NORTHWEST","stayOn":false,"area":false,"bogusName":false,"lon":-71.0921587,"lat":48.401604500000005,"elevation":[]},{"distance":758.761,"relativeDirection":"LEFT","streetName":"Boulevard Saint-Paul","absoluteDirection":"SOUTHWEST","stayOn":false,"area":false,"bogusName":false,"lon":-71.0971116,"lat":48.4039529,"elevation":[]},{"distance":146.57600000000002,"relativeDirection":"RIGHT","streetName":"Rue Cossette","absoluteDirection":"NORTHWEST","stayOn":false,"area":false,"bogusName":false,"lon":-71.1032527,"lat":48.3984814,"elevation":[]}]}],"tooSloped":false},{"duration":3009,"startTime":1522667559000,"endTime":1522670568000,"walkTime":970,"transitTime":1617,"waitingTime":422,"walkDistance":1250.5087894683347,"walkLimitExceeded":false,"elevationLost":0.0,"elevationGained":0.0,"transfers":1,"legs":[{"startTime":1522667559000,"endTime":1522668429000,"departureDelay":0,"arrivalDelay":0,"realTime":false,"distance":1117.502,"pathway":false,"mode":"WALK","route":"","agencyTimeZoneOffset":-14400000,"interlineWithPreviousLeg":false,"from":{"name":"Origin","lon":-71.042655,"lat":48.44914,"departure":1522667559000,"orig":"","vertexType":"NORMAL"},"to":{"name":"Verdun / St-Éloi","stopId":"1:794","stopCode":"794","lon":-71.053519,"lat":48.446152,"arrival":1522668429000,"departure":1522668430000,"zoneId":"NA","stopIndex":16,"stopSequence":17,"vertexType":"TRANSIT"},"legGeometry":{"points":"cuufH`prpLIt@a@lClBl@PF??nBl@~CjAq@dEMr@Mn@CVEXAN?P^zFBJDTJZFRJRjAvBH^?VELoAlBr@rAHLFHHBD@H@L@J?RABJHJH?vBhEa@bEBj@EBEJCTE^Gf@CXEX","length":48},"rentedBike":false,"transitLeg":false,"duration":870.0,"steps":[{"distance":76.086,"relativeDirection":"DEPART","streetName":"Rue de Vimy","absoluteDirection":"WEST","stayOn":false,"area":false,"bogusName":false,"lon":-71.04272927573977,"lat":48.44898289735387,"elevation":[]},{"distance":231.662,"relativeDirection":"LEFT","streetName":"Rue Saint-Émile","absoluteDirection":"SOUTH","stayOn":false,"area":false,"bogusName":false,"lon":-71.0437059,"lat":48.449203100000005,"elevation":[]},{"distance":438.597,"relativeDirection":"RIGHT","streetName":"Rue Brûlé","absoluteDirection":"WEST","stayOn":false,"area":false,"bogusName":false,"lon":-71.04458170000001,"lat":48.4472025,"elevation":[]},{"distance":114.16,"relativeDirection":"LEFT","streetName":"Rue Pierre-De La Vérendrye","absoluteDirection":"SOUTHWEST","stayOn":false,"area":false,"bogusName":false,"lon":-71.0497625,"lat":48.4472803,"elevation":[]},{"distance":191.388,"relativeDirection":"SLIGHTLY_RIGHT","streetName":"path","absoluteDirection":"SOUTHWEST","stayOn":false,"area":false,"bogusName":true,"lon":-71.05046250000001,"lat":48.4464551,"elevation":[]},{"distance":65.60900000000001,"relativeDirection":"SLIGHTLY_RIGHT","streetName":"Rue de Verdun","absoluteDirection":"NORTHWEST","stayOn":false,"area":false,"bogusName":false,"lon":-71.05267160000001,"lat":48.446006600000004,"elevation":[]}]},{"startTime":1522668430000,"endTime":1522669080000,"departureDelay":0,"arrivalDelay":0,"realTime":false,"distance":3054.7698287012436,"pathway":false,"mode":"BUS","route":"23","agencyName":"Société de Transport du Saguenay","agencyUrl":"http://ville.saguenay.ca/fr/services-aux-citoyens/transport-sts","agencyTimeZoneOffset":-14400000,"routeColor":"FF00FF","routeType":3,"routeId":"1:23","routeTextColor":"FFFFFF","interlineWithPreviousLeg":false,"tripBlockId":"4","headsign":"Terminus Chicoutimi","agencyId":"0","tripId":"1:217224","serviceDate":"20180402","from":{"name":"Verdun / St-Éloi","stopId":"1:794","stopCode":"794","lon":-71.053519,"lat":48.446152,"arrival":1522668429000,"departure":1522668430000,"zoneId":"NA","stopIndex":16,"stopSequence":17,"vertexType":"TRANSIT"},"to":{"name":"Terminus Chicoutimi","stopId":"1:1289","stopCode":"1289","lon":-71.066163,"lat":48.428677,"arrival":1522669080000,"departure":1522669500000,"zoneId":"NA","stopIndex":26,"stopSequence":27,"vertexType":"TRANSIT"},"legGeometry":{"points":"ycufHhstpLF_@R{AFWFMPIPC`@BT@V?TAVKLENCLCJ@J@xAb@x@Zz@\\CP?R@N@NFLFF`GtBx@Xw@pG@l@B\\DXL\\RZDFXPf@N@v@Bp@Dr@l@~HNlAH\\@HLd@\\z@Xd@X\\RTXRr@Zn@PfExAvDpALnBJt@Pp@|@`DHZPn@`@rBNnAFr@DbA?bB@jABzA?p@A???A???A?A???A@??A?A@??A@?@A??@A@???@A@?@?@A@?@?@?@?@???@?@?@?@?@?@@@?@?@@@?@@@?@@@?@@?@@??@@@?E`@Kr@]rACVEl@I|AAr@JbAWJe@FUAM?a@Ke@YYWWa@v@}@RQPMz@k@tAe@REZG^Af@@X@VF`@Jn@XbClAr@Xt\\`PrAb@pA^hBTjAFj@Pb@JPHLLJNJRFXDT?X?ZEVEVKTMNMHMFOB}DWSGOSYcAN}FFkAF}DJyDd@wPV_HjAN~ALI`C","length":182},"routeShortName":"23","routeLongName":"Côte Verdun via Aréna du Plateau","rentedBike":false,"transitLeg":true,"duration":650.0,"steps":[]},{"startTime":1522669500000,"endTime":1522670467000,"departureDelay":0,"arrivalDelay":0,"realTime":false,"distance":5105.026131228896,"pathway":false,"mode":"BUS","route":"11","agencyName":"Société de Transport du Saguenay","agencyUrl":"http://ville.saguenay.ca/fr/services-aux-citoyens/transport-sts","agencyTimeZoneOffset":-14400000,"routeColor":"FF0000","routeType":3,"routeId":"1:11","routeTextColor":"FFFFFF","interlineWithPreviousLeg":false,"tripBlockId":"35","headsign":"Boul.Royaume/St-Pierre","agencyId":"0","tripId":"1:218244","serviceDate":"20180402","from":{"name":"Terminus Chicoutimi","stopId":"1:1289","stopCode":"1289","lon":-71.066163,"lat":48.428677,"arrival":1522669080000,"departure":1522669500000,"zoneId":"NA","stopIndex":0,"stopSequence":1,"vertexType":"TRANSIT"},"to":{"name":"St-Paul / Cossette","stopId":"1:122","stopCode":"122","lon":-71.103306,"lat":48.398662,"arrival":1522670467000,"departure":1522670468000,"zoneId":"NA","stopIndex":19,"stopSequence":20,"vertexType":"TRANSIT"},"legGeometry":{"points":"evqfHzcwpLk@?UhKfIh@dKp@GnDIfDOtEE~@Ff@x@rEF~@CbAALO~ADRNJXBr@DfGRPBPJLN@@FPFTBX?TE`BhBR@?J@NELKFOlAiDL[bA`AfIjIbGdGzDzD`A~An@`ApApBpClEvJrOR\\bAfBLa@t@]LjAVvAVbAVv@^bAXj@b@t@xEtGh@r@n@x@FDjA|AlBpCnJ|NNTX`@V`@eCtHpFjH{FhPcB|Ft@|CEAdCnEdHKrBz@lGiQ|CyI~IrJtAzAmKrWsE`LzJjL|P}d@Ri@hCpEpBdC","length":87},"routeShortName":"11","routeLongName":"Chic/Faubourg via St-Paul","rentedBike":false,"transitLeg":true,"duration":967.0,"steps":[]},{"startTime":1522670468000,"endTime":1522670568000,"departureDelay":0,"arrivalDelay":0,"realTime":false,"distance":132.841,"pathway":false,"mode":"WALK","route":"","agencyTimeZoneOffset":-14400000,"interlineWithPreviousLeg":false,"from":{"name":"St-Paul / Cossette","stopId":"1:122","stopCode":"122","lon":-71.103306,"lat":48.398662,"arrival":1522670467000,"departure":1522670468000,"zoneId":"NA","stopIndex":19,"stopSequence":20,"vertexType":"TRANSIT"},"to":{"name":"Destination","lon":-71.10515599,"lat":48.399047,"arrival":1522670568000,"orig":"","vertexType":"NORMAL"},"legGeometry":{"points":"{ykfHjk~pLuBdHGH","length":3},"rentedBike":false,"transitLeg":false,"duration":100.0,"steps":[{"distance":132.841,"relativeDirection":"DEPART","streetName":"Rue Cossette","absoluteDirection":"NORTHWEST","stayOn":false,"area":false,"bogusName":false,"lon":-71.10341204586585,"lat":48.398545146160764,"elevation":[]}]}],"tooSloped":false}]},"debugOutput":{"precalculationTime":10,"pathCalculationTime":33,"pathTimes":[17,7,9],"renderingTime":1,"totalTime":44,"timedOut":false},"elevationMetadata":{"ellipsoidToGeoidDifference":-28.885904201182168,"geoidElevation":false}}