{"requestParameters":{"date":"2018/04/02","walkSpeed":"1.33","walkReluctance":"2.0","fromPlace":"48.411025,-71.054072","maxWalkDistance":"3000","waitReluctance":"1.0","carSpeed":"33","numItineraries":"3","waitAtBeginningFactor":"0.4","mode":"TRANSIT,WALK","ignoreRealtimeUpdates":"false","stairsReluctance":"2.0","toPlace":"48.416848,-71.067685","time":"11:15:00"},"plan":{"date":1522682100000,"from":{"name":"Origin","lon":-71.054072,"lat":48.411025,"orig":"","vertexType":"NORMAL"},"to":{"name":"Destination","lon":-71.067685,"lat":48.416848,"orig":"","vertexType":"NORMAL"},"itineraries":[{"duration":1020,"startTime":1522682100000,"endTime":1522683120000,"walkTime":1020,"transitTime":0,"waitingTime":0,"walkDistance":1297.4889924716203,"walkLimitExceeded":false,"elevationLost":0.0,"elevationGained":0.0,"transfers":0,"legs":[{"startTime":1522682100000,"endTime":1522683120000,"departureDelay":0,"arrivalDelay":0,"realTime":false,"distance":1297.1920000000002,"pathway":false,"mode":"WALK","route":"","agencyTimeZoneOffset":-14400000,"interlineWithPreviousLeg":false,"from":{"name":"Origin","lon":-71.054072,"lat":48.411025,"departure":1522682100000,"orig":"","vertexType":"NORMAL"},"to":{"name":"Destination","lon":-71.067685,"lat":48.416848,"arrival":1522683120000,"orig":"","vertexType":"NORMAL"},"legGeometry":{"points":"ilnfHnztpLAEeCbBQOYTiB~EGR_ClGJ~A{A\\qBLOC@`ADhB`@~ADTnAdBY`@iAbD??e@pAoAnDcA|FOh@GP??k@jBn@l@kAdDGReAvCu@xBCF","length":33},"rentedBike":false,"transitLeg":false,"duration":1020.0,"steps":[{"distance":2.914,"relativeDirection":"DEPART","streetName":"Rue Thérèse-Casgrain","absoluteDirection":"NORTHEAST","stayOn":false,"area":false,"bogusName":false,"lon":-71.05463999054896,"lat":48.41173622293649,"elevation":[]},{"distance":82.632,"relativeDirection":"LEFT","streetName":"path","absoluteDirection":"NORTHWEST","stayOn":false,"area":false,"bogusName":true,"lon":-71.0546051,"lat":48.4117485,"elevation":[]},{"distance":11.968,"relativeDirection":"RIGHT","streetName":"Rue Judith-Jasmin","absoluteDirection":"NORTHEAST","stayOn":false,"area":false,"bogusName":false,"lon":-71.0551099,"lat":48.4124118,"elevation":[]},{"distance":284.544,"relativeDirection":"LEFT","streetName":"Rue Maria-Chapdelaine","absoluteDirection":"NORTHWEST","stayOn":false,"area":false,"bogusName":false,"lon":-71.05502750000001,"lat":48.412504500000004,"elevation":[]},{"distance":124.541,"relativeDirection":"RIGHT","streetName":"Rue Thérèse-Casgrain","absoluteDirection":"NORTH","stayOn":false,"area":false,"bogusName":false,"lon":-71.05818090000001,"lat":48.4137865,"elevation":[]},{"distance":170.211,"relativeDirection":"LEFT","streetName":"Rue Marguerite-Tellier","absoluteDirection":"WEST","stayOn":false,"area":false,"bogusName":false,"lon":-71.0583806,"lat":48.4148926,"elevation":[]},{"distance":381.05899999999997,"relativeDirection":"RIGHT","streetName":"Rue des Champs-Élysées","absoluteDirection":"NORTHWEST","stayOn":false,"area":false,"bogusName":false,"lon":-71.0603414,"lat":48.4142597,"elevation":[]},{"distance":30.953,"relativeDirection":"LEFT","streetName":"Rue Bégin","absoluteDirection":"SOUTHWEST","stayOn":false,"area":false,"bogusName":false,"lon":-71.0647342,"lat":48.416021,"elevation":[]},{"distance":208.37,"relativeDirection":"RIGHT","streetName":"Rue Dubé","absoluteDirection":"NORTHWEST","stayOn":false,"area":false,"bogusName":false,"lon":-71.06496530000001,"lat":48.4157887,"elevation":[]}]}],"tooSloped":false},{"duration":793,"startTime":1522683015000,"endTime":1522683808000,"walkTime":689,"transitTime":102,"waitingTime":2,"walkDistance":875.8639248049337,"walkLimitExceeded":false,"elevationLost":0.0,"elevationGained":0.0,"transfers":0,"legs":[{"startTime":1522683015000,"endTime":1522683479000,"departureDelay":0,"arrivalDelay":0,"realTime":false,"distance":590.0360000000001,"pathway":false,"mode":"WALK","route":"","agencyTimeZoneOffset":-14400000,"interlineWithPreviousLeg":false,"from":{"name":"Origin","lon":-71.054072,"lat":48.411025,"departure":1522683015000,"orig":"","vertexType":"NORMAL"},"to":{"name":"Champs-Élysées / Chopin","stopId":"1:584","stopCode":"584","lon":-71.058412,"lat":48.409805,"arrival":1522683479000,"departure":1522683480000,"zoneId":"NA","stopIndex":29,"stopSequence":30,"vertexType":"TRANSIT"},"legGeometry":{"points":"ilnfHnztpLr@rCLtAC`Aw@lB{AfDbAtAFIxAGfEUz@AzAtAa@|@","length":13},"rentedBike":false,"transitLeg":false,"duration":464.0,"steps":[{"distance":250.50900000000001,"relativeDirection":"DEPART","streetName":"Rue Thérèse-Casgrain","absoluteDirection":"SOUTHWEST","stayOn":false,"area":false,"bogusName":false,"lon":-71.05463999054896,"lat":48.41173622293649,"elevation":[]},{"distance":105.095,"relativeDirection":"LEFT","streetName":"path","absoluteDirection":"SOUTHWEST","stayOn":false,"area":false,"bogusName":true,"lon":-71.0575299,"lat":48.412162300000006,"elevation":[]},{"distance":205.04399999999998,"relativeDirection":"CONTINUE","streetName":"Rue Chopin","absoluteDirection":"SOUTH","stayOn":false,"area":false,"bogusName":false,"lon":-71.0578622,"lat":48.411338,"elevation":[]},{"distance":29.388,"relativeDirection":"RIGHT","streetName":"Rue des Champs-Élysées","absoluteDirection":"NORTHWEST","stayOn":false,"area":false,"bogusName":false,"lon":-71.0581732,"lat":48.4095789,"elevation":[]}]},{"startTime":1522683480000,"endTime":1522683582000,"departureDelay":0,"arrivalDelay":0,"realTime":false,"distance":820.6860421759695,"pathway":false,"mode":"BUS","route":"12","agencyName":"Société de Transport du Saguenay","agencyUrl":"http://ville.saguenay.ca/fr/services-aux-citoyens/transport-sts","agencyTimeZoneOffset":-14400000,"routeColor":"556B2F","routeType":3,"routeId":"1:12","routeTextColor":"FFFFFF","interlineWithPreviousLeg":false,"tripBlockId":"28","headsign":"Terminus UQAC","agencyId":"0","tripId":"1:218035","serviceDate":"20180402","from":{"name":"Champs-Élysées / Chopin","stopId":"1:584","stopCode":"584","lon":-71.058412,"lat":48.409805,"arrival":1522683479000,"departure":1522683480000,"zoneId":"NA","stopIndex":29,"stopSequence":30,"vertexType":"TRANSIT"},"to":{"name":"Champs-Élysées / Bégin","stopId":"1:587","stopCode":"587","lon":-71.064119,"lat":48.41589,"arrival":1522683582000,"departure":1522683583000,"zoneId":"NA","stopIndex":32,"stopSequence":33,"vertexType":"TRANSIT"},"legGeometry":{"points":"g`nfHbrupLiHhDaGz@uSl[","length":4},"routeShortName":"12","routeLongName":"Rivière du Moulin","rentedBike":false,"transitLeg":true,"duration":102.0,"steps":[]},{"startTime":1522683583000,"endTime":1522683808000,"departureDelay":0,"arrivalDelay":0,"realTime":false,"distance":285.60800000000006,"pathway":false,"mode":"WALK","route":"","agencyTimeZoneOffset":-14400000,"interlineWithPreviousLeg":false,"from":{"name":"Champs-Élysées / Bégin","stopId":"1:587","stopCode":"587","lon":-71.064119,"lat":48.41589,"arrival":1522683582000,"departure":1522683583000,"zoneId":"NA","stopIndex":32,"stopSequence":33,"vertexType":"TRANSIT"},"to":{"name":"Destination","lon":-71.067685,"lat":48.416848,"arrival":1522683808000,"orig":"","vertexType":"NORMAL"},"legGeometry":{"points":"weofHfvvpLk@jBn@l@kAdDGReAvCu@xBCF","length":8},"rentedBike":false,"transitLeg":false,"duration":225.0,"steps":[{"distance":46.285,"relativeDirection":"DEPART","streetName":"Rue des Champs-Élysées","absoluteDirection":"NORTHWEST","stayOn":false,"area":false,"bogusName":false,"lon":-71.06419656014225,"lat":48.415806692432525,"elevation":[]},{"distance":30.953,"relativeDirection":"LEFT","streetName":"Rue Bégin","absoluteDirection":"SOUTHWEST","stayOn":false,"area":false,"bogusName":false,"lon":-71.0647342,"lat":48.416021,"elevation":[]},{"distance":208.37,"relativeDirection":"RIGHT","streetName":"Rue Dubé","absoluteDirection":"NORTHWEST","stayOn":false,"area":false,"bogusName":false,"lon":-71.06496530000001,"lat":48.4157887,"elevation":[]}]}],"tooSloped":false},{"duration":1381,"startTime":1522682745000,"endTime":1522684126000,"walkTime":555,"transitTime":824,"waitingTime":2,"walkDistance":700.4109548813467,"walkLimitExceeded":false,"elevationLost":0.0,"elevationGained":0.0,"transfers":0,"legs":[{"startTime":1522682745000,"endTime":1522683075000,"departureDelay":0,"arrivalDelay":0,"realTime":false,"distance":414.621,"pathway":false,"mode":"WALK","route":"","agencyTimeZoneOffset":-14400000,"interlineWithPreviousLeg":false,"from":{"name":"Origin","lon":-71.054072,"lat":48.411025,"departure":1522682745000,"orig":"","vertexType":"NORMAL"},"to":{"name":"boul. Université / Murdock","stopId":"1:59","stopCode":"59","lon":-71.049971,"lat":48.411755,"arrival":1522683075000,"departure":1522683076000,"zoneId":"NA","stopIndex":21,"stopSequence":22,"vertexType":"TRANSIT"},"legGeometry":{"points":"ilnfHnztpLAEm@aC?uDMqAqAkAIIfA}CJ]Na@UYDMnAiD","length":13},"rentedBike":false,"transitLeg":false,"duration":330.0,"steps":[{"distance":215.618,"relativeDirection":"DEPART","streetName":"Rue Thérèse-Casgrain","absoluteDirection":"NORTHEAST","stayOn":false,"area":false,"bogusName":false,"lon":-71.05463999054896,"lat":48.41173622293649,"elevation":[]},{"distance":199.003,"relativeDirection":"RIGHT","streetName":"Boulevard de l'Université","absoluteDirection":"SOUTHEAST","stayOn":false,"area":false,"bogusName":false,"lon":-71.0522085,"lat":48.412505100000004,"elevation":[]}]},{"startTime":1522683076000,"endTime":1522683420000,"departureDelay":0,"arrivalDelay":0,"realTime":false,"distance":1312.0122694073552,"pathway":false,"mode":"BUS","route":"10","agencyName":"Société de Transport du Saguenay","agencyUrl":"http://ville.saguenay.ca/fr/services-aux-citoyens/transport-sts","agencyTimeZoneOffset":-14400000,"routeColor":"0000FF","routeType":3,"routeId":"1:10","routeTextColor":"FFFFFF","interlineWithPreviousLeg":false,"tripBlockId":"29","headsign":"Terminus UQAC","agencyId":"0","tripId":"1:218061","serviceDate":"20180402","from":{"name":"boul. Université / Murdock","stopId":"1:59","stopCode":"59","lon":-71.049971,"lat":48.411755,"arrival":1522683075000,"departure":1522683076000,"zoneId":"NA","stopIndex":21,"stopSequence":22,"vertexType":"TRANSIT"},"to":{"name":"Terminus UQAC","stopId":"1:1670","stopCode":"1670","lon":-71.053369,"lat":48.420903,"arrival":1522683420000,"departure":1522683600000,"zoneId":"NA","stopIndex":24,"stopSequence":25,"vertexType":"TRANSIT"},"legGeometry":{"points":"sknfHh~spLuA~C}VeWaEpLeIrU|D~EfDdEwLpKeBgGAsE]gAoD}CUt@a@_@USMM","length":16},"routeShortName":"10","routeLongName":"Notre-Dame du Saguenay","rentedBike":false,"transitLeg":true,"duration":344.0,"steps":[]},{"startTime":1522683600000,"endTime":1522683900000,"departureDelay":0,"arrivalDelay":0,"realTime":false,"distance":1506.494478313499,"pathway":false,"mode":"BUS","route":"12","agencyName":"Société de Transport du Saguenay","agencyUrl":"http://ville.saguenay.ca/fr/services-aux-citoyens/transport-sts","agencyTimeZoneOffset":-14400000,"routeColor":"556B2F","routeType":3,"routeId":"1:12","routeTextColor":"FFFFFF","interlineWithPreviousLeg":true,"tripBlockId":"29","headsign":"Terminus Chicoutimi","agencyId":"0","tripId":"1:218062","serviceDate":"20180402","from":{"name":"Terminus UQAC","stopId":"1:1670","stopCode":"1670","lon":-71.053369,"lat":48.420903,"arrival":1522683420000,"departure":1522683600000,"zoneId":"NA","stopIndex":0,"stopSequence":1,"vertexType":"TRANSIT"},"to":{"name":"Champs-Élysées / Bégin","stopId":"1:566","stopCode":"566","lon":-71.064237,"lat":48.415762,"arrival":1522683900000,"departure":1522683901000,"zoneId":"NA","stopIndex":7,"stopSequence":8,"vertexType":"TRANSIT"},"legGeometry":{"points":"sepfHprtpL}@y@Pw@wAsAaB{A}DrL?jCv@fCa@nDaC`D~E`F~MfNjJnJ~GbHnCpCv@iB","length":16},"routeShortName":"12","routeLongName":"Rivière du Moulin","rentedBike":false,"transitLeg":true,"duration":300.0,"steps":[]},{"startTime":1522683901000,"endTime":1522684126000,"departureDelay":0,"arrivalDelay":0,"realTime":false,"distance":285.60800000000006,"pathway":false,"mode":"WALK","route":"","agencyTimeZoneOffset":-14400000,"interlineWithPreviousLeg":false,"from":{"name":"Champs-Élysées / Bégin","stopId":"1:566","stopCode":"566","lon":-71.064237,"lat":48.415762,"arrival":1522683900000,"departure":1522683901000,"zoneId":"NA","stopIndex":7,"stopSequence":8,"vertexType":"TRANSIT"},"to":{"name":"Destination","lon":-71.067685,"lat":48.416848,"arrival":1522684126000,"orig":"","vertexType":"NORMAL"},"legGeometry":{"points":"weofHfvvpLk@jBn@l@kAdDGReAvCu@xBCF","length":8},"rentedBike":false,"transitLeg":false,"duration":225.0,"steps":[{"distance":46.285,"relativeDirection":"DEPART","streetName":"Rue des Champs-Élysées","absoluteDirection":"NORTHWEST","stayOn":false,"area":false,"bogusName":false,"lon":-71.06419656014225,"lat":48.415806692432525,"elevation":[]},{"distance":30.953,"relativeDirection":"LEFT","streetName":"Rue Bégin","absoluteDirection":"SOUTHWEST","stayOn":false,"area":false,"bogusName":false,"lon":-71.0647342,"lat":48.416021,"elevation":[]},{"distance":208.37,"relativeDirection":"RIGHT","streetName":"Rue Dubé","absoluteDirection":"NORTHWEST","stayOn":false,"area":false,"bogusName":false,"lon":-71.06496530000001,"lat":48.4157887,"elevation":[]}]}],"tooSloped":false}]},"debugOutput":{"precalculationTime":35,"pathCalculationTime":30,"pathTimes":[19,5,6],"renderingTime":0,"totalTime":65,"timedOut":false},"elevationMetadata":{"ellipsoidToGeoidDifference":-28.885904201182168,"geoidElevation":false}}