{"requestParameters":{"date":"2018/04/02","walkSpeed":"1.33","walkReluctance":"2.0","fromPlace":"48.411025,-71.054072","maxWalkDistance":"3000","waitReluctance":"1.0","carSpeed":"33","numItineraries":"3","waitAtBeginningFactor":"0.4","mode":"TRANSIT,WALK","ignoreRealtimeUpdates":"false","stairsReluctance":"2.0","toPlace":"48.416848,-71.067685","time":"16:0:00"},"plan":{"date":1522699200000,"from":{"name":"Origin","lon":-71.054072,"lat":48.411025,"orig":"","vertexType":"NORMAL"},"to":{"name":"Destination","lon":-71.067685,"lat":48.416848,"orig":"","vertexType":"NORMAL"},"itineraries":[{"duration":793,"startTime":1522699215000,"endTime":1522700008000,"walkTime":689,"transitTime":102,"waitingTime":2,"walkDistance":875.8639248049337,"walkLimitExceeded":false,"elevationLost":0.0,"elevationGained":0.0,"transfers":0,"legs":[{"startTime":1522699215000,"endTime":1522699679000,"departureDelay":0,"arrivalDelay":0,"realTime":false,"distance":590.0360000000001,"pathway":false,"mode":"WALK","route":"","agencyTimeZoneOffset":-14400000,"interlineWithPreviousLeg":false,"from":{"name":"Origin","lon":-71.054072,"lat":48.411025,"departure":1522699215000,"orig":"","vertexType":"NORMAL"},"to":{"name":"Champs-Élysées / Chopin","stopId":"1:584","stopCode":"584","lon":-71.058412,"lat":48.409805,"arrival":1522699679000,"departure":1522699680000,"zoneId":"NA","stopIndex":29,"stopSequence":30,"vertexType":"TRANSIT"},"legGeometry":{"points":"ilnfHnztpLr@rCLtAC`Aw@lB{AfDbAtAFIxAGfEUz@AzAtAa@|@","length":13},"rentedBike":false,"transitLeg":false,"duration":464.0,"steps":[{"distance":250.50900000000001,"relativeDirection":"DEPART","streetName":"Rue Thérèse-Casgrain","absoluteDirection":"SOUTHWEST","stayOn":false,"area":false,"bogusName":false,"lon":-71.05463999054896,"lat":48.41173622293649,"elevation":[]},{"distance":105.095,"relativeDirection":"LEFT","streetName":"path","absoluteDirection":"SOUTHWEST","stayOn":false,"area":false,"bogusName":true,"lon":-71.0575299,"lat":48.412162300000006,"elevation":[]},{"distance":205.04399999999998,"relativeDirection":"CONTINUE","streetName":"Rue Chopin","absoluteDirection":"SOUTH","stayOn":false,"area":false,"bogusName":false,"lon":-71.0578622,"lat":48.411338,"elevation":[]},{"distance":29.388,"relativeDirection":"RIGHT","streetName":"Rue des Champs-Élysées","absoluteDirection":"NORTHWEST","stayOn":false,"area":false,"bogusName":false,"lon":-71.0581732,"lat":48.4095789,"elevation":[]}]},{"startTime":1522699680000,"endTime":1522699782000,"departureDelay":0,"arrivalDelay":0,"realTime":false,"distance":820.6860421759695,"pathway":false,"mode":"BUS","route":"12","agencyName":"Société de Transport du Saguenay","agencyUrl":"http://ville.saguenay.ca/fr/services-aux-citoyens/transport-sts","agencyTimeZoneOffset":-14400000,"routeColor":"556B2F","routeType":3,"routeId":"1:12","routeTextColor":"FFFFFF","interlineWithPreviousLeg":false,"tripBlockId":"27","headsign":"Terminus UQAC","agencyId":"0","tripId":"1:218018","serviceDate":"20180402","from":{"name":"Champs-Élysées / Chopin","stopId":"1:584","stopCode":"584","lon":-71.058412,"lat":48.409805,"arrival":1522699679000,"departure":1522699680000,"zoneId":"NA","stopIndex":29,"stopSequence":30,"vertexType":"TRANSIT"},"to":{"name":"Champs-Élysées / Bégin","stopId":"1:587","stopCode":"587","lon":-71.064119,"lat":48.41589,"arrival":1522699782000,"departure":1522699783000,"zoneId":"NA","stopIndex":32,"stopSequence":33,"vertexType":"TRANSIT"},"legGeometry":{"points":"g`nfHbrupLiHhDaGz@uSl[","length":4},"routeShortName":"12","routeLongName":"Rivière du Moulin","rentedBike":false,"transitLeg":true,"duration":102.0,"steps":[]},{"startTime":1522699783000,"endTime":1522700008000,"departureDelay":0,"arrivalDelay":0,"realTime":false,"distance":285.60800000000006,"pathway":false,"mode":"WALK","route":"","agencyTimeZoneOffset":-14400000,"interlineWithPreviousLeg":false,"from":{"name":"Champs-Élysées / Bégin","stopId":"1:587","stopCode":"587","lon":-71.064119,"lat":48.41589,"arrival":1522699782000,"departure":1522699783000,"zoneId":"NA","stopIndex":32,"stopSequence":33,"vertexType":"TRANSIT"},"to":{"name":"Destination","lon":-71.067685,"lat":48.416848,"arrival":1522700008000,"orig":"","vertexType":"NORMAL"},"legGeometry":{"points":"weofHfvvpLk@jBn@l@kAdDGReAvCu@xBCF","length":8},"rentedBike":false,"transitLeg":false,"duration":225.0,"steps":[{"distance":46.285,"relativeDirection":"DEPART","streetName":"Rue des Champs-Élysées","absoluteDirection":"NORTHWEST","stayOn":false,"area":false,"bogusName":false,"lon":-71.06419656014225,"lat":48.415806692432525,"elevation":[]},{"distance":30.953,"relativeDirection":"LEFT","streetName":"Rue Bégin","absoluteDirection":"SOUTHWEST","stayOn":false,"area":false,"bogusName":false,"lon":-71.0647342,"lat":48.416021,"elevation":[]},{"distance":208.37,"relativeDirection":"RIGHT","streetName":"Rue Dubé","absoluteDirection":"NORTHWEST","stayOn":false,"area":false,"bogusName":false,"lon":-71.06496530000001,"lat":48.4157887,"elevation":[]}]}],"tooSloped":false},{"duration":1020,"startTime":1522699200000,"endTime":1522700220000,"walkTime":1020,"transitTime":0,"waitingTime":0,"walkDistance":1297.4889924716203,"walkLimitExceeded":false,"elevationLost":0.0,"elevationGained":0.0,"transfers":0,"legs":[{"startTime":1522699200000,"endTime":1522700220000,"departureDelay":0,"arrivalDelay":0,"realTime":false,"distance":1297.1920000000002,"pathway":false,"mode":"WALK","route":"","agencyTimeZoneOffset":-14400000,"interlineWithPreviousLeg":false,"from":{"name":"Origin","lon":-71.054072,"lat":48.411025,"departure":1522699200000,"orig":"","vertexType":"NORMAL"},"to":{"name":"Destination","lon":-71.067685,"lat":48.416848,"arrival":1522700220000,"orig":"","vertexType":"NORMAL"},"legGeometry":{"points":"ilnfHnztpLAEeCbBQOYTiB~EGR_ClGJ~A{A\\qBLOC@`ADhB`@~ADTnAdBY`@iAbD??e@pAoAnDcA|FOh@GP??k@jBn@l@kAdDGReAvCu@xBCF","length":33},"rentedBike":false,"transitLeg":false,"duration":1020.0,"steps":[{"distance":2.914,"relativeDirection":"DEPART","streetName":"Rue Thérèse-Casgrain","absoluteDirection":"NORTHEAST","stayOn":false,"area":false,"bogusName":false,"lon":-71.05463999054896,"lat":48.41173622293649,"elevation":[]},{"distance":82.632,"relativeDirection":"LEFT","streetName":"path","absoluteDirection":"NORTHWEST","stayOn":false,"area":false,"bogusName":true,"lon":-71.0546051,"lat":48.4117485,"elevation":[]},{"distance":11.968,"relativeDirection":"RIGHT","streetName":"Rue Judith-Jasmin","absoluteDirection":"NORTHEAST","stayOn":false,"area":false,"bogusName":false,"lon":-71.0551099,"lat":48.4124118,"elevation":[]},{"distance":284.544,"relativeDirection":"LEFT","streetName":"Rue Maria-Chapdelaine","absoluteDirection":"NORTHWEST","stayOn":false,"area":false,"bogusName":false,"lon":-71.05502750000001,"lat":48.412504500000004,"elevation":[]},{"distance":124.541,"relativeDirection":"RIGHT","streetName":"Rue Thérèse-Casgrain","absoluteDirection":"NORTH","stayOn":false,"area":false,"bogusName":false,"lon":-71.05818090000001,"lat":48.4137865,"elevation":[]},{"distance":170.211,"relativeDirection":"LEFT","streetName":"Rue Marguerite-Tellier","absoluteDirection":"WEST","stayOn":false,"area":false,"bogusName":false,"lon":-71.0583806,"lat":48.4148926,"elevation":[]},{"distance":381.05899999999997,"relativeDirection":"RIGHT","streetName":"Rue des Champs-Élysées","absoluteDirection":"NORTHWEST","stayOn":false,"area":false,"bogusName":false,"lon":-71.0603414,"lat":48.4142597,"elevation":[]},{"distance":30.953,"relativeDirection":"LEFT","streetName":"Rue Bégin","absoluteDirection":"SOUTHWEST","stayOn":false,"area":false,"bogusName":false,"lon":-71.0647342,"lat":48.416021,"elevation":[]},{"distance":208.37,"relativeDirection":"RIGHT","streetName":"Rue Dubé","absoluteDirection":"NORTHWEST","stayOn":false,"area":false,"bogusName":false,"lon":-71.06496530000001,"lat":48.4157887,"elevation":[]}]}],"tooSloped":false},{"duration":793,"startTime":1522701015000,"endTime":1522701808000,"walkTime":689,"transitTime":102,"waitingTime":2,"walkDistance":875.8639248049337,"walkLimitExceeded":false,"elevationLost":0.0,"elevationGained":0.0,"transfers":0,"legs":[{"startTime":1522701015000,"endTime":1522701479000,"departureDelay":0,"arrivalDelay":0,"realTime":false,"distance":590.0360000000001,"pathway":false,"mode":"WALK","route":"","agencyTimeZoneOffset":-14400000,"interlineWithPreviousLeg":false,"from":{"name":"Origin","lon":-71.054072,"lat":48.411025,"departure":1522701015000,"orig":"","vertexType":"NORMAL"},"to":{"name":"Champs-Élysées / Chopin","stopId":"1:584","stopCode":"584","lon":-71.058412,"lat":48.409805,"arrival":1522701479000,"departure":1522701480000,"zoneId":"NA","stopIndex":29,"stopSequence":30,"vertexType":"TRANSIT"},"legGeometry":{"points":"ilnfHnztpLr@rCLtAC`Aw@lB{AfDbAtAFIxAGfEUz@AzAtAa@|@","length":13},"rentedBike":false,"transitLeg":false,"duration":464.0,"steps":[{"distance":250.50900000000001,"relativeDirection":"DEPART","streetName":"Rue Thérèse-Casgrain","absoluteDirection":"SOUTHWEST","stayOn":false,"area":false,"bogusName":false,"lon":-71.05463999054896,"lat":48.41173622293649,"elevation":[]},{"distance":105.095,"relativeDirection":"LEFT","streetName":"path","absoluteDirection":"SOUTHWEST","stayOn":false,"area":false,"bogusName":true,"lon":-71.0575299,"lat":48.412162300000006,"elevation":[]},{"distance":205.04399999999998,"relativeDirection":"CONTINUE","streetName":"Rue Chopin","absoluteDirection":"SOUTH","stayOn":false,"area":false,"bogusName":false,"lon":-71.0578622,"lat":48.411338,"elevation":[]},{"distance":29.388,"relativeDirection":"RIGHT","streetName":"Rue des Champs-Élysées","absoluteDirection":"NORTHWEST","stayOn":false,"area":false,"bogusName":false,"lon":-71.0581732,"lat":48.4095789,"elevation":[]}]},{"startTime":1522701480000,"endTime":1522701582000,"departureDelay":0,"arrivalDelay":0,"realTime":false,"distance":820.6860421759695,"pathway":false,"mode":"BUS","route":"12","agencyName":"Société de Transport du Saguenay","agencyUrl":"http://ville.saguenay.ca/fr/services-aux-citoyens/transport-sts","agencyTimeZoneOffset":-14400000,"routeColor":"556B2F","routeType":3,"routeId":"1:12","routeTextColor":"FFFFFF","interlineWithPreviousLeg":false,"tripBlockId":"28","headsign":"Terminus UQAC","agencyId":"0","tripId":"1:218045","serviceDate":"20180402","from":{"name":"Champs-Élysées / Chopin","stopId":"1:584","stopCode":"584","lon":-71.058412,"lat":48.409805,"arrival":1522701479000,"departure":1522701480000,"zoneId":"NA","stopIndex":29,"stopSequence":30,"vertexType":"TRANSIT"},"to":{"name":"Champs-Élysées / Bégin","stopId":"1:587","stopCode":"587","lon":-71.064119,"lat":48.41589,"arrival":1522701582000,"departure":1522701583000,"zoneId":"NA","stopIndex":32,"stopSequence":33,"vertexType":"TRANSIT"},"legGeometry":{"points":"g`nfHbrupLiHhDaGz@uSl[","length":4},"routeShortName":"12","routeLongName":"Rivière du Moulin","rentedBike":false,"transitLeg":true,"duration":102.0,"steps":[]},{"startTime":1522701583000,"endTime":1522701808000,"departureDelay":0,"arrivalDelay":0,"realTime":false,"distance":285.60800000000006,"pathway":false,"mode":"WALK","route":"","agencyTimeZoneOffset":-14400000,"interlineWithPreviousLeg":false,"from":{"name":"Champs-Élysées / Bégin","stopId":"1:587","stopCode":"587","lon":-71.064119,"lat":48.41589,"arrival":1522701582000,"departure":1522701583000,"zoneId":"NA","stopIndex":32,"stopSequence":33,"vertexType":"TRANSIT"},"to":{"name":"Destination","lon":-71.067685,"lat":48.416848,"arrival":1522701808000,"orig":"","vertexType":"NORMAL"},"legGeometry":{"points":"weofHfvvpLk@jBn@l@kAdDGReAvCu@xBCF","length":8},"rentedBike":false,"transitLeg":false,"duration":225.0,"steps":[{"distance":46.285,"relativeDirection":"DEPART","streetName":"Rue des Champs-Élysées","absoluteDirection":"NORTHWEST","stayOn":false,"area":false,"bogusName":false,"lon":-71.06419656014225,"lat":48.415806692432525,"elevation":[]},{"distance":30.953,"relativeDirection":"LEFT","streetName":"Rue Bégin","absoluteDirection":"SOUTHWEST","stayOn":false,"area":false,"bogusName":false,"lon":-71.0647342,"lat":48.416021,"elevation":[]},{"distance":208.37,"relativeDirection":"RIGHT","streetName":"Rue Dubé","absoluteDirection":"NORTHWEST","stayOn":false,"area":false,"bogusName":false,"lon":-71.06496530000001,"lat":48.4157887,"elevation":[]}]}],"tooSloped":false}]},"debugOutput":{"precalculationTime":39,"pathCalculationTime":28,"pathTimes":[19,3,6],"renderingTime":1,"totalTime":68,"timedOut":false},"elevationMetadata":{"ellipsoidToGeoidDifference":-28.885904201182168,"geoidElevation":false}}