{"requestParameters":{"date":"2018/04/02","walkSpeed":"1.33","walkReluctance":"2.0","fromPlace":"48.40969,-71.05486799","maxWalkDistance":"3000","waitReluctance":"1.0","carSpeed":"33","numItineraries":"3","waitAtBeginningFactor":"0.4","mode":"TRANSIT,WALK","ignoreRealtimeUpdates":"false","stairsReluctance":"2.0","toPlace":"48.412167,-71.05227399","time":"12:11:00"},"plan":{"date":1522685460000,"from":{"name":"Origin","lon":-71.05486799,"lat":48.40969,"orig":"","vertexType":"NORMAL"},"to":{"name":"Destination","lon":-71.05227399,"lat":48.412167,"orig":"","vertexType":"NORMAL"},"itineraries":[{"duration":618,"startTime":1522685460000,"endTime":1522686078000,"walkTime":618,"transitTime":0,"waitingTime":0,"walkDistance":787.8905789415094,"walkLimitExceeded":false,"elevationLost":0.0,"elevationGained":0.0,"transfers":0,"legs":[{"startTime":1522685460000,"endTime":1522686078000,"departureDelay":0,"arrivalDelay":0,"realTime":false,"distance":787.7089999999998,"pathway":false,"mode":"WALK","route":"","agencyTimeZoneOffset":-14400000,"interlineWithPreviousLeg":false,"from":{"name":"Origin","lon":-71.05486799,"lat":48.40969,"departure":1522685460000,"orig":"","vertexType":"NORMAL"},"to":{"name":"Destination","lon":-71.05227399,"lat":48.412167,"arrival":1522686078000,"orig":"","vertexType":"NORMAL"},"legGeometry":{"points":"kanfHv_upL]_@oF|NyAFGHcAuAzAgDv@mBBaAMuAu@yCm@aC?uDMqAg@c@","length":15},"rentedBike":false,"transitLeg":false,"duration":618.0,"steps":[{"distance":20.223,"relativeDirection":"DEPART","streetName":"Rue Mozart","absoluteDirection":"NORTHEAST","stayOn":false,"area":false,"bogusName":false,"lon":-71.05547871483593,"lat":48.4099861397592,"elevation":[]},{"distance":230.742,"relativeDirection":"LEFT","streetName":"Rue Massenet","absoluteDirection":"NORTHWEST","stayOn":false,"area":false,"bogusName":false,"lon":-71.05531710000001,"lat":48.410133,"elevation":[]},{"distance":105.095,"relativeDirection":"RIGHT","streetName":"path","absoluteDirection":"NORTH","stayOn":false,"area":false,"bogusName":true,"lon":-71.0578622,"lat":48.411338,"elevation":[]},{"distance":431.649,"relativeDirection":"RIGHT","streetName":"Rue Thérèse-Casgrain","absoluteDirection":"SOUTHEAST","stayOn":false,"area":false,"bogusName":false,"lon":-71.0575299,"lat":48.412162300000006,"elevation":[]}]}],"tooSloped":false},{"duration":739,"startTime":1522685707000,"endTime":1522686446000,"walkTime":613,"transitTime":124,"waitingTime":2,"walkDistance":785.9849097707607,"walkLimitExceeded":false,"elevationLost":0.0,"elevationGained":0.0,"transfers":0,"legs":[{"startTime":1522685707000,"endTime":1522685898000,"departureDelay":0,"arrivalDelay":0,"realTime":false,"distance":243.95100000000002,"pathway":false,"mode":"WALK","route":"","agencyTimeZoneOffset":-14400000,"interlineWithPreviousLeg":false,"from":{"name":"Origin","lon":-71.05486799,"lat":48.40969,"departure":1522685707000,"orig":"","vertexType":"NORMAL"},"to":{"name":"Place du Saguenay (Champs-Élysées)","stopId":"1:571","stopCode":"571","lon":-71.055824,"lat":48.408307,"arrival":1522685898000,"departure":1522685899000,"zoneId":"NA","stopIndex":12,"stopSequence":13,"vertexType":"TRANSIT"},"legGeometry":{"points":"kanfHv_upL|AhB`ClCd@aAL]Na@\\}@","length":7},"rentedBike":false,"transitLeg":false,"duration":191.0,"steps":[{"distance":154.33100000000002,"relativeDirection":"DEPART","streetName":"Rue Mozart","absoluteDirection":"SOUTHWEST","stayOn":false,"area":false,"bogusName":false,"lon":-71.05547871483593,"lat":48.4099861397592,"elevation":[]},{"distance":89.62,"relativeDirection":"LEFT","streetName":"Rue des Champs-Élysées","absoluteDirection":"SOUTHEAST","stayOn":false,"area":false,"bogusName":false,"lon":-71.05671190000001,"lat":48.4088653,"elevation":[]}]},{"startTime":1522685899000,"endTime":1522686023000,"departureDelay":0,"arrivalDelay":0,"realTime":false,"distance":815.2458266885396,"pathway":false,"mode":"BUS","route":"12","agencyName":"Société de Transport du Saguenay","agencyUrl":"http://ville.saguenay.ca/fr/services-aux-citoyens/transport-sts","agencyTimeZoneOffset":-14400000,"routeColor":"556B2F","routeType":3,"routeId":"1:12","routeTextColor":"FFFFFF","interlineWithPreviousLeg":false,"tripBlockId":"26","headsign":"Terminus Chicoutimi","agencyId":"0","tripId":"1:217975","serviceDate":"20180402","from":{"name":"Place du Saguenay (Champs-Élysées)","stopId":"1:571","stopCode":"571","lon":-71.055824,"lat":48.408307,"arrival":1522685898000,"departure":1522685899000,"zoneId":"NA","stopIndex":12,"stopSequence":13,"vertexType":"TRANSIT"},"to":{"name":"Sûreté du Québec (Roitelets / Lorenzo-Genest)","stopId":"1:195","stopCode":"195","lon":-71.048189,"lat":48.4095,"arrival":1522686023000,"departure":1522686024000,"zoneId":"NA","stopIndex":16,"stopSequence":17,"vertexType":"TRANSIT"},"legGeometry":{"points":"{vmfH|aupLxFoNlCyGa@yFYkD}CyA}KmF","length":7},"routeShortName":"12","routeLongName":"Rivière du Moulin","rentedBike":false,"transitLeg":true,"duration":124.0,"steps":[]},{"startTime":1522686024000,"endTime":1522686446000,"departureDelay":0,"arrivalDelay":0,"realTime":false,"distance":541.92,"pathway":false,"mode":"WALK","route":"","agencyTimeZoneOffset":-14400000,"interlineWithPreviousLeg":false,"from":{"name":"Sûreté du Québec (Roitelets / Lorenzo-Genest)","stopId":"1:195","stopCode":"195","lon":-71.048189,"lat":48.4095,"arrival":1522686023000,"departure":1522686024000,"zoneId":"NA","stopIndex":16,"stopSequence":17,"vertexType":"TRANSIT"},"to":{"name":"Destination","lon":-71.05227399,"lat":48.412167,"arrival":1522686446000,"orig":"","vertexType":"NORMAL"},"legGeometry":{"points":"o~mfHtrspLk@Y_Bw@KEe@JYLa@n@G^yBdHUn@}AlEO`@K\\gA|CHHh@f@","length":16},"rentedBike":false,"transitLeg":false,"duration":422.0,"steps":[{"distance":90.97600000000001,"relativeDirection":"DEPART","streetName":"Rue Des Roitelets","absoluteDirection":"NORTH","stayOn":false,"area":false,"bogusName":false,"lon":-71.04826942089277,"lat":48.40952065789795,"elevation":[]},{"distance":62.949,"relativeDirection":"SLIGHTLY_LEFT","streetName":"link","absoluteDirection":"NORTH","stayOn":false,"area":false,"bogusName":true,"lon":-71.0478246,"lat":48.4102837,"elevation":[]},{"distance":353.506,"relativeDirection":"SLIGHTLY_LEFT","streetName":"Boulevard de l'Université","absoluteDirection":"NORTHWEST","stayOn":false,"area":false,"bogusName":false,"lon":-71.04819570000001,"lat":48.410774100000005,"elevation":[]},{"distance":34.489,"relativeDirection":"LEFT","streetName":"Rue Thérèse-Casgrain","absoluteDirection":"SOUTHWEST","stayOn":false,"area":false,"bogusName":false,"lon":-71.0522085,"lat":48.412505100000004,"elevation":[]}]}],"tooSloped":false}]},"debugOutput":{"precalculationTime":53,"pathCalculationTime":28,"pathTimes":[14,7,7],"renderingTime":0,"totalTime":81,"timedOut":false},"elevationMetadata":{"ellipsoidToGeoidDifference":-28.885904201182168,"geoidElevation":false}}