{"requestParameters":{"date":"2018/04/02","walkSpeed":"1.33","walkReluctance":"2.0","fromPlace":"48.400927,-71.06106699","maxWalkDistance":"3000","waitReluctance":"1.0","carSpeed":"33","numItineraries":"3","waitAtBeginningFactor":"0.4","mode":"TRANSIT,WALK","ignoreRealtimeUpdates":"false","stairsReluctance":"2.0","toPlace":"48.397484,-71.055378","time":"15:10:00"},"plan":{"date":1522696200000,"from":{"name":"Origin","lon":-71.06106699,"lat":48.400927,"orig":"","vertexType":"NORMAL"},"to":{"name":"Destination","lon":-71.055378,"lat":48.397484,"orig":"","vertexType":"NORMAL"},"itineraries":[{"duration":670,"startTime":1522696200000,"endTime":1522696870000,"walkTime":670,"transitTime":0,"waitingTime":0,"walkDistance":866.4877443577483,"walkLimitExceeded":false,"elevationLost":0.0,"elevationGained":0.0,"transfers":0,"legs":[{"startTime":1522696200000,"endTime":1522696870000,"departureDelay":0,"arrivalDelay":0,"realTime":false,"distance":866.39,"pathway":false,"mode":"WALK","route":"","agencyTimeZoneOffset":-14400000,"interlineWithPreviousLeg":false,"from":{"name":"Origin","lon":-71.06106699,"lat":48.400927,"departure":1522696200000,"orig":"","vertexType":"NORMAL"},"to":{"name":"Destination","lon":-71.055378,"lat":48.397484,"arrival":1522696870000,"orig":"","vertexType":"NORMAL"},"legGeometry":{"points":"}ilfHnevpLoCgCx@}Cl@gAr@_BVoAj@mBFLxFhFN_@HWn@aB|AaE??Na@j@yArCqHPe@","length":18},"rentedBike":false,"transitLeg":false,"duration":670.0,"steps":[{"distance":94.361,"relativeDirection":"DEPART","streetName":"Boulevard Talbot","absoluteDirection":"NORTHEAST","stayOn":false,"area":false,"bogusName":false,"lon":-71.06151515269656,"lat":48.40111277709502,"elevation":[]},{"distance":229.14,"relativeDirection":"RIGHT","streetName":"path","absoluteDirection":"SOUTHEAST","stayOn":false,"area":false,"bogusName":true,"lon":-71.0608382,"lat":48.401832600000006,"elevation":[]},{"distance":170.511,"relativeDirection":"RIGHT","streetName":"Rue des Grands-Ducs","absoluteDirection":"SOUTHWEST","stayOn":false,"area":false,"bogusName":false,"lon":-71.05825320000001,"lat":48.4007172,"elevation":[]},{"distance":372.378,"relativeDirection":"LEFT","streetName":"Rue des Crécerelles","absoluteDirection":"SOUTHEAST","stayOn":false,"area":false,"bogusName":false,"lon":-71.05949000000001,"lat":48.3994237,"elevation":[]}]}],"tooSloped":false},{"duration":417,"startTime":1522697265000,"endTime":1522697682000,"walkTime":339,"transitTime":76,"waitingTime":2,"walkDistance":436.6453984943239,"walkLimitExceeded":false,"elevationLost":0.0,"elevationGained":0.0,"transfers":0,"legs":[{"startTime":1522697265000,"endTime":1522697590000,"departureDelay":0,"arrivalDelay":0,"realTime":false,"distance":418.61199999999997,"pathway":false,"mode":"WALK","route":"","agencyTimeZoneOffset":-14400000,"interlineWithPreviousLeg":false,"from":{"name":"Origin","lon":-71.06106699,"lat":48.400927,"departure":1522697265000,"orig":"","vertexType":"NORMAL"},"to":{"name":"Grands-Ducs / Pinsons","stopId":"1:381","stopCode":"381","lon":-71.057399,"lat":48.401355,"arrival":1522697590000,"departure":1522697591000,"zoneId":"NA","stopIndex":9,"stopSequence":10,"vertexType":"TRANSIT"},"legGeometry":{"points":"}ilfHnevpLoCgCx@}Cl@gAr@_BVoAj@mBg@y@[k@S_@a@m@","length":11},"rentedBike":false,"transitLeg":false,"duration":325.0,"steps":[{"distance":94.361,"relativeDirection":"DEPART","streetName":"Boulevard Talbot","absoluteDirection":"NORTHEAST","stayOn":false,"area":false,"bogusName":false,"lon":-71.06151515269656,"lat":48.40111277709502,"elevation":[]},{"distance":229.14,"relativeDirection":"RIGHT","streetName":"path","absoluteDirection":"SOUTHEAST","stayOn":false,"area":false,"bogusName":true,"lon":-71.0608382,"lat":48.401832600000006,"elevation":[]},{"distance":95.111,"relativeDirection":"LEFT","streetName":"Rue des Grands-Ducs","absoluteDirection":"NORTHEAST","stayOn":false,"area":false,"bogusName":false,"lon":-71.05825320000001,"lat":48.4007172,"elevation":[]}]},{"startTime":1522697591000,"endTime":1522697667000,"departureDelay":0,"arrivalDelay":0,"realTime":false,"distance":613.6971364778701,"pathway":false,"mode":"BUS","route":"200S","agencyName":"Société de Transport du Saguenay","agencyUrl":"http://ville.saguenay.ca/fr/services-aux-citoyens/transport-sts","agencyTimeZoneOffset":-14400000,"routeColor":"8B0000","routeType":3,"routeId":"1:200S","routeTextColor":"FFFFFF","interlineWithPreviousLeg":false,"tripBlockId":"53","headsign":"Roitelets / Talbot","agencyId":"0","tripId":"1:218472","serviceDate":"20180402","from":{"name":"Grands-Ducs / Pinsons","stopId":"1:381","stopCode":"381","lon":-71.057399,"lat":48.401355,"arrival":1522697590000,"departure":1522697591000,"zoneId":"NA","stopIndex":9,"stopSequence":10,"vertexType":"TRANSIT"},"to":{"name":"Crécerelles (no. 586)","stopId":"1:1564","stopCode":"1564","lon":-71.055633,"lat":48.397526,"arrival":1522697667000,"departure":1522697668000,"zoneId":"NA","stopIndex":12,"stopSequence":13,"vertexType":"TRANSIT"},"legGeometry":{"points":"iklfHnkupLVVRZb@bA^n@Zb@n@r@lAjAfBtBZu@vCoHBGTs@XiARg@`CqG","length":16},"routeShortName":"200S","routeLongName":"Séminaire - Quartier des Oiseaux","rentedBike":false,"transitLeg":true,"duration":76.0,"steps":[]},{"startTime":1522697668000,"endTime":1522697682000,"departureDelay":0,"arrivalDelay":0,"realTime":false,"distance":17.974,"pathway":false,"mode":"WALK","route":"","agencyTimeZoneOffset":-14400000,"interlineWithPreviousLeg":false,"from":{"name":"Crécerelles (no. 586)","stopId":"1:1564","stopCode":"1564","lon":-71.055633,"lat":48.397526,"arrival":1522697667000,"departure":1522697668000,"zoneId":"NA","stopIndex":12,"stopSequence":13,"vertexType":"TRANSIT"},"to":{"name":"Destination","lon":-71.055378,"lat":48.397484,"arrival":1522697682000,"orig":"","vertexType":"NORMAL"},"legGeometry":{"points":"sskfHp`upLPe@","length":2},"rentedBike":false,"transitLeg":false,"duration":14.0,"steps":[{"distance":17.974,"relativeDirection":"DEPART","streetName":"Rue des Crécerelles","absoluteDirection":"SOUTHEAST","stayOn":false,"area":false,"bogusName":false,"lon":-71.05560802181735,"lat":48.3975488182412,"elevation":[]}]}],"tooSloped":false},{"duration":773,"startTime":1522697472000,"endTime":1522698245000,"walkTime":642,"transitTime":129,"waitingTime":2,"walkDistance":830.5780676666861,"walkLimitExceeded":false,"elevationLost":0.0,"elevationGained":0.0,"transfers":0,"legs":[{"startTime":1522697472000,"endTime":1522697758000,"departureDelay":0,"arrivalDelay":0,"realTime":false,"distance":370.116,"pathway":false,"mode":"WALK","route":"","agencyTimeZoneOffset":-14400000,"interlineWithPreviousLeg":false,"from":{"name":"Origin","lon":-71.06106699,"lat":48.400927,"departure":1522697472000,"orig":"","vertexType":"NORMAL"},"to":{"name":"Saguenéens  / Bach","stopId":"1:575","stopCode":"575","lon":-71.061104,"lat":48.403689,"arrival":1522697758000,"departure":1522697759000,"zoneId":"NA","stopIndex":23,"stopSequence":24,"vertexType":"TRANSIT"},"legGeometry":{"points":"}ilfHnevpLoCgC{DqDMKWWADKVyBvF","length":8},"rentedBike":false,"transitLeg":false,"duration":286.0,"steps":[{"distance":243.132,"relativeDirection":"DEPART","streetName":"Boulevard Talbot","absoluteDirection":"NORTHEAST","stayOn":false,"area":false,"bogusName":false,"lon":-71.06151515269656,"lat":48.40111277709502,"elevation":[]},{"distance":126.98400000000001,"relativeDirection":"LEFT","streetName":"Rue des Saguenéens","absoluteDirection":"NORTHWEST","stayOn":false,"area":false,"bogusName":false,"lon":-71.0597697,"lat":48.402967000000004,"elevation":[]}]},{"startTime":1522697759000,"endTime":1522697888000,"departureDelay":0,"arrivalDelay":0,"realTime":false,"distance":970.4607730091302,"pathway":false,"mode":"BUS","route":"15","agencyName":"Société de Transport du Saguenay","agencyUrl":"http://ville.saguenay.ca/fr/services-aux-citoyens/transport-sts","agencyTimeZoneOffset":-14400000,"routeColor":"FF00FF","routeType":3,"routeId":"1:15","routeTextColor":"FFFFFF","interlineWithPreviousLeg":false,"tripBlockId":"33","headsign":"Talbot / Barrette","agencyId":"0","tripId":"1:218189","serviceDate":"20180402","from":{"name":"Saguenéens  / Bach","stopId":"1:575","stopCode":"575","lon":-71.061104,"lat":48.403689,"arrival":1522697758000,"departure":1522697759000,"zoneId":"NA","stopIndex":23,"stopSequence":24,"vertexType":"TRANSIT"},"to":{"name":"Engoulevents / Bernaches","stopId":"1:1509","stopCode":"1509","lon":-71.051416,"lat":48.399414,"arrival":1522697888000,"departure":1522697889000,"zoneId":"NA","stopIndex":26,"stopSequence":27,"vertexType":"TRANSIT"},"legGeometry":{"points":"ezlfHvbvpLtC{FnBoLbCaO?qLa@uJzF`ApF~@","length":8},"routeShortName":"15","routeLongName":"Term. Chic / Costco","rentedBike":false,"transitLeg":true,"duration":129.0,"steps":[]},{"startTime":1522697889000,"endTime":1522698245000,"departureDelay":0,"arrivalDelay":0,"realTime":false,"distance":460.38500000000005,"pathway":false,"mode":"WALK","route":"","agencyTimeZoneOffset":-14400000,"interlineWithPreviousLeg":false,"from":{"name":"Engoulevents / Bernaches","stopId":"1:1509","stopCode":"1509","lon":-71.051416,"lat":48.399414,"arrival":1522697888000,"departure":1522697889000,"zoneId":"NA","stopIndex":26,"stopSequence":27,"vertexType":"TRANSIT"},"to":{"name":"Destination","lon":-71.055378,"lat":48.397484,"arrival":1522698245000,"orig":"","vertexType":"NORMAL"},"legGeometry":{"points":"i_lfHlftpLRNl@n@lBxBdBfBLLpCzCd@p@^l@oBhFCF","length":11},"rentedBike":false,"transitLeg":false,"duration":356.0,"steps":[{"distance":350.10600000000005,"relativeDirection":"DEPART","streetName":"Rue des Engoulevents","absoluteDirection":"SOUTHWEST","stayOn":false,"area":false,"bogusName":false,"lon":-71.051428970226,"lat":48.39941817689361,"elevation":[]},{"distance":110.279,"relativeDirection":"RIGHT","streetName":"Rue des Crécerelles","absoluteDirection":"NORTHWEST","stayOn":false,"area":false,"bogusName":false,"lon":-71.0542028,"lat":48.3968707,"elevation":[]}]}],"tooSloped":false}]},"debugOutput":{"precalculationTime":38,"pathCalculationTime":27,"pathTimes":[15,4,8],"renderingTime":0,"totalTime":65,"timedOut":false},"elevationMetadata":{"ellipsoidToGeoidDifference":-28.885904201182168,"geoidElevation":false}}