{"requestParameters":{"date":"2018/04/02","walkSpeed":"1.33","walkReluctance":"2.0","fromPlace":"48.423311,-71.040576","maxWalkDistance":"3000","waitReluctance":"1.0","carSpeed":"33","numItineraries":"3","waitAtBeginningFactor":"0.4","mode":"TRANSIT,WALK","ignoreRealtimeUpdates":"false","stairsReluctance":"2.0","toPlace":"48.40368,-71.09861999","time":"12:45:00"},"plan":{"date":1522687500000,"from":{"name":"Origin","lon":-71.040576,"lat":48.423311,"orig":"","vertexType":"NORMAL"},"to":{"name":"Destination","lon":-71.09861999,"lat":48.40368,"orig":"","vertexType":"NORMAL"},"itineraries":[{"duration":1929,"startTime":1522688317000,"endTime":1522690246000,"walkTime":231,"transitTime":1396,"waitingTime":302,"walkDistance":286.8653233057111,"walkLimitExceeded":false,"elevationLost":0.0,"elevationGained":0.0,"transfers":1,"legs":[{"startTime":1522688317000,"endTime":1522688422000,"departureDelay":0,"arrivalDelay":0,"realTime":false,"distance":124.53,"pathway":false,"mode":"WALK","route":"","agencyTimeZoneOffset":-14400000,"interlineWithPreviousLeg":false,"from":{"name":"Origin","lon":-71.040576,"lat":48.423311,"departure":1522688317000,"orig":"","vertexType":"NORMAL"},"to":{"name":"École Apostolique","stopId":"1:251","stopCode":"251","lon":-71.039839,"lat":48.42374,"arrival":1522688422000,"departure":1522688423000,"zoneId":"NA","stopIndex":10,"stopSequence":11,"vertexType":"TRANSIT"},"legGeometry":{"points":"atpfHlbrpLTi@FWLQeBa@k@M@G","length":7},"rentedBike":false,"transitLeg":false,"duration":105.0,"steps":[{"distance":121.876,"relativeDirection":"DEPART","streetName":"service road","absoluteDirection":"SOUTHEAST","stayOn":false,"area":false,"bogusName":true,"lon":-71.0405439,"lat":48.423211900000005,"elevation":[]},{"distance":2.654,"relativeDirection":"RIGHT","streetName":"Rue Jacques Cartier","absoluteDirection":"EAST","stayOn":false,"area":false,"bogusName":false,"lon":-71.0398826,"lat":48.4237216,"elevation":[]}]},{"startTime":1522688423000,"endTime":1522689000000,"departureDelay":0,"arrivalDelay":0,"realTime":false,"distance":2511.128594145138,"pathway":false,"mode":"BUS","route":"10","agencyName":"Société de Transport du Saguenay","agencyUrl":"http://ville.saguenay.ca/fr/services-aux-citoyens/transport-sts","agencyTimeZoneOffset":-14400000,"routeColor":"0000FF","routeType":3,"routeId":"1:10","routeTextColor":"FFFFFF","interlineWithPreviousLeg":false,"tripBlockId":"28","headsign":"Terminus Chicoutimi","agencyId":"0","tripId":"1:218038","serviceDate":"20180402","from":{"name":"École Apostolique","stopId":"1:251","stopCode":"251","lon":-71.039839,"lat":48.42374,"arrival":1522688422000,"departure":1522688423000,"zoneId":"NA","stopIndex":10,"stopSequence":11,"vertexType":"TRANSIT"},"to":{"name":"Terminus Chicoutimi","stopId":"1:1289","stopCode":"1289","lon":-71.066163,"lat":48.428677,"arrival":1522689000000,"departure":1522689300000,"zoneId":"NA","stopIndex":21,"stopSequence":22,"vertexType":"TRANSIT"},"legGeometry":{"points":"ewpfH`~qpLKdAi@pGAr@GXMRG^Bb@`CV~IxB~ElAhChAsBtFaEvK_BhE}AfD{BdByBh@iC]oDq@YbF_Ea@AAuEg@MDENF|GAjJDzBDdDLdHFbCo@RUFRbFG|FApAMvFa@tPOnHqBOIjDc@Q","length":43},"routeShortName":"10","routeLongName":"Notre-Dame du Saguenay","rentedBike":false,"transitLeg":true,"duration":577.0,"steps":[]},{"startTime":1522689300000,"endTime":1522690119000,"departureDelay":0,"arrivalDelay":0,"realTime":false,"distance":4123.89641559421,"pathway":false,"mode":"BUS","route":"11","agencyName":"Société de Transport du Saguenay","agencyUrl":"http://ville.saguenay.ca/fr/services-aux-citoyens/transport-sts","agencyTimeZoneOffset":-14400000,"routeColor":"FF0000","routeType":3,"routeId":"1:11","routeTextColor":"FFFFFF","interlineWithPreviousLeg":false,"tripBlockId":"36","headsign":"Boul.Royaume/St-Pierre","agencyId":"0","tripId":"1:218290","serviceDate":"20180402","from":{"name":"Terminus Chicoutimi","stopId":"1:1289","stopCode":"1289","lon":-71.066163,"lat":48.428677,"arrival":1522689000000,"departure":1522689300000,"zoneId":"NA","stopIndex":0,"stopSequence":1,"vertexType":"TRANSIT"},"to":{"name":"boul. St-Paul (no. 1600)","stopId":"1:1932","stopCode":"1932","lon":-71.09929,"lat":48.402192,"arrival":1522690119000,"departure":1522690120000,"zoneId":"NA","stopIndex":16,"stopSequence":17,"vertexType":"TRANSIT"},"legGeometry":{"points":"evqfHzcwpLk@?UhKfIh@dKp@GnDIfDOtEE~@Ff@x@rEF~@CbAALO~ADRNJXBr@DfGRPBPJLN@@FPFTBX?TE`BhBR@?J@NELKFOlAiDL[bA`AfIjIbGdGzDzD`A~An@`ApApBpClEvJrOR\\bAfBLa@t@]LjAVvAVbAVv@^bAXj@b@t@xEtGh@r@n@x@FDjA|AlBpCnJ|NNTX`@V`@eCtHpFjH{FhPcB|Ft@|CEAdCnEdHKrBz@lGiQ|CyI~IrJ","length":79},"routeShortName":"11","routeLongName":"Chic/Faubourg via St-Paul","rentedBike":false,"transitLeg":true,"duration":819.0,"steps":[]},{"startTime":1522690120000,"endTime":1522690246000,"departureDelay":0,"arrivalDelay":0,"realTime":false,"distance":162.256,"pathway":false,"mode":"WALK","route":"","agencyTimeZoneOffset":-14400000,"interlineWithPreviousLeg":false,"from":{"name":"boul. St-Paul (no. 1600)","stopId":"1:1932","stopCode":"1932","lon":-71.09929,"lat":48.402192,"arrival":1522690119000,"departure":1522690120000,"zoneId":"NA","stopIndex":16,"stopSequence":17,"vertexType":"TRANSIT"},"to":{"name":"Destination","lon":-71.09861999,"lat":48.40368,"arrival":1522690246000,"orig":"","vertexType":"NORMAL"},"legGeometry":{"points":"iplfHxp}pLIKg@k@_AeA{@eAg@i@SW","length":7},"rentedBike":false,"transitLeg":false,"duration":126.0,"steps":[{"distance":162.256,"relativeDirection":"DEPART","streetName":"Boulevard Saint-Paul","absoluteDirection":"NORTHEAST","stayOn":false,"area":false,"bogusName":false,"lon":-71.09916942737614,"lat":48.40213288118003,"elevation":[]}]}],"tooSloped":false},{"duration":2608,"startTime":1522688653000,"endTime":1522691261000,"walkTime":1581,"transitTime":1025,"waitingTime":2,"walkDistance":2018.9379849529196,"walkLimitExceeded":false,"elevationLost":0.0,"elevationGained":0.0,"transfers":0,"legs":[{"startTime":1522688653000,"endTime":1522689694000,"departureDelay":0,"arrivalDelay":0,"realTime":false,"distance":1318.229,"pathway":false,"mode":"WALK","route":"","agencyTimeZoneOffset":-14400000,"interlineWithPreviousLeg":false,"from":{"name":"Origin","lon":-71.040576,"lat":48.423311,"departure":1522688653000,"orig":"","vertexType":"NORMAL"},"to":{"name":"Résidence de l' UQAC","stopId":"1:64","stopCode":"64","lon":-71.052396,"lat":48.421595,"arrival":1522689694000,"departure":1522689695000,"zoneId":"NA","stopIndex":7,"stopSequence":8,"vertexType":"TRANSIT"},"legGeometry":{"points":"atpfHlbrpLTi@FWLQeBa@BRa@xDEBG?CA]IQtBAbAGNGRCBCDAF?F?D@H?~@_@fDObBQrBIv@YvC_AfLrAPTFJBJLBXEd@e@bGjAZ?^DbABDp@XLFJHd@ZJFXNV^h@l@ZVb@`@nAlAVPRPb@^TRLJTT","length":56},"rentedBike":false,"transitLeg":false,"duration":1041.0,"steps":[{"distance":202.219,"relativeDirection":"DEPART","streetName":"service road","absoluteDirection":"SOUTHEAST","stayOn":false,"area":false,"bogusName":true,"lon":-71.0405439,"lat":48.423211900000005,"elevation":[]},{"distance":69.751,"relativeDirection":"LEFT","streetName":"Rue Jacques Cartier","absoluteDirection":"WEST","stayOn":false,"area":false,"bogusName":false,"lon":-71.0409491,"lat":48.423890300000004,"elevation":[]},{"distance":443.078,"relativeDirection":"SLIGHTLY_RIGHT","streetName":"Rue Jacques-Cartier Est","absoluteDirection":"NORTHWEST","stayOn":false,"area":false,"bogusName":false,"lon":-71.0418774,"lat":48.423999300000006,"elevation":[]},{"distance":197.333,"relativeDirection":"LEFT","streetName":"Rue Duberger","absoluteDirection":"SOUTH","stayOn":false,"area":false,"bogusName":false,"lon":-71.047663,"lat":48.424941800000006,"elevation":[]},{"distance":43.677,"relativeDirection":"LEFT","streetName":"Chemin Sydenham","absoluteDirection":"SOUTH","stayOn":false,"area":false,"bogusName":false,"lon":-71.0495042,"lat":48.4244963,"elevation":[]},{"distance":37.224000000000004,"relativeDirection":"RIGHT","streetName":"road","absoluteDirection":"WEST","stayOn":false,"area":false,"bogusName":true,"lon":-71.0496408,"lat":48.424114100000004,"elevation":[]},{"distance":263.87899999999996,"relativeDirection":"LEFT","streetName":"road","absoluteDirection":"SOUTH","stayOn":true,"area":false,"bogusName":true,"lon":-71.0501431,"lat":48.4240852,"elevation":[]},{"distance":61.068,"relativeDirection":"CONTINUE","streetName":"Chemin Saint Thomas","absoluteDirection":"SOUTHWEST","stayOn":false,"area":false,"bogusName":false,"lon":-71.051902,"lat":48.4220343,"elevation":[]}]},{"startTime":1522689695000,"endTime":1522690720000,"departureDelay":0,"arrivalDelay":0,"realTime":false,"distance":5851.126701766691,"pathway":false,"mode":"BUS","route":"14","agencyName":"Société de Transport du Saguenay","agencyUrl":"http://ville.saguenay.ca/fr/services-aux-citoyens/transport-sts","agencyTimeZoneOffset":-14400000,"routeColor":"C0C000","routeType":3,"routeId":"1:14","routeTextColor":"000000","interlineWithPreviousLeg":false,"tripBlockId":"32","headsign":"Talbot / Barrette","agencyId":"0","tripId":"1:218160","serviceDate":"20180402","from":{"name":"Résidence de l' UQAC","stopId":"1:64","stopCode":"64","lon":-71.052396,"lat":48.421595,"arrival":1522689694000,"departure":1522689695000,"zoneId":"NA","stopIndex":7,"stopSequence":8,"vertexType":"TRANSIT"},"to":{"name":"Malraux / Pagnol","stopId":"1:1978","stopCode":"1978","lon":-71.093388,"lat":48.400416,"arrival":1522690720000,"departure":1522690721000,"zoneId":"NA","stopIndex":29,"stopSequence":30,"vertexType":"TRANSIT"},"legGeometry":{"points":"yipfHfltpLvAvAQv@~@z@dA`ATq@`E~DL`@E`Ex@hDd@`B}FtFaAzAm@xAe@jCa@nDiAbm@SpKM`H]vBhDVzCTcAvCO^bEbEzK`LfBeEtK`KhAdAnCbCvBpCNR~BxAxBf@z@h@vAz@z@{DrCoITTlElEtAnB`@l@pFrD@?fDr@XgAjFuR\\yADm@b@gFd@_B`A}@tEvJBDvC`FtJ|LLNlClC|@^hCYVExCjCb@d@vE`F`BhB?pHaBhRqAbLK~@qBxFqB|FcC~GyC\\aDkD","length":74},"routeShortName":"14","routeLongName":"Coopérative","rentedBike":false,"transitLeg":true,"duration":1025.0,"steps":[]},{"startTime":1522690721000,"endTime":1522691261000,"departureDelay":0,"arrivalDelay":0,"realTime":false,"distance":700.415,"pathway":false,"mode":"WALK","route":"","agencyTimeZoneOffset":-14400000,"interlineWithPreviousLeg":false,"from":{"name":"Malraux / Pagnol","stopId":"1:1978","stopCode":"1978","lon":-71.093388,"lat":48.400416,"arrival":1522690720000,"departure":1522690721000,"zoneId":"NA","stopIndex":29,"stopSequence":30,"vertexType":"TRANSIT"},"to":{"name":"Destination","lon":-71.09861999,"lat":48.40368,"arrival":1522691261000,"orig":"","vertexType":"NORMAL"},"legGeometry":{"points":"selfHzl|pLkF{Fa@jAA?{EvMy@tBGPsCrHpA~An@r@","length":10},"rentedBike":false,"transitLeg":false,"duration":540.0,"steps":[{"distance":160.301,"relativeDirection":"DEPART","streetName":"Rue Malraux","absoluteDirection":"NORTHEAST","stayOn":false,"area":false,"bogusName":false,"lon":-71.09341079342245,"lat":48.40042668071038,"elevation":[]},{"distance":449.30899999999997,"relativeDirection":"LEFT","streetName":"Boulevard Barrette","absoluteDirection":"NORTHWEST","stayOn":false,"area":false,"bogusName":false,"lon":-71.0921587,"lat":48.401604500000005,"elevation":[]},{"distance":90.805,"relativeDirection":"LEFT","streetName":"Boulevard Saint-Paul","absoluteDirection":"SOUTHWEST","stayOn":false,"area":false,"bogusName":false,"lon":-71.0971116,"lat":48.4039529,"elevation":[]}]}],"tooSloped":false},{"duration":1929,"startTime":1522690117000,"endTime":1522692046000,"walkTime":231,"transitTime":1396,"waitingTime":302,"walkDistance":286.8653233057111,"walkLimitExceeded":false,"elevationLost":0.0,"elevationGained":0.0,"transfers":1,"legs":[{"startTime":1522690117000,"endTime":1522690222000,"departureDelay":0,"arrivalDelay":0,"realTime":false,"distance":124.53,"pathway":false,"mode":"WALK","route":"","agencyTimeZoneOffset":-14400000,"interlineWithPreviousLeg":false,"from":{"name":"Origin","lon":-71.040576,"lat":48.423311,"departure":1522690117000,"orig":"","vertexType":"NORMAL"},"to":{"name":"École Apostolique","stopId":"1:251","stopCode":"251","lon":-71.039839,"lat":48.42374,"arrival":1522690222000,"departure":1522690223000,"zoneId":"NA","stopIndex":10,"stopSequence":11,"vertexType":"TRANSIT"},"legGeometry":{"points":"atpfHlbrpLTi@FWLQeBa@k@M@G","length":7},"rentedBike":false,"transitLeg":false,"duration":105.0,"steps":[{"distance":121.876,"relativeDirection":"DEPART","streetName":"service road","absoluteDirection":"SOUTHEAST","stayOn":false,"area":false,"bogusName":true,"lon":-71.0405439,"lat":48.423211900000005,"elevation":[]},{"distance":2.654,"relativeDirection":"RIGHT","streetName":"Rue Jacques Cartier","absoluteDirection":"EAST","stayOn":false,"area":false,"bogusName":false,"lon":-71.0398826,"lat":48.4237216,"elevation":[]}]},{"startTime":1522690223000,"endTime":1522690800000,"departureDelay":0,"arrivalDelay":0,"realTime":false,"distance":2511.128594145138,"pathway":false,"mode":"BUS","route":"10","agencyName":"Société de Transport du Saguenay","agencyUrl":"http://ville.saguenay.ca/fr/services-aux-citoyens/transport-sts","agencyTimeZoneOffset":-14400000,"routeColor":"0000FF","routeType":3,"routeId":"1:10","routeTextColor":"FFFFFF","interlineWithPreviousLeg":false,"tripBlockId":"27","headsign":"Terminus Chicoutimi","agencyId":"0","tripId":"1:218013","serviceDate":"20180402","from":{"name":"École Apostolique","stopId":"1:251","stopCode":"251","lon":-71.039839,"lat":48.42374,"arrival":1522690222000,"departure":1522690223000,"zoneId":"NA","stopIndex":10,"stopSequence":11,"vertexType":"TRANSIT"},"to":{"name":"Terminus Chicoutimi","stopId":"1:1289","stopCode":"1289","lon":-71.066163,"lat":48.428677,"arrival":1522690800000,"departure":1522691100000,"zoneId":"NA","stopIndex":21,"stopSequence":22,"vertexType":"TRANSIT"},"legGeometry":{"points":"ewpfH`~qpLKdAi@pGAr@GXMRG^Bb@`CV~IxB~ElAhChAsBtFaEvK_BhE}AfD{BdByBh@iC]oDq@YbF_Ea@AAuEg@MDENF|GAjJDzBDdDLdHFbCo@RUFRbFG|FApAMvFa@tPOnHqBOIjDc@Q","length":43},"routeShortName":"10","routeLongName":"Notre-Dame du Saguenay","rentedBike":false,"transitLeg":true,"duration":577.0,"steps":[]},{"startTime":1522691100000,"endTime":1522691919000,"departureDelay":0,"arrivalDelay":0,"realTime":false,"distance":4123.89641559421,"pathway":false,"mode":"BUS","route":"11","agencyName":"Société de Transport du Saguenay","agencyUrl":"http://ville.saguenay.ca/fr/services-aux-citoyens/transport-sts","agencyTimeZoneOffset":-14400000,"routeColor":"FF0000","routeType":3,"routeId":"1:11","routeTextColor":"FFFFFF","interlineWithPreviousLeg":false,"tripBlockId":"35","headsign":"Boul.Royaume/St-Pierre","agencyId":"0","tripId":"1:218256","serviceDate":"20180402","from":{"name":"Terminus Chicoutimi","stopId":"1:1289","stopCode":"1289","lon":-71.066163,"lat":48.428677,"arrival":1522690800000,"departure":1522691100000,"zoneId":"NA","stopIndex":0,"stopSequence":1,"vertexType":"TRANSIT"},"to":{"name":"boul. St-Paul (no. 1600)","stopId":"1:1932","stopCode":"1932","lon":-71.09929,"lat":48.402192,"arrival":1522691919000,"departure":1522691920000,"zoneId":"NA","stopIndex":16,"stopSequence":17,"vertexType":"TRANSIT"},"legGeometry":{"points":"evqfHzcwpLk@?UhKfIh@dKp@GnDIfDOtEE~@Ff@x@rEF~@CbAALO~ADRNJXBr@DfGRPBPJLN@@FPFTBX?TE`BhBR@?J@NELKFOlAiDL[bA`AfIjIbGdGzDzD`A~An@`ApApBpClEvJrOR\\bAfBLa@t@]LjAVvAVbAVv@^bAXj@b@t@xEtGh@r@n@x@FDjA|AlBpCnJ|NNTX`@V`@eCtHpFjH{FhPcB|Ft@|CEAdCnEdHKrBz@lGiQ|CyI~IrJ","length":79},"routeShortName":"11","routeLongName":"Chic/Faubourg via St-Paul","rentedBike":false,"transitLeg":true,"duration":819.0,"steps":[]},{"startTime":1522691920000,"endTime":1522692046000,"departureDelay":0,"arrivalDelay":0,"realTime":false,"distance":162.256,"pathway":false,"mode":"WALK","route":"","agencyTimeZoneOffset":-14400000,"interlineWithPreviousLeg":false,"from":{"name":"boul. St-Paul (no. 1600)","stopId":"1:1932","stopCode":"1932","lon":-71.09929,"lat":48.402192,"arrival":1522691919000,"departure":1522691920000,"zoneId":"NA","stopIndex":16,"stopSequence":17,"vertexType":"TRANSIT"},"to":{"name":"Destination","lon":-71.09861999,"lat":48.40368,"arrival":1522692046000,"orig":"","vertexType":"NORMAL"},"legGeometry":{"points":"iplfHxp}pLIKg@k@_AeA{@eAg@i@SW","length":7},"rentedBike":false,"transitLeg":false,"duration":126.0,"steps":[{"distance":162.256,"relativeDirection":"DEPART","streetName":"Boulevard Saint-Paul","absoluteDirection":"NORTHEAST","stayOn":false,"area":false,"bogusName":false,"lon":-71.09916942737614,"lat":48.40213288118003,"elevation":[]}]}],"tooSloped":false}]},"debugOutput":{"precalculationTime":24,"pathCalculationTime":48,"pathTimes":[21,12,15],"renderingTime":0,"totalTime":72,"timedOut":false},"elevationMetadata":{"ellipsoidToGeoidDifference":-28.885904201182168,"geoidElevation":false}}