{"requestParameters":{"date":"2018/04/02","walkSpeed":"1.33","walkReluctance":"2.0","fromPlace":"48.403727,-71.056775","maxWalkDistance":"3000","waitReluctance":"1.0","carSpeed":"33","numItineraries":"3","waitAtBeginningFactor":"0.4","mode":"TRANSIT,WALK","ignoreRealtimeUpdates":"false","stairsReluctance":"2.0","toPlace":"48.406878,-71.047654","time":"16:30:00"},"plan":{"date":1522701000000,"from":{"name":"Origin","lon":-71.056775,"lat":48.403727,"orig":"","vertexType":"NORMAL"},"to":{"name":"Destination","lon":-71.047654,"lat":48.406878,"orig":"","vertexType":"NORMAL"},"itineraries":[{"duration":963,"startTime":1522701000000,"endTime":1522701963000,"walkTime":963,"transitTime":0,"waitingTime":0,"walkDistance":1193.2523533708306,"walkLimitExceeded":false,"elevationLost":0.0,"elevationGained":0.0,"transfers":0,"legs":[{"startTime":1522701000000,"endTime":1522701963000,"departureDelay":0,"arrivalDelay":0,"realTime":false,"distance":1192.8609999999999,"pathway":false,"mode":"WALK","route":"","agencyTimeZoneOffset":-14400000,"interlineWithPreviousLeg":false,"from":{"name":"Origin","lon":-71.056775,"lat":48.403727,"departure":1522701000000,"orig":"","vertexType":"NORMAL"},"to":{"name":"Destination","lon":-71.047654,"lat":48.406878,"arrival":1522701963000,"orig":"","vertexType":"NORMAL"},"legGeometry":{"points":"a{lfHviupLEEWWSQ[[lBuGj@wDVy@Ya@W]KOIIYWYY]YQSj@eBDM?q@A{Ad@Mq@uHFAg@}F^KBAc@{E{AZ{@@oAK_AeAg@i@CIeBiBkA~CSH","length":36},"rentedBike":false,"transitLeg":false,"duration":963.0,"steps":[{"distance":51.206,"relativeDirection":"DEPART","streetName":"service road","absoluteDirection":"NORTHEAST","stayOn":false,"area":false,"bogusName":false,"lon":-71.05707521889572,"lat":48.40385594353976,"elevation":[]},{"distance":216.737,"relativeDirection":"RIGHT","streetName":"path","absoluteDirection":"SOUTHEAST","stayOn":false,"area":false,"bogusName":true,"lon":-71.0566984,"lat":48.4042426,"elevation":[]},{"distance":117.997,"relativeDirection":"LEFT","streetName":"service road","absoluteDirection":"NORTHEAST","stayOn":true,"area":false,"bogusName":true,"lon":-71.05409610000001,"lat":48.4033573,"elevation":[]},{"distance":103.726,"relativeDirection":"RIGHT","streetName":"parking aisle","absoluteDirection":"SOUTHEAST","stayOn":true,"area":false,"bogusName":true,"lon":-71.0531682,"lat":48.4042175,"elevation":[]},{"distance":21.413,"relativeDirection":"RIGHT","streetName":"Rue des Champs-Élysées","absoluteDirection":"SOUTH","stayOn":false,"area":false,"bogusName":false,"lon":-71.0518792,"lat":48.4039711,"elevation":[]},{"distance":321.635,"relativeDirection":"LEFT","streetName":"path","absoluteDirection":"EAST","stayOn":false,"area":false,"bogusName":true,"lon":-71.0518035,"lat":48.4037852,"elevation":[]},{"distance":275.177,"relativeDirection":"LEFT","streetName":"Rue Cyrille-Vaillancourt","absoluteDirection":"NORTH","stayOn":false,"area":false,"bogusName":false,"lon":-71.04780290000001,"lat":48.4041926,"elevation":[]},{"distance":84.97,"relativeDirection":"LEFT","streetName":"Rue Basile-Villeneuve","absoluteDirection":"NORTHWEST","stayOn":false,"area":false,"bogusName":false,"lon":-71.046752,"lat":48.406406100000005,"elevation":[]}]}],"tooSloped":false},{"duration":972,"startTime":1522701398000,"endTime":1522702370000,"walkTime":850,"transitTime":120,"waitingTime":2,"walkDistance":1077.1901052553458,"walkLimitExceeded":false,"elevationLost":0.0,"elevationGained":0.0,"transfers":0,"legs":[{"startTime":1522701398000,"endTime":1522701599000,"departureDelay":0,"arrivalDelay":0,"realTime":false,"distance":250.65699999999998,"pathway":false,"mode":"WALK","route":"","agencyTimeZoneOffset":-14400000,"interlineWithPreviousLeg":false,"from":{"name":"Origin","lon":-71.056775,"lat":48.403727,"departure":1522701398000,"orig":"","vertexType":"NORMAL"},"to":{"name":"Place Royaume","stopId":"1:1801","stopCode":"1801","lon":-71.057017,"lat":48.405588,"arrival":1522701599000,"departure":1522701600000,"zoneId":"NA","stopIndex":10,"stopSequence":11,"vertexType":"TRANSIT"},"legGeometry":{"points":"a{lfHviupLEEWWSQ[[YWGGUCCCYU]Y[YYWq@tBa@zA","length":15},"rentedBike":false,"transitLeg":false,"duration":201.0,"steps":[{"distance":160.339,"relativeDirection":"DEPART","streetName":"service road","absoluteDirection":"NORTHEAST","stayOn":false,"area":false,"bogusName":false,"lon":-71.05707521889572,"lat":48.40385594353976,"elevation":[]},{"distance":90.318,"relativeDirection":"LEFT","streetName":"parking aisle","absoluteDirection":"NORTHWEST","stayOn":false,"area":false,"bogusName":true,"lon":-71.05600720000001,"lat":48.4050992,"elevation":[]}]},{"startTime":1522701600000,"endTime":1522701720000,"departureDelay":0,"arrivalDelay":0,"realTime":false,"distance":787.7561013906933,"pathway":false,"mode":"BUS","route":"175","agencyName":"Société de Transport du Saguenay","agencyUrl":"http://ville.saguenay.ca/fr/services-aux-citoyens/transport-sts","agencyTimeZoneOffset":-14400000,"routeColor":"FF00FF","routeType":3,"routeId":"1:175","routeTextColor":"FFFFFF","interlineWithPreviousLeg":false,"tripBlockId":"80","headsign":"Terminus Chicoutimi","agencyId":"0","tripId":"1:218655","serviceDate":"20180402","from":{"name":"Place Royaume","stopId":"1:1801","stopCode":"1801","lon":-71.057017,"lat":48.405588,"arrival":1522701599000,"departure":1522701600000,"zoneId":"NA","stopIndex":10,"stopSequence":11,"vertexType":"TRANSIT"},"to":{"name":"missingStopName","stopId":"1:1812","stopCode":"1812","lon":-71.051352,"lat":48.411592,"arrival":1522701720000,"departure":1522701721000,"zoneId":"NA","stopIndex":11,"stopSequence":12,"vertexType":"TRANSIT"},"legGeometry":{"points":"sfmfH`kupL_U_TcNgN","length":3},"routeShortName":"175","routeLongName":"Term. Chic / Costco","rentedBike":false,"transitLeg":true,"duration":120.0,"steps":[]},{"startTime":1522701721000,"endTime":1522702370000,"departureDelay":0,"arrivalDelay":0,"realTime":false,"distance":826.291,"pathway":false,"mode":"WALK","route":"","agencyTimeZoneOffset":-14400000,"interlineWithPreviousLeg":false,"from":{"name":"missingStopName","stopId":"1:1812","stopCode":"1812","lon":-71.051352,"lat":48.411592,"arrival":1522701720000,"departure":1522701721000,"zoneId":"NA","stopIndex":11,"stopSequence":12,"vertexType":"TRANSIT"},"to":{"name":"Destination","lon":-71.047654,"lat":48.406878,"arrival":1522702370000,"orig":"","vertexType":"NORMAL"},"legGeometry":{"points":"wknfHtftpLbDfDvAyDVoAZsBVm@L}@b@{Bt@}DpAp@t@eErDlBnA_D`Bx@XB??","length":16},"rentedBike":false,"transitLeg":false,"duration":649.0,"steps":[{"distance":110.331,"relativeDirection":"DEPART","streetName":"Boulevard Talbot","absoluteDirection":"SOUTHWEST","stayOn":false,"area":false,"bogusName":false,"lon":-71.05146038442705,"lat":48.41164093434771,"elevation":[]},{"distance":183.487,"relativeDirection":"LEFT","streetName":"path","absoluteDirection":"SOUTHEAST","stayOn":false,"area":false,"bogusName":true,"lon":-71.05230110000001,"lat":48.4108205,"elevation":[]},{"distance":149.905,"relativeDirection":"SLIGHTLY_LEFT","streetName":"Rue Lorenzo-Genest","absoluteDirection":"EAST","stayOn":false,"area":false,"bogusName":false,"lon":-71.0501637,"lat":48.4100046,"elevation":[]},{"distance":49.17,"relativeDirection":"RIGHT","streetName":"Rue Des Roitelets","absoluteDirection":"SOUTH","stayOn":false,"area":false,"bogusName":false,"lon":-71.0482898,"lat":48.409485700000005,"elevation":[]},{"distance":78.536,"relativeDirection":"LEFT","streetName":"Rue Gaudiose-Brassard","absoluteDirection":"EAST","stayOn":false,"area":false,"bogusName":false,"lon":-71.0485302,"lat":48.4090733,"elevation":[]},{"distance":107.983,"relativeDirection":"RIGHT","streetName":"Rue Joseph-Dandurand","absoluteDirection":"SOUTH","stayOn":false,"area":false,"bogusName":false,"lon":-71.0475432,"lat":48.408809500000004,"elevation":[]},{"distance":73.908,"relativeDirection":"LEFT","streetName":"Rue Adélard-Plourde","absoluteDirection":"SOUTHEAST","stayOn":false,"area":false,"bogusName":false,"lon":-71.0480905,"lat":48.4079089,"elevation":[]},{"distance":72.971,"relativeDirection":"RIGHT","streetName":"Rue Basile-Villeneuve","absoluteDirection":"SOUTH","stayOn":false,"area":false,"bogusName":false,"lon":-71.0472938,"lat":48.4075063,"elevation":[]}]}],"tooSloped":false},{"duration":844,"startTime":1522701688000,"endTime":1522702532000,"walkTime":759,"transitTime":83,"waitingTime":2,"walkDistance":949.743796983808,"walkLimitExceeded":false,"elevationLost":0.0,"elevationGained":0.0,"transfers":0,"legs":[{"startTime":1522701688000,"endTime":1522702139000,"departureDelay":0,"arrivalDelay":0,"realTime":false,"distance":562.739,"pathway":false,"mode":"WALK","route":"","agencyTimeZoneOffset":-14400000,"interlineWithPreviousLeg":false,"from":{"name":"Origin","lon":-71.056775,"lat":48.403727,"departure":1522701688000,"orig":"","vertexType":"NORMAL"},"to":{"name":"Place du Royaume (Champs-Élysées)","stopId":"1:572","stopCode":"572","lon":-71.053302,"lat":48.407097,"arrival":1522702139000,"departure":1522702140000,"zoneId":"NA","stopIndex":13,"stopSequence":14,"vertexType":"TRANSIT"},"legGeometry":{"points":"a{lfHviupLEEWWSQ[[YWGGUCCCYU]Y[YYWYUb@_B?q@O]WW]_@a@_@[@w@VS_Fc@Ae@A[AYWc@q@]d@","length":29},"rentedBike":false,"transitLeg":false,"duration":451.0,"steps":[{"distance":356.18100000000004,"relativeDirection":"DEPART","streetName":"service road","absoluteDirection":"NORTHEAST","stayOn":false,"area":false,"bogusName":false,"lon":-71.05707521889572,"lat":48.40385594353976,"elevation":[]},{"distance":83.48,"relativeDirection":"RIGHT","streetName":"path","absoluteDirection":"EAST","stayOn":false,"area":false,"bogusName":true,"lon":-71.05470940000001,"lat":48.4059844,"elevation":[]},{"distance":123.078,"relativeDirection":"LEFT","streetName":"service road","absoluteDirection":"NORTH","stayOn":true,"area":false,"bogusName":true,"lon":-71.05358820000001,"lat":48.406082600000005,"elevation":[]}]},{"startTime":1522702140000,"endTime":1522702223000,"departureDelay":0,"arrivalDelay":0,"realTime":false,"distance":585.5548632683679,"pathway":false,"mode":"BUS","route":"12","agencyName":"Société de Transport du Saguenay","agencyUrl":"http://ville.saguenay.ca/fr/services-aux-citoyens/transport-sts","agencyTimeZoneOffset":-14400000,"routeColor":"556B2F","routeType":3,"routeId":"1:12","routeTextColor":"FFFFFF","interlineWithPreviousLeg":false,"tripBlockId":"29","headsign":"Terminus Chicoutimi","agencyId":"0","tripId":"1:218072","serviceDate":"20180402","from":{"name":"Place du Royaume (Champs-Élysées)","stopId":"1:572","stopCode":"572","lon":-71.053302,"lat":48.407097,"arrival":1522702139000,"departure":1522702140000,"zoneId":"NA","stopIndex":13,"stopSequence":14,"vertexType":"TRANSIT"},"to":{"name":"Sûreté du Québec (Roitelets / Lorenzo-Genest)","stopId":"1:195","stopCode":"195","lon":-71.048189,"lat":48.4095,"arrival":1522702223000,"departure":1522702224000,"zoneId":"NA","stopIndex":16,"stopSequence":17,"vertexType":"TRANSIT"},"legGeometry":{"points":"aomfHlrtpLlCyGa@yFYkD}CyA}KmF","length":6},"routeShortName":"12","routeLongName":"Rivière du Moulin","rentedBike":false,"transitLeg":true,"duration":83.0,"steps":[]},{"startTime":1522702224000,"endTime":1522702532000,"departureDelay":0,"arrivalDelay":0,"realTime":false,"distance":386.736,"pathway":false,"mode":"WALK","route":"","agencyTimeZoneOffset":-14400000,"interlineWithPreviousLeg":false,"from":{"name":"Sûreté du Québec (Roitelets / Lorenzo-Genest)","stopId":"1:195","stopCode":"195","lon":-71.048189,"lat":48.4095,"arrival":1522702223000,"departure":1522702224000,"zoneId":"NA","stopIndex":16,"stopSequence":17,"vertexType":"TRANSIT"},"to":{"name":"Destination","lon":-71.047654,"lat":48.406878,"arrival":1522702532000,"orig":"","vertexType":"NORMAL"},"legGeometry":{"points":"o~mfHtrspLFBpAp@t@eErDlBnA_D`Bx@XB??","length":9},"rentedBike":false,"transitLeg":false,"duration":308.0,"steps":[{"distance":53.338,"relativeDirection":"DEPART","streetName":"Rue Des Roitelets","absoluteDirection":"SOUTH","stayOn":false,"area":false,"bogusName":false,"lon":-71.04826942089277,"lat":48.40952065789795,"elevation":[]},{"distance":78.536,"relativeDirection":"LEFT","streetName":"Rue Gaudiose-Brassard","absoluteDirection":"EAST","stayOn":false,"area":false,"bogusName":false,"lon":-71.0485302,"lat":48.4090733,"elevation":[]},{"distance":107.983,"relativeDirection":"RIGHT","streetName":"Rue Joseph-Dandurand","absoluteDirection":"SOUTH","stayOn":false,"area":false,"bogusName":false,"lon":-71.0475432,"lat":48.408809500000004,"elevation":[]},{"distance":73.908,"relativeDirection":"LEFT","streetName":"Rue Adélard-Plourde","absoluteDirection":"SOUTHEAST","stayOn":false,"area":false,"bogusName":false,"lon":-71.0480905,"lat":48.4079089,"elevation":[]},{"distance":72.971,"relativeDirection":"RIGHT","streetName":"Rue Basile-Villeneuve","absoluteDirection":"SOUTH","stayOn":false,"area":false,"bogusName":false,"lon":-71.0472938,"lat":48.4075063,"elevation":[]}]}],"tooSloped":false}]},"debugOutput":{"precalculationTime":39,"pathCalculationTime":28,"pathTimes":[14,7,7],"renderingTime":0,"totalTime":67,"timedOut":false},"elevationMetadata":{"ellipsoidToGeoidDifference":-28.885904201182168,"geoidElevation":false}}