{"requestParameters":{"date":"2018/04/02","walkSpeed":"1.33","walkReluctance":"2.0","fromPlace":"48.397775,-71.047089","maxWalkDistance":"3000","waitReluctance":"1.0","carSpeed":"33","numItineraries":"3","waitAtBeginningFactor":"0.4","mode":"TRANSIT,WALK","ignoreRealtimeUpdates":"false","stairsReluctance":"2.0","toPlace":"48.412051,-71.05021899","time":"9:10:00"},"plan":{"date":1522674600000,"from":{"name":"Origin","lon":-71.047089,"lat":48.397775,"orig":"","vertexType":"NORMAL"},"to":{"name":"Destination","lon":-71.05021899,"lat":48.412051,"orig":"","vertexType":"NORMAL"},"itineraries":[{"duration":1341,"startTime":1522674600000,"endTime":1522675941000,"walkTime":1341,"transitTime":0,"waitingTime":0,"walkDistance":1729.8104887171096,"walkLimitExceeded":false,"elevationLost":0.0,"elevationGained":0.0,"transfers":0,"legs":[{"startTime":1522674600000,"endTime":1522675941000,"departureDelay":0,"arrivalDelay":0,"realTime":false,"distance":1729.665,"pathway":false,"mode":"WALK","route":"","agencyTimeZoneOffset":-14400000,"interlineWithPreviousLeg":false,"from":{"name":"Origin","lon":-71.047089,"lat":48.397775,"departure":1522674600000,"orig":"","vertexType":"NORMAL"},"to":{"name":"Destination","lon":-71.05021899,"lat":48.412051,"arrival":1522675941000,"orig":"","vertexType":"NORMAL"},"legGeometry":{"points":"aukfHjkspLgA[y@KwAIoA@s@FcALu@PQD{Af@yCtAk@VcDrAqCdA}Cz@C@_@JwErA}A\\cCj@k@FM?k@GmB}@AAm@WqG}CqAq@GCk@Y_Bw@KEe@JYLa@n@G^yBdHWQ[|@c@hA","length":40},"rentedBike":false,"transitLeg":false,"duration":1341.0,"steps":[{"distance":1449.599,"relativeDirection":"DEPART","streetName":"Rue Des Roitelets","absoluteDirection":"NORTH","stayOn":false,"area":false,"bogusName":false,"lon":-71.04709771901769,"lat":48.39777656690188,"elevation":[]},{"distance":62.949,"relativeDirection":"SLIGHTLY_LEFT","streetName":"link","absoluteDirection":"NORTH","stayOn":false,"area":false,"bogusName":true,"lon":-71.0478246,"lat":48.4102837,"elevation":[]},{"distance":217.117,"relativeDirection":"SLIGHTLY_LEFT","streetName":"Boulevard de l'Université","absoluteDirection":"NORTHWEST","stayOn":false,"area":false,"bogusName":false,"lon":-71.04819570000001,"lat":48.410774100000005,"elevation":[]}]}],"tooSloped":false},{"duration":1473,"startTime":1522674859000,"endTime":1522676332000,"walkTime":150,"transitTime":1081,"waitingTime":242,"walkDistance":172.26721804068515,"walkLimitExceeded":false,"elevationLost":0.0,"elevationGained":0.0,"transfers":1,"legs":[{"startTime":1522674859000,"endTime":1522674925000,"departureDelay":0,"arrivalDelay":0,"realTime":false,"distance":74.319,"pathway":false,"mode":"WALK","route":"","agencyTimeZoneOffset":-14400000,"interlineWithPreviousLeg":false,"from":{"name":"Origin","lon":-71.047089,"lat":48.397775,"departure":1522674859000,"orig":"","vertexType":"NORMAL"},"to":{"name":"Roitelets (no. 1724)","stopId":"1:1547","stopCode":"1547","lon":-71.047286,"lat":48.397165,"arrival":1522674925000,"departure":1522674926000,"zoneId":"NA","stopIndex":7,"stopSequence":8,"vertexType":"TRANSIT"},"legGeometry":{"points":"aukfHjkspLbAZb@T@MLH","length":5},"rentedBike":false,"transitLeg":false,"duration":66.0,"steps":[{"distance":60.463,"relativeDirection":"DEPART","streetName":"Rue Des Roitelets","absoluteDirection":"SOUTH","stayOn":false,"area":false,"bogusName":false,"lon":-71.04709771901769,"lat":48.39777656690188,"elevation":[]},{"distance":5.473,"relativeDirection":"LEFT","streetName":"path","absoluteDirection":"EAST","stayOn":false,"area":false,"bogusName":true,"lon":-71.04734350000001,"lat":48.3972588,"elevation":[]},{"distance":8.383,"relativeDirection":"RIGHT","streetName":"bike path","absoluteDirection":"SOUTHWEST","stayOn":true,"area":false,"bogusName":true,"lon":-71.0472726,"lat":48.397244400000005,"elevation":[]}]},{"startTime":1522674926000,"endTime":1522675860000,"departureDelay":0,"arrivalDelay":0,"realTime":false,"distance":5332.974906529181,"pathway":false,"mode":"BUS","route":"15","agencyName":"Société de Transport du Saguenay","agencyUrl":"http://ville.saguenay.ca/fr/services-aux-citoyens/transport-sts","agencyTimeZoneOffset":-14400000,"routeColor":"FF00FF","routeType":3,"routeId":"1:15","routeTextColor":"FFFFFF","interlineWithPreviousLeg":false,"tripBlockId":"30","headsign":"Terminus Chicoutimi","agencyId":"0","tripId":"1:218092","serviceDate":"20180402","from":{"name":"Roitelets (no. 1724)","stopId":"1:1547","stopCode":"1547","lon":-71.047286,"lat":48.397165,"arrival":1522674925000,"departure":1522674926000,"zoneId":"NA","stopIndex":7,"stopSequence":8,"vertexType":"TRANSIT"},"to":{"name":"Terminus UQAC","stopId":"1:1670","stopCode":"1670","lon":-71.053369,"lat":48.420903,"arrival":1522675860000,"departure":1522676100000,"zoneId":"NA","stopIndex":29,"stopSequence":30,"vertexType":"TRANSIT"},"legGeometry":{"points":"oqkfHpmspLqBgA_AQaBSaBG_@Bu@FG?h@fNKnDpCfBkAzDgA}@y@q@sDy@GAeGT~@~KKrKyAnL[hBUxAm@nCcAlDeCvGmA|CUr@}@~A_@\\_DvCEZcA|@UP_@d@Yl@oBdFeCxG_CfGYVQXS\\dK|HlFZbC\\p@zA\\rB@hBiArG{BNw@FiG}@iDwAECcCcBo@y@sEeGe@o@qAa@m@MoB?C@}BZwAc@oA_Bs@gDCKZ{Di@QECc@_@sAkAoBwB_EcE{A_BoAmAk@o@cCaCkIkIaJaJUUwBaCj@wCjAsCzGoG_CoHL{D_@kAqD{CQr@iAcA","length":90},"routeShortName":"15","routeLongName":"Term. Chic / Costco","rentedBike":false,"transitLeg":true,"duration":934.0,"steps":[]},{"startTime":1522676100000,"endTime":1522676247000,"departureDelay":0,"arrivalDelay":0,"realTime":false,"distance":1155.3685626166505,"pathway":false,"mode":"BUS","route":"5","agencyName":"Société de Transport du Saguenay","agencyUrl":"http://ville.saguenay.ca/fr/services-aux-citoyens/transport-sts","agencyTimeZoneOffset":-14400000,"routeColor":"FF0000","routeType":3,"routeId":"1:5","routeTextColor":"FFFFFF","interlineWithPreviousLeg":false,"tripBlockId":"25","headsign":"Terminus La Baie","agencyId":"0","tripId":"1:217933","serviceDate":"20180402","from":{"name":"Terminus UQAC","stopId":"1:1670","stopCode":"1670","lon":-71.053369,"lat":48.420903,"arrival":1522675860000,"departure":1522676100000,"zoneId":"NA","stopIndex":0,"stopSequence":1,"vertexType":"TRANSIT"},"to":{"name":"boul. Université / Murdock","stopId":"1:80","stopCode":"80","lon":-71.050111,"lat":48.411498,"arrival":1522676247000,"departure":1522676248000,"zoneId":"NA","stopIndex":3,"stopSequence":4,"vertexType":"TRANSIT"},"legGeometry":{"points":"sepfHtrtpLbA`ATs@bB~A~A|ALb@E`EnBvHtNsL~FeFROHI\\Q^Mb@I~CIJCJAXKXMXQRQPQT[\\s@^aAn@mBnCgI","length":28},"routeShortName":"5","routeLongName":"Term. Chic/Term. Baie via St-J.Batiste","rentedBike":false,"transitLeg":true,"duration":147.0,"steps":[]},{"startTime":1522676248000,"endTime":1522676332000,"departureDelay":0,"arrivalDelay":0,"realTime":false,"distance":97.811,"pathway":false,"mode":"WALK","route":"","agencyTimeZoneOffset":-14400000,"interlineWithPreviousLeg":false,"from":{"name":"boul. Université / Murdock","stopId":"1:80","stopCode":"80","lon":-71.050111,"lat":48.411498,"arrival":1522676247000,"departure":1522676248000,"zoneId":"NA","stopIndex":3,"stopSequence":4,"vertexType":"TRANSIT"},"to":{"name":"Destination","lon":-71.05021899,"lat":48.412051,"arrival":1522676332000,"orig":"","vertexType":"NORMAL"},"legGeometry":{"points":"aknfH|}spLTo@WQ[|@c@hA","length":5},"rentedBike":false,"transitLeg":false,"duration":84.0,"steps":[{"distance":21.602,"relativeDirection":"DEPART","streetName":"Boulevard de l'Université","absoluteDirection":"SOUTHEAST","stayOn":false,"area":false,"bogusName":false,"lon":-71.05006857152243,"lat":48.41153928216614,"elevation":[]},{"distance":76.209,"relativeDirection":"UTURN_LEFT","streetName":"Boulevard de l'Université","absoluteDirection":"NORTHWEST","stayOn":true,"area":false,"bogusName":false,"lon":-71.04973220000001,"lat":48.411543200000004,"elevation":[]}]}],"tooSloped":false},{"duration":1178,"startTime":1522676142000,"endTime":1522677320000,"walkTime":1122,"transitTime":54,"waitingTime":2,"walkDistance":1443.524924806547,"walkLimitExceeded":false,"elevationLost":0.0,"elevationGained":0.0,"transfers":0,"legs":[{"startTime":1522676142000,"endTime":1522676968000,"departureDelay":0,"arrivalDelay":0,"realTime":false,"distance":1072.3129999999999,"pathway":false,"mode":"WALK","route":"","agencyTimeZoneOffset":-14400000,"interlineWithPreviousLeg":false,"from":{"name":"Origin","lon":-71.047089,"lat":48.397775,"departure":1522676142000,"orig":"","vertexType":"NORMAL"},"to":{"name":"Émile-Girardin / Roitelets","stopId":"1:268","stopCode":"268","lon":-71.050698,"lat":48.406546,"arrival":1522676968000,"departure":1522676969000,"zoneId":"NA","stopIndex":14,"stopSequence":15,"vertexType":"TRANSIT"},"legGeometry":{"points":"aukfHjkspLgA[y@KwAIoA@s@FcALu@PQD{Af@yCtAk@VcDrAqCdA}Cz@C@_@JwErA}A\\cCj@OTMTM`@?fACb@@F","length":26},"rentedBike":false,"transitLeg":false,"duration":826.0,"steps":[{"distance":991.3969999999999,"relativeDirection":"DEPART","streetName":"Rue Des Roitelets","absoluteDirection":"NORTH","stayOn":false,"area":false,"bogusName":false,"lon":-71.04709771901769,"lat":48.39777656690188,"elevation":[]},{"distance":38.282,"relativeDirection":"SLIGHTLY_LEFT","streetName":"link","absoluteDirection":"NORTHWEST","stayOn":false,"area":false,"bogusName":true,"lon":-71.0497612,"lat":48.4064046,"elevation":[]},{"distance":42.634,"relativeDirection":"SLIGHTLY_LEFT","streetName":"Rue Émile-Girardin","absoluteDirection":"WEST","stayOn":false,"area":false,"bogusName":false,"lon":-71.0501581,"lat":48.406621400000006,"elevation":[]}]},{"startTime":1522676969000,"endTime":1522677023000,"departureDelay":0,"arrivalDelay":0,"realTime":false,"distance":383.8109824668376,"pathway":false,"mode":"BUS","route":"12","agencyName":"Société de Transport du Saguenay","agencyUrl":"http://ville.saguenay.ca/fr/services-aux-citoyens/transport-sts","agencyTimeZoneOffset":-14400000,"routeColor":"556B2F","routeType":3,"routeId":"1:12","routeTextColor":"FFFFFF","interlineWithPreviousLeg":false,"tripBlockId":"29","headsign":"Terminus Chicoutimi","agencyId":"0","tripId":"1:218058","serviceDate":"20180402","from":{"name":"Émile-Girardin / Roitelets","stopId":"1:268","stopCode":"268","lon":-71.050698,"lat":48.406546,"arrival":1522676968000,"departure":1522676969000,"zoneId":"NA","stopIndex":14,"stopSequence":15,"vertexType":"TRANSIT"},"to":{"name":"Sûreté du Québec (Roitelets / Lorenzo-Genest)","stopId":"1:195","stopCode":"195","lon":-71.048189,"lat":48.4095,"arrival":1522677023000,"departure":1522677024000,"zoneId":"NA","stopIndex":16,"stopSequence":17,"vertexType":"TRANSIT"},"legGeometry":{"points":"ukmfHxatpLYkD}CyA}KmF","length":4},"routeShortName":"12","routeLongName":"Rivière du Moulin","rentedBike":false,"transitLeg":true,"duration":54.0,"steps":[]},{"startTime":1522677024000,"endTime":1522677320000,"departureDelay":0,"arrivalDelay":0,"realTime":false,"distance":371.042,"pathway":false,"mode":"WALK","route":"","agencyTimeZoneOffset":-14400000,"interlineWithPreviousLeg":false,"from":{"name":"Sûreté du Québec (Roitelets / Lorenzo-Genest)","stopId":"1:195","stopCode":"195","lon":-71.048189,"lat":48.4095,"arrival":1522677023000,"departure":1522677024000,"zoneId":"NA","stopIndex":16,"stopSequence":17,"vertexType":"TRANSIT"},"to":{"name":"Destination","lon":-71.05021899,"lat":48.412051,"arrival":1522677320000,"orig":"","vertexType":"NORMAL"},"legGeometry":{"points":"o~mfHtrspLk@Y_Bw@KEe@JYLa@n@G^yBdHWQ[|@c@hA","length":12},"rentedBike":false,"transitLeg":false,"duration":296.0,"steps":[{"distance":90.97600000000001,"relativeDirection":"DEPART","streetName":"Rue Des Roitelets","absoluteDirection":"NORTH","stayOn":false,"area":false,"bogusName":false,"lon":-71.04826942089277,"lat":48.40952065789795,"elevation":[]},{"distance":62.949,"relativeDirection":"SLIGHTLY_LEFT","streetName":"link","absoluteDirection":"NORTH","stayOn":false,"area":false,"bogusName":true,"lon":-71.0478246,"lat":48.4102837,"elevation":[]},{"distance":217.117,"relativeDirection":"SLIGHTLY_LEFT","streetName":"Boulevard de l'Université","absoluteDirection":"NORTHWEST","stayOn":false,"area":false,"bogusName":false,"lon":-71.04819570000001,"lat":48.410774100000005,"elevation":[]}]}],"tooSloped":false}]},"debugOutput":{"precalculationTime":41,"pathCalculationTime":33,"pathTimes":[19,6,8],"renderingTime":1,"totalTime":75,"timedOut":false},"elevationMetadata":{"ellipsoidToGeoidDifference":-28.885904201182168,"geoidElevation":false}}