{"requestParameters":{"date":"2018/04/02","walkSpeed":"1.33","walkReluctance":"2.0","fromPlace":"48.409429,-71.050878","maxWalkDistance":"3000","waitReluctance":"1.0","carSpeed":"33","numItineraries":"3","waitAtBeginningFactor":"0.4","mode":"TRANSIT,WALK","ignoreRealtimeUpdates":"false","stairsReluctance":"2.0","toPlace":"48.409854,-71.06000299","time":"7:35:00"},"plan":{"date":1522668900000,"from":{"name":"Origin","lon":-71.050878,"lat":48.409429,"orig":"","vertexType":"NORMAL"},"to":{"name":"Destination","lon":-71.06000299,"lat":48.409854,"orig":"","vertexType":"NORMAL"},"itineraries":[{"duration":988,"startTime":1522668900000,"endTime":1522669888000,"walkTime":988,"transitTime":0,"waitingTime":0,"walkDistance":1254.016172922032,"walkLimitExceeded":false,"elevationLost":0.0,"elevationGained":0.0,"transfers":0,"legs":[{"startTime":1522668900000,"endTime":1522669888000,"departureDelay":0,"arrivalDelay":0,"realTime":false,"distance":1253.6970000000001,"pathway":false,"mode":"WALK","route":"","agencyTimeZoneOffset":-14400000,"interlineWithPreviousLeg":false,"from":{"name":"Origin","lon":-71.050878,"lat":48.409429,"departure":1522668900000,"orig":"","vertexType":"NORMAL"},"to":{"name":"Destination","lon":-71.06000299,"lat":48.409854,"arrival":1522669888000,"orig":"","vertexType":"NORMAL"},"legGeometry":{"points":"k}mfHv`tpLcCeAWl@[rBWnAwAxDjDlDK^hD`DdE`ENNGPm@|A]|@O`@M\\fBfBcAvCmA~CsArDDBj@d@cClGkA{A","length":24},"rentedBike":false,"transitLeg":false,"duration":988.0,"steps":[{"distance":77.886,"relativeDirection":"DEPART","streetName":"Rue Lorenzo-Genest","absoluteDirection":"NORTH","stayOn":false,"area":false,"bogusName":false,"lon":-71.05051433925208,"lat":48.4093439517684,"elevation":[]},{"distance":183.487,"relativeDirection":"LEFT","streetName":"path","absoluteDirection":"NORTHWEST","stayOn":false,"area":false,"bogusName":true,"lon":-71.0501637,"lat":48.4100046,"elevation":[]},{"distance":382.77599999999995,"relativeDirection":"LEFT","streetName":"Boulevard Talbot","absoluteDirection":"SOUTHWEST","stayOn":false,"area":false,"bogusName":false,"lon":-71.05230110000001,"lat":48.4108205,"elevation":[]},{"distance":108.344,"relativeDirection":"RIGHT","streetName":"Rue des Champs-Élysées","absoluteDirection":"NORTHWEST","stayOn":false,"area":false,"bogusName":false,"lon":-71.0551966,"lat":48.4081015,"elevation":[]},{"distance":69.905,"relativeDirection":"LEFT","streetName":"Rue Plamondon","absoluteDirection":"SOUTHWEST","stayOn":false,"area":false,"bogusName":false,"lon":-71.0563831,"lat":48.4086751,"elevation":[]},{"distance":221.909,"relativeDirection":"RIGHT","streetName":"Rue Plamondon","absoluteDirection":"NORTHWEST","stayOn":true,"area":false,"bogusName":false,"lon":-71.05690750000001,"lat":48.408151600000004,"elevation":[]},{"distance":31.95,"relativeDirection":"LEFT","streetName":"Rue Bizet","absoluteDirection":"SOUTHWEST","stayOn":false,"area":false,"bogusName":false,"lon":-71.0593601,"lat":48.4093053,"elevation":[]},{"distance":123.104,"relativeDirection":"RIGHT","streetName":"Rue Létondal","absoluteDirection":"NORTHWEST","stayOn":false,"area":false,"bogusName":false,"lon":-71.0595787,"lat":48.4090573,"elevation":[]},{"distance":54.336,"relativeDirection":"RIGHT","streetName":"Rue Albani","absoluteDirection":"NORTHEAST","stayOn":false,"area":false,"bogusName":false,"lon":-71.06092220000001,"lat":48.4097133,"elevation":[]}]}],"tooSloped":false},{"duration":626,"startTime":1522670525000,"endTime":1522671151000,"walkTime":480,"transitTime":144,"waitingTime":2,"walkDistance":594.7387894667214,"walkLimitExceeded":false,"elevationLost":0.0,"elevationGained":0.0,"transfers":0,"legs":[{"startTime":1522670525000,"endTime":1522670735000,"departureDelay":0,"arrivalDelay":0,"realTime":false,"distance":258.782,"pathway":false,"mode":"WALK","route":"","agencyTimeZoneOffset":-14400000,"interlineWithPreviousLeg":false,"from":{"name":"Origin","lon":-71.050878,"lat":48.409429,"departure":1522670525000,"orig":"","vertexType":"NORMAL"},"to":{"name":"Sûreté du Québec (Roitelets / Lorenzo-Genest)","stopId":"1:58","stopCode":"58","lon":-71.048311,"lat":48.40979,"arrival":1522670735000,"departure":1522670736000,"zoneId":"NA","stopIndex":26,"stopSequence":27,"vertexType":"TRANSIT"},"legGeometry":{"points":"k}mfHv`tpLcCeAL}@b@{Bt@}DGCk@Y","length":7},"rentedBike":false,"transitLeg":false,"duration":210.0,"steps":[{"distance":77.886,"relativeDirection":"DEPART","streetName":"Rue Lorenzo-Genest","absoluteDirection":"NORTH","stayOn":false,"area":false,"bogusName":false,"lon":-71.05051433925208,"lat":48.4093439517684,"elevation":[]},{"distance":149.905,"relativeDirection":"RIGHT","streetName":"Rue Lorenzo-Genest","absoluteDirection":"EAST","stayOn":true,"area":false,"bogusName":false,"lon":-71.0501637,"lat":48.4100046,"elevation":[]},{"distance":30.991,"relativeDirection":"LEFT","streetName":"Rue Des Roitelets","absoluteDirection":"NORTH","stayOn":false,"area":false,"bogusName":false,"lon":-71.0482898,"lat":48.409485700000005,"elevation":[]}]},{"startTime":1522670736000,"endTime":1522670880000,"departureDelay":0,"arrivalDelay":0,"realTime":false,"distance":1056.5736954360905,"pathway":false,"mode":"BUS","route":"12","agencyName":"Société de Transport du Saguenay","agencyUrl":"http://ville.saguenay.ca/fr/services-aux-citoyens/transport-sts","agencyTimeZoneOffset":-14400000,"routeColor":"556B2F","routeType":3,"routeId":"1:12","routeTextColor":"FFFFFF","interlineWithPreviousLeg":false,"tripBlockId":"27","headsign":"Terminus UQAC","agencyId":"0","tripId":"1:218002","serviceDate":"20180402","from":{"name":"Sûreté du Québec (Roitelets / Lorenzo-Genest)","stopId":"1:58","stopCode":"58","lon":-71.048311,"lat":48.40979,"arrival":1522670735000,"departure":1522670736000,"zoneId":"NA","stopIndex":26,"stopSequence":27,"vertexType":"TRANSIT"},"to":{"name":"Champs-Élysées / Chopin","stopId":"1:584","stopCode":"584","lon":-71.058412,"lat":48.409805,"arrival":1522670880000,"departure":1522670881000,"zoneId":"NA","stopIndex":29,"stopSequence":30,"vertexType":"TRANSIT"},"legGeometry":{"points":"e`nfH~rspLdRvMcAjKcP~b@","length":4},"routeShortName":"12","routeLongName":"Rivière du Moulin","rentedBike":false,"transitLeg":true,"duration":144.0,"steps":[]},{"startTime":1522670881000,"endTime":1522671151000,"departureDelay":0,"arrivalDelay":0,"realTime":false,"distance":335.741,"pathway":false,"mode":"WALK","route":"","agencyTimeZoneOffset":-14400000,"interlineWithPreviousLeg":false,"from":{"name":"Champs-Élysées / Chopin","stopId":"1:584","stopCode":"584","lon":-71.058412,"lat":48.409805,"arrival":1522670880000,"departure":1522670881000,"zoneId":"NA","stopIndex":29,"stopSequence":30,"vertexType":"TRANSIT"},"to":{"name":"Destination","lon":-71.06000299,"lat":48.409854,"arrival":1522671151000,"orig":"","vertexType":"NORMAL"},"legGeometry":{"points":"{_nfHprupL?@o@|A|@h@hAd@DBj@d@cClGkA{A","length":9},"rentedBike":false,"transitLeg":false,"duration":270.0,"steps":[{"distance":44.609,"relativeDirection":"DEPART","streetName":"Rue des Champs-Élysées","absoluteDirection":"NORTHWEST","stayOn":false,"area":false,"bogusName":false,"lon":-71.05848639303342,"lat":48.40974208921815,"elevation":[]},{"distance":113.69200000000001,"relativeDirection":"LEFT","streetName":"Rue Bizet","absoluteDirection":"SOUTHWEST","stayOn":false,"area":false,"bogusName":false,"lon":-71.0589618,"lat":48.409989800000005,"elevation":[]},{"distance":123.104,"relativeDirection":"RIGHT","streetName":"Rue Létondal","absoluteDirection":"NORTHWEST","stayOn":false,"area":false,"bogusName":false,"lon":-71.0595787,"lat":48.4090573,"elevation":[]},{"distance":54.336,"relativeDirection":"RIGHT","streetName":"Rue Albani","absoluteDirection":"NORTHEAST","stayOn":false,"area":false,"bogusName":false,"lon":-71.06092220000001,"lat":48.4097133,"elevation":[]}]}],"tooSloped":false}]},"debugOutput":{"precalculationTime":53,"pathCalculationTime":32,"pathTimes":[18,5,9],"renderingTime":0,"totalTime":85,"timedOut":false},"elevationMetadata":{"ellipsoidToGeoidDifference":-28.885904201182168,"geoidElevation":false}}