{"requestParameters":{"date":"2018/04/02","walkSpeed":"1.33","walkReluctance":"2.0","fromPlace":"48.446692,-71.064498","maxWalkDistance":"3000","waitReluctance":"1.0","carSpeed":"33","numItineraries":"3","waitAtBeginningFactor":"0.4","mode":"TRANSIT,WALK","ignoreRealtimeUpdates":"false","stairsReluctance":"2.0","toPlace":"48.409854,-71.06000299","time":"15:20:00"},"plan":{"date":1522696800000,"from":{"name":"Origin","lon":-71.064498,"lat":48.446692,"orig":"","vertexType":"NORMAL"},"to":{"name":"Destination","lon":-71.06000299,"lat":48.409854,"orig":"","vertexType":"NORMAL"},"itineraries":[{"duration":3019,"startTime":1522696932000,"endTime":1522699951000,"walkTime":425,"transitTime":1992,"waitingTime":602,"walkDistance":535.766744356135,"walkLimitExceeded":false,"elevationLost":0.0,"elevationGained":0.0,"transfers":1,"legs":[{"startTime":1522696932000,"endTime":1522697087000,"departureDelay":0,"arrivalDelay":0,"realTime":false,"distance":199.87800000000001,"pathway":false,"mode":"WALK","route":"","agencyTimeZoneOffset":-14400000,"interlineWithPreviousLeg":false,"from":{"name":"Origin","lon":-71.064498,"lat":48.446692,"departure":1522696932000,"orig":"","vertexType":"NORMAL"},"to":{"name":"Cabot / Delisle","stopId":"1:788","stopCode":"788","lon":-71.063276,"lat":48.447779,"arrival":1522697087000,"departure":1522697088000,"zoneId":"NA","stopIndex":11,"stopSequence":12,"vertexType":"TRANSIT"},"legGeometry":{"points":"yfufHfxvpL_G}BZ_C","length":3},"rentedBike":false,"transitLeg":false,"duration":155.0,"steps":[{"distance":150.108,"relativeDirection":"DEPART","streetName":"Rue Delisle","absoluteDirection":"NORTH","stayOn":false,"area":false,"bogusName":false,"lon":-71.06451804601737,"lat":48.44669634966235,"elevation":[]},{"distance":49.77,"relativeDirection":"RIGHT","streetName":"Rue Cabot","absoluteDirection":"EAST","stayOn":false,"area":false,"bogusName":false,"lon":-71.06388530000001,"lat":48.4479794,"elevation":[]}]},{"startTime":1522697088000,"endTime":1522697700000,"departureDelay":0,"arrivalDelay":0,"realTime":false,"distance":4085.4873126775346,"pathway":false,"mode":"BUS","route":"23","agencyName":"Société de Transport du Saguenay","agencyUrl":"http://ville.saguenay.ca/fr/services-aux-citoyens/transport-sts","agencyTimeZoneOffset":-14400000,"routeColor":"FF00FF","routeType":3,"routeId":"1:23","routeTextColor":"FFFFFF","interlineWithPreviousLeg":false,"tripBlockId":"4","headsign":"Terminus Chicoutimi","agencyId":"0","tripId":"1:217240","serviceDate":"20180402","from":{"name":"Cabot / Delisle","stopId":"1:788","stopCode":"788","lon":-71.063276,"lat":48.447779,"arrival":1522697087000,"departure":1522697088000,"zoneId":"NA","stopIndex":11,"stopSequence":12,"vertexType":"TRANSIT"},"to":{"name":"Terminus Chicoutimi","stopId":"1:1289","stopCode":"1289","lon":-71.066163,"lat":48.428677,"arrival":1522697700000,"departure":1522698300000,"zoneId":"NA","stopIndex":26,"stopSequence":27,"vertexType":"TRANSIT"},"legGeometry":{"points":"_nufHhpvpL`AgHz@oGBU?UAWCWUwAWD]B]AUEoAc@kE}AOIq@g@g@u@]w@b@s@T[~CkFf@s@\\e@x@}@jAeAXQZStBaAh@]`@]`@i@l@kDF_@R{AFWFMPIPC`@BT@V?TAVKLENCLCJ@J@xAb@x@Zz@\\CP?R@N@NFLFF`GtBx@Xw@pG@l@B\\DXL\\RZDFXPf@N@v@Bp@Dr@l@~HNlAH\\@HLd@\\z@Xd@X\\RTXRr@Zn@PfExAvDpALnBJt@Pp@|@`DHZPn@`@rBNnAFr@DbA?bB@jABzA?p@A???A???A?A???A@??A?A@??A@?@A??@A@???@A@?@?@A@?@?@?@?@???@?@?@?@?@?@@@?@?@@@?@@@?@@@?@@?@@??@@@?E`@Kr@]rACVEl@I|AAr@JbAWJe@FUAM?a@Ke@YYWWa@v@}@RQPMz@k@tAe@REZG^Af@@X@VF`@Jn@XbClAr@Xt\\`PrAb@pA^hBTjAFj@Pb@JPHLLJNJRFXDT?X?ZEVEVKTMNMHMFOB}DWSGOSYcAN}FFkAF}DJyDd@wPV_HjAN~ALI`C","length":213},"routeShortName":"23","routeLongName":"Côte Verdun via Aréna du Plateau","rentedBike":false,"transitLeg":true,"duration":612.0,"steps":[]},{"startTime":1522698300000,"endTime":1522699680000,"departureDelay":0,"arrivalDelay":0,"realTime":false,"distance":8921.890108417734,"pathway":false,"mode":"BUS","route":"12","agencyName":"Société de Transport du Saguenay","agencyUrl":"http://ville.saguenay.ca/fr/services-aux-citoyens/transport-sts","agencyTimeZoneOffset":-14400000,"routeColor":"556B2F","routeType":3,"routeId":"1:12","routeTextColor":"FFFFFF","interlineWithPreviousLeg":false,"tripBlockId":"27","headsign":"Terminus UQAC","agencyId":"0","tripId":"1:218018","serviceDate":"20180402","from":{"name":"Terminus Chicoutimi","stopId":"1:1289","stopCode":"1289","lon":-71.066163,"lat":48.428677,"arrival":1522697700000,"departure":1522698300000,"zoneId":"NA","stopIndex":0,"stopSequence":1,"vertexType":"TRANSIT"},"to":{"name":"Champs-Élysées / Chopin","stopId":"1:584","stopCode":"584","lon":-71.058412,"lat":48.409805,"arrival":1522699680000,"departure":1522699681000,"zoneId":"NA","stopIndex":29,"stopSequence":30,"vertexType":"TRANSIT"},"legGeometry":{"points":"evqfHpbwpLpFcj@IaKmFy^_DaZz@u]SeV}@aNs@gKToKd@gTnCyHkGuLqFqJ_DeFf@iIvGsKlIrH`JlH`EfDnOdIdGlGjL|BzBiLv@}L`b@fNvVvrCdRvMcAjKcP~b@","length":30},"routeShortName":"12","routeLongName":"Rivière du Moulin","rentedBike":false,"transitLeg":true,"duration":1380.0,"steps":[]},{"startTime":1522699681000,"endTime":1522699951000,"departureDelay":0,"arrivalDelay":0,"realTime":false,"distance":335.741,"pathway":false,"mode":"WALK","route":"","agencyTimeZoneOffset":-14400000,"interlineWithPreviousLeg":false,"from":{"name":"Champs-Élysées / Chopin","stopId":"1:584","stopCode":"584","lon":-71.058412,"lat":48.409805,"arrival":1522699680000,"departure":1522699681000,"zoneId":"NA","stopIndex":29,"stopSequence":30,"vertexType":"TRANSIT"},"to":{"name":"Destination","lon":-71.06000299,"lat":48.409854,"arrival":1522699951000,"orig":"","vertexType":"NORMAL"},"legGeometry":{"points":"{_nfHprupL?@o@|A|@h@hAd@DBj@d@cClGkA{A","length":9},"rentedBike":false,"transitLeg":false,"duration":270.0,"steps":[{"distance":44.609,"relativeDirection":"DEPART","streetName":"Rue des Champs-Élysées","absoluteDirection":"NORTHWEST","stayOn":false,"area":false,"bogusName":false,"lon":-71.05848639303342,"lat":48.40974208921815,"elevation":[]},{"distance":113.69200000000001,"relativeDirection":"LEFT","streetName":"Rue Bizet","absoluteDirection":"SOUTHWEST","stayOn":false,"area":false,"bogusName":false,"lon":-71.0589618,"lat":48.409989800000005,"elevation":[]},{"distance":123.104,"relativeDirection":"RIGHT","streetName":"Rue Létondal","absoluteDirection":"NORTHWEST","stayOn":false,"area":false,"bogusName":false,"lon":-71.0595787,"lat":48.4090573,"elevation":[]},{"distance":54.336,"relativeDirection":"RIGHT","streetName":"Rue Albani","absoluteDirection":"NORTHEAST","stayOn":false,"area":false,"bogusName":false,"lon":-71.06092220000001,"lat":48.4097133,"elevation":[]}]}],"tooSloped":false},{"duration":2654,"startTime":1522697358000,"endTime":1522700012000,"walkTime":840,"transitTime":1512,"waitingTime":302,"walkDistance":1084.5479022504474,"walkLimitExceeded":false,"elevationLost":0.0,"elevationGained":0.0,"transfers":1,"legs":[{"startTime":1522697358000,"endTime":1522697621000,"departureDelay":0,"arrivalDelay":0,"realTime":false,"distance":338.539,"pathway":false,"mode":"WALK","route":"","agencyTimeZoneOffset":-14400000,"interlineWithPreviousLeg":false,"from":{"name":"Origin","lon":-71.064498,"lat":48.446692,"departure":1522697358000,"orig":"","vertexType":"NORMAL"},"to":{"name":"Constantin / Cabot","stopId":"1:766","stopCode":"766","lon":-71.066135,"lat":48.448135,"arrival":1522697621000,"departure":1522697622000,"zoneId":"NA","stopIndex":30,"stopSequence":31,"vertexType":"TRANSIT"},"legGeometry":{"points":"yfufHfxvpL_G}Bo@pE]fCId@z@v@","length":6},"rentedBike":false,"transitLeg":false,"duration":263.0,"steps":[{"distance":150.108,"relativeDirection":"DEPART","streetName":"Rue Delisle","absoluteDirection":"NORTH","stayOn":false,"area":false,"bogusName":false,"lon":-71.06451804601737,"lat":48.44669634966235,"elevation":[]},{"distance":149.288,"relativeDirection":"LEFT","streetName":"Rue Cabot","absoluteDirection":"WEST","stayOn":false,"area":false,"bogusName":false,"lon":-71.06388530000001,"lat":48.4479794,"elevation":[]},{"distance":39.143,"relativeDirection":"LEFT","streetName":"Rue Constantin","absoluteDirection":"SOUTHWEST","stayOn":false,"area":false,"bogusName":false,"lon":-71.0658016,"lat":48.4484117,"elevation":[]}]},{"startTime":1522697622000,"endTime":1522698000000,"departureDelay":0,"arrivalDelay":0,"realTime":false,"distance":2548.333041774674,"pathway":false,"mode":"BUS","route":"22","agencyName":"Société de Transport du Saguenay","agencyUrl":"http://ville.saguenay.ca/fr/services-aux-citoyens/transport-sts","agencyTimeZoneOffset":-14400000,"routeColor":"C0C000","routeType":3,"routeId":"1:22","routeTextColor":"000000","interlineWithPreviousLeg":false,"tripBlockId":"3","headsign":"Terminus Chicoutimi","agencyId":"0","tripId":"1:217204","serviceDate":"20180402","from":{"name":"Constantin / Cabot","stopId":"1:766","stopCode":"766","lon":-71.066135,"lat":48.448135,"arrival":1522697621000,"departure":1522697622000,"zoneId":"NA","stopIndex":30,"stopSequence":31,"vertexType":"TRANSIT"},"to":{"name":"Terminus Chicoutimi","stopId":"1:1289","stopCode":"1289","lon":-71.066163,"lat":48.428677,"arrival":1522698000000,"departure":1522698300000,"zoneId":"NA","stopIndex":35,"stopSequence":36,"vertexType":"TRANSIT"},"legGeometry":{"points":"uoufH`bwpLbA`A|BrBnDrCl@f@|BlBrAbAj@d@ZTXNd@@lA[ZxDN|Ad@fAz@tB~AzDZ|@Zv@x@vBP\\h@~@PVrCmFhHqN~@eBr@cAt@_Av@}@RQPMz@k@tAe@REZG^Af@@X@VF`@Jn@XbClAr@Xt\\`PrAb@pA^hBTjAFj@Pb@JPHLLJNJRFXDT?X?ZEVEVKTMNMHMFOB}DWSGOSYcAN}FFkAF}DJyDd@wPV_HjAN~ALIzBQb@e@@","length":80},"routeShortName":"22","routeLongName":"Vanier","rentedBike":false,"transitLeg":true,"duration":378.0,"steps":[]},{"startTime":1522698300000,"endTime":1522699434000,"departureDelay":0,"arrivalDelay":0,"realTime":false,"distance":4730.926121913137,"pathway":false,"mode":"BUS","route":"15","agencyName":"Société de Transport du Saguenay","agencyUrl":"http://ville.saguenay.ca/fr/services-aux-citoyens/transport-sts","agencyTimeZoneOffset":-14400000,"routeColor":"FF00FF","routeType":3,"routeId":"1:15","routeTextColor":"FFFFFF","interlineWithPreviousLeg":false,"tripBlockId":"31","headsign":"Talbot / Barrette","agencyId":"0","tripId":"1:218140","serviceDate":"20180402","from":{"name":"Terminus Chicoutimi","stopId":"1:1289","stopCode":"1289","lon":-71.066163,"lat":48.428677,"arrival":1522698000000,"departure":1522698300000,"zoneId":"NA","stopIndex":0,"stopSequence":1,"vertexType":"TRANSIT"},"to":{"name":"Saguenéens (no. 129)","stopId":"1:2000","stopCode":"2000","lon":-71.067064,"lat":48.407463,"arrival":1522699434000,"departure":1522699435000,"zoneId":"NA","stopIndex":19,"stopSequence":20,"vertexType":"TRANSIT"},"legGeometry":{"points":"evqfHpbwpLPiCjKx@HiEZkS\\aSN_K^eIrBpBvIpIr@r@\\mBfAaA`@gBOkB_@uF|DyL|DpDQ|@|@z@bA`ATw@dD~Ch@fA@`E~AjGuH`Iy@bBi@dCbEdEjJlJ`HbHlJpJ|J~JdAfALzDNzDrAdBrEKvBEbCv@d@TvFlC|DlBpMlGrB`AM}@hAwEC{B]oBiBmBsH_@_K{H`EgI","length":54},"routeShortName":"15","routeLongName":"Term. Chic / Costco","rentedBike":false,"transitLeg":true,"duration":1134.0,"steps":[]},{"startTime":1522699435000,"endTime":1522700012000,"departureDelay":0,"arrivalDelay":0,"realTime":false,"distance":745.8480000000001,"pathway":false,"mode":"WALK","route":"","agencyTimeZoneOffset":-14400000,"interlineWithPreviousLeg":false,"from":{"name":"Saguenéens (no. 129)","stopId":"1:2000","stopCode":"2000","lon":-71.067064,"lat":48.407463,"arrival":1522699434000,"departure":1522699435000,"zoneId":"NA","stopIndex":19,"stopSequence":20,"vertexType":"TRANSIT"},"to":{"name":"Destination","lon":-71.06000299,"lat":48.409854,"arrival":1522700012000,"orig":"","vertexType":"NORMAL"},"legGeometry":{"points":"gqmfHphwpLPa@qB{BTi@Py@_@g@mD{BmAy@_AkGIs@@wAB[aAIk@Qa@UMSA]Ni@xAuDkA{A","length":20},"rentedBike":false,"transitLeg":false,"duration":577.0,"steps":[{"distance":16.212,"relativeDirection":"DEPART","streetName":"Rue des Saguenéens","absoluteDirection":"SOUTHEAST","stayOn":false,"area":false,"bogusName":false,"lon":-71.06712694989164,"lat":48.40740751123809,"elevation":[]},{"distance":77.658,"relativeDirection":"LEFT","streetName":"path","absoluteDirection":"NORTHEAST","stayOn":false,"area":false,"bogusName":true,"lon":-71.0669515,"lat":48.4073198,"elevation":[]},{"distance":173.83,"relativeDirection":"RIGHT","streetName":"Rue Duhaime","absoluteDirection":"SOUTHEAST","stayOn":false,"area":false,"bogusName":false,"lon":-71.0663385,"lat":48.4078874,"elevation":[]},{"distance":217.031,"relativeDirection":"CONTINUE","streetName":"Rue Belleau","absoluteDirection":"NORTHEAST","stayOn":false,"area":false,"bogusName":false,"lon":-71.06501420000001,"lat":48.408712400000006,"elevation":[]},{"distance":206.781,"relativeDirection":"LEFT","streetName":"Rue Létondal","absoluteDirection":"NORTH","stayOn":false,"area":false,"bogusName":false,"lon":-71.0625433,"lat":48.409441300000005,"elevation":[]},{"distance":54.336,"relativeDirection":"LEFT","streetName":"Rue Albani","absoluteDirection":"NORTHEAST","stayOn":false,"area":false,"bogusName":false,"lon":-71.06092220000001,"lat":48.4097133,"elevation":[]}]}],"tooSloped":false},{"duration":2163,"startTime":1522698912000,"endTime":1522701075000,"walkTime":732,"transitTime":1249,"waitingTime":182,"walkDistance":945.8583308227977,"walkLimitExceeded":false,"elevationLost":0.0,"elevationGained":0.0,"transfers":1,"legs":[{"startTime":1522698912000,"endTime":1522699067000,"departureDelay":0,"arrivalDelay":0,"realTime":false,"distance":199.87800000000001,"pathway":false,"mode":"WALK","route":"","agencyTimeZoneOffset":-14400000,"interlineWithPreviousLeg":false,"from":{"name":"Origin","lon":-71.064498,"lat":48.446692,"departure":1522698912000,"orig":"","vertexType":"NORMAL"},"to":{"name":"Cabot / Delisle","stopId":"1:788","stopCode":"788","lon":-71.063276,"lat":48.447779,"arrival":1522699067000,"departure":1522699068000,"zoneId":"NA","stopIndex":11,"stopSequence":12,"vertexType":"TRANSIT"},"legGeometry":{"points":"yfufHfxvpL_G}BZ_C","length":3},"rentedBike":false,"transitLeg":false,"duration":155.0,"steps":[{"distance":150.108,"relativeDirection":"DEPART","streetName":"Rue Delisle","absoluteDirection":"NORTH","stayOn":false,"area":false,"bogusName":false,"lon":-71.06451804601737,"lat":48.44669634966235,"elevation":[]},{"distance":49.77,"relativeDirection":"RIGHT","streetName":"Rue Cabot","absoluteDirection":"EAST","stayOn":false,"area":false,"bogusName":false,"lon":-71.06388530000001,"lat":48.4479794,"elevation":[]}]},{"startTime":1522699068000,"endTime":1522699680000,"departureDelay":0,"arrivalDelay":0,"realTime":false,"distance":4085.4873126775346,"pathway":false,"mode":"BUS","route":"23","agencyName":"Société de Transport du Saguenay","agencyUrl":"http://ville.saguenay.ca/fr/services-aux-citoyens/transport-sts","agencyTimeZoneOffset":-14400000,"routeColor":"FF00FF","routeType":3,"routeId":"1:23","routeTextColor":"FFFFFF","interlineWithPreviousLeg":false,"tripBlockId":"5","headsign":"Terminus Chicoutimi","agencyId":"0","tripId":"1:217268","serviceDate":"20180402","from":{"name":"Cabot / Delisle","stopId":"1:788","stopCode":"788","lon":-71.063276,"lat":48.447779,"arrival":1522699067000,"departure":1522699068000,"zoneId":"NA","stopIndex":11,"stopSequence":12,"vertexType":"TRANSIT"},"to":{"name":"Terminus Chicoutimi","stopId":"1:1289","stopCode":"1289","lon":-71.066163,"lat":48.428677,"arrival":1522699680000,"departure":1522699860000,"zoneId":"NA","stopIndex":26,"stopSequence":27,"vertexType":"TRANSIT"},"legGeometry":{"points":"_nufHhpvpL`AgHz@oGBU?UAWCWUwAWD]B]AUEoAc@kE}AOIq@g@g@u@]w@b@s@T[~CkFf@s@\\e@x@}@jAeAXQZStBaAh@]`@]`@i@l@kDF_@R{AFWFMPIPC`@BT@V?TAVKLENCLCJ@J@xAb@x@Zz@\\CP?R@N@NFLFF`GtBx@Xw@pG@l@B\\DXL\\RZDFXPf@N@v@Bp@Dr@l@~HNlAH\\@HLd@\\z@Xd@X\\RTXRr@Zn@PfExAvDpALnBJt@Pp@|@`DHZPn@`@rBNnAFr@DbA?bB@jABzA?p@A???A???A?A???A@??A?A@??A@?@A??@A@???@A@?@?@A@?@?@?@?@???@?@?@?@?@?@@@?@?@@@?@@@?@@@?@@?@@??@@@?E`@Kr@]rACVEl@I|AAr@JbAWJe@FUAM?a@Ke@YYWWa@v@}@RQPMz@k@tAe@REZG^Af@@X@VF`@Jn@XbClAr@Xt\\`PrAb@pA^hBTjAFj@Pb@JPHLLJNJRFXDT?X?ZEVEVKTMNMHMFOB}DWSGOSYcAN}FFkAF}DJyDd@wPV_HjAN~ALI`C","length":213},"routeShortName":"23","routeLongName":"Côte Verdun via Aréna du Plateau","rentedBike":false,"transitLeg":true,"duration":612.0,"steps":[]},{"startTime":1522699860000,"endTime":1522700497000,"departureDelay":0,"arrivalDelay":0,"realTime":false,"distance":3322.0342705272296,"pathway":false,"mode":"BUS","route":"415S","agencyName":"Société de Transport du Saguenay","agencyUrl":"http://ville.saguenay.ca/fr/services-aux-citoyens/transport-sts","agencyTimeZoneOffset":-14400000,"routeColor":"8B0000","routeType":3,"routeId":"1:415S","routeTextColor":"FFFFFF","interlineWithPreviousLeg":false,"tripBlockId":"68","headsign":"Costco","agencyId":"0","tripId":"1:218587","serviceDate":"20180402","from":{"name":"Terminus Chicoutimi","stopId":"1:1289","stopCode":"1289","lon":-71.066163,"lat":48.428677,"arrival":1522699680000,"departure":1522699860000,"zoneId":"NA","stopIndex":0,"stopSequence":1,"vertexType":"TRANSIT"},"to":{"name":"Saguenéens (no. 116)","stopId":"1:577","stopCode":"577","lon":-71.067204,"lat":48.40734,"arrival":1522700497000,"departure":1522700498000,"zoneId":"NA","stopIndex":12,"stopSequence":13,"vertexType":"TRANSIT"},"legGeometry":{"points":"kwqfHjbwpLF_CzDX|BXfCNF}D@YRcFJgLNuNDkCHkFVoKT}@dBnBBBpInIdG`GtFrFv@p@hCvCf@f@lJjJpLpLj@n@nAlA`BbBxD~DnBvBvBjBd@Tv@FzBD^Bt@Pd@TRLNJZXj@\\p@Rd@D~CEtBIh@@D@XFXHh@_B`CmG","length":50},"routeShortName":"415S","routeLongName":"Term. Chic / Costco","rentedBike":false,"transitLeg":true,"duration":637.0,"steps":[]},{"startTime":1522700498000,"endTime":1522701075000,"departureDelay":0,"arrivalDelay":0,"realTime":false,"distance":745.8480000000001,"pathway":false,"mode":"WALK","route":"","agencyTimeZoneOffset":-14400000,"interlineWithPreviousLeg":false,"from":{"name":"Saguenéens (no. 116)","stopId":"1:577","stopCode":"577","lon":-71.067204,"lat":48.40734,"arrival":1522700497000,"departure":1522700498000,"zoneId":"NA","stopIndex":12,"stopSequence":13,"vertexType":"TRANSIT"},"to":{"name":"Destination","lon":-71.06000299,"lat":48.409854,"arrival":1522701075000,"orig":"","vertexType":"NORMAL"},"legGeometry":{"points":"gqmfHphwpLPa@qB{BTi@Py@_@g@mD{BmAy@_AkGIs@@wAB[aAIk@Qa@UMSA]Ni@xAuDkA{A","length":20},"rentedBike":false,"transitLeg":false,"duration":577.0,"steps":[{"distance":16.212,"relativeDirection":"DEPART","streetName":"Rue des Saguenéens","absoluteDirection":"SOUTHEAST","stayOn":false,"area":false,"bogusName":false,"lon":-71.06712694989164,"lat":48.40740751123809,"elevation":[]},{"distance":77.658,"relativeDirection":"LEFT","streetName":"path","absoluteDirection":"NORTHEAST","stayOn":false,"area":false,"bogusName":true,"lon":-71.0669515,"lat":48.4073198,"elevation":[]},{"distance":173.83,"relativeDirection":"RIGHT","streetName":"Rue Duhaime","absoluteDirection":"SOUTHEAST","stayOn":false,"area":false,"bogusName":false,"lon":-71.0663385,"lat":48.4078874,"elevation":[]},{"distance":217.031,"relativeDirection":"CONTINUE","streetName":"Rue Belleau","absoluteDirection":"NORTHEAST","stayOn":false,"area":false,"bogusName":false,"lon":-71.06501420000001,"lat":48.408712400000006,"elevation":[]},{"distance":206.781,"relativeDirection":"LEFT","streetName":"Rue Létondal","absoluteDirection":"NORTH","stayOn":false,"area":false,"bogusName":false,"lon":-71.0625433,"lat":48.409441300000005,"elevation":[]},{"distance":54.336,"relativeDirection":"LEFT","streetName":"Rue Albani","absoluteDirection":"NORTHEAST","stayOn":false,"area":false,"bogusName":false,"lon":-71.06092220000001,"lat":48.4097133,"elevation":[]}]}],"tooSloped":false}]},"debugOutput":{"precalculationTime":41,"pathCalculationTime":39,"pathTimes":[22,10,7],"renderingTime":1,"totalTime":81,"timedOut":false},"elevationMetadata":{"ellipsoidToGeoidDifference":-28.885904201182168,"geoidElevation":false}}