{"requestParameters":{"date":"2018/04/02","walkSpeed":"1.33","walkReluctance":"2.0","fromPlace":"48.397561,-71.053802","maxWalkDistance":"3000","waitReluctance":"1.0","carSpeed":"33","numItineraries":"3","waitAtBeginningFactor":"0.4","mode":"TRANSIT,WALK","ignoreRealtimeUpdates":"false","stairsReluctance":"2.0","toPlace":"48.411025,-71.054072","time":"7:0:00"},"plan":{"date":1522666800000,"from":{"name":"Origin","lon":-71.053802,"lat":48.397561,"orig":"","vertexType":"NORMAL"},"to":{"name":"Destination","lon":-71.054072,"lat":48.411025,"orig":"","vertexType":"NORMAL"},"itineraries":[{"duration":1688,"startTime":1522666800000,"endTime":1522668488000,"walkTime":1688,"transitTime":0,"waitingTime":0,"walkDistance":2186.332488715497,"walkLimitExceeded":false,"elevationLost":0.0,"elevationGained":0.0,"transfers":0,"legs":[{"startTime":1522666800000,"endTime":1522668488000,"departureDelay":0,"arrivalDelay":0,"realTime":false,"distance":2186.137,"pathway":false,"mode":"WALK","route":"","agencyTimeZoneOffset":-14400000,"interlineWithPreviousLeg":false,"from":{"name":"Origin","lon":-71.053802,"lat":48.397561,"departure":1522666800000,"orig":"","vertexType":"NORMAL"},"to":{"name":"Destination","lon":-71.054072,"lat":48.411025,"arrival":1522668488000,"orig":"","vertexType":"NORMAL"},"legGeometry":{"points":"{rkfHlstpLiBoBMMeBgBmByBm@o@SOCAuA}@}A[s@EA?}@Eg@E}ANq@TUF_@JkEhAsBl@OFe@L_@DgA?uAK}@M}@Cq@Dm@Pu@\\cA`AgAtAQTyAeCSKUFSXQb@MDSKcAeAKCSLu@lBwBwBADu@rBc@hAEJK^OOmAiAmGoGo@s@K\\gA|CHHpAjALpA?tDl@`C@D","length":62},"rentedBike":false,"transitLeg":false,"duration":1688.0,"steps":[{"distance":559.9359999999999,"relativeDirection":"DEPART","streetName":"Rue des Engoulevents","absoluteDirection":"NORTHEAST","stayOn":false,"area":false,"bogusName":false,"lon":-71.05350955104642,"lat":48.397424164397215,"elevation":[]},{"distance":603.137,"relativeDirection":"CONTINUE","streetName":"Rue des Champs-Élysées","absoluteDirection":"NORTH","stayOn":false,"area":false,"bogusName":false,"lon":-71.0511074,"lat":48.401948700000005,"elevation":[]},{"distance":448.50199999999995,"relativeDirection":"RIGHT","streetName":"service road","absoluteDirection":"NORTHEAST","stayOn":false,"area":false,"bogusName":true,"lon":-71.05289400000001,"lat":48.4070874,"elevation":[]},{"distance":274.903,"relativeDirection":"RIGHT","streetName":"Boulevard Talbot","absoluteDirection":"NORTHEAST","stayOn":false,"area":false,"bogusName":false,"lon":-71.05333350000001,"lat":48.410025100000006,"elevation":[]},{"distance":84.041,"relativeDirection":"LEFT","streetName":"Boulevard de l'Université","absoluteDirection":"NORTHWEST","stayOn":false,"area":false,"bogusName":false,"lon":-71.051266,"lat":48.412081,"elevation":[]},{"distance":215.618,"relativeDirection":"LEFT","streetName":"Rue Thérèse-Casgrain","absoluteDirection":"SOUTHWEST","stayOn":false,"area":false,"bogusName":false,"lon":-71.0522085,"lat":48.412505100000004,"elevation":[]}]}],"tooSloped":false},{"duration":1292,"startTime":1522667420000,"endTime":1522668712000,"walkTime":986,"transitTime":304,"waitingTime":2,"walkDistance":1271.4119774390601,"walkLimitExceeded":false,"elevationLost":0.0,"elevationGained":0.0,"transfers":0,"legs":[{"startTime":1522667420000,"endTime":1522668158000,"departureDelay":0,"arrivalDelay":0,"realTime":false,"distance":954.8959999999998,"pathway":false,"mode":"WALK","route":"","agencyTimeZoneOffset":-14400000,"interlineWithPreviousLeg":false,"from":{"name":"Origin","lon":-71.053802,"lat":48.397561,"departure":1522667420000,"orig":"","vertexType":"NORMAL"},"to":{"name":"boul. Talbot / Laurentides","stopId":"1:51","stopCode":"51","lon":-71.063914,"lat":48.398861,"arrival":1522668158000,"departure":1522668159000,"zoneId":"NA","stopIndex":9,"stopSequence":10,"vertexType":"TRANSIT"},"legGeometry":{"points":"{rkfHlstpLf@j@d@p@^l@oBhFUl@sCpHk@xAO`@??}A`Eo@`BIVO^d@zCJ|@VbCErCm@rBUn@_@fAdB~BV\\FH","length":24},"rentedBike":false,"transitLeg":false,"duration":738.0,"steps":[{"distance":80.175,"relativeDirection":"DEPART","streetName":"Rue des Engoulevents","absoluteDirection":"SOUTHWEST","stayOn":false,"area":false,"bogusName":false,"lon":-71.05350955104642,"lat":48.397424164397215,"elevation":[]},{"distance":482.657,"relativeDirection":"RIGHT","streetName":"Rue des Crécerelles","absoluteDirection":"NORTHWEST","stayOn":false,"area":false,"bogusName":false,"lon":-71.0542028,"lat":48.3968707,"elevation":[]},{"distance":85.619,"relativeDirection":"LEFT","streetName":"Rue des Grands-Ducs","absoluteDirection":"WEST","stayOn":false,"area":false,"bogusName":false,"lon":-71.05949000000001,"lat":48.3994237,"elevation":[]},{"distance":208.717,"relativeDirection":"CONTINUE","streetName":"path","absoluteDirection":"WEST","stayOn":false,"area":false,"bogusName":true,"lon":-71.0605886,"lat":48.3991787,"elevation":[]},{"distance":97.728,"relativeDirection":"LEFT","streetName":"Boulevard Talbot","absoluteDirection":"SOUTHWEST","stayOn":false,"area":false,"bogusName":false,"lon":-71.0631635,"lat":48.399589600000006,"elevation":[]}]},{"startTime":1522668159000,"endTime":1522668463000,"departureDelay":0,"arrivalDelay":0,"realTime":false,"distance":1900.353372980156,"pathway":false,"mode":"BUS","route":"175","agencyName":"Société de Transport du Saguenay","agencyUrl":"http://ville.saguenay.ca/fr/services-aux-citoyens/transport-sts","agencyTimeZoneOffset":-14400000,"routeColor":"FF00FF","routeType":3,"routeId":"1:175","routeTextColor":"FFFFFF","interlineWithPreviousLeg":false,"tripBlockId":"9","headsign":"Terminus Chicoutimi","agencyId":"0","tripId":"1:217393","serviceDate":"20180402","from":{"name":"boul. Talbot / Laurentides","stopId":"1:51","stopCode":"51","lon":-71.063914,"lat":48.398861,"arrival":1522668158000,"departure":1522668159000,"zoneId":"NA","stopIndex":9,"stopSequence":10,"vertexType":"TRANSIT"},"to":{"name":"boul. Université / Alma","stopId":"1:60","stopCode":"60","lon":-71.052847,"lat":48.413175,"arrival":1522668463000,"departure":1522668464000,"zoneId":"NA","stopIndex":12,"stopSequence":13,"vertexType":"TRANSIT"},"legGeometry":{"points":"q|kfHtuvpL}FkImPkOuO{N_U_TcNgNcBcB{E`J","length":8},"routeShortName":"175","routeLongName":"Term. Chic / Costco","rentedBike":false,"transitLeg":true,"duration":304.0,"steps":[]},{"startTime":1522668464000,"endTime":1522668712000,"departureDelay":0,"arrivalDelay":0,"realTime":false,"distance":316.375,"pathway":false,"mode":"WALK","route":"","agencyTimeZoneOffset":-14400000,"interlineWithPreviousLeg":false,"from":{"name":"boul. Université / Alma","stopId":"1:60","stopCode":"60","lon":-71.052847,"lat":48.413175,"arrival":1522668463000,"departure":1522668464000,"zoneId":"NA","stopIndex":12,"stopSequence":13,"vertexType":"TRANSIT"},"to":{"name":"Destination","lon":-71.054072,"lat":48.411025,"arrival":1522668712000,"orig":"","vertexType":"NORMAL"},"legGeometry":{"points":"gunfHpotpL^]hAaCXVHHpAjALpA?tDl@`C@D","length":10},"rentedBike":false,"transitLeg":false,"duration":248.0,"steps":[{"distance":83.772,"relativeDirection":"DEPART","streetName":"Boulevard de l'Université","absoluteDirection":"SOUTHEAST","stayOn":false,"area":false,"bogusName":false,"lon":-71.05288001080534,"lat":48.41316151165065,"elevation":[]},{"distance":16.985,"relativeDirection":"RIGHT","streetName":"Rue d'Alma","absoluteDirection":"SOUTHWEST","stayOn":false,"area":false,"bogusName":false,"lon":-71.0520843,"lat":48.4126337,"elevation":[]},{"distance":215.618,"relativeDirection":"CONTINUE","streetName":"Rue Thérèse-Casgrain","absoluteDirection":"SOUTHWEST","stayOn":false,"area":false,"bogusName":false,"lon":-71.0522085,"lat":48.412505100000004,"elevation":[]}]}],"tooSloped":false},{"duration":1458,"startTime":1522667696000,"endTime":1522669154000,"walkTime":941,"transitTime":515,"waitingTime":2,"walkDistance":1201.2945939772962,"walkLimitExceeded":false,"elevationLost":0.0,"elevationGained":0.0,"transfers":0,"legs":[{"startTime":1522667696000,"endTime":1522667738000,"departureDelay":0,"arrivalDelay":0,"realTime":false,"distance":55.096,"pathway":false,"mode":"WALK","route":"","agencyTimeZoneOffset":-14400000,"interlineWithPreviousLeg":false,"from":{"name":"Origin","lon":-71.053802,"lat":48.397561,"departure":1522667696000,"orig":"","vertexType":"NORMAL"},"to":{"name":"Engoulevents / Crécerelles","stopId":"1:56","stopCode":"56","lon":-71.054115,"lat":48.397122,"arrival":1522667738000,"departure":1522667739000,"zoneId":"NA","stopIndex":22,"stopSequence":23,"vertexType":"TRANSIT"},"legGeometry":{"points":"{rkfHlstpLf@j@d@p@","length":3},"rentedBike":false,"transitLeg":false,"duration":42.0,"steps":[{"distance":55.096,"relativeDirection":"DEPART","streetName":"Rue des Engoulevents","absoluteDirection":"SOUTHWEST","stayOn":false,"area":false,"bogusName":false,"lon":-71.05350955104642,"lat":48.397424164397215,"elevation":[]}]},{"startTime":1522667739000,"endTime":1522668254000,"departureDelay":0,"arrivalDelay":0,"realTime":false,"distance":2881.485199758441,"pathway":false,"mode":"BUS","route":"105S","agencyName":"Société de Transport du Saguenay","agencyUrl":"http://ville.saguenay.ca/fr/services-aux-citoyens/transport-sts","agencyTimeZoneOffset":-14400000,"routeColor":"8B0000","routeType":3,"routeId":"1:105S","routeTextColor":"FFFFFF","interlineWithPreviousLeg":false,"tripBlockId":"39","headsign":"Terminus Chicoutimi","agencyId":"0","tripId":"1:218335","serviceDate":"20180402","from":{"name":"Engoulevents / Crécerelles","stopId":"1:56","stopCode":"56","lon":-71.054115,"lat":48.397122,"arrival":1522667738000,"departure":1522667739000,"zoneId":"NA","stopIndex":22,"stopSequence":23,"vertexType":"TRANSIT"},"to":{"name":"Résidence Funéraire (Bégin)","stopId":"1:582","stopCode":"582","lon":-71.063981,"lat":48.416642,"arrival":1522668254000,"departure":1522668255000,"zoneId":"NA","stopIndex":37,"stopSequence":38,"vertexType":"TRANSIT"},"legGeometry":{"points":"upkfHxvtpL^l@W\\Ul@_AfCwC`ISf@YhAUp@CHkCvGg@lAgBuBmAkAo@s@[c@_@o@Wk@KWS[e@g@c@]e@We@KSEi@bDUxAm@nCcAlDeCvGmA|CUr@}@~A_@\\_DvCEZcA|@UP_@d@Yl@oBdFeCxG_CfGo@h@CBIDQHY@S@SLuBH_DDe@Eq@Sk@][YMIUOe@Uu@Q_@C{BEw@Ge@Uc@_@sAkAoBwB_EcE{A_BoAmAk@o@cCaC","length":72},"routeShortName":"105S","routeLongName":"Terminus Chicoutimi via Bégin","rentedBike":false,"transitLeg":true,"duration":515.0,"steps":[]},{"startTime":1522668255000,"endTime":1522669154000,"departureDelay":0,"arrivalDelay":0,"realTime":false,"distance":1145.961,"pathway":false,"mode":"WALK","route":"","agencyTimeZoneOffset":-14400000,"interlineWithPreviousLeg":false,"from":{"name":"Résidence Funéraire (Bégin)","stopId":"1:582","stopCode":"582","lon":-71.063981,"lat":48.416642,"arrival":1522668254000,"departure":1522668255000,"zoneId":"NA","stopIndex":37,"stopSequence":38,"vertexType":"TRANSIT"},"to":{"name":"Destination","lon":-71.054072,"lat":48.411025,"arrival":1522669154000,"orig":"","vertexType":"NORMAL"},"legGeometry":{"points":"gkofHpuvpL\\X|A`BFDj@kB??FQNi@bA}FnAoDd@qA??hAcDXa@oAeBEUa@_BEiBAaANBpBMzA]K_B~BmGFShB_FXUPNdCcB@D","length":30},"rentedBike":false,"transitLeg":false,"duration":899.0,"steps":[{"distance":88.092,"relativeDirection":"DEPART","streetName":"Rue Bégin","absoluteDirection":"SOUTHWEST","stayOn":false,"area":false,"bogusName":false,"lon":-71.0640821702576,"lat":48.416683565223295,"elevation":[]},{"distance":381.059,"relativeDirection":"LEFT","streetName":"Rue des Champs-Élysées","absoluteDirection":"SOUTHEAST","stayOn":false,"area":false,"bogusName":false,"lon":-71.0647342,"lat":48.416021,"elevation":[]},{"distance":170.211,"relativeDirection":"LEFT","streetName":"Rue Marguerite-Tellier","absoluteDirection":"NORTHEAST","stayOn":false,"area":false,"bogusName":false,"lon":-71.0603414,"lat":48.4142597,"elevation":[]},{"distance":124.541,"relativeDirection":"RIGHT","streetName":"Rue Thérèse-Casgrain","absoluteDirection":"SOUTH","stayOn":false,"area":false,"bogusName":false,"lon":-71.0583806,"lat":48.4148926,"elevation":[]},{"distance":284.544,"relativeDirection":"LEFT","streetName":"Rue Maria-Chapdelaine","absoluteDirection":"EAST","stayOn":false,"area":false,"bogusName":false,"lon":-71.05818090000001,"lat":48.4137865,"elevation":[]},{"distance":11.968,"relativeDirection":"RIGHT","streetName":"Rue Judith-Jasmin","absoluteDirection":"SOUTHWEST","stayOn":false,"area":false,"bogusName":false,"lon":-71.05502750000001,"lat":48.412504500000004,"elevation":[]},{"distance":82.632,"relativeDirection":"LEFT","streetName":"path","absoluteDirection":"SOUTHEAST","stayOn":false,"area":false,"bogusName":true,"lon":-71.0551099,"lat":48.4124118,"elevation":[]},{"distance":2.914,"relativeDirection":"RIGHT","streetName":"Rue Thérèse-Casgrain","absoluteDirection":"SOUTHWEST","stayOn":false,"area":false,"bogusName":false,"lon":-71.0546051,"lat":48.4117485,"elevation":[]}]}],"tooSloped":false}]},"debugOutput":{"precalculationTime":46,"pathCalculationTime":39,"pathTimes":[21,9,9],"renderingTime":0,"totalTime":85,"timedOut":false},"elevationMetadata":{"ellipsoidToGeoidDifference":-28.885904201182168,"geoidElevation":false}}