{"requestParameters":{"date":"2018/04/02","walkSpeed":"1.33","walkReluctance":"2.0","fromPlace":"48.424575,-71.085933","maxWalkDistance":"3000","waitReluctance":"1.0","carSpeed":"33","numItineraries":"3","waitAtBeginningFactor":"0.4","mode":"TRANSIT,WALK","ignoreRealtimeUpdates":"false","stairsReluctance":"2.0","toPlace":"48.392558,-71.060626","time":"12:0:00"},"plan":{"date":1522684800000,"from":{"name":"Origin","lon":-71.085933,"lat":48.424575,"orig":"","vertexType":"NORMAL"},"to":{"name":"Destination","lon":-71.060626,"lat":48.392558,"orig":"","vertexType":"NORMAL"},"itineraries":[{"duration":2483,"startTime":1522684924000,"endTime":1522687407000,"walkTime":253,"transitTime":1988,"waitingTime":242,"walkDistance":325.4039624048869,"walkLimitExceeded":false,"elevationLost":0.0,"elevationGained":0.0,"transfers":1,"legs":[{"startTime":1522684924000,"endTime":1522685022000,"departureDelay":0,"arrivalDelay":0,"realTime":false,"distance":127.471,"pathway":false,"mode":"WALK","route":"","agencyTimeZoneOffset":-14400000,"interlineWithPreviousLeg":false,"from":{"name":"Origin","lon":-71.085933,"lat":48.424575,"departure":1522684924000,"orig":"","vertexType":"NORMAL"},"to":{"name":"ch. de la Réserve / Ste-Cécile","stopId":"1:624","stopCode":"624","lon":-71.084991,"lat":48.425617,"arrival":1522685022000,"departure":1522685023000,"zoneId":"NA","stopIndex":29,"stopSequence":30,"vertexType":"TRANSIT"},"legGeometry":{"points":"s~pfHt`{pLi@mAg@eACG_AiB","length":5},"rentedBike":false,"transitLeg":false,"duration":98.0,"steps":[{"distance":127.471,"relativeDirection":"DEPART","streetName":"Chemin de la Réserve","absoluteDirection":"NORTHEAST","stayOn":false,"area":false,"bogusName":false,"lon":-71.08634377387187,"lat":48.42490114010369,"elevation":[]}]},{"startTime":1522685023000,"endTime":1522685460000,"departureDelay":0,"arrivalDelay":0,"realTime":false,"distance":1824.8346300120436,"pathway":false,"mode":"BUS","route":"16","agencyName":"Société de Transport du Saguenay","agencyUrl":"http://ville.saguenay.ca/fr/services-aux-citoyens/transport-sts","agencyTimeZoneOffset":-14400000,"routeColor":"00FF00","routeType":3,"routeId":"1:16","routeTextColor":"000000","interlineWithPreviousLeg":false,"tripBlockId":"37","headsign":"Terminus Chicoutimi","agencyId":"0","tripId":"1:218313","serviceDate":"20180402","from":{"name":"ch. de la Réserve / Ste-Cécile","stopId":"1:624","stopCode":"624","lon":-71.084991,"lat":48.425617,"arrival":1522685022000,"departure":1522685023000,"zoneId":"NA","stopIndex":29,"stopSequence":30,"vertexType":"TRANSIT"},"to":{"name":"Terminus Chicoutimi","stopId":"1:1289","stopCode":"1289","lon":-71.066163,"lat":48.428677,"arrival":1522685460000,"departure":1522685700000,"zoneId":"NA","stopIndex":35,"stopSequence":36,"vertexType":"TRANSIT"},"legGeometry":{"points":"mcqfHtxzpLQ[sAuC{@sBeCcGqAwC[g@]a@aAw@[_@cA}A_@w@GU[iDWaDzByCv@cA`@e@TSp@g@nAo@nBm@ZSf@c@PMb@[b@_@b@e@PYP]N_@La@P{@NcB@IBcAG_A{@sEEg@oAP}@DiBDFeBMa@iBCq@FmBPFcEDoBNiHyDWN_HBoA@Y@m@","length":55},"routeShortName":"16","routeLongName":"Côte de la Réserve","rentedBike":false,"transitLeg":true,"duration":437.0,"steps":[]},{"startTime":1522685700000,"endTime":1522687251000,"departureDelay":0,"arrivalDelay":0,"realTime":false,"distance":8015.718037146158,"pathway":false,"mode":"BUS","route":"15","agencyName":"Société de Transport du Saguenay","agencyUrl":"http://ville.saguenay.ca/fr/services-aux-citoyens/transport-sts","agencyTimeZoneOffset":-14400000,"routeColor":"FF00FF","routeType":3,"routeId":"1:15","routeTextColor":"FFFFFF","interlineWithPreviousLeg":false,"tripBlockId":"33","headsign":"Talbot / Barrette","agencyId":"0","tripId":"1:218183","serviceDate":"20180402","from":{"name":"Terminus Chicoutimi","stopId":"1:1289","stopCode":"1289","lon":-71.066163,"lat":48.428677,"arrival":1522685460000,"departure":1522685700000,"zoneId":"NA","stopIndex":0,"stopSequence":1,"vertexType":"TRANSIT"},"to":{"name":"Roitelets / Colombes","stopId":"1:1544","stopCode":"1544","lon":-71.059204,"lat":48.393412,"arrival":1522687251000,"departure":1522687252000,"zoneId":"NA","stopIndex":32,"stopSequence":33,"vertexType":"TRANSIT"},"legGeometry":{"points":"evqfHpbwpLPiCjKx@HiEZkS\\aSN_K^eIrBpBvIpIr@r@\\mBfAaA`@gBOkB_@uF|DyL|DpDQ|@|@z@bA`ATw@dD~Ch@fA@`E~AjGuH`Iy@bBi@dCbEdEjJlJ`HbHlJpJ|J~JdAfALzDNzDrAdBrEKvBEbCv@d@TvFlC|DlBpMlGrB`AM}@hAwEC{B]oBiBmBsH_@_K{H`EgIvCaGfEoItDsH~DeItC{FnBoLbCaO?qLa@uJzF`ApF~@~@PzAgEeDcBf@qAWcKUqEx@Ef@ExDVjDxAFBrBvAfGjG@BjCzC~DxC@@zA~Cb@fCJlC?BsBre@?D","length":88},"routeShortName":"15","routeLongName":"Term. Chic / Costco","rentedBike":false,"transitLeg":true,"duration":1551.0,"steps":[]},{"startTime":1522687252000,"endTime":1522687407000,"departureDelay":0,"arrivalDelay":0,"realTime":false,"distance":197.898,"pathway":false,"mode":"WALK","route":"","agencyTimeZoneOffset":-14400000,"interlineWithPreviousLeg":false,"from":{"name":"Roitelets / Colombes","stopId":"1:1544","stopCode":"1544","lon":-71.059204,"lat":48.393412,"arrival":1522687251000,"departure":1522687252000,"zoneId":"NA","stopIndex":32,"stopSequence":33,"vertexType":"TRANSIT"},"to":{"name":"Destination","lon":-71.060626,"lat":48.392558,"arrival":1522687407000,"orig":"","vertexType":"NORMAL"},"legGeometry":{"points":"czjfH~vupLA\\KpElD`@TA","length":5},"rentedBike":false,"transitLeg":false,"duration":155.0,"steps":[{"distance":89.11,"relativeDirection":"DEPART","streetName":"bike path","absoluteDirection":"WEST","stayOn":false,"area":false,"bogusName":true,"lon":-71.05919409957978,"lat":48.39346222328547,"elevation":[]},{"distance":108.788,"relativeDirection":"LEFT","streetName":"Rue des Comorans","absoluteDirection":"SOUTH","stayOn":false,"area":false,"bogusName":false,"lon":-71.0603964,"lat":48.3935308,"elevation":[]}]}],"tooSloped":false},{"duration":2022,"startTime":1522685504000,"endTime":1522687526000,"walkTime":1145,"transitTime":875,"waitingTime":2,"walkDistance":1469.1053533788972,"walkLimitExceeded":false,"elevationLost":0.0,"elevationGained":0.0,"transfers":0,"legs":[{"startTime":1522685504000,"endTime":1522686494000,"departureDelay":0,"arrivalDelay":0,"realTime":false,"distance":1271.0659999999998,"pathway":false,"mode":"WALK","route":"","agencyTimeZoneOffset":-14400000,"interlineWithPreviousLeg":false,"from":{"name":"Origin","lon":-71.085933,"lat":48.424575,"departure":1522685504000,"orig":"","vertexType":"NORMAL"},"to":{"name":"Jolliet / Caron","stopId":"1:552","stopCode":"552","lon":-71.073027,"lat":48.420559,"arrival":1522686494000,"departure":1522686495000,"zoneId":"NA","stopIndex":10,"stopSequence":11,"vertexType":"TRANSIT"},"legGeometry":{"points":"s~pfHt`{pLi@mAg@eACG_AiBkBsDxAgEh@{A`AyCXm@Xa@r@u@pBqB~AqBFKVe@La@f@gAHc@RgAD[NeANu@`@qAvAuDbAkCDIN[BIx@uBf@}AXq@Pa@FEFCDCBG@I@K?MESfA_CNc@","length":43},"rentedBike":false,"transitLeg":false,"duration":990.0,"steps":[{"distance":217.481,"relativeDirection":"DEPART","streetName":"Chemin de la Réserve","absoluteDirection":"NORTHEAST","stayOn":false,"area":false,"bogusName":false,"lon":-71.08634377387187,"lat":48.42490114010369,"elevation":[]},{"distance":238.88,"relativeDirection":"RIGHT","streetName":"Côte Saint-Ange","absoluteDirection":"SOUTHEAST","stayOn":false,"area":false,"bogusName":false,"lon":-71.0841347,"lat":48.426195400000005,"elevation":[]},{"distance":658.8380000000001,"relativeDirection":"CONTINUE","streetName":"Rue Dubuc","absoluteDirection":"SOUTHEAST","stayOn":false,"area":false,"bogusName":false,"lon":-71.0815067,"lat":48.424949000000005,"elevation":[]},{"distance":78.343,"relativeDirection":"CONTINUE","streetName":"path","absoluteDirection":"SOUTHEAST","stayOn":false,"area":false,"bogusName":true,"lon":-71.07469880000001,"lat":48.4212916,"elevation":[]},{"distance":77.524,"relativeDirection":"RIGHT","streetName":"Rue Jolliet","absoluteDirection":"SOUTHEAST","stayOn":false,"area":false,"bogusName":false,"lon":-71.07388590000001,"lat":48.420954200000004,"elevation":[]}]},{"startTime":1522686495000,"endTime":1522687260000,"departureDelay":0,"arrivalDelay":0,"realTime":false,"distance":6245.821937629069,"pathway":false,"mode":"BUS","route":"14","agencyName":"Société de Transport du Saguenay","agencyUrl":"http://ville.saguenay.ca/fr/services-aux-citoyens/transport-sts","agencyTimeZoneOffset":-14400000,"routeColor":"C0C000","routeType":3,"routeId":"1:14","routeTextColor":"000000","interlineWithPreviousLeg":false,"tripBlockId":"32","headsign":"Talbot / Barrette","agencyId":"0","tripId":"1:218158","serviceDate":"20180402","from":{"name":"Jolliet / Caron","stopId":"1:552","stopCode":"552","lon":-71.073027,"lat":48.420559,"arrival":1522686494000,"departure":1522686495000,"zoneId":"NA","stopIndex":10,"stopSequence":11,"vertexType":"TRANSIT"},"to":{"name":"Roitelets / Sapins","stopId":"1:1543","stopCode":"1543","lon":-71.069553,"lat":48.393375,"arrival":1522687260000,"departure":1522687260000,"zoneId":"NA","stopIndex":35,"stopSequence":36,"vertexType":"TRANSIT"},"legGeometry":{"points":"kcpfHpmxpLO^bEbEzK`LfBeEtK`KhAdAnCbCvBpCNR~BxAxBf@z@h@vAz@z@{DrCoITTlElEtAnB`@l@pFrD@?fDr@XgAjFuR\\yADm@b@gFd@_B`A}@tEvJBDvC`FtJ|LLNlClC|@^hCYVExCjCb@d@vE`F`BhB?pHaBhRqAbLK~@qBxFqB|FcC~GyC\\aDkDcFsF~CgOtGm[j@oCvEoSl@_CxCmLjAeFpCeKrByHfAqCvH_SLa@","length":65},"routeShortName":"14","routeLongName":"Coopérative","rentedBike":false,"transitLeg":true,"duration":765.0,"steps":[]},{"startTime":1522687260000,"endTime":1522687370000,"departureDelay":0,"arrivalDelay":0,"realTime":false,"distance":765.075271314322,"pathway":false,"mode":"BUS","route":"15","agencyName":"Société de Transport du Saguenay","agencyUrl":"http://ville.saguenay.ca/fr/services-aux-citoyens/transport-sts","agencyTimeZoneOffset":-14400000,"routeColor":"FF00FF","routeType":3,"routeId":"1:15","routeTextColor":"FFFFFF","interlineWithPreviousLeg":true,"tripBlockId":"32","headsign":"Terminus Chicoutimi","agencyId":"0","tripId":"1:218159","serviceDate":"20180402","from":{"name":"Roitelets / Sapins","stopId":"1:1543","stopCode":"1543","lon":-71.069553,"lat":48.393375,"arrival":1522687260000,"departure":1522687260000,"zoneId":"NA","stopIndex":0,"stopSequence":1,"vertexType":"TRANSIT"},"to":{"name":"Roitelets / Colombes","stopId":"1:1544","stopCode":"1544","lon":-71.059204,"lat":48.393412,"arrival":1522687370000,"departure":1522687371000,"zoneId":"NA","stopIndex":3,"stopSequence":4,"vertexType":"TRANSIT"},"legGeometry":{"points":"_zjfHfwwpLx@}BHa@NaADq@@y@Cy@I{@Ka@O[Sg@c@mAWwAMyA?EC]?wABuABmFB{@BmDFuH@i@F[FsC@c@","length":26},"routeShortName":"15","routeLongName":"Term. Chic / Costco","rentedBike":false,"transitLeg":true,"duration":110.0,"steps":[]},{"startTime":1522687371000,"endTime":1522687526000,"departureDelay":0,"arrivalDelay":0,"realTime":false,"distance":197.898,"pathway":false,"mode":"WALK","route":"","agencyTimeZoneOffset":-14400000,"interlineWithPreviousLeg":false,"from":{"name":"Roitelets / Colombes","stopId":"1:1544","stopCode":"1544","lon":-71.059204,"lat":48.393412,"arrival":1522687370000,"departure":1522687371000,"zoneId":"NA","stopIndex":3,"stopSequence":4,"vertexType":"TRANSIT"},"to":{"name":"Destination","lon":-71.060626,"lat":48.392558,"arrival":1522687526000,"orig":"","vertexType":"NORMAL"},"legGeometry":{"points":"czjfH~vupLA\\KpElD`@TA","length":5},"rentedBike":false,"transitLeg":false,"duration":155.0,"steps":[{"distance":89.11,"relativeDirection":"DEPART","streetName":"bike path","absoluteDirection":"WEST","stayOn":false,"area":false,"bogusName":true,"lon":-71.05919409957978,"lat":48.39346222328547,"elevation":[]},{"distance":108.788,"relativeDirection":"LEFT","streetName":"Rue des Comorans","absoluteDirection":"SOUTH","stayOn":false,"area":false,"bogusName":false,"lon":-71.0603964,"lat":48.3935308,"elevation":[]}]}],"tooSloped":false},{"duration":2483,"startTime":1522686724000,"endTime":1522689207000,"walkTime":253,"transitTime":1988,"waitingTime":242,"walkDistance":325.4039624048869,"walkLimitExceeded":false,"elevationLost":0.0,"elevationGained":0.0,"transfers":1,"legs":[{"startTime":1522686724000,"endTime":1522686822000,"departureDelay":0,"arrivalDelay":0,"realTime":false,"distance":127.471,"pathway":false,"mode":"WALK","route":"","agencyTimeZoneOffset":-14400000,"interlineWithPreviousLeg":false,"from":{"name":"Origin","lon":-71.085933,"lat":48.424575,"departure":1522686724000,"orig":"","vertexType":"NORMAL"},"to":{"name":"ch. de la Réserve / Ste-Cécile","stopId":"1:624","stopCode":"624","lon":-71.084991,"lat":48.425617,"arrival":1522686822000,"departure":1522686823000,"zoneId":"NA","stopIndex":29,"stopSequence":30,"vertexType":"TRANSIT"},"legGeometry":{"points":"s~pfHt`{pLi@mAg@eACG_AiB","length":5},"rentedBike":false,"transitLeg":false,"duration":98.0,"steps":[{"distance":127.471,"relativeDirection":"DEPART","streetName":"Chemin de la Réserve","absoluteDirection":"NORTHEAST","stayOn":false,"area":false,"bogusName":false,"lon":-71.08634377387187,"lat":48.42490114010369,"elevation":[]}]},{"startTime":1522686823000,"endTime":1522687260000,"departureDelay":0,"arrivalDelay":0,"realTime":false,"distance":1824.8346300120436,"pathway":false,"mode":"BUS","route":"16","agencyName":"Société de Transport du Saguenay","agencyUrl":"http://ville.saguenay.ca/fr/services-aux-citoyens/transport-sts","agencyTimeZoneOffset":-14400000,"routeColor":"00FF00","routeType":3,"routeId":"1:16","routeTextColor":"000000","interlineWithPreviousLeg":false,"tripBlockId":"34","headsign":"Terminus Chicoutimi","agencyId":"0","tripId":"1:218218","serviceDate":"20180402","from":{"name":"ch. de la Réserve / Ste-Cécile","stopId":"1:624","stopCode":"624","lon":-71.084991,"lat":48.425617,"arrival":1522686822000,"departure":1522686823000,"zoneId":"NA","stopIndex":29,"stopSequence":30,"vertexType":"TRANSIT"},"to":{"name":"Terminus Chicoutimi","stopId":"1:1289","stopCode":"1289","lon":-71.066163,"lat":48.428677,"arrival":1522687260000,"departure":1522687500000,"zoneId":"NA","stopIndex":35,"stopSequence":36,"vertexType":"TRANSIT"},"legGeometry":{"points":"mcqfHtxzpLQ[sAuC{@sBeCcGqAwC[g@]a@aAw@[_@cA}A_@w@GU[iDWaDzByCv@cA`@e@TSp@g@nAo@nBm@ZSf@c@PMb@[b@_@b@e@PYP]N_@La@P{@NcB@IBcAG_A{@sEEg@oAP}@DiBDFeBMa@iBCq@FmBPFcEDoBNiHyDWN_HBoA@Y@m@","length":55},"routeShortName":"16","routeLongName":"Côte de la Réserve","rentedBike":false,"transitLeg":true,"duration":437.0,"steps":[]},{"startTime":1522687500000,"endTime":1522689051000,"departureDelay":0,"arrivalDelay":0,"realTime":false,"distance":8015.718037146158,"pathway":false,"mode":"BUS","route":"15","agencyName":"Société de Transport du Saguenay","agencyUrl":"http://ville.saguenay.ca/fr/services-aux-citoyens/transport-sts","agencyTimeZoneOffset":-14400000,"routeColor":"FF00FF","routeType":3,"routeId":"1:15","routeTextColor":"FFFFFF","interlineWithPreviousLeg":false,"tripBlockId":"31","headsign":"Talbot / Barrette","agencyId":"0","tripId":"1:218134","serviceDate":"20180402","from":{"name":"Terminus Chicoutimi","stopId":"1:1289","stopCode":"1289","lon":-71.066163,"lat":48.428677,"arrival":1522687260000,"departure":1522687500000,"zoneId":"NA","stopIndex":0,"stopSequence":1,"vertexType":"TRANSIT"},"to":{"name":"Roitelets / Colombes","stopId":"1:1544","stopCode":"1544","lon":-71.059204,"lat":48.393412,"arrival":1522689051000,"departure":1522689052000,"zoneId":"NA","stopIndex":32,"stopSequence":33,"vertexType":"TRANSIT"},"legGeometry":{"points":"evqfHpbwpLPiCjKx@HiEZkS\\aSN_K^eIrBpBvIpIr@r@\\mBfAaA`@gBOkB_@uF|DyL|DpDQ|@|@z@bA`ATw@dD~Ch@fA@`E~AjGuH`Iy@bBi@dCbEdEjJlJ`HbHlJpJ|J~JdAfALzDNzDrAdBrEKvBEbCv@d@TvFlC|DlBpMlGrB`AM}@hAwEC{B]oBiBmBsH_@_K{H`EgIvCaGfEoItDsH~DeItC{FnBoLbCaO?qLa@uJzF`ApF~@~@PzAgEeDcBf@qAWcKUqEx@Ef@ExDVjDxAFBrBvAfGjG@BjCzC~DxC@@zA~Cb@fCJlC?BsBre@?D","length":88},"routeShortName":"15","routeLongName":"Term. Chic / Costco","rentedBike":false,"transitLeg":true,"duration":1551.0,"steps":[]},{"startTime":1522689052000,"endTime":1522689207000,"departureDelay":0,"arrivalDelay":0,"realTime":false,"distance":197.898,"pathway":false,"mode":"WALK","route":"","agencyTimeZoneOffset":-14400000,"interlineWithPreviousLeg":false,"from":{"name":"Roitelets / Colombes","stopId":"1:1544","stopCode":"1544","lon":-71.059204,"lat":48.393412,"arrival":1522689051000,"departure":1522689052000,"zoneId":"NA","stopIndex":32,"stopSequence":33,"vertexType":"TRANSIT"},"to":{"name":"Destination","lon":-71.060626,"lat":48.392558,"arrival":1522689207000,"orig":"","vertexType":"NORMAL"},"legGeometry":{"points":"czjfH~vupLA\\KpElD`@TA","length":5},"rentedBike":false,"transitLeg":false,"duration":155.0,"steps":[{"distance":89.11,"relativeDirection":"DEPART","streetName":"bike path","absoluteDirection":"WEST","stayOn":false,"area":false,"bogusName":true,"lon":-71.05919409957978,"lat":48.39346222328547,"elevation":[]},{"distance":108.788,"relativeDirection":"LEFT","streetName":"Rue des Comorans","absoluteDirection":"SOUTH","stayOn":false,"area":false,"bogusName":false,"lon":-71.0603964,"lat":48.3935308,"elevation":[]}]}],"tooSloped":false}]},"debugOutput":{"precalculationTime":30,"pathCalculationTime":37,"pathTimes":[19,6,12],"renderingTime":0,"totalTime":67,"timedOut":false},"elevationMetadata":{"ellipsoidToGeoidDifference":-28.885904201182168,"geoidElevation":false}}