{"requestParameters":{"date":"2018/04/02","walkSpeed":"1.33","walkReluctance":"2.0","fromPlace":"48.425037,-71.048523","maxWalkDistance":"3000","waitReluctance":"1.0","carSpeed":"33","numItineraries":"3","waitAtBeginningFactor":"0.4","mode":"TRANSIT,WALK","ignoreRealtimeUpdates":"false","stairsReluctance":"2.0","toPlace":"48.397305,-71.051611","time":"16:5:00"},"plan":{"date":1522699500000,"from":{"name":"Origin","lon":-71.048523,"lat":48.425037,"orig":"","vertexType":"NORMAL"},"to":{"name":"Destination","lon":-71.051611,"lat":48.397305,"orig":"","vertexType":"NORMAL"},"itineraries":[{"duration":1395,"startTime":1522699673000,"endTime":1522701068000,"walkTime":687,"transitTime":706,"waitingTime":2,"walkDistance":872.0936917252353,"walkLimitExceeded":false,"elevationLost":0.0,"elevationGained":0.0,"transfers":0,"legs":[{"startTime":1522699673000,"endTime":1522700110000,"departureDelay":0,"arrivalDelay":0,"realTime":false,"distance":551.78,"pathway":false,"mode":"WALK","route":"","agencyTimeZoneOffset":-14400000,"interlineWithPreviousLeg":false,"from":{"name":"Origin","lon":-71.048523,"lat":48.425037,"departure":1522699673000,"orig":"","vertexType":"NORMAL"},"to":{"name":"Bégin / Jacques-Cartier","stopId":"1:67","stopCode":"67","lon":-71.055431,"lat":48.425501,"arrival":1522700110000,"departure":1522700111000,"zoneId":"NA","stopIndex":4,"stopSequence":5,"vertexType":"TRANSIT"},"legGeometry":{"points":"s_qfHftspLAJYvCUxDEt@YnHItBGxAAf@OfBAFKb@]hA@h@DZJ\\DN`@`@b@b@KZ","length":20},"rentedBike":false,"transitLeg":false,"duration":437.0,"steps":[{"distance":446.81600000000003,"relativeDirection":"DEPART","streetName":"Rue Jacques-Cartier Est","absoluteDirection":"WEST","stayOn":false,"area":false,"bogusName":false,"lon":-71.04851401854278,"lat":48.42506694584527,"elevation":[]},{"distance":45.819,"relativeDirection":"SLIGHTLY_LEFT","streetName":"link","absoluteDirection":"WEST","stayOn":false,"area":false,"bogusName":true,"lon":-71.054406,"lat":48.425870200000006,"elevation":[]},{"distance":47.1,"relativeDirection":"SLIGHTLY_LEFT","streetName":"Rue Bégin","absoluteDirection":"SOUTHWEST","stayOn":false,"area":false,"bogusName":false,"lon":-71.05498390000001,"lat":48.425745500000005,"elevation":[]},{"distance":12.045,"relativeDirection":"RIGHT","streetName":"Rue Gaudreault","absoluteDirection":"NORTHWEST","stayOn":false,"area":false,"bogusName":false,"lon":-71.0553392,"lat":48.4253936,"elevation":[]}]},{"startTime":1522700111000,"endTime":1522700817000,"departureDelay":0,"arrivalDelay":0,"realTime":false,"distance":4342.3587506818685,"pathway":false,"mode":"BUS","route":"415S","agencyName":"Société de Transport du Saguenay","agencyUrl":"http://ville.saguenay.ca/fr/services-aux-citoyens/transport-sts","agencyTimeZoneOffset":-14400000,"routeColor":"8B0000","routeType":3,"routeId":"1:415S","routeTextColor":"FFFFFF","interlineWithPreviousLeg":false,"tripBlockId":"68","headsign":"Costco","agencyId":"0","tripId":"1:218587","serviceDate":"20180402","from":{"name":"Bégin / Jacques-Cartier","stopId":"1:67","stopCode":"67","lon":-71.055431,"lat":48.425501,"arrival":1522700110000,"departure":1522700111000,"zoneId":"NA","stopIndex":4,"stopSequence":5,"vertexType":"TRANSIT"},"to":{"name":"Engoulevents / Bernaches","stopId":"1:1509","stopCode":"1509","lon":-71.051416,"lat":48.399414,"arrival":1522700817000,"departure":1522700818000,"zoneId":"NA","stopIndex":21,"stopSequence":22,"vertexType":"TRANSIT"},"legGeometry":{"points":"cbqfH~~tpLBBpInIdG`GtFrFv@p@hCvCf@f@lJjJpLpLj@n@nAlA`BbBxD~DnBvBvBjBd@Tv@FzBD^Bt@Pd@TRLNJZXj@\\p@Rd@D~CEtBIh@@D@XFXHh@_B`CmGhC{GlBcFXm@^e@RQdA}@PAzCmCLKd@q@p@mAXw@zBcGhAmCR]nAaFl@yC?Cl@mEd@Jd@Vb@\\LNVVRZb@bA^n@Zb@n@r@lAjAfBtBZu@vCoHBGTs@XiARg@`CqGtAwDTm@V]w@qAW]gCoCqBsBiBqBeAeA","length":83},"routeShortName":"415S","routeLongName":"Term. Chic / Costco","rentedBike":false,"transitLeg":true,"duration":706.0,"steps":[]},{"startTime":1522700818000,"endTime":1522701068000,"departureDelay":0,"arrivalDelay":0,"realTime":false,"distance":320.187,"pathway":false,"mode":"WALK","route":"","agencyTimeZoneOffset":-14400000,"interlineWithPreviousLeg":false,"from":{"name":"Engoulevents / Bernaches","stopId":"1:1509","stopCode":"1509","lon":-71.051416,"lat":48.399414,"arrival":1522700817000,"departure":1522700818000,"zoneId":"NA","stopIndex":21,"stopSequence":22,"vertexType":"TRANSIT"},"to":{"name":"Destination","lon":-71.051611,"lat":48.397305,"arrival":1522701068000,"orig":"","vertexType":"NORMAL"},"legGeometry":{"points":"i_lfHlftpLRNl@n@lBxBdBfBLLhAkDN]d@cA","length":9},"rentedBike":false,"transitLeg":false,"duration":250.0,"steps":[{"distance":197.639,"relativeDirection":"DEPART","streetName":"Rue des Engoulevents","absoluteDirection":"SOUTHWEST","stayOn":false,"area":false,"bogusName":false,"lon":-71.051428970226,"lat":48.39941817689361,"elevation":[]},{"distance":122.548,"relativeDirection":"LEFT","streetName":"Rue des Chardonnerets","absoluteDirection":"SOUTHEAST","stayOn":false,"area":false,"bogusName":false,"lon":-71.0529455,"lat":48.3979556,"elevation":[]}]}],"tooSloped":false},{"duration":1372,"startTime":1522700176000,"endTime":1522701548000,"walkTime":711,"transitTime":659,"waitingTime":2,"walkDistance":895.7517744293214,"walkLimitExceeded":false,"elevationLost":0.0,"elevationGained":0.0,"transfers":0,"legs":[{"startTime":1522700176000,"endTime":1522700399000,"departureDelay":0,"arrivalDelay":0,"realTime":false,"distance":267.15799999999996,"pathway":false,"mode":"WALK","route":"","agencyTimeZoneOffset":-14400000,"interlineWithPreviousLeg":false,"from":{"name":"Origin","lon":-71.048523,"lat":48.425037,"departure":1522700176000,"orig":"","vertexType":"NORMAL"},"to":{"name":"Hôpital de Chicoutimi (Saint-Vallier)","stopId":"1:342","stopCode":"342","lon":-71.050416,"lat":48.426429,"arrival":1522700399000,"departure":1522700400000,"zoneId":"NA","stopIndex":6,"stopSequence":7,"vertexType":"TRANSIT"},"legGeometry":{"points":"s_qfHftspLAJYvCc@EEx@CnACf@GNQ?iB[_@EG?K^G?","length":14},"rentedBike":false,"transitLeg":false,"duration":223.0,"steps":[{"distance":62.68,"relativeDirection":"DEPART","streetName":"Rue Jacques-Cartier Est","absoluteDirection":"WEST","stayOn":false,"area":false,"bogusName":false,"lon":-71.04851401854278,"lat":48.42506694584527,"elevation":[]},{"distance":19.537,"relativeDirection":"RIGHT","streetName":"path","absoluteDirection":"NORTH","stayOn":false,"area":false,"bogusName":true,"lon":-71.04933630000001,"lat":48.425208100000006,"elevation":[]},{"distance":66.589,"relativeDirection":"LEFT","streetName":"service road","absoluteDirection":"WEST","stayOn":true,"area":false,"bogusName":true,"lon":-71.0493017,"lat":48.4253823,"elevation":[]},{"distance":99.413,"relativeDirection":"RIGHT","streetName":"service road","absoluteDirection":"NORTH","stayOn":true,"area":false,"bogusName":true,"lon":-71.05019700000001,"lat":48.425456700000005,"elevation":[]},{"distance":13.926,"relativeDirection":"LEFT","streetName":"path","absoluteDirection":"NORTHWEST","stayOn":true,"area":false,"bogusName":true,"lon":-71.0501005,"lat":48.426314600000005,"elevation":[]},{"distance":5.013,"relativeDirection":"RIGHT","streetName":"Rue Saint-Vallier","absoluteDirection":"NORTH","stayOn":false,"area":false,"bogusName":false,"lon":-71.05026840000001,"lat":48.426371800000005,"elevation":[]}]},{"startTime":1522700400000,"endTime":1522701059000,"departureDelay":0,"arrivalDelay":0,"realTime":false,"distance":3453.4562118270587,"pathway":false,"mode":"BUS","route":"175","agencyName":"Société de Transport du Saguenay","agencyUrl":"http://ville.saguenay.ca/fr/services-aux-citoyens/transport-sts","agencyTimeZoneOffset":-14400000,"routeColor":"FF00FF","routeType":3,"routeId":"1:175","routeTextColor":"FFFFFF","interlineWithPreviousLeg":false,"tripBlockId":"7","headsign":"Costco","agencyId":"0","tripId":"1:217340","serviceDate":"20180402","from":{"name":"Hôpital de Chicoutimi (Saint-Vallier)","stopId":"1:342","stopCode":"342","lon":-71.050416,"lat":48.426429,"arrival":1522700399000,"departure":1522700400000,"zoneId":"NA","stopIndex":6,"stopSequence":7,"vertexType":"TRANSIT"},"to":{"name":"Champs-Élysées / Saguenéens","stopId":"1:84","stopCode":"84","lon":-71.05132,"lat":48.402083,"arrival":1522701059000,"departure":1522701060000,"zoneId":"NA","stopIndex":19,"stopSequence":20,"vertexType":"TRANSIT"},"legGeometry":{"points":"ahqfHf_tpLxEj@iCtYp@r@z@`ABBvHtHXRx@l@VwAvAgB\\qBIuAC]g@yEzDuLbBbBvAxAMx@|@v@`A~@Xw@~D~DPxFZtA~ApE`N{LpFmEb@[ROl@[vDQXKfA[|@q@fAsBlEmMr@sBhCsKz@dAjB|@dM`GzCvAXrCr@~Gx@]PEr@ObACn@FrBb@|@Ch@Kx@U~HsB","length":55},"routeShortName":"175","routeLongName":"Term. Chic / Costco","rentedBike":false,"transitLeg":true,"duration":659.0,"steps":[]},{"startTime":1522701060000,"endTime":1522701548000,"departureDelay":0,"arrivalDelay":0,"realTime":false,"distance":628.384,"pathway":false,"mode":"WALK","route":"","agencyTimeZoneOffset":-14400000,"interlineWithPreviousLeg":false,"from":{"name":"Champs-Élysées / Saguenéens","stopId":"1:84","stopCode":"84","lon":-71.05132,"lat":48.402083,"arrival":1522701059000,"departure":1522701060000,"zoneId":"NA","stopIndex":19,"stopSequence":20,"vertexType":"TRANSIT"},"to":{"name":"Destination","lon":-71.051611,"lat":48.397305,"arrival":1522701548000,"orig":"","vertexType":"NORMAL"},"legGeometry":{"points":"cplfHxdtpL^KTGp@U|AOf@D|@D@?r@D|AZtA|@B@RNl@n@lBxBdBfBLLhAkDN]d@cA","length":20},"rentedBike":false,"transitLeg":false,"duration":488.0,"steps":[{"distance":18.192,"relativeDirection":"DEPART","streetName":"Rue des Champs-Élysées","absoluteDirection":"SOUTH","stayOn":false,"area":false,"bogusName":false,"lon":-71.05116509910528,"lat":48.402107765696,"elevation":[]},{"distance":487.644,"relativeDirection":"CONTINUE","streetName":"Rue des Engoulevents","absoluteDirection":"SOUTH","stayOn":false,"area":false,"bogusName":false,"lon":-71.0511074,"lat":48.401948700000005,"elevation":[]},{"distance":122.548,"relativeDirection":"LEFT","streetName":"Rue des Chardonnerets","absoluteDirection":"SOUTHEAST","stayOn":false,"area":false,"bogusName":false,"lon":-71.0529455,"lat":48.3979556,"elevation":[]}]}],"tooSloped":false},{"duration":1842,"startTime":1522699897000,"endTime":1522701739000,"walkTime":687,"transitTime":1153,"waitingTime":2,"walkDistance":872.0936917252353,"walkLimitExceeded":false,"elevationLost":0.0,"elevationGained":0.0,"transfers":0,"legs":[{"startTime":1522699897000,"endTime":1522700334000,"departureDelay":0,"arrivalDelay":0,"realTime":false,"distance":551.78,"pathway":false,"mode":"WALK","route":"","agencyTimeZoneOffset":-14400000,"interlineWithPreviousLeg":false,"from":{"name":"Origin","lon":-71.048523,"lat":48.425037,"departure":1522699897000,"orig":"","vertexType":"NORMAL"},"to":{"name":"Bégin / Jacques-Cartier","stopId":"1:67","stopCode":"67","lon":-71.055431,"lat":48.425501,"arrival":1522700334000,"departure":1522700335000,"zoneId":"NA","stopIndex":4,"stopSequence":5,"vertexType":"TRANSIT"},"legGeometry":{"points":"s_qfHftspLAJYvCUxDEt@YnHItBGxAAf@OfBAFKb@]hA@h@DZJ\\DN`@`@b@b@KZ","length":20},"rentedBike":false,"transitLeg":false,"duration":437.0,"steps":[{"distance":446.81600000000003,"relativeDirection":"DEPART","streetName":"Rue Jacques-Cartier Est","absoluteDirection":"WEST","stayOn":false,"area":false,"bogusName":false,"lon":-71.04851401854278,"lat":48.42506694584527,"elevation":[]},{"distance":45.819,"relativeDirection":"SLIGHTLY_LEFT","streetName":"link","absoluteDirection":"WEST","stayOn":false,"area":false,"bogusName":true,"lon":-71.054406,"lat":48.425870200000006,"elevation":[]},{"distance":47.1,"relativeDirection":"SLIGHTLY_LEFT","streetName":"Rue Bégin","absoluteDirection":"SOUTHWEST","stayOn":false,"area":false,"bogusName":false,"lon":-71.05498390000001,"lat":48.425745500000005,"elevation":[]},{"distance":12.045,"relativeDirection":"RIGHT","streetName":"Rue Gaudreault","absoluteDirection":"NORTHWEST","stayOn":false,"area":false,"bogusName":false,"lon":-71.0553392,"lat":48.4253936,"elevation":[]}]},{"startTime":1522700335000,"endTime":1522701488000,"departureDelay":0,"arrivalDelay":0,"realTime":false,"distance":5345.631686458258,"pathway":false,"mode":"BUS","route":"15","agencyName":"Société de Transport du Saguenay","agencyUrl":"http://ville.saguenay.ca/fr/services-aux-citoyens/transport-sts","agencyTimeZoneOffset":-14400000,"routeColor":"FF00FF","routeType":3,"routeId":"1:15","routeTextColor":"FFFFFF","interlineWithPreviousLeg":false,"tripBlockId":"33","headsign":"Talbot / Barrette","agencyId":"0","tripId":"1:218191","serviceDate":"20180402","from":{"name":"Bégin / Jacques-Cartier","stopId":"1:67","stopCode":"67","lon":-71.055431,"lat":48.425501,"arrival":1522700334000,"departure":1522700335000,"zoneId":"NA","stopIndex":4,"stopSequence":5,"vertexType":"TRANSIT"},"to":{"name":"Engoulevents / Bernaches","stopId":"1:1509","stopCode":"1509","lon":-71.051416,"lat":48.399414,"arrival":1522701488000,"departure":1522701489000,"zoneId":"NA","stopIndex":26,"stopSequence":27,"vertexType":"TRANSIT"},"legGeometry":{"points":"_bqfHt~tpLvIpIr@r@\\mBfAaA`@gBOkB_@uF|DyL|DpDQ|@|@z@bA`ATw@dD~Ch@fA@`E~AjGuH`Iy@bBi@dCbEdEjJlJ`HbHlJpJ|J~JdAfALzDNzDrAdBrEKvBEbCv@d@TvFlC|DlBpMlGrB`AM}@hAwEC{B]oBiBmBsH_@_K{H`EgIvCaGfEoItDsH~DeItC{FnBoLbCaO?qLa@uJzF`ApF~@","length":57},"routeShortName":"15","routeLongName":"Term. Chic / Costco","rentedBike":false,"transitLeg":true,"duration":1153.0,"steps":[]},{"startTime":1522701489000,"endTime":1522701739000,"departureDelay":0,"arrivalDelay":0,"realTime":false,"distance":320.187,"pathway":false,"mode":"WALK","route":"","agencyTimeZoneOffset":-14400000,"interlineWithPreviousLeg":false,"from":{"name":"Engoulevents / Bernaches","stopId":"1:1509","stopCode":"1509","lon":-71.051416,"lat":48.399414,"arrival":1522701488000,"departure":1522701489000,"zoneId":"NA","stopIndex":26,"stopSequence":27,"vertexType":"TRANSIT"},"to":{"name":"Destination","lon":-71.051611,"lat":48.397305,"arrival":1522701739000,"orig":"","vertexType":"NORMAL"},"legGeometry":{"points":"i_lfHlftpLRNl@n@lBxBdBfBLLhAkDN]d@cA","length":9},"rentedBike":false,"transitLeg":false,"duration":250.0,"steps":[{"distance":197.639,"relativeDirection":"DEPART","streetName":"Rue des Engoulevents","absoluteDirection":"SOUTHWEST","stayOn":false,"area":false,"bogusName":false,"lon":-71.051428970226,"lat":48.39941817689361,"elevation":[]},{"distance":122.548,"relativeDirection":"LEFT","streetName":"Rue des Chardonnerets","absoluteDirection":"SOUTHEAST","stayOn":false,"area":false,"bogusName":false,"lon":-71.0529455,"lat":48.3979556,"elevation":[]}]}],"tooSloped":false}]},"debugOutput":{"precalculationTime":37,"pathCalculationTime":33,"pathTimes":[18,7,8],"renderingTime":0,"totalTime":70,"timedOut":false},"elevationMetadata":{"ellipsoidToGeoidDifference":-28.885904201182168,"geoidElevation":false}}