{"requestParameters":{"date":"2018/04/02","walkSpeed":"1.33","walkReluctance":"2.0","fromPlace":"48.392558,-71.060626","maxWalkDistance":"3000","waitReluctance":"1.0","carSpeed":"33","numItineraries":"3","waitAtBeginningFactor":"0.4","mode":"TRANSIT,WALK","ignoreRealtimeUpdates":"false","stairsReluctance":"2.0","toPlace":"48.424575,-71.085933","time":"12:45:00"},"plan":{"date":1522687500000,"from":{"name":"Origin","lon":-71.060626,"lat":48.392558,"orig":"","vertexType":"NORMAL"},"to":{"name":"Destination","lon":-71.085933,"lat":48.424575,"orig":"","vertexType":"NORMAL"},"itineraries":[{"duration":2035,"startTime":1522688895000,"endTime":1522690930000,"walkTime":1171,"transitTime":862,"waitingTime":2,"walkDistance":1503.6464887171098,"walkLimitExceeded":false,"elevationLost":0.0,"elevationGained":0.0,"transfers":0,"legs":[{"startTime":1522688895000,"endTime":1522689050000,"departureDelay":0,"arrivalDelay":0,"realTime":false,"distance":197.898,"pathway":false,"mode":"WALK","route":"","agencyTimeZoneOffset":-14400000,"interlineWithPreviousLeg":false,"from":{"name":"Origin","lon":-71.060626,"lat":48.392558,"departure":1522688895000,"orig":"","vertexType":"NORMAL"},"to":{"name":"Roitelets / Colombes","stopId":"1:1544","stopCode":"1544","lon":-71.059204,"lat":48.393412,"arrival":1522689050000,"departure":1522689051000,"zoneId":"NA","stopIndex":32,"stopSequence":33,"vertexType":"TRANSIT"},"legGeometry":{"points":"mtjfHn_vpLU@mDa@JqE@]","length":5},"rentedBike":false,"transitLeg":false,"duration":155.0,"steps":[{"distance":108.788,"relativeDirection":"DEPART","streetName":"Rue des Comorans","absoluteDirection":"NORTH","stayOn":false,"area":false,"bogusName":false,"lon":-71.06055735872545,"lat":48.39255957470295,"elevation":[]},{"distance":89.11,"relativeDirection":"RIGHT","streetName":"bike path","absoluteDirection":"EAST","stayOn":false,"area":false,"bogusName":true,"lon":-71.0603964,"lat":48.3935308,"elevation":[]}]},{"startTime":1522689051000,"endTime":1522689120000,"departureDelay":0,"arrivalDelay":0,"realTime":false,"distance":765.075271314326,"pathway":false,"mode":"BUS","route":"15","agencyName":"Société de Transport du Saguenay","agencyUrl":"http://ville.saguenay.ca/fr/services-aux-citoyens/transport-sts","agencyTimeZoneOffset":-14400000,"routeColor":"FF00FF","routeType":3,"routeId":"1:15","routeTextColor":"FFFFFF","interlineWithPreviousLeg":false,"tripBlockId":"31","headsign":"Talbot / Barrette","agencyId":"0","tripId":"1:218134","serviceDate":"20180402","from":{"name":"Roitelets / Colombes","stopId":"1:1544","stopCode":"1544","lon":-71.059204,"lat":48.393412,"arrival":1522689050000,"departure":1522689051000,"zoneId":"NA","stopIndex":32,"stopSequence":33,"vertexType":"TRANSIT"},"to":{"name":"Roitelets / Sapins","stopId":"1:1543","stopCode":"1543","lon":-71.069553,"lat":48.393375,"arrival":1522689120000,"departure":1522689120000,"zoneId":"NA","stopIndex":35,"stopSequence":36,"vertexType":"TRANSIT"},"legGeometry":{"points":"kzjfH~vupLWbOAn@?nEGnM@H\\hCzA~ELvAAlAi@jDo@nB","length":12},"routeShortName":"15","routeLongName":"Term. Chic / Costco","rentedBike":false,"transitLeg":true,"duration":69.0,"steps":[]},{"startTime":1522689120000,"endTime":1522689913000,"departureDelay":0,"arrivalDelay":0,"realTime":false,"distance":6401.5413726287925,"pathway":false,"mode":"BUS","route":"14","agencyName":"Société de Transport du Saguenay","agencyUrl":"http://ville.saguenay.ca/fr/services-aux-citoyens/transport-sts","agencyTimeZoneOffset":-14400000,"routeColor":"C0C000","routeType":3,"routeId":"1:14","routeTextColor":"000000","interlineWithPreviousLeg":true,"tripBlockId":"31","headsign":"Terminus Chicoutimi","agencyId":"0","tripId":"1:218135","serviceDate":"20180402","from":{"name":"Roitelets / Sapins","stopId":"1:1513","stopCode":"1513","lon":-71.069396,"lat":48.393523,"arrival":1522689120000,"departure":1522689120000,"zoneId":"NA","stopIndex":0,"stopSequence":1,"vertexType":"TRANSIT"},"to":{"name":"Jolliet / Audet","stopId":"1:522","stopCode":"522","lon":-71.07278,"lat":48.420244,"arrival":1522689913000,"departure":1522689914000,"zoneId":"NA","stopIndex":27,"stopSequence":28,"vertexType":"TRANSIT"},"legGeometry":{"points":"azjfHfwwpLiEfLuBzFsAnDgGzSWfAcD`Mi@dCgChLmCzMwGd\\aDxOdFtFhCtCdDY|F_On@aB`B_GNoBvAyT|@sNuAyAuF}F}AaB_BkAC@qC\\gAWiBwBiKgMiCwEgEyHCGy@uB}@rAa@nAc@lFEf@mGvUYfAqCs@ICMCqFmDc@s@mAkBuEoESUgAhDiAfD}@zDyAcA_@Um@U{AWgB_Au@s@EEsBkCqFgF{IiI][aBhE}@}@oBmBwE{EwE{Ej@mB","length":68},"routeShortName":"14","routeLongName":"Coopérative","rentedBike":false,"transitLeg":true,"duration":793.0,"steps":[]},{"startTime":1522689914000,"endTime":1522690930000,"departureDelay":0,"arrivalDelay":0,"realTime":false,"distance":1305.6029999999998,"pathway":false,"mode":"WALK","route":"","agencyTimeZoneOffset":-14400000,"interlineWithPreviousLeg":false,"from":{"name":"Jolliet / Audet","stopId":"1:522","stopCode":"522","lon":-71.07278,"lat":48.420244,"arrival":1522689913000,"departure":1522689914000,"zoneId":"NA","stopIndex":27,"stopSequence":28,"vertexType":"TRANSIT"},"to":{"name":"Destination","lon":-71.085933,"lat":48.424575,"arrival":1522690930000,"orig":"","vertexType":"NORMAL"},"legGeometry":{"points":"cbpfHfkxpLa@lAOb@gA~BDR?LAJAHCFEBGBGDQ`@Yp@g@|Ay@tBCHOZEHcAjCwAtDa@pAOt@OdAEZSfAIb@g@fAM`@Wd@GJ_BpBqBpBs@t@Y`@Yl@aAxCi@zAyAfEjBrD~@hBBFf@dAh@lA","length":44},"rentedBike":false,"transitLeg":false,"duration":1016.0,"steps":[{"distance":112.061,"relativeDirection":"DEPART","streetName":"Rue Jolliet","absoluteDirection":"NORTHWEST","stayOn":false,"area":false,"bogusName":false,"lon":-71.07267835560184,"lat":48.420345859294756,"elevation":[]},{"distance":78.343,"relativeDirection":"LEFT","streetName":"path","absoluteDirection":"WEST","stayOn":false,"area":false,"bogusName":true,"lon":-71.07388590000001,"lat":48.420954200000004,"elevation":[]},{"distance":658.8380000000001,"relativeDirection":"CONTINUE","streetName":"Rue Dubuc","absoluteDirection":"NORTHWEST","stayOn":false,"area":false,"bogusName":false,"lon":-71.07469880000001,"lat":48.4212916,"elevation":[]},{"distance":238.88,"relativeDirection":"CONTINUE","streetName":"Côte Saint-Ange","absoluteDirection":"NORTHWEST","stayOn":false,"area":false,"bogusName":false,"lon":-71.0815067,"lat":48.424949000000005,"elevation":[]},{"distance":217.481,"relativeDirection":"LEFT","streetName":"Chemin de la Réserve","absoluteDirection":"SOUTHWEST","stayOn":false,"area":false,"bogusName":false,"lon":-71.0841347,"lat":48.426195400000005,"elevation":[]}]}],"tooSloped":false},{"duration":2695,"startTime":1522689014000,"endTime":1522691709000,"walkTime":209,"transitTime":2064,"waitingTime":422,"walkDistance":269.3295939837493,"walkLimitExceeded":false,"elevationLost":0.0,"elevationGained":0.0,"transfers":1,"legs":[{"startTime":1522689014000,"endTime":1522689169000,"departureDelay":0,"arrivalDelay":0,"realTime":false,"distance":197.898,"pathway":false,"mode":"WALK","route":"","agencyTimeZoneOffset":-14400000,"interlineWithPreviousLeg":false,"from":{"name":"Origin","lon":-71.060626,"lat":48.392558,"departure":1522689014000,"orig":"","vertexType":"NORMAL"},"to":{"name":"Roitelets / Colombes","stopId":"1:1544","stopCode":"1544","lon":-71.059204,"lat":48.393412,"arrival":1522689169000,"departure":1522689170000,"zoneId":"NA","stopIndex":3,"stopSequence":4,"vertexType":"TRANSIT"},"legGeometry":{"points":"mtjfHn_vpLU@mDa@JqE@]","length":5},"rentedBike":false,"transitLeg":false,"duration":155.0,"steps":[{"distance":108.788,"relativeDirection":"DEPART","streetName":"Rue des Comorans","absoluteDirection":"NORTH","stayOn":false,"area":false,"bogusName":false,"lon":-71.06055735872545,"lat":48.39255957470295,"elevation":[]},{"distance":89.11,"relativeDirection":"RIGHT","streetName":"bike path","absoluteDirection":"EAST","stayOn":false,"area":false,"bogusName":true,"lon":-71.0603964,"lat":48.3935308,"elevation":[]}]},{"startTime":1522689170000,"endTime":1522690680000,"departureDelay":0,"arrivalDelay":0,"realTime":false,"distance":8407.407271070031,"pathway":false,"mode":"BUS","route":"15","agencyName":"Société de Transport du Saguenay","agencyUrl":"http://ville.saguenay.ca/fr/services-aux-citoyens/transport-sts","agencyTimeZoneOffset":-14400000,"routeColor":"FF00FF","routeType":3,"routeId":"1:15","routeTextColor":"FFFFFF","interlineWithPreviousLeg":false,"tripBlockId":"30","headsign":"Terminus Chicoutimi","agencyId":"0","tripId":"1:218100","serviceDate":"20180402","from":{"name":"Roitelets / Colombes","stopId":"1:1544","stopCode":"1544","lon":-71.059204,"lat":48.393412,"arrival":1522689169000,"departure":1522689170000,"zoneId":"NA","stopIndex":3,"stopSequence":4,"vertexType":"TRANSIT"},"to":{"name":"Terminus Chicoutimi","stopId":"1:1289","stopCode":"1289","lon":-71.066163,"lat":48.428677,"arrival":1522690680000,"departure":1522691100000,"zoneId":"NA","stopIndex":39,"stopSequence":40,"vertexType":"TRANSIT"},"legGeometry":{"points":"czjfH~vupLTuGEGVsHPuDLuBXsFDoA?W@]Cu@GcAKu@Q_ASo@a@y@a@o@MOUUeCqBiDsDqE{EiAcAcB_AqBgA_AQaBSaBG_@Bu@FG?h@fNKnDpCfBkAzDgA}@y@q@sDy@GAeGT~@~KKrKyAnL[hBUxAm@nCcAlDeCvGmA|CUr@}@~A_@\\_DvCEZcA|@UP_@d@Yl@oBdFeCxG_CfGYVQXS\\dK|HlFZbC\\p@zA\\rB@hBiArG{BNw@FiG}@iDwAECcCcBo@y@sEeGe@o@qAa@m@MoB?C@}BZwAc@oA_Bs@gDCKZ{Di@QECc@_@sAkAoBwB_EcE{A_BoAmAk@o@cCaCkIkIaJaJUUwBaCj@wCjAsCzGoG_CoHL{D_@kAqD{CQr@iAcAy@w@L{@wAuA_B_B_EpLDh@NbBVvCIxBg@`Am@l@Sb@a@rAqDqDmEkE]a@kAqAU|@WnKG|DGxDOdPKvJU|F?XQlJC~@ChAIzEcCOaIi@VwL","length":145},"routeShortName":"15","routeLongName":"Term. Chic / Costco","rentedBike":false,"transitLeg":true,"duration":1510.0,"steps":[]},{"startTime":1522691100000,"endTime":1522691654000,"departureDelay":0,"arrivalDelay":0,"realTime":false,"distance":2806.605249627516,"pathway":false,"mode":"BUS","route":"16","agencyName":"Société de Transport du Saguenay","agencyUrl":"http://ville.saguenay.ca/fr/services-aux-citoyens/transport-sts","agencyTimeZoneOffset":-14400000,"routeColor":"00FF00","routeType":3,"routeId":"1:16","routeTextColor":"000000","interlineWithPreviousLeg":false,"tripBlockId":"34","headsign":"Faubourg Sagamie","agencyId":"0","tripId":"1:218221","serviceDate":"20180402","from":{"name":"Terminus Chicoutimi","stopId":"1:1289","stopCode":"1289","lon":-71.066163,"lat":48.428677,"arrival":1522690680000,"departure":1522691100000,"zoneId":"NA","stopIndex":0,"stopSequence":1,"vertexType":"TRANSIT"},"to":{"name":"ch. de la Réserve / Ste-Cécile","stopId":"1:600","stopCode":"600","lon":-71.085713,"lat":48.425401,"arrival":1522691654000,"departure":1522691655000,"zoneId":"NA","stopIndex":14,"stopSequence":15,"vertexType":"TRANSIT"},"legGeometry":{"points":"evqfHzcwpLg@?AXCnAO~GxDVhCP~M~@jDTOrHKdGE^E~BQnIMhGAxCD~@Df@DVDZd@zBBLDJJNHHHDJBn@HCxAHdAFX@DFj@@b@Ab@SvAe@p@{EnEEB{@w@m@o@aDeDIKCMCM?SL}A?A@WCYi@mDOu@Wm@EIMSSWaAcAuAcBq@f@URa@d@u@`A}BzCV`DX~C@HFT^v@bA|AZ^`Av@\\`@Zf@pAvCtD`JJTrAtCpAjC@B","length":79},"routeShortName":"16","routeLongName":"Côte de la Réserve","rentedBike":false,"transitLeg":true,"duration":554.0,"steps":[]},{"startTime":1522691655000,"endTime":1522691709000,"departureDelay":0,"arrivalDelay":0,"realTime":false,"distance":71.394,"pathway":false,"mode":"WALK","route":"","agencyTimeZoneOffset":-14400000,"interlineWithPreviousLeg":false,"from":{"name":"ch. de la Réserve / Ste-Cécile","stopId":"1:600","stopCode":"600","lon":-71.085713,"lat":48.425401,"arrival":1522691654000,"departure":1522691655000,"zoneId":"NA","stopIndex":14,"stopSequence":15,"vertexType":"TRANSIT"},"to":{"name":"Destination","lon":-71.085933,"lat":48.424575,"arrival":1522691709000,"orig":"","vertexType":"NORMAL"},"legGeometry":{"points":"eaqfH`|zpLf@dAh@lA","length":3},"rentedBike":false,"transitLeg":false,"duration":54.0,"steps":[{"distance":71.394,"relativeDirection":"DEPART","streetName":"Chemin de la Réserve","absoluteDirection":"SOUTHWEST","stayOn":false,"area":false,"bogusName":false,"lon":-71.08560225264692,"lat":48.42531358441132,"elevation":[]}]}],"tooSloped":false},{"duration":2035,"startTime":1522690695000,"endTime":1522692730000,"walkTime":1171,"transitTime":862,"waitingTime":2,"walkDistance":1503.6464887171098,"walkLimitExceeded":false,"elevationLost":0.0,"elevationGained":0.0,"transfers":0,"legs":[{"startTime":1522690695000,"endTime":1522690850000,"departureDelay":0,"arrivalDelay":0,"realTime":false,"distance":197.898,"pathway":false,"mode":"WALK","route":"","agencyTimeZoneOffset":-14400000,"interlineWithPreviousLeg":false,"from":{"name":"Origin","lon":-71.060626,"lat":48.392558,"departure":1522690695000,"orig":"","vertexType":"NORMAL"},"to":{"name":"Roitelets / Colombes","stopId":"1:1544","stopCode":"1544","lon":-71.059204,"lat":48.393412,"arrival":1522690850000,"departure":1522690851000,"zoneId":"NA","stopIndex":32,"stopSequence":33,"vertexType":"TRANSIT"},"legGeometry":{"points":"mtjfHn_vpLU@mDa@JqE@]","length":5},"rentedBike":false,"transitLeg":false,"duration":155.0,"steps":[{"distance":108.788,"relativeDirection":"DEPART","streetName":"Rue des Comorans","absoluteDirection":"NORTH","stayOn":false,"area":false,"bogusName":false,"lon":-71.06055735872545,"lat":48.39255957470295,"elevation":[]},{"distance":89.11,"relativeDirection":"RIGHT","streetName":"bike path","absoluteDirection":"EAST","stayOn":false,"area":false,"bogusName":true,"lon":-71.0603964,"lat":48.3935308,"elevation":[]}]},{"startTime":1522690851000,"endTime":1522690920000,"departureDelay":0,"arrivalDelay":0,"realTime":false,"distance":765.075271314326,"pathway":false,"mode":"BUS","route":"15","agencyName":"Société de Transport du Saguenay","agencyUrl":"http://ville.saguenay.ca/fr/services-aux-citoyens/transport-sts","agencyTimeZoneOffset":-14400000,"routeColor":"FF00FF","routeType":3,"routeId":"1:15","routeTextColor":"FFFFFF","interlineWithPreviousLeg":false,"tripBlockId":"33","headsign":"Talbot / Barrette","agencyId":"0","tripId":"1:218185","serviceDate":"20180402","from":{"name":"Roitelets / Colombes","stopId":"1:1544","stopCode":"1544","lon":-71.059204,"lat":48.393412,"arrival":1522690850000,"departure":1522690851000,"zoneId":"NA","stopIndex":32,"stopSequence":33,"vertexType":"TRANSIT"},"to":{"name":"Roitelets / Sapins","stopId":"1:1543","stopCode":"1543","lon":-71.069553,"lat":48.393375,"arrival":1522690920000,"departure":1522690920000,"zoneId":"NA","stopIndex":35,"stopSequence":36,"vertexType":"TRANSIT"},"legGeometry":{"points":"kzjfH~vupLWbOAn@?nEGnM@H\\hCzA~ELvAAlAi@jDo@nB","length":12},"routeShortName":"15","routeLongName":"Term. Chic / Costco","rentedBike":false,"transitLeg":true,"duration":69.0,"steps":[]},{"startTime":1522690920000,"endTime":1522691713000,"departureDelay":0,"arrivalDelay":0,"realTime":false,"distance":6401.5413726287925,"pathway":false,"mode":"BUS","route":"14","agencyName":"Société de Transport du Saguenay","agencyUrl":"http://ville.saguenay.ca/fr/services-aux-citoyens/transport-sts","agencyTimeZoneOffset":-14400000,"routeColor":"C0C000","routeType":3,"routeId":"1:14","routeTextColor":"000000","interlineWithPreviousLeg":true,"tripBlockId":"33","headsign":"Terminus Chicoutimi","agencyId":"0","tripId":"1:218186","serviceDate":"20180402","from":{"name":"Roitelets / Sapins","stopId":"1:1513","stopCode":"1513","lon":-71.069396,"lat":48.393523,"arrival":1522690920000,"departure":1522690920000,"zoneId":"NA","stopIndex":0,"stopSequence":1,"vertexType":"TRANSIT"},"to":{"name":"Jolliet / Audet","stopId":"1:522","stopCode":"522","lon":-71.07278,"lat":48.420244,"arrival":1522691713000,"departure":1522691714000,"zoneId":"NA","stopIndex":27,"stopSequence":28,"vertexType":"TRANSIT"},"legGeometry":{"points":"azjfHfwwpLiEfLuBzFsAnDgGzSWfAcD`Mi@dCgChLmCzMwGd\\aDxOdFtFhCtCdDY|F_On@aB`B_GNoBvAyT|@sNuAyAuF}F}AaB_BkAC@qC\\gAWiBwBiKgMiCwEgEyHCGy@uB}@rAa@nAc@lFEf@mGvUYfAqCs@ICMCqFmDc@s@mAkBuEoESUgAhDiAfD}@zDyAcA_@Um@U{AWgB_Au@s@EEsBkCqFgF{IiI][aBhE}@}@oBmBwE{EwE{Ej@mB","length":68},"routeShortName":"14","routeLongName":"Coopérative","rentedBike":false,"transitLeg":true,"duration":793.0,"steps":[]},{"startTime":1522691714000,"endTime":1522692730000,"departureDelay":0,"arrivalDelay":0,"realTime":false,"distance":1305.6029999999998,"pathway":false,"mode":"WALK","route":"","agencyTimeZoneOffset":-14400000,"interlineWithPreviousLeg":false,"from":{"name":"Jolliet / Audet","stopId":"1:522","stopCode":"522","lon":-71.07278,"lat":48.420244,"arrival":1522691713000,"departure":1522691714000,"zoneId":"NA","stopIndex":27,"stopSequence":28,"vertexType":"TRANSIT"},"to":{"name":"Destination","lon":-71.085933,"lat":48.424575,"arrival":1522692730000,"orig":"","vertexType":"NORMAL"},"legGeometry":{"points":"cbpfHfkxpLa@lAOb@gA~BDR?LAJAHCFEBGBGDQ`@Yp@g@|Ay@tBCHOZEHcAjCwAtDa@pAOt@OdAEZSfAIb@g@fAM`@Wd@GJ_BpBqBpBs@t@Y`@Yl@aAxCi@zAyAfEjBrD~@hBBFf@dAh@lA","length":44},"rentedBike":false,"transitLeg":false,"duration":1016.0,"steps":[{"distance":112.061,"relativeDirection":"DEPART","streetName":"Rue Jolliet","absoluteDirection":"NORTHWEST","stayOn":false,"area":false,"bogusName":false,"lon":-71.07267835560184,"lat":48.420345859294756,"elevation":[]},{"distance":78.343,"relativeDirection":"LEFT","streetName":"path","absoluteDirection":"WEST","stayOn":false,"area":false,"bogusName":true,"lon":-71.07388590000001,"lat":48.420954200000004,"elevation":[]},{"distance":658.8380000000001,"relativeDirection":"CONTINUE","streetName":"Rue Dubuc","absoluteDirection":"NORTHWEST","stayOn":false,"area":false,"bogusName":false,"lon":-71.07469880000001,"lat":48.4212916,"elevation":[]},{"distance":238.88,"relativeDirection":"CONTINUE","streetName":"Côte Saint-Ange","absoluteDirection":"NORTHWEST","stayOn":false,"area":false,"bogusName":false,"lon":-71.0815067,"lat":48.424949000000005,"elevation":[]},{"distance":217.481,"relativeDirection":"LEFT","streetName":"Chemin de la Réserve","absoluteDirection":"SOUTHWEST","stayOn":false,"area":false,"bogusName":false,"lon":-71.0841347,"lat":48.426195400000005,"elevation":[]}]}],"tooSloped":false}]},"debugOutput":{"precalculationTime":25,"pathCalculationTime":42,"pathTimes":[22,10,10],"renderingTime":1,"totalTime":68,"timedOut":false},"elevationMetadata":{"ellipsoidToGeoidDifference":-28.885904201182168,"geoidElevation":false}}