{"requestParameters":{"date":"2018/04/02","walkSpeed":"1.33","walkReluctance":"2.0","fromPlace":"48.444119,-71.080494","maxWalkDistance":"3000","waitReluctance":"1.0","carSpeed":"33","numItineraries":"3","waitAtBeginningFactor":"0.4","mode":"TRANSIT,WALK","ignoreRealtimeUpdates":"false","stairsReluctance":"2.0","toPlace":"48.43745,-71.06138699","time":"14:0:00"},"plan":{"date":1522692000000,"from":{"name":"Origin","lon":-71.080494,"lat":48.444119,"orig":"","vertexType":"NORMAL"},"to":{"name":"Destination","lon":-71.06138699,"lat":48.43745,"orig":"","vertexType":"NORMAL"},"itineraries":[{"duration":1133,"startTime":1522692285000,"endTime":1522693418000,"walkTime":281,"transitTime":550,"waitingTime":302,"walkDistance":353.2699849593734,"walkLimitExceeded":false,"elevationLost":0.0,"elevationGained":0.0,"transfers":1,"legs":[{"startTime":1522692285000,"endTime":1522692314000,"departureDelay":0,"arrivalDelay":0,"realTime":false,"distance":38.415,"pathway":false,"mode":"WALK","route":"","agencyTimeZoneOffset":-14400000,"interlineWithPreviousLeg":false,"from":{"name":"Origin","lon":-71.080494,"lat":48.444119,"departure":1522692285000,"orig":"","vertexType":"NORMAL"},"to":{"name":"Place de la Colline (boul. Ste-Geneviève)","stopId":"1:2009","stopCode":"2009","lon":-71.080522,"lat":48.444768,"arrival":1522692314000,"departure":1522692315000,"zoneId":"NA","stopIndex":31,"stopSequence":32,"vertexType":"TRANSIT"},"legGeometry":{"points":"wytfHjyypLELa@fA","length":3},"rentedBike":false,"transitLeg":false,"duration":29.0,"steps":[{"distance":38.415,"relativeDirection":"DEPART","streetName":"Boulevard Sainte-Geneviève","absoluteDirection":"NORTHWEST","stayOn":false,"area":false,"bogusName":false,"lon":-71.08005452675857,"lat":48.4446094224144,"elevation":[]}]},{"startTime":1522692315000,"endTime":1522692600000,"departureDelay":0,"arrivalDelay":0,"realTime":false,"distance":2246.0175870948647,"pathway":false,"mode":"BUS","route":"21","agencyName":"Société de Transport du Saguenay","agencyUrl":"http://ville.saguenay.ca/fr/services-aux-citoyens/transport-sts","agencyTimeZoneOffset":-14400000,"routeColor":"556B2F","routeType":3,"routeId":"1:21","routeTextColor":"FFFFFF","interlineWithPreviousLeg":false,"tripBlockId":"2","headsign":"Terminus Chicoutimi","agencyId":"0","tripId":"1:217170","serviceDate":"20180402","from":{"name":"Place de la Colline (boul. Ste-Geneviève)","stopId":"1:2009","stopCode":"2009","lon":-71.080522,"lat":48.444768,"arrival":1522692314000,"departure":1522692315000,"zoneId":"NA","stopIndex":31,"stopSequence":32,"vertexType":"TRANSIT"},"to":{"name":"Terminus Chicoutimi","stopId":"1:1289","stopCode":"1289","lon":-71.066163,"lat":48.428677,"arrival":1522692600000,"departure":1522692900000,"zoneId":"NA","stopIndex":34,"stopSequence":35,"vertexType":"TRANSIT"},"legGeometry":{"points":"a{tfH~{ypL`CoHpCyJbAmCtAuCZg@|@gBxAsCrCmFhHqN~@eBr@cAt@_Av@}@RQPMz@k@tAe@REZG^Af@@X@VF`@Jn@XbClAr@Xt\\`PrAb@pA^hBTjAFj@Pb@JPHLLJNJRFXDT?X?ZEVEVKTMNMHMFOB}DWSGOSYcAN}FFkAF}DJyDPwGvAHVyL","length":61},"routeShortName":"21","routeLongName":"Boul. Ste-Geneviève/Élie","rentedBike":false,"transitLeg":true,"duration":285.0,"steps":[]},{"startTime":1522692900000,"endTime":1522693165000,"departureDelay":0,"arrivalDelay":0,"realTime":false,"distance":1162.148281913648,"pathway":false,"mode":"BUS","route":"24","agencyName":"Société de Transport du Saguenay","agencyUrl":"http://ville.saguenay.ca/fr/services-aux-citoyens/transport-sts","agencyTimeZoneOffset":-14400000,"routeColor":"00FF00","routeType":3,"routeId":"1:24","routeTextColor":"000000","interlineWithPreviousLeg":false,"tripBlockId":"5","headsign":"Terminus Chicoutimi","agencyId":"0","tripId":"1:217265","serviceDate":"20180402","from":{"name":"Terminus Chicoutimi","stopId":"1:1289","stopCode":"1289","lon":-71.066163,"lat":48.428677,"arrival":1522692600000,"departure":1522692900000,"zoneId":"NA","stopIndex":0,"stopSequence":1,"vertexType":"TRANSIT"},"to":{"name":"Roussel / St-Éphrem","stopId":"1:771","stopCode":"771","lon":-71.063155,"lat":48.437822,"arrival":1522693165000,"departure":1522693166000,"zoneId":"NA","stopIndex":2,"stopSequence":3,"vertexType":"TRANSIT"},"legGeometry":{"points":"evqfHzcwpLg@?EhBO~GoBKCp@O\\WjGOfGCRK^KJMHQB_AMg@Gm\\wO]i@wAyA_@WUKMEwEm@Js@Da@??@@??@?@???@???@?@??A@???@A@??A@??A@A??@A?A??@A?A?A?A@A?A???A?A?A???A?A?A?A???A?AAA?A???AAA?A??AA?AA??AA??A??AA??A??AA?A???A????q@C{AAaB?mAEcAGs@OoAa@sB[kAYcA","length":99},"routeShortName":"24","routeLongName":"Saint-Luc","rentedBike":false,"transitLeg":true,"duration":265.0,"steps":[]},{"startTime":1522693166000,"endTime":1522693418000,"departureDelay":0,"arrivalDelay":0,"realTime":false,"distance":314.76099999999997,"pathway":false,"mode":"WALK","route":"","agencyTimeZoneOffset":-14400000,"interlineWithPreviousLeg":false,"from":{"name":"Roussel / St-Éphrem","stopId":"1:771","stopCode":"771","lon":-71.063155,"lat":48.437822,"arrival":1522693165000,"departure":1522693166000,"zoneId":"NA","stopIndex":2,"stopSequence":3,"vertexType":"TRANSIT"},"to":{"name":"Destination","lon":-71.06138699,"lat":48.43745,"arrival":1522693418000,"orig":"","vertexType":"NORMAL"},"legGeometry":{"points":"yosfHdpvpLUs@Kc@S{@O}@Eo@Gw@bFbBAs@Wi@Fi@","length":11},"rentedBike":false,"transitLeg":false,"duration":252.0,"steps":[{"distance":126.279,"relativeDirection":"DEPART","streetName":"Rue Roussel","absoluteDirection":"NORTHEAST","stayOn":false,"area":false,"bogusName":false,"lon":-71.06322717074731,"lat":48.4378981822846,"elevation":[]},{"distance":132.169,"relativeDirection":"HARD_RIGHT","streetName":"Boulevard de Tadoussac","absoluteDirection":"SOUTH","stayOn":false,"area":false,"bogusName":false,"lon":-71.0616517,"lat":48.4383174,"elevation":[]},{"distance":56.313,"relativeDirection":"LEFT","streetName":"path","absoluteDirection":"EAST","stayOn":false,"area":false,"bogusName":false,"lon":-71.0621543,"lat":48.4371765,"elevation":[]}]}],"tooSloped":false},{"duration":1473,"startTime":1522692000000,"endTime":1522693473000,"walkTime":1473,"transitTime":0,"waitingTime":0,"walkDistance":1898.1771127740462,"walkLimitExceeded":false,"elevationLost":0.0,"elevationGained":0.0,"transfers":0,"legs":[{"startTime":1522692000000,"endTime":1522693473000,"departureDelay":0,"arrivalDelay":0,"realTime":false,"distance":1897.9320000000002,"pathway":false,"mode":"WALK","route":"","agencyTimeZoneOffset":-14400000,"interlineWithPreviousLeg":false,"from":{"name":"Origin","lon":-71.080494,"lat":48.444119,"departure":1522692000000,"orig":"","vertexType":"NORMAL"},"to":{"name":"Destination","lon":-71.06138699,"lat":48.43745,"arrival":1522693473000,"orig":"","vertexType":"NORMAL"},"legGeometry":{"points":"wytfHjyypLlAiEfByGhAiD|@wB~CcGrAiCSS`IiOzAwCvAoCb@{@h@{@Re@Xk@Zm@v@uAvAcCt@y@d@_@J??E@EBC@CBAD?BwC?eAASAyAKqCy@gDMc@I_@Y_AUs@Kc@S{@O}@Eo@Gw@bFbBAs@Wi@Fi@","length":46},"rentedBike":false,"transitLeg":false,"duration":1473.0,"steps":[{"distance":1023.1240000000001,"relativeDirection":"DEPART","streetName":"Boulevard Sainte-Geneviève","absoluteDirection":"SOUTHEAST","stayOn":false,"area":false,"bogusName":false,"lon":-71.08005452675857,"lat":48.4446094224144,"elevation":[]},{"distance":243.155,"relativeDirection":"CONTINUE","streetName":"R 172","absoluteDirection":"SOUTHEAST","stayOn":false,"area":false,"bogusName":true,"lon":-71.0694016,"lat":48.4389935,"elevation":[]},{"distance":14.306,"relativeDirection":"CIRCLE_CLOCKWISE","streetName":"Rue Roussel","absoluteDirection":"SOUTHEAST","exit":"1","stayOn":false,"area":false,"bogusName":false,"lon":-71.0672278,"lat":48.4373869,"elevation":[]},{"distance":428.865,"relativeDirection":"LEFT","streetName":"Rue Roussel","absoluteDirection":"EAST","stayOn":false,"area":false,"bogusName":false,"lon":-71.0671123,"lat":48.437299200000005,"elevation":[]},{"distance":132.169,"relativeDirection":"HARD_RIGHT","streetName":"Boulevard de Tadoussac","absoluteDirection":"SOUTH","stayOn":false,"area":false,"bogusName":false,"lon":-71.0616517,"lat":48.4383174,"elevation":[]},{"distance":56.313,"relativeDirection":"LEFT","streetName":"path","absoluteDirection":"EAST","stayOn":false,"area":false,"bogusName":false,"lon":-71.0621543,"lat":48.4371765,"elevation":[]}]}],"tooSloped":false},{"duration":969,"startTime":1522693056000,"endTime":1522694025000,"walkTime":387,"transitTime":580,"waitingTime":2,"walkDistance":493.79077443254806,"walkLimitExceeded":false,"elevationLost":0.0,"elevationGained":0.0,"transfers":0,"legs":[{"startTime":1522693056000,"endTime":1522693218000,"departureDelay":0,"arrivalDelay":0,"realTime":false,"distance":203.312,"pathway":false,"mode":"WALK","route":"","agencyTimeZoneOffset":-14400000,"interlineWithPreviousLeg":false,"from":{"name":"Origin","lon":-71.080494,"lat":48.444119,"departure":1522693056000,"orig":"","vertexType":"NORMAL"},"to":{"name":"Place de la Colline (boul. Ste-Geneviève)","stopId":"1:706","stopCode":"706","lon":-71.080094,"lat":48.44485,"arrival":1522693218000,"departure":1522693219000,"zoneId":"NA","stopIndex":2,"stopSequence":3,"vertexType":"TRANSIT"},"legGeometry":{"points":"wytfHjyypLlAiEQSeBjF","length":4},"rentedBike":false,"transitLeg":false,"duration":162.0,"steps":[{"distance":86.223,"relativeDirection":"DEPART","streetName":"Boulevard Sainte-Geneviève","absoluteDirection":"SOUTHEAST","stayOn":false,"area":false,"bogusName":false,"lon":-71.08005452675857,"lat":48.4446094224144,"elevation":[]},{"distance":117.089,"relativeDirection":"UTURN_LEFT","streetName":"Boulevard Sainte-Geneviève","absoluteDirection":"NORTHWEST","stayOn":true,"area":false,"bogusName":false,"lon":-71.07894370000001,"lat":48.444307900000005,"elevation":[]}]},{"startTime":1522693219000,"endTime":1522693799000,"departureDelay":0,"arrivalDelay":0,"realTime":false,"distance":4363.5425764082065,"pathway":false,"mode":"BUS","route":"23","agencyName":"Société de Transport du Saguenay","agencyUrl":"http://ville.saguenay.ca/fr/services-aux-citoyens/transport-sts","agencyTimeZoneOffset":-14400000,"routeColor":"FF00FF","routeType":3,"routeId":"1:23","routeTextColor":"FFFFFF","interlineWithPreviousLeg":false,"tripBlockId":"4","headsign":"Terminus Chicoutimi","agencyId":"0","tripId":"1:217238","serviceDate":"20180402","from":{"name":"Place de la Colline (boul. Ste-Geneviève)","stopId":"1:706","stopCode":"706","lon":-71.080094,"lat":48.44485,"arrival":1522693218000,"departure":1522693219000,"zoneId":"NA","stopIndex":2,"stopSequence":3,"vertexType":"TRANSIT"},"to":{"name":"boul. Tadoussac / Bourget","stopId":"1:831","stopCode":"831","lon":-71.061384,"lat":48.43922,"arrival":1522693799000,"departure":1522693800000,"zoneId":"NA","stopIndex":21,"stopSequence":22,"vertexType":"TRANSIT"},"legGeometry":{"points":"{ztfH~yypLCD}@hCo@~Aq@pAs@fA{BlCqH|Iq@Bq@Im@UGCUi@Wm@ScA_@gGSaE@_@@_@@ERoBFe@No@`@gAbCyFNe@Ha@He@Fg@Du@Dg@Hc@Pa@RW\\S`@QZEm@eHM}B?GGi@Is@Ou@Qw@Mo@Kw@ImAGoBAk@aALa@?YEUKc@Yc@_@KOIUGUEWAW?YBqAH_AXeC@IdB_Mh@_EJk@d@kDhAqI`AgHz@oGBU?UAWCWUwAWD]B]AUEoAc@kE}AOIq@g@g@u@]w@b@s@T[~CkFf@s@\\e@x@}@jAeAXQZStBaAh@]`@]`@i@l@kDF_@R{AFWFMPIPC`@BT@V?TAVKLENCLCJ@J@xAb@x@Zz@\\CP?R@N@NFLFF`GtBx@Xw@pG@l@B\\DXL\\RZDFXPf@N@v@Bp@Dr@l@~HNlAH\\@HLd@\\z@Xd@X\\RTXRr@Zn@PfExA","length":153},"routeShortName":"23","routeLongName":"Côte Verdun via Aréna du Plateau","rentedBike":false,"transitLeg":true,"duration":580.0,"steps":[]},{"startTime":1522693800000,"endTime":1522694025000,"departureDelay":0,"arrivalDelay":0,"realTime":false,"distance":290.369,"pathway":false,"mode":"WALK","route":"","agencyTimeZoneOffset":-14400000,"interlineWithPreviousLeg":false,"from":{"name":"boul. Tadoussac / Bourget","stopId":"1:831","stopCode":"831","lon":-71.061384,"lat":48.43922,"arrival":1522693799000,"departure":1522693800000,"zoneId":"NA","stopIndex":21,"stopSequence":22,"vertexType":"TRANSIT"},"to":{"name":"Destination","lon":-71.06138699,"lat":48.43745,"arrival":1522694025000,"orig":"","vertexType":"NORMAL"},"legGeometry":{"points":"}wsfH|cvpLnDlAbFbBAs@Wi@Fi@","length":6},"rentedBike":false,"transitLeg":false,"duration":225.0,"steps":[{"distance":234.056,"relativeDirection":"DEPART","streetName":"Boulevard de Tadoussac","absoluteDirection":"SOUTH","stayOn":false,"area":false,"bogusName":false,"lon":-71.06126606265329,"lat":48.43919724946793,"elevation":[]},{"distance":56.313,"relativeDirection":"LEFT","streetName":"path","absoluteDirection":"EAST","stayOn":false,"area":false,"bogusName":false,"lon":-71.0621543,"lat":48.4371765,"elevation":[]}]}],"tooSloped":false}]},"debugOutput":{"precalculationTime":23,"pathCalculationTime":21,"pathTimes":[15,3,3],"renderingTime":0,"totalTime":44,"timedOut":false},"elevationMetadata":{"ellipsoidToGeoidDifference":-28.885904201182168,"geoidElevation":false}}