{"requestParameters":{"date":"2018/04/02","walkSpeed":"1.33","walkReluctance":"2.0","fromPlace":"48.382245,-71.07912","maxWalkDistance":"3000","waitReluctance":"1.0","carSpeed":"33","numItineraries":"3","waitAtBeginningFactor":"0.4","mode":"TRANSIT,WALK","ignoreRealtimeUpdates":"false","stairsReluctance":"2.0","toPlace":"48.39802,-71.049985","time":"11:30:00"},"plan":{"date":1522683000000,"from":{"name":"Origin","lon":-71.07912,"lat":48.382245,"orig":"","vertexType":"NORMAL"},"to":{"name":"Destination","lon":-71.049985,"lat":48.39802,"orig":"","vertexType":"NORMAL"},"itineraries":[{"duration":1650,"startTime":1522683805000,"endTime":1522685455000,"walkTime":1138,"transitTime":510,"waitingTime":2,"walkDistance":1463.6208270618345,"walkLimitExceeded":false,"elevationLost":0.0,"elevationGained":0.0,"transfers":0,"legs":[{"startTime":1522683805000,"endTime":1522683989000,"departureDelay":0,"arrivalDelay":0,"realTime":false,"distance":243.024,"pathway":false,"mode":"WALK","route":"","agencyTimeZoneOffset":-14400000,"interlineWithPreviousLeg":false,"from":{"name":"Origin","lon":-71.07912,"lat":48.382245,"departure":1522683805000,"orig":"","vertexType":"NORMAL"},"to":{"name":"boul. Talbot (no. 2395)","stopId":"1:8","stopCode":"8","lon":-71.08056,"lat":48.384607,"arrival":1522683989000,"departure":1522683990000,"zoneId":"NA","stopIndex":2,"stopSequence":3,"vertexType":"TRANSIT"},"legGeometry":{"points":"athfHnsypLi@rAyErLAD","length":4},"rentedBike":false,"transitLeg":false,"duration":184.0,"steps":[{"distance":243.024,"relativeDirection":"DEPART","streetName":"Rue des Routiers","absoluteDirection":"NORTHWEST","stayOn":false,"area":false,"bogusName":false,"lon":-71.07911322878307,"lat":48.382250968152746,"elevation":[]}]},{"startTime":1522683990000,"endTime":1522684500000,"departureDelay":0,"arrivalDelay":0,"realTime":false,"distance":3055.1848405531946,"pathway":false,"mode":"BUS","route":"175","agencyName":"Société de Transport du Saguenay","agencyUrl":"http://ville.saguenay.ca/fr/services-aux-citoyens/transport-sts","agencyTimeZoneOffset":-14400000,"routeColor":"FF00FF","routeType":3,"routeId":"1:175","routeTextColor":"FFFFFF","interlineWithPreviousLeg":false,"tripBlockId":"9","headsign":"Terminus Chicoutimi","agencyId":"0","tripId":"1:217402","serviceDate":"20180402","from":{"name":"boul. Talbot (no. 2395)","stopId":"1:8","stopCode":"8","lon":-71.08056,"lat":48.384607,"arrival":1522683989000,"departure":1522683990000,"zoneId":"NA","stopIndex":2,"stopSequence":3,"vertexType":"TRANSIT"},"to":{"name":"Place Royaume","stopId":"1:1801","stopCode":"1801","lon":-71.057017,"lat":48.405588,"arrival":1522684500000,"departure":1522684501000,"zoneId":"NA","stopIndex":10,"stopSequence":11,"vertexType":"TRANSIT"},"legGeometry":{"points":"ccifHd}ypLoEiFUWSUqCwC]a@{ByC{@cAkJuKoAwA_CeCeExJ~AlB`@mAu@k@}@q@|C}Iw@}@aO_QkEsEiAoAgEsFkFsHqJ_N}FkImPkOuO{N","length":27},"routeShortName":"175","routeLongName":"Term. Chic / Costco","rentedBike":false,"transitLeg":true,"duration":510.0,"steps":[]},{"startTime":1522684501000,"endTime":1522685455000,"departureDelay":0,"arrivalDelay":0,"realTime":false,"distance":1220.4160000000002,"pathway":false,"mode":"WALK","route":"","agencyTimeZoneOffset":-14400000,"interlineWithPreviousLeg":false,"from":{"name":"Place Royaume","stopId":"1:1801","stopCode":"1801","lon":-71.057017,"lat":48.405588,"arrival":1522684500000,"departure":1522684501000,"zoneId":"NA","stopIndex":10,"stopSequence":11,"vertexType":"TRANSIT"},"to":{"name":"Destination","lon":-71.049985,"lat":48.39802,"arrival":1522685455000,"orig":"","vertexType":"NORMAL"},"legGeometry":{"points":"memfHriupL`@{Ap@uBYUb@_B?q@O]WWzCgKp@{BRH\\EA{Ad@MNGrBm@jEiA^KTGp@U|AOf@D|@D@?r@D|AZtA|@B@RNl@n@rAsD|AeE@G","length":33},"rentedBike":false,"transitLeg":false,"duration":954.0,"steps":[{"distance":90.318,"relativeDirection":"DEPART","streetName":"parking aisle","absoluteDirection":"SOUTHEAST","stayOn":false,"area":false,"bogusName":true,"lon":-71.0570537,"lat":48.405519700000006,"elevation":[]},{"distance":105.386,"relativeDirection":"LEFT","streetName":"service road","absoluteDirection":"NORTHEAST","stayOn":true,"area":false,"bogusName":true,"lon":-71.05600720000001,"lat":48.4050992,"elevation":[]},{"distance":284.657,"relativeDirection":"RIGHT","streetName":"path","absoluteDirection":"SOUTHEAST","stayOn":true,"area":false,"bogusName":true,"lon":-71.054893,"lat":48.4052475,"elevation":[]},{"distance":232.007,"relativeDirection":"RIGHT","streetName":"Rue des Champs-Élysées","absoluteDirection":"SOUTH","stayOn":false,"area":false,"bogusName":false,"lon":-71.0518792,"lat":48.4039711,"elevation":[]},{"distance":333.49800000000005,"relativeDirection":"CONTINUE","streetName":"Rue des Engoulevents","absoluteDirection":"SOUTH","stayOn":false,"area":false,"bogusName":false,"lon":-71.0511074,"lat":48.401948700000005,"elevation":[]},{"distance":174.55,"relativeDirection":"LEFT","streetName":"Rue des Bernaches","absoluteDirection":"SOUTHEAST","stayOn":false,"area":false,"bogusName":false,"lon":-71.0517427,"lat":48.399088400000004,"elevation":[]}]}],"tooSloped":false},{"duration":1213,"startTime":1522684705000,"endTime":1522685918000,"walkTime":515,"transitTime":536,"waitingTime":162,"walkDistance":656.6361428536857,"walkLimitExceeded":false,"elevationLost":0.0,"elevationGained":0.0,"transfers":1,"legs":[{"startTime":1522684705000,"endTime":1522684889000,"departureDelay":0,"arrivalDelay":0,"realTime":false,"distance":243.024,"pathway":false,"mode":"WALK","route":"","agencyTimeZoneOffset":-14400000,"interlineWithPreviousLeg":false,"from":{"name":"Origin","lon":-71.07912,"lat":48.382245,"departure":1522684705000,"orig":"","vertexType":"NORMAL"},"to":{"name":"boul. Talbot (no. 2395)","stopId":"1:8","stopCode":"8","lon":-71.08056,"lat":48.384607,"arrival":1522684889000,"departure":1522684890000,"zoneId":"NA","stopIndex":2,"stopSequence":3,"vertexType":"TRANSIT"},"legGeometry":{"points":"athfHnsypLi@rAyErLAD","length":4},"rentedBike":false,"transitLeg":false,"duration":184.0,"steps":[{"distance":243.024,"relativeDirection":"DEPART","streetName":"Rue des Routiers","absoluteDirection":"NORTHWEST","stayOn":false,"area":false,"bogusName":false,"lon":-71.07911322878307,"lat":48.382250968152746,"elevation":[]}]},{"startTime":1522684890000,"endTime":1522685160000,"departureDelay":0,"arrivalDelay":0,"realTime":false,"distance":1513.3111851665099,"pathway":false,"mode":"BUS","route":"175","agencyName":"Société de Transport du Saguenay","agencyUrl":"http://ville.saguenay.ca/fr/services-aux-citoyens/transport-sts","agencyTimeZoneOffset":-14400000,"routeColor":"FF00FF","routeType":3,"routeId":"1:175","routeTextColor":"FFFFFF","interlineWithPreviousLeg":false,"tripBlockId":"81","headsign":"Terminus Chicoutimi","agencyId":"0","tripId":"1:218659","serviceDate":"20180402","from":{"name":"boul. Talbot (no. 2395)","stopId":"1:8","stopCode":"8","lon":-71.08056,"lat":48.384607,"arrival":1522684889000,"departure":1522684890000,"zoneId":"NA","stopIndex":2,"stopSequence":3,"vertexType":"TRANSIT"},"to":{"name":"boul. Talbot / boul. Barrette","stopId":"1:49","stopCode":"49","lon":-71.069502,"lat":48.394497,"arrival":1522685160000,"departure":1522685160000,"zoneId":"NA","stopIndex":7,"stopSequence":8,"vertexType":"TRANSIT"},"legGeometry":{"points":"ccifHd}ypLoEiFUWSUqCwC]a@{ByC{@cAkJuKoAwA_CeCeExJ~AlB`@mAu@k@}@q@|C}Iw@}@aO_QkEsE","length":20},"routeShortName":"175","routeLongName":"Term. Chic / Costco","rentedBike":false,"transitLeg":true,"duration":270.0,"steps":[]},{"startTime":1522685160000,"endTime":1522685300000,"departureDelay":0,"arrivalDelay":0,"realTime":false,"distance":182.446,"pathway":false,"mode":"WALK","route":"","agencyTimeZoneOffset":-14400000,"interlineWithPreviousLeg":false,"from":{"name":"boul. Talbot / boul. Barrette","stopId":"1:49","stopCode":"49","lon":-71.069502,"lat":48.394497,"arrival":1522685160000,"departure":1522685160000,"zoneId":"NA","stopIndex":7,"stopSequence":8,"vertexType":"TRANSIT"},"to":{"name":"Roitelets / Sapins","stopId":"1:1543","stopCode":"1543","lon":-71.069553,"lat":48.393375,"arrival":1522685300000,"departure":1522685460000,"zoneId":"NA","stopIndex":0,"stopSequence":1,"vertexType":"TRANSIT"},"legGeometry":{"points":"}`kfHdxwpL|BlCNNBALIlA{C?A","length":7},"rentedBike":false,"transitLeg":false,"duration":140.0,"steps":[{"distance":98.432,"relativeDirection":"DEPART","streetName":"Boulevard Talbot","absoluteDirection":"SOUTHWEST","stayOn":false,"area":false,"bogusName":false,"lon":-71.06962085488986,"lat":48.394555935445034,"elevation":[]},{"distance":84.014,"relativeDirection":"LEFT","streetName":"bike path","absoluteDirection":"SOUTHEAST","stayOn":false,"area":false,"bogusName":true,"lon":-71.07041720000001,"lat":48.393846,"elevation":[]}]},{"startTime":1522685460000,"endTime":1522685726000,"departureDelay":0,"arrivalDelay":0,"realTime":false,"distance":1885.6528058349359,"pathway":false,"mode":"BUS","route":"15","agencyName":"Société de Transport du Saguenay","agencyUrl":"http://ville.saguenay.ca/fr/services-aux-citoyens/transport-sts","agencyTimeZoneOffset":-14400000,"routeColor":"FF00FF","routeType":3,"routeId":"1:15","routeTextColor":"FFFFFF","interlineWithPreviousLeg":false,"tripBlockId":"30","headsign":"Terminus Chicoutimi","agencyId":"0","tripId":"1:218098","serviceDate":"20180402","from":{"name":"Roitelets / Sapins","stopId":"1:1543","stopCode":"1543","lon":-71.069553,"lat":48.393375,"arrival":1522685300000,"departure":1522685460000,"zoneId":"NA","stopIndex":0,"stopSequence":1,"vertexType":"TRANSIT"},"to":{"name":"Roitelets (no. 1724)","stopId":"1:1547","stopCode":"1547","lon":-71.047286,"lat":48.397165,"arrival":1522685726000,"departure":1522685727000,"zoneId":"NA","stopIndex":7,"stopSequence":8,"vertexType":"TRANSIT"},"legGeometry":{"points":"_zjfHfwwpLx@}BHa@NaADq@@y@Cy@I{@Ka@O[Sg@c@mAWwAMyA?EC]?wABuABmFB{@BmDFuH@i@F[FsC@c@TuGEGVsHPuDLuBXsFDoA?W@]Cu@GcAKu@Q_ASo@a@y@a@o@MOUUeCqBiDsDqE{EiAcAcB_A","length":49},"routeShortName":"15","routeLongName":"Term. Chic / Costco","rentedBike":false,"transitLeg":true,"duration":266.0,"steps":[]},{"startTime":1522685727000,"endTime":1522685918000,"departureDelay":0,"arrivalDelay":0,"realTime":false,"distance":231.059,"pathway":false,"mode":"WALK","route":"","agencyTimeZoneOffset":-14400000,"interlineWithPreviousLeg":false,"from":{"name":"Roitelets (no. 1724)","stopId":"1:1547","stopCode":"1547","lon":-71.047286,"lat":48.397165,"arrival":1522685726000,"departure":1522685727000,"zoneId":"NA","stopIndex":7,"stopSequence":8,"vertexType":"TRANSIT"},"to":{"name":"Destination","lon":-71.049985,"lat":48.39802,"arrival":1522685918000,"orig":"","vertexType":"NORMAL"},"legGeometry":{"points":"iqkfHxlspLMIALGZk@rCJHqCrH","length":7},"rentedBike":false,"transitLeg":false,"duration":191.0,"steps":[{"distance":8.383,"relativeDirection":"DEPART","streetName":"bike path","absoluteDirection":"NORTHEAST","stayOn":false,"area":false,"bogusName":true,"lon":-71.04732188793874,"lat":48.397176481197455,"elevation":[]},{"distance":76.673,"relativeDirection":"LEFT","streetName":"path","absoluteDirection":"WEST","stayOn":true,"area":false,"bogusName":true,"lon":-71.0472726,"lat":48.397244400000005,"elevation":[]},{"distance":7.027,"relativeDirection":"LEFT","streetName":"Rue des Mésanges","absoluteDirection":"SOUTHWEST","stayOn":false,"area":false,"bogusName":false,"lon":-71.0482289,"lat":48.397512600000006,"elevation":[]},{"distance":138.976,"relativeDirection":"RIGHT","streetName":"Rue des Bernaches","absoluteDirection":"NORTHWEST","stayOn":false,"area":false,"bogusName":false,"lon":-71.0482776,"lat":48.397458300000004,"elevation":[]}]}],"tooSloped":false},{"duration":1650,"startTime":1522685605000,"endTime":1522687255000,"walkTime":1138,"transitTime":510,"waitingTime":2,"walkDistance":1463.6208270618345,"walkLimitExceeded":false,"elevationLost":0.0,"elevationGained":0.0,"transfers":0,"legs":[{"startTime":1522685605000,"endTime":1522685789000,"departureDelay":0,"arrivalDelay":0,"realTime":false,"distance":243.024,"pathway":false,"mode":"WALK","route":"","agencyTimeZoneOffset":-14400000,"interlineWithPreviousLeg":false,"from":{"name":"Origin","lon":-71.07912,"lat":48.382245,"departure":1522685605000,"orig":"","vertexType":"NORMAL"},"to":{"name":"boul. Talbot (no. 2395)","stopId":"1:8","stopCode":"8","lon":-71.08056,"lat":48.384607,"arrival":1522685789000,"departure":1522685790000,"zoneId":"NA","stopIndex":2,"stopSequence":3,"vertexType":"TRANSIT"},"legGeometry":{"points":"athfHnsypLi@rAyErLAD","length":4},"rentedBike":false,"transitLeg":false,"duration":184.0,"steps":[{"distance":243.024,"relativeDirection":"DEPART","streetName":"Rue des Routiers","absoluteDirection":"NORTHWEST","stayOn":false,"area":false,"bogusName":false,"lon":-71.07911322878307,"lat":48.382250968152746,"elevation":[]}]},{"startTime":1522685790000,"endTime":1522686300000,"departureDelay":0,"arrivalDelay":0,"realTime":false,"distance":3055.1848405531946,"pathway":false,"mode":"BUS","route":"175","agencyName":"Société de Transport du Saguenay","agencyUrl":"http://ville.saguenay.ca/fr/services-aux-citoyens/transport-sts","agencyTimeZoneOffset":-14400000,"routeColor":"FF00FF","routeType":3,"routeId":"1:175","routeTextColor":"FFFFFF","interlineWithPreviousLeg":false,"tripBlockId":"11","headsign":"Terminus Chicoutimi","agencyId":"0","tripId":"1:217473","serviceDate":"20180402","from":{"name":"boul. Talbot (no. 2395)","stopId":"1:8","stopCode":"8","lon":-71.08056,"lat":48.384607,"arrival":1522685789000,"departure":1522685790000,"zoneId":"NA","stopIndex":2,"stopSequence":3,"vertexType":"TRANSIT"},"to":{"name":"Place Royaume","stopId":"1:1801","stopCode":"1801","lon":-71.057017,"lat":48.405588,"arrival":1522686300000,"departure":1522686301000,"zoneId":"NA","stopIndex":10,"stopSequence":11,"vertexType":"TRANSIT"},"legGeometry":{"points":"ccifHd}ypLoEiFUWSUqCwC]a@{ByC{@cAkJuKoAwA_CeCeExJ~AlB`@mAu@k@}@q@|C}Iw@}@aO_QkEsEiAoAgEsFkFsHqJ_N}FkImPkOuO{N","length":27},"routeShortName":"175","routeLongName":"Term. Chic / Costco","rentedBike":false,"transitLeg":true,"duration":510.0,"steps":[]},{"startTime":1522686301000,"endTime":1522687255000,"departureDelay":0,"arrivalDelay":0,"realTime":false,"distance":1220.4160000000002,"pathway":false,"mode":"WALK","route":"","agencyTimeZoneOffset":-14400000,"interlineWithPreviousLeg":false,"from":{"name":"Place Royaume","stopId":"1:1801","stopCode":"1801","lon":-71.057017,"lat":48.405588,"arrival":1522686300000,"departure":1522686301000,"zoneId":"NA","stopIndex":10,"stopSequence":11,"vertexType":"TRANSIT"},"to":{"name":"Destination","lon":-71.049985,"lat":48.39802,"arrival":1522687255000,"orig":"","vertexType":"NORMAL"},"legGeometry":{"points":"memfHriupL`@{Ap@uBYUb@_B?q@O]WWzCgKp@{BRH\\EA{Ad@MNGrBm@jEiA^KTGp@U|AOf@D|@D@?r@D|AZtA|@B@RNl@n@rAsD|AeE@G","length":33},"rentedBike":false,"transitLeg":false,"duration":954.0,"steps":[{"distance":90.318,"relativeDirection":"DEPART","streetName":"parking aisle","absoluteDirection":"SOUTHEAST","stayOn":false,"area":false,"bogusName":true,"lon":-71.0570537,"lat":48.405519700000006,"elevation":[]},{"distance":105.386,"relativeDirection":"LEFT","streetName":"service road","absoluteDirection":"NORTHEAST","stayOn":true,"area":false,"bogusName":true,"lon":-71.05600720000001,"lat":48.4050992,"elevation":[]},{"distance":284.657,"relativeDirection":"RIGHT","streetName":"path","absoluteDirection":"SOUTHEAST","stayOn":true,"area":false,"bogusName":true,"lon":-71.054893,"lat":48.4052475,"elevation":[]},{"distance":232.007,"relativeDirection":"RIGHT","streetName":"Rue des Champs-Élysées","absoluteDirection":"SOUTH","stayOn":false,"area":false,"bogusName":false,"lon":-71.0518792,"lat":48.4039711,"elevation":[]},{"distance":333.49800000000005,"relativeDirection":"CONTINUE","streetName":"Rue des Engoulevents","absoluteDirection":"SOUTH","stayOn":false,"area":false,"bogusName":false,"lon":-71.0511074,"lat":48.401948700000005,"elevation":[]},{"distance":174.55,"relativeDirection":"LEFT","streetName":"Rue des Bernaches","absoluteDirection":"SOUTHEAST","stayOn":false,"area":false,"bogusName":false,"lon":-71.0517427,"lat":48.399088400000004,"elevation":[]}]}],"tooSloped":false}]},"debugOutput":{"precalculationTime":17,"pathCalculationTime":14,"pathTimes":[7,5,2],"renderingTime":1,"totalTime":32,"timedOut":false},"elevationMetadata":{"ellipsoidToGeoidDifference":-28.885904201182168,"geoidElevation":false}}