{"requestParameters":{"date":"2018/04/02","walkSpeed":"1.33","walkReluctance":"2.0","fromPlace":"48.382245,-71.07912","maxWalkDistance":"3000","waitReluctance":"1.0","carSpeed":"33","numItineraries":"3","waitAtBeginningFactor":"0.4","mode":"TRANSIT,WALK","ignoreRealtimeUpdates":"false","stairsReluctance":"2.0","toPlace":"48.39802,-71.049985","time":"17:0:00"},"plan":{"date":1522702800000,"from":{"name":"Origin","lon":-71.07912,"lat":48.382245,"orig":"","vertexType":"NORMAL"},"to":{"name":"Destination","lon":-71.049985,"lat":48.39802,"orig":"","vertexType":"NORMAL"},"itineraries":[{"duration":1650,"startTime":1522703605000,"endTime":1522705255000,"walkTime":1138,"transitTime":510,"waitingTime":2,"walkDistance":1463.6208270618345,"walkLimitExceeded":false,"elevationLost":0.0,"elevationGained":0.0,"transfers":0,"legs":[{"startTime":1522703605000,"endTime":1522703789000,"departureDelay":0,"arrivalDelay":0,"realTime":false,"distance":243.024,"pathway":false,"mode":"WALK","route":"","agencyTimeZoneOffset":-14400000,"interlineWithPreviousLeg":false,"from":{"name":"Origin","lon":-71.07912,"lat":48.382245,"departure":1522703605000,"orig":"","vertexType":"NORMAL"},"to":{"name":"boul. Talbot (no. 2395)","stopId":"1:8","stopCode":"8","lon":-71.08056,"lat":48.384607,"arrival":1522703789000,"departure":1522703790000,"zoneId":"NA","stopIndex":2,"stopSequence":3,"vertexType":"TRANSIT"},"legGeometry":{"points":"athfHnsypLi@rAyErLAD","length":4},"rentedBike":false,"transitLeg":false,"duration":184.0,"steps":[{"distance":243.024,"relativeDirection":"DEPART","streetName":"Rue des Routiers","absoluteDirection":"NORTHWEST","stayOn":false,"area":false,"bogusName":false,"lon":-71.07911322878307,"lat":48.382250968152746,"elevation":[]}]},{"startTime":1522703790000,"endTime":1522704300000,"departureDelay":0,"arrivalDelay":0,"realTime":false,"distance":3055.1848405531946,"pathway":false,"mode":"BUS","route":"175","agencyName":"Société de Transport du Saguenay","agencyUrl":"http://ville.saguenay.ca/fr/services-aux-citoyens/transport-sts","agencyTimeZoneOffset":-14400000,"routeColor":"FF00FF","routeType":3,"routeId":"1:175","routeTextColor":"FFFFFF","interlineWithPreviousLeg":false,"tripBlockId":"10","headsign":"Terminus Chicoutimi","agencyId":"0","tripId":"1:217448","serviceDate":"20180402","from":{"name":"boul. Talbot (no. 2395)","stopId":"1:8","stopCode":"8","lon":-71.08056,"lat":48.384607,"arrival":1522703789000,"departure":1522703790000,"zoneId":"NA","stopIndex":2,"stopSequence":3,"vertexType":"TRANSIT"},"to":{"name":"Place Royaume","stopId":"1:1801","stopCode":"1801","lon":-71.057017,"lat":48.405588,"arrival":1522704300000,"departure":1522704301000,"zoneId":"NA","stopIndex":10,"stopSequence":11,"vertexType":"TRANSIT"},"legGeometry":{"points":"ccifHd}ypLoEiFUWSUqCwC]a@{ByC{@cAkJuKoAwA_CeCeExJ~AlB`@mAu@k@}@q@|C}Iw@}@aO_QkEsEiAoAgEsFkFsHqJ_N}FkImPkOuO{N","length":27},"routeShortName":"175","routeLongName":"Term. Chic / Costco","rentedBike":false,"transitLeg":true,"duration":510.0,"steps":[]},{"startTime":1522704301000,"endTime":1522705255000,"departureDelay":0,"arrivalDelay":0,"realTime":false,"distance":1220.4160000000002,"pathway":false,"mode":"WALK","route":"","agencyTimeZoneOffset":-14400000,"interlineWithPreviousLeg":false,"from":{"name":"Place Royaume","stopId":"1:1801","stopCode":"1801","lon":-71.057017,"lat":48.405588,"arrival":1522704300000,"departure":1522704301000,"zoneId":"NA","stopIndex":10,"stopSequence":11,"vertexType":"TRANSIT"},"to":{"name":"Destination","lon":-71.049985,"lat":48.39802,"arrival":1522705255000,"orig":"","vertexType":"NORMAL"},"legGeometry":{"points":"memfHriupL`@{Ap@uBYUb@_B?q@O]WWzCgKp@{BRH\\EA{Ad@MNGrBm@jEiA^KTGp@U|AOf@D|@D@?r@D|AZtA|@B@RNl@n@rAsD|AeE@G","length":33},"rentedBike":false,"transitLeg":false,"duration":954.0,"steps":[{"distance":90.318,"relativeDirection":"DEPART","streetName":"parking aisle","absoluteDirection":"SOUTHEAST","stayOn":false,"area":false,"bogusName":true,"lon":-71.0570537,"lat":48.405519700000006,"elevation":[]},{"distance":105.386,"relativeDirection":"LEFT","streetName":"service road","absoluteDirection":"NORTHEAST","stayOn":true,"area":false,"bogusName":true,"lon":-71.05600720000001,"lat":48.4050992,"elevation":[]},{"distance":284.657,"relativeDirection":"RIGHT","streetName":"path","absoluteDirection":"SOUTHEAST","stayOn":true,"area":false,"bogusName":true,"lon":-71.054893,"lat":48.4052475,"elevation":[]},{"distance":232.007,"relativeDirection":"RIGHT","streetName":"Rue des Champs-Élysées","absoluteDirection":"SOUTH","stayOn":false,"area":false,"bogusName":false,"lon":-71.0518792,"lat":48.4039711,"elevation":[]},{"distance":333.49800000000005,"relativeDirection":"CONTINUE","streetName":"Rue des Engoulevents","absoluteDirection":"SOUTH","stayOn":false,"area":false,"bogusName":false,"lon":-71.0511074,"lat":48.401948700000005,"elevation":[]},{"distance":174.55,"relativeDirection":"LEFT","streetName":"Rue des Bernaches","absoluteDirection":"SOUTHEAST","stayOn":false,"area":false,"bogusName":false,"lon":-71.0517427,"lat":48.399088400000004,"elevation":[]}]}],"tooSloped":false},{"duration":1650,"startTime":1522705405000,"endTime":1522707055000,"walkTime":1138,"transitTime":510,"waitingTime":2,"walkDistance":1463.6208270618345,"walkLimitExceeded":false,"elevationLost":0.0,"elevationGained":0.0,"transfers":0,"legs":[{"startTime":1522705405000,"endTime":1522705589000,"departureDelay":0,"arrivalDelay":0,"realTime":false,"distance":243.024,"pathway":false,"mode":"WALK","route":"","agencyTimeZoneOffset":-14400000,"interlineWithPreviousLeg":false,"from":{"name":"Origin","lon":-71.07912,"lat":48.382245,"departure":1522705405000,"orig":"","vertexType":"NORMAL"},"to":{"name":"boul. Talbot (no. 2395)","stopId":"1:8","stopCode":"8","lon":-71.08056,"lat":48.384607,"arrival":1522705589000,"departure":1522705590000,"zoneId":"NA","stopIndex":2,"stopSequence":3,"vertexType":"TRANSIT"},"legGeometry":{"points":"athfHnsypLi@rAyErLAD","length":4},"rentedBike":false,"transitLeg":false,"duration":184.0,"steps":[{"distance":243.024,"relativeDirection":"DEPART","streetName":"Rue des Routiers","absoluteDirection":"NORTHWEST","stayOn":false,"area":false,"bogusName":false,"lon":-71.07911322878307,"lat":48.382250968152746,"elevation":[]}]},{"startTime":1522705590000,"endTime":1522706100000,"departureDelay":0,"arrivalDelay":0,"realTime":false,"distance":3055.1848405531946,"pathway":false,"mode":"BUS","route":"175","agencyName":"Société de Transport du Saguenay","agencyUrl":"http://ville.saguenay.ca/fr/services-aux-citoyens/transport-sts","agencyTimeZoneOffset":-14400000,"routeColor":"FF00FF","routeType":3,"routeId":"1:175","routeTextColor":"FFFFFF","interlineWithPreviousLeg":false,"tripBlockId":"9","headsign":"Terminus Chicoutimi","agencyId":"0","tripId":"1:217414","serviceDate":"20180402","from":{"name":"boul. Talbot (no. 2395)","stopId":"1:8","stopCode":"8","lon":-71.08056,"lat":48.384607,"arrival":1522705589000,"departure":1522705590000,"zoneId":"NA","stopIndex":2,"stopSequence":3,"vertexType":"TRANSIT"},"to":{"name":"Place Royaume","stopId":"1:1801","stopCode":"1801","lon":-71.057017,"lat":48.405588,"arrival":1522706100000,"departure":1522706101000,"zoneId":"NA","stopIndex":10,"stopSequence":11,"vertexType":"TRANSIT"},"legGeometry":{"points":"ccifHd}ypLoEiFUWSUqCwC]a@{ByC{@cAkJuKoAwA_CeCeExJ~AlB`@mAu@k@}@q@|C}Iw@}@aO_QkEsEiAoAgEsFkFsHqJ_N}FkImPkOuO{N","length":27},"routeShortName":"175","routeLongName":"Term. Chic / Costco","rentedBike":false,"transitLeg":true,"duration":510.0,"steps":[]},{"startTime":1522706101000,"endTime":1522707055000,"departureDelay":0,"arrivalDelay":0,"realTime":false,"distance":1220.4160000000002,"pathway":false,"mode":"WALK","route":"","agencyTimeZoneOffset":-14400000,"interlineWithPreviousLeg":false,"from":{"name":"Place Royaume","stopId":"1:1801","stopCode":"1801","lon":-71.057017,"lat":48.405588,"arrival":1522706100000,"departure":1522706101000,"zoneId":"NA","stopIndex":10,"stopSequence":11,"vertexType":"TRANSIT"},"to":{"name":"Destination","lon":-71.049985,"lat":48.39802,"arrival":1522707055000,"orig":"","vertexType":"NORMAL"},"legGeometry":{"points":"memfHriupL`@{Ap@uBYUb@_B?q@O]WWzCgKp@{BRH\\EA{Ad@MNGrBm@jEiA^KTGp@U|AOf@D|@D@?r@D|AZtA|@B@RNl@n@rAsD|AeE@G","length":33},"rentedBike":false,"transitLeg":false,"duration":954.0,"steps":[{"distance":90.318,"relativeDirection":"DEPART","streetName":"parking aisle","absoluteDirection":"SOUTHEAST","stayOn":false,"area":false,"bogusName":true,"lon":-71.0570537,"lat":48.405519700000006,"elevation":[]},{"distance":105.386,"relativeDirection":"LEFT","streetName":"service road","absoluteDirection":"NORTHEAST","stayOn":true,"area":false,"bogusName":true,"lon":-71.05600720000001,"lat":48.4050992,"elevation":[]},{"distance":284.657,"relativeDirection":"RIGHT","streetName":"path","absoluteDirection":"SOUTHEAST","stayOn":true,"area":false,"bogusName":true,"lon":-71.054893,"lat":48.4052475,"elevation":[]},{"distance":232.007,"relativeDirection":"RIGHT","streetName":"Rue des Champs-Élysées","absoluteDirection":"SOUTH","stayOn":false,"area":false,"bogusName":false,"lon":-71.0518792,"lat":48.4039711,"elevation":[]},{"distance":333.49800000000005,"relativeDirection":"CONTINUE","streetName":"Rue des Engoulevents","absoluteDirection":"SOUTH","stayOn":false,"area":false,"bogusName":false,"lon":-71.0511074,"lat":48.401948700000005,"elevation":[]},{"distance":174.55,"relativeDirection":"LEFT","streetName":"Rue des Bernaches","absoluteDirection":"SOUTHEAST","stayOn":false,"area":false,"bogusName":false,"lon":-71.0517427,"lat":48.399088400000004,"elevation":[]}]}],"tooSloped":false},{"duration":1650,"startTime":1522707205000,"endTime":1522708855000,"walkTime":1138,"transitTime":510,"waitingTime":2,"walkDistance":1463.6208270618345,"walkLimitExceeded":false,"elevationLost":0.0,"elevationGained":0.0,"transfers":0,"legs":[{"startTime":1522707205000,"endTime":1522707389000,"departureDelay":0,"arrivalDelay":0,"realTime":false,"distance":243.024,"pathway":false,"mode":"WALK","route":"","agencyTimeZoneOffset":-14400000,"interlineWithPreviousLeg":false,"from":{"name":"Origin","lon":-71.07912,"lat":48.382245,"departure":1522707205000,"orig":"","vertexType":"NORMAL"},"to":{"name":"boul. Talbot (no. 2395)","stopId":"1:8","stopCode":"8","lon":-71.08056,"lat":48.384607,"arrival":1522707389000,"departure":1522707390000,"zoneId":"NA","stopIndex":2,"stopSequence":3,"vertexType":"TRANSIT"},"legGeometry":{"points":"athfHnsypLi@rAyErLAD","length":4},"rentedBike":false,"transitLeg":false,"duration":184.0,"steps":[{"distance":243.024,"relativeDirection":"DEPART","streetName":"Rue des Routiers","absoluteDirection":"NORTHWEST","stayOn":false,"area":false,"bogusName":false,"lon":-71.07911322878307,"lat":48.382250968152746,"elevation":[]}]},{"startTime":1522707390000,"endTime":1522707900000,"departureDelay":0,"arrivalDelay":0,"realTime":false,"distance":3055.1848405531946,"pathway":false,"mode":"BUS","route":"175","agencyName":"Société de Transport du Saguenay","agencyUrl":"http://ville.saguenay.ca/fr/services-aux-citoyens/transport-sts","agencyTimeZoneOffset":-14400000,"routeColor":"FF00FF","routeType":3,"routeId":"1:175","routeTextColor":"FFFFFF","interlineWithPreviousLeg":false,"tripBlockId":"11","headsign":"Terminus Chicoutimi","agencyId":"0","tripId":"1:217485","serviceDate":"20180402","from":{"name":"boul. Talbot (no. 2395)","stopId":"1:8","stopCode":"8","lon":-71.08056,"lat":48.384607,"arrival":1522707389000,"departure":1522707390000,"zoneId":"NA","stopIndex":2,"stopSequence":3,"vertexType":"TRANSIT"},"to":{"name":"Place Royaume","stopId":"1:1801","stopCode":"1801","lon":-71.057017,"lat":48.405588,"arrival":1522707900000,"departure":1522707901000,"zoneId":"NA","stopIndex":10,"stopSequence":11,"vertexType":"TRANSIT"},"legGeometry":{"points":"ccifHd}ypLoEiFUWSUqCwC]a@{ByC{@cAkJuKoAwA_CeCeExJ~AlB`@mAu@k@}@q@|C}Iw@}@aO_QkEsEiAoAgEsFkFsHqJ_N}FkImPkOuO{N","length":27},"routeShortName":"175","routeLongName":"Term. Chic / Costco","rentedBike":false,"transitLeg":true,"duration":510.0,"steps":[]},{"startTime":1522707901000,"endTime":1522708855000,"departureDelay":0,"arrivalDelay":0,"realTime":false,"distance":1220.4160000000002,"pathway":false,"mode":"WALK","route":"","agencyTimeZoneOffset":-14400000,"interlineWithPreviousLeg":false,"from":{"name":"Place Royaume","stopId":"1:1801","stopCode":"1801","lon":-71.057017,"lat":48.405588,"arrival":1522707900000,"departure":1522707901000,"zoneId":"NA","stopIndex":10,"stopSequence":11,"vertexType":"TRANSIT"},"to":{"name":"Destination","lon":-71.049985,"lat":48.39802,"arrival":1522708855000,"orig":"","vertexType":"NORMAL"},"legGeometry":{"points":"memfHriupL`@{Ap@uBYUb@_B?q@O]WWzCgKp@{BRH\\EA{Ad@MNGrBm@jEiA^KTGp@U|AOf@D|@D@?r@D|AZtA|@B@RNl@n@rAsD|AeE@G","length":33},"rentedBike":false,"transitLeg":false,"duration":954.0,"steps":[{"distance":90.318,"relativeDirection":"DEPART","streetName":"parking aisle","absoluteDirection":"SOUTHEAST","stayOn":false,"area":false,"bogusName":true,"lon":-71.0570537,"lat":48.405519700000006,"elevation":[]},{"distance":105.386,"relativeDirection":"LEFT","streetName":"service road","absoluteDirection":"NORTHEAST","stayOn":true,"area":false,"bogusName":true,"lon":-71.05600720000001,"lat":48.4050992,"elevation":[]},{"distance":284.657,"relativeDirection":"RIGHT","streetName":"path","absoluteDirection":"SOUTHEAST","stayOn":true,"area":false,"bogusName":true,"lon":-71.054893,"lat":48.4052475,"elevation":[]},{"distance":232.007,"relativeDirection":"RIGHT","streetName":"Rue des Champs-Élysées","absoluteDirection":"SOUTH","stayOn":false,"area":false,"bogusName":false,"lon":-71.0518792,"lat":48.4039711,"elevation":[]},{"distance":333.49800000000005,"relativeDirection":"CONTINUE","streetName":"Rue des Engoulevents","absoluteDirection":"SOUTH","stayOn":false,"area":false,"bogusName":false,"lon":-71.0511074,"lat":48.401948700000005,"elevation":[]},{"distance":174.55,"relativeDirection":"LEFT","streetName":"Rue des Bernaches","absoluteDirection":"SOUTHEAST","stayOn":false,"area":false,"bogusName":false,"lon":-71.0517427,"lat":48.399088400000004,"elevation":[]}]}],"tooSloped":false}]},"debugOutput":{"precalculationTime":16,"pathCalculationTime":13,"pathTimes":[7,5,1],"renderingTime":1,"totalTime":30,"timedOut":false},"elevationMetadata":{"ellipsoidToGeoidDifference":-28.885904201182168,"geoidElevation":false}}