{"requestParameters":{"date":"2018/04/02","walkSpeed":"1.33","walkReluctance":"2.0","fromPlace":"48.426591,-71.057782","maxWalkDistance":"3000","waitReluctance":"1.0","carSpeed":"33","numItineraries":"3","waitAtBeginningFactor":"0.4","mode":"TRANSIT,WALK","ignoreRealtimeUpdates":"false","stairsReluctance":"2.0","toPlace":"48.431909,-71.021105","time":"16:0:00"},"plan":{"date":1522699200000,"from":{"name":"Origin","lon":-71.057782,"lat":48.426591,"orig":"","vertexType":"NORMAL"},"to":{"name":"Destination","lon":-71.021105,"lat":48.431909,"orig":"","vertexType":"NORMAL"},"itineraries":[{"duration":602,"startTime":1522700002000,"endTime":1522700604000,"walkTime":197,"transitTime":403,"waitingTime":2,"walkDistance":244.3102030048986,"walkLimitExceeded":false,"elevationLost":0.0,"elevationGained":0.0,"transfers":0,"legs":[{"startTime":1522700002000,"endTime":1522700194000,"departureDelay":0,"arrivalDelay":0,"realTime":false,"distance":238.42700000000002,"pathway":false,"mode":"WALK","route":"","agencyTimeZoneOffset":-14400000,"interlineWithPreviousLeg":false,"from":{"name":"Origin","lon":-71.057782,"lat":48.426591,"departure":1522700002000,"orig":"","vertexType":"NORMAL"},"to":{"name":"Racine / Labrecque","stopId":"1:515","stopCode":"515","lon":-71.057333,"lat":48.427512,"arrival":1522700194000,"departure":1522700195000,"zoneId":"NA","stopIndex":2,"stopSequence":3,"vertexType":"TRANSIT"},"legGeometry":{"points":"_gqfHlnupLF{CoCK_@?SBQDo@N]FFj@","length":9},"rentedBike":false,"transitLeg":false,"duration":192.0,"steps":[{"distance":57.56,"relativeDirection":"DEPART","streetName":"Rue Jacques-Cartier Est","absoluteDirection":"EAST","stayOn":false,"area":false,"bogusName":false,"lon":-71.05782220488472,"lat":48.42624330360103,"elevation":[]},{"distance":163.66,"relativeDirection":"LEFT","streetName":"Rue Labrecque","absoluteDirection":"NORTH","stayOn":false,"area":false,"bogusName":false,"lon":-71.05704440000001,"lat":48.4262037,"elevation":[]},{"distance":17.207,"relativeDirection":"LEFT","streetName":"Rue Racine Est","absoluteDirection":"WEST","stayOn":false,"area":false,"bogusName":false,"lon":-71.0571547,"lat":48.427663,"elevation":[]}]},{"startTime":1522700195000,"endTime":1522700598000,"departureDelay":0,"arrivalDelay":0,"realTime":false,"distance":2894.1847957637824,"pathway":false,"mode":"BUS","route":"12","agencyName":"Société de Transport du Saguenay","agencyUrl":"http://ville.saguenay.ca/fr/services-aux-citoyens/transport-sts","agencyTimeZoneOffset":-14400000,"routeColor":"556B2F","routeType":3,"routeId":"1:12","routeTextColor":"FFFFFF","interlineWithPreviousLeg":false,"tripBlockId":"28","headsign":"Terminus UQAC","agencyId":"0","tripId":"1:218045","serviceDate":"20180402","from":{"name":"Racine / Labrecque","stopId":"1:515","stopCode":"515","lon":-71.057333,"lat":48.427512,"arrival":1522700194000,"departure":1522700195000,"zoneId":"NA","stopIndex":2,"stopSequence":3,"vertexType":"TRANSIT"},"to":{"name":"Perche / Aunis","stopId":"1:1528","stopCode":"1528","lon":-71.021111,"lat":48.432004,"arrival":1522700598000,"departure":1522700599000,"zoneId":"NA","stopIndex":15,"stopSequence":16,"vertexType":"TRANSIT"},"legGeometry":{"points":"}nqfHjkupLmFy^_DaZz@u]SeV}@aNs@gKToKd@gTnCyHkGuLqFqJ_DeFf@iI","length":14},"routeShortName":"12","routeLongName":"Rivière du Moulin","rentedBike":false,"transitLeg":true,"duration":403.0,"steps":[]},{"startTime":1522700599000,"endTime":1522700604000,"departureDelay":0,"arrivalDelay":0,"realTime":false,"distance":5.802,"pathway":false,"mode":"WALK","route":"","agencyTimeZoneOffset":-14400000,"interlineWithPreviousLeg":false,"from":{"name":"Perche / Aunis","stopId":"1:1528","stopCode":"1528","lon":-71.021111,"lat":48.432004,"arrival":1522700598000,"departure":1522700599000,"zoneId":"NA","stopIndex":15,"stopSequence":16,"vertexType":"TRANSIT"},"to":{"name":"Destination","lon":-71.021105,"lat":48.431909,"arrival":1522700604000,"orig":"","vertexType":"NORMAL"},"legGeometry":{"points":"kkrfHrhnpLBM","length":2},"rentedBike":false,"transitLeg":false,"duration":5.0,"steps":[{"distance":5.802,"relativeDirection":"DEPART","streetName":"Rue du Perche","absoluteDirection":"SOUTHEAST","stayOn":false,"area":false,"bogusName":false,"lon":-71.02105321122755,"lat":48.43206809488087,"elevation":[]}]}],"tooSloped":false},{"duration":1170,"startTime":1522699929000,"endTime":1522701099000,"walkTime":595,"transitTime":573,"waitingTime":2,"walkDistance":766.5776917268487,"walkLimitExceeded":false,"elevationLost":0.0,"elevationGained":0.0,"transfers":0,"legs":[{"startTime":1522699929000,"endTime":1522699942000,"departureDelay":0,"arrivalDelay":0,"realTime":false,"distance":17.184,"pathway":false,"mode":"WALK","route":"","agencyTimeZoneOffset":-14400000,"interlineWithPreviousLeg":false,"from":{"name":"Origin","lon":-71.057782,"lat":48.426591,"departure":1522699929000,"orig":"","vertexType":"NORMAL"},"to":{"name":"Jacques-Cartier / Labrecque (Manoir Champlain)","stopId":"1:68","stopCode":"68","lon":-71.05805,"lat":48.426307,"arrival":1522699942000,"departure":1522699943000,"zoneId":"NA","stopIndex":2,"stopSequence":3,"vertexType":"TRANSIT"},"legGeometry":{"points":"_gqfHlnupLA`@?J","length":3},"rentedBike":false,"transitLeg":false,"duration":13.0,"steps":[{"distance":17.184,"relativeDirection":"DEPART","streetName":"Rue Jacques-Cartier Est","absoluteDirection":"WEST","stayOn":false,"area":false,"bogusName":false,"lon":-71.05782220488472,"lat":48.42624330360103,"elevation":[]}]},{"startTime":1522699943000,"endTime":1522700100000,"departureDelay":0,"arrivalDelay":0,"realTime":false,"distance":760.3309432138211,"pathway":false,"mode":"BUS","route":"203S","agencyName":"Société de Transport du Saguenay","agencyUrl":"http://ville.saguenay.ca/fr/services-aux-citoyens/transport-sts","agencyTimeZoneOffset":-14400000,"routeColor":"8B0000","routeType":3,"routeId":"1:203S","routeTextColor":"FFFFFF","interlineWithPreviousLeg":false,"tripBlockId":"56","headsign":"Terminus Chicoutimi","agencyId":"0","tripId":"1:218523","serviceDate":"20180402","from":{"name":"Jacques-Cartier / Labrecque (Manoir Champlain)","stopId":"1:68","stopCode":"68","lon":-71.05805,"lat":48.426307,"arrival":1522699942000,"departure":1522699943000,"zoneId":"NA","stopIndex":2,"stopSequence":3,"vertexType":"TRANSIT"},"to":{"name":"Terminus Chicoutimi","stopId":"1:1289","stopCode":"1289","lon":-71.066163,"lat":48.428677,"arrival":1522700100000,"departure":1522700100000,"zoneId":"NA","stopIndex":5,"stopSequence":6,"vertexType":"TRANSIT"},"legGeometry":{"points":"_gqfHzoupLGxDOdPKvJU|F?XGbDgCO}BY{AKK`C","length":11},"routeShortName":"203S","routeLongName":"Séminaire - Term. Chic","rentedBike":false,"transitLeg":true,"duration":157.0,"steps":[]},{"startTime":1522700100000,"endTime":1522700516000,"departureDelay":0,"arrivalDelay":0,"realTime":false,"distance":2861.747292714646,"pathway":false,"mode":"BUS","route":"13","agencyName":"Société de Transport du Saguenay","agencyUrl":"http://ville.saguenay.ca/fr/services-aux-citoyens/transport-sts","agencyTimeZoneOffset":-14400000,"routeColor":"00FFFF","routeType":3,"routeId":"1:13","routeTextColor":"000000","interlineWithPreviousLeg":true,"tripBlockId":"56","headsign":"St-Martin / St-Joseph","agencyId":"0","tripId":"1:218524","serviceDate":"20180402","from":{"name":"Terminus Chicoutimi","stopId":"1:1289","stopCode":"1289","lon":-71.066163,"lat":48.428677,"arrival":1522700100000,"departure":1522700100000,"zoneId":"NA","stopIndex":0,"stopSequence":1,"vertexType":"TRANSIT"},"to":{"name":"Auberge Le Parasol (boul. Saguenay)","stopId":"1:496","stopCode":"496","lon":-71.027958,"lat":48.428859,"arrival":1522700516000,"departure":1522700517000,"zoneId":"NA","stopIndex":9,"stopSequence":10,"vertexType":"TRANSIT"},"legGeometry":{"points":"uuqfH`bwpLIkABu@oBK\\kHNoDJ_JGuDCgDAECc@Cs@OyEW}ESgC}@sEa@}AGUa@}BKyAG_CG_H?}A?CCiAG_MAgEFy@f@eCh@sCd@eC`@_DLsAFcC?WDcFAyEIcDIcB?GW_Ee@wG?Aq@gK??GaA?yAHyBL{B?ELgCJ_FPiINm@t@}Ad@qA\\wA","length":57},"routeShortName":"13","routeLongName":"Rang St-Martin / St-Jospeh","rentedBike":false,"transitLeg":true,"duration":416.0,"steps":[]},{"startTime":1522700517000,"endTime":1522701099000,"departureDelay":0,"arrivalDelay":0,"realTime":false,"distance":749.317,"pathway":false,"mode":"WALK","route":"","agencyTimeZoneOffset":-14400000,"interlineWithPreviousLeg":false,"from":{"name":"Auberge Le Parasol (boul. Saguenay)","stopId":"1:496","stopCode":"496","lon":-71.027958,"lat":48.428859,"arrival":1522700516000,"departure":1522700517000,"zoneId":"NA","stopIndex":9,"stopSequence":10,"vertexType":"TRANSIT"},"to":{"name":"Destination","lon":-71.021105,"lat":48.431909,"arrival":1522701099000,"orig":"","vertexType":"NORMAL"},"legGeometry":{"points":"ywqfHjsopLH]h@sBcAo@eAs@sBoBQOWWMM{@{@EEo@s@c@_Bg@sAi@}@IMsAyBkAeBA?eA{A~AsFHUBM","length":23},"rentedBike":false,"transitLeg":false,"duration":582.0,"steps":[{"distance":60.897,"relativeDirection":"DEPART","streetName":"Boulevard du Saguenay Est","absoluteDirection":"SOUTHEAST","stayOn":false,"area":false,"bogusName":false,"lon":-71.02789478397764,"lat":48.428936717982694,"elevation":[]},{"distance":568.4039999999999,"relativeDirection":"LEFT","streetName":"Rue Arthur-Hamel","absoluteDirection":"NORTHEAST","stayOn":false,"area":false,"bogusName":false,"lon":-71.02716840000001,"lat":48.428676700000004,"elevation":[]},{"distance":120.01599999999999,"relativeDirection":"RIGHT","streetName":"Rue du Perche","absoluteDirection":"SOUTHEAST","stayOn":false,"area":false,"bogusName":false,"lon":-71.02238460000001,"lat":48.4325922,"elevation":[]}]}],"tooSloped":false},{"duration":602,"startTime":1522701802000,"endTime":1522702404000,"walkTime":197,"transitTime":403,"waitingTime":2,"walkDistance":244.3102030048986,"walkLimitExceeded":false,"elevationLost":0.0,"elevationGained":0.0,"transfers":0,"legs":[{"startTime":1522701802000,"endTime":1522701994000,"departureDelay":0,"arrivalDelay":0,"realTime":false,"distance":238.42700000000002,"pathway":false,"mode":"WALK","route":"","agencyTimeZoneOffset":-14400000,"interlineWithPreviousLeg":false,"from":{"name":"Origin","lon":-71.057782,"lat":48.426591,"departure":1522701802000,"orig":"","vertexType":"NORMAL"},"to":{"name":"Racine / Labrecque","stopId":"1:515","stopCode":"515","lon":-71.057333,"lat":48.427512,"arrival":1522701994000,"departure":1522701995000,"zoneId":"NA","stopIndex":2,"stopSequence":3,"vertexType":"TRANSIT"},"legGeometry":{"points":"_gqfHlnupLF{CoCK_@?SBQDo@N]FFj@","length":9},"rentedBike":false,"transitLeg":false,"duration":192.0,"steps":[{"distance":57.56,"relativeDirection":"DEPART","streetName":"Rue Jacques-Cartier Est","absoluteDirection":"EAST","stayOn":false,"area":false,"bogusName":false,"lon":-71.05782220488472,"lat":48.42624330360103,"elevation":[]},{"distance":163.66,"relativeDirection":"LEFT","streetName":"Rue Labrecque","absoluteDirection":"NORTH","stayOn":false,"area":false,"bogusName":false,"lon":-71.05704440000001,"lat":48.4262037,"elevation":[]},{"distance":17.207,"relativeDirection":"LEFT","streetName":"Rue Racine Est","absoluteDirection":"WEST","stayOn":false,"area":false,"bogusName":false,"lon":-71.0571547,"lat":48.427663,"elevation":[]}]},{"startTime":1522701995000,"endTime":1522702398000,"departureDelay":0,"arrivalDelay":0,"realTime":false,"distance":2894.1847957637824,"pathway":false,"mode":"BUS","route":"12","agencyName":"Société de Transport du Saguenay","agencyUrl":"http://ville.saguenay.ca/fr/services-aux-citoyens/transport-sts","agencyTimeZoneOffset":-14400000,"routeColor":"556B2F","routeType":3,"routeId":"1:12","routeTextColor":"FFFFFF","interlineWithPreviousLeg":false,"tripBlockId":"27","headsign":"Terminus UQAC","agencyId":"0","tripId":"1:218020","serviceDate":"20180402","from":{"name":"Racine / Labrecque","stopId":"1:515","stopCode":"515","lon":-71.057333,"lat":48.427512,"arrival":1522701994000,"departure":1522701995000,"zoneId":"NA","stopIndex":2,"stopSequence":3,"vertexType":"TRANSIT"},"to":{"name":"Perche / Aunis","stopId":"1:1528","stopCode":"1528","lon":-71.021111,"lat":48.432004,"arrival":1522702398000,"departure":1522702399000,"zoneId":"NA","stopIndex":15,"stopSequence":16,"vertexType":"TRANSIT"},"legGeometry":{"points":"}nqfHjkupLmFy^_DaZz@u]SeV}@aNs@gKToKd@gTnCyHkGuLqFqJ_DeFf@iI","length":14},"routeShortName":"12","routeLongName":"Rivière du Moulin","rentedBike":false,"transitLeg":true,"duration":403.0,"steps":[]},{"startTime":1522702399000,"endTime":1522702404000,"departureDelay":0,"arrivalDelay":0,"realTime":false,"distance":5.802,"pathway":false,"mode":"WALK","route":"","agencyTimeZoneOffset":-14400000,"interlineWithPreviousLeg":false,"from":{"name":"Perche / Aunis","stopId":"1:1528","stopCode":"1528","lon":-71.021111,"lat":48.432004,"arrival":1522702398000,"departure":1522702399000,"zoneId":"NA","stopIndex":15,"stopSequence":16,"vertexType":"TRANSIT"},"to":{"name":"Destination","lon":-71.021105,"lat":48.431909,"arrival":1522702404000,"orig":"","vertexType":"NORMAL"},"legGeometry":{"points":"kkrfHrhnpLBM","length":2},"rentedBike":false,"transitLeg":false,"duration":5.0,"steps":[{"distance":5.802,"relativeDirection":"DEPART","streetName":"Rue du Perche","absoluteDirection":"SOUTHEAST","stayOn":false,"area":false,"bogusName":false,"lon":-71.02105321122755,"lat":48.43206809488087,"elevation":[]}]}],"tooSloped":false}]},"debugOutput":{"precalculationTime":25,"pathCalculationTime":30,"pathTimes":[17,6,7],"renderingTime":0,"totalTime":55,"timedOut":false},"elevationMetadata":{"ellipsoidToGeoidDifference":-28.885904201182168,"geoidElevation":false}}