{"requestParameters":{"date":"2018/04/02","walkSpeed":"1.33","walkReluctance":"2.0","fromPlace":"48.431909,-71.021105","maxWalkDistance":"3000","waitReluctance":"1.0","carSpeed":"33","numItineraries":"3","waitAtBeginningFactor":"0.4","mode":"TRANSIT,WALK","ignoreRealtimeUpdates":"false","stairsReluctance":"2.0","toPlace":"48.423148,-71.052406","time":"9:0:00"},"plan":{"date":1522674000000,"from":{"name":"Origin","lon":-71.021105,"lat":48.431909,"orig":"","vertexType":"NORMAL"},"to":{"name":"Destination","lon":-71.052406,"lat":48.423148,"orig":"","vertexType":"NORMAL"},"itineraries":[{"duration":1638,"startTime":1522674060000,"endTime":1522675698000,"walkTime":632,"transitTime":1004,"waitingTime":2,"walkDistance":779.3246917203953,"walkLimitExceeded":false,"elevationLost":0.0,"elevationGained":0.0,"transfers":0,"legs":[{"startTime":1522674060000,"endTime":1522674195000,"departureDelay":0,"arrivalDelay":0,"realTime":false,"distance":171.966,"pathway":false,"mode":"WALK","route":"","agencyTimeZoneOffset":-14400000,"interlineWithPreviousLeg":false,"from":{"name":"Origin","lon":-71.021105,"lat":48.431909,"departure":1522674060000,"orig":"","vertexType":"NORMAL"},"to":{"name":"nouveau","stopId":"1:2303","stopCode":"2303","lon":-71.02291,"lat":48.432276,"arrival":1522674195000,"departure":1522674196000,"zoneId":"NA","stopIndex":24,"stopSequence":25,"vertexType":"TRANSIT"},"legGeometry":{"points":"gkrfHdhnpLCLIT_BrFdAzA@?","length":6},"rentedBike":false,"transitLeg":false,"duration":135.0,"steps":[{"distance":120.016,"relativeDirection":"DEPART","streetName":"Rue du Perche","absoluteDirection":"NORTHWEST","stayOn":false,"area":false,"bogusName":false,"lon":-71.02098571408406,"lat":48.43204130329761,"elevation":[]},{"distance":51.95,"relativeDirection":"LEFT","streetName":"Rue Arthur-Hamel","absoluteDirection":"SOUTHWEST","stayOn":false,"area":false,"bogusName":false,"lon":-71.02238460000001,"lat":48.4325922,"elevation":[]}]},{"startTime":1522674196000,"endTime":1522674660000,"departureDelay":0,"arrivalDelay":0,"realTime":false,"distance":3308.741766648229,"pathway":false,"mode":"BUS","route":"12","agencyName":"Société de Transport du Saguenay","agencyUrl":"http://ville.saguenay.ca/fr/services-aux-citoyens/transport-sts","agencyTimeZoneOffset":-14400000,"routeColor":"556B2F","routeType":3,"routeId":"1:12","routeTextColor":"FFFFFF","interlineWithPreviousLeg":false,"tripBlockId":"29","headsign":"Terminus Chicoutimi","agencyId":"0","tripId":"1:218056","serviceDate":"20180402","from":{"name":"nouveau","stopId":"1:2303","stopCode":"2303","lon":-71.02291,"lat":48.432276,"arrival":1522674195000,"departure":1522674196000,"zoneId":"NA","stopIndex":24,"stopSequence":25,"vertexType":"TRANSIT"},"to":{"name":"Terminus Chicoutimi","stopId":"1:1289","stopCode":"1289","lon":-71.066163,"lat":48.428677,"arrival":1522674660000,"departure":1522674900000,"zoneId":"NA","stopIndex":33,"stopSequence":34,"vertexType":"TRANSIT"},"legGeometry":{"points":"qlrfH|snpLfM|O|FlHmB`IgA|Cy@`UYzHZvMR~Hr@~ZPvHsCrMFxf@|ApJj@nDDl]BvZdCXJhC","length":19},"routeShortName":"12","routeLongName":"Rivière du Moulin","rentedBike":false,"transitLeg":true,"duration":464.0,"steps":[]},{"startTime":1522674900000,"endTime":1522675200000,"departureDelay":0,"arrivalDelay":0,"realTime":false,"distance":1242.678141622333,"pathway":false,"mode":"BUS","route":"10","agencyName":"Société de Transport du Saguenay","agencyUrl":"http://ville.saguenay.ca/fr/services-aux-citoyens/transport-sts","agencyTimeZoneOffset":-14400000,"routeColor":"0000FF","routeType":3,"routeId":"1:10","routeTextColor":"FFFFFF","interlineWithPreviousLeg":true,"tripBlockId":"29","headsign":"Terminus UQAC","agencyId":"0","tripId":"1:218057","serviceDate":"20180402","from":{"name":"Terminus Chicoutimi","stopId":"1:1289","stopCode":"1289","lon":-71.066163,"lat":48.428677,"arrival":1522674660000,"departure":1522674900000,"zoneId":"NA","stopIndex":0,"stopSequence":1,"vertexType":"TRANSIT"},"to":{"name":"Hôpital de Chicoutimi (Saint-Vallier)","stopId":"1:342","stopCode":"342","lon":-71.050416,"lat":48.426429,"arrival":1522675200000,"departure":1522675201000,"zoneId":"NA","stopIndex":6,"stopSequence":7,"vertexType":"TRANSIT"},"legGeometry":{"points":"svqfHnbwpLDmCdDZ\\kO`@mQBuCD}DQ_ECk@^Cd@QWkL?m@IuF@gA?eH?cAEuEDO^AjD`@","length":21},"routeShortName":"10","routeLongName":"Notre-Dame du Saguenay","rentedBike":false,"transitLeg":true,"duration":300.0,"steps":[]},{"startTime":1522675201000,"endTime":1522675698000,"departureDelay":0,"arrivalDelay":0,"realTime":false,"distance":607.082,"pathway":false,"mode":"WALK","route":"","agencyTimeZoneOffset":-14400000,"interlineWithPreviousLeg":false,"from":{"name":"Hôpital de Chicoutimi (Saint-Vallier)","stopId":"1:342","stopCode":"342","lon":-71.050416,"lat":48.426429,"arrival":1522675200000,"departure":1522675201000,"zoneId":"NA","stopIndex":6,"stopSequence":7,"vertexType":"TRANSIT"},"to":{"name":"Destination","lon":-71.052406,"lat":48.423148,"arrival":1522675698000,"orig":"","vertexType":"NORMAL"},"legGeometry":{"points":"ahqfHd_tpLF?J_@F?^DhBZP?FOBg@BoADy@b@DnBX\\FjAZ?^DbABDp@XLFJHd@ZJFYbC\\PZPLb@HTBbB?f@","length":30},"rentedBike":false,"transitLeg":false,"duration":497.0,"steps":[{"distance":5.013,"relativeDirection":"DEPART","streetName":"Rue Saint-Vallier","absoluteDirection":"SOUTH","stayOn":false,"area":false,"bogusName":false,"lon":-71.05026027647143,"lat":48.426416552989835,"elevation":[]},{"distance":13.926,"relativeDirection":"LEFT","streetName":"path","absoluteDirection":"SOUTHEAST","stayOn":false,"area":false,"bogusName":true,"lon":-71.05026840000001,"lat":48.426371800000005,"elevation":[]},{"distance":99.413,"relativeDirection":"RIGHT","streetName":"service road","absoluteDirection":"SOUTH","stayOn":true,"area":false,"bogusName":true,"lon":-71.0501005,"lat":48.426314600000005,"elevation":[]},{"distance":66.589,"relativeDirection":"LEFT","streetName":"service road","absoluteDirection":"EAST","stayOn":true,"area":false,"bogusName":true,"lon":-71.05019700000001,"lat":48.425456700000005,"elevation":[]},{"distance":19.537,"relativeDirection":"RIGHT","streetName":"path","absoluteDirection":"SOUTH","stayOn":true,"area":false,"bogusName":true,"lon":-71.0493017,"lat":48.4253823,"elevation":[]},{"distance":123.78800000000001,"relativeDirection":"CONTINUE","streetName":"Chemin Sydenham","absoluteDirection":"SOUTH","stayOn":false,"area":false,"bogusName":false,"lon":-71.04933630000001,"lat":48.425208100000006,"elevation":[]},{"distance":37.224000000000004,"relativeDirection":"RIGHT","streetName":"road","absoluteDirection":"WEST","stayOn":false,"area":false,"bogusName":true,"lon":-71.0496408,"lat":48.424114100000004,"elevation":[]},{"distance":78.756,"relativeDirection":"LEFT","streetName":"road","absoluteDirection":"SOUTH","stayOn":true,"area":false,"bogusName":true,"lon":-71.0501431,"lat":48.4240852,"elevation":[]},{"distance":162.83599999999998,"relativeDirection":"RIGHT","streetName":"service road","absoluteDirection":"WEST","stayOn":true,"area":false,"bogusName":true,"lon":-71.0505725,"lat":48.4234394,"elevation":[]}]}],"tooSloped":false},{"duration":1343,"startTime":1522675392000,"endTime":1522676735000,"walkTime":215,"transitTime":1126,"waitingTime":2,"walkDistance":261.924090222786,"walkLimitExceeded":false,"elevationLost":0.0,"elevationGained":0.0,"transfers":0,"legs":[{"startTime":1522675392000,"endTime":1522675397000,"departureDelay":0,"arrivalDelay":0,"realTime":false,"distance":5.802,"pathway":false,"mode":"WALK","route":"","agencyTimeZoneOffset":-14400000,"interlineWithPreviousLeg":false,"from":{"name":"Origin","lon":-71.021105,"lat":48.431909,"departure":1522675392000,"orig":"","vertexType":"NORMAL"},"to":{"name":"Perche / Aunis","stopId":"1:1528","stopCode":"1528","lon":-71.021111,"lat":48.432004,"arrival":1522675397000,"departure":1522675398000,"zoneId":"NA","stopIndex":15,"stopSequence":16,"vertexType":"TRANSIT"},"legGeometry":{"points":"gkrfHdhnpLCL","length":2},"rentedBike":false,"transitLeg":false,"duration":5.0,"steps":[{"distance":5.802,"relativeDirection":"DEPART","streetName":"Rue du Perche","absoluteDirection":"NORTHWEST","stayOn":false,"area":false,"bogusName":false,"lon":-71.02098571408406,"lat":48.43204130329761,"elevation":[]}]},{"startTime":1522675398000,"endTime":1522676524000,"departureDelay":0,"arrivalDelay":0,"realTime":false,"distance":7241.506457757951,"pathway":false,"mode":"BUS","route":"12","agencyName":"Société de Transport du Saguenay","agencyUrl":"http://ville.saguenay.ca/fr/services-aux-citoyens/transport-sts","agencyTimeZoneOffset":-14400000,"routeColor":"556B2F","routeType":3,"routeId":"1:12","routeTextColor":"FFFFFF","interlineWithPreviousLeg":false,"tripBlockId":"28","headsign":"Terminus UQAC","agencyId":"0","tripId":"1:218031","serviceDate":"20180402","from":{"name":"Perche / Aunis","stopId":"1:1528","stopCode":"1528","lon":-71.021111,"lat":48.432004,"arrival":1522675397000,"departure":1522675398000,"zoneId":"NA","stopIndex":15,"stopSequence":16,"vertexType":"TRANSIT"},"to":{"name":"Cégep de Chicoutimi (voie réservée)","stopId":"1:75","stopCode":"75","lon":-71.055283,"lat":48.422761,"arrival":1522676524000,"departure":1522676525000,"zoneId":"NA","stopIndex":37,"stopSequence":38,"vertexType":"TRANSIT"},"legGeometry":{"points":"_krfH~hnpLvGsKlIrH`JlH`EfDnOdIdGlGjL|BzBiLv@}L`b@fNvVvrCdRvMcAjKcP~b@iHhDaGz@uSl[uCYmIeIeJ_J{J{JwCiT","length":23},"routeShortName":"12","routeLongName":"Rivière du Moulin","rentedBike":false,"transitLeg":true,"duration":1126.0,"steps":[]},{"startTime":1522676525000,"endTime":1522676735000,"departureDelay":0,"arrivalDelay":0,"realTime":false,"distance":256.036,"pathway":false,"mode":"WALK","route":"","agencyTimeZoneOffset":-14400000,"interlineWithPreviousLeg":false,"from":{"name":"Cégep de Chicoutimi (voie réservée)","stopId":"1:75","stopCode":"75","lon":-71.055283,"lat":48.422761,"arrival":1522676524000,"departure":1522676525000,"zoneId":"NA","stopIndex":37,"stopSequence":38,"vertexType":"TRANSIT"},"to":{"name":"Destination","lon":-71.052406,"lat":48.423148,"arrival":1522676735000,"orig":"","vertexType":"NORMAL"},"legGeometry":{"points":"mqpfHr~tpLGi@M@[DK@OoCOaAQaANqAVsBBW?o@","length":12},"rentedBike":false,"transitLeg":false,"duration":210.0,"steps":[{"distance":16.607,"relativeDirection":"DEPART","streetName":"Chemin Saint Thomas","absoluteDirection":"EAST","stayOn":false,"area":false,"bogusName":false,"lon":-71.05529730066766,"lat":48.42279572871795,"elevation":[]},{"distance":239.42899999999997,"relativeDirection":"LEFT","streetName":"service road","absoluteDirection":"NORTH","stayOn":false,"area":false,"bogusName":true,"lon":-71.0550802,"lat":48.4228351,"elevation":[]}]}],"tooSloped":false},{"duration":1343,"startTime":1522677192000,"endTime":1522678535000,"walkTime":215,"transitTime":1126,"waitingTime":2,"walkDistance":261.924090222786,"walkLimitExceeded":false,"elevationLost":0.0,"elevationGained":0.0,"transfers":0,"legs":[{"startTime":1522677192000,"endTime":1522677197000,"departureDelay":0,"arrivalDelay":0,"realTime":false,"distance":5.802,"pathway":false,"mode":"WALK","route":"","agencyTimeZoneOffset":-14400000,"interlineWithPreviousLeg":false,"from":{"name":"Origin","lon":-71.021105,"lat":48.431909,"departure":1522677192000,"orig":"","vertexType":"NORMAL"},"to":{"name":"Perche / Aunis","stopId":"1:1528","stopCode":"1528","lon":-71.021111,"lat":48.432004,"arrival":1522677197000,"departure":1522677198000,"zoneId":"NA","stopIndex":15,"stopSequence":16,"vertexType":"TRANSIT"},"legGeometry":{"points":"gkrfHdhnpLCL","length":2},"rentedBike":false,"transitLeg":false,"duration":5.0,"steps":[{"distance":5.802,"relativeDirection":"DEPART","streetName":"Rue du Perche","absoluteDirection":"NORTHWEST","stayOn":false,"area":false,"bogusName":false,"lon":-71.02098571408406,"lat":48.43204130329761,"elevation":[]}]},{"startTime":1522677198000,"endTime":1522678324000,"departureDelay":0,"arrivalDelay":0,"realTime":false,"distance":7241.506457757951,"pathway":false,"mode":"BUS","route":"12","agencyName":"Société de Transport du Saguenay","agencyUrl":"http://ville.saguenay.ca/fr/services-aux-citoyens/transport-sts","agencyTimeZoneOffset":-14400000,"routeColor":"556B2F","routeType":3,"routeId":"1:12","routeTextColor":"FFFFFF","interlineWithPreviousLeg":false,"tripBlockId":"27","headsign":"Terminus UQAC","agencyId":"0","tripId":"1:218006","serviceDate":"20180402","from":{"name":"Perche / Aunis","stopId":"1:1528","stopCode":"1528","lon":-71.021111,"lat":48.432004,"arrival":1522677197000,"departure":1522677198000,"zoneId":"NA","stopIndex":15,"stopSequence":16,"vertexType":"TRANSIT"},"to":{"name":"Cégep de Chicoutimi (voie réservée)","stopId":"1:75","stopCode":"75","lon":-71.055283,"lat":48.422761,"arrival":1522678324000,"departure":1522678325000,"zoneId":"NA","stopIndex":37,"stopSequence":38,"vertexType":"TRANSIT"},"legGeometry":{"points":"_krfH~hnpLvGsKlIrH`JlH`EfDnOdIdGlGjL|BzBiLv@}L`b@fNvVvrCdRvMcAjKcP~b@iHhDaGz@uSl[uCYmIeIeJ_J{J{JwCiT","length":23},"routeShortName":"12","routeLongName":"Rivière du Moulin","rentedBike":false,"transitLeg":true,"duration":1126.0,"steps":[]},{"startTime":1522678325000,"endTime":1522678535000,"departureDelay":0,"arrivalDelay":0,"realTime":false,"distance":256.036,"pathway":false,"mode":"WALK","route":"","agencyTimeZoneOffset":-14400000,"interlineWithPreviousLeg":false,"from":{"name":"Cégep de Chicoutimi (voie réservée)","stopId":"1:75","stopCode":"75","lon":-71.055283,"lat":48.422761,"arrival":1522678324000,"departure":1522678325000,"zoneId":"NA","stopIndex":37,"stopSequence":38,"vertexType":"TRANSIT"},"to":{"name":"Destination","lon":-71.052406,"lat":48.423148,"arrival":1522678535000,"orig":"","vertexType":"NORMAL"},"legGeometry":{"points":"mqpfHr~tpLGi@M@[DK@OoCOaAQaANqAVsBBW?o@","length":12},"rentedBike":false,"transitLeg":false,"duration":210.0,"steps":[{"distance":16.607,"relativeDirection":"DEPART","streetName":"Chemin Saint Thomas","absoluteDirection":"EAST","stayOn":false,"area":false,"bogusName":false,"lon":-71.05529730066766,"lat":48.42279572871795,"elevation":[]},{"distance":239.42899999999997,"relativeDirection":"LEFT","streetName":"service road","absoluteDirection":"NORTH","stayOn":false,"area":false,"bogusName":true,"lon":-71.0550802,"lat":48.4228351,"elevation":[]}]}],"tooSloped":false}]},"debugOutput":{"precalculationTime":35,"pathCalculationTime":20,"pathTimes":[11,7,2],"renderingTime":0,"totalTime":55,"timedOut":false},"elevationMetadata":{"ellipsoidToGeoidDifference":-28.885904201182168,"geoidElevation":false}}