{"requestParameters":{"date":"2018/04/02","walkSpeed":"1.33","walkReluctance":"2.0","fromPlace":"48.430138,-71.059509","maxWalkDistance":"3000","waitReluctance":"1.0","carSpeed":"33","numItineraries":"3","waitAtBeginningFactor":"0.4","mode":"TRANSIT,WALK","ignoreRealtimeUpdates":"false","stairsReluctance":"2.0","toPlace":"48.413776,-71.086632","time":"16:0:00"},"plan":{"date":1522699200000,"from":{"name":"Origin","lon":-71.059509,"lat":48.430138,"orig":"","vertexType":"NORMAL"},"to":{"name":"Destination","lon":-71.086632,"lat":48.413776,"orig":"","vertexType":"NORMAL"},"itineraries":[{"duration":1057,"startTime":1522699661000,"endTime":1522700718000,"walkTime":635,"transitTime":420,"waitingTime":2,"walkDistance":811.4876240569359,"walkLimitExceeded":false,"elevationLost":0.0,"elevationGained":0.0,"transfers":0,"legs":[{"startTime":1522699661000,"endTime":1522700099000,"departureDelay":0,"arrivalDelay":0,"realTime":false,"distance":552.8320000000001,"pathway":false,"mode":"WALK","route":"","agencyTimeZoneOffset":-14400000,"interlineWithPreviousLeg":false,"from":{"name":"Origin","lon":-71.059509,"lat":48.430138,"departure":1522699661000,"orig":"","vertexType":"NORMAL"},"to":{"name":"Terminus Chicoutimi","stopId":"1:1289","stopCode":"1289","lon":-71.066163,"lat":48.428677,"arrival":1522700099000,"departure":1522700100000,"zoneId":"NA","stopIndex":0,"stopSequence":1,"vertexType":"TRANSIT"},"legGeometry":{"points":"i_rfH~zupL`@AXBCzCAzB?`A?|@A~@?zA?p@?XBXHLRb@Rn@BHLh@Dr@@n@Cz@Il@C^?PBRDDL@H?F@`@BN@~AL","length":31},"rentedBike":false,"transitLeg":false,"duration":438.0,"steps":[{"distance":32.818,"relativeDirection":"DEPART","streetName":"path","absoluteDirection":"SOUTH","stayOn":false,"area":false,"bogusName":false,"lon":-71.05983460919151,"lat":48.430133346182004,"elevation":[]},{"distance":226.80599999999998,"relativeDirection":"RIGHT","streetName":"Promenade du Carnaval-Souvenir","absoluteDirection":"WEST","stayOn":false,"area":false,"bogusName":false,"lon":-71.059842,"lat":48.4298385,"elevation":[]},{"distance":212.12900000000002,"relativeDirection":"CONTINUE","streetName":"service road","absoluteDirection":"WEST","stayOn":false,"area":false,"bogusName":true,"lon":-71.06291540000001,"lat":48.429876300000004,"elevation":[]},{"distance":81.079,"relativeDirection":"CONTINUE","streetName":"Rue Morin","absoluteDirection":"SOUTH","stayOn":false,"area":false,"bogusName":false,"lon":-71.0653539,"lat":48.4293544,"elevation":[]}]},{"startTime":1522700100000,"endTime":1522700520000,"departureDelay":0,"arrivalDelay":0,"realTime":false,"distance":2314.629061111065,"pathway":false,"mode":"BUS","route":"11","agencyName":"Société de Transport du Saguenay","agencyUrl":"http://ville.saguenay.ca/fr/services-aux-citoyens/transport-sts","agencyTimeZoneOffset":-14400000,"routeColor":"FF0000","routeType":3,"routeId":"1:11","routeTextColor":"FFFFFF","interlineWithPreviousLeg":false,"tripBlockId":"37","headsign":"Boul.Royaume/St-Pierre","agencyId":"0","tripId":"1:218322","serviceDate":"20180402","from":{"name":"Terminus Chicoutimi","stopId":"1:1289","stopCode":"1289","lon":-71.066163,"lat":48.428677,"arrival":1522700099000,"departure":1522700100000,"zoneId":"NA","stopIndex":0,"stopSequence":1,"vertexType":"TRANSIT"},"to":{"name":"Saint-Paul / Saint-Augustin","stopId":"1:426","stopCode":"426","lon":-71.084129,"lat":48.414194,"arrival":1522700520000,"departure":1522700521000,"zoneId":"NA","stopIndex":12,"stopSequence":13,"vertexType":"TRANSIT"},"legGeometry":{"points":"evqfHzcwpLk@?UhKfIh@dKp@GnDIfDOtEE~@Ff@x@rEF~@CbAALO~ADRNJXBr@DfGRPBPJLN@@FPFTBX?TE`BhBR@?J@NELKFOlAiDL[bA`AfIjIbGdGzDzD`A~An@`ApApBpClEvJrO","length":46},"routeShortName":"11","routeLongName":"Chic/Faubourg via St-Paul","rentedBike":false,"transitLeg":true,"duration":420.0,"steps":[]},{"startTime":1522700521000,"endTime":1522700718000,"departureDelay":0,"arrivalDelay":0,"realTime":false,"distance":258.55600000000004,"pathway":false,"mode":"WALK","route":"","agencyTimeZoneOffset":-14400000,"interlineWithPreviousLeg":false,"from":{"name":"Saint-Paul / Saint-Augustin","stopId":"1:426","stopCode":"426","lon":-71.084129,"lat":48.414194,"arrival":1522700520000,"departure":1522700521000,"zoneId":"NA","stopIndex":12,"stopSequence":13,"vertexType":"TRANSIT"},"to":{"name":"Destination","lon":-71.086632,"lat":48.413776,"arrival":1522700718000,"orig":"","vertexType":"NORMAL"},"legGeometry":{"points":"k{nfHjrzpLfAfBPTLTv@lAXdA@~@Up@{@hC","length":9},"rentedBike":false,"transitLeg":false,"duration":197.0,"steps":[{"distance":68.066,"relativeDirection":"DEPART","streetName":"Rue Saint-Paul","absoluteDirection":"SOUTHWEST","stayOn":false,"area":false,"bogusName":false,"lon":-71.08405531431303,"lat":48.4141469515624,"elevation":[]},{"distance":190.49,"relativeDirection":"CONTINUE","streetName":"Rue Brébeuf","absoluteDirection":"SOUTHWEST","stayOn":false,"area":false,"bogusName":false,"lon":-71.0846811,"lat":48.413698000000004,"elevation":[]}]}],"tooSloped":false},{"duration":1857,"startTime":1522699825000,"endTime":1522701682000,"walkTime":939,"transitTime":916,"waitingTime":2,"walkDistance":1193.1463984910974,"walkLimitExceeded":false,"elevationLost":0.0,"elevationGained":0.0,"transfers":0,"legs":[{"startTime":1522699825000,"endTime":1522700219000,"departureDelay":0,"arrivalDelay":0,"realTime":false,"distance":498.1690000000001,"pathway":false,"mode":"WALK","route":"","agencyTimeZoneOffset":-14400000,"interlineWithPreviousLeg":false,"from":{"name":"Origin","lon":-71.059509,"lat":48.430138,"departure":1522699825000,"orig":"","vertexType":"NORMAL"},"to":{"name":"Conservatoire (Jacques-Cartier)","stopId":"1:560","stopCode":"560","lon":-71.061503,"lat":48.426285,"arrival":1522700219000,"departure":1522700220000,"zoneId":"NA","stopIndex":2,"stopSequence":3,"vertexType":"TRANSIT"},"legGeometry":{"points":"i_rfH~zupL`@AXBbC?J?`@B|@B\\@h@?b@DzANlAD^@fAP`@z@TVPZC~C","length":18},"rentedBike":false,"transitLeg":false,"duration":394.0,"steps":[{"distance":32.818,"relativeDirection":"DEPART","streetName":"path","absoluteDirection":"SOUTH","stayOn":false,"area":false,"bogusName":false,"lon":-71.05983460919151,"lat":48.430133346182004,"elevation":[]},{"distance":347.39300000000003,"relativeDirection":"CONTINUE","streetName":"Rue La Fontaine","absoluteDirection":"SOUTH","stayOn":false,"area":false,"bogusName":false,"lon":-71.059842,"lat":48.4298385,"elevation":[]},{"distance":58.538,"relativeDirection":"SLIGHTLY_RIGHT","streetName":"Rue La Fontaine","absoluteDirection":"SOUTHWEST","stayOn":true,"area":false,"bogusName":false,"lon":-71.0601336,"lat":48.4267252,"elevation":[]},{"distance":59.42,"relativeDirection":"RIGHT","streetName":"Rue Jacques-Cartier Est","absoluteDirection":"WEST","stayOn":false,"area":false,"bogusName":false,"lon":-71.0606935,"lat":48.426355900000004,"elevation":[]}]},{"startTime":1522700220000,"endTime":1522701136000,"departureDelay":0,"arrivalDelay":0,"realTime":false,"distance":3819.687557559153,"pathway":false,"mode":"BUS","route":"14","agencyName":"Société de Transport du Saguenay","agencyUrl":"http://ville.saguenay.ca/fr/services-aux-citoyens/transport-sts","agencyTimeZoneOffset":-14400000,"routeColor":"C0C000","routeType":3,"routeId":"1:14","routeTextColor":"000000","interlineWithPreviousLeg":false,"tripBlockId":"32","headsign":"Talbot / Barrette","agencyId":"0","tripId":"1:218166","serviceDate":"20180402","from":{"name":"Conservatoire (Jacques-Cartier)","stopId":"1:560","stopCode":"560","lon":-71.061503,"lat":48.426285,"arrival":1522700219000,"departure":1522700220000,"zoneId":"NA","stopIndex":2,"stopSequence":3,"vertexType":"TRANSIT"},"to":{"name":"Boily / Garnier","stopId":"1:1567","stopCode":"1567","lon":-71.080057,"lat":48.411756,"arrival":1522701136000,"departure":1522701137000,"zoneId":"NA","stopIndex":15,"stopSequence":16,"vertexType":"TRANSIT"},"legGeometry":{"points":"{gqfHjevpLHwFB{I@m@@eBH_AF}A@w@Dq@@i@B}B@Y@e@D]F_@@SHQCKnBnBvIrIn@n@\\iATg@v@_ATg@LmABg@Is@c@iEAm@bAcDTcAtA{DJI|AxAvAvAQv@~@z@dA`ATq@`E~DL`@E`Ex@hDd@`B}FtFaAzAm@xAe@jCa@nDiAbm@SpKM`H]vBhDVzCTcAvCO^bEbEzK`LfBeEtK`KhAdAnCbCvBpCNR~BxAxBf@z@h@","length":69},"routeShortName":"14","routeLongName":"Coopérative","rentedBike":false,"transitLeg":true,"duration":916.0,"steps":[]},{"startTime":1522701137000,"endTime":1522701682000,"departureDelay":0,"arrivalDelay":0,"realTime":false,"distance":694.818,"pathway":false,"mode":"WALK","route":"","agencyTimeZoneOffset":-14400000,"interlineWithPreviousLeg":false,"from":{"name":"Boily / Garnier","stopId":"1:1567","stopCode":"1567","lon":-71.080057,"lat":48.411756,"arrival":1522701136000,"departure":1522701137000,"zoneId":"NA","stopIndex":15,"stopSequence":16,"vertexType":"TRANSIT"},"to":{"name":"Destination","lon":-71.086632,"lat":48.413776,"arrival":1522701682000,"orig":"","vertexType":"NORMAL"},"legGeometry":{"points":"elnfHpxypLnAr@{@vDWzBY`D{@fDoAnBg@XoAh@IB[PSJe@VIVLTv@lAXdA@~@Up@{@hC","length":20},"rentedBike":false,"transitLeg":false,"duration":545.0,"steps":[{"distance":49.36,"relativeDirection":"DEPART","streetName":"Rue Boily","absoluteDirection":"SOUTHWEST","stayOn":false,"area":false,"bogusName":false,"lon":-71.07992373269299,"lat":48.41171817126571,"elevation":[]},{"distance":387.072,"relativeDirection":"RIGHT","streetName":"Rue Garnier","absoluteDirection":"NORTHWEST","stayOn":false,"area":false,"bogusName":false,"lon":-71.0801867,"lat":48.41131,"elevation":[]},{"distance":67.896,"relativeDirection":"CONTINUE","streetName":"Rue Saint-Augustin","absoluteDirection":"NORTH","stayOn":false,"area":false,"bogusName":false,"lon":-71.0842714,"lat":48.413164,"elevation":[]},{"distance":190.49,"relativeDirection":"LEFT","streetName":"Rue Brébeuf","absoluteDirection":"SOUTHWEST","stayOn":false,"area":false,"bogusName":false,"lon":-71.0846811,"lat":48.413698000000004,"elevation":[]}]}],"tooSloped":false},{"duration":1057,"startTime":1522701461000,"endTime":1522702518000,"walkTime":635,"transitTime":420,"waitingTime":2,"walkDistance":811.4876240569359,"walkLimitExceeded":false,"elevationLost":0.0,"elevationGained":0.0,"transfers":0,"legs":[{"startTime":1522701461000,"endTime":1522701899000,"departureDelay":0,"arrivalDelay":0,"realTime":false,"distance":552.8320000000001,"pathway":false,"mode":"WALK","route":"","agencyTimeZoneOffset":-14400000,"interlineWithPreviousLeg":false,"from":{"name":"Origin","lon":-71.059509,"lat":48.430138,"departure":1522701461000,"orig":"","vertexType":"NORMAL"},"to":{"name":"Terminus Chicoutimi","stopId":"1:1289","stopCode":"1289","lon":-71.066163,"lat":48.428677,"arrival":1522701899000,"departure":1522701900000,"zoneId":"NA","stopIndex":0,"stopSequence":1,"vertexType":"TRANSIT"},"legGeometry":{"points":"i_rfH~zupL`@AXBCzCAzB?`A?|@A~@?zA?p@?XBXHLRb@Rn@BHLh@Dr@@n@Cz@Il@C^?PBRDDL@H?F@`@BN@~AL","length":31},"rentedBike":false,"transitLeg":false,"duration":438.0,"steps":[{"distance":32.818,"relativeDirection":"DEPART","streetName":"path","absoluteDirection":"SOUTH","stayOn":false,"area":false,"bogusName":false,"lon":-71.05983460919151,"lat":48.430133346182004,"elevation":[]},{"distance":226.80599999999998,"relativeDirection":"RIGHT","streetName":"Promenade du Carnaval-Souvenir","absoluteDirection":"WEST","stayOn":false,"area":false,"bogusName":false,"lon":-71.059842,"lat":48.4298385,"elevation":[]},{"distance":212.12900000000002,"relativeDirection":"CONTINUE","streetName":"service road","absoluteDirection":"WEST","stayOn":false,"area":false,"bogusName":true,"lon":-71.06291540000001,"lat":48.429876300000004,"elevation":[]},{"distance":81.079,"relativeDirection":"CONTINUE","streetName":"Rue Morin","absoluteDirection":"SOUTH","stayOn":false,"area":false,"bogusName":false,"lon":-71.0653539,"lat":48.4293544,"elevation":[]}]},{"startTime":1522701900000,"endTime":1522702320000,"departureDelay":0,"arrivalDelay":0,"realTime":false,"distance":2314.629061111065,"pathway":false,"mode":"BUS","route":"11","agencyName":"Société de Transport du Saguenay","agencyUrl":"http://ville.saguenay.ca/fr/services-aux-citoyens/transport-sts","agencyTimeZoneOffset":-14400000,"routeColor":"FF0000","routeType":3,"routeId":"1:11","routeTextColor":"FFFFFF","interlineWithPreviousLeg":false,"tripBlockId":"34","headsign":"Boul.Royaume/St-Pierre","agencyId":"0","tripId":"1:218227","serviceDate":"20180402","from":{"name":"Terminus Chicoutimi","stopId":"1:1289","stopCode":"1289","lon":-71.066163,"lat":48.428677,"arrival":1522701899000,"departure":1522701900000,"zoneId":"NA","stopIndex":0,"stopSequence":1,"vertexType":"TRANSIT"},"to":{"name":"Saint-Paul / Saint-Augustin","stopId":"1:426","stopCode":"426","lon":-71.084129,"lat":48.414194,"arrival":1522702320000,"departure":1522702321000,"zoneId":"NA","stopIndex":12,"stopSequence":13,"vertexType":"TRANSIT"},"legGeometry":{"points":"evqfHzcwpLk@?UhKfIh@dKp@GnDIfDOtEE~@Ff@x@rEF~@CbAALO~ADRNJXBr@DfGRPBPJLN@@FPFTBX?TE`BhBR@?J@NELKFOlAiDL[bA`AfIjIbGdGzDzD`A~An@`ApApBpClEvJrO","length":46},"routeShortName":"11","routeLongName":"Chic/Faubourg via St-Paul","rentedBike":false,"transitLeg":true,"duration":420.0,"steps":[]},{"startTime":1522702321000,"endTime":1522702518000,"departureDelay":0,"arrivalDelay":0,"realTime":false,"distance":258.55600000000004,"pathway":false,"mode":"WALK","route":"","agencyTimeZoneOffset":-14400000,"interlineWithPreviousLeg":false,"from":{"name":"Saint-Paul / Saint-Augustin","stopId":"1:426","stopCode":"426","lon":-71.084129,"lat":48.414194,"arrival":1522702320000,"departure":1522702321000,"zoneId":"NA","stopIndex":12,"stopSequence":13,"vertexType":"TRANSIT"},"to":{"name":"Destination","lon":-71.086632,"lat":48.413776,"arrival":1522702518000,"orig":"","vertexType":"NORMAL"},"legGeometry":{"points":"k{nfHjrzpLfAfBPTLTv@lAXdA@~@Up@{@hC","length":9},"rentedBike":false,"transitLeg":false,"duration":197.0,"steps":[{"distance":68.066,"relativeDirection":"DEPART","streetName":"Rue Saint-Paul","absoluteDirection":"SOUTHWEST","stayOn":false,"area":false,"bogusName":false,"lon":-71.08405531431303,"lat":48.4141469515624,"elevation":[]},{"distance":190.49,"relativeDirection":"CONTINUE","streetName":"Rue Brébeuf","absoluteDirection":"SOUTHWEST","stayOn":false,"area":false,"bogusName":false,"lon":-71.0846811,"lat":48.413698000000004,"elevation":[]}]}],"tooSloped":false}]},"debugOutput":{"precalculationTime":34,"pathCalculationTime":36,"pathTimes":[17,8,11],"renderingTime":0,"totalTime":70,"timedOut":false},"elevationMetadata":{"ellipsoidToGeoidDifference":-28.885904201182168,"geoidElevation":false}}