{"requestParameters":{"date":"2018/04/02","walkSpeed":"1.33","walkReluctance":"2.0","fromPlace":"48.433289,-71.01997298","maxWalkDistance":"3000","waitReluctance":"1.0","carSpeed":"33","numItineraries":"3","waitAtBeginningFactor":"0.4","mode":"TRANSIT,WALK","ignoreRealtimeUpdates":"false","stairsReluctance":"2.0","toPlace":"48.431536,-71.017965","time":"16:43:00"},"plan":{"date":1522701780000,"from":{"name":"Origin","lon":-71.01997298,"lat":48.433289,"orig":"","vertexType":"NORMAL"},"to":{"name":"Destination","lon":-71.017965,"lat":48.431536,"orig":"","vertexType":"NORMAL"},"itineraries":[{"duration":456,"startTime":1522701780000,"endTime":1522702236000,"walkTime":456,"transitTime":0,"waitingTime":0,"walkDistance":590.0930676666861,"walkLimitExceeded":false,"elevationLost":0.0,"elevationGained":0.0,"transfers":0,"legs":[{"startTime":1522701780000,"endTime":1522702236000,"departureDelay":0,"arrivalDelay":0,"realTime":false,"distance":590.016,"pathway":false,"mode":"WALK","route":"","agencyTimeZoneOffset":-14400000,"interlineWithPreviousLeg":false,"from":{"name":"Origin","lon":-71.01997298,"lat":48.433289,"departure":1522701780000,"orig":"","vertexType":"NORMAL"},"to":{"name":"Destination","lon":-71.017965,"lat":48.431536,"arrival":1522702236000,"orig":"","vertexType":"NORMAL"},"legGeometry":{"points":"asrfHxanpLGj@Eh@UbCq@vDXpAf@e@Rc@pBmGjCoJhAaE","length":11},"rentedBike":false,"transitLeg":false,"duration":456.0,"steps":[{"distance":155.975,"relativeDirection":"DEPART","streetName":"Rue de Nantes","absoluteDirection":"WEST","stayOn":false,"area":false,"bogusName":false,"lon":-71.01996928108787,"lat":48.433298914777204,"elevation":[]},{"distance":33.984,"relativeDirection":"LEFT","streetName":"Boulevard Renaud","absoluteDirection":"SOUTHWEST","stayOn":false,"area":false,"bogusName":false,"lon":-71.0219762,"lat":48.4337281,"elevation":[]},{"distance":400.05699999999996,"relativeDirection":"LEFT","streetName":"Rue du Poitou","absoluteDirection":"SOUTHEAST","stayOn":false,"area":false,"bogusName":false,"lon":-71.02238820000001,"lat":48.433591400000005,"elevation":[]}]}],"tooSloped":false}]},"debugOutput":{"precalculationTime":6,"pathCalculationTime":13,"pathTimes":[1,6,6],"renderingTime":0,"totalTime":19,"timedOut":false},"elevationMetadata":{"ellipsoidToGeoidDifference":-28.885904201182168,"geoidElevation":false}}