{"requestParameters":{"date":"2018/04/02","walkSpeed":"1.33","walkReluctance":"2.0","fromPlace":"48.410863,-71.067079","maxWalkDistance":"3000","waitReluctance":"1.0","carSpeed":"33","numItineraries":"3","waitAtBeginningFactor":"0.4","mode":"TRANSIT,WALK","ignoreRealtimeUpdates":"false","stairsReluctance":"2.0","toPlace":"48.452792,-71.057621","time":"11:0:00"},"plan":{"date":1522681200000,"from":{"name":"Origin","lon":-71.067079,"lat":48.410863,"orig":"","vertexType":"NORMAL"},"to":{"name":"Destination","lon":-71.057621,"lat":48.452792,"orig":"","vertexType":"NORMAL"},"itineraries":[{"duration":2337,"startTime":1522682416000,"endTime":1522684753000,"walkTime":323,"transitTime":1592,"waitingTime":422,"walkDistance":407.86927819189805,"walkLimitExceeded":false,"elevationLost":0.0,"elevationGained":0.0,"transfers":1,"legs":[{"startTime":1522682416000,"endTime":1522682729000,"departureDelay":0,"arrivalDelay":0,"realTime":false,"distance":394.671,"pathway":false,"mode":"WALK","route":"","agencyTimeZoneOffset":-14400000,"interlineWithPreviousLeg":false,"from":{"name":"Origin","lon":-71.067079,"lat":48.410863,"departure":1522682416000,"orig":"","vertexType":"NORMAL"},"to":{"name":"Angoulême (no. 1090)","stopId":"1:544","stopCode":"544","lon":-71.070364,"lat":48.411005,"arrival":1522682729000,"departure":1522682730000,"zoneId":"NA","stopIndex":22,"stopSequence":23,"vertexType":"TRANSIT"},"legGeometry":{"points":"kenfHlfwpLP^`@XZHp@VX`@aAxDi@pBSAMrCAXAZCfBmA?A?","length":15},"rentedBike":false,"transitLeg":false,"duration":313.0,"steps":[{"distance":100.59,"relativeDirection":"DEPART","streetName":"service road","absoluteDirection":"SOUTHWEST","stayOn":false,"area":false,"bogusName":false,"lon":-71.06678508942143,"lat":48.41062165933484,"elevation":[]},{"distance":126.486,"relativeDirection":"RIGHT","streetName":"Rue Don Bosco","absoluteDirection":"NORTHWEST","stayOn":false,"area":false,"bogusName":false,"lon":-71.0674104,"lat":48.4098446,"elevation":[]},{"distance":10.326,"relativeDirection":"RIGHT","streetName":"Rue Bégin","absoluteDirection":"NORTH","stayOn":false,"area":false,"bogusName":false,"lon":-71.06891440000001,"lat":48.410389300000006,"elevation":[]},{"distance":113.584,"relativeDirection":"LEFT","streetName":"path","absoluteDirection":"WEST","stayOn":false,"area":false,"bogusName":true,"lon":-71.0689037,"lat":48.4104819,"elevation":[]},{"distance":43.685,"relativeDirection":"RIGHT","streetName":"Rue d'Angoulème","absoluteDirection":"NORTH","stayOn":false,"area":false,"bogusName":false,"lon":-71.0704312,"lat":48.4105992,"elevation":[]}]},{"startTime":1522682730000,"endTime":1522683480000,"departureDelay":0,"arrivalDelay":0,"realTime":false,"distance":3755.9930464815848,"pathway":false,"mode":"BUS","route":"15","agencyName":"Société de Transport du Saguenay","agencyUrl":"http://ville.saguenay.ca/fr/services-aux-citoyens/transport-sts","agencyTimeZoneOffset":-14400000,"routeColor":"FF00FF","routeType":3,"routeId":"1:15","routeTextColor":"FFFFFF","interlineWithPreviousLeg":false,"tripBlockId":"30","headsign":"Terminus Chicoutimi","agencyId":"0","tripId":"1:218096","serviceDate":"20180402","from":{"name":"Angoulême (no. 1090)","stopId":"1:544","stopCode":"544","lon":-71.070364,"lat":48.411005,"arrival":1522682729000,"departure":1522682730000,"zoneId":"NA","stopIndex":22,"stopSequence":23,"vertexType":"TRANSIT"},"to":{"name":"Terminus Chicoutimi","stopId":"1:1289","stopCode":"1289","lon":-71.066163,"lat":48.428677,"arrival":1522683480000,"departure":1522683900000,"zoneId":"NA","stopIndex":39,"stopSequence":40,"vertexType":"TRANSIT"},"legGeometry":{"points":"ugnfHl}wpL}BZwAc@oA_Bs@gDCKZ{Di@QECc@_@sAkAoBwB_EcE{A_BoAmAk@o@cCaCkIkIaJaJUUwBaCj@wCjAsCzGoG_CoHL{D_@kAqD{CQr@iAcAy@w@L{@wAuA_B_B_EpLDh@NbBVvCIxBg@`Am@l@Sb@a@rAqDqDmEkE]a@kAqAU|@WnKG|DGxDOdPKvJU|F?XQlJC~@ChAIzEcCOaIi@VwL","length":62},"routeShortName":"15","routeLongName":"Term. Chic / Costco","rentedBike":false,"transitLeg":true,"duration":750.0,"steps":[]},{"startTime":1522683900000,"endTime":1522684742000,"departureDelay":0,"arrivalDelay":0,"realTime":false,"distance":5127.740034948495,"pathway":false,"mode":"BUS","route":"22","agencyName":"Société de Transport du Saguenay","agencyUrl":"http://ville.saguenay.ca/fr/services-aux-citoyens/transport-sts","agencyTimeZoneOffset":-14400000,"routeColor":"C0C000","routeType":3,"routeId":"1:22","routeTextColor":"000000","interlineWithPreviousLeg":false,"tripBlockId":"1","headsign":"Terminus Chicoutimi","agencyId":"0","tripId":"1:217140","serviceDate":"20180402","from":{"name":"Terminus Chicoutimi","stopId":"1:1289","stopCode":"1289","lon":-71.066163,"lat":48.428677,"arrival":1522683480000,"departure":1522683900000,"zoneId":"NA","stopIndex":0,"stopSequence":1,"vertexType":"TRANSIT"},"to":{"name":"Vimy 1963 (Ch) /","stopId":"1:757","stopCode":"757","lon":-71.0573,"lat":48.4526,"arrival":1522684742000,"departure":1522684743000,"zoneId":"NA","stopIndex":21,"stopSequence":22,"vertexType":"TRANSIT"},"legGeometry":{"points":"evqfHzcwpLg@?UhKxDVOhHMrH~CYhBBInAKXSNg@L{JHgBMoA[s@Usb@gS}@g@u@Su@Ia@Ck@Dm@HwAf@c@VeAx@iAlAU^[d@eLtTsAvBMJYF[EMIQ]y@wB[y@[{@_B{D{@uBe@gAO}AGw@SaCmAZe@AYOy@o@MKsAcA}BmBuC}BgA}@}BsBaAaA{@y@d@kDp@uEyIkDqHwC_@QmLyEy@]}I_D\\cDBWwCgAcCy@NoAZoCH{@BaA@}AJuBBYTuBaAa@c@QEEACAG?G?G?KAGgE}HGMGOU{@EOp@m@FIHQFSDW^qDJB`@LHDFFFJ^hAFVDZBXBn@@H@RBLFTHNHHJFLBP@j@OLAJAN@@?l@NTwBDQFMFIJGHCL?H@hGjB`GjBz@VNJJRBTAVQdAn@XrAh@uCvS","length":141},"routeShortName":"22","routeLongName":"Vanier","rentedBike":false,"transitLeg":true,"duration":842.0,"steps":[]},{"startTime":1522684743000,"endTime":1522684753000,"departureDelay":0,"arrivalDelay":0,"realTime":false,"distance":13.087,"pathway":false,"mode":"WALK","route":"","agencyTimeZoneOffset":-14400000,"interlineWithPreviousLeg":false,"from":{"name":"Vimy 1963 (Ch) /","stopId":"1:757","stopCode":"757","lon":-71.0573,"lat":48.4526,"arrival":1522684742000,"departure":1522684743000,"zoneId":"NA","stopIndex":21,"stopSequence":22,"vertexType":"TRANSIT"},"to":{"name":"Destination","lon":-71.057621,"lat":48.452792,"arrival":1522684753000,"orig":"","vertexType":"NORMAL"},"legGeometry":{"points":"{kvfHzkupLUI","length":2},"rentedBike":false,"transitLeg":false,"duration":10.0,"steps":[{"distance":13.087,"relativeDirection":"DEPART","streetName":"Rue Fabre","absoluteDirection":"NORTH","stayOn":false,"area":false,"bogusName":false,"lon":-71.05741714507252,"lat":48.452624954738766,"elevation":[]}]}],"tooSloped":false},{"duration":3360,"startTime":1522681482000,"endTime":1522684842000,"walkTime":1052,"transitTime":2066,"waitingTime":242,"walkDistance":1344.1957593919212,"walkLimitExceeded":false,"elevationLost":0.0,"elevationGained":0.0,"transfers":1,"legs":[{"startTime":1522681482000,"endTime":1522682253000,"departureDelay":0,"arrivalDelay":0,"realTime":false,"distance":983.2729999999999,"pathway":false,"mode":"WALK","route":"","agencyTimeZoneOffset":-14400000,"interlineWithPreviousLeg":false,"from":{"name":"Origin","lon":-71.067079,"lat":48.410863,"departure":1522681482000,"orig":"","vertexType":"NORMAL"},"to":{"name":"Champs-Élysées / Chopin","stopId":"1:570","stopCode":"570","lon":-71.058565,"lat":48.409684,"arrival":1522682253000,"departure":1522682254000,"zoneId":"NA","stopIndex":11,"stopSequence":12,"vertexType":"TRANSIT"},"legGeometry":{"points":"kenfHlfwpLP^`@XZHp@VX`@Vm@f@mA`DcJmAy@_AkGIs@@wAB[FaAj@gBpC}HqAgAe@a@k@e@ECiAe@}@i@n@}A","length":24},"rentedBike":false,"transitLeg":false,"duration":771.0,"steps":[{"distance":100.59,"relativeDirection":"DEPART","streetName":"service road","absoluteDirection":"SOUTHWEST","stayOn":false,"area":false,"bogusName":false,"lon":-71.06678508942143,"lat":48.41062165933484,"elevation":[]},{"distance":217.18,"relativeDirection":"LEFT","streetName":"Rue Don Bosco","absoluteDirection":"SOUTHEAST","stayOn":false,"area":false,"bogusName":false,"lon":-71.0674104,"lat":48.4098446,"elevation":[]},{"distance":430.19599999999997,"relativeDirection":"LEFT","streetName":"Rue Belleau","absoluteDirection":"NORTHEAST","stayOn":false,"area":false,"bogusName":false,"lon":-71.06501420000001,"lat":48.408712400000006,"elevation":[]},{"distance":191.274,"relativeDirection":"LEFT","streetName":"Rue Bizet","absoluteDirection":"NORTHEAST","stayOn":false,"area":false,"bogusName":false,"lon":-71.0601022,"lat":48.4084523,"elevation":[]},{"distance":44.033,"relativeDirection":"RIGHT","streetName":"Rue des Champs-Élysées","absoluteDirection":"SOUTHEAST","stayOn":false,"area":false,"bogusName":false,"lon":-71.0589618,"lat":48.409989800000005,"elevation":[]}]},{"startTime":1522682254000,"endTime":1522683660000,"departureDelay":0,"arrivalDelay":0,"realTime":false,"distance":8746.6297172976,"pathway":false,"mode":"BUS","route":"12","agencyName":"Société de Transport du Saguenay","agencyUrl":"http://ville.saguenay.ca/fr/services-aux-citoyens/transport-sts","agencyTimeZoneOffset":-14400000,"routeColor":"556B2F","routeType":3,"routeId":"1:12","routeTextColor":"FFFFFF","interlineWithPreviousLeg":false,"tripBlockId":"26","headsign":"Terminus Chicoutimi","agencyId":"0","tripId":"1:217973","serviceDate":"20180402","from":{"name":"Champs-Élysées / Chopin","stopId":"1:570","stopCode":"570","lon":-71.058565,"lat":48.409684,"arrival":1522682253000,"departure":1522682254000,"zoneId":"NA","stopIndex":11,"stopSequence":12,"vertexType":"TRANSIT"},"to":{"name":"Terminus Chicoutimi","stopId":"1:1289","stopCode":"1289","lon":-71.066163,"lat":48.428677,"arrival":1522683660000,"departure":1522683900000,"zoneId":"NA","stopIndex":33,"stopSequence":34,"vertexType":"TRANSIT"},"legGeometry":{"points":"o_nfH`supLrGcPxFoNlCyGa@yFYkD}CyA}KmFgD_BgAgBn@kFD_NoIgrAmD_WcAaLaDHoDJi`@wVoAbDbA|AnBU|B|AfBlAyLtKoGxFcFqDkJaHgEoDmDwC_TqQsBeB{HjWfAvAfM|O|FlHmB`IgA|Cy@`UYzHZvMR~Hr@~ZPvHsCrMFxf@|ApJj@nDDl]BvZdCXJhC","length":51},"routeShortName":"12","routeLongName":"Rivière du Moulin","rentedBike":false,"transitLeg":true,"duration":1406.0,"steps":[]},{"startTime":1522683900000,"endTime":1522684560000,"departureDelay":0,"arrivalDelay":0,"realTime":false,"distance":4846.683748665354,"pathway":false,"mode":"BUS","route":"23","agencyName":"Société de Transport du Saguenay","agencyUrl":"http://ville.saguenay.ca/fr/services-aux-citoyens/transport-sts","agencyTimeZoneOffset":-14400000,"routeColor":"FF00FF","routeType":3,"routeId":"1:23","routeTextColor":"FFFFFF","interlineWithPreviousLeg":false,"tripBlockId":"5","headsign":"Terminus Chicoutimi","agencyId":"0","tripId":"1:217260","serviceDate":"20180402","from":{"name":"Terminus Chicoutimi","stopId":"1:1289","stopCode":"1289","lon":-71.066163,"lat":48.428677,"arrival":1522683660000,"departure":1522683900000,"zoneId":"NA","stopIndex":0,"stopSequence":1,"vertexType":"TRANSIT"},"to":{"name":"Verdun / Riviera","stopId":"1:2023","stopCode":"2023","lon":-71.057875,"lat":48.449739,"arrival":1522684560000,"departure":1522684561000,"zoneId":"NA","stopIndex":14,"stopSequence":15,"vertexType":"TRANSIT"},"legGeometry":{"points":"kwqfHjbwpLF_CkAOYCm@rRO\\WjGOfGCRK^KJMHQB_AMg@Gw`@eR}@g@u@Su@Ia@Ck@Dm@HwAf@c@VeAx@iAlAU^[d@eLtTsAvB_CvEuAnCmBlE}@|B_BvFoC`JCD}@hCo@~Aq@pAs@fA{BlCqH|Iq@Bq@Im@UGCUi@Wm@ScA_@gGSaE@_@@_@@ERoBFe@No@`@gAbCyFNe@Ha@He@Fg@Du@Dg@Hc@Pa@RW\\S`@QZEm@eHM}B?GGi@Is@Ou@Qw@Mo@Kw@ImAGoBAk@aALa@?YEUKc@Yc@_@KOIUGUEWAW?YBqAH_AXeC@IdB_Mh@_EJk@d@kDhAqI`AgHz@oGBU?UAWCWUwAWD]B]AUEoAc@kE}AOIq@g@g@u@]w@b@s@","length":123},"routeShortName":"23","routeLongName":"Côte Verdun via Aréna du Plateau","rentedBike":false,"transitLeg":true,"duration":660.0,"steps":[]},{"startTime":1522684561000,"endTime":1522684842000,"departureDelay":0,"arrivalDelay":0,"realTime":false,"distance":360.719,"pathway":false,"mode":"WALK","route":"","agencyTimeZoneOffset":-14400000,"interlineWithPreviousLeg":false,"from":{"name":"Verdun / Riviera","stopId":"1:2023","stopCode":"2023","lon":-71.057875,"lat":48.449739,"arrival":1522684560000,"departure":1522684561000,"zoneId":"NA","stopIndex":14,"stopSequence":15,"vertexType":"TRANSIT"},"to":{"name":"Destination","lon":-71.057621,"lat":48.452792,"arrival":1522684842000,"orig":"","vertexType":"NORMAL"},"legGeometry":{"points":"czufHfnupLg@x@_ArAcBq@WIwCgAyCeAOGQGUI","length":10},"rentedBike":false,"transitLeg":false,"duration":281.0,"steps":[{"distance":77.14,"relativeDirection":"DEPART","streetName":"Rue de Verdun","absoluteDirection":"NORTHWEST","stayOn":false,"area":false,"bogusName":false,"lon":-71.05779790898674,"lat":48.44978803093983,"elevation":[]},{"distance":260.302,"relativeDirection":"RIGHT","streetName":"Rue Richelieu","absoluteDirection":"NORTH","stayOn":false,"area":false,"bogusName":false,"lon":-71.05850140000001,"lat":48.450301200000006,"elevation":[]},{"distance":23.277,"relativeDirection":"CONTINUE","streetName":"Rue Fabre","absoluteDirection":"NORTH","stayOn":false,"area":false,"bogusName":false,"lon":-71.0574594,"lat":48.4525377,"elevation":[]}]}],"tooSloped":false},{"duration":2337,"startTime":1522684216000,"endTime":1522686553000,"walkTime":323,"transitTime":1592,"waitingTime":422,"walkDistance":407.86927819189805,"walkLimitExceeded":false,"elevationLost":0.0,"elevationGained":0.0,"transfers":1,"legs":[{"startTime":1522684216000,"endTime":1522684529000,"departureDelay":0,"arrivalDelay":0,"realTime":false,"distance":394.671,"pathway":false,"mode":"WALK","route":"","agencyTimeZoneOffset":-14400000,"interlineWithPreviousLeg":false,"from":{"name":"Origin","lon":-71.067079,"lat":48.410863,"departure":1522684216000,"orig":"","vertexType":"NORMAL"},"to":{"name":"Angoulême (no. 1090)","stopId":"1:544","stopCode":"544","lon":-71.070364,"lat":48.411005,"arrival":1522684529000,"departure":1522684530000,"zoneId":"NA","stopIndex":22,"stopSequence":23,"vertexType":"TRANSIT"},"legGeometry":{"points":"kenfHlfwpLP^`@XZHp@VX`@aAxDi@pBSAMrCAXAZCfBmA?A?","length":15},"rentedBike":false,"transitLeg":false,"duration":313.0,"steps":[{"distance":100.59,"relativeDirection":"DEPART","streetName":"service road","absoluteDirection":"SOUTHWEST","stayOn":false,"area":false,"bogusName":false,"lon":-71.06678508942143,"lat":48.41062165933484,"elevation":[]},{"distance":126.486,"relativeDirection":"RIGHT","streetName":"Rue Don Bosco","absoluteDirection":"NORTHWEST","stayOn":false,"area":false,"bogusName":false,"lon":-71.0674104,"lat":48.4098446,"elevation":[]},{"distance":10.326,"relativeDirection":"RIGHT","streetName":"Rue Bégin","absoluteDirection":"NORTH","stayOn":false,"area":false,"bogusName":false,"lon":-71.06891440000001,"lat":48.410389300000006,"elevation":[]},{"distance":113.584,"relativeDirection":"LEFT","streetName":"path","absoluteDirection":"WEST","stayOn":false,"area":false,"bogusName":true,"lon":-71.0689037,"lat":48.4104819,"elevation":[]},{"distance":43.685,"relativeDirection":"RIGHT","streetName":"Rue d'Angoulème","absoluteDirection":"NORTH","stayOn":false,"area":false,"bogusName":false,"lon":-71.0704312,"lat":48.4105992,"elevation":[]}]},{"startTime":1522684530000,"endTime":1522685280000,"departureDelay":0,"arrivalDelay":0,"realTime":false,"distance":3755.9930464815848,"pathway":false,"mode":"BUS","route":"15","agencyName":"Société de Transport du Saguenay","agencyUrl":"http://ville.saguenay.ca/fr/services-aux-citoyens/transport-sts","agencyTimeZoneOffset":-14400000,"routeColor":"FF00FF","routeType":3,"routeId":"1:15","routeTextColor":"FFFFFF","interlineWithPreviousLeg":false,"tripBlockId":"32","headsign":"Terminus Chicoutimi","agencyId":"0","tripId":"1:218157","serviceDate":"20180402","from":{"name":"Angoulême (no. 1090)","stopId":"1:544","stopCode":"544","lon":-71.070364,"lat":48.411005,"arrival":1522684529000,"departure":1522684530000,"zoneId":"NA","stopIndex":22,"stopSequence":23,"vertexType":"TRANSIT"},"to":{"name":"Terminus Chicoutimi","stopId":"1:1289","stopCode":"1289","lon":-71.066163,"lat":48.428677,"arrival":1522685280000,"departure":1522685700000,"zoneId":"NA","stopIndex":39,"stopSequence":40,"vertexType":"TRANSIT"},"legGeometry":{"points":"ugnfHl}wpL}BZwAc@oA_Bs@gDCKZ{Di@QECc@_@sAkAoBwB_EcE{A_BoAmAk@o@cCaCkIkIaJaJUUwBaCj@wCjAsCzGoG_CoHL{D_@kAqD{CQr@iAcAy@w@L{@wAuA_B_B_EpLDh@NbBVvCIxBg@`Am@l@Sb@a@rAqDqDmEkE]a@kAqAU|@WnKG|DGxDOdPKvJU|F?XQlJC~@ChAIzEcCOaIi@VwL","length":62},"routeShortName":"15","routeLongName":"Term. Chic / Costco","rentedBike":false,"transitLeg":true,"duration":750.0,"steps":[]},{"startTime":1522685700000,"endTime":1522686542000,"departureDelay":0,"arrivalDelay":0,"realTime":false,"distance":5127.740034948495,"pathway":false,"mode":"BUS","route":"22","agencyName":"Société de Transport du Saguenay","agencyUrl":"http://ville.saguenay.ca/fr/services-aux-citoyens/transport-sts","agencyTimeZoneOffset":-14400000,"routeColor":"C0C000","routeType":3,"routeId":"1:22","routeTextColor":"000000","interlineWithPreviousLeg":false,"tripBlockId":"3","headsign":"Terminus Chicoutimi","agencyId":"0","tripId":"1:217198","serviceDate":"20180402","from":{"name":"Terminus Chicoutimi","stopId":"1:1289","stopCode":"1289","lon":-71.066163,"lat":48.428677,"arrival":1522685280000,"departure":1522685700000,"zoneId":"NA","stopIndex":0,"stopSequence":1,"vertexType":"TRANSIT"},"to":{"name":"Vimy 1963 (Ch) /","stopId":"1:757","stopCode":"757","lon":-71.0573,"lat":48.4526,"arrival":1522686542000,"departure":1522686543000,"zoneId":"NA","stopIndex":21,"stopSequence":22,"vertexType":"TRANSIT"},"legGeometry":{"points":"evqfHzcwpLg@?UhKxDVOhHMrH~CYhBBInAKXSNg@L{JHgBMoA[s@Usb@gS}@g@u@Su@Ia@Ck@Dm@HwAf@c@VeAx@iAlAU^[d@eLtTsAvBMJYF[EMIQ]y@wB[y@[{@_B{D{@uBe@gAO}AGw@SaCmAZe@AYOy@o@MKsAcA}BmBuC}BgA}@}BsBaAaA{@y@d@kDp@uEyIkDqHwC_@QmLyEy@]}I_D\\cDBWwCgAcCy@NoAZoCH{@BaA@}AJuBBYTuBaAa@c@QEEACAG?G?G?KAGgE}HGMGOU{@EOp@m@FIHQFSDW^qDJB`@LHDFFFJ^hAFVDZBXBn@@H@RBLFTHNHHJFLBP@j@OLAJAN@@?l@NTwBDQFMFIJGHCL?H@hGjB`GjBz@VNJJRBTAVQdAn@XrAh@uCvS","length":141},"routeShortName":"22","routeLongName":"Vanier","rentedBike":false,"transitLeg":true,"duration":842.0,"steps":[]},{"startTime":1522686543000,"endTime":1522686553000,"departureDelay":0,"arrivalDelay":0,"realTime":false,"distance":13.087,"pathway":false,"mode":"WALK","route":"","agencyTimeZoneOffset":-14400000,"interlineWithPreviousLeg":false,"from":{"name":"Vimy 1963 (Ch) /","stopId":"1:757","stopCode":"757","lon":-71.0573,"lat":48.4526,"arrival":1522686542000,"departure":1522686543000,"zoneId":"NA","stopIndex":21,"stopSequence":22,"vertexType":"TRANSIT"},"to":{"name":"Destination","lon":-71.057621,"lat":48.452792,"arrival":1522686553000,"orig":"","vertexType":"NORMAL"},"legGeometry":{"points":"{kvfHzkupLUI","length":2},"rentedBike":false,"transitLeg":false,"duration":10.0,"steps":[{"distance":13.087,"relativeDirection":"DEPART","streetName":"Rue Fabre","absoluteDirection":"NORTH","stayOn":false,"area":false,"bogusName":false,"lon":-71.05741714507252,"lat":48.452624954738766,"elevation":[]}]}],"tooSloped":false}]},"debugOutput":{"precalculationTime":42,"pathCalculationTime":89,"pathTimes":[42,22,25],"renderingTime":1,"totalTime":132,"timedOut":false},"elevationMetadata":{"ellipsoidToGeoidDifference":-28.885904201182168,"geoidElevation":false}}