{"requestParameters":{"date":"2018/04/02","walkSpeed":"1.33","walkReluctance":"2.0","fromPlace":"48.452792,-71.057621","maxWalkDistance":"3000","waitReluctance":"1.0","carSpeed":"33","numItineraries":"3","waitAtBeginningFactor":"0.4","mode":"TRANSIT,WALK","ignoreRealtimeUpdates":"false","stairsReluctance":"2.0","toPlace":"48.40344,-71.00349699","time":"13:15:00"},"plan":{"date":1522689300000,"from":{"name":"Origin","lon":-71.057621,"lat":48.452792,"orig":"","vertexType":"NORMAL"},"to":{"name":"Destination","lon":-71.00349699,"lat":48.40344,"orig":"","vertexType":"NORMAL"},"itineraries":[{"duration":2046,"startTime":1522690131000,"endTime":1522692177000,"walkTime":18,"transitTime":1546,"waitingTime":482,"walkDistance":22.433,"walkLimitExceeded":false,"elevationLost":0.0,"elevationGained":0.0,"transfers":2,"legs":[{"startTime":1522690131000,"endTime":1522690141000,"departureDelay":0,"arrivalDelay":0,"realTime":false,"distance":13.087,"pathway":false,"mode":"WALK","route":"","agencyTimeZoneOffset":-14400000,"interlineWithPreviousLeg":false,"from":{"name":"Origin","lon":-71.057621,"lat":48.452792,"departure":1522690131000,"orig":"","vertexType":"NORMAL"},"to":{"name":"Vimy 1963 (Ch) /","stopId":"1:757","stopCode":"757","lon":-71.0573,"lat":48.4526,"arrival":1522690141000,"departure":1522690142000,"zoneId":"NA","stopIndex":21,"stopSequence":22,"vertexType":"TRANSIT"},"legGeometry":{"points":"qlvfHpkupLTH","length":2},"rentedBike":false,"transitLeg":false,"duration":10.0,"steps":[{"distance":13.087,"relativeDirection":"DEPART","streetName":"Rue Fabre","absoluteDirection":"SOUTH","stayOn":false,"area":false,"bogusName":false,"lon":-71.0573628779569,"lat":48.4527370141666,"elevation":[]}]},{"startTime":1522690142000,"endTime":1522690800000,"departureDelay":0,"arrivalDelay":0,"realTime":false,"distance":4081.8423270011253,"pathway":false,"mode":"BUS","route":"22","agencyName":"Société de Transport du Saguenay","agencyUrl":"http://ville.saguenay.ca/fr/services-aux-citoyens/transport-sts","agencyTimeZoneOffset":-14400000,"routeColor":"C0C000","routeType":3,"routeId":"1:22","routeTextColor":"000000","interlineWithPreviousLeg":false,"tripBlockId":"3","headsign":"Terminus Chicoutimi","agencyId":"0","tripId":"1:217200","serviceDate":"20180402","from":{"name":"Vimy 1963 (Ch) /","stopId":"1:757","stopCode":"757","lon":-71.0573,"lat":48.4526,"arrival":1522690141000,"departure":1522690142000,"zoneId":"NA","stopIndex":21,"stopSequence":22,"vertexType":"TRANSIT"},"to":{"name":"Terminus Chicoutimi","stopId":"1:1289","stopCode":"1289","lon":-71.066163,"lat":48.428677,"arrival":1522690800000,"departure":1522691100000,"zoneId":"NA","stopIndex":35,"stopSequence":36,"vertexType":"TRANSIT"},"legGeometry":{"points":"ekvfHlkupLeA|He@hCo@|AiBbD~@^|IrDhAb@qAfJSzAMr@Yz@xAhDFNpBdFRp@Hl@Jz@BXXrCHl@Lh@Nf@r@nAr@r@`@PLFbAVH_AXeC@IdB_Mh@_EJk@x@x@bA`A|BrBnDrCl@f@|BlBrAbAj@d@ZTXNd@@lA[ZxDN|Ad@fAz@tB~AzDZ|@Zv@x@vBP\\h@~@PVrCmFhHqN~@eBr@cAt@_Av@}@RQPMz@k@tAe@REZG^Af@@X@VF`@Jn@XbClAr@Xt\\`PrAb@pA^hBTjAFj@Pb@JPHLLJNJRFXDT?X?ZEVEVKTMNMHMFOB}DWSGOSYcAN}FFkAF}DJyDd@wPV_HjAN~ALIzBQb@e@@","length":114},"routeShortName":"22","routeLongName":"Vanier","rentedBike":false,"transitLeg":true,"duration":658.0,"steps":[]},{"startTime":1522691100000,"endTime":1522691520000,"departureDelay":0,"arrivalDelay":0,"realTime":false,"distance":1729.6772383837415,"pathway":false,"mode":"BUS","route":"14","agencyName":"Société de Transport du Saguenay","agencyUrl":"http://ville.saguenay.ca/fr/services-aux-citoyens/transport-sts","agencyTimeZoneOffset":-14400000,"routeColor":"C0C000","routeType":3,"routeId":"1:14","routeTextColor":"000000","interlineWithPreviousLeg":false,"tripBlockId":"30","headsign":"Talbot / Barrette","agencyId":"0","tripId":"1:218101","serviceDate":"20180402","from":{"name":"Terminus Chicoutimi","stopId":"1:1289","stopCode":"1289","lon":-71.066163,"lat":48.428677,"arrival":1522690800000,"departure":1522691100000,"zoneId":"NA","stopIndex":0,"stopSequence":1,"vertexType":"TRANSIT"},"to":{"name":"Terminus UQAC","stopId":"1:1670","stopCode":"1670","lon":-71.053369,"lat":48.420903,"arrival":1522691520000,"departure":1522691700000,"zoneId":"NA","stopIndex":8,"stopSequence":9,"vertexType":"TRANSIT"},"legGeometry":{"points":"qvqfHnbwpLJkClLh@DsDTmSHwFB{I@m@@eBH_AF}A@w@Dq@@i@B}B@Y@e@D]F_@@SHQCKnBnBvIrIn@n@\\iATg@v@_ATg@LmABg@Is@c@iEAm@bAcDTcAtA{DJI|AxAvAvAQv@~@z@","length":42},"routeShortName":"14","routeLongName":"Coopérative","rentedBike":false,"transitLeg":true,"duration":420.0,"steps":[]},{"startTime":1522691700000,"endTime":1522692168000,"departureDelay":0,"arrivalDelay":0,"realTime":false,"distance":4939.533951460505,"pathway":false,"mode":"BUS","route":"6","agencyName":"Société de Transport du Saguenay","agencyUrl":"http://ville.saguenay.ca/fr/services-aux-citoyens/transport-sts","agencyTimeZoneOffset":-14400000,"routeColor":"FF0000","routeType":3,"routeId":"1:6","routeTextColor":"FFFFFF","interlineWithPreviousLeg":false,"tripBlockId":"24","headsign":"Terminus La Baie","agencyId":"0","tripId":"1:217914","serviceDate":"20180402","from":{"name":"Terminus UQAC","stopId":"1:1670","stopCode":"1670","lon":-71.053369,"lat":48.420903,"arrival":1522691520000,"departure":1522691700000,"zoneId":"NA","stopIndex":0,"stopSequence":1,"vertexType":"TRANSIT"},"to":{"name":"boul. St-Jean-Baptiste / Ste-Famille","stopId":"1:273","stopCode":"273","lon":-71.005229,"lat":48.401809,"arrival":1522692168000,"departure":1522692169000,"zoneId":"NA","stopIndex":9,"stopSequence":10,"vertexType":"TRANSIT"},"legGeometry":{"points":"sepfHprtpL\\Xd@j@Tw@dEdEJ`@E~Db@pBxAtDdNaLfB}Ad@c@h@i@`@[`@_@XOr@_@hAUjCOJA~@O~@y@~@uAd@{AxA_EpAuDJYhCeI`B_MDaAFsA@q@CeBKkDc@cIsFa{@QoBe@cHc@aEeC_Oa@iDk@iIMWxAo@\\UZUdDeD|IoJp@u@l@_Ah@{@f@{@DMp@uAt@iBnAgDrQme@lKwXnGoP","length":59},"routeShortName":"6","routeLongName":"Term. Chic/Term. Baie via ch.Plateau","rentedBike":false,"transitLeg":true,"duration":468.0,"steps":[]},{"startTime":1522692169000,"endTime":1522692177000,"departureDelay":0,"arrivalDelay":0,"realTime":false,"distance":9.346,"pathway":false,"mode":"WALK","route":"","agencyTimeZoneOffset":-14400000,"interlineWithPreviousLeg":false,"from":{"name":"boul. St-Jean-Baptiste / Ste-Famille","stopId":"1:273","stopCode":"273","lon":-71.005229,"lat":48.401809,"arrival":1522692168000,"departure":1522692169000,"zoneId":"NA","stopIndex":9,"stopSequence":10,"vertexType":"TRANSIT"},"to":{"name":"Destination","lon":-71.00349699,"lat":48.40344,"arrival":1522692177000,"orig":"","vertexType":"NORMAL"},"legGeometry":{"points":"onlfHlekpLIR","length":2},"rentedBike":false,"transitLeg":false,"duration":8.0,"steps":[{"distance":9.346,"relativeDirection":"DEPART","streetName":"Boulevard Saint-Jean-Baptiste","absoluteDirection":"NORTHWEST","stayOn":false,"area":false,"bogusName":false,"lon":-71.00518930041385,"lat":48.40184322879472,"elevation":[]}]}],"tooSloped":false},{"duration":3886,"startTime":1522689678000,"endTime":1522693564000,"walkTime":1761,"transitTime":1523,"waitingTime":602,"walkDistance":2318.843451126837,"walkLimitExceeded":false,"elevationLost":0.0,"elevationGained":0.0,"transfers":1,"legs":[{"startTime":1522689678000,"endTime":1522689959000,"departureDelay":0,"arrivalDelay":0,"realTime":false,"distance":360.719,"pathway":false,"mode":"WALK","route":"","agencyTimeZoneOffset":-14400000,"interlineWithPreviousLeg":false,"from":{"name":"Origin","lon":-71.057621,"lat":48.452792,"departure":1522689678000,"orig":"","vertexType":"NORMAL"},"to":{"name":"Verdun / Riviera","stopId":"1:2023","stopCode":"2023","lon":-71.057875,"lat":48.449739,"arrival":1522689959000,"departure":1522689960000,"zoneId":"NA","stopIndex":14,"stopSequence":15,"vertexType":"TRANSIT"},"legGeometry":{"points":"qlvfHpkupLTHPFNFxCdAvCfAVHbBp@~@sAf@y@","length":10},"rentedBike":false,"transitLeg":false,"duration":281.0,"steps":[{"distance":23.277,"relativeDirection":"DEPART","streetName":"Rue Fabre","absoluteDirection":"SOUTH","stayOn":false,"area":false,"bogusName":false,"lon":-71.0573628779569,"lat":48.4527370141666,"elevation":[]},{"distance":260.302,"relativeDirection":"CONTINUE","streetName":"Rue Richelieu","absoluteDirection":"SOUTH","stayOn":false,"area":false,"bogusName":false,"lon":-71.0574594,"lat":48.4525377,"elevation":[]},{"distance":77.14,"relativeDirection":"LEFT","streetName":"Rue de Verdun","absoluteDirection":"SOUTHEAST","stayOn":false,"area":false,"bogusName":false,"lon":-71.05850140000001,"lat":48.450301200000006,"elevation":[]}]},{"startTime":1522689960000,"endTime":1522690500000,"departureDelay":0,"arrivalDelay":0,"realTime":false,"distance":3566.9301798582574,"pathway":false,"mode":"BUS","route":"23","agencyName":"Société de Transport du Saguenay","agencyUrl":"http://ville.saguenay.ca/fr/services-aux-citoyens/transport-sts","agencyTimeZoneOffset":-14400000,"routeColor":"FF00FF","routeType":3,"routeId":"1:23","routeTextColor":"FFFFFF","interlineWithPreviousLeg":false,"tripBlockId":"4","headsign":"Terminus Chicoutimi","agencyId":"0","tripId":"1:217236","serviceDate":"20180402","from":{"name":"Verdun / Riviera","stopId":"1:2023","stopCode":"2023","lon":-71.057875,"lat":48.449739,"arrival":1522689959000,"departure":1522689960000,"zoneId":"NA","stopIndex":14,"stopSequence":15,"vertexType":"TRANSIT"},"to":{"name":"Terminus Chicoutimi","stopId":"1:1289","stopCode":"1289","lon":-71.066163,"lat":48.428677,"arrival":1522690500000,"departure":1522691100000,"zoneId":"NA","stopIndex":26,"stopSequence":27,"vertexType":"TRANSIT"},"legGeometry":{"points":"czufHhnupLT[~CkFf@s@\\e@x@}@jAeAXQZStBaAh@]`@]`@i@l@kDF_@R{AFWFMPIPC`@BT@V?TAVKLENCLCJ@J@xAb@x@Zz@\\CP?R@N@NFLFF`GtBx@Xw@pG@l@B\\DXL\\RZDFXPf@N@v@Bp@Dr@l@~HNlAH\\@HLd@\\z@Xd@X\\RTXRr@Zn@PfExAvDpALnBJt@Pp@|@`DHZPn@`@rBNnAFr@DbA?bB@jABzA?p@A???A???A?A???A@??A?A@??A@?@A??@A@???@A@?@?@A@?@?@?@?@???@?@?@?@?@?@@@?@?@@@?@@@?@@@?@@?@@??@@@?E`@Kr@]rACVEl@I|AAr@JbAWJe@FUAM?a@Ke@YYWWa@v@}@RQPMz@k@tAe@REZG^Af@@X@VF`@Jn@XbClAr@Xt\\`PrAb@pA^hBTjAFj@Pb@JPHLLJNJRFXDT?X?ZEVEVKTMNMHMFOB}DWSGOSYcAN}FFkAF}DJyDd@wPV_HjAN~ALI`C","length":195},"routeShortName":"23","routeLongName":"Côte Verdun via Aréna du Plateau","rentedBike":false,"transitLeg":true,"duration":540.0,"steps":[]},{"startTime":1522691100000,"endTime":1522692083000,"departureDelay":0,"arrivalDelay":0,"realTime":false,"distance":6070.619475259282,"pathway":false,"mode":"BUS","route":"12","agencyName":"Société de Transport du Saguenay","agencyUrl":"http://ville.saguenay.ca/fr/services-aux-citoyens/transport-sts","agencyTimeZoneOffset":-14400000,"routeColor":"556B2F","routeType":3,"routeId":"1:12","routeTextColor":"FFFFFF","interlineWithPreviousLeg":false,"tripBlockId":"27","headsign":"Terminus UQAC","agencyId":"0","tripId":"1:218014","serviceDate":"20180402","from":{"name":"Terminus Chicoutimi","stopId":"1:1289","stopCode":"1289","lon":-71.066163,"lat":48.428677,"arrival":1522690500000,"departure":1522691100000,"zoneId":"NA","stopIndex":0,"stopSequence":1,"vertexType":"TRANSIT"},"to":{"name":"nouveau","stopId":"1:2297","stopCode":"2297","lon":-71.02468,"lat":48.413593,"arrival":1522692083000,"departure":1522692084000,"zoneId":"NA","stopIndex":25,"stopSequence":26,"vertexType":"TRANSIT"},"legGeometry":{"points":"evqfHpbwpLpFcj@IaKmFy^_DaZz@u]SeV}@aNs@gKToKd@gTnCyHkGuLqFqJ_DeFf@iIvGsKlIrH`JlH`EfDnOdIdGlGjL|BzBiLv@}L`b@fN","length":26},"routeShortName":"12","routeLongName":"Rivière du Moulin","rentedBike":false,"transitLeg":true,"duration":983.0,"steps":[]},{"startTime":1522692084000,"endTime":1522693564000,"departureDelay":0,"arrivalDelay":0,"realTime":false,"distance":1958.094,"pathway":false,"mode":"WALK","route":"","agencyTimeZoneOffset":-14400000,"interlineWithPreviousLeg":false,"from":{"name":"nouveau","stopId":"1:2297","stopCode":"2297","lon":-71.02468,"lat":48.413593,"arrival":1522692083000,"departure":1522692084000,"zoneId":"NA","stopIndex":25,"stopSequence":26,"vertexType":"TRANSIT"},"to":{"name":"Destination","lon":-71.00349699,"lat":48.40344,"arrival":1522693564000,"orig":"","vertexType":"NORMAL"},"legGeometry":{"points":"axnfHb~npLTEp@KfBeAJGvOaPR[nBoCj@oAbBuDtAoDb@iAzHeSrFwN@CrIaUx@uBlEkLLYh@sA","length":20},"rentedBike":false,"transitLeg":false,"duration":1480.0,"steps":[{"distance":40.223,"relativeDirection":"DEPART","streetName":"Boulevard du Saguenay Est","absoluteDirection":"SOUTH","stayOn":false,"area":false,"bogusName":false,"lon":-71.02449091813529,"lat":48.41361228978169,"elevation":[]},{"distance":1917.8709999999999,"relativeDirection":"CONTINUE","streetName":"Boulevard Saint-Jean-Baptiste","absoluteDirection":"SOUTHEAST","stayOn":false,"area":false,"bogusName":false,"lon":-71.0244078,"lat":48.413254800000004,"elevation":[]}]}],"tooSloped":false},{"duration":2646,"startTime":1522691931000,"endTime":1522694577000,"walkTime":18,"transitTime":1762,"waitingTime":866,"walkDistance":22.433,"walkLimitExceeded":false,"elevationLost":0.0,"elevationGained":0.0,"transfers":2,"legs":[{"startTime":1522691931000,"endTime":1522691941000,"departureDelay":0,"arrivalDelay":0,"realTime":false,"distance":13.087,"pathway":false,"mode":"WALK","route":"","agencyTimeZoneOffset":-14400000,"interlineWithPreviousLeg":false,"from":{"name":"Origin","lon":-71.057621,"lat":48.452792,"departure":1522691931000,"orig":"","vertexType":"NORMAL"},"to":{"name":"Vimy 1963 (Ch) /","stopId":"1:757","stopCode":"757","lon":-71.0573,"lat":48.4526,"arrival":1522691941000,"departure":1522691942000,"zoneId":"NA","stopIndex":21,"stopSequence":22,"vertexType":"TRANSIT"},"legGeometry":{"points":"qlvfHpkupLTH","length":2},"rentedBike":false,"transitLeg":false,"duration":10.0,"steps":[{"distance":13.087,"relativeDirection":"DEPART","streetName":"Rue Fabre","absoluteDirection":"SOUTH","stayOn":false,"area":false,"bogusName":false,"lon":-71.0573628779569,"lat":48.4527370141666,"elevation":[]}]},{"startTime":1522691942000,"endTime":1522692600000,"departureDelay":0,"arrivalDelay":0,"realTime":false,"distance":4081.8423270011253,"pathway":false,"mode":"BUS","route":"22","agencyName":"Société de Transport du Saguenay","agencyUrl":"http://ville.saguenay.ca/fr/services-aux-citoyens/transport-sts","agencyTimeZoneOffset":-14400000,"routeColor":"C0C000","routeType":3,"routeId":"1:22","routeTextColor":"000000","interlineWithPreviousLeg":false,"tripBlockId":"1","headsign":"Terminus Chicoutimi","agencyId":"0","tripId":"1:217144","serviceDate":"20180402","from":{"name":"Vimy 1963 (Ch) /","stopId":"1:757","stopCode":"757","lon":-71.0573,"lat":48.4526,"arrival":1522691941000,"departure":1522691942000,"zoneId":"NA","stopIndex":21,"stopSequence":22,"vertexType":"TRANSIT"},"to":{"name":"Terminus Chicoutimi","stopId":"1:1289","stopCode":"1289","lon":-71.066163,"lat":48.428677,"arrival":1522692600000,"departure":1522692900000,"zoneId":"NA","stopIndex":35,"stopSequence":36,"vertexType":"TRANSIT"},"legGeometry":{"points":"ekvfHlkupLeA|He@hCo@|AiBbD~@^|IrDhAb@qAfJSzAMr@Yz@xAhDFNpBdFRp@Hl@Jz@BXXrCHl@Lh@Nf@r@nAr@r@`@PLFbAVH_AXeC@IdB_Mh@_EJk@x@x@bA`A|BrBnDrCl@f@|BlBrAbAj@d@ZTXNd@@lA[ZxDN|Ad@fAz@tB~AzDZ|@Zv@x@vBP\\h@~@PVrCmFhHqN~@eBr@cAt@_Av@}@RQPMz@k@tAe@REZG^Af@@X@VF`@Jn@XbClAr@Xt\\`PrAb@pA^hBTjAFj@Pb@JPHLLJNJRFXDT?X?ZEVEVKTMNMHMFOB}DWSGOSYcAN}FFkAF}DJyDd@wPV_HjAN~ALIzBQb@e@@","length":114},"routeShortName":"22","routeLongName":"Vanier","rentedBike":false,"transitLeg":true,"duration":658.0,"steps":[]},{"startTime":1522692900000,"endTime":1522693683000,"departureDelay":0,"arrivalDelay":0,"realTime":false,"distance":3542.2693364457004,"pathway":false,"mode":"BUS","route":"175","agencyName":"Société de Transport du Saguenay","agencyUrl":"http://ville.saguenay.ca/fr/services-aux-citoyens/transport-sts","agencyTimeZoneOffset":-14400000,"routeColor":"FF00FF","routeType":3,"routeId":"1:175","routeTextColor":"FFFFFF","interlineWithPreviousLeg":false,"tripBlockId":"6","headsign":"Costco","agencyId":"0","tripId":"1:217300","serviceDate":"20180402","from":{"name":"Terminus Chicoutimi","stopId":"1:1289","stopCode":"1289","lon":-71.066163,"lat":48.428677,"arrival":1522692600000,"departure":1522692900000,"zoneId":"NA","stopIndex":0,"stopSequence":1,"vertexType":"TRANSIT"},"to":{"name":"boul. Université / Murdock","stopId":"1:80","stopCode":"80","lon":-71.050111,"lat":48.411498,"arrival":1522693683000,"departure":1522694247000,"zoneId":"NA","stopIndex":14,"stopSequence":15,"vertexType":"TRANSIT"},"legGeometry":{"points":"kvqfH~awpL~CgBbAqa@FwCBkAOsHAg@bAYUwMKoE@mB@kJ@iFbEf@xEj@iCtYp@r@z@`ABBvHtHXRx@l@VwAvAgB\\qBIuAC]g@yEzDuLbBbBvAxAMx@|@v@`A~@Xw@~D~DPxFZtA~ApE`N{LpFmEb@[ROl@[vDQXKfA[|@q@fAsBlEmM","length":50},"routeShortName":"175","routeLongName":"Term. Chic / Costco","rentedBike":false,"transitLeg":true,"duration":783.0,"steps":[]},{"startTime":1522694247000,"endTime":1522694568000,"departureDelay":0,"arrivalDelay":0,"realTime":false,"distance":3784.165388843855,"pathway":false,"mode":"BUS","route":"5","agencyName":"Société de Transport du Saguenay","agencyUrl":"http://ville.saguenay.ca/fr/services-aux-citoyens/transport-sts","agencyTimeZoneOffset":-14400000,"routeColor":"FF0000","routeType":3,"routeId":"1:5","routeTextColor":"FFFFFF","interlineWithPreviousLeg":false,"tripBlockId":"25","headsign":"Terminus La Baie","agencyId":"0","tripId":"1:217943","serviceDate":"20180402","from":{"name":"boul. Université / Murdock","stopId":"1:80","stopCode":"80","lon":-71.050111,"lat":48.411498,"arrival":1522693683000,"departure":1522694247000,"zoneId":"NA","stopIndex":3,"stopSequence":4,"vertexType":"TRANSIT"},"to":{"name":"boul. St-Jean-Baptiste / Ste-Famille","stopId":"1:273","stopCode":"273","lon":-71.005229,"lat":48.401809,"arrival":1522694568000,"departure":1522694569000,"zoneId":"NA","stopIndex":9,"stopSequence":10,"vertexType":"TRANSIT"},"legGeometry":{"points":"gknfHx}spLtD{Kv@iHB_@FyAFsA@q@CeBKkDc@cIsFa{@QoBe@cHc@aEeC_Oa@iDk@iIMWxAo@\\UZUdDeD|IoJp@u@l@_Ah@{@f@{@DMp@uAt@iBnAgDrQme@lKwXnGoP","length":34},"routeShortName":"5","routeLongName":"Term. Chic/Term. Baie via St-J.Batiste","rentedBike":false,"transitLeg":true,"duration":321.0,"steps":[]},{"startTime":1522694569000,"endTime":1522694577000,"departureDelay":0,"arrivalDelay":0,"realTime":false,"distance":9.346,"pathway":false,"mode":"WALK","route":"","agencyTimeZoneOffset":-14400000,"interlineWithPreviousLeg":false,"from":{"name":"boul. St-Jean-Baptiste / Ste-Famille","stopId":"1:273","stopCode":"273","lon":-71.005229,"lat":48.401809,"arrival":1522694568000,"departure":1522694569000,"zoneId":"NA","stopIndex":9,"stopSequence":10,"vertexType":"TRANSIT"},"to":{"name":"Destination","lon":-71.00349699,"lat":48.40344,"arrival":1522694577000,"orig":"","vertexType":"NORMAL"},"legGeometry":{"points":"onlfHlekpLIR","length":2},"rentedBike":false,"transitLeg":false,"duration":8.0,"steps":[{"distance":9.346,"relativeDirection":"DEPART","streetName":"Boulevard Saint-Jean-Baptiste","absoluteDirection":"NORTHWEST","stayOn":false,"area":false,"bogusName":false,"lon":-71.00518930041385,"lat":48.40184322879472,"elevation":[]}]}],"tooSloped":false}]},"debugOutput":{"precalculationTime":8,"pathCalculationTime":38,"pathTimes":[17,12,8],"renderingTime":0,"totalTime":46,"timedOut":false},"elevationMetadata":{"ellipsoidToGeoidDifference":-28.885904201182168,"geoidElevation":false}}