{"requestParameters":{"date":"2018/04/02","walkSpeed":"1.33","walkReluctance":"2.0","fromPlace":"48.428491,-71.053774","maxWalkDistance":"3000","waitReluctance":"1.0","carSpeed":"33","numItineraries":"3","waitAtBeginningFactor":"0.4","mode":"TRANSIT,WALK","ignoreRealtimeUpdates":"false","stairsReluctance":"2.0","toPlace":"48.443669,-71.094263","time":"21:30:00"},"plan":{"date":1522719000000,"from":{"name":"Origin","lon":-71.053774,"lat":48.428491,"orig":"","vertexType":"NORMAL"},"to":{"name":"Destination","lon":-71.094263,"lat":48.443669,"orig":"","vertexType":"NORMAL"},"itineraries":[{"duration":1528,"startTime":1522719220000,"endTime":1522720748000,"walkTime":404,"transitTime":822,"waitingTime":302,"walkDistance":511.263548868323,"walkLimitExceeded":false,"elevationLost":0.0,"elevationGained":0.0,"transfers":1,"legs":[{"startTime":1522719220000,"endTime":1522719387000,"departureDelay":0,"arrivalDelay":0,"realTime":false,"distance":206.93200000000002,"pathway":false,"mode":"WALK","route":"","agencyTimeZoneOffset":-14400000,"interlineWithPreviousLeg":false,"from":{"name":"Origin","lon":-71.053774,"lat":48.428491,"departure":1522719220000,"orig":"","vertexType":"NORMAL"},"to":{"name":"Hôtel-Dieu / Riverin","stopId":"1:338","stopCode":"338","lon":-71.054073,"lat":48.427466,"arrival":1522719387000,"departure":1522719388000,"zoneId":"NA","stopIndex":21,"stopSequence":22,"vertexType":"TRANSIT"},"legGeometry":{"points":"}uqfHjutpLGy@jAGvBKd@CJBB~B","length":7},"rentedBike":false,"transitLeg":false,"duration":167.0,"steps":[{"distance":21.696,"relativeDirection":"DEPART","streetName":"Rue Racine Est","absoluteDirection":"EAST","stayOn":false,"area":false,"bogusName":false,"lon":-71.05381802863387,"lat":48.428636885427935,"elevation":[]},{"distance":137.486,"relativeDirection":"RIGHT","streetName":"Rue Bégin","absoluteDirection":"SOUTH","stayOn":false,"area":false,"bogusName":false,"lon":-71.0535297,"lat":48.4286752,"elevation":[]},{"distance":47.75,"relativeDirection":"RIGHT","streetName":"Rue de l'Hôtel-Dieu","absoluteDirection":"WEST","stayOn":false,"area":false,"bogusName":false,"lon":-71.0534231,"lat":48.4274435,"elevation":[]}]},{"startTime":1522719388000,"endTime":1522719600000,"departureDelay":0,"arrivalDelay":0,"realTime":false,"distance":920.881613318503,"pathway":false,"mode":"BUS","route":"175","agencyName":"Société de Transport du Saguenay","agencyUrl":"http://ville.saguenay.ca/fr/services-aux-citoyens/transport-sts","agencyTimeZoneOffset":-14400000,"routeColor":"FF00FF","routeType":3,"routeId":"1:175","routeTextColor":"FFFFFF","interlineWithPreviousLeg":false,"tripBlockId":"11","headsign":"Terminus Chicoutimi","agencyId":"0","tripId":"1:217491","serviceDate":"20180402","from":{"name":"Hôtel-Dieu / Riverin","stopId":"1:338","stopCode":"338","lon":-71.054073,"lat":48.427466,"arrival":1522719387000,"departure":1522719388000,"zoneId":"NA","stopIndex":21,"stopSequence":22,"vertexType":"TRANSIT"},"to":{"name":"Terminus Chicoutimi","stopId":"1:1289","stopCode":"1289","lon":-71.066163,"lat":48.428677,"arrival":1522719600000,"departure":1522719900000,"zoneId":"NA","stopIndex":27,"stopSequence":28,"vertexType":"TRANSIT"},"legGeometry":{"points":"enqfH|vtpLPjMB~Bo@PQDRbFKdGMhIOvIK|EQpHoCQEdC","length":13},"routeShortName":"175","routeLongName":"Term. Chic / Costco","rentedBike":false,"transitLeg":true,"duration":212.0,"steps":[]},{"startTime":1522719900000,"endTime":1522720510000,"departureDelay":0,"arrivalDelay":0,"realTime":false,"distance":3645.080887349274,"pathway":false,"mode":"BUS","route":"20","agencyName":"Société de Transport du Saguenay","agencyUrl":"http://ville.saguenay.ca/fr/services-aux-citoyens/transport-sts","agencyTimeZoneOffset":-14400000,"routeColor":"0000FF","routeType":3,"routeId":"1:20","routeTextColor":"FFFFFF","interlineWithPreviousLeg":false,"tripBlockId":"3","headsign":"Terminus Chicoutimi","agencyId":"0","tripId":"1:217217","serviceDate":"20180402","from":{"name":"Terminus Chicoutimi","stopId":"1:1289","stopCode":"1289","lon":-71.066163,"lat":48.428677,"arrival":1522719600000,"departure":1522719900000,"zoneId":"NA","stopIndex":0,"stopSequence":1,"vertexType":"TRANSIT"},"to":{"name":"St-Armand / Solange","stopId":"1:685","stopCode":"685","lon":-71.09082,"lat":48.445299,"arrival":1522720510000,"departure":1522720511000,"zoneId":"NA","stopIndex":9,"stopSequence":10,"vertexType":"TRANSIT"},"legGeometry":{"points":"evqfHzcwpLg@?UhKwAIWACp@O\\WjGOfGCRK^KJMHQB_AMg@Gw`@eR}@g@u@Su@Ia@Ck@Dm@HwAf@c@VeAx@iAlAU^[d@eLtTsAvBg@bAPVd@t@PNNF@@P?TI`@YLITGV?NBTFRNNP`@OLCHGHIFMDSR{ARaBbDdAb@H`Fd@EbAE`AIdBK`AOdAMd@EJKR}B~Bw@`Bs@dB]bAWb@q@jAaB|BkA~A}@nAu@IIAe@Cs@Fy@DWA[EUGyCgAU~@Sx@{A`FyBfHmDjJCDEVE`B?vFBjC@ZFX\\j@T^JVBNBV@RCbE?VCVy@nG","length":106},"routeShortName":"20","routeLongName":"Sainte-Claire","rentedBike":false,"transitLeg":true,"duration":610.0,"steps":[]},{"startTime":1522720511000,"endTime":1522720748000,"departureDelay":0,"arrivalDelay":0,"realTime":false,"distance":304.212,"pathway":false,"mode":"WALK","route":"","agencyTimeZoneOffset":-14400000,"interlineWithPreviousLeg":false,"from":{"name":"St-Armand / Solange","stopId":"1:685","stopCode":"685","lon":-71.09082,"lat":48.445299,"arrival":1522720510000,"departure":1522720511000,"zoneId":"NA","stopIndex":9,"stopSequence":10,"vertexType":"TRANSIT"},"to":{"name":"Destination","lon":-71.094263,"lat":48.443669,"arrival":1522720748000,"orig":"","vertexType":"NORMAL"},"legGeometry":{"points":"q}tfH`}{pLK\\`BrCrAlDb@lAFNBH@D@Db@bE@V","length":11},"rentedBike":false,"transitLeg":false,"duration":237.0,"steps":[{"distance":12.064,"relativeDirection":"DEPART","streetName":"Rue Saint-Armand","absoluteDirection":"NORTHWEST","stayOn":false,"area":false,"bogusName":false,"lon":-71.09088671811922,"lat":48.445218120417245,"elevation":[]},{"distance":292.148,"relativeDirection":"LEFT","streetName":"Rue Solange","absoluteDirection":"SOUTHWEST","stayOn":false,"area":false,"bogusName":false,"lon":-71.0910302,"lat":48.4452702,"elevation":[]}]}],"tooSloped":false},{"duration":2009,"startTime":1522719146000,"endTime":1522721155000,"walkTime":1620,"transitTime":387,"waitingTime":2,"walkDistance":2090.1116390911093,"walkLimitExceeded":false,"elevationLost":0.0,"elevationGained":0.0,"transfers":0,"legs":[{"startTime":1522719146000,"endTime":1522719899000,"departureDelay":0,"arrivalDelay":0,"realTime":false,"distance":976.6129999999999,"pathway":false,"mode":"WALK","route":"","agencyTimeZoneOffset":-14400000,"interlineWithPreviousLeg":false,"from":{"name":"Origin","lon":-71.053774,"lat":48.428491,"departure":1522719146000,"orig":"","vertexType":"NORMAL"},"to":{"name":"Terminus Chicoutimi","stopId":"1:1289","stopCode":"1289","lon":-71.066163,"lat":48.428677,"arrival":1522719899000,"departure":1522719900000,"zoneId":"NA","stopIndex":0,"stopSequence":1,"vertexType":"TRANSIT"},"legGeometry":{"points":"}uqfHjutpLTfDj@lBPt@lBnIFj@LhA?lB?JCrBA~@C~@EtAKpFAl@?RCv@IxEAh@GpBAXAj@SzHc@MKESAcAK","length":27},"rentedBike":false,"transitLeg":false,"duration":753.0,"steps":[{"distance":899.406,"relativeDirection":"DEPART","streetName":"Rue Racine Est","absoluteDirection":"WEST","stayOn":false,"area":false,"bogusName":false,"lon":-71.05381802863387,"lat":48.428636885427935,"elevation":[]},{"distance":77.207,"relativeDirection":"RIGHT","streetName":"Rue Morin","absoluteDirection":"NORTH","stayOn":false,"area":false,"bogusName":false,"lon":-71.0656238,"lat":48.4279449,"elevation":[]}]},{"startTime":1522719900000,"endTime":1522720287000,"departureDelay":0,"arrivalDelay":0,"realTime":false,"distance":2669.4064857723333,"pathway":false,"mode":"BUS","route":"23","agencyName":"Société de Transport du Saguenay","agencyUrl":"http://ville.saguenay.ca/fr/services-aux-citoyens/transport-sts","agencyTimeZoneOffset":-14400000,"routeColor":"FF00FF","routeType":3,"routeId":"1:23","routeTextColor":"FFFFFF","interlineWithPreviousLeg":false,"tripBlockId":"5","headsign":"Terminus Chicoutimi","agencyId":"0","tripId":"1:217280","serviceDate":"20180402","from":{"name":"Terminus Chicoutimi","stopId":"1:1289","stopCode":"1289","lon":-71.066163,"lat":48.428677,"arrival":1522719899000,"departure":1522719900000,"zoneId":"NA","stopIndex":0,"stopSequence":1,"vertexType":"TRANSIT"},"to":{"name":"St-Gérard / Pasteur","stopId":"1:727","stopCode":"727","lon":-71.084309,"lat":48.448719,"arrival":1522720287000,"departure":1522720288000,"zoneId":"NA","stopIndex":4,"stopSequence":5,"vertexType":"TRANSIT"},"legGeometry":{"points":"kwqfHjbwpLF_CkAOYCm@rRO\\WjGOfGCRK^KJMHQB_AMg@Gw`@eR}@g@u@Su@Ia@Ck@Dm@HwAf@c@VeAx@iAlAU^[d@eLtTsAvB_CvEuAnCmBlE}@|B_BvFoC`JCD}@hCo@~Aq@pAs@fA{BlCqH|Iq@Bq@Im@U","length":46},"routeShortName":"23","routeLongName":"Côte Verdun via Aréna du Plateau","rentedBike":false,"transitLeg":true,"duration":387.0,"steps":[]},{"startTime":1522720288000,"endTime":1522721155000,"departureDelay":0,"arrivalDelay":0,"realTime":false,"distance":1113.2930000000001,"pathway":false,"mode":"WALK","route":"","agencyTimeZoneOffset":-14400000,"interlineWithPreviousLeg":false,"from":{"name":"St-Gérard / Pasteur","stopId":"1:727","stopCode":"727","lon":-71.084309,"lat":48.448719,"arrival":1522720287000,"departure":1522720288000,"zoneId":"NA","stopIndex":4,"stopSequence":5,"vertexType":"TRANSIT"},"to":{"name":"Destination","lon":-71.094263,"lat":48.443669,"arrival":1522721155000,"orig":"","vertexType":"NORMAL"},"legGeometry":{"points":"_tufHptzpLJTv@lBN\\`@z@HF?Z?nDDnEFtIdABdA@@d@Df@DXFPN`@rA|C\\fAZdAJ\\jAeArCeAFI`BrCrAlDb@lAFNBH@D@Db@bE@V","length":33},"rentedBike":false,"transitLeg":false,"duration":867.0,"steps":[{"distance":75.98,"relativeDirection":"DEPART","streetName":"Rue Saint-Gérard","absoluteDirection":"SOUTHWEST","stayOn":false,"area":false,"bogusName":false,"lon":-71.0844008886955,"lat":48.448801303287965,"elevation":[]},{"distance":35.026,"relativeDirection":"CONTINUE","streetName":"Rue Sainte-Marie Sud","absoluteDirection":"SOUTHWEST","stayOn":false,"area":false,"bogusName":false,"lon":-71.08521470000001,"lat":48.448382800000005,"elevation":[]},{"distance":75.112,"relativeDirection":"RIGHT","streetName":"path","absoluteDirection":"WEST","stayOn":false,"area":false,"bogusName":true,"lon":-71.0855571,"lat":48.448167500000004,"elevation":[]},{"distance":203.02300000000002,"relativeDirection":"CONTINUE","streetName":"Rue Giffard","absoluteDirection":"WEST","stayOn":false,"area":false,"bogusName":false,"lon":-71.08657550000001,"lat":48.4481685,"elevation":[]},{"distance":78.416,"relativeDirection":"LEFT","streetName":"Rue Louis-XIV","absoluteDirection":"SOUTH","stayOn":false,"area":false,"bogusName":false,"lon":-71.0893258,"lat":48.4480966,"elevation":[]},{"distance":211.613,"relativeDirection":"RIGHT","streetName":"Rue Vallières","absoluteDirection":"WEST","stayOn":false,"area":false,"bogusName":false,"lon":-71.08935740000001,"lat":48.447391700000004,"elevation":[]},{"distance":141.975,"relativeDirection":"LEFT","streetName":"Rue Saint-Armand","absoluteDirection":"SOUTHEAST","stayOn":false,"area":false,"bogusName":false,"lon":-71.0917854,"lat":48.446433000000006,"elevation":[]},{"distance":292.148,"relativeDirection":"RIGHT","streetName":"Rue Solange","absoluteDirection":"SOUTHWEST","stayOn":false,"area":false,"bogusName":false,"lon":-71.0910302,"lat":48.4452702,"elevation":[]}]}],"tooSloped":false},{"duration":1602,"startTime":1522722746000,"endTime":1522724348000,"walkTime":990,"transitTime":610,"waitingTime":2,"walkDistance":1280.9178571398606,"walkLimitExceeded":false,"elevationLost":0.0,"elevationGained":0.0,"transfers":0,"legs":[{"startTime":1522722746000,"endTime":1522723499000,"departureDelay":0,"arrivalDelay":0,"realTime":false,"distance":976.6129999999999,"pathway":false,"mode":"WALK","route":"","agencyTimeZoneOffset":-14400000,"interlineWithPreviousLeg":false,"from":{"name":"Origin","lon":-71.053774,"lat":48.428491,"departure":1522722746000,"orig":"","vertexType":"NORMAL"},"to":{"name":"Terminus Chicoutimi","stopId":"1:1289","stopCode":"1289","lon":-71.066163,"lat":48.428677,"arrival":1522723499000,"departure":1522723500000,"zoneId":"NA","stopIndex":0,"stopSequence":1,"vertexType":"TRANSIT"},"legGeometry":{"points":"}uqfHjutpLTfDj@lBPt@lBnIFj@LhA?lB?JCrBA~@C~@EtAKpFAl@?RCv@IxEAh@GpBAXAj@SzHc@MKESAcAK","length":27},"rentedBike":false,"transitLeg":false,"duration":753.0,"steps":[{"distance":899.406,"relativeDirection":"DEPART","streetName":"Rue Racine Est","absoluteDirection":"WEST","stayOn":false,"area":false,"bogusName":false,"lon":-71.05381802863387,"lat":48.428636885427935,"elevation":[]},{"distance":77.207,"relativeDirection":"RIGHT","streetName":"Rue Morin","absoluteDirection":"NORTH","stayOn":false,"area":false,"bogusName":false,"lon":-71.0656238,"lat":48.4279449,"elevation":[]}]},{"startTime":1522723500000,"endTime":1522724110000,"departureDelay":0,"arrivalDelay":0,"realTime":false,"distance":3645.080887349274,"pathway":false,"mode":"BUS","route":"20","agencyName":"Société de Transport du Saguenay","agencyUrl":"http://ville.saguenay.ca/fr/services-aux-citoyens/transport-sts","agencyTimeZoneOffset":-14400000,"routeColor":"0000FF","routeType":3,"routeId":"1:20","routeTextColor":"FFFFFF","interlineWithPreviousLeg":false,"tripBlockId":"3","headsign":"Terminus Chicoutimi","agencyId":"0","tripId":"1:217219","serviceDate":"20180402","from":{"name":"Terminus Chicoutimi","stopId":"1:1289","stopCode":"1289","lon":-71.066163,"lat":48.428677,"arrival":1522723499000,"departure":1522723500000,"zoneId":"NA","stopIndex":0,"stopSequence":1,"vertexType":"TRANSIT"},"to":{"name":"St-Armand / Solange","stopId":"1:685","stopCode":"685","lon":-71.09082,"lat":48.445299,"arrival":1522724110000,"departure":1522724111000,"zoneId":"NA","stopIndex":9,"stopSequence":10,"vertexType":"TRANSIT"},"legGeometry":{"points":"evqfHzcwpLg@?UhKwAIWACp@O\\WjGOfGCRK^KJMHQB_AMg@Gw`@eR}@g@u@Su@Ia@Ck@Dm@HwAf@c@VeAx@iAlAU^[d@eLtTsAvBg@bAPVd@t@PNNF@@P?TI`@YLITGV?NBTFRNNP`@OLCHGHIFMDSR{ARaBbDdAb@H`Fd@EbAE`AIdBK`AOdAMd@EJKR}B~Bw@`Bs@dB]bAWb@q@jAaB|BkA~A}@nAu@IIAe@Cs@Fy@DWA[EUGyCgAU~@Sx@{A`FyBfHmDjJCDEVE`B?vFBjC@ZFX\\j@T^JVBNBV@RCbE?VCVy@nG","length":106},"routeShortName":"20","routeLongName":"Sainte-Claire","rentedBike":false,"transitLeg":true,"duration":610.0,"steps":[]},{"startTime":1522724111000,"endTime":1522724348000,"departureDelay":0,"arrivalDelay":0,"realTime":false,"distance":304.212,"pathway":false,"mode":"WALK","route":"","agencyTimeZoneOffset":-14400000,"interlineWithPreviousLeg":false,"from":{"name":"St-Armand / Solange","stopId":"1:685","stopCode":"685","lon":-71.09082,"lat":48.445299,"arrival":1522724110000,"departure":1522724111000,"zoneId":"NA","stopIndex":9,"stopSequence":10,"vertexType":"TRANSIT"},"to":{"name":"Destination","lon":-71.094263,"lat":48.443669,"arrival":1522724348000,"orig":"","vertexType":"NORMAL"},"legGeometry":{"points":"q}tfH`}{pLK\\`BrCrAlDb@lAFNBH@D@Db@bE@V","length":11},"rentedBike":false,"transitLeg":false,"duration":237.0,"steps":[{"distance":12.064,"relativeDirection":"DEPART","streetName":"Rue Saint-Armand","absoluteDirection":"NORTHWEST","stayOn":false,"area":false,"bogusName":false,"lon":-71.09088671811922,"lat":48.445218120417245,"elevation":[]},{"distance":292.148,"relativeDirection":"LEFT","streetName":"Rue Solange","absoluteDirection":"SOUTHWEST","stayOn":false,"area":false,"bogusName":false,"lon":-71.0910302,"lat":48.4452702,"elevation":[]}]}],"tooSloped":false}]},"debugOutput":{"precalculationTime":23,"pathCalculationTime":45,"pathTimes":[18,13,14],"renderingTime":1,"totalTime":69,"timedOut":false},"elevationMetadata":{"ellipsoidToGeoidDifference":-28.885904201182168,"geoidElevation":false}}