{"requestParameters":{"date":"2018/04/02","walkSpeed":"1.33","walkReluctance":"2.0","fromPlace":"48.429488,-71.05414899","maxWalkDistance":"3000","waitReluctance":"1.0","carSpeed":"33","numItineraries":"3","waitAtBeginningFactor":"0.4","mode":"TRANSIT,WALK","ignoreRealtimeUpdates":"false","stairsReluctance":"2.0","toPlace":"48.416151,-71.042574","time":"11:40:00"},"plan":{"date":1522683600000,"from":{"name":"Origin","lon":-71.05414899,"lat":48.429488,"orig":"","vertexType":"NORMAL"},"to":{"name":"Destination","lon":-71.042574,"lat":48.416151,"orig":"","vertexType":"NORMAL"},"itineraries":[{"duration":1000,"startTime":1522683831000,"endTime":1522684831000,"walkTime":389,"transitTime":609,"waitingTime":2,"walkDistance":489.90127819189803,"walkLimitExceeded":false,"elevationLost":0.0,"elevationGained":0.0,"transfers":0,"legs":[{"startTime":1522683831000,"endTime":1522684104000,"departureDelay":0,"arrivalDelay":0,"realTime":false,"distance":342.326,"pathway":false,"mode":"WALK","route":"","agencyTimeZoneOffset":-14400000,"interlineWithPreviousLeg":false,"from":{"name":"Origin","lon":-71.05414899,"lat":48.429488,"departure":1522683831000,"orig":"","vertexType":"NORMAL"},"to":{"name":"Hôtel-Dieu / Riverin","stopId":"1:339","stopCode":"339","lon":-71.054645,"lat":48.427256,"arrival":1522684104000,"departure":1522684105000,"zoneId":"NA","stopIndex":3,"stopSequence":4,"vertexType":"TRANSIT"},"legGeometry":{"points":"uzqfHfwtpLD`@RlC\\tBPI~By@NGfD{@LAPDNs@","length":11},"rentedBike":false,"transitLeg":false,"duration":273.0,"steps":[{"distance":112.673,"relativeDirection":"DEPART","streetName":"Rue du Havre","absoluteDirection":"WEST","stayOn":false,"area":false,"bogusName":false,"lon":-71.054118425196,"lat":48.42939302841473,"elevation":[]},{"distance":208.215,"relativeDirection":"LEFT","streetName":"Rue Riverin","absoluteDirection":"SOUTH","stayOn":false,"area":false,"bogusName":false,"lon":-71.05558330000001,"lat":48.429117600000005,"elevation":[]},{"distance":21.438,"relativeDirection":"LEFT","streetName":"Rue Saint-François-Xavier","absoluteDirection":"SOUTHEAST","stayOn":false,"area":false,"bogusName":false,"lon":-71.0549292,"lat":48.427308700000005,"elevation":[]}]},{"startTime":1522684105000,"endTime":1522684714000,"departureDelay":0,"arrivalDelay":0,"realTime":false,"distance":3097.961287250243,"pathway":false,"mode":"BUS","route":"10","agencyName":"Société de Transport du Saguenay","agencyUrl":"http://ville.saguenay.ca/fr/services-aux-citoyens/transport-sts","agencyTimeZoneOffset":-14400000,"routeColor":"0000FF","routeType":3,"routeId":"1:10","routeTextColor":"FFFFFF","interlineWithPreviousLeg":false,"tripBlockId":"26","headsign":"Terminus UQAC","agencyId":"0","tripId":"1:217974","serviceDate":"20180402","from":{"name":"Hôtel-Dieu / Riverin","stopId":"1:339","stopCode":"339","lon":-71.054645,"lat":48.427256,"arrival":1522684104000,"departure":1522684105000,"zoneId":"NA","stopIndex":3,"stopSequence":4,"vertexType":"TRANSIT"},"to":{"name":"Chabanel / Scott","stopId":"1:353","stopCode":"353","lon":-71.041293,"lat":48.415832,"arrival":1522684714000,"departure":1522684715000,"zoneId":"NA","stopIndex":17,"stopSequence":18,"vertexType":"TRANSIT"},"legGeometry":{"points":"enqfHrztpLIuF@gA?eH?cAEuEDO^AjD`@B@rEf@T_FjBXpDd@hCObDaCfCaHbFqN`CwG_J_CwMiDGe@T}C\\yELaCJeAJcAXw@Fk@M_@xBwVr@^LJ|@z@HdAlBbD`Av@b@\\v@d@`@BpBAzAXl@t@XZt@lCl@tAnBpB~@~@lDjDr@r@zDrD","length":51},"routeShortName":"10","routeLongName":"Notre-Dame du Saguenay","rentedBike":false,"transitLeg":true,"duration":609.0,"steps":[]},{"startTime":1522684715000,"endTime":1522684831000,"departureDelay":0,"arrivalDelay":0,"realTime":false,"distance":147.464,"pathway":false,"mode":"WALK","route":"","agencyTimeZoneOffset":-14400000,"interlineWithPreviousLeg":false,"from":{"name":"Chabanel / Scott","stopId":"1:353","stopCode":"353","lon":-71.041293,"lat":48.415832,"arrival":1522684714000,"departure":1522684715000,"zoneId":"NA","stopIndex":17,"stopSequence":18,"vertexType":"TRANSIT"},"to":{"name":"Destination","lon":-71.042574,"lat":48.416151,"arrival":1522684831000,"orig":"","vertexType":"NORMAL"},"legGeometry":{"points":"qeofHhfrpLx@v@aB~F","length":3},"rentedBike":false,"transitLeg":false,"duration":116.0,"steps":[{"distance":38.198,"relativeDirection":"DEPART","streetName":"Rue Chabanel","absoluteDirection":"SOUTHWEST","stayOn":false,"area":false,"bogusName":false,"lon":-71.04116166377808,"lat":48.41577614538526,"elevation":[]},{"distance":109.266,"relativeDirection":"RIGHT","streetName":"Rue Scott","absoluteDirection":"NORTHWEST","stayOn":false,"area":false,"bogusName":false,"lon":-71.0414409,"lat":48.415486900000005,"elevation":[]}]}],"tooSloped":false},{"duration":1702,"startTime":1522683600000,"endTime":1522685302000,"walkTime":1702,"transitTime":0,"waitingTime":0,"walkDistance":2179.9022255529317,"walkLimitExceeded":false,"elevationLost":0.0,"elevationGained":0.0,"transfers":0,"legs":[{"startTime":1522683600000,"endTime":1522685302000,"departureDelay":0,"arrivalDelay":0,"realTime":false,"distance":2179.5620000000004,"pathway":false,"mode":"WALK","route":"","agencyTimeZoneOffset":-14400000,"interlineWithPreviousLeg":false,"from":{"name":"Origin","lon":-71.05414899,"lat":48.429488,"departure":1522683600000,"orig":"","vertexType":"NORMAL"},"to":{"name":"Destination","lon":-71.042574,"lat":48.416151,"arrival":1522685302000,"orig":"","vertexType":"NORMAL"},"legGeometry":{"points":"uzqfHfwtpLQgCzC]Ck@AWKgCCo@TEVEdBWp@Mb@G^MpKlAn@PLQHMVWVOXBLDXJ?G`@cDh@qCN_@BDp@XLFBg@Ha@Ry@r@E|@Yh@g@FE`A_A\\a@n@wAl@eBn@cBRk@nBoFnAgDFSNa@nAoDJ[L_@RJpCxAt@^RRt@h@~BdBn@uBbAiDfAaElBdANf@Ps@Ty@","length":62},"rentedBike":false,"transitLeg":false,"duration":1702.0,"steps":[{"distance":51.365,"relativeDirection":"DEPART","streetName":"Rue du Havre","absoluteDirection":"EAST","stayOn":false,"area":false,"bogusName":false,"lon":-71.054118425196,"lat":48.42939302841473,"elevation":[]},{"distance":87.53,"relativeDirection":"RIGHT","streetName":"Rue Salaberry","absoluteDirection":"SOUTH","stayOn":false,"area":false,"bogusName":false,"lon":-71.05343760000001,"lat":48.4294895,"elevation":[]},{"distance":93.866,"relativeDirection":"LEFT","streetName":"Rue Racine Est","absoluteDirection":"EAST","stayOn":false,"area":false,"bogusName":false,"lon":-71.0532845,"lat":48.428708900000004,"elevation":[]},{"distance":375.644,"relativeDirection":"RIGHT","streetName":"Rue du Séminaire","absoluteDirection":"SOUTH","stayOn":false,"area":false,"bogusName":false,"lon":-71.0520228,"lat":48.4288171,"elevation":[]},{"distance":253.139,"relativeDirection":"CONTINUE","streetName":"service road","absoluteDirection":"SOUTH","stayOn":false,"area":false,"bogusName":true,"lon":-71.05205670000001,"lat":48.4254766,"elevation":[]},{"distance":40.77,"relativeDirection":"RIGHT","streetName":"road","absoluteDirection":"SOUTH","stayOn":true,"area":false,"bogusName":true,"lon":-71.0501431,"lat":48.4240852,"elevation":[]},{"distance":52.897,"relativeDirection":"LEFT","streetName":"path","absoluteDirection":"EAST","stayOn":true,"area":false,"bogusName":true,"lon":-71.0503491,"lat":48.423747000000006,"elevation":[]},{"distance":628.098,"relativeDirection":"RIGHT","streetName":"Chemin Sydenham","absoluteDirection":"SOUTH","stayOn":false,"area":false,"bogusName":false,"lon":-71.0496871,"lat":48.42357620000001,"elevation":[]},{"distance":260.112,"relativeDirection":"RIGHT","streetName":"Boulevard Talbot","absoluteDirection":"SOUTH","stayOn":false,"area":false,"bogusName":false,"lon":-71.04364480000001,"lat":48.4198596,"elevation":[]},{"distance":206.23399999999998,"relativeDirection":"LEFT","streetName":"Rue D'Iberville","absoluteDirection":"SOUTHEAST","stayOn":false,"area":false,"bogusName":false,"lon":-71.0451359,"lat":48.417743800000004,"elevation":[]},{"distance":129.907,"relativeDirection":"RIGHT","streetName":"Rue Scott","absoluteDirection":"SOUTHWEST","stayOn":false,"area":false,"bogusName":false,"lon":-71.0427244,"lat":48.4168072,"elevation":[]}]}],"tooSloped":false},{"duration":1000,"startTime":1522685631000,"endTime":1522686631000,"walkTime":389,"transitTime":609,"waitingTime":2,"walkDistance":489.90127819189803,"walkLimitExceeded":false,"elevationLost":0.0,"elevationGained":0.0,"transfers":0,"legs":[{"startTime":1522685631000,"endTime":1522685904000,"departureDelay":0,"arrivalDelay":0,"realTime":false,"distance":342.326,"pathway":false,"mode":"WALK","route":"","agencyTimeZoneOffset":-14400000,"interlineWithPreviousLeg":false,"from":{"name":"Origin","lon":-71.05414899,"lat":48.429488,"departure":1522685631000,"orig":"","vertexType":"NORMAL"},"to":{"name":"Hôtel-Dieu / Riverin","stopId":"1:339","stopCode":"339","lon":-71.054645,"lat":48.427256,"arrival":1522685904000,"departure":1522685905000,"zoneId":"NA","stopIndex":3,"stopSequence":4,"vertexType":"TRANSIT"},"legGeometry":{"points":"uzqfHfwtpLD`@RlC\\tBPI~By@NGfD{@LAPDNs@","length":11},"rentedBike":false,"transitLeg":false,"duration":273.0,"steps":[{"distance":112.673,"relativeDirection":"DEPART","streetName":"Rue du Havre","absoluteDirection":"WEST","stayOn":false,"area":false,"bogusName":false,"lon":-71.054118425196,"lat":48.42939302841473,"elevation":[]},{"distance":208.215,"relativeDirection":"LEFT","streetName":"Rue Riverin","absoluteDirection":"SOUTH","stayOn":false,"area":false,"bogusName":false,"lon":-71.05558330000001,"lat":48.429117600000005,"elevation":[]},{"distance":21.438,"relativeDirection":"LEFT","streetName":"Rue Saint-François-Xavier","absoluteDirection":"SOUTHEAST","stayOn":false,"area":false,"bogusName":false,"lon":-71.0549292,"lat":48.427308700000005,"elevation":[]}]},{"startTime":1522685905000,"endTime":1522686514000,"departureDelay":0,"arrivalDelay":0,"realTime":false,"distance":3097.961287250243,"pathway":false,"mode":"BUS","route":"10","agencyName":"Société de Transport du Saguenay","agencyUrl":"http://ville.saguenay.ca/fr/services-aux-citoyens/transport-sts","agencyTimeZoneOffset":-14400000,"routeColor":"0000FF","routeType":3,"routeId":"1:10","routeTextColor":"FFFFFF","interlineWithPreviousLeg":false,"tripBlockId":"29","headsign":"Terminus UQAC","agencyId":"0","tripId":"1:218063","serviceDate":"20180402","from":{"name":"Hôtel-Dieu / Riverin","stopId":"1:339","stopCode":"339","lon":-71.054645,"lat":48.427256,"arrival":1522685904000,"departure":1522685905000,"zoneId":"NA","stopIndex":3,"stopSequence":4,"vertexType":"TRANSIT"},"to":{"name":"Chabanel / Scott","stopId":"1:353","stopCode":"353","lon":-71.041293,"lat":48.415832,"arrival":1522686514000,"departure":1522686515000,"zoneId":"NA","stopIndex":17,"stopSequence":18,"vertexType":"TRANSIT"},"legGeometry":{"points":"enqfHrztpLIuF@gA?eH?cAEuEDO^AjD`@B@rEf@T_FjBXpDd@hCObDaCfCaHbFqN`CwG_J_CwMiDGe@T}C\\yELaCJeAJcAXw@Fk@M_@xBwVr@^LJ|@z@HdAlBbD`Av@b@\\v@d@`@BpBAzAXl@t@XZt@lCl@tAnBpB~@~@lDjDr@r@zDrD","length":51},"routeShortName":"10","routeLongName":"Notre-Dame du Saguenay","rentedBike":false,"transitLeg":true,"duration":609.0,"steps":[]},{"startTime":1522686515000,"endTime":1522686631000,"departureDelay":0,"arrivalDelay":0,"realTime":false,"distance":147.464,"pathway":false,"mode":"WALK","route":"","agencyTimeZoneOffset":-14400000,"interlineWithPreviousLeg":false,"from":{"name":"Chabanel / Scott","stopId":"1:353","stopCode":"353","lon":-71.041293,"lat":48.415832,"arrival":1522686514000,"departure":1522686515000,"zoneId":"NA","stopIndex":17,"stopSequence":18,"vertexType":"TRANSIT"},"to":{"name":"Destination","lon":-71.042574,"lat":48.416151,"arrival":1522686631000,"orig":"","vertexType":"NORMAL"},"legGeometry":{"points":"qeofHhfrpLx@v@aB~F","length":3},"rentedBike":false,"transitLeg":false,"duration":116.0,"steps":[{"distance":38.198,"relativeDirection":"DEPART","streetName":"Rue Chabanel","absoluteDirection":"SOUTHWEST","stayOn":false,"area":false,"bogusName":false,"lon":-71.04116166377808,"lat":48.41577614538526,"elevation":[]},{"distance":109.266,"relativeDirection":"RIGHT","streetName":"Rue Scott","absoluteDirection":"NORTHWEST","stayOn":false,"area":false,"bogusName":false,"lon":-71.0414409,"lat":48.415486900000005,"elevation":[]}]}],"tooSloped":false}]},"debugOutput":{"precalculationTime":62,"pathCalculationTime":31,"pathTimes":[15,6,10],"renderingTime":1,"totalTime":94,"timedOut":false},"elevationMetadata":{"ellipsoidToGeoidDifference":-28.885904201182168,"geoidElevation":false}}