{"requestParameters":{"date":"2018/04/02","walkSpeed":"1.33","walkReluctance":"2.0","fromPlace":"48.43338,-71.092507","maxWalkDistance":"3000","waitReluctance":"1.0","carSpeed":"33","numItineraries":"3","waitAtBeginningFactor":"0.4","mode":"TRANSIT,WALK","ignoreRealtimeUpdates":"false","stairsReluctance":"2.0","toPlace":"48.426591,-71.057782","time":"22:15:00"},"plan":{"date":1522721700000,"from":{"name":"Origin","lon":-71.092507,"lat":48.43338,"orig":"","vertexType":"NORMAL"},"to":{"name":"Destination","lon":-71.057782,"lat":48.426591,"orig":"","vertexType":"NORMAL"},"itineraries":[{"duration":1002,"startTime":1522722844000,"endTime":1522723846000,"walkTime":375,"transitTime":625,"waitingTime":2,"walkDistance":468.6153759349975,"walkLimitExceeded":false,"elevationLost":0.0,"elevationGained":0.0,"transfers":0,"legs":[{"startTime":1522722844000,"endTime":1522723027000,"departureDelay":0,"arrivalDelay":0,"realTime":false,"distance":230.038,"pathway":false,"mode":"WALK","route":"","agencyTimeZoneOffset":-14400000,"interlineWithPreviousLeg":false,"from":{"name":"Origin","lon":-71.092507,"lat":48.43338,"departure":1522722844000,"orig":"","vertexType":"NORMAL"},"to":{"name":"boul. Saguenay / Ste-Monique","stopId":"1:157","stopCode":"157","lon":-71.093617,"lat":48.434375,"arrival":1522723027000,"departure":1522723028000,"zoneId":"NA","stopIndex":28,"stopSequence":29,"vertexType":"TRANSIT"},"legGeometry":{"points":"wrrfHlg|pLEz@_ASe@GyBe@MxE","length":6},"rentedBike":false,"transitLeg":false,"duration":183.0,"steps":[{"distance":22.906,"relativeDirection":"DEPART","streetName":"Rue Harry","absoluteDirection":"WEST","stayOn":false,"area":false,"bogusName":false,"lon":-71.09254142506498,"lat":48.433244305799406,"elevation":[]},{"distance":126.461,"relativeDirection":"RIGHT","streetName":"Rue Simard","absoluteDirection":"NORTH","stayOn":false,"area":false,"bogusName":false,"lon":-71.0928476,"lat":48.4332785,"elevation":[]},{"distance":80.671,"relativeDirection":"LEFT","streetName":"Boulevard du Saguenay Ouest","absoluteDirection":"WEST","stayOn":false,"area":false,"bogusName":false,"lon":-71.0925151,"lat":48.434394000000005,"elevation":[]}]},{"startTime":1522723028000,"endTime":1522723260000,"departureDelay":0,"arrivalDelay":0,"realTime":false,"distance":2132.1754044803006,"pathway":false,"mode":"BUS","route":"3","agencyName":"Société de Transport du Saguenay","agencyUrl":"http://ville.saguenay.ca/fr/services-aux-citoyens/transport-sts","agencyTimeZoneOffset":-14400000,"routeColor":"FF0000","routeType":3,"routeId":"1:3","routeTextColor":"FFFFFF","interlineWithPreviousLeg":false,"tripBlockId":"8","headsign":"Terminus Chicoutimi","agencyId":"0","tripId":"1:217388","serviceDate":"20180402","from":{"name":"boul. Saguenay / Ste-Monique","stopId":"1:157","stopCode":"157","lon":-71.093617,"lat":48.434375,"arrival":1522723027000,"departure":1522723028000,"zoneId":"NA","stopIndex":28,"stopSequence":29,"vertexType":"TRANSIT"},"to":{"name":"Terminus Chicoutimi","stopId":"1:1289","stopCode":"1289","lon":-71.066163,"lat":48.428677,"arrival":1522723260000,"departure":1522723500000,"zoneId":"NA","stopIndex":32,"stopSequence":33,"vertexType":"TRANSIT"},"legGeometry":{"points":"gzrfH`n|pLNgEPwH^_HPiDN_BZcB`@mAxGgV|Ju^\\eBVgBLcB|@}^FkAF}DJyDPwGvAHVyL","length":20},"routeShortName":"3","routeLongName":"Chic/Jonq via Boul. Saguenay","rentedBike":false,"transitLeg":true,"duration":232.0,"steps":[]},{"startTime":1522723500000,"endTime":1522723653000,"departureDelay":0,"arrivalDelay":0,"realTime":false,"distance":669.0312154213282,"pathway":false,"mode":"BUS","route":"175","agencyName":"Société de Transport du Saguenay","agencyUrl":"http://ville.saguenay.ca/fr/services-aux-citoyens/transport-sts","agencyTimeZoneOffset":-14400000,"routeColor":"FF00FF","routeType":3,"routeId":"1:175","routeTextColor":"FFFFFF","interlineWithPreviousLeg":true,"tripBlockId":"8","headsign":"Costco","agencyId":"0","tripId":"1:217389","serviceDate":"20180402","from":{"name":"Terminus Chicoutimi","stopId":"1:1289","stopCode":"1289","lon":-71.066163,"lat":48.428677,"arrival":1522723260000,"departure":1522723500000,"zoneId":"NA","stopIndex":0,"stopSequence":1,"vertexType":"TRANSIT"},"to":{"name":"Racine / Labrecque","stopId":"1:515","stopCode":"515","lon":-71.057333,"lat":48.427512,"arrival":1522723653000,"departure":1522723654000,"zoneId":"NA","stopIndex":2,"stopSequence":3,"vertexType":"TRANSIT"},"legGeometry":{"points":"kvqfH~awpL~CgBbAqa@FwCBkAOsH","length":6},"routeShortName":"175","routeLongName":"Term. Chic / Costco","rentedBike":false,"transitLeg":true,"duration":153.0,"steps":[]},{"startTime":1522723654000,"endTime":1522723846000,"departureDelay":0,"arrivalDelay":0,"realTime":false,"distance":238.42700000000002,"pathway":false,"mode":"WALK","route":"","agencyTimeZoneOffset":-14400000,"interlineWithPreviousLeg":false,"from":{"name":"Racine / Labrecque","stopId":"1:515","stopCode":"515","lon":-71.057333,"lat":48.427512,"arrival":1522723653000,"departure":1522723654000,"zoneId":"NA","stopIndex":2,"stopSequence":3,"vertexType":"TRANSIT"},"to":{"name":"Destination","lon":-71.057782,"lat":48.426591,"arrival":1522723846000,"orig":"","vertexType":"NORMAL"},"legGeometry":{"points":"soqfHrkupLGk@\\Gn@OPERC^?nCJGzC","length":9},"rentedBike":false,"transitLeg":false,"duration":192.0,"steps":[{"distance":17.207,"relativeDirection":"DEPART","streetName":"Rue Racine Est","absoluteDirection":"EAST","stayOn":false,"area":false,"bogusName":false,"lon":-71.05737919931526,"lat":48.42762116546726,"elevation":[]},{"distance":163.66,"relativeDirection":"RIGHT","streetName":"Rue Labrecque","absoluteDirection":"SOUTH","stayOn":false,"area":false,"bogusName":false,"lon":-71.0571547,"lat":48.427663,"elevation":[]},{"distance":57.56,"relativeDirection":"RIGHT","streetName":"Rue Jacques-Cartier Est","absoluteDirection":"WEST","stayOn":false,"area":false,"bogusName":false,"lon":-71.05704440000001,"lat":48.4262037,"elevation":[]}]}],"tooSloped":false},{"duration":1002,"startTime":1522724644000,"endTime":1522725646000,"walkTime":375,"transitTime":625,"waitingTime":2,"walkDistance":468.6153759349975,"walkLimitExceeded":false,"elevationLost":0.0,"elevationGained":0.0,"transfers":0,"legs":[{"startTime":1522724644000,"endTime":1522724827000,"departureDelay":0,"arrivalDelay":0,"realTime":false,"distance":230.038,"pathway":false,"mode":"WALK","route":"","agencyTimeZoneOffset":-14400000,"interlineWithPreviousLeg":false,"from":{"name":"Origin","lon":-71.092507,"lat":48.43338,"departure":1522724644000,"orig":"","vertexType":"NORMAL"},"to":{"name":"boul. Saguenay / Ste-Monique","stopId":"1:157","stopCode":"157","lon":-71.093617,"lat":48.434375,"arrival":1522724827000,"departure":1522724828000,"zoneId":"NA","stopIndex":28,"stopSequence":29,"vertexType":"TRANSIT"},"legGeometry":{"points":"wrrfHlg|pLEz@_ASe@GyBe@MxE","length":6},"rentedBike":false,"transitLeg":false,"duration":183.0,"steps":[{"distance":22.906,"relativeDirection":"DEPART","streetName":"Rue Harry","absoluteDirection":"WEST","stayOn":false,"area":false,"bogusName":false,"lon":-71.09254142506498,"lat":48.433244305799406,"elevation":[]},{"distance":126.461,"relativeDirection":"RIGHT","streetName":"Rue Simard","absoluteDirection":"NORTH","stayOn":false,"area":false,"bogusName":false,"lon":-71.0928476,"lat":48.4332785,"elevation":[]},{"distance":80.671,"relativeDirection":"LEFT","streetName":"Boulevard du Saguenay Ouest","absoluteDirection":"WEST","stayOn":false,"area":false,"bogusName":false,"lon":-71.0925151,"lat":48.434394000000005,"elevation":[]}]},{"startTime":1522724828000,"endTime":1522725060000,"departureDelay":0,"arrivalDelay":0,"realTime":false,"distance":2132.1754044803006,"pathway":false,"mode":"BUS","route":"3","agencyName":"Société de Transport du Saguenay","agencyUrl":"http://ville.saguenay.ca/fr/services-aux-citoyens/transport-sts","agencyTimeZoneOffset":-14400000,"routeColor":"FF0000","routeType":3,"routeId":"1:3","routeTextColor":"FFFFFF","interlineWithPreviousLeg":false,"tripBlockId":"6","headsign":"Terminus Chicoutimi","agencyId":"0","tripId":"1:217317","serviceDate":"20180402","from":{"name":"boul. Saguenay / Ste-Monique","stopId":"1:157","stopCode":"157","lon":-71.093617,"lat":48.434375,"arrival":1522724827000,"departure":1522724828000,"zoneId":"NA","stopIndex":28,"stopSequence":29,"vertexType":"TRANSIT"},"to":{"name":"Terminus Chicoutimi","stopId":"1:1289","stopCode":"1289","lon":-71.066163,"lat":48.428677,"arrival":1522725060000,"departure":1522725300000,"zoneId":"NA","stopIndex":32,"stopSequence":33,"vertexType":"TRANSIT"},"legGeometry":{"points":"gzrfH`n|pLNgEPwH^_HPiDN_BZcB`@mAxGgV|Ju^\\eBVgBLcB|@}^FkAF}DJyDPwGvAHVyL","length":20},"routeShortName":"3","routeLongName":"Chic/Jonq via Boul. Saguenay","rentedBike":false,"transitLeg":true,"duration":232.0,"steps":[]},{"startTime":1522725300000,"endTime":1522725453000,"departureDelay":0,"arrivalDelay":0,"realTime":false,"distance":669.0312154213282,"pathway":false,"mode":"BUS","route":"175","agencyName":"Société de Transport du Saguenay","agencyUrl":"http://ville.saguenay.ca/fr/services-aux-citoyens/transport-sts","agencyTimeZoneOffset":-14400000,"routeColor":"FF00FF","routeType":3,"routeId":"1:175","routeTextColor":"FFFFFF","interlineWithPreviousLeg":true,"tripBlockId":"6","headsign":"Costco","agencyId":"0","tripId":"1:217318","serviceDate":"20180402","from":{"name":"Terminus Chicoutimi","stopId":"1:1289","stopCode":"1289","lon":-71.066163,"lat":48.428677,"arrival":1522725060000,"departure":1522725300000,"zoneId":"NA","stopIndex":0,"stopSequence":1,"vertexType":"TRANSIT"},"to":{"name":"Racine / Labrecque","stopId":"1:515","stopCode":"515","lon":-71.057333,"lat":48.427512,"arrival":1522725453000,"departure":1522725454000,"zoneId":"NA","stopIndex":2,"stopSequence":3,"vertexType":"TRANSIT"},"legGeometry":{"points":"kvqfH~awpL~CgBbAqa@FwCBkAOsH","length":6},"routeShortName":"175","routeLongName":"Term. Chic / Costco","rentedBike":false,"transitLeg":true,"duration":153.0,"steps":[]},{"startTime":1522725454000,"endTime":1522725646000,"departureDelay":0,"arrivalDelay":0,"realTime":false,"distance":238.42700000000002,"pathway":false,"mode":"WALK","route":"","agencyTimeZoneOffset":-14400000,"interlineWithPreviousLeg":false,"from":{"name":"Racine / Labrecque","stopId":"1:515","stopCode":"515","lon":-71.057333,"lat":48.427512,"arrival":1522725453000,"departure":1522725454000,"zoneId":"NA","stopIndex":2,"stopSequence":3,"vertexType":"TRANSIT"},"to":{"name":"Destination","lon":-71.057782,"lat":48.426591,"arrival":1522725646000,"orig":"","vertexType":"NORMAL"},"legGeometry":{"points":"soqfHrkupLGk@\\Gn@OPERC^?nCJGzC","length":9},"rentedBike":false,"transitLeg":false,"duration":192.0,"steps":[{"distance":17.207,"relativeDirection":"DEPART","streetName":"Rue Racine Est","absoluteDirection":"EAST","stayOn":false,"area":false,"bogusName":false,"lon":-71.05737919931526,"lat":48.42762116546726,"elevation":[]},{"distance":163.66,"relativeDirection":"RIGHT","streetName":"Rue Labrecque","absoluteDirection":"SOUTH","stayOn":false,"area":false,"bogusName":false,"lon":-71.0571547,"lat":48.427663,"elevation":[]},{"distance":57.56,"relativeDirection":"RIGHT","streetName":"Rue Jacques-Cartier Est","absoluteDirection":"WEST","stayOn":false,"area":false,"bogusName":false,"lon":-71.05704440000001,"lat":48.4262037,"elevation":[]}]}],"tooSloped":false},{"duration":1055,"startTime":1522726444000,"endTime":1522727499000,"walkTime":821,"transitTime":232,"waitingTime":2,"walkDistance":1048.1986616504355,"walkLimitExceeded":false,"elevationLost":0.0,"elevationGained":0.0,"transfers":0,"legs":[{"startTime":1522726444000,"endTime":1522726627000,"departureDelay":0,"arrivalDelay":0,"realTime":false,"distance":230.038,"pathway":false,"mode":"WALK","route":"","agencyTimeZoneOffset":-14400000,"interlineWithPreviousLeg":false,"from":{"name":"Origin","lon":-71.092507,"lat":48.43338,"departure":1522726444000,"orig":"","vertexType":"NORMAL"},"to":{"name":"boul. Saguenay / Ste-Monique","stopId":"1:157","stopCode":"157","lon":-71.093617,"lat":48.434375,"arrival":1522726627000,"departure":1522726628000,"zoneId":"NA","stopIndex":28,"stopSequence":29,"vertexType":"TRANSIT"},"legGeometry":{"points":"wrrfHlg|pLEz@_ASe@GyBe@MxE","length":6},"rentedBike":false,"transitLeg":false,"duration":183.0,"steps":[{"distance":22.906,"relativeDirection":"DEPART","streetName":"Rue Harry","absoluteDirection":"WEST","stayOn":false,"area":false,"bogusName":false,"lon":-71.09254142506498,"lat":48.433244305799406,"elevation":[]},{"distance":126.461,"relativeDirection":"RIGHT","streetName":"Rue Simard","absoluteDirection":"NORTH","stayOn":false,"area":false,"bogusName":false,"lon":-71.0928476,"lat":48.4332785,"elevation":[]},{"distance":80.671,"relativeDirection":"LEFT","streetName":"Boulevard du Saguenay Ouest","absoluteDirection":"WEST","stayOn":false,"area":false,"bogusName":false,"lon":-71.0925151,"lat":48.434394000000005,"elevation":[]}]},{"startTime":1522726628000,"endTime":1522726860000,"departureDelay":0,"arrivalDelay":0,"realTime":false,"distance":2132.1754044803006,"pathway":false,"mode":"BUS","route":"3","agencyName":"Société de Transport du Saguenay","agencyUrl":"http://ville.saguenay.ca/fr/services-aux-citoyens/transport-sts","agencyTimeZoneOffset":-14400000,"routeColor":"FF0000","routeType":3,"routeId":"1:3","routeTextColor":"FFFFFF","interlineWithPreviousLeg":false,"tripBlockId":"7","headsign":"Terminus Chicoutimi","agencyId":"0","tripId":"1:217354","serviceDate":"20180402","from":{"name":"boul. Saguenay / Ste-Monique","stopId":"1:157","stopCode":"157","lon":-71.093617,"lat":48.434375,"arrival":1522726627000,"departure":1522726628000,"zoneId":"NA","stopIndex":28,"stopSequence":29,"vertexType":"TRANSIT"},"to":{"name":"Terminus Chicoutimi","stopId":"1:1289","stopCode":"1289","lon":-71.066163,"lat":48.428677,"arrival":1522726860000,"departure":1522726861000,"zoneId":"NA","stopIndex":32,"stopSequence":33,"vertexType":"TRANSIT"},"legGeometry":{"points":"gzrfH`n|pLNgEPwH^_HPiDN_BZcB`@mAxGgV|Ju^\\eBVgBLcB|@}^FkAF}DJyDPwGvAHVyL","length":20},"routeShortName":"3","routeLongName":"Chic/Jonq via Boul. Saguenay","rentedBike":false,"transitLeg":true,"duration":232.0,"steps":[]},{"startTime":1522726861000,"endTime":1522727499000,"departureDelay":0,"arrivalDelay":0,"realTime":false,"distance":818.0459999999998,"pathway":false,"mode":"WALK","route":"","agencyTimeZoneOffset":-14400000,"interlineWithPreviousLeg":false,"from":{"name":"Terminus Chicoutimi","stopId":"1:1289","stopCode":"1289","lon":-71.066163,"lat":48.428677,"arrival":1522726860000,"departure":1522726861000,"zoneId":"NA","stopIndex":32,"stopSequence":33,"vertexType":"TRANSIT"},"to":{"name":"Destination","lon":-71.057782,"lat":48.426591,"arrival":1522727499000,"orig":"","vertexType":"NORMAL"},"legGeometry":{"points":"{uqfHb~vpLbAJR@JDb@LrBHP@jCPDwC@s@@_@@y@BqA@]@WBe@DwB?S@YBeABgB?o@B_D?U@}@?]@SHqEBgB?a@@U?W?K@a@","length":34},"rentedBike":false,"transitLeg":false,"duration":638.0,"steps":[{"distance":229.71300000000002,"relativeDirection":"DEPART","streetName":"Rue Morin","absoluteDirection":"SOUTH","stayOn":false,"area":false,"bogusName":false,"lon":-71.0654590096484,"lat":48.428628638946556,"elevation":[]},{"distance":588.3329999999999,"relativeDirection":"LEFT","streetName":"Rue Jacques-Cartier Est","absoluteDirection":"EAST","stayOn":false,"area":false,"bogusName":false,"lon":-71.0657774,"lat":48.426577300000005,"elevation":[]}]}],"tooSloped":false}]},"debugOutput":{"precalculationTime":27,"pathCalculationTime":17,"pathTimes":[3,6,7],"renderingTime":0,"totalTime":44,"timedOut":false},"elevationMetadata":{"ellipsoidToGeoidDifference":-28.885904201182168,"geoidElevation":false}}