{"requestParameters":{"date":"2018/04/02","walkSpeed":"1.33","walkReluctance":"2.0","fromPlace":"48.325311,-71.131027","maxWalkDistance":"3000","waitReluctance":"1.0","carSpeed":"33","numItineraries":"3","waitAtBeginningFactor":"0.4","mode":"TRANSIT,WALK","ignoreRealtimeUpdates":"false","stairsReluctance":"2.0","toPlace":"48.403952,-71.054642","time":"16:0:00"},"plan":{"date":1522699200000,"from":{"name":"Origin","lon":-71.131027,"lat":48.325311,"orig":"","vertexType":"NORMAL"},"to":{"name":"Destination","lon":-71.054642,"lat":48.403952,"orig":"","vertexType":"NORMAL"},"itineraries":[{"duration":2153,"startTime":1522699808000,"endTime":1522701961000,"walkTime":684,"transitTime":1407,"waitingTime":62,"walkDistance":868.6773909707839,"walkLimitExceeded":false,"elevationLost":0.0,"elevationGained":0.0,"transfers":1,"legs":[{"startTime":1522699808000,"endTime":1522700132000,"departureDelay":0,"arrivalDelay":0,"realTime":false,"distance":421.83500000000004,"pathway":false,"mode":"WALK","route":"","agencyTimeZoneOffset":-14400000,"interlineWithPreviousLeg":false,"from":{"name":"Origin","lon":-71.131027,"lat":48.325311,"departure":1522699808000,"orig":"","vertexType":"NORMAL"},"to":{"name":"ch. St-Pierre / Peupliers","stopId":"1:409","stopCode":"409","lon":-71.136508,"lat":48.328279,"arrival":1522700132000,"departure":1522700133000,"zoneId":"NA","stopIndex":14,"stopSequence":15,"vertexType":"TRANSIT"},"legGeometry":{"points":"cz}eH`}cqLD\\?\\@TAd@Er@OrB]zE[nE?N@x@kAr@_Al@y@v@","length":14},"rentedBike":false,"transitLeg":false,"duration":324.0,"steps":[{"distance":297.334,"relativeDirection":"DEPART","streetName":"Chemin des Bouleaux","absoluteDirection":"WEST","stayOn":false,"area":false,"bogusName":false,"lon":-71.131844,"lat":48.326905,"elevation":[]},{"distance":124.501,"relativeDirection":"RIGHT","streetName":"Rang Saint-Pierre","absoluteDirection":"NORTHWEST","stayOn":false,"area":false,"bogusName":false,"lon":-71.1357979,"lat":48.327261,"elevation":[]}]},{"startTime":1522700133000,"endTime":1522700940000,"departureDelay":0,"arrivalDelay":0,"realTime":false,"distance":11765.651542125428,"pathway":false,"mode":"BUS","route":"60","agencyName":"Société de Transport du Saguenay","agencyUrl":"http://ville.saguenay.ca/fr/services-aux-citoyens/transport-sts","agencyTimeZoneOffset":-14400000,"routeColor":"00FFFF","routeType":3,"routeId":"1:60","routeTextColor":"000000","interlineWithPreviousLeg":false,"tripBlockId":"95","headsign":"Costco","agencyId":"0","tripId":"1:218717","serviceDate":"20180402","from":{"name":"ch. St-Pierre / Peupliers","stopId":"1:409","stopCode":"409","lon":-71.136508,"lat":48.328279,"arrival":1522700132000,"departure":1522700133000,"zoneId":"NA","stopIndex":14,"stopSequence":15,"vertexType":"TRANSIT"},"to":{"name":"COSTCO","stopId":"1:1710","stopCode":"1710","lon":-71.085767,"lat":48.382333,"arrival":1522700940000,"departure":1522701000000,"zoneId":"NA","stopIndex":27,"stopSequence":28,"vertexType":"TRANSIT"},"legGeometry":{"points":"mb~eHxzdqLML_BlB_B`DiAlDsBdH_AfCq@zAQ^S\\{BtD}BxCyAvAyA`AqDtAiCn@yD\\w@DKAOCw@c@EAcRwRe@]_AWMAgJeB{BKe@LGDeAj@kAx@cEnC_BlAoAxAeB`DsBbIQbAiAhHk@tFMlAKzAYhCOnCKdDWjGKlAMxAa@vCWnAoBbFkH~Si@lAc@j@WNcAf@{@HiCYcBc@m@Wq@Iu@Qy@_@qBeAkAu@uAm@mImCsA_@yDs@qGk@eB[o@KWCgASaA]cBkAgPsN_FkEwAgAwAsAgAyBe@gBU}AAEMmB_@aEUaB_AeE}BqIy@mCmD{JsAuCu@_Ao@u@y@y@MOsIoKeHaKkEuFSYuAcBqA_BkDgDoBuA{JsFgKgEoBo@aAS_CAeDR}Ej@yHP{BMgBYwC{@kGoCsBs@wAUqAUaCM[eF_@{IE_B?{BBsA@]LkCHaAf@}D\\mBZkA@EXaAxBkGzFmOfD}ItBmFL[nAwDdAmDDSrBuIh@cC~@sFb@qCn@oF`@kEX{DLqBPkEDoBDs@LkIXco@FiDPmCToBVkBd@yBZmA~@uCjAoCRYtCyHQOa@y@[cBv@kB_@a@","length":169},"routeShortName":"60","routeLongName":"Portage des Roches Nord","rentedBike":false,"transitLeg":true,"duration":807.0,"steps":[]},{"startTime":1522701000000,"endTime":1522701600000,"departureDelay":0,"arrivalDelay":0,"realTime":false,"distance":3532.3490999365067,"pathway":false,"mode":"BUS","route":"175","agencyName":"Société de Transport du Saguenay","agencyUrl":"http://ville.saguenay.ca/fr/services-aux-citoyens/transport-sts","agencyTimeZoneOffset":-14400000,"routeColor":"FF00FF","routeType":3,"routeId":"1:175","routeTextColor":"FFFFFF","interlineWithPreviousLeg":false,"tripBlockId":"80","headsign":"Terminus Chicoutimi","agencyId":"0","tripId":"1:218655","serviceDate":"20180402","from":{"name":"COSTCO","stopId":"1:1710","stopCode":"1710","lon":-71.085767,"lat":48.382333,"arrival":1522700940000,"departure":1522701000000,"zoneId":"NA","stopIndex":0,"stopSequence":1,"vertexType":"TRANSIT"},"to":{"name":"Place Royaume","stopId":"1:1801","stopCode":"1801","lon":-71.057017,"lat":48.405588,"arrival":1522701600000,"departure":1522701601000,"zoneId":"NA","stopIndex":10,"stopSequence":11,"vertexType":"TRANSIT"},"legGeometry":{"points":"euhfHt|zpL_BiBsCoDwCqDrCsGN_@uEoFoEiFUWSUqCwC]a@{ByC{@cAkJuKoAwA_CeCeExJ~AlB`@mAu@k@}@q@|C}Iw@}@aO_QkEsEiAoAgEsFkFsHqJ_N}FkImPkOuO{N","length":33},"routeShortName":"175","routeLongName":"Term. Chic / Costco","rentedBike":false,"transitLeg":true,"duration":600.0,"steps":[]},{"startTime":1522701601000,"endTime":1522701961000,"departureDelay":0,"arrivalDelay":0,"realTime":false,"distance":446.63599999999997,"pathway":false,"mode":"WALK","route":"","agencyTimeZoneOffset":-14400000,"interlineWithPreviousLeg":false,"from":{"name":"Place Royaume","stopId":"1:1801","stopCode":"1801","lon":-71.057017,"lat":48.405588,"arrival":1522701600000,"departure":1522701601000,"zoneId":"NA","stopIndex":10,"stopSequence":11,"vertexType":"TRANSIT"},"to":{"name":"Destination","lon":-71.054642,"lat":48.403952,"arrival":1522701961000,"orig":"","vertexType":"NORMAL"},"legGeometry":{"points":"memfHriupL`@{Ap@uBXVZX\\XXTBBTBFFXVlBuGj@wDQBWp@OWKQ","length":17},"rentedBike":false,"transitLeg":false,"duration":360.0,"steps":[{"distance":90.318,"relativeDirection":"DEPART","streetName":"parking aisle","absoluteDirection":"SOUTHEAST","stayOn":false,"area":false,"bogusName":true,"lon":-71.0570537,"lat":48.405519700000006,"elevation":[]},{"distance":109.13300000000001,"relativeDirection":"RIGHT","streetName":"service road","absoluteDirection":"SOUTHWEST","stayOn":true,"area":false,"bogusName":true,"lon":-71.05600720000001,"lat":48.4050992,"elevation":[]},{"distance":191.916,"relativeDirection":"LEFT","streetName":"path","absoluteDirection":"SOUTHEAST","stayOn":true,"area":false,"bogusName":true,"lon":-71.0566984,"lat":48.4042426,"elevation":[]},{"distance":55.269,"relativeDirection":"HARD_LEFT","streetName":"parking aisle","absoluteDirection":"NORTHWEST","stayOn":true,"area":false,"bogusName":true,"lon":-71.0543818,"lat":48.403475,"elevation":[]}]}],"tooSloped":false},{"duration":4166,"startTime":1522702295000,"endTime":1522706461000,"walkTime":1736,"transitTime":1708,"waitingTime":722,"walkDistance":2257.4985112715963,"walkLimitExceeded":false,"elevationLost":0.0,"elevationGained":0.0,"transfers":1,"legs":[{"startTime":1522702295000,"endTime":1522703671000,"departureDelay":0,"arrivalDelay":0,"realTime":false,"distance":1810.6579999999997,"pathway":false,"mode":"WALK","route":"","agencyTimeZoneOffset":-14400000,"interlineWithPreviousLeg":false,"from":{"name":"Origin","lon":-71.131027,"lat":48.325311,"departure":1522702295000,"orig":"","vertexType":"NORMAL"},"to":{"name":"Boulevard (no. 1557)","stopId":"1:2127","stopCode":"2127","lon":-71.130498,"lat":48.316221,"arrival":1522703671000,"departure":1522703672000,"zoneId":"NA","stopIndex":8,"stopSequence":9,"vertexType":"TRANSIT"},"legGeometry":{"points":"cz}eH`}cqLD\\?\\@TAd@Er@OrB]zE[nE?N@x@p@QbAUpAKnKk@H@hF\\jNvAnFtFjBkF~AqElAmDpAuD\\q@|@cC`DgJ","length":26},"rentedBike":false,"transitLeg":false,"duration":1376.0,"steps":[{"distance":297.334,"relativeDirection":"DEPART","streetName":"Chemin des Bouleaux","absoluteDirection":"WEST","stayOn":false,"area":false,"bogusName":false,"lon":-71.131844,"lat":48.326905,"elevation":[]},{"distance":908.77,"relativeDirection":"LEFT","streetName":"Rang Saint-Pierre","absoluteDirection":"SOUTH","stayOn":false,"area":false,"bogusName":false,"lon":-71.1357979,"lat":48.327261,"elevation":[]},{"distance":604.5540000000001,"relativeDirection":"LEFT","streetName":"Rue du Boulevard","absoluteDirection":"SOUTHEAST","stayOn":false,"area":false,"bogusName":false,"lon":-71.1371469,"lat":48.3193853,"elevation":[]}]},{"startTime":1522703672000,"endTime":1522704780000,"departureDelay":0,"arrivalDelay":0,"realTime":false,"distance":12454.09062520728,"pathway":false,"mode":"BUS","route":"62","agencyName":"Société de Transport du Saguenay","agencyUrl":"http://ville.saguenay.ca/fr/services-aux-citoyens/transport-sts","agencyTimeZoneOffset":-14400000,"routeColor":"00FFFF","routeType":3,"routeId":"1:62","routeTextColor":"000000","interlineWithPreviousLeg":false,"tripBlockId":"95","headsign":"Costco","agencyId":"0","tripId":"1:218719","serviceDate":"20180402","from":{"name":"Boulevard (no. 1557)","stopId":"1:2127","stopCode":"2127","lon":-71.130498,"lat":48.316221,"arrival":1522703671000,"departure":1522703672000,"zoneId":"NA","stopIndex":8,"stopSequence":9,"vertexType":"TRANSIT"},"to":{"name":"COSTCO","stopId":"1:1710","stopCode":"1710","lon":-71.085767,"lat":48.382333,"arrival":1522704780000,"departure":1522705500000,"zoneId":"NA","stopIndex":30,"stopSequence":31,"vertexType":"TRANSIT"},"legGeometry":{"points":"uw{eHhtcqL`KqYbDiJpIeV|IcWv@{Bh@cAf@u@Z]l@e@dBsAjCwBv@u@nA{BdCaGOOqAoBwA{B[i@kF{IyAwDSe@U_@o@eAkDwDoF}Fa@u@iIeQ}Qi`@_@s@a@y@}@_D_Im]y@eCgCwGsDyI]}@_@y@Sc@QSW[mBuAk@Y_@KiAe@a_@_KsUsEcAg@a@YEEcFyFsUsWmB_CqB_CeFoGmAuBi@oAEKiAsBsA{A_As@gEeCy@k@iBkBgGuG[Ya@_@qFuEg@e@qAeB{BcDq@{@iAsAgYc[qJkKyN{Ok@o@{BoAc@Sm@lBcFzO}@rB}@bBcCxCsAjAcAr@eClAsJdEoF~BsJdEsJbEAC{TpJmHjCiEhAHz@d@pGE~@I~@Kj@Od@_e@rkAUReFdMIXyCtHwBcC","length":107},"routeShortName":"62","routeLongName":"Portage des Roches Sud","rentedBike":false,"transitLeg":true,"duration":1108.0,"steps":[]},{"startTime":1522705500000,"endTime":1522706100000,"departureDelay":0,"arrivalDelay":0,"realTime":false,"distance":3532.3490999365067,"pathway":false,"mode":"BUS","route":"175","agencyName":"Société de Transport du Saguenay","agencyUrl":"http://ville.saguenay.ca/fr/services-aux-citoyens/transport-sts","agencyTimeZoneOffset":-14400000,"routeColor":"FF00FF","routeType":3,"routeId":"1:175","routeTextColor":"FFFFFF","interlineWithPreviousLeg":false,"tripBlockId":"9","headsign":"Terminus Chicoutimi","agencyId":"0","tripId":"1:217414","serviceDate":"20180402","from":{"name":"COSTCO","stopId":"1:1710","stopCode":"1710","lon":-71.085767,"lat":48.382333,"arrival":1522704780000,"departure":1522705500000,"zoneId":"NA","stopIndex":0,"stopSequence":1,"vertexType":"TRANSIT"},"to":{"name":"Place Royaume","stopId":"1:1801","stopCode":"1801","lon":-71.057017,"lat":48.405588,"arrival":1522706100000,"departure":1522706101000,"zoneId":"NA","stopIndex":10,"stopSequence":11,"vertexType":"TRANSIT"},"legGeometry":{"points":"euhfHt|zpL_BiBsCoDwCqDrCsGN_@uEoFoEiFUWSUqCwC]a@{ByC{@cAkJuKoAwA_CeCeExJ~AlB`@mAu@k@}@q@|C}Iw@}@aO_QkEsEiAoAgEsFkFsHqJ_N}FkImPkOuO{N","length":33},"routeShortName":"175","routeLongName":"Term. Chic / Costco","rentedBike":false,"transitLeg":true,"duration":600.0,"steps":[]},{"startTime":1522706101000,"endTime":1522706461000,"departureDelay":0,"arrivalDelay":0,"realTime":false,"distance":446.63599999999997,"pathway":false,"mode":"WALK","route":"","agencyTimeZoneOffset":-14400000,"interlineWithPreviousLeg":false,"from":{"name":"Place Royaume","stopId":"1:1801","stopCode":"1801","lon":-71.057017,"lat":48.405588,"arrival":1522706100000,"departure":1522706101000,"zoneId":"NA","stopIndex":10,"stopSequence":11,"vertexType":"TRANSIT"},"to":{"name":"Destination","lon":-71.054642,"lat":48.403952,"arrival":1522706461000,"orig":"","vertexType":"NORMAL"},"legGeometry":{"points":"memfHriupL`@{Ap@uBXVZX\\XXTBBTBFFXVlBuGj@wDQBWp@OWKQ","length":17},"rentedBike":false,"transitLeg":false,"duration":360.0,"steps":[{"distance":90.318,"relativeDirection":"DEPART","streetName":"parking aisle","absoluteDirection":"SOUTHEAST","stayOn":false,"area":false,"bogusName":true,"lon":-71.0570537,"lat":48.405519700000006,"elevation":[]},{"distance":109.13300000000001,"relativeDirection":"RIGHT","streetName":"service road","absoluteDirection":"SOUTHWEST","stayOn":true,"area":false,"bogusName":true,"lon":-71.05600720000001,"lat":48.4050992,"elevation":[]},{"distance":191.916,"relativeDirection":"LEFT","streetName":"path","absoluteDirection":"SOUTHEAST","stayOn":true,"area":false,"bogusName":true,"lon":-71.0566984,"lat":48.4042426,"elevation":[]},{"distance":55.269,"relativeDirection":"HARD_LEFT","streetName":"parking aisle","absoluteDirection":"NORTHWEST","stayOn":true,"area":false,"bogusName":true,"lon":-71.0543818,"lat":48.403475,"elevation":[]}]}],"tooSloped":false},{"duration":3573,"startTime":1522703087000,"endTime":1522706660000,"walkTime":546,"transitTime":2365,"waitingTime":662,"walkDistance":686.1131353317588,"walkLimitExceeded":false,"elevationLost":0.0,"elevationGained":0.0,"transfers":1,"legs":[{"startTime":1522703087000,"endTime":1522703411000,"departureDelay":0,"arrivalDelay":0,"realTime":false,"distance":421.83500000000004,"pathway":false,"mode":"WALK","route":"","agencyTimeZoneOffset":-14400000,"interlineWithPreviousLeg":false,"from":{"name":"Origin","lon":-71.131027,"lat":48.325311,"departure":1522703087000,"orig":"","vertexType":"NORMAL"},"to":{"name":"ch. St-Pierre / Peupliers","stopId":"1:409","stopCode":"409","lon":-71.136508,"lat":48.328279,"arrival":1522703411000,"departure":1522703412000,"zoneId":"NA","stopIndex":14,"stopSequence":15,"vertexType":"TRANSIT"},"legGeometry":{"points":"cz}eH`}cqLD\\?\\@TAd@Er@OrB]zE[nE?N@x@kAr@_Al@y@v@","length":14},"rentedBike":false,"transitLeg":false,"duration":324.0,"steps":[{"distance":297.334,"relativeDirection":"DEPART","streetName":"Chemin des Bouleaux","absoluteDirection":"WEST","stayOn":false,"area":false,"bogusName":false,"lon":-71.131844,"lat":48.326905,"elevation":[]},{"distance":124.501,"relativeDirection":"RIGHT","streetName":"Rang Saint-Pierre","absoluteDirection":"NORTHWEST","stayOn":false,"area":false,"bogusName":false,"lon":-71.1357979,"lat":48.327261,"elevation":[]}]},{"startTime":1522703412000,"endTime":1522704840000,"departureDelay":0,"arrivalDelay":0,"realTime":false,"distance":15372.355256986975,"pathway":false,"mode":"BUS","route":"60","agencyName":"Société de Transport du Saguenay","agencyUrl":"http://ville.saguenay.ca/fr/services-aux-citoyens/transport-sts","agencyTimeZoneOffset":-14400000,"routeColor":"00FFFF","routeType":3,"routeId":"1:60","routeTextColor":"000000","interlineWithPreviousLeg":false,"tripBlockId":"107","headsign":"Terminus Chicoutimi","agencyId":"0","tripId":"1:218824","serviceDate":"20180402","from":{"name":"ch. St-Pierre / Peupliers","stopId":"1:409","stopCode":"409","lon":-71.136508,"lat":48.328279,"arrival":1522703411000,"departure":1522703412000,"zoneId":"NA","stopIndex":14,"stopSequence":15,"vertexType":"TRANSIT"},"to":{"name":"Terminus Chicoutimi","stopId":"1:1289","stopCode":"1289","lon":-71.066163,"lat":48.428677,"arrival":1522704840000,"departure":1522705500000,"zoneId":"NA","stopIndex":34,"stopSequence":35,"vertexType":"TRANSIT"},"legGeometry":{"points":"mb~eHxzdqLML_BlB_B`DiAlDsBdH_AfCq@zAQ^S\\{BtD}BxCyAvAyA`AqDtAiCn@yD\\w@DKAOCw@c@EAcRwRe@]_AWMAgJeB{BKe@LGDeAj@kAx@cEnC_BlAoAxAeB`DsBbIQbAiAhHk@tFMlAKzAYhCOnCKdDWjGKlAMxAa@vCWnAoBbFkH~Si@lAc@j@WNcAf@{@HiCYcBc@m@Wq@Iu@Qy@_@qBeAkAu@uAm@mImCsA_@yDs@qGk@eB[o@KWCgASaA]cBkAgPsN_FkEwAgAwAsAgAyBe@gBU}AAEMmB_@aEUaB_AeE}BqIy@mCmD{JsAuCu@_Ao@u@y@y@MOsIoKeHaKkEuFSYuAcBqA_BkDgDoBuA{JsFgKgEoBo@aAS_CAeDR}Ej@yHP{BMgBYwC{@kGoCsBs@wAUqAUaCM[eF_@{IE_B?{BBsA@]LkCHaAf@}D\\mBZkA@EXaAxBkGzFmOfD}I\\{@dBsE[g@}BuBEE_IuHeCaCWUcBiBaJgL_KkMiDgDYUwK_MgKqLGGuGwHoB_C_DqDwGwHkKwLmG{H}D_GoJqNeEkGYc@qFoIcAcBk@_B[mAg@wDo@wDo@mBcBkDwFgI_B{Bw@kAgJsJkJmJwFsFsEuFyA{BwAqAwA_@aDQwNjACmCeDHkBFJiEPiI@kAeAKiAGi@EPmHCoBh@]","length":194},"routeShortName":"60","routeLongName":"Portage des Roches Nord","rentedBike":false,"transitLeg":true,"duration":1428.0,"steps":[]},{"startTime":1522705500000,"endTime":1522706437000,"departureDelay":0,"arrivalDelay":0,"realTime":false,"distance":4513.779081531779,"pathway":false,"mode":"BUS","route":"175","agencyName":"Société de Transport du Saguenay","agencyUrl":"http://ville.saguenay.ca/fr/services-aux-citoyens/transport-sts","agencyTimeZoneOffset":-14400000,"routeColor":"FF00FF","routeType":3,"routeId":"1:175","routeTextColor":"FFFFFF","interlineWithPreviousLeg":false,"tripBlockId":"7","headsign":"Costco","agencyId":"0","tripId":"1:217343","serviceDate":"20180402","from":{"name":"Terminus Chicoutimi","stopId":"1:1289","stopCode":"1289","lon":-71.066163,"lat":48.428677,"arrival":1522704840000,"departure":1522705500000,"zoneId":"NA","stopIndex":0,"stopSequence":1,"vertexType":"TRANSIT"},"to":{"name":"Champs-Élysées (no. 1415)","stopId":"1:1925","stopCode":"1925","lon":-71.051931,"lat":48.403672,"arrival":1522706437000,"departure":1522706438000,"zoneId":"NA","stopIndex":18,"stopSequence":19,"vertexType":"TRANSIT"},"legGeometry":{"points":"kvqfH~awpL~CgBbAqa@FwCBkAOsHAg@bAYUwMKoE@mB@kJ@iFbEf@xEj@iCtYp@r@z@`ABBvHtHXRx@l@VwAvAgB\\qBIuAC]g@yEzDuLbBbBvAxAMx@|@v@`A~@Xw@~D~DPxFZtA~ApE`N{LpFmEb@[ROl@[vDQXKfA[|@q@fAsBlEmMr@sBhCsKz@dAjB|@dM`GzCvAXrCr@~Gx@]PEr@ObACn@FrBb@|@Ch@Kx@U","length":67},"routeShortName":"175","routeLongName":"Term. Chic / Costco","rentedBike":false,"transitLeg":true,"duration":937.0,"steps":[]},{"startTime":1522706438000,"endTime":1522706660000,"departureDelay":0,"arrivalDelay":0,"realTime":false,"distance":264.074,"pathway":false,"mode":"WALK","route":"","agencyTimeZoneOffset":-14400000,"interlineWithPreviousLeg":false,"from":{"name":"Champs-Élysées (no. 1415)","stopId":"1:1925","stopCode":"1925","lon":-71.051931,"lat":48.403672,"arrival":1522706437000,"departure":1522706438000,"zoneId":"NA","stopIndex":18,"stopSequence":19,"vertexType":"TRANSIT"},"to":{"name":"Destination","lon":-71.054642,"lat":48.403952,"arrival":1522706660000,"orig":"","vertexType":"NORMAL"},"legGeometry":{"points":"czlfHphtpLOFe@L@zA?p@ELPNk@hBOf@Wt@Xb@R\\T^R\\JL","length":15},"rentedBike":false,"transitLeg":false,"duration":222.0,"steps":[{"distance":31.103,"relativeDirection":"DEPART","streetName":"Rue des Champs-Élysées","absoluteDirection":"NORTH","stayOn":false,"area":false,"bogusName":false,"lon":-71.05176919271997,"lat":48.40370108692007,"elevation":[]},{"distance":232.97099999999998,"relativeDirection":"LEFT","streetName":"parking aisle","absoluteDirection":"WEST","stayOn":false,"area":false,"bogusName":true,"lon":-71.0518792,"lat":48.4039711,"elevation":[]}]}],"tooSloped":false}]},"debugOutput":{"precalculationTime":23,"pathCalculationTime":12,"pathTimes":[3,5,4],"renderingTime":1,"totalTime":36,"timedOut":false},"elevationMetadata":{"ellipsoidToGeoidDifference":-28.885904201182168,"geoidElevation":false}}