{"requestParameters":{"date":"2018/04/02","walkSpeed":"1.33","walkReluctance":"2.0","fromPlace":"48.41803,-71.083128","maxWalkDistance":"3000","waitReluctance":"1.0","carSpeed":"33","numItineraries":"3","waitAtBeginningFactor":"0.4","mode":"TRANSIT,WALK","ignoreRealtimeUpdates":"false","stairsReluctance":"2.0","toPlace":"48.410171,-71.09856","time":"19:15:00"},"plan":{"date":1522710900000,"from":{"name":"Origin","lon":-71.083128,"lat":48.41803,"orig":"","vertexType":"NORMAL"},"to":{"name":"Destination","lon":-71.09856,"lat":48.410171,"orig":"","vertexType":"NORMAL"},"itineraries":[{"duration":1634,"startTime":1522710900000,"endTime":1522712534000,"walkTime":1634,"transitTime":0,"waitingTime":0,"walkDistance":2108.39186465372,"walkLimitExceeded":false,"elevationLost":0.0,"elevationGained":0.0,"transfers":0,"legs":[{"startTime":1522710900000,"endTime":1522712534000,"departureDelay":0,"arrivalDelay":0,"realTime":false,"distance":2108.1459999999997,"pathway":false,"mode":"WALK","route":"","agencyTimeZoneOffset":-14400000,"interlineWithPreviousLeg":false,"from":{"name":"Origin","lon":-71.083128,"lat":48.41803,"departure":1522710900000,"orig":"","vertexType":"NORMAL"},"to":{"name":"Destination","lon":-71.09856,"lat":48.410171,"arrival":1522712534000,"orig":"","vertexType":"NORMAL"},"legGeometry":{"points":"ovofH|jzpLhA{Gj@aDXyA~BzDRZTb@hAhB|AnBhGnJnAyBf@x@fAfBPTHWd@WRKh@pDh@fBz@rBbBbCj@x@hBjC}AzDYXQHK?o@vCF|BLnCZdExAfPJb@b@~@\\nATlBL|@BZVdA\\z@^j@V\\d@Z\\TTJ","length":45},"rentedBike":false,"transitLeg":false,"duration":1634.0,"steps":[{"distance":212.93,"relativeDirection":"DEPART","streetName":"Rue Cimon","absoluteDirection":"EAST","stayOn":false,"area":false,"bogusName":false,"lon":-71.08286045099662,"lat":48.41848109537543,"elevation":[]},{"distance":456.48199999999997,"relativeDirection":"RIGHT","streetName":"Rue Nio","absoluteDirection":"SOUTHWEST","stayOn":false,"area":false,"bogusName":false,"lon":-71.08018650000001,"lat":48.417762200000006,"elevation":[]},{"distance":63.19,"relativeDirection":"LEFT","streetName":"Rue Sainte-Thérèse","absoluteDirection":"SOUTHEAST","stayOn":false,"area":false,"bogusName":false,"lon":-71.0843761,"lat":48.4147453,"elevation":[]},{"distance":98.993,"relativeDirection":"RIGHT","streetName":"Rue Saint-Paul","absoluteDirection":"SOUTHWEST","stayOn":false,"area":false,"bogusName":false,"lon":-71.08376480000001,"lat":48.414347400000004,"elevation":[]},{"distance":44.901,"relativeDirection":"LEFT","streetName":"Rue Saint-Augustin","absoluteDirection":"SOUTHEAST","stayOn":false,"area":false,"bogusName":false,"lon":-71.0846811,"lat":48.413698000000004,"elevation":[]},{"distance":353.491,"relativeDirection":"RIGHT","streetName":"Boulevard Saint-Paul","absoluteDirection":"WEST","stayOn":false,"area":false,"bogusName":false,"lon":-71.0843859,"lat":48.413356300000004,"elevation":[]},{"distance":121.414,"relativeDirection":"RIGHT","streetName":"Rue Martin-Bouvard","absoluteDirection":"NORTHWEST","stayOn":false,"area":false,"bogusName":false,"lon":-71.088029,"lat":48.4113872,"elevation":[]},{"distance":108.55099999999999,"relativeDirection":"LEFT","streetName":"path","absoluteDirection":"NORTHWEST","stayOn":false,"area":false,"bogusName":true,"lon":-71.08914440000001,"lat":48.4121377,"elevation":[]},{"distance":648.194,"relativeDirection":"CONTINUE","streetName":"Rue du Canal","absoluteDirection":"WEST","stayOn":false,"area":false,"bogusName":false,"lon":-71.09053370000001,"lat":48.412339100000004,"elevation":[]}]}],"tooSloped":false},{"duration":1116,"startTime":1522712791000,"endTime":1522713907000,"walkTime":799,"transitTime":315,"waitingTime":2,"walkDistance":1014.1107593919215,"walkLimitExceeded":false,"elevationLost":0.0,"elevationGained":0.0,"transfers":0,"legs":[{"startTime":1522712791000,"endTime":1522713044000,"departureDelay":0,"arrivalDelay":0,"realTime":false,"distance":322.843,"pathway":false,"mode":"WALK","route":"","agencyTimeZoneOffset":-14400000,"interlineWithPreviousLeg":false,"from":{"name":"Origin","lon":-71.083128,"lat":48.41803,"departure":1522712791000,"orig":"","vertexType":"NORMAL"},"to":{"name":"Saint-Paul / Cimon","stopId":"1:423","stopCode":"423","lon":-71.079825,"lat":48.41719,"arrival":1522713044000,"departure":1522713045000,"zoneId":"NA","stopIndex":10,"stopSequence":11,"vertexType":"TRANSIT"},"legGeometry":{"points":"ovofH|jzpLhA{Gj@aDXyAhA}Cf@v@HN","length":7},"rentedBike":false,"transitLeg":false,"duration":253.0,"steps":[{"distance":284.541,"relativeDirection":"DEPART","streetName":"Rue Cimon","absoluteDirection":"EAST","stayOn":false,"area":false,"bogusName":false,"lon":-71.08286045099662,"lat":48.41848109537543,"elevation":[]},{"distance":38.302,"relativeDirection":"RIGHT","streetName":"Rue Saint-Paul","absoluteDirection":"SOUTHWEST","stayOn":false,"area":false,"bogusName":false,"lon":-71.0793926,"lat":48.417391900000005,"elevation":[]}]},{"startTime":1522713045000,"endTime":1522713360000,"departureDelay":0,"arrivalDelay":0,"realTime":false,"distance":1383.5598986124094,"pathway":false,"mode":"BUS","route":"11","agencyName":"Société de Transport du Saguenay","agencyUrl":"http://ville.saguenay.ca/fr/services-aux-citoyens/transport-sts","agencyTimeZoneOffset":-14400000,"routeColor":"FF0000","routeType":3,"routeId":"1:11","routeTextColor":"FFFFFF","interlineWithPreviousLeg":false,"tripBlockId":"35","headsign":"Boul.Royaume/St-Pierre","agencyId":"0","tripId":"1:218268","serviceDate":"20180402","from":{"name":"Saint-Paul / Cimon","stopId":"1:423","stopCode":"423","lon":-71.079825,"lat":48.41719,"arrival":1522713044000,"departure":1522713045000,"zoneId":"NA","stopIndex":10,"stopSequence":11,"vertexType":"TRANSIT"},"to":{"name":"boul. St-Paul / Descartes","stopId":"1:467","stopCode":"467","lon":-71.092615,"lat":48.408095,"arrival":1522713360000,"departure":1522713361000,"zoneId":"NA","stopIndex":14,"stopSequence":15,"vertexType":"TRANSIT"},"legGeometry":{"points":"gnofHvwypLpApBpClEvJrOR\\bAfBLa@t@]LjAVvAVbAVv@^bAXj@b@t@xEtGh@r@n@x@FDjA|AlBpCnJ|NNT","length":23},"routeShortName":"11","routeLongName":"Chic/Faubourg via St-Paul","rentedBike":false,"transitLeg":true,"duration":315.0,"steps":[]},{"startTime":1522713361000,"endTime":1522713907000,"departureDelay":0,"arrivalDelay":0,"realTime":false,"distance":691.064,"pathway":false,"mode":"WALK","route":"","agencyTimeZoneOffset":-14400000,"interlineWithPreviousLeg":false,"from":{"name":"boul. St-Paul / Descartes","stopId":"1:467","stopCode":"467","lon":-71.092615,"lat":48.408095,"arrival":1522713360000,"departure":1522713361000,"zoneId":"NA","stopIndex":14,"stopSequence":15,"vertexType":"TRANSIT"},"to":{"name":"Destination","lon":-71.09856,"lat":48.410171,"arrival":1522713907000,"orig":"","vertexType":"NORMAL"},"legGeometry":{"points":"{tmfHtf|pLn@~@NT}AfDsAtCRTe@vA[|ANV_DnIbBjCkAxCs@m@wAu@","length":14},"rentedBike":false,"transitLeg":false,"duration":546.0,"steps":[{"distance":47.28,"relativeDirection":"DEPART","streetName":"Boulevard Saint-Paul","absoluteDirection":"SOUTHWEST","stayOn":false,"area":false,"bogusName":false,"lon":-71.09242610294163,"lat":48.40798176833643,"elevation":[]},{"distance":153.429,"relativeDirection":"RIGHT","streetName":"Rue Descartes","absoluteDirection":"NORTHWEST","stayOn":false,"area":false,"bogusName":false,"lon":-71.0928554,"lat":48.4076662,"elevation":[]},{"distance":13.63,"relativeDirection":"LEFT","streetName":"Rue de l'Estacade","absoluteDirection":"SOUTHWEST","stayOn":false,"area":false,"bogusName":false,"lon":-71.0944442,"lat":48.4085559,"elevation":[]},{"distance":76.935,"relativeDirection":"RIGHT","streetName":"path","absoluteDirection":"NORTHWEST","stayOn":false,"area":false,"bogusName":true,"lon":-71.0945535,"lat":48.4084571,"elevation":[]},{"distance":165.624,"relativeDirection":"LEFT","streetName":"Rue des Draveurs","absoluteDirection":"SOUTHWEST","stayOn":false,"area":false,"bogusName":false,"lon":-71.0954658,"lat":48.4087873,"elevation":[]},{"distance":76.295,"relativeDirection":"LEFT","streetName":"Rue de la Pulpe","absoluteDirection":"SOUTHWEST","stayOn":false,"area":false,"bogusName":false,"lon":-71.0972696,"lat":48.4095078,"elevation":[]},{"distance":70.97,"relativeDirection":"RIGHT","streetName":"Rue du Séchoir","absoluteDirection":"NORTHWEST","stayOn":false,"area":false,"bogusName":false,"lon":-71.0979659,"lat":48.4090007,"elevation":[]},{"distance":86.901,"relativeDirection":"RIGHT","streetName":"Rue du Canal","absoluteDirection":"NORTHEAST","stayOn":false,"area":false,"bogusName":false,"lon":-71.09873730000001,"lat":48.409381700000004,"elevation":[]}]}],"tooSloped":false}]},"debugOutput":{"precalculationTime":31,"pathCalculationTime":33,"pathTimes":[17,4,12],"renderingTime":1,"totalTime":65,"timedOut":false},"elevationMetadata":{"ellipsoidToGeoidDifference":-28.885904201182168,"geoidElevation":false}}