{"requestParameters":{"date":"2018/04/02","walkSpeed":"1.33","walkReluctance":"2.0","fromPlace":"48.406351,-71.05878699","maxWalkDistance":"3000","waitReluctance":"1.0","carSpeed":"33","numItineraries":"3","waitAtBeginningFactor":"0.4","mode":"TRANSIT,WALK","ignoreRealtimeUpdates":"false","stairsReluctance":"2.0","toPlace":"48.4235,-71.062948","time":"19:30:00"},"plan":{"date":1522711800000,"from":{"name":"Origin","lon":-71.05878699,"lat":48.406351,"orig":"","vertexType":"NORMAL"},"to":{"name":"Destination","lon":-71.062948,"lat":48.4235,"orig":"","vertexType":"NORMAL"},"itineraries":[{"duration":1900,"startTime":1522711800000,"endTime":1522713700000,"walkTime":1900,"transitTime":0,"waitingTime":0,"walkDistance":2449.316751871609,"walkLimitExceeded":false,"elevationLost":0.0,"elevationGained":0.0,"transfers":0,"legs":[{"startTime":1522711800000,"endTime":1522713700000,"departureDelay":0,"arrivalDelay":0,"realTime":false,"distance":2449.0660000000007,"pathway":false,"mode":"WALK","route":"","agencyTimeZoneOffset":-14400000,"interlineWithPreviousLeg":false,"from":{"name":"Origin","lon":-71.05878699,"lat":48.406351,"departure":1522711800000,"orig":"","vertexType":"NORMAL"},"to":{"name":"Destination","lon":-71.062948,"lat":48.4235,"arrival":1522713700000,"orig":"","vertexType":"NORMAL"},"legGeometry":{"points":"glmfHhxupLk@g@gGsF][YWMKmA~CsArDiAe@}@i@a@`@wC^iALC?}Fr@C@M@yCb@_ANcAp@_@d@Y`@iAbD??e@pAoAnDcA|FOh@GP??k@jBGE}AaB]Y{DoDwBwB[[cAaA]e@iCgCcBaBQSSScAeAg@i@KMYYStDcAC}F|NMFwCG","length":52},"rentedBike":false,"transitLeg":false,"duration":1900.0,"steps":[{"distance":246.091,"relativeDirection":"DEPART","streetName":"Rue Bach","absoluteDirection":"NORTHEAST","stayOn":false,"area":false,"bogusName":false,"lon":-71.05940792180488,"lat":48.40660402994085,"elevation":[]},{"distance":154.55,"relativeDirection":"LEFT","streetName":"Rue Plamondon","absoluteDirection":"NORTHWEST","stayOn":false,"area":false,"bogusName":false,"lon":-71.05766410000001,"lat":48.408490300000004,"elevation":[]},{"distance":81.742,"relativeDirection":"RIGHT","streetName":"Rue Bizet","absoluteDirection":"NORTH","stayOn":false,"area":false,"bogusName":false,"lon":-71.0593601,"lat":48.4093053,"elevation":[]},{"distance":872.99,"relativeDirection":"LEFT","streetName":"Rue des Champs-Élysées","absoluteDirection":"NORTHWEST","stayOn":false,"area":false,"bogusName":false,"lon":-71.0589618,"lat":48.409989800000005,"elevation":[]},{"distance":659.459,"relativeDirection":"RIGHT","streetName":"Rue Bégin","absoluteDirection":"NORTHEAST","stayOn":false,"area":false,"bogusName":false,"lon":-71.0647342,"lat":48.416021,"elevation":[]},{"distance":67.849,"relativeDirection":"LEFT","streetName":"Boulevard de l'Université","absoluteDirection":"WEST","stayOn":false,"area":false,"bogusName":false,"lon":-71.05981580000001,"lat":48.4209693,"elevation":[]},{"distance":38.418,"relativeDirection":"RIGHT","streetName":"Rue La Fontaine","absoluteDirection":"NORTH","stayOn":false,"area":false,"bogusName":false,"lon":-71.06072490000001,"lat":48.4210605,"elevation":[]},{"distance":327.967,"relativeDirection":"LEFT","streetName":"Boulevard Saint-Sacrement","absoluteDirection":"NORTHWEST","stayOn":false,"area":false,"bogusName":false,"lon":-71.0607068,"lat":48.4214058,"elevation":[]}]}],"tooSloped":false},{"duration":1667,"startTime":1522712681000,"endTime":1522714348000,"walkTime":1174,"transitTime":491,"waitingTime":2,"walkDistance":1492.1474210423576,"walkLimitExceeded":false,"elevationLost":0.0,"elevationGained":0.0,"transfers":0,"legs":[{"startTime":1522712681000,"endTime":1522713299000,"departureDelay":0,"arrivalDelay":0,"realTime":false,"distance":779.294,"pathway":false,"mode":"WALK","route":"","agencyTimeZoneOffset":-14400000,"interlineWithPreviousLeg":false,"from":{"name":"Origin","lon":-71.05878699,"lat":48.406351,"departure":1522712681000,"orig":"","vertexType":"NORMAL"},"to":{"name":"Place Royaume","stopId":"1:1801","stopCode":"1801","lon":-71.057017,"lat":48.405588,"arrival":1522713299000,"departure":1522713300000,"zoneId":"NA","stopIndex":10,"stopSequence":11,"vertexType":"TRANSIT"},"legGeometry":{"points":"glmfHhxupLk@g@gGsF][YWMKbAwCb@XXRLHPe@\\w@B@\\Tv@kC`A~@pD|CJHH[DKn@}BZXa@zA","length":23},"rentedBike":false,"transitLeg":false,"duration":618.0,"steps":[{"distance":246.091,"relativeDirection":"DEPART","streetName":"Rue Bach","absoluteDirection":"NORTHEAST","stayOn":false,"area":false,"bogusName":false,"lon":-71.05940792180488,"lat":48.40660402994085,"elevation":[]},{"distance":67.359,"relativeDirection":"RIGHT","streetName":"Rue Plamondon","absoluteDirection":"SOUTHEAST","stayOn":false,"area":false,"bogusName":false,"lon":-71.05766410000001,"lat":48.408490300000004,"elevation":[]},{"distance":171.709,"relativeDirection":"RIGHT","streetName":"parking aisle","absoluteDirection":"SOUTHWEST","stayOn":false,"area":false,"bogusName":true,"lon":-71.05690750000001,"lat":48.408151600000004,"elevation":[]},{"distance":166.422,"relativeDirection":"RIGHT","streetName":"Boulevard Talbot","absoluteDirection":"SOUTHWEST","stayOn":false,"area":false,"bogusName":false,"lon":-71.0561383,"lat":48.40708720000001,"elevation":[]},{"distance":71.053,"relativeDirection":"LEFT","streetName":"service road","absoluteDirection":"SOUTHEAST","stayOn":false,"area":false,"bogusName":true,"lon":-71.05729810000001,"lat":48.4058038,"elevation":[]},{"distance":56.66,"relativeDirection":"RIGHT","streetName":"parking aisle","absoluteDirection":"SOUTHWEST","stayOn":true,"area":false,"bogusName":true,"lon":-71.0564657,"lat":48.405483000000004,"elevation":[]}]},{"startTime":1522713300000,"endTime":1522713791000,"departureDelay":0,"arrivalDelay":0,"realTime":false,"distance":2405.659592582449,"pathway":false,"mode":"BUS","route":"175","agencyName":"Société de Transport du Saguenay","agencyUrl":"http://ville.saguenay.ca/fr/services-aux-citoyens/transport-sts","agencyTimeZoneOffset":-14400000,"routeColor":"FF00FF","routeType":3,"routeId":"1:175","routeTextColor":"FFFFFF","interlineWithPreviousLeg":false,"tripBlockId":"11","headsign":"Terminus Chicoutimi","agencyId":"0","tripId":"1:217488","serviceDate":"20180402","from":{"name":"Place Royaume","stopId":"1:1801","stopCode":"1801","lon":-71.057017,"lat":48.405588,"arrival":1522713299000,"departure":1522713300000,"zoneId":"NA","stopIndex":10,"stopSequence":11,"vertexType":"TRANSIT"},"to":{"name":"Cégep de Chicoutimi (Bégin)","stopId":"1:66","stopCode":"66","lon":-71.056314,"lat":48.424377,"arrival":1522713791000,"departure":1522713792000,"zoneId":"NA","stopIndex":17,"stopSequence":18,"vertexType":"TRANSIT"},"legGeometry":{"points":"sfmfH`kupL_U_TcNgNcBcB{E`Jc@x@qG~@{BlAk@XgSrQqB_GAeFiEeEOt@gAeA_A_ATm@yAwAgBeBqDnL@nBF`@f@|C[dCuAfB]xAs@OmCmC","length":28},"routeShortName":"175","routeLongName":"Term. Chic / Costco","rentedBike":false,"transitLeg":true,"duration":491.0,"steps":[]},{"startTime":1522713792000,"endTime":1522714348000,"departureDelay":0,"arrivalDelay":0,"realTime":false,"distance":712.5350000000001,"pathway":false,"mode":"WALK","route":"","agencyTimeZoneOffset":-14400000,"interlineWithPreviousLeg":false,"from":{"name":"Cégep de Chicoutimi (Bégin)","stopId":"1:66","stopCode":"66","lon":-71.056314,"lat":48.424377,"arrival":1522713791000,"departure":1522713792000,"zoneId":"NA","stopIndex":17,"stopSequence":18,"vertexType":"TRANSIT"},"to":{"name":"Destination","lon":-71.062948,"lat":48.4235,"arrival":1522714348000,"orig":"","vertexType":"NORMAL"},"legGeometry":{"points":"k{pfH`eupL[[k@q@S@C~ACvCIvFClCBdAGzCG~CARB|AFr@Jp@HXH^Ld@LZb@r@tAb@T@~@DV@","length":24},"rentedBike":false,"transitLeg":false,"duration":556.0,"steps":[{"distance":61.132,"relativeDirection":"DEPART","streetName":"sidewalk","absoluteDirection":"NORTHEAST","stayOn":false,"area":false,"bogusName":true,"lon":-71.0563254039123,"lat":48.42438196430904,"elevation":[]},{"distance":386.03200000000004,"relativeDirection":"LEFT","streetName":"Rue Price Est","absoluteDirection":"WEST","stayOn":false,"area":false,"bogusName":false,"lon":-71.0559435,"lat":48.424848700000005,"elevation":[]},{"distance":265.371,"relativeDirection":"CONTINUE","streetName":"Boulevard Saint-Sacrement","absoluteDirection":"WEST","stayOn":false,"area":false,"bogusName":false,"lon":-71.06116440000001,"lat":48.4250223,"elevation":[]}]}],"tooSloped":false},{"duration":1292,"startTime":1522714469000,"endTime":1522715761000,"walkTime":743,"transitTime":547,"waitingTime":2,"walkDistance":955.4680751837728,"walkLimitExceeded":false,"elevationLost":0.0,"elevationGained":0.0,"transfers":0,"legs":[{"startTime":1522714469000,"endTime":1522714784000,"departureDelay":0,"arrivalDelay":0,"realTime":false,"distance":408.557,"pathway":false,"mode":"WALK","route":"","agencyTimeZoneOffset":-14400000,"interlineWithPreviousLeg":false,"from":{"name":"Origin","lon":-71.05878699,"lat":48.406351,"departure":1522714469000,"orig":"","vertexType":"NORMAL"},"to":{"name":"Saguenéens  / Bach","stopId":"1:575","stopCode":"575","lon":-71.061104,"lat":48.403689,"arrival":1522714784000,"departure":1522714785000,"zoneId":"NA","stopIndex":12,"stopSequence":13,"vertexType":"TRANSIT"},"legGeometry":{"points":"glmfHhxupLj@f@v@p@dE|D|EtEfAoC","length":6},"rentedBike":false,"transitLeg":false,"duration":315.0,"steps":[{"distance":341.601,"relativeDirection":"DEPART","streetName":"Rue Bach","absoluteDirection":"SOUTHWEST","stayOn":false,"area":false,"bogusName":false,"lon":-71.05940792180488,"lat":48.40660402994085,"elevation":[]},{"distance":66.956,"relativeDirection":"LEFT","streetName":"Rue des Saguenéens","absoluteDirection":"SOUTHEAST","stayOn":false,"area":false,"bogusName":false,"lon":-71.06187870000001,"lat":48.404006700000004,"elevation":[]}]},{"startTime":1522714785000,"endTime":1522715332000,"departureDelay":0,"arrivalDelay":0,"realTime":false,"distance":3241.588396383195,"pathway":false,"mode":"BUS","route":"15","agencyName":"Société de Transport du Saguenay","agencyUrl":"http://ville.saguenay.ca/fr/services-aux-citoyens/transport-sts","agencyTimeZoneOffset":-14400000,"routeColor":"FF00FF","routeType":3,"routeId":"1:15","routeTextColor":"FFFFFF","interlineWithPreviousLeg":false,"tripBlockId":"30","headsign":"Terminus Chicoutimi","agencyId":"0","tripId":"1:218114","serviceDate":"20180402","from":{"name":"Saguenéens  / Bach","stopId":"1:575","stopCode":"575","lon":-71.061104,"lat":48.403689,"arrival":1522714784000,"departure":1522714785000,"zoneId":"NA","stopIndex":12,"stopSequence":13,"vertexType":"TRANSIT"},"to":{"name":"Centre George Vézina (Bégin)","stopId":"1:583","stopCode":"583","lon":-71.0606,"lat":48.4201,"arrival":1522715332000,"departure":1522715333000,"zoneId":"NA","stopIndex":28,"stopSequence":29,"vertexType":"TRANSIT"},"legGeometry":{"points":"sylfHjcvpLmA|CUr@}@~A_@\\_DvCEZcA|@UP_@d@Yl@oBdFeCxG_CfGYVQXS\\dK|HlFZbC\\p@zA\\rB@hBiArG{BNw@FiG}@iDwAECcCcBo@y@sEeGe@o@qAa@m@MoB?C@}BZwAc@oA_Bs@gDCKZ{Di@QECc@_@sAkAoBwB_EcE{A_BoAmAk@o@cCaCkIkIaJaJ","length":55},"routeShortName":"15","routeLongName":"Term. Chic / Costco","rentedBike":false,"transitLeg":true,"duration":547.0,"steps":[]},{"startTime":1522715333000,"endTime":1522715761000,"departureDelay":0,"arrivalDelay":0,"realTime":false,"distance":546.781,"pathway":false,"mode":"WALK","route":"","agencyTimeZoneOffset":-14400000,"interlineWithPreviousLeg":false,"from":{"name":"Centre George Vézina (Bégin)","stopId":"1:583","stopCode":"583","lon":-71.0606,"lat":48.4201,"arrival":1522715332000,"departure":1522715333000,"zoneId":"NA","stopIndex":28,"stopSequence":29,"vertexType":"TRANSIT"},"to":{"name":"Destination","lon":-71.062948,"lat":48.4235,"arrival":1522715761000,"orig":"","vertexType":"NORMAL"},"legGeometry":{"points":"y`pfHf`vpLSScAeAg@i@KMYYStDcAC}F|NMFwCG","length":11},"rentedBike":false,"transitLeg":false,"duration":428.0,"steps":[{"distance":112.547,"relativeDirection":"DEPART","streetName":"Rue Bégin","absoluteDirection":"NORTHEAST","stayOn":false,"area":false,"bogusName":false,"lon":-71.06067782404135,"lat":48.420134620151806,"elevation":[]},{"distance":67.849,"relativeDirection":"LEFT","streetName":"Boulevard de l'Université","absoluteDirection":"WEST","stayOn":false,"area":false,"bogusName":false,"lon":-71.05981580000001,"lat":48.4209693,"elevation":[]},{"distance":38.418,"relativeDirection":"RIGHT","streetName":"Rue La Fontaine","absoluteDirection":"NORTH","stayOn":false,"area":false,"bogusName":false,"lon":-71.06072490000001,"lat":48.4210605,"elevation":[]},{"distance":327.967,"relativeDirection":"LEFT","streetName":"Boulevard Saint-Sacrement","absoluteDirection":"NORTHWEST","stayOn":false,"area":false,"bogusName":false,"lon":-71.0607068,"lat":48.4214058,"elevation":[]}]}],"tooSloped":false}]},"debugOutput":{"precalculationTime":52,"pathCalculationTime":56,"pathTimes":[29,13,14],"renderingTime":0,"totalTime":108,"timedOut":false},"elevationMetadata":{"ellipsoidToGeoidDifference":-28.885904201182168,"geoidElevation":false}}