{"requestParameters":{"date":"2018/04/02","walkSpeed":"1.33","walkReluctance":"2.0","fromPlace":"48.4235,-71.062948","maxWalkDistance":"3000","waitReluctance":"1.0","carSpeed":"33","numItineraries":"3","waitAtBeginningFactor":"0.4","mode":"TRANSIT,WALK","ignoreRealtimeUpdates":"false","stairsReluctance":"2.0","toPlace":"48.405598,-71.06785899","time":"7:45:00"},"plan":{"date":1522669500000,"from":{"name":"Origin","lon":-71.062948,"lat":48.4235,"orig":"","vertexType":"NORMAL"},"to":{"name":"Destination","lon":-71.06785899,"lat":48.405598,"orig":"","vertexType":"NORMAL"},"itineraries":[{"duration":1186,"startTime":1522669625000,"endTime":1522670811000,"walkTime":612,"transitTime":572,"waitingTime":2,"walkDistance":784.156285710598,"walkLimitExceeded":false,"elevationLost":0.0,"elevationGained":0.0,"transfers":0,"legs":[{"startTime":1522669625000,"endTime":1522670061000,"departureDelay":0,"arrivalDelay":0,"realTime":false,"distance":559.107,"pathway":false,"mode":"WALK","route":"","agencyTimeZoneOffset":-14400000,"interlineWithPreviousLeg":false,"from":{"name":"Origin","lon":-71.062948,"lat":48.4235,"departure":1522669625000,"orig":"","vertexType":"NORMAL"},"to":{"name":"CFP Oasis (Bégin / Université)","stopId":"1:564","stopCode":"564","lon":-71.0609,"lat":48.4201,"arrival":1522670061000,"departure":1522670062000,"zoneId":"NA","stopIndex":8,"stopSequence":9,"vertexType":"TRANSIT"},"legGeometry":{"points":"{upfHjpvpLvCFLG|F}NbABRuDXXJLf@h@bAdARRPR","length":12},"rentedBike":false,"transitLeg":false,"duration":436.0,"steps":[{"distance":327.967,"relativeDirection":"DEPART","streetName":"Boulevard Saint-Sacrement","absoluteDirection":"SOUTH","stayOn":false,"area":false,"bogusName":false,"lon":-71.06325376171094,"lat":48.423506549942644,"elevation":[]},{"distance":38.418,"relativeDirection":"RIGHT","streetName":"Rue La Fontaine","absoluteDirection":"SOUTH","stayOn":false,"area":false,"bogusName":false,"lon":-71.0607068,"lat":48.4214058,"elevation":[]},{"distance":67.849,"relativeDirection":"LEFT","streetName":"Boulevard de l'Université","absoluteDirection":"EAST","stayOn":false,"area":false,"bogusName":false,"lon":-71.06072490000001,"lat":48.4210605,"elevation":[]},{"distance":124.87299999999999,"relativeDirection":"RIGHT","streetName":"Rue Bégin","absoluteDirection":"SOUTHWEST","stayOn":false,"area":false,"bogusName":false,"lon":-71.05981580000001,"lat":48.4209693,"elevation":[]}]},{"startTime":1522670062000,"endTime":1522670634000,"departureDelay":0,"arrivalDelay":0,"realTime":false,"distance":2542.738232855672,"pathway":false,"mode":"BUS","route":"15","agencyName":"Société de Transport du Saguenay","agencyUrl":"http://ville.saguenay.ca/fr/services-aux-citoyens/transport-sts","agencyTimeZoneOffset":-14400000,"routeColor":"FF00FF","routeType":3,"routeId":"1:15","routeTextColor":"FFFFFF","interlineWithPreviousLeg":false,"tripBlockId":"31","headsign":"Talbot / Barrette","agencyId":"0","tripId":"1:218124","serviceDate":"20180402","from":{"name":"CFP Oasis (Bégin / Université)","stopId":"1:564","stopCode":"564","lon":-71.0609,"lat":48.4201,"arrival":1522670061000,"departure":1522670062000,"zoneId":"NA","stopIndex":8,"stopSequence":9,"vertexType":"TRANSIT"},"to":{"name":"Saguenéens (no. 129)","stopId":"1:2000","stopCode":"2000","lon":-71.067064,"lat":48.407463,"arrival":1522670634000,"departure":1522670635000,"zoneId":"NA","stopIndex":19,"stopSequence":20,"vertexType":"TRANSIT"},"legGeometry":{"points":"}_pfHd`vpLjJlJ`HbHlJpJ|J~JdAfALzDNzDrAdBrEKvBEbCv@d@TvFlC|DlBpMlGrB`AM}@hAwEC{B]oBiBmBsH_@_K{H`EgI","length":25},"routeShortName":"15","routeLongName":"Term. Chic / Costco","rentedBike":false,"transitLeg":true,"duration":572.0,"steps":[]},{"startTime":1522670635000,"endTime":1522670811000,"departureDelay":0,"arrivalDelay":0,"realTime":false,"distance":224.935,"pathway":false,"mode":"WALK","route":"","agencyTimeZoneOffset":-14400000,"interlineWithPreviousLeg":false,"from":{"name":"Saguenéens (no. 129)","stopId":"1:2000","stopCode":"2000","lon":-71.067064,"lat":48.407463,"arrival":1522670634000,"departure":1522670635000,"zoneId":"NA","stopIndex":19,"stopSequence":20,"vertexType":"TRANSIT"},"to":{"name":"Destination","lon":-71.06785899,"lat":48.405598,"arrival":1522670811000,"orig":"","vertexType":"NORMAL"},"legGeometry":{"points":"gqmfHphwpLPa@DMrBbChEbC","length":5},"rentedBike":false,"transitLeg":false,"duration":176.0,"steps":[{"distance":21.978,"relativeDirection":"DEPART","streetName":"Rue des Saguenéens","absoluteDirection":"SOUTHEAST","stayOn":false,"area":false,"bogusName":false,"lon":-71.06712694989164,"lat":48.40740751123809,"elevation":[]},{"distance":80.88,"relativeDirection":"RIGHT","streetName":"path","absoluteDirection":"SOUTHWEST","stayOn":false,"area":false,"bogusName":true,"lon":-71.0668891,"lat":48.4072886,"elevation":[]},{"distance":122.077,"relativeDirection":"CONTINUE","streetName":"Rue Jean Bourdon","absoluteDirection":"SOUTHWEST","stayOn":false,"area":false,"bogusName":false,"lon":-71.0675429,"lat":48.4067049,"elevation":[]}]}],"tooSloped":false},{"duration":1878,"startTime":1522669500000,"endTime":1522671378000,"walkTime":1878,"transitTime":0,"waitingTime":0,"walkDistance":2431.78752631061,"walkLimitExceeded":false,"elevationLost":0.0,"elevationGained":0.0,"transfers":0,"legs":[{"startTime":1522669500000,"endTime":1522671378000,"departureDelay":0,"arrivalDelay":0,"realTime":false,"distance":2431.6270000000004,"pathway":false,"mode":"WALK","route":"","agencyTimeZoneOffset":-14400000,"interlineWithPreviousLeg":false,"from":{"name":"Origin","lon":-71.062948,"lat":48.4235,"departure":1522669500000,"orig":"","vertexType":"NORMAL"},"to":{"name":"Destination","lon":-71.06785899,"lat":48.405598,"arrival":1522671378000,"orig":"","vertexType":"NORMAL"},"legGeometry":{"points":"{upfHjpvpLvCFLG|F}NbABRuDXXJLf@h@bAdARRPRbB`BhCfC\\d@bA`AZZvBvBzDnD\\X|A`BFDn@l@LNrCpCFFBBv@v@rCpC~AvBTHz@t@r@l@LTJ?zCFv@Dv@Xl@d@@?jAz@`@TR@h@?tBKh@?pBGn@IF@\\BRNJ[`DaI??Pa@DMrBbChEbC","length":58},"rentedBike":false,"transitLeg":false,"duration":1878.0,"steps":[{"distance":327.967,"relativeDirection":"DEPART","streetName":"Boulevard Saint-Sacrement","absoluteDirection":"SOUTH","stayOn":false,"area":false,"bogusName":false,"lon":-71.06325376171094,"lat":48.423506549942644,"elevation":[]},{"distance":38.418,"relativeDirection":"RIGHT","streetName":"Rue La Fontaine","absoluteDirection":"SOUTH","stayOn":false,"area":false,"bogusName":false,"lon":-71.0607068,"lat":48.4214058,"elevation":[]},{"distance":67.849,"relativeDirection":"LEFT","streetName":"Boulevard de l'Université","absoluteDirection":"EAST","stayOn":false,"area":false,"bogusName":false,"lon":-71.06072490000001,"lat":48.4210605,"elevation":[]},{"distance":1107.956,"relativeDirection":"RIGHT","streetName":"Rue Bégin","absoluteDirection":"SOUTHWEST","stayOn":false,"area":false,"bogusName":false,"lon":-71.05981580000001,"lat":48.4209693,"elevation":[]},{"distance":503.30699999999996,"relativeDirection":"LEFT","streetName":"Rue Bégin","absoluteDirection":"SOUTH","stayOn":true,"area":false,"bogusName":false,"lon":-71.0681022,"lat":48.4126786,"elevation":[]},{"distance":183.17299999999997,"relativeDirection":"LEFT","streetName":"Rue des Saguenéens","absoluteDirection":"SOUTHEAST","stayOn":false,"area":false,"bogusName":false,"lon":-71.0688714,"lat":48.4082796,"elevation":[]},{"distance":80.88,"relativeDirection":"RIGHT","streetName":"path","absoluteDirection":"SOUTHWEST","stayOn":false,"area":false,"bogusName":true,"lon":-71.0668891,"lat":48.4072886,"elevation":[]},{"distance":122.077,"relativeDirection":"CONTINUE","streetName":"Rue Jean Bourdon","absoluteDirection":"SOUTHWEST","stayOn":false,"area":false,"bogusName":false,"lon":-71.0675429,"lat":48.4067049,"elevation":[]}]}],"tooSloped":false},{"duration":1186,"startTime":1522671425000,"endTime":1522672611000,"walkTime":612,"transitTime":572,"waitingTime":2,"walkDistance":784.156285710598,"walkLimitExceeded":false,"elevationLost":0.0,"elevationGained":0.0,"transfers":0,"legs":[{"startTime":1522671425000,"endTime":1522671861000,"departureDelay":0,"arrivalDelay":0,"realTime":false,"distance":559.107,"pathway":false,"mode":"WALK","route":"","agencyTimeZoneOffset":-14400000,"interlineWithPreviousLeg":false,"from":{"name":"Origin","lon":-71.062948,"lat":48.4235,"departure":1522671425000,"orig":"","vertexType":"NORMAL"},"to":{"name":"CFP Oasis (Bégin / Université)","stopId":"1:564","stopCode":"564","lon":-71.0609,"lat":48.4201,"arrival":1522671861000,"departure":1522671862000,"zoneId":"NA","stopIndex":8,"stopSequence":9,"vertexType":"TRANSIT"},"legGeometry":{"points":"{upfHjpvpLvCFLG|F}NbABRuDXXJLf@h@bAdARRPR","length":12},"rentedBike":false,"transitLeg":false,"duration":436.0,"steps":[{"distance":327.967,"relativeDirection":"DEPART","streetName":"Boulevard Saint-Sacrement","absoluteDirection":"SOUTH","stayOn":false,"area":false,"bogusName":false,"lon":-71.06325376171094,"lat":48.423506549942644,"elevation":[]},{"distance":38.418,"relativeDirection":"RIGHT","streetName":"Rue La Fontaine","absoluteDirection":"SOUTH","stayOn":false,"area":false,"bogusName":false,"lon":-71.0607068,"lat":48.4214058,"elevation":[]},{"distance":67.849,"relativeDirection":"LEFT","streetName":"Boulevard de l'Université","absoluteDirection":"EAST","stayOn":false,"area":false,"bogusName":false,"lon":-71.06072490000001,"lat":48.4210605,"elevation":[]},{"distance":124.87299999999999,"relativeDirection":"RIGHT","streetName":"Rue Bégin","absoluteDirection":"SOUTHWEST","stayOn":false,"area":false,"bogusName":false,"lon":-71.05981580000001,"lat":48.4209693,"elevation":[]}]},{"startTime":1522671862000,"endTime":1522672434000,"departureDelay":0,"arrivalDelay":0,"realTime":false,"distance":2542.738232855672,"pathway":false,"mode":"BUS","route":"15","agencyName":"Société de Transport du Saguenay","agencyUrl":"http://ville.saguenay.ca/fr/services-aux-citoyens/transport-sts","agencyTimeZoneOffset":-14400000,"routeColor":"FF00FF","routeType":3,"routeId":"1:15","routeTextColor":"FFFFFF","interlineWithPreviousLeg":false,"tripBlockId":"33","headsign":"Talbot / Barrette","agencyId":"0","tripId":"1:218175","serviceDate":"20180402","from":{"name":"CFP Oasis (Bégin / Université)","stopId":"1:564","stopCode":"564","lon":-71.0609,"lat":48.4201,"arrival":1522671861000,"departure":1522671862000,"zoneId":"NA","stopIndex":8,"stopSequence":9,"vertexType":"TRANSIT"},"to":{"name":"Saguenéens (no. 129)","stopId":"1:2000","stopCode":"2000","lon":-71.067064,"lat":48.407463,"arrival":1522672434000,"departure":1522672435000,"zoneId":"NA","stopIndex":19,"stopSequence":20,"vertexType":"TRANSIT"},"legGeometry":{"points":"}_pfHd`vpLjJlJ`HbHlJpJ|J~JdAfALzDNzDrAdBrEKvBEbCv@d@TvFlC|DlBpMlGrB`AM}@hAwEC{B]oBiBmBsH_@_K{H`EgI","length":25},"routeShortName":"15","routeLongName":"Term. Chic / Costco","rentedBike":false,"transitLeg":true,"duration":572.0,"steps":[]},{"startTime":1522672435000,"endTime":1522672611000,"departureDelay":0,"arrivalDelay":0,"realTime":false,"distance":224.935,"pathway":false,"mode":"WALK","route":"","agencyTimeZoneOffset":-14400000,"interlineWithPreviousLeg":false,"from":{"name":"Saguenéens (no. 129)","stopId":"1:2000","stopCode":"2000","lon":-71.067064,"lat":48.407463,"arrival":1522672434000,"departure":1522672435000,"zoneId":"NA","stopIndex":19,"stopSequence":20,"vertexType":"TRANSIT"},"to":{"name":"Destination","lon":-71.06785899,"lat":48.405598,"arrival":1522672611000,"orig":"","vertexType":"NORMAL"},"legGeometry":{"points":"gqmfHphwpLPa@DMrBbChEbC","length":5},"rentedBike":false,"transitLeg":false,"duration":176.0,"steps":[{"distance":21.978,"relativeDirection":"DEPART","streetName":"Rue des Saguenéens","absoluteDirection":"SOUTHEAST","stayOn":false,"area":false,"bogusName":false,"lon":-71.06712694989164,"lat":48.40740751123809,"elevation":[]},{"distance":80.88,"relativeDirection":"RIGHT","streetName":"path","absoluteDirection":"SOUTHWEST","stayOn":false,"area":false,"bogusName":true,"lon":-71.0668891,"lat":48.4072886,"elevation":[]},{"distance":122.077,"relativeDirection":"CONTINUE","streetName":"Rue Jean Bourdon","absoluteDirection":"SOUTHWEST","stayOn":false,"area":false,"bogusName":false,"lon":-71.0675429,"lat":48.4067049,"elevation":[]}]}],"tooSloped":false}]},"debugOutput":{"precalculationTime":53,"pathCalculationTime":43,"pathTimes":[20,10,13],"renderingTime":1,"totalTime":97,"timedOut":false},"elevationMetadata":{"ellipsoidToGeoidDifference":-28.885904201182168,"geoidElevation":false}}