{"requestParameters":{"date":"2018/04/02","walkSpeed":"1.33","walkReluctance":"2.0","fromPlace":"48.383492,-71.08352999","maxWalkDistance":"3000","waitReluctance":"1.0","carSpeed":"33","numItineraries":"3","waitAtBeginningFactor":"0.4","mode":"TRANSIT,WALK","ignoreRealtimeUpdates":"false","stairsReluctance":"2.0","toPlace":"48.392045,-71.054377","time":"19:0:00"},"plan":{"date":1522710000000,"from":{"name":"Origin","lon":-71.08352999,"lat":48.383492,"orig":"","vertexType":"NORMAL"},"to":{"name":"Destination","lon":-71.054377,"lat":48.392045,"orig":"","vertexType":"NORMAL"},"itineraries":[{"duration":1539,"startTime":1522710908000,"endTime":1522712447000,"walkTime":1204,"transitTime":333,"waitingTime":2,"walkDistance":1549.374315782171,"walkLimitExceeded":false,"elevationLost":0.0,"elevationGained":0.0,"transfers":0,"legs":[{"startTime":1522710908000,"endTime":1522710926000,"departureDelay":0,"arrivalDelay":0,"realTime":false,"distance":23.36,"pathway":false,"mode":"WALK","route":"","agencyTimeZoneOffset":-14400000,"interlineWithPreviousLeg":false,"from":{"name":"Origin","lon":-71.08352999,"lat":48.383492,"departure":1522710908000,"orig":"","vertexType":"NORMAL"},"to":{"name":"COSTCO","stopId":"1:1542","stopCode":"1542","lon":-71.084272,"lat":48.383644,"arrival":1522710926000,"departure":1522710927000,"zoneId":"NA","stopIndex":1,"stopSequence":2,"vertexType":"TRANSIT"},"legGeometry":{"points":"_~hfH|rzpLTZJJ","length":3},"rentedBike":false,"transitLeg":false,"duration":18.0,"steps":[{"distance":23.36,"relativeDirection":"DEPART","streetName":"service road","absoluteDirection":"SOUTHWEST","stayOn":false,"area":false,"bogusName":false,"lon":-71.08414271500874,"lat":48.383841239633476,"elevation":[]}]},{"startTime":1522710927000,"endTime":1522711260000,"departureDelay":0,"arrivalDelay":0,"realTime":false,"distance":1807.6085323849115,"pathway":false,"mode":"BUS","route":"175","agencyName":"Société de Transport du Saguenay","agencyUrl":"http://ville.saguenay.ca/fr/services-aux-citoyens/transport-sts","agencyTimeZoneOffset":-14400000,"routeColor":"FF00FF","routeType":3,"routeId":"1:175","routeTextColor":"FFFFFF","interlineWithPreviousLeg":false,"tripBlockId":"9","headsign":"Terminus Chicoutimi","agencyId":"0","tripId":"1:217417","serviceDate":"20180402","from":{"name":"COSTCO","stopId":"1:1542","stopCode":"1542","lon":-71.084272,"lat":48.383644,"arrival":1522710926000,"departure":1522710927000,"zoneId":"NA","stopIndex":1,"stopSequence":2,"vertexType":"TRANSIT"},"to":{"name":"boul. Talbot / boul. Barrette","stopId":"1:49","stopCode":"49","lon":-71.069502,"lat":48.394497,"arrival":1522711260000,"departure":1522711261000,"zoneId":"NA","stopIndex":7,"stopSequence":8,"vertexType":"TRANSIT"},"legGeometry":{"points":"y|hfHzszpLwCqDrCsGN_@uEoFoEiFUWSUqCwC]a@{ByC{@cAkJuKoAwA_CeCeExJ~AlB`@mAu@k@}@q@|C}Iw@}@aO_QkEsE","length":24},"routeShortName":"175","routeLongName":"Term. Chic / Costco","rentedBike":false,"transitLeg":true,"duration":333.0,"steps":[]},{"startTime":1522711261000,"endTime":1522712447000,"departureDelay":0,"arrivalDelay":0,"realTime":false,"distance":1525.788,"pathway":false,"mode":"WALK","route":"","agencyTimeZoneOffset":-14400000,"interlineWithPreviousLeg":false,"from":{"name":"boul. Talbot / boul. Barrette","stopId":"1:49","stopCode":"49","lon":-71.069502,"lat":48.394497,"arrival":1522711260000,"departure":1522711261000,"zoneId":"NA","stopIndex":7,"stopSequence":8,"vertexType":"TRANSIT"},"to":{"name":"Destination","lon":-71.054377,"lat":48.392045,"arrival":1522712447000,"orig":"","vertexType":"NORMAL"},"legGeometry":{"points":"}`kfHdxwpL|BlCFQ@CnA{C@EV_@Z}@VmAN{ADsAKiAa@uAEOFIGOk@wBSaBGc@?EEqCBaF?eC?m@BuB?k@HwGlD`@jACAs@BwABu@JyBAcC_@kCKsASeBCyA@QVmETmCJcAj@F","length":43},"rentedBike":false,"transitLeg":false,"duration":1186.0,"steps":[{"distance":87.727,"relativeDirection":"DEPART","streetName":"Boulevard Talbot","absoluteDirection":"SOUTHWEST","stayOn":false,"area":false,"bogusName":false,"lon":-71.06962085488986,"lat":48.394555935445034,"elevation":[]},{"distance":299.824,"relativeDirection":"LEFT","streetName":"Rue Des Roitelets","absoluteDirection":"SOUTHEAST","stayOn":false,"area":false,"bogusName":false,"lon":-71.0703318,"lat":48.3939238,"elevation":[]},{"distance":5.699,"relativeDirection":"RIGHT","streetName":"service road","absoluteDirection":"SOUTHEAST","stayOn":false,"area":false,"bogusName":true,"lon":-71.0667954,"lat":48.3932324,"elevation":[]},{"distance":479.46400000000006,"relativeDirection":"LEFT","streetName":"bike path","absoluteDirection":"NORTHEAST","stayOn":true,"area":false,"bogusName":true,"lon":-71.0667475,"lat":48.3931922,"elevation":[]},{"distance":139.498,"relativeDirection":"RIGHT","streetName":"Rue des Comorans","absoluteDirection":"SOUTH","stayOn":false,"area":false,"bogusName":false,"lon":-71.0603964,"lat":48.3935308,"elevation":[]},{"distance":488.869,"relativeDirection":"LEFT","streetName":"Rue des Hirondelles","absoluteDirection":"EAST","stayOn":false,"area":false,"bogusName":false,"lon":-71.06054300000001,"lat":48.392283600000006,"elevation":[]},{"distance":24.707,"relativeDirection":"RIGHT","streetName":"road","absoluteDirection":"SOUTH","stayOn":false,"area":false,"bogusName":false,"lon":-71.0540551,"lat":48.392244000000005,"elevation":[]}]}],"tooSloped":false},{"duration":1539,"startTime":1522712708000,"endTime":1522714247000,"walkTime":1204,"transitTime":333,"waitingTime":2,"walkDistance":1549.374315782171,"walkLimitExceeded":false,"elevationLost":0.0,"elevationGained":0.0,"transfers":0,"legs":[{"startTime":1522712708000,"endTime":1522712726000,"departureDelay":0,"arrivalDelay":0,"realTime":false,"distance":23.36,"pathway":false,"mode":"WALK","route":"","agencyTimeZoneOffset":-14400000,"interlineWithPreviousLeg":false,"from":{"name":"Origin","lon":-71.08352999,"lat":48.383492,"departure":1522712708000,"orig":"","vertexType":"NORMAL"},"to":{"name":"COSTCO","stopId":"1:1542","stopCode":"1542","lon":-71.084272,"lat":48.383644,"arrival":1522712726000,"departure":1522712727000,"zoneId":"NA","stopIndex":1,"stopSequence":2,"vertexType":"TRANSIT"},"legGeometry":{"points":"_~hfH|rzpLTZJJ","length":3},"rentedBike":false,"transitLeg":false,"duration":18.0,"steps":[{"distance":23.36,"relativeDirection":"DEPART","streetName":"service road","absoluteDirection":"SOUTHWEST","stayOn":false,"area":false,"bogusName":false,"lon":-71.08414271500874,"lat":48.383841239633476,"elevation":[]}]},{"startTime":1522712727000,"endTime":1522713060000,"departureDelay":0,"arrivalDelay":0,"realTime":false,"distance":1807.6085323849115,"pathway":false,"mode":"BUS","route":"175","agencyName":"Société de Transport du Saguenay","agencyUrl":"http://ville.saguenay.ca/fr/services-aux-citoyens/transport-sts","agencyTimeZoneOffset":-14400000,"routeColor":"FF00FF","routeType":3,"routeId":"1:175","routeTextColor":"FFFFFF","interlineWithPreviousLeg":false,"tripBlockId":"11","headsign":"Terminus Chicoutimi","agencyId":"0","tripId":"1:217488","serviceDate":"20180402","from":{"name":"COSTCO","stopId":"1:1542","stopCode":"1542","lon":-71.084272,"lat":48.383644,"arrival":1522712726000,"departure":1522712727000,"zoneId":"NA","stopIndex":1,"stopSequence":2,"vertexType":"TRANSIT"},"to":{"name":"boul. Talbot / boul. Barrette","stopId":"1:49","stopCode":"49","lon":-71.069502,"lat":48.394497,"arrival":1522713060000,"departure":1522713061000,"zoneId":"NA","stopIndex":7,"stopSequence":8,"vertexType":"TRANSIT"},"legGeometry":{"points":"y|hfHzszpLwCqDrCsGN_@uEoFoEiFUWSUqCwC]a@{ByC{@cAkJuKoAwA_CeCeExJ~AlB`@mAu@k@}@q@|C}Iw@}@aO_QkEsE","length":24},"routeShortName":"175","routeLongName":"Term. Chic / Costco","rentedBike":false,"transitLeg":true,"duration":333.0,"steps":[]},{"startTime":1522713061000,"endTime":1522714247000,"departureDelay":0,"arrivalDelay":0,"realTime":false,"distance":1525.788,"pathway":false,"mode":"WALK","route":"","agencyTimeZoneOffset":-14400000,"interlineWithPreviousLeg":false,"from":{"name":"boul. Talbot / boul. Barrette","stopId":"1:49","stopCode":"49","lon":-71.069502,"lat":48.394497,"arrival":1522713060000,"departure":1522713061000,"zoneId":"NA","stopIndex":7,"stopSequence":8,"vertexType":"TRANSIT"},"to":{"name":"Destination","lon":-71.054377,"lat":48.392045,"arrival":1522714247000,"orig":"","vertexType":"NORMAL"},"legGeometry":{"points":"}`kfHdxwpL|BlCFQ@CnA{C@EV_@Z}@VmAN{ADsAKiAa@uAEOFIGOk@wBSaBGc@?EEqCBaF?eC?m@BuB?k@HwGlD`@jACAs@BwABu@JyBAcC_@kCKsASeBCyA@QVmETmCJcAj@F","length":43},"rentedBike":false,"transitLeg":false,"duration":1186.0,"steps":[{"distance":87.727,"relativeDirection":"DEPART","streetName":"Boulevard Talbot","absoluteDirection":"SOUTHWEST","stayOn":false,"area":false,"bogusName":false,"lon":-71.06962085488986,"lat":48.394555935445034,"elevation":[]},{"distance":299.824,"relativeDirection":"LEFT","streetName":"Rue Des Roitelets","absoluteDirection":"SOUTHEAST","stayOn":false,"area":false,"bogusName":false,"lon":-71.0703318,"lat":48.3939238,"elevation":[]},{"distance":5.699,"relativeDirection":"RIGHT","streetName":"service road","absoluteDirection":"SOUTHEAST","stayOn":false,"area":false,"bogusName":true,"lon":-71.0667954,"lat":48.3932324,"elevation":[]},{"distance":479.46400000000006,"relativeDirection":"LEFT","streetName":"bike path","absoluteDirection":"NORTHEAST","stayOn":true,"area":false,"bogusName":true,"lon":-71.0667475,"lat":48.3931922,"elevation":[]},{"distance":139.498,"relativeDirection":"RIGHT","streetName":"Rue des Comorans","absoluteDirection":"SOUTH","stayOn":false,"area":false,"bogusName":false,"lon":-71.0603964,"lat":48.3935308,"elevation":[]},{"distance":488.869,"relativeDirection":"LEFT","streetName":"Rue des Hirondelles","absoluteDirection":"EAST","stayOn":false,"area":false,"bogusName":false,"lon":-71.06054300000001,"lat":48.392283600000006,"elevation":[]},{"distance":24.707,"relativeDirection":"RIGHT","streetName":"road","absoluteDirection":"SOUTH","stayOn":false,"area":false,"bogusName":false,"lon":-71.0540551,"lat":48.392244000000005,"elevation":[]}]}],"tooSloped":false},{"duration":1539,"startTime":1522714508000,"endTime":1522716047000,"walkTime":1204,"transitTime":333,"waitingTime":2,"walkDistance":1549.374315782171,"walkLimitExceeded":false,"elevationLost":0.0,"elevationGained":0.0,"transfers":0,"legs":[{"startTime":1522714508000,"endTime":1522714526000,"departureDelay":0,"arrivalDelay":0,"realTime":false,"distance":23.36,"pathway":false,"mode":"WALK","route":"","agencyTimeZoneOffset":-14400000,"interlineWithPreviousLeg":false,"from":{"name":"Origin","lon":-71.08352999,"lat":48.383492,"departure":1522714508000,"orig":"","vertexType":"NORMAL"},"to":{"name":"COSTCO","stopId":"1:1542","stopCode":"1542","lon":-71.084272,"lat":48.383644,"arrival":1522714526000,"departure":1522714527000,"zoneId":"NA","stopIndex":1,"stopSequence":2,"vertexType":"TRANSIT"},"legGeometry":{"points":"_~hfH|rzpLTZJJ","length":3},"rentedBike":false,"transitLeg":false,"duration":18.0,"steps":[{"distance":23.36,"relativeDirection":"DEPART","streetName":"service road","absoluteDirection":"SOUTHWEST","stayOn":false,"area":false,"bogusName":false,"lon":-71.08414271500874,"lat":48.383841239633476,"elevation":[]}]},{"startTime":1522714527000,"endTime":1522714860000,"departureDelay":0,"arrivalDelay":0,"realTime":false,"distance":1807.6085323849115,"pathway":false,"mode":"BUS","route":"175","agencyName":"Société de Transport du Saguenay","agencyUrl":"http://ville.saguenay.ca/fr/services-aux-citoyens/transport-sts","agencyTimeZoneOffset":-14400000,"routeColor":"FF00FF","routeType":3,"routeId":"1:175","routeTextColor":"FFFFFF","interlineWithPreviousLeg":false,"tripBlockId":"10","headsign":"Terminus Chicoutimi","agencyId":"0","tripId":"1:217454","serviceDate":"20180402","from":{"name":"COSTCO","stopId":"1:1542","stopCode":"1542","lon":-71.084272,"lat":48.383644,"arrival":1522714526000,"departure":1522714527000,"zoneId":"NA","stopIndex":1,"stopSequence":2,"vertexType":"TRANSIT"},"to":{"name":"boul. Talbot / boul. Barrette","stopId":"1:49","stopCode":"49","lon":-71.069502,"lat":48.394497,"arrival":1522714860000,"departure":1522714861000,"zoneId":"NA","stopIndex":7,"stopSequence":8,"vertexType":"TRANSIT"},"legGeometry":{"points":"y|hfHzszpLwCqDrCsGN_@uEoFoEiFUWSUqCwC]a@{ByC{@cAkJuKoAwA_CeCeExJ~AlB`@mAu@k@}@q@|C}Iw@}@aO_QkEsE","length":24},"routeShortName":"175","routeLongName":"Term. Chic / Costco","rentedBike":false,"transitLeg":true,"duration":333.0,"steps":[]},{"startTime":1522714861000,"endTime":1522716047000,"departureDelay":0,"arrivalDelay":0,"realTime":false,"distance":1525.788,"pathway":false,"mode":"WALK","route":"","agencyTimeZoneOffset":-14400000,"interlineWithPreviousLeg":false,"from":{"name":"boul. Talbot / boul. Barrette","stopId":"1:49","stopCode":"49","lon":-71.069502,"lat":48.394497,"arrival":1522714860000,"departure":1522714861000,"zoneId":"NA","stopIndex":7,"stopSequence":8,"vertexType":"TRANSIT"},"to":{"name":"Destination","lon":-71.054377,"lat":48.392045,"arrival":1522716047000,"orig":"","vertexType":"NORMAL"},"legGeometry":{"points":"}`kfHdxwpL|BlCFQ@CnA{C@EV_@Z}@VmAN{ADsAKiAa@uAEOFIGOk@wBSaBGc@?EEqCBaF?eC?m@BuB?k@HwGlD`@jACAs@BwABu@JyBAcC_@kCKsASeBCyA@QVmETmCJcAj@F","length":43},"rentedBike":false,"transitLeg":false,"duration":1186.0,"steps":[{"distance":87.727,"relativeDirection":"DEPART","streetName":"Boulevard Talbot","absoluteDirection":"SOUTHWEST","stayOn":false,"area":false,"bogusName":false,"lon":-71.06962085488986,"lat":48.394555935445034,"elevation":[]},{"distance":299.824,"relativeDirection":"LEFT","streetName":"Rue Des Roitelets","absoluteDirection":"SOUTHEAST","stayOn":false,"area":false,"bogusName":false,"lon":-71.0703318,"lat":48.3939238,"elevation":[]},{"distance":5.699,"relativeDirection":"RIGHT","streetName":"service road","absoluteDirection":"SOUTHEAST","stayOn":false,"area":false,"bogusName":true,"lon":-71.0667954,"lat":48.3932324,"elevation":[]},{"distance":479.46400000000006,"relativeDirection":"LEFT","streetName":"bike path","absoluteDirection":"NORTHEAST","stayOn":true,"area":false,"bogusName":true,"lon":-71.0667475,"lat":48.3931922,"elevation":[]},{"distance":139.498,"relativeDirection":"RIGHT","streetName":"Rue des Comorans","absoluteDirection":"SOUTH","stayOn":false,"area":false,"bogusName":false,"lon":-71.0603964,"lat":48.3935308,"elevation":[]},{"distance":488.869,"relativeDirection":"LEFT","streetName":"Rue des Hirondelles","absoluteDirection":"EAST","stayOn":false,"area":false,"bogusName":false,"lon":-71.06054300000001,"lat":48.392283600000006,"elevation":[]},{"distance":24.707,"relativeDirection":"RIGHT","streetName":"road","absoluteDirection":"SOUTH","stayOn":false,"area":false,"bogusName":false,"lon":-71.0540551,"lat":48.392244000000005,"elevation":[]}]}],"tooSloped":false}]},"debugOutput":{"precalculationTime":14,"pathCalculationTime":15,"pathTimes":[8,5,2],"renderingTime":0,"totalTime":29,"timedOut":false},"elevationMetadata":{"ellipsoidToGeoidDifference":-28.885904201182168,"geoidElevation":false}}