{"requestParameters":{"date":"2018/04/02","walkSpeed":"1.33","walkReluctance":"2.0","fromPlace":"48.425927,-71.081758","maxWalkDistance":"3000","waitReluctance":"1.0","carSpeed":"33","numItineraries":"3","waitAtBeginningFactor":"0.4","mode":"TRANSIT,WALK","ignoreRealtimeUpdates":"false","stairsReluctance":"2.0","toPlace":"48.421124,-71.06697599","time":"7:30:00"},"plan":{"date":1522668600000,"from":{"name":"Origin","lon":-71.081758,"lat":48.425927,"orig":"","vertexType":"NORMAL"},"to":{"name":"Destination","lon":-71.06697599,"lat":48.421124,"orig":"","vertexType":"NORMAL"},"itineraries":[{"duration":1143,"startTime":1522668600000,"endTime":1522669743000,"walkTime":1143,"transitTime":0,"waitingTime":0,"walkDistance":1449.5958345773076,"walkLimitExceeded":false,"elevationLost":0.0,"elevationGained":0.0,"transfers":0,"legs":[{"startTime":1522668600000,"endTime":1522669743000,"departureDelay":0,"arrivalDelay":0,"realTime":false,"distance":1449.3120000000004,"pathway":false,"mode":"WALK","route":"","agencyTimeZoneOffset":-14400000,"interlineWithPreviousLeg":false,"from":{"name":"Origin","lon":-71.081758,"lat":48.425927,"departure":1522668600000,"orig":"","vertexType":"NORMAL"},"to":{"name":"Destination","lon":-71.06697599,"lat":48.421124,"arrival":1522669743000,"orig":"","vertexType":"NORMAL"},"legGeometry":{"points":"ceqfHhdzpLYY`@oAd@_Bh@f@rApAZRr@u@pBqB~AqBNaB?kAEQVuDDq@J_@DMBK?MCICEEC^gAd@}@n@cAXk@Bk@AM?c@XAFA^]FSh@{A`@gAGc@YcACe@E}@Ao@?e@Fa@x@eCVcAN_AJkBPqJ@a@LcGDgBBwA","length":51},"rentedBike":false,"transitLeg":false,"duration":1143.0,"steps":[{"distance":17.47,"relativeDirection":"DEPART","streetName":"Ruelle Saint-Félix","absoluteDirection":"NORTHEAST","stayOn":false,"area":false,"bogusName":false,"lon":-71.08180662112518,"lat":48.425949129075306,"elevation":[]},{"distance":76.293,"relativeDirection":"RIGHT","streetName":"Côte Fortin","absoluteDirection":"SOUTHEAST","stayOn":false,"area":false,"bogusName":false,"lon":-71.0816727,"lat":48.426078700000005,"elevation":[]},{"distance":100.732,"relativeDirection":"RIGHT","streetName":"Rue Dréan","absoluteDirection":"SOUTHWEST","stayOn":false,"area":false,"bogusName":false,"lon":-71.08079190000001,"lat":48.4257197,"elevation":[]},{"distance":179.39800000000002,"relativeDirection":"LEFT","streetName":"Rue Dubuc","absoluteDirection":"SOUTHEAST","stayOn":false,"area":false,"bogusName":false,"lon":-71.0815067,"lat":48.424949000000005,"elevation":[]},{"distance":65.531,"relativeDirection":"SLIGHTLY_LEFT","streetName":"road","absoluteDirection":"EAST","stayOn":false,"area":false,"bogusName":true,"lon":-71.080094,"lat":48.4236379,"elevation":[]},{"distance":7.693,"relativeDirection":"SLIGHTLY_LEFT","streetName":"Rue Bossé","absoluteDirection":"NORTHEAST","stayOn":false,"area":false,"bogusName":false,"lon":-71.0792211,"lat":48.423552400000005,"elevation":[]},{"distance":86.86699999999999,"relativeDirection":"RIGHT","streetName":"Rue le Doré","absoluteDirection":"EAST","stayOn":false,"area":false,"bogusName":false,"lon":-71.07913090000001,"lat":48.423587100000006,"elevation":[]},{"distance":41.096000000000004,"relativeDirection":"SLIGHTLY_RIGHT","streetName":"Rue Saint Onésime","absoluteDirection":"SOUTHEAST","stayOn":false,"area":false,"bogusName":false,"lon":-71.077976,"lat":48.423435700000006,"elevation":[]},{"distance":156.105,"relativeDirection":"RIGHT","streetName":"path","absoluteDirection":"SOUTHEAST","stayOn":false,"area":false,"bogusName":true,"lon":-71.0775138,"lat":48.423397400000006,"elevation":[]},{"distance":122.732,"relativeDirection":"RIGHT","streetName":"Rue Taché","absoluteDirection":"SOUTH","stayOn":false,"area":false,"bogusName":false,"lon":-71.07581590000001,"lat":48.4226685,"elevation":[]},{"distance":111.695,"relativeDirection":"LEFT","streetName":"Rue Saint-Paul","absoluteDirection":"EAST","stayOn":false,"area":false,"bogusName":false,"lon":-71.074724,"lat":48.4219171,"elevation":[]},{"distance":483.69999999999993,"relativeDirection":"SLIGHTLY_RIGHT","streetName":"Boulevard de l'Université","absoluteDirection":"EAST","stayOn":false,"area":false,"bogusName":false,"lon":-71.0732783,"lat":48.4221458,"elevation":[]}]}],"tooSloped":false},{"duration":1095,"startTime":1522669145000,"endTime":1522670240000,"walkTime":1066,"transitTime":27,"waitingTime":2,"walkDistance":1355.9748646537207,"walkLimitExceeded":false,"elevationLost":0.0,"elevationGained":0.0,"transfers":0,"legs":[{"startTime":1522669145000,"endTime":1522669719000,"departureDelay":0,"arrivalDelay":0,"realTime":false,"distance":717.865,"pathway":false,"mode":"WALK","route":"","agencyTimeZoneOffset":-14400000,"interlineWithPreviousLeg":false,"from":{"name":"Origin","lon":-71.081758,"lat":48.425927,"departure":1522669145000,"orig":"","vertexType":"NORMAL"},"to":{"name":"Taché / Sainte-Marthe","stopId":"1:419","stopCode":"419","lon":-71.075998,"lat":48.422681,"arrival":1522669719000,"departure":1522669720000,"zoneId":"NA","stopIndex":6,"stopSequence":7,"vertexType":"TRANSIT"},"legGeometry":{"points":"ceqfHhdzpLYY`@oAd@_Bh@f@rApAZRr@u@pBqB~AqBNaB?kAEQVuDDq@J_@DMBK?MCICEEC^gAd@}@n@cAXk@Bk@AM","length":28},"rentedBike":false,"transitLeg":false,"duration":574.0,"steps":[{"distance":17.47,"relativeDirection":"DEPART","streetName":"Ruelle Saint-Félix","absoluteDirection":"NORTHEAST","stayOn":false,"area":false,"bogusName":false,"lon":-71.08180662112518,"lat":48.425949129075306,"elevation":[]},{"distance":76.293,"relativeDirection":"RIGHT","streetName":"Côte Fortin","absoluteDirection":"SOUTHEAST","stayOn":false,"area":false,"bogusName":false,"lon":-71.0816727,"lat":48.426078700000005,"elevation":[]},{"distance":100.732,"relativeDirection":"RIGHT","streetName":"Rue Dréan","absoluteDirection":"SOUTHWEST","stayOn":false,"area":false,"bogusName":false,"lon":-71.08079190000001,"lat":48.4257197,"elevation":[]},{"distance":179.39800000000002,"relativeDirection":"LEFT","streetName":"Rue Dubuc","absoluteDirection":"SOUTHEAST","stayOn":false,"area":false,"bogusName":false,"lon":-71.0815067,"lat":48.424949000000005,"elevation":[]},{"distance":65.531,"relativeDirection":"SLIGHTLY_LEFT","streetName":"road","absoluteDirection":"EAST","stayOn":false,"area":false,"bogusName":true,"lon":-71.080094,"lat":48.4236379,"elevation":[]},{"distance":7.693,"relativeDirection":"SLIGHTLY_LEFT","streetName":"Rue Bossé","absoluteDirection":"NORTHEAST","stayOn":false,"area":false,"bogusName":false,"lon":-71.0792211,"lat":48.423552400000005,"elevation":[]},{"distance":86.86699999999999,"relativeDirection":"RIGHT","streetName":"Rue le Doré","absoluteDirection":"EAST","stayOn":false,"area":false,"bogusName":false,"lon":-71.07913090000001,"lat":48.423587100000006,"elevation":[]},{"distance":41.096000000000004,"relativeDirection":"SLIGHTLY_RIGHT","streetName":"Rue Saint Onésime","absoluteDirection":"SOUTHEAST","stayOn":false,"area":false,"bogusName":false,"lon":-71.077976,"lat":48.423435700000006,"elevation":[]},{"distance":142.785,"relativeDirection":"RIGHT","streetName":"path","absoluteDirection":"SOUTHEAST","stayOn":false,"area":false,"bogusName":true,"lon":-71.0775138,"lat":48.423397400000006,"elevation":[]}]},{"startTime":1522669720000,"endTime":1522669747000,"departureDelay":0,"arrivalDelay":0,"realTime":false,"distance":127.97938705606677,"pathway":false,"mode":"BUS","route":"11","agencyName":"Société de Transport du Saguenay","agencyUrl":"http://ville.saguenay.ca/fr/services-aux-citoyens/transport-sts","agencyTimeZoneOffset":-14400000,"routeColor":"FF0000","routeType":3,"routeId":"1:11","routeTextColor":"FFFFFF","interlineWithPreviousLeg":false,"tripBlockId":"35","headsign":"Boul.Royaume/St-Pierre","agencyId":"0","tripId":"1:218244","serviceDate":"20180402","from":{"name":"Taché / Sainte-Marthe","stopId":"1:419","stopCode":"419","lon":-71.075998,"lat":48.422681,"arrival":1522669719000,"departure":1522669720000,"zoneId":"NA","stopIndex":6,"stopSequence":7,"vertexType":"TRANSIT"},"to":{"name":"Saint-Paul / Dubuc","stopId":"1:420","stopCode":"420","lon":-71.075186,"lat":48.421664,"arrival":1522669747000,"departure":1522669748000,"zoneId":"NA","stopIndex":7,"stopSequence":8,"vertexType":"TRANSIT"},"legGeometry":{"points":"uppfHj_ypL@?J@NELKFOlAiDL[bA`A","length":9},"routeShortName":"11","routeLongName":"Chic/Faubourg via St-Paul","rentedBike":false,"transitLeg":true,"duration":27.0,"steps":[]},{"startTime":1522669748000,"endTime":1522670240000,"departureDelay":0,"arrivalDelay":0,"realTime":false,"distance":637.864,"pathway":false,"mode":"WALK","route":"","agencyTimeZoneOffset":-14400000,"interlineWithPreviousLeg":false,"from":{"name":"Saint-Paul / Dubuc","stopId":"1:420","stopCode":"420","lon":-71.075186,"lat":48.421664,"arrival":1522669747000,"departure":1522669748000,"zoneId":"NA","stopIndex":7,"stopSequence":8,"vertexType":"TRANSIT"},"to":{"name":"Destination","lon":-71.06697599,"lat":48.421124,"arrival":1522670240000,"orig":"","vertexType":"NORMAL"},"legGeometry":{"points":"_jpfH`zxpL}@_AGc@YcACe@E}@Ao@?e@Fa@x@eCVcAN_AJkBPqJ@a@LcGDgBBwA","length":18},"rentedBike":false,"transitLeg":false,"duration":492.0,"steps":[{"distance":154.164,"relativeDirection":"DEPART","streetName":"Rue Saint-Paul","absoluteDirection":"NORTHEAST","stayOn":false,"area":false,"bogusName":false,"lon":-71.07504861031198,"lat":48.421601719607466,"elevation":[]},{"distance":483.69999999999993,"relativeDirection":"SLIGHTLY_RIGHT","streetName":"Boulevard de l'Université","absoluteDirection":"EAST","stayOn":false,"area":false,"bogusName":false,"lon":-71.0732783,"lat":48.4221458,"elevation":[]}]}],"tooSloped":false},{"duration":1173,"startTime":1522669286000,"endTime":1522670459000,"walkTime":1138,"transitTime":33,"waitingTime":2,"walkDistance":1450.2892481138715,"walkLimitExceeded":false,"elevationLost":0.0,"elevationGained":0.0,"transfers":0,"legs":[{"startTime":1522669286000,"endTime":1522670112000,"departureDelay":0,"arrivalDelay":0,"realTime":false,"distance":1043.737,"pathway":false,"mode":"WALK","route":"","agencyTimeZoneOffset":-14400000,"interlineWithPreviousLeg":false,"from":{"name":"Origin","lon":-71.081758,"lat":48.425927,"departure":1522669286000,"orig":"","vertexType":"NORMAL"},"to":{"name":"Jolliet / Audet","stopId":"1:522","stopCode":"522","lon":-71.07278,"lat":48.420244,"arrival":1522670112000,"departure":1522670113000,"zoneId":"NA","stopIndex":27,"stopSequence":28,"vertexType":"TRANSIT"},"legGeometry":{"points":"ceqfHhdzpLYY`@oAd@_Bh@f@rApAZRr@u@pBqB~AqBFKVe@La@f@gAHc@RgAD[NeANu@`@qAvAuDbAkCDIN[BIx@uBf@}AXq@Pa@FEFCDCBG@I@K?MESfA_CNc@`@mA","length":40},"rentedBike":false,"transitLeg":false,"duration":826.0,"steps":[{"distance":17.47,"relativeDirection":"DEPART","streetName":"Ruelle Saint-Félix","absoluteDirection":"NORTHEAST","stayOn":false,"area":false,"bogusName":false,"lon":-71.08180662112518,"lat":48.425949129075306,"elevation":[]},{"distance":76.293,"relativeDirection":"RIGHT","streetName":"Côte Fortin","absoluteDirection":"SOUTHEAST","stayOn":false,"area":false,"bogusName":false,"lon":-71.0816727,"lat":48.426078700000005,"elevation":[]},{"distance":100.732,"relativeDirection":"RIGHT","streetName":"Rue Dréan","absoluteDirection":"SOUTHWEST","stayOn":false,"area":false,"bogusName":false,"lon":-71.08079190000001,"lat":48.4257197,"elevation":[]},{"distance":658.8380000000001,"relativeDirection":"LEFT","streetName":"Rue Dubuc","absoluteDirection":"SOUTHEAST","stayOn":false,"area":false,"bogusName":false,"lon":-71.0815067,"lat":48.424949000000005,"elevation":[]},{"distance":78.343,"relativeDirection":"CONTINUE","streetName":"path","absoluteDirection":"SOUTHEAST","stayOn":false,"area":false,"bogusName":true,"lon":-71.07469880000001,"lat":48.4212916,"elevation":[]},{"distance":112.061,"relativeDirection":"RIGHT","streetName":"Rue Jolliet","absoluteDirection":"SOUTHEAST","stayOn":false,"area":false,"bogusName":false,"lon":-71.07388590000001,"lat":48.420954200000004,"elevation":[]}]},{"startTime":1522670113000,"endTime":1522670146000,"departureDelay":0,"arrivalDelay":0,"realTime":false,"distance":149.68335659016046,"pathway":false,"mode":"BUS","route":"14","agencyName":"Société de Transport du Saguenay","agencyUrl":"http://ville.saguenay.ca/fr/services-aux-citoyens/transport-sts","agencyTimeZoneOffset":-14400000,"routeColor":"C0C000","routeType":3,"routeId":"1:14","routeTextColor":"000000","interlineWithPreviousLeg":false,"tripBlockId":"33","headsign":"Terminus Chicoutimi","agencyId":"0","tripId":"1:218174","serviceDate":"20180402","from":{"name":"Jolliet / Audet","stopId":"1:522","stopCode":"522","lon":-71.07278,"lat":48.420244,"arrival":1522670112000,"departure":1522670113000,"zoneId":"NA","stopIndex":27,"stopSequence":28,"vertexType":"TRANSIT"},"to":{"name":"Audet / boul. Université","stopId":"1:553","stopCode":"553","lon":-71.072005,"lat":48.421488,"arrival":1522670146000,"departure":1522670147000,"zoneId":"NA","stopIndex":28,"stopSequence":29,"vertexType":"TRANSIT"},"legGeometry":{"points":"ibpfHdkxpLZeAa@SyEQ","length":4},"routeShortName":"14","routeLongName":"Coopérative","rentedBike":false,"transitLeg":true,"duration":33.0,"steps":[]},{"startTime":1522670147000,"endTime":1522670459000,"departureDelay":0,"arrivalDelay":0,"realTime":false,"distance":406.35299999999995,"pathway":false,"mode":"WALK","route":"","agencyTimeZoneOffset":-14400000,"interlineWithPreviousLeg":false,"from":{"name":"Audet / boul. Université","stopId":"1:553","stopCode":"553","lon":-71.072005,"lat":48.421488,"arrival":1522670146000,"departure":1522670147000,"zoneId":"NA","stopIndex":28,"stopSequence":29,"vertexType":"TRANSIT"},"to":{"name":"Destination","lon":-71.06697599,"lat":48.421124,"arrival":1522670459000,"orig":"","vertexType":"NORMAL"},"legGeometry":{"points":"iipfHvgxpLg@CN_AJkBPqJ@a@LcGDgBBwA","length":9},"rentedBike":false,"transitLeg":false,"duration":312.0,"steps":[{"distance":23.119,"relativeDirection":"DEPART","streetName":"Rue Audet","absoluteDirection":"NORTH","stayOn":false,"area":false,"bogusName":false,"lon":-71.07211324351135,"lat":48.42149143047572,"elevation":[]},{"distance":383.23400000000004,"relativeDirection":"RIGHT","streetName":"Boulevard de l'Université","absoluteDirection":"EAST","stayOn":false,"area":false,"bogusName":false,"lon":-71.07209830000001,"lat":48.421699100000005,"elevation":[]}]}],"tooSloped":false}]},"debugOutput":{"precalculationTime":45,"pathCalculationTime":25,"pathTimes":[16,4,5],"renderingTime":0,"totalTime":70,"timedOut":false},"elevationMetadata":{"ellipsoidToGeoidDifference":-28.885904201182168,"geoidElevation":false}}