{"requestParameters":{"date":"2018/04/02","walkSpeed":"1.33","walkReluctance":"2.0","fromPlace":"48.402161,-71.05677","maxWalkDistance":"3000","waitReluctance":"1.0","carSpeed":"33","numItineraries":"3","waitAtBeginningFactor":"0.4","mode":"TRANSIT,WALK","ignoreRealtimeUpdates":"false","stairsReluctance":"2.0","toPlace":"48.402054,-71.134704","time":"16:30:00"},"plan":{"date":1522701000000,"from":{"name":"Origin","lon":-71.05677,"lat":48.402161,"orig":"","vertexType":"NORMAL"},"to":{"name":"Destination","lon":-71.134704,"lat":48.402054,"orig":"","vertexType":"NORMAL"},"itineraries":[{"duration":2601,"startTime":1522701054000,"endTime":1522703655000,"walkTime":1455,"transitTime":1144,"waitingTime":2,"walkDistance":1905.9517969886476,"walkLimitExceeded":false,"elevationLost":0.0,"elevationGained":0.0,"transfers":0,"legs":[{"startTime":1522701054000,"endTime":1522701119000,"departureDelay":0,"arrivalDelay":0,"realTime":false,"distance":80.44900000000001,"pathway":false,"mode":"WALK","route":"","agencyTimeZoneOffset":-14400000,"interlineWithPreviousLeg":false,"from":{"name":"Origin","lon":-71.05677,"lat":48.402161,"departure":1522701054000,"orig":"","vertexType":"NORMAL"},"to":{"name":"Place du Royaume (Saguenéens)","stopId":"1:1294","stopCode":"1294","lon":-71.057691,"lat":48.402355,"arrival":1522701119000,"departure":1522701120000,"zoneId":"NA","stopIndex":20,"stopSequence":21,"vertexType":"TRANSIT"},"legGeometry":{"points":"eplfHngupLFPk@vD","length":3},"rentedBike":false,"transitLeg":false,"duration":65.0,"steps":[{"distance":8.153,"relativeDirection":"DEPART","streetName":"service road","absoluteDirection":"SOUTHWEST","stayOn":false,"area":false,"bogusName":false,"lon":-71.05671730783236,"lat":48.4021144601965,"elevation":[]},{"distance":72.296,"relativeDirection":"RIGHT","streetName":"Rue des Saguenéens","absoluteDirection":"WEST","stayOn":false,"area":false,"bogusName":false,"lon":-71.0568056,"lat":48.4020704,"elevation":[]}]},{"startTime":1522701120000,"endTime":1522701720000,"departureDelay":0,"arrivalDelay":0,"realTime":false,"distance":3199.058934954701,"pathway":false,"mode":"BUS","route":"175","agencyName":"Société de Transport du Saguenay","agencyUrl":"http://ville.saguenay.ca/fr/services-aux-citoyens/transport-sts","agencyTimeZoneOffset":-14400000,"routeColor":"FF00FF","routeType":3,"routeId":"1:175","routeTextColor":"FFFFFF","interlineWithPreviousLeg":false,"tripBlockId":"7","headsign":"Costco","agencyId":"0","tripId":"1:217340","serviceDate":"20180402","from":{"name":"Place du Royaume (Saguenéens)","stopId":"1:1294","stopCode":"1294","lon":-71.057691,"lat":48.402355,"arrival":1522701119000,"departure":1522701120000,"zoneId":"NA","stopIndex":20,"stopSequence":21,"vertexType":"TRANSIT"},"to":{"name":"COSTCO","stopId":"1:1710","stopCode":"1710","lon":-71.085767,"lat":48.382333,"arrival":1522701720000,"departure":1522701900000,"zoneId":"NA","stopIndex":30,"stopSequence":31,"vertexType":"TRANSIT"},"legGeometry":{"points":"eqlfHzmupLUxAm@nCcAlDM^RTfD`DjF`FjCrCrAvAbCfDjIfMdAzAfFpHd@n@nC`DlXv[b@f@mCtHv@v@p@r@_@p@uAcBjDoJhAzApBrBrFvGjDdEbD|DZb@~DrEbDfDrA~ApLbNpG|GyCtHwBcC","length":37},"routeShortName":"175","routeLongName":"Term. Chic / Costco","rentedBike":false,"transitLeg":true,"duration":600.0,"steps":[]},{"startTime":1522701900000,"endTime":1522702264000,"departureDelay":0,"arrivalDelay":0,"realTime":false,"distance":4166.500211461529,"pathway":false,"mode":"BUS","route":"2","agencyName":"Société de Transport du Saguenay","agencyUrl":"http://ville.saguenay.ca/fr/services-aux-citoyens/transport-sts","agencyTimeZoneOffset":-14400000,"routeColor":"FF0000","routeType":3,"routeId":"1:2","routeTextColor":"FFFFFF","interlineWithPreviousLeg":true,"tripBlockId":"7","headsign":"Terminus Jonquière","agencyId":"0","tripId":"1:217341","serviceDate":"20180402","from":{"name":"COSTCO","stopId":"1:1710","stopCode":"1710","lon":-71.085767,"lat":48.382333,"arrival":1522701720000,"departure":1522701900000,"zoneId":"NA","stopIndex":0,"stopSequence":1,"vertexType":"TRANSIT"},"to":{"name":"boul. Royaume (no. 2121)","stopId":"1:33","stopCode":"33","lon":-71.138099,"lat":48.394083,"arrival":1522702264000,"departure":1522702265000,"zoneId":"NA","stopIndex":8,"stopSequence":9,"vertexType":"TRANSIT"},"legGeometry":{"points":"wthfHn}zpLeLkMxCaIbPzPkL|[eB~GwBlIa@bXIbQO`^aBhTiBlNUfBiI~ZeHzQeFxMqDtKAJ}ApJM~EWhIb@`NFlB_@fOsBvK_DrH_G|H","length":27},"routeShortName":"2","routeLongName":"Chic/Jonq via Boul. Royaume","rentedBike":false,"transitLeg":true,"duration":364.0,"steps":[]},{"startTime":1522702265000,"endTime":1522703655000,"departureDelay":0,"arrivalDelay":0,"realTime":false,"distance":1825.3839999999998,"pathway":false,"mode":"WALK","route":"","agencyTimeZoneOffset":-14400000,"interlineWithPreviousLeg":false,"from":{"name":"boul. Royaume (no. 2121)","stopId":"1:33","stopCode":"33","lon":-71.138099,"lat":48.394083,"arrival":1522702264000,"departure":1522702265000,"zoneId":"NA","stopIndex":8,"stopSequence":9,"vertexType":"TRANSIT"},"to":{"name":"Destination","lon":-71.134704,"lat":48.402054,"arrival":1522703655000,"orig":"","vertexType":"NORMAL"},"legGeometry":{"points":"}}jfHfdeqLyAhB}BtCaBtB[^GJ{AlBqB|CqA`CcB`EyAdEUz@U|@KKMOKSGSAU@YHQh@{@b@i@TWHSj@mBf@wBFu@?UCSEe@I[O[QSuKkLyG_HWW{@iAiD_Eu@{@jAoBtAm@NI","length":42},"rentedBike":false,"transitLeg":false,"duration":1390.0,"steps":[{"distance":313.10699999999997,"relativeDirection":"DEPART","streetName":"Boulevard du Royaume Ouest","absoluteDirection":"NORTHWEST","stayOn":false,"area":false,"bogusName":false,"lon":-71.13811038815592,"lat":48.39407701706976,"elevation":[]},{"distance":383.342,"relativeDirection":"CONTINUE","streetName":"Boulevard du Royaume","absoluteDirection":"NORTHWEST","stayOn":false,"area":false,"bogusName":false,"lon":-71.1407514,"lat":48.396280100000006,"elevation":[]},{"distance":1009.865,"relativeDirection":"RIGHT","streetName":"Chemin de la Réserve","absoluteDirection":"NORTHEAST","stayOn":false,"area":false,"bogusName":false,"lon":-71.1447687,"lat":48.3984308,"elevation":[]},{"distance":119.07,"relativeDirection":"RIGHT","streetName":"Rue des Archanges","absoluteDirection":"SOUTHEAST","stayOn":false,"area":false,"bogusName":false,"lon":-71.1358379,"lat":48.402851000000005,"elevation":[]}]}],"tooSloped":false},{"duration":3048,"startTime":1522702074000,"endTime":1522705122000,"walkTime":263,"transitTime":2363,"waitingTime":422,"walkDistance":335.64101503578655,"walkLimitExceeded":false,"elevationLost":0.0,"elevationGained":0.0,"transfers":1,"legs":[{"startTime":1522702074000,"endTime":1522702139000,"departureDelay":0,"arrivalDelay":0,"realTime":false,"distance":80.44900000000001,"pathway":false,"mode":"WALK","route":"","agencyTimeZoneOffset":-14400000,"interlineWithPreviousLeg":false,"from":{"name":"Origin","lon":-71.05677,"lat":48.402161,"departure":1522702074000,"orig":"","vertexType":"NORMAL"},"to":{"name":"Place du Royaume (Saguenéens)","stopId":"1:1294","stopCode":"1294","lon":-71.057691,"lat":48.402355,"arrival":1522702139000,"departure":1522702140000,"zoneId":"NA","stopIndex":11,"stopSequence":12,"vertexType":"TRANSIT"},"legGeometry":{"points":"eplfHngupLFPk@vD","length":3},"rentedBike":false,"transitLeg":false,"duration":65.0,"steps":[{"distance":8.153,"relativeDirection":"DEPART","streetName":"service road","absoluteDirection":"SOUTHWEST","stayOn":false,"area":false,"bogusName":false,"lon":-71.05671730783236,"lat":48.4021144601965,"elevation":[]},{"distance":72.296,"relativeDirection":"RIGHT","streetName":"Rue des Saguenéens","absoluteDirection":"WEST","stayOn":false,"area":false,"bogusName":false,"lon":-71.0568056,"lat":48.4020704,"elevation":[]}]},{"startTime":1522702140000,"endTime":1522703280000,"departureDelay":0,"arrivalDelay":0,"realTime":false,"distance":6028.851523869202,"pathway":false,"mode":"BUS","route":"15","agencyName":"Société de Transport du Saguenay","agencyUrl":"http://ville.saguenay.ca/fr/services-aux-citoyens/transport-sts","agencyTimeZoneOffset":-14400000,"routeColor":"FF00FF","routeType":3,"routeId":"1:15","routeTextColor":"FFFFFF","interlineWithPreviousLeg":false,"tripBlockId":"32","headsign":"Terminus Chicoutimi","agencyId":"0","tripId":"1:218167","serviceDate":"20180402","from":{"name":"Place du Royaume (Saguenéens)","stopId":"1:1294","stopCode":"1294","lon":-71.057691,"lat":48.402355,"arrival":1522702139000,"departure":1522702140000,"zoneId":"NA","stopIndex":11,"stopSequence":12,"vertexType":"TRANSIT"},"to":{"name":"Terminus Chicoutimi","stopId":"1:1289","stopCode":"1289","lon":-71.066163,"lat":48.428677,"arrival":1522703280000,"departure":1522703700000,"zoneId":"NA","stopIndex":39,"stopSequence":40,"vertexType":"TRANSIT"},"legGeometry":{"points":"eqlfHzmupLUxAm@nCcAlDeCvGmA|CUr@}@~A_@\\_DvCEZcA|@UP_@d@Yl@oBdFeCxG_CfGYVQXS\\dK|HlFZbC\\p@zA\\rB@hBiArG{BNw@FiG}@iDwAECcCcBo@y@sEeGe@o@qAa@m@MoB?C@}BZwAc@oA_Bs@gDCKZ{Di@QECc@_@sAkAoBwB_EcE{A_BoAmAk@o@cCaCkIkIaJaJUUwBaCj@wCjAsCzGoG_CoHL{D_@kAqD{CQr@iAcAy@w@L{@wAuA_B_B_EpLDh@NbBVvCIxBg@`Am@l@Sb@a@rAqDqDmEkE]a@kAqAU|@WnKG|DGxDOdPKvJU|F?XQlJC~@ChAIzEcCOaIi@VwL","length":102},"routeShortName":"15","routeLongName":"Term. Chic / Costco","rentedBike":false,"transitLeg":true,"duration":1140.0,"steps":[]},{"startTime":1522703700000,"endTime":1522704923000,"departureDelay":0,"arrivalDelay":0,"realTime":false,"distance":8057.838164236649,"pathway":false,"mode":"BUS","route":"16","agencyName":"Société de Transport du Saguenay","agencyUrl":"http://ville.saguenay.ca/fr/services-aux-citoyens/transport-sts","agencyTimeZoneOffset":-14400000,"routeColor":"00FF00","routeType":3,"routeId":"1:16","routeTextColor":"000000","interlineWithPreviousLeg":false,"tripBlockId":"37","headsign":"Faubourg Sagamie","agencyId":"0","tripId":"1:218324","serviceDate":"20180402","from":{"name":"Terminus Chicoutimi","stopId":"1:1289","stopCode":"1289","lon":-71.066163,"lat":48.428677,"arrival":1522703280000,"departure":1522703700000,"zoneId":"NA","stopIndex":0,"stopSequence":1,"vertexType":"TRANSIT"},"to":{"name":"ch. de la Réserve / Michaël","stopId":"1:1872","stopCode":"1872","lon":-71.134493,"lat":48.403695,"arrival":1522704923000,"departure":1522704924000,"zoneId":"NA","stopIndex":34,"stopSequence":35,"vertexType":"TRANSIT"},"legGeometry":{"points":"evqfHzcwpLg@?AXCnAO~GxDVhCP~M~@jDTOrHKdGE^E~BQnIMhGAxCD~@Df@DVDZd@zBBLDJJNHHHDJBn@HCxAHdAFX@DFj@@b@Ab@SvAe@p@{EnEEB{@w@m@o@aDeDIKCMCM?SL}A?A@WCYi@mDOu@Wm@EIMSSWaAcAuAcBq@f@URa@d@u@`A}BzCV`DX~C@HFT^v@bA|AZ^`Av@\\`@Zf@pAvCtD`JJTrAtCpAjC@BvA|CvA~Ci@zAqD`KyDrKyF|Og@tAr@r@h@^jA\\\\Nt@\\PHf@RVDXEROR[p@iBr@uBJQLIDCNEr@lERbBFzA@LFbFN`A^r@bB|AlC`BDBz@t@eAjD|@x@~AxAxB`BbAiDjCzB|ApAvAZbAo@|@cDf@gB~DbA~Cr@fNtNZ\\nCbDl@jBZrB\\`Dx@tIbB|KzBnOpB|GhA~D\\dF@hI?pApBnPVrB`BfH|C|M~AxJvA`JpDnEjDzDlF~FpD|DfChF","length":152},"routeShortName":"16","routeLongName":"Côte de la Réserve","rentedBike":false,"transitLeg":true,"duration":1223.0,"steps":[]},{"startTime":1522704924000,"endTime":1522705122000,"departureDelay":0,"arrivalDelay":0,"realTime":false,"distance":255.13600000000002,"pathway":false,"mode":"WALK","route":"","agencyTimeZoneOffset":-14400000,"interlineWithPreviousLeg":false,"from":{"name":"ch. de la Réserve / Michaël","stopId":"1:1872","stopCode":"1872","lon":-71.134493,"lat":48.403695,"arrival":1522704923000,"departure":1522704924000,"zoneId":"NA","stopIndex":34,"stopSequence":35,"vertexType":"TRANSIT"},"to":{"name":"Destination","lon":-71.134704,"lat":48.402054,"arrival":1522705122000,"orig":"","vertexType":"NORMAL"},"legGeometry":{"points":"uylfHdmdqLRf@\\z@rArCT`@jAoBtAm@NI","length":8},"rentedBike":false,"transitLeg":false,"duration":198.0,"steps":[{"distance":136.066,"relativeDirection":"DEPART","streetName":"Chemin de la Réserve","absoluteDirection":"SOUTHWEST","stayOn":false,"area":false,"bogusName":false,"lon":-71.13442387914574,"lat":48.40363375330702,"elevation":[]},{"distance":119.07,"relativeDirection":"LEFT","streetName":"Rue des Archanges","absoluteDirection":"SOUTHEAST","stayOn":false,"area":false,"bogusName":false,"lon":-71.1358379,"lat":48.402851000000005,"elevation":[]}]}],"tooSloped":false},{"duration":3048,"startTime":1522703874000,"endTime":1522706922000,"walkTime":266,"transitTime":2224,"waitingTime":558,"walkDistance":335.86501503578654,"walkLimitExceeded":false,"elevationLost":0.0,"elevationGained":0.0,"transfers":1,"legs":[{"startTime":1522703874000,"endTime":1522703939000,"departureDelay":0,"arrivalDelay":0,"realTime":false,"distance":80.44900000000001,"pathway":false,"mode":"WALK","route":"","agencyTimeZoneOffset":-14400000,"interlineWithPreviousLeg":false,"from":{"name":"Origin","lon":-71.05677,"lat":48.402161,"departure":1522703874000,"orig":"","vertexType":"NORMAL"},"to":{"name":"Place du Royaume (Saguenéens)","stopId":"1:1294","stopCode":"1294","lon":-71.057691,"lat":48.402355,"arrival":1522703939000,"departure":1522703940000,"zoneId":"NA","stopIndex":11,"stopSequence":12,"vertexType":"TRANSIT"},"legGeometry":{"points":"eplfHngupLFPk@vD","length":3},"rentedBike":false,"transitLeg":false,"duration":65.0,"steps":[{"distance":8.153,"relativeDirection":"DEPART","streetName":"service road","absoluteDirection":"SOUTHWEST","stayOn":false,"area":false,"bogusName":false,"lon":-71.05671730783236,"lat":48.4021144601965,"elevation":[]},{"distance":72.296,"relativeDirection":"RIGHT","streetName":"Rue des Saguenéens","absoluteDirection":"WEST","stayOn":false,"area":false,"bogusName":false,"lon":-71.0568056,"lat":48.4020704,"elevation":[]}]},{"startTime":1522703940000,"endTime":1522705020000,"departureDelay":0,"arrivalDelay":0,"realTime":false,"distance":5806.411506174393,"pathway":false,"mode":"BUS","route":"15","agencyName":"Société de Transport du Saguenay","agencyUrl":"http://ville.saguenay.ca/fr/services-aux-citoyens/transport-sts","agencyTimeZoneOffset":-14400000,"routeColor":"FF00FF","routeType":3,"routeId":"1:15","routeTextColor":"FFFFFF","interlineWithPreviousLeg":false,"tripBlockId":"30","headsign":"Terminus Chicoutimi","agencyId":"0","tripId":"1:218108","serviceDate":"20180402","from":{"name":"Place du Royaume (Saguenéens)","stopId":"1:1294","stopCode":"1294","lon":-71.057691,"lat":48.402355,"arrival":1522703939000,"departure":1522703940000,"zoneId":"NA","stopIndex":11,"stopSequence":12,"vertexType":"TRANSIT"},"to":{"name":"Sainte-Anne / Racine","stopId":"1:558","stopCode":"558","lon":-71.068444,"lat":48.427369,"arrival":1522705020000,"departure":1522705020000,"zoneId":"NA","stopIndex":38,"stopSequence":39,"vertexType":"TRANSIT"},"legGeometry":{"points":"eqlfHzmupLUxAm@nCcAlDeCvGmA|CUr@}@~A_@\\_DvCEZcA|@UP_@d@Yl@oBdFeCxG_CfGYVQXS\\dK|HlFZbC\\p@zA\\rB@hBiArG{BNw@FiG}@iDwAECcCcBo@y@sEeGe@o@qAa@m@MoB?C@}BZwAc@oA_Bs@gDCKZ{Di@QECc@_@sAkAoBwB_EcE{A_BoAmAk@o@cCaCkIkIaJaJUUwBaCj@wCjAsCzGoG_CoHL{D_@kAqD{CQr@iAcAy@w@L{@wAuA_B_B_EpLDh@NbBVvCIxBg@`Am@l@Sb@a@rAqDqDmEkE]a@kAqAU|@WnKG|DGxDOdPKvJU|F?XQlJC~@ChAIzEcCO","length":100},"routeShortName":"15","routeLongName":"Term. Chic / Costco","rentedBike":false,"transitLeg":true,"duration":1080.0,"steps":[]},{"startTime":1522705020000,"endTime":1522705023000,"departureDelay":0,"arrivalDelay":0,"realTime":false,"distance":0.224,"pathway":false,"mode":"WALK","route":"","agencyTimeZoneOffset":-14400000,"interlineWithPreviousLeg":false,"from":{"name":"Sainte-Anne / Racine","stopId":"1:558","stopCode":"558","lon":-71.068444,"lat":48.427369,"arrival":1522705020000,"departure":1522705020000,"zoneId":"NA","stopIndex":38,"stopSequence":39,"vertexType":"TRANSIT"},"to":{"name":"Sainte-Anne / Jacques-Cartier","stopId":"1:413","stopCode":"413","lon":-71.068639,"lat":48.427373,"arrival":1522705023000,"departure":1522705579000,"zoneId":"NA","stopIndex":1,"stopSequence":2,"vertexType":"TRANSIT"},"legGeometry":{"points":"anqfHhqwpL@?","length":2},"rentedBike":false,"transitLeg":false,"duration":3.0,"steps":[{"distance":0.224,"relativeDirection":"DEPART","streetName":"Rue Sainte-Anne","absoluteDirection":"SOUTH","stayOn":false,"area":false,"bogusName":false,"lon":-71.06852127104082,"lat":48.427371387668245,"elevation":[]}]},{"startTime":1522705579000,"endTime":1522706723000,"departureDelay":0,"arrivalDelay":0,"realTime":false,"distance":7824.599067770179,"pathway":false,"mode":"BUS","route":"16","agencyName":"Société de Transport du Saguenay","agencyUrl":"http://ville.saguenay.ca/fr/services-aux-citoyens/transport-sts","agencyTimeZoneOffset":-14400000,"routeColor":"00FF00","routeType":3,"routeId":"1:16","routeTextColor":"000000","interlineWithPreviousLeg":false,"tripBlockId":"34","headsign":"Faubourg Sagamie","agencyId":"0","tripId":"1:218229","serviceDate":"20180402","from":{"name":"Sainte-Anne / Jacques-Cartier","stopId":"1:413","stopCode":"413","lon":-71.068639,"lat":48.427373,"arrival":1522705023000,"departure":1522705579000,"zoneId":"NA","stopIndex":1,"stopSequence":2,"vertexType":"TRANSIT"},"to":{"name":"ch. de la Réserve / Michaël","stopId":"1:1872","stopCode":"1872","lon":-71.134493,"lat":48.403695,"arrival":1522706723000,"departure":1522706724000,"zoneId":"NA","stopIndex":34,"stopSequence":35,"vertexType":"TRANSIT"},"legGeometry":{"points":"_nqfHnqwpL~M~@jDTOrHKdGE^E~BQnIMhGAxCD~@Df@DVDZd@zBBLDJJNHHHDJBn@HCxAHdAFX@DFj@@b@Ab@SvAe@p@{EnEEB{@w@m@o@aDeDIKCMCM?SL}A?A@WCYi@mDOu@Wm@EIMSSWaAcAuAcBq@f@URa@d@u@`A}BzCV`DX~C@HFT^v@bA|AZ^`Av@\\`@Zf@pAvCtD`JJTrAtCpAjC@BvA|CvA~Ci@zAqD`KyDrKyF|Og@tAr@r@h@^jA\\\\Nt@\\PHf@RVDXEROR[p@iBr@uBJQLIDCNEr@lERbBFzA@LFbFN`A^r@bB|AlC`BDBz@t@eAjD|@x@~AxAxB`BbAiDjCzB|ApAvAZbAo@|@cDf@gB~DbA~Cr@fNtNZ\\nCbDl@jBZrB\\`Dx@tIbB|KzBnOpB|GhA~D\\dF@hI?pApBnPVrB`BfH|C|M~AxJvA`JpDnEjDzDlF~FpD|DfChF","length":146},"routeShortName":"16","routeLongName":"Côte de la Réserve","rentedBike":false,"transitLeg":true,"duration":1144.0,"steps":[]},{"startTime":1522706724000,"endTime":1522706922000,"departureDelay":0,"arrivalDelay":0,"realTime":false,"distance":255.13600000000002,"pathway":false,"mode":"WALK","route":"","agencyTimeZoneOffset":-14400000,"interlineWithPreviousLeg":false,"from":{"name":"ch. de la Réserve / Michaël","stopId":"1:1872","stopCode":"1872","lon":-71.134493,"lat":48.403695,"arrival":1522706723000,"departure":1522706724000,"zoneId":"NA","stopIndex":34,"stopSequence":35,"vertexType":"TRANSIT"},"to":{"name":"Destination","lon":-71.134704,"lat":48.402054,"arrival":1522706922000,"orig":"","vertexType":"NORMAL"},"legGeometry":{"points":"uylfHdmdqLRf@\\z@rArCT`@jAoBtAm@NI","length":8},"rentedBike":false,"transitLeg":false,"duration":198.0,"steps":[{"distance":136.066,"relativeDirection":"DEPART","streetName":"Chemin de la Réserve","absoluteDirection":"SOUTHWEST","stayOn":false,"area":false,"bogusName":false,"lon":-71.13442387914574,"lat":48.40363375330702,"elevation":[]},{"distance":119.07,"relativeDirection":"LEFT","streetName":"Rue des Archanges","absoluteDirection":"SOUTHEAST","stayOn":false,"area":false,"bogusName":false,"lon":-71.1358379,"lat":48.402851000000005,"elevation":[]}]}],"tooSloped":false}]},"debugOutput":{"precalculationTime":22,"pathCalculationTime":61,"pathTimes":[25,16,20],"renderingTime":1,"totalTime":84,"timedOut":false},"elevationMetadata":{"ellipsoidToGeoidDifference":-28.885904201182168,"geoidElevation":false}}