{"requestParameters":{"date":"2018/04/02","walkSpeed":"1.33","walkReluctance":"2.0","fromPlace":"48.423148,-71.052406","maxWalkDistance":"3000","waitReluctance":"1.0","carSpeed":"33","numItineraries":"3","waitAtBeginningFactor":"0.4","mode":"TRANSIT,WALK","ignoreRealtimeUpdates":"false","stairsReluctance":"2.0","toPlace":"48.421268,-71.075254","time":"15:30:00"},"plan":{"date":1522697400000,"from":{"name":"Origin","lon":-71.052406,"lat":48.423148,"orig":"","vertexType":"NORMAL"},"to":{"name":"Destination","lon":-71.075254,"lat":48.421268,"orig":"","vertexType":"NORMAL"},"itineraries":[{"duration":1494,"startTime":1522697400000,"endTime":1522698894000,"walkTime":1494,"transitTime":0,"waitingTime":0,"walkDistance":1924.2343233024842,"walkLimitExceeded":false,"elevationLost":0.0,"elevationGained":0.0,"transfers":0,"legs":[{"startTime":1522697400000,"endTime":1522698894000,"departureDelay":0,"arrivalDelay":0,"realTime":false,"distance":1924.0549999999998,"pathway":false,"mode":"WALK","route":"","agencyTimeZoneOffset":-14400000,"interlineWithPreviousLeg":false,"from":{"name":"Origin","lon":-71.052406,"lat":48.423148,"departure":1522697400000,"orig":"","vertexType":"NORMAL"},"to":{"name":"Destination","lon":-71.075254,"lat":48.421268,"arrival":1522698894000,"orig":"","vertexType":"NORMAL"},"legGeometry":{"points":"qspfHpltpL?n@CVWrBOpAP`AN`AYjCk@tGGrBH^HHVVRN`AbAhAfAVXdAjAJHbAdAzBzBRPStDIfEW`IElBAx@OfICtA?TStHI`DCjA?TM|HIdC[~A[rAKZ_@jAERI\\RZ?d@@n@D|@Bd@XbAFb@|@~@TVd@b@","length":52},"rentedBike":false,"transitLeg":false,"duration":1494.0,"steps":[{"distance":314.269,"relativeDirection":"DEPART","streetName":"service road","absoluteDirection":"WEST","stayOn":false,"area":false,"bogusName":false,"lon":-71.05240568397582,"lat":48.423135724671475,"elevation":[]},{"distance":56.481,"relativeDirection":"CONTINUE","streetName":"path","absoluteDirection":"WEST","stayOn":false,"area":false,"bogusName":true,"lon":-71.05650080000001,"lat":48.423532,"elevation":[]},{"distance":341.554,"relativeDirection":"SLIGHTLY_LEFT","streetName":"Rue Bégin","absoluteDirection":"SOUTHWEST","stayOn":false,"area":false,"bogusName":false,"lon":-71.0572466,"lat":48.423523700000004,"elevation":[]},{"distance":1003.053,"relativeDirection":"RIGHT","streetName":"Boulevard de l'Université","absoluteDirection":"WEST","stayOn":false,"area":false,"bogusName":false,"lon":-71.05981580000001,"lat":48.4209693,"elevation":[]},{"distance":15.283,"relativeDirection":"LEFT","streetName":"Boulevard Saint-Paul","absoluteDirection":"SOUTHWEST","stayOn":false,"area":false,"bogusName":false,"lon":-71.0731375,"lat":48.4222466,"elevation":[]},{"distance":193.415,"relativeDirection":"RIGHT","streetName":"Rue Saint-Paul","absoluteDirection":"WEST","stayOn":false,"area":false,"bogusName":false,"lon":-71.0732783,"lat":48.4221458,"elevation":[]}]}],"tooSloped":false},{"duration":864,"startTime":1522698413000,"endTime":1522699277000,"walkTime":392,"transitTime":470,"waitingTime":2,"walkDistance":477.5021578894722,"walkLimitExceeded":false,"elevationLost":0.0,"elevationGained":0.0,"transfers":0,"legs":[{"startTime":1522698413000,"endTime":1522698624000,"departureDelay":0,"arrivalDelay":0,"realTime":false,"distance":256.03600000000006,"pathway":false,"mode":"WALK","route":"","agencyTimeZoneOffset":-14400000,"interlineWithPreviousLeg":false,"from":{"name":"Origin","lon":-71.052406,"lat":48.423148,"departure":1522698413000,"orig":"","vertexType":"NORMAL"},"to":{"name":"Cégep de Chicoutimi (voie réservée)","stopId":"1:75","stopCode":"75","lon":-71.055283,"lat":48.422761,"arrival":1522698624000,"departure":1522698625000,"zoneId":"NA","stopIndex":6,"stopSequence":7,"vertexType":"TRANSIT"},"legGeometry":{"points":"qspfHpltpL?n@CVWrBOpAP`AN`ANnCJAZELAFh@","length":12},"rentedBike":false,"transitLeg":false,"duration":211.0,"steps":[{"distance":239.42900000000003,"relativeDirection":"DEPART","streetName":"service road","absoluteDirection":"WEST","stayOn":false,"area":false,"bogusName":false,"lon":-71.05240568397582,"lat":48.423135724671475,"elevation":[]},{"distance":16.607,"relativeDirection":"RIGHT","streetName":"Chemin Saint Thomas","absoluteDirection":"WEST","stayOn":false,"area":false,"bogusName":false,"lon":-71.0550802,"lat":48.4228351,"elevation":[]}]},{"startTime":1522698625000,"endTime":1522699095000,"departureDelay":0,"arrivalDelay":0,"realTime":false,"distance":1825.1583888852945,"pathway":false,"mode":"BUS","route":"14","agencyName":"Société de Transport du Saguenay","agencyUrl":"http://ville.saguenay.ca/fr/services-aux-citoyens/transport-sts","agencyTimeZoneOffset":-14400000,"routeColor":"C0C000","routeType":3,"routeId":"1:14","routeTextColor":"000000","interlineWithPreviousLeg":false,"tripBlockId":"30","headsign":"Talbot / Barrette","agencyId":"0","tripId":"1:218105","serviceDate":"20180402","from":{"name":"Cégep de Chicoutimi (voie réservée)","stopId":"1:75","stopCode":"75","lon":-71.055283,"lat":48.422761,"arrival":1522698624000,"departure":1522698625000,"zoneId":"NA","stopIndex":6,"stopSequence":7,"vertexType":"TRANSIT"},"to":{"name":"Jolliet / Caron","stopId":"1:552","stopCode":"552","lon":-71.073027,"lat":48.420559,"arrival":1522699095000,"departure":1522699096000,"zoneId":"NA","stopIndex":10,"stopSequence":11,"vertexType":"TRANSIT"},"legGeometry":{"points":"mqpfHr~tpLc@iEAm@bAcDTcAtA{DJI|AxAvAvAQv@~@z@dA`ATq@`E~DL`@E`Ex@hDd@`B}FtFaAzAm@xAe@jCa@nDiAbm@SpKM`H]vBhDVzCTcAvC","length":30},"routeShortName":"14","routeLongName":"Coopérative","rentedBike":false,"transitLeg":true,"duration":470.0,"steps":[]},{"startTime":1522699096000,"endTime":1522699277000,"departureDelay":0,"arrivalDelay":0,"realTime":false,"distance":221.30300000000003,"pathway":false,"mode":"WALK","route":"","agencyTimeZoneOffset":-14400000,"interlineWithPreviousLeg":false,"from":{"name":"Jolliet / Caron","stopId":"1:552","stopCode":"552","lon":-71.073027,"lat":48.420559,"arrival":1522699095000,"departure":1522699096000,"zoneId":"NA","stopIndex":10,"stopSequence":11,"vertexType":"TRANSIT"},"to":{"name":"Destination","lon":-71.075254,"lat":48.421268,"arrival":1522699277000,"orig":"","vertexType":"NORMAL"},"legGeometry":{"points":"ecpfHtmxpLOb@gA~BDR?LAJAHCFEBGBGDQ`@Yp@g@|Ad@b@","length":15},"rentedBike":false,"transitLeg":false,"duration":181.0,"steps":[{"distance":77.524,"relativeDirection":"DEPART","streetName":"Rue Jolliet","absoluteDirection":"NORTHWEST","stayOn":false,"area":false,"bogusName":false,"lon":-71.07306855411295,"lat":48.42051735854942,"elevation":[]},{"distance":78.343,"relativeDirection":"LEFT","streetName":"path","absoluteDirection":"WEST","stayOn":false,"area":false,"bogusName":true,"lon":-71.07388590000001,"lat":48.420954200000004,"elevation":[]},{"distance":40.771,"relativeDirection":"CONTINUE","streetName":"Rue Dubuc","absoluteDirection":"NORTHWEST","stayOn":false,"area":false,"bogusName":false,"lon":-71.07469880000001,"lat":48.4212916,"elevation":[]},{"distance":24.665,"relativeDirection":"LEFT","streetName":"Rue Saint-Paul","absoluteDirection":"SOUTHWEST","stayOn":false,"area":false,"bogusName":false,"lon":-71.0751601,"lat":48.4214934,"elevation":[]}]}],"tooSloped":false},{"duration":864,"startTime":1522700213000,"endTime":1522701077000,"walkTime":392,"transitTime":470,"waitingTime":2,"walkDistance":477.5021578894722,"walkLimitExceeded":false,"elevationLost":0.0,"elevationGained":0.0,"transfers":0,"legs":[{"startTime":1522700213000,"endTime":1522700424000,"departureDelay":0,"arrivalDelay":0,"realTime":false,"distance":256.03600000000006,"pathway":false,"mode":"WALK","route":"","agencyTimeZoneOffset":-14400000,"interlineWithPreviousLeg":false,"from":{"name":"Origin","lon":-71.052406,"lat":48.423148,"departure":1522700213000,"orig":"","vertexType":"NORMAL"},"to":{"name":"Cégep de Chicoutimi (voie réservée)","stopId":"1:75","stopCode":"75","lon":-71.055283,"lat":48.422761,"arrival":1522700424000,"departure":1522700425000,"zoneId":"NA","stopIndex":6,"stopSequence":7,"vertexType":"TRANSIT"},"legGeometry":{"points":"qspfHpltpL?n@CVWrBOpAP`AN`ANnCJAZELAFh@","length":12},"rentedBike":false,"transitLeg":false,"duration":211.0,"steps":[{"distance":239.42900000000003,"relativeDirection":"DEPART","streetName":"service road","absoluteDirection":"WEST","stayOn":false,"area":false,"bogusName":false,"lon":-71.05240568397582,"lat":48.423135724671475,"elevation":[]},{"distance":16.607,"relativeDirection":"RIGHT","streetName":"Chemin Saint Thomas","absoluteDirection":"WEST","stayOn":false,"area":false,"bogusName":false,"lon":-71.0550802,"lat":48.4228351,"elevation":[]}]},{"startTime":1522700425000,"endTime":1522700895000,"departureDelay":0,"arrivalDelay":0,"realTime":false,"distance":1825.1583888852945,"pathway":false,"mode":"BUS","route":"14","agencyName":"Société de Transport du Saguenay","agencyUrl":"http://ville.saguenay.ca/fr/services-aux-citoyens/transport-sts","agencyTimeZoneOffset":-14400000,"routeColor":"C0C000","routeType":3,"routeId":"1:14","routeTextColor":"000000","interlineWithPreviousLeg":false,"tripBlockId":"32","headsign":"Talbot / Barrette","agencyId":"0","tripId":"1:218166","serviceDate":"20180402","from":{"name":"Cégep de Chicoutimi (voie réservée)","stopId":"1:75","stopCode":"75","lon":-71.055283,"lat":48.422761,"arrival":1522700424000,"departure":1522700425000,"zoneId":"NA","stopIndex":6,"stopSequence":7,"vertexType":"TRANSIT"},"to":{"name":"Jolliet / Caron","stopId":"1:552","stopCode":"552","lon":-71.073027,"lat":48.420559,"arrival":1522700895000,"departure":1522700896000,"zoneId":"NA","stopIndex":10,"stopSequence":11,"vertexType":"TRANSIT"},"legGeometry":{"points":"mqpfHr~tpLc@iEAm@bAcDTcAtA{DJI|AxAvAvAQv@~@z@dA`ATq@`E~DL`@E`Ex@hDd@`B}FtFaAzAm@xAe@jCa@nDiAbm@SpKM`H]vBhDVzCTcAvC","length":30},"routeShortName":"14","routeLongName":"Coopérative","rentedBike":false,"transitLeg":true,"duration":470.0,"steps":[]},{"startTime":1522700896000,"endTime":1522701077000,"departureDelay":0,"arrivalDelay":0,"realTime":false,"distance":221.30300000000003,"pathway":false,"mode":"WALK","route":"","agencyTimeZoneOffset":-14400000,"interlineWithPreviousLeg":false,"from":{"name":"Jolliet / Caron","stopId":"1:552","stopCode":"552","lon":-71.073027,"lat":48.420559,"arrival":1522700895000,"departure":1522700896000,"zoneId":"NA","stopIndex":10,"stopSequence":11,"vertexType":"TRANSIT"},"to":{"name":"Destination","lon":-71.075254,"lat":48.421268,"arrival":1522701077000,"orig":"","vertexType":"NORMAL"},"legGeometry":{"points":"ecpfHtmxpLOb@gA~BDR?LAJAHCFEBGBGDQ`@Yp@g@|Ad@b@","length":15},"rentedBike":false,"transitLeg":false,"duration":181.0,"steps":[{"distance":77.524,"relativeDirection":"DEPART","streetName":"Rue Jolliet","absoluteDirection":"NORTHWEST","stayOn":false,"area":false,"bogusName":false,"lon":-71.07306855411295,"lat":48.42051735854942,"elevation":[]},{"distance":78.343,"relativeDirection":"LEFT","streetName":"path","absoluteDirection":"WEST","stayOn":false,"area":false,"bogusName":true,"lon":-71.07388590000001,"lat":48.420954200000004,"elevation":[]},{"distance":40.771,"relativeDirection":"CONTINUE","streetName":"Rue Dubuc","absoluteDirection":"NORTHWEST","stayOn":false,"area":false,"bogusName":false,"lon":-71.07469880000001,"lat":48.4212916,"elevation":[]},{"distance":24.665,"relativeDirection":"LEFT","streetName":"Rue Saint-Paul","absoluteDirection":"SOUTHWEST","stayOn":false,"area":false,"bogusName":false,"lon":-71.0751601,"lat":48.4214934,"elevation":[]}]}],"tooSloped":false}]},"debugOutput":{"precalculationTime":54,"pathCalculationTime":38,"pathTimes":[19,9,10],"renderingTime":0,"totalTime":92,"timedOut":false},"elevationMetadata":{"ellipsoidToGeoidDifference":-28.885904201182168,"geoidElevation":false}}