{"requestParameters":{"date":"2018/04/02","walkSpeed":"1.33","walkReluctance":"2.0","fromPlace":"48.407032,-70.97300699","maxWalkDistance":"3000","waitReluctance":"1.0","carSpeed":"33","numItineraries":"3","waitAtBeginningFactor":"0.4","mode":"TRANSIT,WALK","ignoreRealtimeUpdates":"false","stairsReluctance":"2.0","toPlace":"48.430136,-71.023262","time":"8:0:00"},"plan":{"date":1522670400000,"from":{"name":"Origin","lon":-70.97300699,"lat":48.407032,"orig":"","vertexType":"NORMAL"},"to":{"name":"Destination","lon":-71.023262,"lat":48.430136,"orig":"","vertexType":"NORMAL"},"itineraries":[{"duration":3102,"startTime":1522700533000,"endTime":1522703635000,"walkTime":2920,"transitTime":180,"waitingTime":2,"walkDistance":3807.9228947252936,"walkLimitExceeded":false,"elevationLost":0.0,"elevationGained":0.0,"transfers":0,"legs":[{"startTime":1522700533000,"endTime":1522702619000,"departureDelay":0,"arrivalDelay":0,"realTime":false,"distance":2751.513,"pathway":false,"mode":"WALK","route":"","agencyTimeZoneOffset":-14400000,"interlineWithPreviousLeg":false,"from":{"name":"Origin","lon":-70.97300699,"lat":48.407032,"departure":1522700533000,"orig":"","vertexType":"NORMAL"},"to":{"name":"Centre Équestre (face)","stopId":"1:125","stopCode":"125","lon":-70.995111,"lat":48.424701,"arrival":1522702619000,"departure":1522702620000,"zoneId":"NA","stopIndex":17,"stopSequence":18,"vertexType":"TRANSIT"},"legGeometry":{"points":"}~mfHladpLc@r@mA~@KBeJ~Bq@^aErD_ExCmAt@aBj@[^MV{DrKgAzD[nAUbAYpB{@tHY|Ak@lBQ^Yd@c@p@qF|E}B`Cc@d@KJe@r@M\\Mj@Gp@WhJMlGIrBIz@a@pC_DnIwGlVkAxD{DvFQX","length":41},"rentedBike":false,"transitLeg":false,"duration":2086.0,"steps":[{"distance":2751.513,"relativeDirection":"DEPART","streetName":"Rang Saint-Joseph","absoluteDirection":"NORTHWEST","stayOn":false,"area":false,"bogusName":false,"lon":-70.96870938119946,"lat":48.409590766013224,"elevation":[]}]},{"startTime":1522702620000,"endTime":1522702800000,"departureDelay":0,"arrivalDelay":0,"realTime":false,"distance":1553.9432123361707,"pathway":false,"mode":"BUS","route":"13","agencyName":"Société de Transport du Saguenay","agencyUrl":"http://ville.saguenay.ca/fr/services-aux-citoyens/transport-sts","agencyTimeZoneOffset":-14400000,"routeColor":"00FFFF","routeType":3,"routeId":"1:13","routeTextColor":"000000","interlineWithPreviousLeg":false,"tripBlockId":"56","headsign":"St-Martin / St-Joseph","agencyId":"0","tripId":"1:218524","serviceDate":"20180402","from":{"name":"Centre Équestre (face)","stopId":"1:125","stopCode":"125","lon":-70.995111,"lat":48.424701,"arrival":1522702619000,"departure":1522702620000,"zoneId":"NA","stopIndex":17,"stopSequence":18,"vertexType":"TRANSIT"},"to":{"name":"rang St-Joseph / St-Martin","stopId":"1:13","stopCode":"13","lon":-71.013844,"lat":48.431087,"arrival":1522702800000,"departure":1522702801000,"zoneId":"NA","stopIndex":18,"stopSequence":19,"vertexType":"TRANSIT"},"legGeometry":{"points":"k|pfH`hipLm@~@_@p@m@p@mAxC}@nBk@xAw@dBkAnC{AdD[x@kB`Ge@zDSdBEVEZCTANANCNCJA\\Eb@G`@Gb@CZA^C`@Cb@Aj@?j@A`@C`@Al@Cd@Cr@Ct@?z@Av@S`BKr@S~@UdAUbAU~@Y~@Y`ASp@Mf@Qj@ERELEJABAB?@IRAFCHAFEHEP]fAQp@M^Qn@uBlH","length":67},"routeShortName":"13","routeLongName":"Rang St-Martin / St-Jospeh","rentedBike":false,"transitLeg":true,"duration":180.0,"steps":[]},{"startTime":1522702801000,"endTime":1522703635000,"departureDelay":0,"arrivalDelay":0,"realTime":false,"distance":1056.0520000000001,"pathway":false,"mode":"WALK","route":"","agencyTimeZoneOffset":-14400000,"interlineWithPreviousLeg":false,"from":{"name":"rang St-Joseph / St-Martin","stopId":"1:13","stopCode":"13","lon":-71.013844,"lat":48.431087,"arrival":1522702800000,"departure":1522702801000,"zoneId":"NA","stopIndex":18,"stopSequence":19,"vertexType":"TRANSIT"},"to":{"name":"Destination","lon":-71.023262,"lat":48.430136,"arrival":1522703635000,"orig":"","vertexType":"NORMAL"},"legGeometry":{"points":"sdrfHb|lpLOf@\\H|D|@CPATCZC^G\\ITGVIRELjCxBhA`Az@d@\\LPDAlFAvBKx@Qz@GBGEgAs@eAvDqAhEKRW^iBjCnCvF","length":31},"rentedBike":false,"transitLeg":false,"duration":834.0,"steps":[{"distance":17.368,"relativeDirection":"DEPART","streetName":"Rang Saint-Joseph","absoluteDirection":"NORTHWEST","stayOn":false,"area":false,"bogusName":false,"lon":-71.0139347545022,"lat":48.430985694046385,"elevation":[]},{"distance":125.143,"relativeDirection":"LEFT","streetName":"Rang Saint-Martin","absoluteDirection":"SOUTH","stayOn":false,"area":false,"bogusName":false,"lon":-71.0141371,"lat":48.4310655,"elevation":[]},{"distance":84.669,"relativeDirection":"RIGHT","streetName":"road","absoluteDirection":"WEST","stayOn":false,"area":false,"bogusName":true,"lon":-71.0144971,"lat":48.429965700000004,"elevation":[]},{"distance":201.82600000000002,"relativeDirection":"LEFT","streetName":"Rue d'Anjou","absoluteDirection":"SOUTHWEST","stayOn":false,"area":false,"bogusName":false,"lon":-71.0155488,"lat":48.430243600000004,"elevation":[]},{"distance":189.337,"relativeDirection":"RIGHT","streetName":"Rue des Cormiers","absoluteDirection":"WEST","stayOn":false,"area":false,"bogusName":false,"lon":-71.0167705,"lat":48.4286303,"elevation":[]},{"distance":43.618,"relativeDirection":"RIGHT","streetName":"Rue de la Rochelle","absoluteDirection":"NORTHEAST","stayOn":false,"area":false,"bogusName":false,"lon":-71.01914380000001,"lat":48.4288873,"elevation":[]},{"distance":272.25899999999996,"relativeDirection":"LEFT","streetName":"Rue de Bretagne","absoluteDirection":"NORTHWEST","stayOn":false,"area":false,"bogusName":false,"lon":-71.0188863,"lat":48.429240400000005,"elevation":[]},{"distance":121.832,"relativeDirection":"LEFT","streetName":"Rue des Ormes","absoluteDirection":"SOUTHWEST","stayOn":false,"area":false,"bogusName":false,"lon":-71.0217784,"lat":48.4307181,"elevation":[]}]}],"tooSloped":false}]},"debugOutput":{"precalculationTime":8,"pathCalculationTime":1,"pathTimes":[0],"renderingTime":0,"totalTime":9,"timedOut":false},"elevationMetadata":{"ellipsoidToGeoidDifference":-28.885904201182168,"geoidElevation":false}}