{"requestParameters":{"date":"2018/04/02","walkSpeed":"1.33","walkReluctance":"2.0","fromPlace":"48.418729,-71.053021","maxWalkDistance":"3000","waitReluctance":"1.0","carSpeed":"33","numItineraries":"3","waitAtBeginningFactor":"0.4","mode":"TRANSIT,WALK","ignoreRealtimeUpdates":"false","stairsReluctance":"2.0","toPlace":"48.428001,-71.056525","time":"12:0:00"},"plan":{"date":1522684800000,"from":{"name":"Origin","lon":-71.053021,"lat":48.418729,"orig":"","vertexType":"NORMAL"},"to":{"name":"Destination","lon":-71.056525,"lat":48.428001,"orig":"","vertexType":"NORMAL"},"itineraries":[{"duration":547,"startTime":1522684854000,"endTime":1522685401000,"walkTime":360,"transitTime":185,"waitingTime":2,"walkDistance":446.61080450573456,"walkLimitExceeded":false,"elevationLost":0.0,"elevationGained":0.0,"transfers":0,"legs":[{"startTime":1522684854000,"endTime":1522684979000,"departureDelay":0,"arrivalDelay":0,"realTime":false,"distance":149.715,"pathway":false,"mode":"WALK","route":"","agencyTimeZoneOffset":-14400000,"interlineWithPreviousLeg":false,"from":{"name":"Origin","lon":-71.053021,"lat":48.418729,"departure":1522684854000,"orig":"","vertexType":"NORMAL"},"to":{"name":"Université du Québec à Chicoutimi","stopId":"1:63","stopCode":"63","lon":-71.051623,"lat":48.419503,"arrival":1522684979000,"departure":1522684980000,"zoneId":"NA","stopIndex":0,"stopSequence":1,"vertexType":"TRANSIT"},"legGeometry":{"points":"mwofHbotpLwBuBCA_AaATIQQ","length":6},"rentedBike":false,"transitLeg":false,"duration":125.0,"steps":[{"distance":137.92600000000002,"relativeDirection":"DEPART","streetName":"path","absoluteDirection":"NORTHEAST","stayOn":false,"area":false,"bogusName":false,"lon":-71.05281450938897,"lat":48.41863935175929,"elevation":[]},{"distance":11.789,"relativeDirection":"HARD_LEFT","streetName":"Rue de la Fondation","absoluteDirection":"NORTHEAST","stayOn":false,"area":false,"bogusName":false,"lon":-71.0518321,"lat":48.419468900000005,"elevation":[]}]},{"startTime":1522684980000,"endTime":1522685165000,"departureDelay":0,"arrivalDelay":0,"realTime":false,"distance":1057.8720140248508,"pathway":false,"mode":"BUS","route":"65","agencyName":"Société de Transport du Saguenay","agencyUrl":"http://ville.saguenay.ca/fr/services-aux-citoyens/transport-sts","agencyTimeZoneOffset":-14400000,"routeColor":"00FFFF","routeType":3,"routeId":"1:65","routeTextColor":"000000","interlineWithPreviousLeg":false,"tripBlockId":"75","headsign":"Épicerie culinaire","agencyId":"0","tripId":"1:218626","serviceDate":"20180402","from":{"name":"Université du Québec à Chicoutimi","stopId":"1:63","stopCode":"63","lon":-71.051623,"lat":48.419503,"arrival":1522684979000,"departure":1522684980000,"zoneId":"NA","stopIndex":0,"stopSequence":1,"vertexType":"TRANSIT"},"to":{"name":"Jacques-Cartier / Labrecque (Manoir Champlain)","stopId":"1:68","stopCode":"68","lon":-71.05805,"lat":48.426307,"arrival":1522685165000,"departure":1522685166000,"zoneId":"NA","stopIndex":5,"stopSequence":6,"vertexType":"TRANSIT"},"legGeometry":{"points":"e}ofHjhtpLmCkCI@GHuCrIyA{AaBeBg@vAsClJAh@Bf@Hp@Hp@HdA@fA?h@O|@Ul@u@bAm@~AuDqDmEkE]a@kAqAU|@WnKG|D","length":27},"routeShortName":"65","routeLongName":"Term. Chic / Shipshaw","rentedBike":false,"transitLeg":true,"duration":185.0,"steps":[]},{"startTime":1522685166000,"endTime":1522685401000,"departureDelay":0,"arrivalDelay":0,"realTime":false,"distance":296.72400000000005,"pathway":false,"mode":"WALK","route":"","agencyTimeZoneOffset":-14400000,"interlineWithPreviousLeg":false,"from":{"name":"Jacques-Cartier / Labrecque (Manoir Champlain)","stopId":"1:68","stopCode":"68","lon":-71.05805,"lat":48.426307,"arrival":1522685165000,"departure":1522685166000,"zoneId":"NA","stopIndex":5,"stopSequence":6,"vertexType":"TRANSIT"},"to":{"name":"Destination","lon":-71.056525,"lat":48.428001,"arrival":1522685401000,"orig":"","vertexType":"NORMAL"},"legGeometry":{"points":"agqfHzoupL?KH}DoCK_@?SBQDo@N]Fm@mC","length":10},"rentedBike":false,"transitLeg":false,"duration":235.0,"steps":[{"distance":74.745,"relativeDirection":"DEPART","streetName":"Rue Jacques-Cartier Est","absoluteDirection":"EAST","stayOn":false,"area":false,"bogusName":false,"lon":-71.05805450282384,"lat":48.426254314622405,"elevation":[]},{"distance":163.66,"relativeDirection":"LEFT","streetName":"Rue Labrecque","absoluteDirection":"NORTH","stayOn":false,"area":false,"bogusName":false,"lon":-71.05704440000001,"lat":48.4262037,"elevation":[]},{"distance":58.319,"relativeDirection":"RIGHT","streetName":"Rue Racine Est","absoluteDirection":"NORTHEAST","stayOn":false,"area":false,"bogusName":false,"lon":-71.0571547,"lat":48.427663,"elevation":[]}]}],"tooSloped":false},{"duration":1153,"startTime":1522684800000,"endTime":1522685953000,"walkTime":1153,"transitTime":0,"waitingTime":0,"walkDistance":1438.7870977301923,"walkLimitExceeded":false,"elevationLost":0.0,"elevationGained":0.0,"transfers":0,"legs":[{"startTime":1522684800000,"endTime":1522685953000,"departureDelay":0,"arrivalDelay":0,"realTime":false,"distance":1438.3479999999997,"pathway":false,"mode":"WALK","route":"","agencyTimeZoneOffset":-14400000,"interlineWithPreviousLeg":false,"from":{"name":"Origin","lon":-71.053021,"lat":48.418729,"departure":1522684800000,"orig":"","vertexType":"NORMAL"},"to":{"name":"Destination","lon":-71.056525,"lat":48.428001,"arrival":1522685953000,"orig":"","vertexType":"NORMAL"},"legGeometry":{"points":"mwofHbotpLwBuBCA_AaAq@XYz@Ur@e@vAy@w@aB^SQOt@Mh@Kd@CLOt@G?M_@e@A]PS@M?_A{@[QWWEEWz@_B_@OpAKv@e@~DECOGwBKMAY`@_@hAa@jBC~ACvCiAAgBOuAIoCK_@?SBQDo@N]Fm@mC","length":50},"rentedBike":false,"transitLeg":false,"duration":1153.0,"steps":[{"distance":336.44399999999996,"relativeDirection":"DEPART","streetName":"path","absoluteDirection":"NORTHEAST","stayOn":false,"area":false,"bogusName":false,"lon":-71.05281450938897,"lat":48.41863935175929,"elevation":[]},{"distance":12.715,"relativeDirection":"RIGHT","streetName":"Chemin Saint Thomas","absoluteDirection":"NORTHEAST","stayOn":false,"area":false,"bogusName":false,"lon":-71.0528965,"lat":48.4210362,"elevation":[]},{"distance":82.319,"relativeDirection":"LEFT","streetName":"service road","absoluteDirection":"NORTHWEST","stayOn":false,"area":false,"bogusName":true,"lon":-71.0528043,"lat":48.4211328,"elevation":[]},{"distance":4.437,"relativeDirection":"RIGHT","streetName":"path","absoluteDirection":"NORTH","stayOn":true,"area":false,"bogusName":true,"lon":-71.0538161,"lat":48.421444400000006,"elevation":[]},{"distance":176.998,"relativeDirection":"RIGHT","streetName":"bike path","absoluteDirection":"NORTHEAST","stayOn":true,"area":false,"bogusName":true,"lon":-71.0538173,"lat":48.4214843,"elevation":[]},{"distance":54.189,"relativeDirection":"RIGHT","streetName":"path","absoluteDirection":"NORTH","stayOn":true,"area":false,"bogusName":true,"lon":-71.053503,"lat":48.4227993,"elevation":[]},{"distance":206.796,"relativeDirection":"LEFT","streetName":"service road","absoluteDirection":"WEST","stayOn":true,"area":false,"bogusName":true,"lon":-71.05334280000001,"lat":48.4232749,"elevation":[]},{"distance":195.33299999999997,"relativeDirection":"CONTINUE","streetName":"Rue Price Est","absoluteDirection":"NORTH","stayOn":false,"area":false,"bogusName":false,"lon":-71.0548701,"lat":48.424313700000006,"elevation":[]},{"distance":310.798,"relativeDirection":"RIGHT","streetName":"Rue Labrecque","absoluteDirection":"NORTH","stayOn":false,"area":false,"bogusName":false,"lon":-71.0571863,"lat":48.424884500000005,"elevation":[]},{"distance":58.319,"relativeDirection":"RIGHT","streetName":"Rue Racine Est","absoluteDirection":"NORTHEAST","stayOn":false,"area":false,"bogusName":false,"lon":-71.0571547,"lat":48.427663,"elevation":[]}]}],"tooSloped":false},{"duration":719,"startTime":1522685481000,"endTime":1522686200000,"walkTime":338,"transitTime":379,"waitingTime":2,"walkDistance":423.3234962374233,"walkLimitExceeded":false,"elevationLost":0.0,"elevationGained":0.0,"transfers":0,"legs":[{"startTime":1522685481000,"endTime":1522685759000,"departureDelay":0,"arrivalDelay":0,"realTime":false,"distance":348.519,"pathway":false,"mode":"WALK","route":"","agencyTimeZoneOffset":-14400000,"interlineWithPreviousLeg":false,"from":{"name":"Origin","lon":-71.053021,"lat":48.418729,"departure":1522685481000,"orig":"","vertexType":"NORMAL"},"to":{"name":"Terminus UQAC","stopId":"1:1670","stopCode":"1670","lon":-71.053369,"lat":48.420903,"arrival":1522685759000,"departure":1522685760000,"zoneId":"NA","stopIndex":14,"stopSequence":15,"vertexType":"TRANSIT"},"legGeometry":{"points":"mwofHbotpLwBuBCA_AaAq@XYz@Ur@e@vAg@vAUp@cAaA","length":11},"rentedBike":false,"transitLeg":false,"duration":278.0,"steps":[{"distance":281.082,"relativeDirection":"DEPART","streetName":"path","absoluteDirection":"NORTHEAST","stayOn":false,"area":false,"bogusName":false,"lon":-71.05281450938897,"lat":48.41863935175929,"elevation":[]},{"distance":67.437,"relativeDirection":"CONTINUE","streetName":"service road","absoluteDirection":"NORTHWEST","stayOn":false,"area":false,"bogusName":true,"lon":-71.05345460000001,"lat":48.4204518,"elevation":[]}]},{"startTime":1522685760000,"endTime":1522686139000,"departureDelay":0,"arrivalDelay":0,"realTime":false,"distance":1625.4420864694173,"pathway":false,"mode":"BUS","route":"175","agencyName":"Société de Transport du Saguenay","agencyUrl":"http://ville.saguenay.ca/fr/services-aux-citoyens/transport-sts","agencyTimeZoneOffset":-14400000,"routeColor":"FF00FF","routeType":3,"routeId":"1:175","routeTextColor":"FFFFFF","interlineWithPreviousLeg":false,"tripBlockId":"81","headsign":"Terminus Chicoutimi","agencyId":"0","tripId":"1:218659","serviceDate":"20180402","from":{"name":"Terminus UQAC","stopId":"1:1670","stopCode":"1670","lon":-71.053369,"lat":48.420903,"arrival":1522685759000,"departure":1522685760000,"zoneId":"NA","stopIndex":14,"stopSequence":15,"vertexType":"TRANSIT"},"to":{"name":"Labrecque / Racine","stopId":"1:336","stopCode":"336","lon":-71.057034,"lat":48.427529,"arrival":1522686139000,"departure":1522686140000,"zoneId":"NA","stopIndex":23,"stopSequence":24,"vertexType":"TRANSIT"},"legGeometry":{"points":"sepfHprtpL_A_ATm@yAwAgBeBqDnL@nBF`@f@|C[dCuAfB]xAs@OmCmCmEkE]a@g@i@ZiGTmEl@oLaEe@cFk@?pH?tJDvBPjMB~Bo@P","length":28},"routeShortName":"175","routeLongName":"Term. Chic / Costco","rentedBike":false,"transitLeg":true,"duration":379.0,"steps":[]},{"startTime":1522686140000,"endTime":1522686200000,"departureDelay":0,"arrivalDelay":0,"realTime":false,"distance":74.706,"pathway":false,"mode":"WALK","route":"","agencyTimeZoneOffset":-14400000,"interlineWithPreviousLeg":false,"from":{"name":"Labrecque / Racine","stopId":"1:336","stopCode":"336","lon":-71.057034,"lat":48.427529,"arrival":1522686139000,"departure":1522686140000,"zoneId":"NA","stopIndex":23,"stopSequence":24,"vertexType":"TRANSIT"},"to":{"name":"Destination","lon":-71.056525,"lat":48.428001,"arrival":1522686200000,"orig":"","vertexType":"NORMAL"},"legGeometry":{"points":"}nqfH~iupL]Fm@mC","length":3},"rentedBike":false,"transitLeg":false,"duration":60.0,"steps":[{"distance":16.387,"relativeDirection":"DEPART","streetName":"Rue Labrecque","absoluteDirection":"NORTH","stayOn":false,"area":false,"bogusName":false,"lon":-71.05711000873124,"lat":48.42751863891179,"elevation":[]},{"distance":58.319,"relativeDirection":"RIGHT","streetName":"Rue Racine Est","absoluteDirection":"NORTHEAST","stayOn":false,"area":false,"bogusName":false,"lon":-71.0571547,"lat":48.427663,"elevation":[]}]}],"tooSloped":false}]},"debugOutput":{"precalculationTime":48,"pathCalculationTime":25,"pathTimes":[15,5,5],"renderingTime":0,"totalTime":73,"timedOut":false},"elevationMetadata":{"ellipsoidToGeoidDifference":-28.885904201182168,"geoidElevation":false}}