{"requestParameters":{"date":"2018/04/02","walkSpeed":"1.33","walkReluctance":"2.0","fromPlace":"48.453628,-71.053925","maxWalkDistance":"3000","waitReluctance":"1.0","carSpeed":"33","numItineraries":"3","waitAtBeginningFactor":"0.4","mode":"TRANSIT,WALK","ignoreRealtimeUpdates":"false","stairsReluctance":"2.0","toPlace":"48.45007,-71.077073","time":"5:45:00"},"plan":{"date":1522662300000,"from":{"name":"Origin","lon":-71.053925,"lat":48.453628,"orig":"","vertexType":"NORMAL"},"to":{"name":"Destination","lon":-71.077073,"lat":48.45007,"orig":"","vertexType":"NORMAL"},"itineraries":[{"duration":2150,"startTime":1522662300000,"endTime":1522664450000,"walkTime":2150,"transitTime":0,"waitingTime":0,"walkDistance":2794.4510751805456,"walkLimitExceeded":false,"elevationLost":0.0,"elevationGained":0.0,"transfers":0,"legs":[{"startTime":1522662300000,"endTime":1522664450000,"departureDelay":0,"arrivalDelay":0,"realTime":false,"distance":2794.2209999999995,"pathway":false,"mode":"WALK","route":"","agencyTimeZoneOffset":-14400000,"interlineWithPreviousLeg":false,"from":{"name":"Origin","lon":-71.053925,"lat":48.453628,"departure":1522662300000,"orig":"","vertexType":"NORMAL"},"to":{"name":"Destination","lon":-71.077073,"lat":48.45007,"arrival":1522664450000,"orig":"","vertexType":"NORMAL"},"legGeometry":{"points":"}rvfHrvtpLv@nDB\\?XIp@OhBAH]xBAX?H?D@B@FDDHDNBJDNFNDLDbC~@PFNFxCdAvCfAVHbBp@o@zCkAbJc@lB]nBWKwAlJW`B]fBtAlDJTfAnCPb@LZFRDPJd@T`BDVd@hEJ`@Pd@L\\Zb@\\d@TPRPTLB@XHp@FAHAd@Ad@@p@BPFVP\\FH`@f@\\Td@P^B`@Cx@K?j@@jABn@Bt@Hf@Lr@ZfBH\\Jr@Dj@?HLdBF|@VxCNzAG?M@ID[FIDGDIFGJIJGLGLAJCJCTCZCTCTGt@CJCLGZWdAe@lAa@dAMVm@vA{AgB[]i@{@EG_@g@o@_Ak@s@EGGK","length":121},"alerts":[{"alertHeaderText":"Unpaved surface"}],"rentedBike":false,"transitLeg":false,"duration":2150.0,"steps":[{"distance":219.25,"relativeDirection":"DEPART","streetName":"Rue Lambert","absoluteDirection":"SOUTHWEST","stayOn":false,"area":false,"bogusName":false,"lon":-71.0540179787968,"lat":48.45375701675687,"elevation":[]},{"distance":145.028,"relativeDirection":"LEFT","streetName":"Rue Fabre","absoluteDirection":"SOUTHWEST","stayOn":false,"area":false,"bogusName":false,"lon":-71.0568216,"lat":48.4537539,"elevation":[]},{"distance":260.302,"relativeDirection":"CONTINUE","streetName":"Rue Richelieu","absoluteDirection":"SOUTH","stayOn":false,"area":false,"bogusName":false,"lon":-71.0574594,"lat":48.4525377,"elevation":[]},{"distance":291.353,"relativeDirection":"RIGHT","streetName":"path","absoluteDirection":"NORTHWEST","stayOn":false,"area":false,"bogusName":true,"lon":-71.05850140000001,"lat":48.450301200000006,"elevation":[]},{"distance":13.88,"relativeDirection":"RIGHT","streetName":"Rue Delisle","absoluteDirection":"NORTH","stayOn":false,"area":false,"bogusName":false,"lon":-71.0621742,"lat":48.451252800000006,"elevation":[]},{"distance":224.285,"relativeDirection":"LEFT","streetName":"Rue Dupré","absoluteDirection":"WEST","stayOn":false,"area":false,"bogusName":false,"lon":-71.06211280000001,"lat":48.45137080000001,"elevation":[]},{"distance":514.968,"relativeDirection":"LEFT","streetName":"Rue de Boischatel","absoluteDirection":"SOUTHWEST","stayOn":false,"area":false,"bogusName":false,"lon":-71.064958,"lat":48.452082100000005,"elevation":[],"alerts":[{"alertHeaderText":"Unpaved surface"}]},{"distance":221.346,"relativeDirection":"RIGHT","streetName":"Rue Cabot","absoluteDirection":"WEST","stayOn":false,"area":false,"bogusName":false,"lon":-71.0702047,"lat":48.449388000000006,"elevation":[]},{"distance":367.39300000000003,"relativeDirection":"RIGHT","streetName":"Rue de l'Aréna","absoluteDirection":"WEST","stayOn":false,"area":false,"bogusName":false,"lon":-71.0716385,"lat":48.448087900000004,"elevation":[]},{"distance":316.015,"relativeDirection":"RIGHT","streetName":"Rue Saint-Gérard","absoluteDirection":"NORTH","stayOn":false,"area":false,"bogusName":false,"lon":-71.0764515,"lat":48.4473234,"elevation":[]},{"distance":220.401,"relativeDirection":"RIGHT","streetName":"Rue Pinel","absoluteDirection":"NORTHEAST","stayOn":false,"area":false,"bogusName":false,"lon":-71.079678,"lat":48.4489492,"elevation":[]}]}],"tooSloped":false},{"duration":1512,"startTime":1522664851000,"endTime":1522666363000,"walkTime":125,"transitTime":1205,"waitingTime":182,"walkDistance":159.64545864553696,"walkLimitExceeded":false,"elevationLost":0.0,"elevationGained":0.0,"transfers":1,"legs":[{"startTime":1522664851000,"endTime":1522664967000,"departureDelay":0,"arrivalDelay":0,"realTime":false,"distance":148.074,"pathway":false,"mode":"WALK","route":"","agencyTimeZoneOffset":-14400000,"interlineWithPreviousLeg":false,"from":{"name":"Origin","lon":-71.053925,"lat":48.453628,"departure":1522664851000,"orig":"","vertexType":"NORMAL"},"to":{"name":"Lacordaire / Lambert","stopId":"1:754","stopCode":"754","lon":-71.0524,"lat":48.4541,"arrival":1522664967000,"departure":1522664968000,"zoneId":"NA","stopIndex":9,"stopSequence":10,"vertexType":"TRANSIT"},"legGeometry":{"points":"}rvfHrvtpLs@aDAK?I?K?I?Y?IHm@Fm@[K","length":11},"rentedBike":false,"transitLeg":false,"duration":116.0,"steps":[{"distance":131.363,"relativeDirection":"DEPART","streetName":"Rue Lambert","absoluteDirection":"NORTHEAST","stayOn":false,"area":false,"bogusName":false,"lon":-71.0540179787968,"lat":48.45375701675687,"elevation":[]},{"distance":16.711,"relativeDirection":"LEFT","streetName":"Rue Lacordaire","absoluteDirection":"NORTH","stayOn":false,"area":false,"bogusName":false,"lon":-71.0523474,"lat":48.453934100000005,"elevation":[]}]},{"startTime":1522664968000,"endTime":1522665720000,"departureDelay":0,"arrivalDelay":0,"realTime":false,"distance":4585.13560541811,"pathway":false,"mode":"BUS","route":"22","agencyName":"Société de Transport du Saguenay","agencyUrl":"http://ville.saguenay.ca/fr/services-aux-citoyens/transport-sts","agencyTimeZoneOffset":-14400000,"routeColor":"C0C000","routeType":3,"routeId":"1:22","routeTextColor":"000000","interlineWithPreviousLeg":false,"tripBlockId":"3","headsign":"Terminus Chicoutimi","agencyId":"0","tripId":"1:217186","serviceDate":"20180402","from":{"name":"Lacordaire / Lambert","stopId":"1:754","stopCode":"754","lon":-71.0524,"lat":48.4541,"arrival":1522664967000,"departure":1522664968000,"zoneId":"NA","stopIndex":9,"stopSequence":10,"vertexType":"TRANSIT"},"to":{"name":"Terminus Chicoutimi","stopId":"1:1289","stopCode":"1289","lon":-71.066163,"lat":48.428677,"arrival":1522665720000,"departure":1522665900000,"zoneId":"NA","stopIndex":26,"stopSequence":27,"vertexType":"TRANSIT"},"legGeometry":{"points":"}tvfHxktpL`GjBz@VNJJRBTAVQdAn@XrAh@uCvSeA|He@hCo@|AiBbD~@^|IrDhAb@qAfJSzAMr@Yz@xAhDFNpBdFRp@Hl@Jz@BXXrCHl@Lh@Nf@r@nAr@r@`@PLFbAVH_AXeC@IdB_Mh@_EJk@x@x@bA`A|BrBnDrCl@f@|BlBrAbAj@d@ZTXNd@@lA[ZxDN|Ad@fAz@tB~AzDZ|@Zv@x@vBP\\h@~@PVrCmFhHqN~@eBr@cAt@_Av@}@RQPMz@k@tAe@REZG^Af@@X@VF`@Jn@XbClAr@Xt\\`PrAb@pA^hBTjAFj@Pb@JPHLLJNJRFXDT?X?ZEVEVKTMNMHMFOB}DWSGOSYcAN}FFkAF}DJyDd@wPV_HjAN~ALIzBQb@e@@","length":124},"routeShortName":"22","routeLongName":"Vanier","rentedBike":false,"transitLeg":true,"duration":752.0,"steps":[]},{"startTime":1522665900000,"endTime":1522666353000,"departureDelay":0,"arrivalDelay":0,"realTime":false,"distance":3049.3163865506726,"pathway":false,"mode":"BUS","route":"21","agencyName":"Société de Transport du Saguenay","agencyUrl":"http://ville.saguenay.ca/fr/services-aux-citoyens/transport-sts","agencyTimeZoneOffset":-14400000,"routeColor":"556B2F","routeType":3,"routeId":"1:21","routeTextColor":"FFFFFF","interlineWithPreviousLeg":false,"tripBlockId":"2","headsign":"Terminus Chicoutimi","agencyId":"0","tripId":"1:217156","serviceDate":"20180402","from":{"name":"Terminus Chicoutimi","stopId":"1:1289","stopCode":"1289","lon":-71.066163,"lat":48.428677,"arrival":1522665720000,"departure":1522665900000,"zoneId":"NA","stopIndex":0,"stopSequence":1,"vertexType":"TRANSIT"},"to":{"name":"Pinel (no. 163)","stopId":"1:730","stopCode":"730","lon":-71.077992,"lat":48.45046,"arrival":1522666353000,"departure":1522666354000,"zoneId":"NA","stopIndex":6,"stopSequence":7,"vertexType":"TRANSIT"},"legGeometry":{"points":"kwqfHjbwpLF_CeBSm@rRO\\WjGOfGCRK^KJMHQB_AMg@Gw`@eR}@g@u@Su@Ia@Ck@Dm@HwAf@c@VeAx@iAlAU^[d@eLtTsAvB_CvEuAnCmBlE}@|B_BvFoC`JCD}@hCo@~Aq@pAs@fAWs@IUC[AI?QCeGAs@Gy@Ks@Ou@OcAIcAIgAWgCG_@Og@IQS]UWYQWIUA[Da@P]RSVQ`@Ib@Ef@Et@Gf@Id@I`@Od@cCxFQOgAwA_FqGO[`BcEY_@MOaBtDLTh@bATZ","length":86},"routeShortName":"21","routeLongName":"Boul. Ste-Geneviève/Élie","rentedBike":false,"transitLeg":true,"duration":453.0,"steps":[]},{"startTime":1522666354000,"endTime":1522666363000,"departureDelay":0,"arrivalDelay":0,"realTime":false,"distance":11.538,"pathway":false,"mode":"WALK","route":"","agencyTimeZoneOffset":-14400000,"interlineWithPreviousLeg":false,"from":{"name":"Pinel (no. 163)","stopId":"1:730","stopCode":"730","lon":-71.077992,"lat":48.45046,"arrival":1522666353000,"departure":1522666354000,"zoneId":"NA","stopIndex":6,"stopSequence":7,"vertexType":"TRANSIT"},"to":{"name":"Destination","lon":-71.077073,"lat":48.45007,"arrival":1522666363000,"orig":"","vertexType":"NORMAL"},"legGeometry":{"points":"_~ufHxkypLEGGK","length":3},"rentedBike":false,"transitLeg":false,"duration":9.0,"steps":[{"distance":11.538,"relativeDirection":"DEPART","streetName":"Rue Pinel","absoluteDirection":"NORTHEAST","stayOn":false,"area":false,"bogusName":false,"lon":-71.07788276791463,"lat":48.45040022579413,"elevation":[]}]}],"tooSloped":false},{"duration":1312,"startTime":1522666531000,"endTime":1522667843000,"walkTime":1007,"transitTime":303,"waitingTime":2,"walkDistance":1317.9354511252238,"walkLimitExceeded":false,"elevationLost":0.0,"elevationGained":0.0,"transfers":0,"legs":[{"startTime":1522666531000,"endTime":1522666647000,"departureDelay":0,"arrivalDelay":0,"realTime":false,"distance":148.074,"pathway":false,"mode":"WALK","route":"","agencyTimeZoneOffset":-14400000,"interlineWithPreviousLeg":false,"from":{"name":"Origin","lon":-71.053925,"lat":48.453628,"departure":1522666531000,"orig":"","vertexType":"NORMAL"},"to":{"name":"Lacordaire / Lambert","stopId":"1:754","stopCode":"754","lon":-71.0524,"lat":48.4541,"arrival":1522666647000,"departure":1522666648000,"zoneId":"NA","stopIndex":18,"stopSequence":19,"vertexType":"TRANSIT"},"legGeometry":{"points":"}rvfHrvtpLs@aDAK?I?K?I?Y?IHm@Fm@[K","length":11},"rentedBike":false,"transitLeg":false,"duration":116.0,"steps":[{"distance":131.363,"relativeDirection":"DEPART","streetName":"Rue Lambert","absoluteDirection":"NORTHEAST","stayOn":false,"area":false,"bogusName":false,"lon":-71.0540179787968,"lat":48.45375701675687,"elevation":[]},{"distance":16.711,"relativeDirection":"LEFT","streetName":"Rue Lacordaire","absoluteDirection":"NORTH","stayOn":false,"area":false,"bogusName":false,"lon":-71.0523474,"lat":48.453934100000005,"elevation":[]}]},{"startTime":1522666648000,"endTime":1522666951000,"departureDelay":0,"arrivalDelay":0,"realTime":false,"distance":1679.3985765313535,"pathway":false,"mode":"BUS","route":"22","agencyName":"Société de Transport du Saguenay","agencyUrl":"http://ville.saguenay.ca/fr/services-aux-citoyens/transport-sts","agencyTimeZoneOffset":-14400000,"routeColor":"C0C000","routeType":3,"routeId":"1:22","routeTextColor":"000000","interlineWithPreviousLeg":false,"tripBlockId":"1","headsign":"Terminus Chicoutimi","agencyId":"0","tripId":"1:217130","serviceDate":"20180402","from":{"name":"Lacordaire / Lambert","stopId":"1:754","stopCode":"754","lon":-71.0524,"lat":48.4541,"arrival":1522666647000,"departure":1522666648000,"zoneId":"NA","stopIndex":18,"stopSequence":19,"vertexType":"TRANSIT"},"to":{"name":"Boischatel / Cabot","stopId":"1:763","stopCode":"763","lon":-71.070142,"lat":48.449792,"arrival":1522666951000,"departure":1522666952000,"zoneId":"NA","stopIndex":27,"stopSequence":28,"vertexType":"TRANSIT"},"legGeometry":{"points":"}tvfHxktpL`GjBz@VNJJRBTAVQdAn@XrAh@uCvSeA|He@hCo@|AiBbD~@^|IrDhAb@qAfJSzAMr@Yz@xAhDFNpBdFRp@Hl@Jz@BXXrCHl@Lh@Nf@r@nAr@r@`@P","length":36},"routeShortName":"22","routeLongName":"Vanier","rentedBike":false,"transitLeg":true,"duration":303.0,"steps":[]},{"startTime":1522666952000,"endTime":1522667843000,"departureDelay":0,"arrivalDelay":0,"realTime":false,"distance":1169.781,"pathway":false,"mode":"WALK","route":"","agencyTimeZoneOffset":-14400000,"interlineWithPreviousLeg":false,"from":{"name":"Boischatel / Cabot","stopId":"1:763","stopCode":"763","lon":-71.070142,"lat":48.449792,"arrival":1522666951000,"departure":1522666952000,"zoneId":"NA","stopIndex":27,"stopSequence":28,"vertexType":"TRANSIT"},"to":{"name":"Destination","lon":-71.077073,"lat":48.45007,"arrival":1522667843000,"orig":"","vertexType":"NORMAL"},"legGeometry":{"points":"czufHd{wpLB@XHp@FAHAd@Ad@@p@BPFVP\\FH`@f@\\Td@P^B`@Cx@K?j@@jABn@Bt@Hf@Lr@ZfBH\\Jr@Dj@?HLdBF|@VxCNzAG?M@ID[FIDGDIFGJIJGLGLAJCJCTCZCTCTGt@CJCLGZWdAe@lAa@dAMVm@vA{AgB[]i@{@EG_@g@o@_Ak@s@EGGK","length":68},"rentedBike":false,"transitLeg":false,"duration":891.0,"steps":[{"distance":44.626,"relativeDirection":"DEPART","streetName":"Rue de Boischatel","absoluteDirection":"SOUTH","stayOn":false,"area":false,"bogusName":false,"lon":-71.07010820220822,"lat":48.449782750880445,"elevation":[]},{"distance":221.346,"relativeDirection":"RIGHT","streetName":"Rue Cabot","absoluteDirection":"WEST","stayOn":false,"area":false,"bogusName":false,"lon":-71.0702047,"lat":48.449388000000006,"elevation":[]},{"distance":367.39300000000003,"relativeDirection":"RIGHT","streetName":"Rue de l'Aréna","absoluteDirection":"WEST","stayOn":false,"area":false,"bogusName":false,"lon":-71.0716385,"lat":48.448087900000004,"elevation":[]},{"distance":316.015,"relativeDirection":"RIGHT","streetName":"Rue Saint-Gérard","absoluteDirection":"NORTH","stayOn":false,"area":false,"bogusName":false,"lon":-71.0764515,"lat":48.4473234,"elevation":[]},{"distance":220.401,"relativeDirection":"RIGHT","streetName":"Rue Pinel","absoluteDirection":"NORTHEAST","stayOn":false,"area":false,"bogusName":false,"lon":-71.079678,"lat":48.4489492,"elevation":[]}]}],"tooSloped":false}]},"debugOutput":{"precalculationTime":12,"pathCalculationTime":25,"pathTimes":[15,5,5],"renderingTime":0,"totalTime":37,"timedOut":false},"elevationMetadata":{"ellipsoidToGeoidDifference":-28.885904201182168,"geoidElevation":false}}