{"requestParameters":{"date":"2018/04/02","walkSpeed":"1.33","walkReluctance":"2.0","fromPlace":"48.454574,-71.053557","maxWalkDistance":"3000","waitReluctance":"1.0","carSpeed":"33","numItineraries":"3","waitAtBeginningFactor":"0.4","mode":"TRANSIT,WALK","ignoreRealtimeUpdates":"false","stairsReluctance":"2.0","toPlace":"48.443416,-71.07852499","time":"16:30:00"},"plan":{"date":1522701000000,"from":{"name":"Origin","lon":-71.053557,"lat":48.454574,"orig":"","vertexType":"NORMAL"},"to":{"name":"Destination","lon":-71.07852499,"lat":48.443416,"orig":"","vertexType":"NORMAL"},"itineraries":[{"duration":1361,"startTime":1522701956000,"endTime":1522703317000,"walkTime":1205,"transitTime":154,"waitingTime":2,"walkDistance":1555.478345858584,"walkLimitExceeded":false,"elevationLost":0.0,"elevationGained":0.0,"transfers":0,"legs":[{"startTime":1522701956000,"endTime":1522702765000,"departureDelay":0,"arrivalDelay":0,"realTime":false,"distance":1038.8269999999998,"pathway":false,"mode":"WALK","route":"","agencyTimeZoneOffset":-14400000,"interlineWithPreviousLeg":false,"from":{"name":"Origin","lon":-71.053557,"lat":48.454574,"departure":1522701956000,"orig":"","vertexType":"NORMAL"},"to":{"name":"Delisle / Vimy","stopId":"1:759","stopCode":"759","lon":-71.061215,"lat":48.453534,"arrival":1522702765000,"departure":1522702766000,"zoneId":"NA","stopIndex":20,"stopSequence":21,"vertexType":"TRANSIT"},"legGeometry":{"points":"{xvfHhstpLAFCREVELEFCFOLI?KEMCOEMGcDaAAHu@hHQhBAHAPIj@?PAb@?b@?rA?ZE`@Kz@[jCOvAzBt@bDfACR]bDTH\\L|G~BbA`@DB","length":38},"alerts":[{"alertHeaderText":"Unpaved surface"}],"rentedBike":false,"transitLeg":false,"duration":809.0,"steps":[{"distance":177.148,"relativeDirection":"DEPART","streetName":"Rue Nérée","absoluteDirection":"WEST","stayOn":false,"area":false,"bogusName":false,"lon":-71.053483097685,"lat":48.45470402442125,"elevation":[]},{"distance":383.836,"relativeDirection":"LEFT","streetName":"Rue Caroline","absoluteDirection":"WEST","stayOn":false,"area":false,"bogusName":false,"lon":-71.05351420000001,"lat":48.4560742,"elevation":[]},{"distance":167.38400000000001,"relativeDirection":"LEFT","streetName":"Rue Clovis","absoluteDirection":"SOUTH","stayOn":false,"area":false,"bogusName":false,"lon":-71.0585628,"lat":48.456838100000006,"elevation":[],"alerts":[{"alertHeaderText":"Unpaved surface"}]},{"distance":70.72200000000001,"relativeDirection":"RIGHT","streetName":"Rue Briand","absoluteDirection":"WEST","stayOn":false,"area":false,"bogusName":false,"lon":-71.0591958,"lat":48.4553925,"elevation":[]},{"distance":239.73700000000002,"relativeDirection":"LEFT","streetName":"Rue Delisle","absoluteDirection":"SOUTH","stayOn":false,"area":false,"bogusName":false,"lon":-71.06011930000001,"lat":48.455564,"elevation":[]}]},{"startTime":1522702766000,"endTime":1522702920000,"departureDelay":0,"arrivalDelay":0,"realTime":false,"distance":1490.3188309182121,"pathway":false,"mode":"BUS","route":"27","agencyName":"Société de Transport du Saguenay","agencyUrl":"http://ville.saguenay.ca/fr/services-aux-citoyens/transport-sts","agencyTimeZoneOffset":-14400000,"routeColor":"00FFFF","routeType":3,"routeId":"1:27","routeTextColor":"000000","interlineWithPreviousLeg":false,"tripBlockId":"97","headsign":"Terminus Chicoutimi","agencyId":"0","tripId":"1:218741","serviceDate":"20180402","from":{"name":"Delisle / Vimy","stopId":"1:759","stopCode":"759","lon":-71.061215,"lat":48.453534,"arrival":1522702765000,"departure":1522702766000,"zoneId":"NA","stopIndex":20,"stopSequence":21,"vertexType":"TRANSIT"},"to":{"name":"Champs / Victor","stopId":"1:769","stopCode":"769","lon":-71.07274,"lat":48.442642,"arrival":1522702920000,"departure":1522702921000,"zoneId":"NA","stopIndex":22,"stopSequence":23,"vertexType":"TRANSIT"},"legGeometry":{"points":"kqvfHvbvpL|InDji@fTv@^HFNNJPHTHTDVvBrWN|A`ExJZ|@","length":14},"routeShortName":"27","routeLongName":"St-Honoré","rentedBike":false,"transitLeg":true,"duration":154.0,"steps":[]},{"startTime":1522702921000,"endTime":1522703317000,"departureDelay":0,"arrivalDelay":0,"realTime":false,"distance":516.463,"pathway":false,"mode":"WALK","route":"","agencyTimeZoneOffset":-14400000,"interlineWithPreviousLeg":false,"from":{"name":"Champs / Victor","stopId":"1:769","stopCode":"769","lon":-71.07274,"lat":48.442642,"arrival":1522702920000,"departure":1522702921000,"zoneId":"NA","stopIndex":22,"stopSequence":23,"vertexType":"TRANSIT"},"to":{"name":"Destination","lon":-71.07852499,"lat":48.443416,"arrival":1522703317000,"orig":"","vertexType":"NORMAL"},"legGeometry":{"points":"cmtfHhkxpLrAjDt@lBRRsAhC_DbG}@vBiAhDc@bB","length":9},"rentedBike":false,"transitLeg":false,"duration":396.0,"steps":[{"distance":143.206,"relativeDirection":"DEPART","streetName":"Rue des Champs","absoluteDirection":"SOUTHWEST","stayOn":false,"area":false,"bogusName":false,"lon":-71.07268048433089,"lat":48.44258835732402,"elevation":[]},{"distance":373.25699999999995,"relativeDirection":"RIGHT","streetName":"Boulevard Sainte-Geneviève","absoluteDirection":"NORTHWEST","stayOn":false,"area":false,"bogusName":false,"lon":-71.07419630000001,"lat":48.441794200000004,"elevation":[]}]}],"tooSloped":false},{"duration":1102,"startTime":1522702455000,"endTime":1522703557000,"walkTime":545,"transitTime":555,"waitingTime":2,"walkDistance":703.7694060114105,"walkLimitExceeded":false,"elevationLost":0.0,"elevationGained":0.0,"transfers":0,"legs":[{"startTime":1522702455000,"endTime":1522702604000,"departureDelay":0,"arrivalDelay":0,"realTime":false,"distance":187.194,"pathway":false,"mode":"WALK","route":"","agencyTimeZoneOffset":-14400000,"interlineWithPreviousLeg":false,"from":{"name":"Origin","lon":-71.053557,"lat":48.454574,"departure":1522702455000,"orig":"","vertexType":"NORMAL"},"to":{"name":"Marco / Caroline","stopId":"1:753","stopCode":"753","lon":-71.0526,"lat":48.4561,"arrival":1522702604000,"departure":1522702605000,"zoneId":"NA","stopIndex":17,"stopSequence":18,"vertexType":"TRANSIT"},"legGeometry":{"points":"{xvfHhstpL@E?QAc@AKGMGACCsEsAYIQE","length":11},"rentedBike":false,"transitLeg":false,"duration":149.0,"steps":[{"distance":162.629,"relativeDirection":"DEPART","streetName":"Rue Nérée","absoluteDirection":"EAST","stayOn":false,"area":false,"bogusName":false,"lon":-71.053483097685,"lat":48.45470402442125,"elevation":[]},{"distance":24.565,"relativeDirection":"CONTINUE","streetName":"Rue Marco","absoluteDirection":"NORTH","stayOn":false,"area":false,"bogusName":false,"lon":-71.0526037,"lat":48.455875500000005,"elevation":[]}]},{"startTime":1522702605000,"endTime":1522703160000,"departureDelay":0,"arrivalDelay":0,"realTime":false,"distance":3050.310986268574,"pathway":false,"mode":"BUS","route":"22","agencyName":"Société de Transport du Saguenay","agencyUrl":"http://ville.saguenay.ca/fr/services-aux-citoyens/transport-sts","agencyTimeZoneOffset":-14400000,"routeColor":"C0C000","routeType":3,"routeId":"1:22","routeTextColor":"000000","interlineWithPreviousLeg":false,"tripBlockId":"1","headsign":"Terminus Chicoutimi","agencyId":"0","tripId":"1:217150","serviceDate":"20180402","from":{"name":"Marco / Caroline","stopId":"1:753","stopCode":"753","lon":-71.0526,"lat":48.4561,"arrival":1522702604000,"departure":1522702605000,"zoneId":"NA","stopIndex":17,"stopSequence":18,"vertexType":"TRANSIT"},"to":{"name":"Champs / Victor","stopId":"1:769","stopCode":"769","lon":-71.07274,"lat":48.442642,"arrival":1522703160000,"departure":1522703161000,"zoneId":"NA","stopIndex":33,"stopSequence":34,"vertexType":"TRANSIT"},"legGeometry":{"points":"qawfHhmtpL@?l@NTwBDQFMFIJGHCL?H@hGjB`GjBz@VNJJRBTAVQdAn@XrAh@uCvSeA|He@hCo@|AiBbD~@^|IrDhAb@qAfJSzAMr@Yz@xAhDFNpBdFRp@Hl@Jz@BXXrCHl@Lh@Nf@r@nAr@r@`@PLFbAVH_AXeC@IdB_Mh@_EJk@x@x@bA`A|BrBnDrCl@f@|BlBrAbAj@d@ZTXNd@@lA[ZxDN|Ad@fAz@tB~AzDZ|@","length":73},"routeShortName":"22","routeLongName":"Vanier","rentedBike":false,"transitLeg":true,"duration":555.0,"steps":[]},{"startTime":1522703161000,"endTime":1522703557000,"departureDelay":0,"arrivalDelay":0,"realTime":false,"distance":516.463,"pathway":false,"mode":"WALK","route":"","agencyTimeZoneOffset":-14400000,"interlineWithPreviousLeg":false,"from":{"name":"Champs / Victor","stopId":"1:769","stopCode":"769","lon":-71.07274,"lat":48.442642,"arrival":1522703160000,"departure":1522703161000,"zoneId":"NA","stopIndex":33,"stopSequence":34,"vertexType":"TRANSIT"},"to":{"name":"Destination","lon":-71.07852499,"lat":48.443416,"arrival":1522703557000,"orig":"","vertexType":"NORMAL"},"legGeometry":{"points":"cmtfHhkxpLrAjDt@lBRRsAhC_DbG}@vBiAhDc@bB","length":9},"rentedBike":false,"transitLeg":false,"duration":396.0,"steps":[{"distance":143.206,"relativeDirection":"DEPART","streetName":"Rue des Champs","absoluteDirection":"SOUTHWEST","stayOn":false,"area":false,"bogusName":false,"lon":-71.07268048433089,"lat":48.44258835732402,"elevation":[]},{"distance":373.25699999999995,"relativeDirection":"RIGHT","streetName":"Boulevard Sainte-Geneviève","absoluteDirection":"NORTHWEST","stayOn":false,"area":false,"bogusName":false,"lon":-71.07419630000001,"lat":48.441794200000004,"elevation":[]}]}],"tooSloped":false},{"duration":1102,"startTime":1522704255000,"endTime":1522705357000,"walkTime":545,"transitTime":555,"waitingTime":2,"walkDistance":703.7694060114105,"walkLimitExceeded":false,"elevationLost":0.0,"elevationGained":0.0,"transfers":0,"legs":[{"startTime":1522704255000,"endTime":1522704404000,"departureDelay":0,"arrivalDelay":0,"realTime":false,"distance":187.194,"pathway":false,"mode":"WALK","route":"","agencyTimeZoneOffset":-14400000,"interlineWithPreviousLeg":false,"from":{"name":"Origin","lon":-71.053557,"lat":48.454574,"departure":1522704255000,"orig":"","vertexType":"NORMAL"},"to":{"name":"Marco / Caroline","stopId":"1:753","stopCode":"753","lon":-71.0526,"lat":48.4561,"arrival":1522704404000,"departure":1522704405000,"zoneId":"NA","stopIndex":17,"stopSequence":18,"vertexType":"TRANSIT"},"legGeometry":{"points":"{xvfHhstpL@E?QAc@AKGMGACCsEsAYIQE","length":11},"rentedBike":false,"transitLeg":false,"duration":149.0,"steps":[{"distance":162.629,"relativeDirection":"DEPART","streetName":"Rue Nérée","absoluteDirection":"EAST","stayOn":false,"area":false,"bogusName":false,"lon":-71.053483097685,"lat":48.45470402442125,"elevation":[]},{"distance":24.565,"relativeDirection":"CONTINUE","streetName":"Rue Marco","absoluteDirection":"NORTH","stayOn":false,"area":false,"bogusName":false,"lon":-71.0526037,"lat":48.455875500000005,"elevation":[]}]},{"startTime":1522704405000,"endTime":1522704960000,"departureDelay":0,"arrivalDelay":0,"realTime":false,"distance":3050.310986268574,"pathway":false,"mode":"BUS","route":"22","agencyName":"Société de Transport du Saguenay","agencyUrl":"http://ville.saguenay.ca/fr/services-aux-citoyens/transport-sts","agencyTimeZoneOffset":-14400000,"routeColor":"C0C000","routeType":3,"routeId":"1:22","routeTextColor":"000000","interlineWithPreviousLeg":false,"tripBlockId":"3","headsign":"Terminus Chicoutimi","agencyId":"0","tripId":"1:217208","serviceDate":"20180402","from":{"name":"Marco / Caroline","stopId":"1:753","stopCode":"753","lon":-71.0526,"lat":48.4561,"arrival":1522704404000,"departure":1522704405000,"zoneId":"NA","stopIndex":17,"stopSequence":18,"vertexType":"TRANSIT"},"to":{"name":"Champs / Victor","stopId":"1:769","stopCode":"769","lon":-71.07274,"lat":48.442642,"arrival":1522704960000,"departure":1522704961000,"zoneId":"NA","stopIndex":33,"stopSequence":34,"vertexType":"TRANSIT"},"legGeometry":{"points":"qawfHhmtpL@?l@NTwBDQFMFIJGHCL?H@hGjB`GjBz@VNJJRBTAVQdAn@XrAh@uCvSeA|He@hCo@|AiBbD~@^|IrDhAb@qAfJSzAMr@Yz@xAhDFNpBdFRp@Hl@Jz@BXXrCHl@Lh@Nf@r@nAr@r@`@PLFbAVH_AXeC@IdB_Mh@_EJk@x@x@bA`A|BrBnDrCl@f@|BlBrAbAj@d@ZTXNd@@lA[ZxDN|Ad@fAz@tB~AzDZ|@","length":73},"routeShortName":"22","routeLongName":"Vanier","rentedBike":false,"transitLeg":true,"duration":555.0,"steps":[]},{"startTime":1522704961000,"endTime":1522705357000,"departureDelay":0,"arrivalDelay":0,"realTime":false,"distance":516.463,"pathway":false,"mode":"WALK","route":"","agencyTimeZoneOffset":-14400000,"interlineWithPreviousLeg":false,"from":{"name":"Champs / Victor","stopId":"1:769","stopCode":"769","lon":-71.07274,"lat":48.442642,"arrival":1522704960000,"departure":1522704961000,"zoneId":"NA","stopIndex":33,"stopSequence":34,"vertexType":"TRANSIT"},"to":{"name":"Destination","lon":-71.07852499,"lat":48.443416,"arrival":1522705357000,"orig":"","vertexType":"NORMAL"},"legGeometry":{"points":"cmtfHhkxpLrAjDt@lBRRsAhC_DbG}@vBiAhDc@bB","length":9},"rentedBike":false,"transitLeg":false,"duration":396.0,"steps":[{"distance":143.206,"relativeDirection":"DEPART","streetName":"Rue des Champs","absoluteDirection":"SOUTHWEST","stayOn":false,"area":false,"bogusName":false,"lon":-71.07268048433089,"lat":48.44258835732402,"elevation":[]},{"distance":373.25699999999995,"relativeDirection":"RIGHT","streetName":"Boulevard Sainte-Geneviève","absoluteDirection":"NORTHWEST","stayOn":false,"area":false,"bogusName":false,"lon":-71.07419630000001,"lat":48.441794200000004,"elevation":[]}]}],"tooSloped":false}]},"debugOutput":{"precalculationTime":16,"pathCalculationTime":17,"pathTimes":[10,5,2],"renderingTime":1,"totalTime":34,"timedOut":false},"elevationMetadata":{"ellipsoidToGeoidDifference":-28.885904201182168,"geoidElevation":false}}