{"requestParameters":{"date":"2018/04/02","walkSpeed":"1.33","walkReluctance":"2.0","fromPlace":"48.426905,-71.048929","maxWalkDistance":"3000","waitReluctance":"1.0","carSpeed":"33","numItineraries":"3","waitAtBeginningFactor":"0.4","mode":"TRANSIT,WALK","ignoreRealtimeUpdates":"false","stairsReluctance":"2.0","toPlace":"48.414141,-71.041634","time":"16:0:00"},"plan":{"date":1522699200000,"from":{"name":"Origin","lon":-71.048929,"lat":48.426905,"orig":"","vertexType":"NORMAL"},"to":{"name":"Destination","lon":-71.041634,"lat":48.414141,"orig":"","vertexType":"NORMAL"},"itineraries":[{"duration":1277,"startTime":1522699449000,"endTime":1522700726000,"walkTime":792,"transitTime":483,"waitingTime":2,"walkDistance":1008.1330075138602,"walkLimitExceeded":false,"elevationLost":0.0,"elevationGained":0.0,"transfers":0,"legs":[{"startTime":1522699449000,"endTime":1522699499000,"departureDelay":0,"arrivalDelay":0,"realTime":false,"distance":65.674,"pathway":false,"mode":"WALK","route":"","agencyTimeZoneOffset":-14400000,"interlineWithPreviousLeg":false,"from":{"name":"Origin","lon":-71.048929,"lat":48.426905,"departure":1522699449000,"orig":"","vertexType":"NORMAL"},"to":{"name":"Hôpital de Chicoutimi (Saint-Vallier)","stopId":"1:342","stopCode":"342","lon":-71.050416,"lat":48.426429,"arrival":1522699499000,"departure":1522699500000,"zoneId":"NA","stopIndex":6,"stopSequence":7,"vertexType":"TRANSIT"},"legGeometry":{"points":"wkqfHn~spLB?pBT","length":3},"rentedBike":false,"transitLeg":false,"duration":50.0,"steps":[{"distance":65.674,"relativeDirection":"DEPART","streetName":"Rue Saint-Vallier","absoluteDirection":"SOUTH","stayOn":false,"area":false,"bogusName":false,"lon":-71.05015383380092,"lat":48.4270029418696,"elevation":[]}]},{"startTime":1522699500000,"endTime":1522699983000,"departureDelay":0,"arrivalDelay":0,"realTime":false,"distance":2299.591194823367,"pathway":false,"mode":"BUS","route":"175","agencyName":"Société de Transport du Saguenay","agencyUrl":"http://ville.saguenay.ca/fr/services-aux-citoyens/transport-sts","agencyTimeZoneOffset":-14400000,"routeColor":"FF00FF","routeType":3,"routeId":"1:175","routeTextColor":"FFFFFF","interlineWithPreviousLeg":false,"tripBlockId":"80","headsign":"Costco","agencyId":"0","tripId":"1:218654","serviceDate":"20180402","from":{"name":"Hôpital de Chicoutimi (Saint-Vallier)","stopId":"1:342","stopCode":"342","lon":-71.050416,"lat":48.426429,"arrival":1522699499000,"departure":1522699500000,"zoneId":"NA","stopIndex":6,"stopSequence":7,"vertexType":"TRANSIT"},"to":{"name":"boul. Université / Murdock","stopId":"1:80","stopCode":"80","lon":-71.050111,"lat":48.411498,"arrival":1522699983000,"departure":1522699984000,"zoneId":"NA","stopIndex":14,"stopSequence":15,"vertexType":"TRANSIT"},"legGeometry":{"points":"ahqfHf_tpLxEj@iCtYp@r@z@`ABBvHtHXRx@l@VwAvAgB\\qBIuAC]g@yEzDuLbBbBvAxAMx@|@v@`A~@Xw@~D~DPxFZtA~ApE`N{LpFmEb@[ROl@[vDQXKfA[|@q@fAsBlEmM","length":37},"routeShortName":"175","routeLongName":"Term. Chic / Costco","rentedBike":false,"transitLeg":true,"duration":483.0,"steps":[]},{"startTime":1522699984000,"endTime":1522700726000,"departureDelay":0,"arrivalDelay":0,"realTime":false,"distance":942.3060000000003,"pathway":false,"mode":"WALK","route":"","agencyTimeZoneOffset":-14400000,"interlineWithPreviousLeg":false,"from":{"name":"boul. Université / Murdock","stopId":"1:80","stopCode":"80","lon":-71.050111,"lat":48.411498,"arrival":1522699983000,"departure":1522699984000,"zoneId":"NA","stopIndex":14,"stopSequence":15,"vertexType":"TRANSIT"},"to":{"name":"Destination","lon":-71.041634,"lat":48.414141,"arrival":1522700726000,"orig":"","vertexType":"NORMAL"},"legGeometry":{"points":"aknfH|}spLTo@WQoBsBeEcEeBmBQSi@k@ACm@m@aAsAc@mAo@_ACEu@iAbAyCZoARsA@ILsAdB@TUHGTs@?gDo@Os@e@","length":27},"rentedBike":false,"transitLeg":false,"duration":742.0,"steps":[{"distance":21.602,"relativeDirection":"DEPART","streetName":"Boulevard de l'Université","absoluteDirection":"SOUTHEAST","stayOn":false,"area":false,"bogusName":false,"lon":-71.05006857152243,"lat":48.41153928216614,"elevation":[]},{"distance":527.5210000000001,"relativeDirection":"LEFT","streetName":"Rue Murdock","absoluteDirection":"NORTHEAST","stayOn":false,"area":false,"bogusName":false,"lon":-71.0498268,"lat":48.4114298,"elevation":[]},{"distance":170.425,"relativeDirection":"RIGHT","streetName":"Rue Chabanel","absoluteDirection":"SOUTHEAST","stayOn":false,"area":false,"bogusName":false,"lon":-71.0455232,"lat":48.4151863,"elevation":[]},{"distance":162.524,"relativeDirection":"RIGHT","streetName":"Rue Pierre-Laure","absoluteDirection":"SOUTH","stayOn":false,"area":false,"bogusName":false,"lon":-71.04346240000001,"lat":48.414529900000005,"elevation":[]},{"distance":60.234,"relativeDirection":"LEFT","streetName":"Rue du Père-Champagnat","absoluteDirection":"NORTH","stayOn":false,"area":false,"bogusName":false,"lon":-71.0422276,"lat":48.4137417,"elevation":[]}]}],"tooSloped":false},{"duration":829,"startTime":1522700349000,"endTime":1522701178000,"walkTime":268,"transitTime":559,"waitingTime":2,"walkDistance":337.2196090195359,"walkLimitExceeded":false,"elevationLost":0.0,"elevationGained":0.0,"transfers":0,"legs":[{"startTime":1522700349000,"endTime":1522700399000,"departureDelay":0,"arrivalDelay":0,"realTime":false,"distance":65.674,"pathway":false,"mode":"WALK","route":"","agencyTimeZoneOffset":-14400000,"interlineWithPreviousLeg":false,"from":{"name":"Origin","lon":-71.048929,"lat":48.426905,"departure":1522700349000,"orig":"","vertexType":"NORMAL"},"to":{"name":"Hôpital de Chicoutimi (Saint-Vallier)","stopId":"1:342","stopCode":"342","lon":-71.050416,"lat":48.426429,"arrival":1522700399000,"departure":1522700400000,"zoneId":"NA","stopIndex":6,"stopSequence":7,"vertexType":"TRANSIT"},"legGeometry":{"points":"wkqfHn~spLB?pBT","length":3},"rentedBike":false,"transitLeg":false,"duration":50.0,"steps":[{"distance":65.674,"relativeDirection":"DEPART","streetName":"Rue Saint-Vallier","absoluteDirection":"SOUTH","stayOn":false,"area":false,"bogusName":false,"lon":-71.05015383380092,"lat":48.4270029418696,"elevation":[]}]},{"startTime":1522700400000,"endTime":1522700959000,"departureDelay":0,"arrivalDelay":0,"realTime":false,"distance":2949.071654967365,"pathway":false,"mode":"BUS","route":"10","agencyName":"Société de Transport du Saguenay","agencyUrl":"http://ville.saguenay.ca/fr/services-aux-citoyens/transport-sts","agencyTimeZoneOffset":-14400000,"routeColor":"0000FF","routeType":3,"routeId":"1:10","routeTextColor":"FFFFFF","interlineWithPreviousLeg":false,"tripBlockId":"29","headsign":"Terminus UQAC","agencyId":"0","tripId":"1:218071","serviceDate":"20180402","from":{"name":"Hôpital de Chicoutimi (Saint-Vallier)","stopId":"1:342","stopCode":"342","lon":-71.050416,"lat":48.426429,"arrival":1522700399000,"departure":1522700400000,"zoneId":"NA","stopIndex":6,"stopSequence":7,"vertexType":"TRANSIT"},"to":{"name":"Chabanel / Bouchette","stopId":"1:354","stopCode":"354","lon":-71.04384,"lat":48.41473,"arrival":1522700959000,"departure":1522700960000,"zoneId":"NA","stopIndex":18,"stopSequence":19,"vertexType":"TRANSIT"},"legGeometry":{"points":"ahqfHd_tpLB@rEf@T_FjBXpDd@hCObDaCfCaHbFqN`CwG_J_CwMiDGe@T}C\\yELaCJeAJcAXw@Fk@M_@xBwVr@^LJ|@z@HdAlBbD`Av@b@\\v@d@`@BpBAzAXl@t@XZt@lCl@tAnBpB~@~@lDjDr@r@zDrDnAlAjBrBl@pBPlBCj@KrA","length":49},"routeShortName":"10","routeLongName":"Notre-Dame du Saguenay","rentedBike":false,"transitLeg":true,"duration":559.0,"steps":[]},{"startTime":1522700960000,"endTime":1522701178000,"departureDelay":0,"arrivalDelay":0,"realTime":false,"distance":271.452,"pathway":false,"mode":"WALK","route":"","agencyTimeZoneOffset":-14400000,"interlineWithPreviousLeg":false,"from":{"name":"Chabanel / Bouchette","stopId":"1:354","stopCode":"354","lon":-71.04384,"lat":48.41473,"arrival":1522700959000,"departure":1522700960000,"zoneId":"NA","stopIndex":18,"stopSequence":19,"vertexType":"TRANSIT"},"to":{"name":"Destination","lon":-71.041634,"lat":48.414141,"arrival":1522701178000,"orig":"","vertexType":"NORMAL"},"legGeometry":{"points":"}~nfHvwrpLTC@ILsAdB@TUHGTs@?gDo@Os@e@","length":11},"rentedBike":false,"transitLeg":false,"duration":218.0,"steps":[{"distance":13.217,"relativeDirection":"DEPART","streetName":"Rue Bouchette","absoluteDirection":"SOUTH","stayOn":false,"area":false,"bogusName":false,"lon":-71.04395624366056,"lat":48.414718970408906,"elevation":[]},{"distance":35.477000000000004,"relativeDirection":"LEFT","streetName":"Rue Chabanel","absoluteDirection":"EAST","stayOn":false,"area":false,"bogusName":false,"lon":-71.0439309,"lat":48.4146013,"elevation":[]},{"distance":162.524,"relativeDirection":"RIGHT","streetName":"Rue Pierre-Laure","absoluteDirection":"SOUTH","stayOn":false,"area":false,"bogusName":false,"lon":-71.04346240000001,"lat":48.414529900000005,"elevation":[]},{"distance":60.234,"relativeDirection":"LEFT","streetName":"Rue du Père-Champagnat","absoluteDirection":"NORTH","stayOn":false,"area":false,"bogusName":false,"lon":-71.0422276,"lat":48.4137417,"elevation":[]}]}],"tooSloped":false},{"duration":829,"startTime":1522702149000,"endTime":1522702978000,"walkTime":268,"transitTime":559,"waitingTime":2,"walkDistance":337.2196090195359,"walkLimitExceeded":false,"elevationLost":0.0,"elevationGained":0.0,"transfers":0,"legs":[{"startTime":1522702149000,"endTime":1522702199000,"departureDelay":0,"arrivalDelay":0,"realTime":false,"distance":65.674,"pathway":false,"mode":"WALK","route":"","agencyTimeZoneOffset":-14400000,"interlineWithPreviousLeg":false,"from":{"name":"Origin","lon":-71.048929,"lat":48.426905,"departure":1522702149000,"orig":"","vertexType":"NORMAL"},"to":{"name":"Hôpital de Chicoutimi (Saint-Vallier)","stopId":"1:342","stopCode":"342","lon":-71.050416,"lat":48.426429,"arrival":1522702199000,"departure":1522702200000,"zoneId":"NA","stopIndex":6,"stopSequence":7,"vertexType":"TRANSIT"},"legGeometry":{"points":"wkqfHn~spLB?pBT","length":3},"rentedBike":false,"transitLeg":false,"duration":50.0,"steps":[{"distance":65.674,"relativeDirection":"DEPART","streetName":"Rue Saint-Vallier","absoluteDirection":"SOUTH","stayOn":false,"area":false,"bogusName":false,"lon":-71.05015383380092,"lat":48.4270029418696,"elevation":[]}]},{"startTime":1522702200000,"endTime":1522702759000,"departureDelay":0,"arrivalDelay":0,"realTime":false,"distance":2949.071654967365,"pathway":false,"mode":"BUS","route":"10","agencyName":"Société de Transport du Saguenay","agencyUrl":"http://ville.saguenay.ca/fr/services-aux-citoyens/transport-sts","agencyTimeZoneOffset":-14400000,"routeColor":"0000FF","routeType":3,"routeId":"1:10","routeTextColor":"FFFFFF","interlineWithPreviousLeg":false,"tripBlockId":"26","headsign":"Terminus UQAC","agencyId":"0","tripId":"1:217984","serviceDate":"20180402","from":{"name":"Hôpital de Chicoutimi (Saint-Vallier)","stopId":"1:342","stopCode":"342","lon":-71.050416,"lat":48.426429,"arrival":1522702199000,"departure":1522702200000,"zoneId":"NA","stopIndex":6,"stopSequence":7,"vertexType":"TRANSIT"},"to":{"name":"Chabanel / Bouchette","stopId":"1:354","stopCode":"354","lon":-71.04384,"lat":48.41473,"arrival":1522702759000,"departure":1522702760000,"zoneId":"NA","stopIndex":18,"stopSequence":19,"vertexType":"TRANSIT"},"legGeometry":{"points":"ahqfHd_tpLB@rEf@T_FjBXpDd@hCObDaCfCaHbFqN`CwG_J_CwMiDGe@T}C\\yELaCJeAJcAXw@Fk@M_@xBwVr@^LJ|@z@HdAlBbD`Av@b@\\v@d@`@BpBAzAXl@t@XZt@lCl@tAnBpB~@~@lDjDr@r@zDrDnAlAjBrBl@pBPlBCj@KrA","length":49},"routeShortName":"10","routeLongName":"Notre-Dame du Saguenay","rentedBike":false,"transitLeg":true,"duration":559.0,"steps":[]},{"startTime":1522702760000,"endTime":1522702978000,"departureDelay":0,"arrivalDelay":0,"realTime":false,"distance":271.452,"pathway":false,"mode":"WALK","route":"","agencyTimeZoneOffset":-14400000,"interlineWithPreviousLeg":false,"from":{"name":"Chabanel / Bouchette","stopId":"1:354","stopCode":"354","lon":-71.04384,"lat":48.41473,"arrival":1522702759000,"departure":1522702760000,"zoneId":"NA","stopIndex":18,"stopSequence":19,"vertexType":"TRANSIT"},"to":{"name":"Destination","lon":-71.041634,"lat":48.414141,"arrival":1522702978000,"orig":"","vertexType":"NORMAL"},"legGeometry":{"points":"}~nfHvwrpLTC@ILsAdB@TUHGTs@?gDo@Os@e@","length":11},"rentedBike":false,"transitLeg":false,"duration":218.0,"steps":[{"distance":13.217,"relativeDirection":"DEPART","streetName":"Rue Bouchette","absoluteDirection":"SOUTH","stayOn":false,"area":false,"bogusName":false,"lon":-71.04395624366056,"lat":48.414718970408906,"elevation":[]},{"distance":35.477000000000004,"relativeDirection":"LEFT","streetName":"Rue Chabanel","absoluteDirection":"EAST","stayOn":false,"area":false,"bogusName":false,"lon":-71.0439309,"lat":48.4146013,"elevation":[]},{"distance":162.524,"relativeDirection":"RIGHT","streetName":"Rue Pierre-Laure","absoluteDirection":"SOUTH","stayOn":false,"area":false,"bogusName":false,"lon":-71.04346240000001,"lat":48.414529900000005,"elevation":[]},{"distance":60.234,"relativeDirection":"LEFT","streetName":"Rue du Père-Champagnat","absoluteDirection":"NORTH","stayOn":false,"area":false,"bogusName":false,"lon":-71.0422276,"lat":48.4137417,"elevation":[]}]}],"tooSloped":false}]},"debugOutput":{"precalculationTime":42,"pathCalculationTime":27,"pathTimes":[15,6,6],"renderingTime":0,"totalTime":69,"timedOut":false},"elevationMetadata":{"ellipsoidToGeoidDifference":-28.885904201182168,"geoidElevation":false}}