{"requestParameters":{"date":"2018/04/02","walkSpeed":"1.33","walkReluctance":"2.0","fromPlace":"48.414141,-71.041634","maxWalkDistance":"3000","waitReluctance":"1.0","carSpeed":"33","numItineraries":"3","waitAtBeginningFactor":"0.4","mode":"TRANSIT,WALK","ignoreRealtimeUpdates":"false","stairsReluctance":"2.0","toPlace":"48.426905,-71.048929","time":"15:45:00"},"plan":{"date":1522698300000,"from":{"name":"Origin","lon":-71.041634,"lat":48.414141,"orig":"","vertexType":"NORMAL"},"to":{"name":"Destination","lon":-71.048929,"lat":48.426905,"orig":"","vertexType":"NORMAL"},"itineraries":[{"duration":830,"startTime":1522698746000,"endTime":1522699576000,"walkTime":275,"transitTime":553,"waitingTime":2,"walkDistance":344.0791353349857,"walkLimitExceeded":false,"elevationLost":0.0,"elevationGained":0.0,"transfers":0,"legs":[{"startTime":1522698746000,"endTime":1522698946000,"departureDelay":0,"arrivalDelay":0,"realTime":false,"distance":254.919,"pathway":false,"mode":"WALK","route":"","agencyTimeZoneOffset":-14400000,"interlineWithPreviousLeg":false,"from":{"name":"Origin","lon":-71.041634,"lat":48.414141,"departure":1522698746000,"orig":"","vertexType":"NORMAL"},"to":{"name":"nouveau","stopId":"1:2290","stopCode":"2290","lon":-71.043906,"lat":48.41454,"arrival":1522698946000,"departure":1522698947000,"zoneId":"NA","stopIndex":3,"stopSequence":4,"vertexType":"TRANSIT"},"legGeometry":{"points":"_|nfHfkrpLr@d@n@N?fDUr@IFUTeBAMrA","length":9},"rentedBike":false,"transitLeg":false,"duration":200.0,"steps":[{"distance":60.234,"relativeDirection":"DEPART","streetName":"Rue du Père-Champagnat","absoluteDirection":"SOUTHWEST","stayOn":false,"area":false,"bogusName":false,"lon":-71.04195088490413,"lat":48.41424668934307,"elevation":[]},{"distance":162.524,"relativeDirection":"RIGHT","streetName":"Rue Pierre-Laure","absoluteDirection":"WEST","stayOn":false,"area":false,"bogusName":false,"lon":-71.0422276,"lat":48.4137417,"elevation":[]},{"distance":32.161,"relativeDirection":"LEFT","streetName":"Rue Chabanel","absoluteDirection":"WEST","stayOn":false,"area":false,"bogusName":false,"lon":-71.04346240000001,"lat":48.414529900000005,"elevation":[]}]},{"startTime":1522698947000,"endTime":1522699500000,"departureDelay":0,"arrivalDelay":0,"realTime":false,"distance":2873.3488096655956,"pathway":false,"mode":"BUS","route":"10","agencyName":"Société de Transport du Saguenay","agencyUrl":"http://ville.saguenay.ca/fr/services-aux-citoyens/transport-sts","agencyTimeZoneOffset":-14400000,"routeColor":"0000FF","routeType":3,"routeId":"1:10","routeTextColor":"FFFFFF","interlineWithPreviousLeg":false,"tripBlockId":"28","headsign":"Terminus Chicoutimi","agencyId":"0","tripId":"1:218044","serviceDate":"20180402","from":{"name":"nouveau","stopId":"1:2290","stopCode":"2290","lon":-71.043906,"lat":48.41454,"arrival":1522698946000,"departure":1522698947000,"zoneId":"NA","stopIndex":3,"stopSequence":4,"vertexType":"TRANSIT"},"to":{"name":"Hôpital de Chicoutimi (Saint-Vallier)","stopId":"1:410","stopCode":"410","lon":-71.050193,"lat":48.426282,"arrival":1522699500000,"departure":1522699501000,"zoneId":"NA","stopIndex":14,"stopSequence":15,"vertexType":"TRANSIT"},"legGeometry":{"points":"g~nfHfwrpLP{AQmCg@mB_BiBeBaBqFeFmCgC{A_BmBoBk@iAw@}CU[o@y@k@Io@MqC@}@k@_@[aAw@_BoCMOKcAQUu@s@AAu@[k@xGg@pFc@~EO`@KHCVDP?hAa@nEKdAi@pGAr@GXMRG^Bb@`CV~IxB~ElAhChAsBtFaEvK_BhE}AfD{BdByBh@iC]oDq@YbF_Ea@","length":57},"routeShortName":"10","routeLongName":"Notre-Dame du Saguenay","rentedBike":false,"transitLeg":true,"duration":553.0,"steps":[]},{"startTime":1522699501000,"endTime":1522699576000,"departureDelay":0,"arrivalDelay":0,"realTime":false,"distance":89.05600000000001,"pathway":false,"mode":"WALK","route":"","agencyTimeZoneOffset":-14400000,"interlineWithPreviousLeg":false,"from":{"name":"Hôpital de Chicoutimi (Saint-Vallier)","stopId":"1:410","stopCode":"410","lon":-71.050193,"lat":48.426282,"arrival":1522699500000,"departure":1522699501000,"zoneId":"NA","stopIndex":14,"stopSequence":15,"vertexType":"TRANSIT"},"to":{"name":"Destination","lon":-71.048929,"lat":48.426905,"arrival":1522699576000,"orig":"","vertexType":"NORMAL"},"legGeometry":{"points":"egqfHd~spLG?K^G?qBUC?","length":6},"rentedBike":false,"transitLeg":false,"duration":75.0,"steps":[{"distance":4.443,"relativeDirection":"DEPART","streetName":"service road","absoluteDirection":"NORTH","stayOn":false,"area":false,"bogusName":true,"lon":-71.05010794672428,"lat":48.426274963568915,"elevation":[]},{"distance":13.926,"relativeDirection":"LEFT","streetName":"path","absoluteDirection":"NORTHWEST","stayOn":true,"area":false,"bogusName":true,"lon":-71.0501005,"lat":48.426314600000005,"elevation":[]},{"distance":70.68700000000001,"relativeDirection":"RIGHT","streetName":"Rue Saint-Vallier","absoluteDirection":"NORTH","stayOn":false,"area":false,"bogusName":false,"lon":-71.05026840000001,"lat":48.426371800000005,"elevation":[]}]}],"tooSloped":false},{"duration":902,"startTime":1522698854000,"endTime":1522699756000,"walkTime":660,"transitTime":240,"waitingTime":2,"walkDistance":837.8818872114339,"walkLimitExceeded":false,"elevationLost":0.0,"elevationGained":0.0,"transfers":0,"legs":[{"startTime":1522698854000,"endTime":1522699439000,"departureDelay":0,"arrivalDelay":0,"realTime":false,"distance":748.6209999999999,"pathway":false,"mode":"WALK","route":"","agencyTimeZoneOffset":-14400000,"interlineWithPreviousLeg":false,"from":{"name":"Origin","lon":-71.041634,"lat":48.414141,"departure":1522698854000,"orig":"","vertexType":"NORMAL"},"to":{"name":"Séminaire de Chicoutimi (Chabanel)","stopId":"1:1902","stopCode":"1902","lon":-71.037893,"lat":48.41769,"arrival":1522699439000,"departure":1522699440000,"zoneId":"NA","stopIndex":0,"stopSequence":1,"vertexType":"TRANSIT"},"legGeometry":{"points":"_|nfHfkrpLQMm@gBMuA?uAZqEIuAUmAUy@eAxAm@|@sAbDQUyAqAkF{EKJIVe@eAD?Pk@","length":20},"rentedBike":false,"transitLeg":false,"duration":585.0,"steps":[{"distance":288.989,"relativeDirection":"DEPART","streetName":"Rue du Père-Champagnat","absoluteDirection":"NORTHEAST","stayOn":false,"area":false,"bogusName":false,"lon":-71.04195088490413,"lat":48.41424668934307,"elevation":[]},{"distance":161.276,"relativeDirection":"LEFT","streetName":"Rue Beauchamp","absoluteDirection":"NORTHWEST","stayOn":false,"area":false,"bogusName":false,"lon":-71.03834690000001,"lat":48.4147696,"elevation":[]},{"distance":225.856,"relativeDirection":"RIGHT","streetName":"Rue D'Argenson","absoluteDirection":"NORTHEAST","stayOn":false,"area":false,"bogusName":false,"lon":-71.039927,"lat":48.415761700000004,"elevation":[]},{"distance":18.313,"relativeDirection":"LEFT","streetName":"Chemin Sydenham","absoluteDirection":"NORTHWEST","stayOn":false,"area":false,"bogusName":false,"lon":-71.0383066,"lat":48.4174841,"elevation":[]},{"distance":32.853,"relativeDirection":"RIGHT","streetName":"path","absoluteDirection":"NORTHEAST","stayOn":false,"area":false,"bogusName":true,"lon":-71.0384806,"lat":48.417596800000005,"elevation":[]},{"distance":21.334,"relativeDirection":"RIGHT","streetName":"service road","absoluteDirection":"SOUTHEAST","stayOn":true,"area":false,"bogusName":true,"lon":-71.03813170000001,"lat":48.417780300000004,"elevation":[]}]},{"startTime":1522699440000,"endTime":1522699680000,"departureDelay":0,"arrivalDelay":0,"realTime":false,"distance":1317.8057528558656,"pathway":false,"mode":"BUS","route":"1S","agencyName":"Société de Transport du Saguenay","agencyUrl":"http://ville.saguenay.ca/fr/services-aux-citoyens/transport-sts","agencyTimeZoneOffset":-14400000,"routeColor":"8B0000","routeType":3,"routeId":"1:1S","routeTextColor":"FFFFFF","interlineWithPreviousLeg":false,"tripBlockId":"51","headsign":"Cégep Jonq (Panet)","agencyId":"0","tripId":"1:218451","serviceDate":"20180402","from":{"name":"Séminaire de Chicoutimi (Chabanel)","stopId":"1:1902","stopCode":"1902","lon":-71.037893,"lat":48.41769,"arrival":1522699439000,"departure":1522699440000,"zoneId":"NA","stopIndex":0,"stopSequence":1,"vertexType":"TRANSIT"},"to":{"name":"Hôpital de Chicoutimi (Saint-Vallier)","stopId":"1:410","stopCode":"410","lon":-71.050193,"lat":48.426282,"arrival":1522699680000,"departure":1522699681000,"zoneId":"NA","stopIndex":1,"stopSequence":2,"vertexType":"TRANSIT"},"legGeometry":{"points":"irofHbqqpLOd@OFO?KKM_@YR_@l@c@j@zCxC_FlOmD|JgC}@UMmFoA}IwB_AWSWSLA`@@l@c@zDgCzZq@~GY~EyDa@","length":26},"routeShortName":"1S","routeLongName":"Navette Hôpital - Jonquière","rentedBike":false,"transitLeg":true,"duration":240.0,"steps":[]},{"startTime":1522699681000,"endTime":1522699756000,"departureDelay":0,"arrivalDelay":0,"realTime":false,"distance":89.05600000000001,"pathway":false,"mode":"WALK","route":"","agencyTimeZoneOffset":-14400000,"interlineWithPreviousLeg":false,"from":{"name":"Hôpital de Chicoutimi (Saint-Vallier)","stopId":"1:410","stopCode":"410","lon":-71.050193,"lat":48.426282,"arrival":1522699680000,"departure":1522699681000,"zoneId":"NA","stopIndex":1,"stopSequence":2,"vertexType":"TRANSIT"},"to":{"name":"Destination","lon":-71.048929,"lat":48.426905,"arrival":1522699756000,"orig":"","vertexType":"NORMAL"},"legGeometry":{"points":"egqfHd~spLG?K^G?qBUC?","length":6},"rentedBike":false,"transitLeg":false,"duration":75.0,"steps":[{"distance":4.443,"relativeDirection":"DEPART","streetName":"service road","absoluteDirection":"NORTH","stayOn":false,"area":false,"bogusName":true,"lon":-71.05010794672428,"lat":48.426274963568915,"elevation":[]},{"distance":13.926,"relativeDirection":"LEFT","streetName":"path","absoluteDirection":"NORTHWEST","stayOn":true,"area":false,"bogusName":true,"lon":-71.0501005,"lat":48.426314600000005,"elevation":[]},{"distance":70.68700000000001,"relativeDirection":"RIGHT","streetName":"Rue Saint-Vallier","absoluteDirection":"NORTH","stayOn":false,"area":false,"bogusName":false,"lon":-71.05026840000001,"lat":48.426371800000005,"elevation":[]}]}],"tooSloped":false},{"duration":830,"startTime":1522700546000,"endTime":1522701376000,"walkTime":275,"transitTime":553,"waitingTime":2,"walkDistance":344.0791353349857,"walkLimitExceeded":false,"elevationLost":0.0,"elevationGained":0.0,"transfers":0,"legs":[{"startTime":1522700546000,"endTime":1522700746000,"departureDelay":0,"arrivalDelay":0,"realTime":false,"distance":254.919,"pathway":false,"mode":"WALK","route":"","agencyTimeZoneOffset":-14400000,"interlineWithPreviousLeg":false,"from":{"name":"Origin","lon":-71.041634,"lat":48.414141,"departure":1522700546000,"orig":"","vertexType":"NORMAL"},"to":{"name":"nouveau","stopId":"1:2290","stopCode":"2290","lon":-71.043906,"lat":48.41454,"arrival":1522700746000,"departure":1522700747000,"zoneId":"NA","stopIndex":3,"stopSequence":4,"vertexType":"TRANSIT"},"legGeometry":{"points":"_|nfHfkrpLr@d@n@N?fDUr@IFUTeBAMrA","length":9},"rentedBike":false,"transitLeg":false,"duration":200.0,"steps":[{"distance":60.234,"relativeDirection":"DEPART","streetName":"Rue du Père-Champagnat","absoluteDirection":"SOUTHWEST","stayOn":false,"area":false,"bogusName":false,"lon":-71.04195088490413,"lat":48.41424668934307,"elevation":[]},{"distance":162.524,"relativeDirection":"RIGHT","streetName":"Rue Pierre-Laure","absoluteDirection":"WEST","stayOn":false,"area":false,"bogusName":false,"lon":-71.0422276,"lat":48.4137417,"elevation":[]},{"distance":32.161,"relativeDirection":"LEFT","streetName":"Rue Chabanel","absoluteDirection":"WEST","stayOn":false,"area":false,"bogusName":false,"lon":-71.04346240000001,"lat":48.414529900000005,"elevation":[]}]},{"startTime":1522700747000,"endTime":1522701300000,"departureDelay":0,"arrivalDelay":0,"realTime":false,"distance":2873.3488096655956,"pathway":false,"mode":"BUS","route":"10","agencyName":"Société de Transport du Saguenay","agencyUrl":"http://ville.saguenay.ca/fr/services-aux-citoyens/transport-sts","agencyTimeZoneOffset":-14400000,"routeColor":"0000FF","routeType":3,"routeId":"1:10","routeTextColor":"FFFFFF","interlineWithPreviousLeg":false,"tripBlockId":"27","headsign":"Terminus Chicoutimi","agencyId":"0","tripId":"1:218019","serviceDate":"20180402","from":{"name":"nouveau","stopId":"1:2290","stopCode":"2290","lon":-71.043906,"lat":48.41454,"arrival":1522700746000,"departure":1522700747000,"zoneId":"NA","stopIndex":3,"stopSequence":4,"vertexType":"TRANSIT"},"to":{"name":"Hôpital de Chicoutimi (Saint-Vallier)","stopId":"1:410","stopCode":"410","lon":-71.050193,"lat":48.426282,"arrival":1522701300000,"departure":1522701301000,"zoneId":"NA","stopIndex":14,"stopSequence":15,"vertexType":"TRANSIT"},"legGeometry":{"points":"g~nfHfwrpLP{AQmCg@mB_BiBeBaBqFeFmCgC{A_BmBoBk@iAw@}CU[o@y@k@Io@MqC@}@k@_@[aAw@_BoCMOKcAQUu@s@AAu@[k@xGg@pFc@~EO`@KHCVDP?hAa@nEKdAi@pGAr@GXMRG^Bb@`CV~IxB~ElAhChAsBtFaEvK_BhE}AfD{BdByBh@iC]oDq@YbF_Ea@","length":57},"routeShortName":"10","routeLongName":"Notre-Dame du Saguenay","rentedBike":false,"transitLeg":true,"duration":553.0,"steps":[]},{"startTime":1522701301000,"endTime":1522701376000,"departureDelay":0,"arrivalDelay":0,"realTime":false,"distance":89.05600000000001,"pathway":false,"mode":"WALK","route":"","agencyTimeZoneOffset":-14400000,"interlineWithPreviousLeg":false,"from":{"name":"Hôpital de Chicoutimi (Saint-Vallier)","stopId":"1:410","stopCode":"410","lon":-71.050193,"lat":48.426282,"arrival":1522701300000,"departure":1522701301000,"zoneId":"NA","stopIndex":14,"stopSequence":15,"vertexType":"TRANSIT"},"to":{"name":"Destination","lon":-71.048929,"lat":48.426905,"arrival":1522701376000,"orig":"","vertexType":"NORMAL"},"legGeometry":{"points":"egqfHd~spLG?K^G?qBUC?","length":6},"rentedBike":false,"transitLeg":false,"duration":75.0,"steps":[{"distance":4.443,"relativeDirection":"DEPART","streetName":"service road","absoluteDirection":"NORTH","stayOn":false,"area":false,"bogusName":true,"lon":-71.05010794672428,"lat":48.426274963568915,"elevation":[]},{"distance":13.926,"relativeDirection":"LEFT","streetName":"path","absoluteDirection":"NORTHWEST","stayOn":true,"area":false,"bogusName":true,"lon":-71.0501005,"lat":48.426314600000005,"elevation":[]},{"distance":70.68700000000001,"relativeDirection":"RIGHT","streetName":"Rue Saint-Vallier","absoluteDirection":"NORTH","stayOn":false,"area":false,"bogusName":false,"lon":-71.05026840000001,"lat":48.426371800000005,"elevation":[]}]}],"tooSloped":false}]},"debugOutput":{"precalculationTime":42,"pathCalculationTime":18,"pathTimes":[11,4,3],"renderingTime":0,"totalTime":60,"timedOut":false},"elevationMetadata":{"ellipsoidToGeoidDifference":-28.885904201182168,"geoidElevation":false}}