{"requestParameters":{"date":"2018/04/02","walkSpeed":"1.33","walkReluctance":"2.0","fromPlace":"48.42636,-71.062753","maxWalkDistance":"3000","waitReluctance":"1.0","carSpeed":"33","numItineraries":"3","waitAtBeginningFactor":"0.4","mode":"TRANSIT,WALK","ignoreRealtimeUpdates":"false","stairsReluctance":"2.0","toPlace":"48.390725,-71.019226","time":"20:15:00"},"plan":{"date":1522714500000,"from":{"name":"Origin","lon":-71.062753,"lat":48.42636,"orig":"","vertexType":"NORMAL"},"to":{"name":"Destination","lon":-71.019226,"lat":48.390725,"orig":"","vertexType":"NORMAL"},"itineraries":[{"duration":2696,"startTime":1522714730000,"endTime":1522717426000,"walkTime":1949,"transitTime":745,"waitingTime":2,"walkDistance":2535.136022548033,"walkLimitExceeded":false,"elevationLost":0.0,"elevationGained":0.0,"transfers":0,"legs":[{"startTime":1522714730000,"endTime":1522715422000,"departureDelay":0,"arrivalDelay":0,"realTime":false,"distance":869.919,"pathway":false,"mode":"WALK","route":"","agencyTimeZoneOffset":-14400000,"interlineWithPreviousLeg":false,"from":{"name":"Origin","lon":-71.062753,"lat":48.42636,"departure":1522714730000,"orig":"","vertexType":"NORMAL"},"to":{"name":"Cégep de Chicoutimi (voie réservée)","stopId":"1:75","stopCode":"75","lon":-71.055283,"lat":48.422761,"arrival":1522715422000,"departure":1522715423000,"zoneId":"NA","stopIndex":55,"stopSequence":56,"vertexType":"TRANSIT"},"legGeometry":{"points":"chqfHdmvpL?A@YBeABgB?o@B_D?U@}@?]@SHqEhG^x@]f@[@m@@y@H]L]BUJ@F?j@BNDB@RHLMBe@DeANm@JHd@mARc@l@q@NSN_@PsA@c@Iu@","length":39},"rentedBike":false,"transitLeg":false,"duration":692.0,"steps":[{"distance":278.263,"relativeDirection":"DEPART","streetName":"Rue Jacques-Cartier Est","absoluteDirection":"EAST","stayOn":false,"area":false,"bogusName":false,"lon":-71.06274238390137,"lat":48.42642148536525,"elevation":[]},{"distance":147.775,"relativeDirection":"RIGHT","streetName":"Rue Maltais","absoluteDirection":"SOUTH","stayOn":false,"area":false,"bogusName":false,"lon":-71.0589782,"lat":48.426284100000004,"elevation":[]},{"distance":131.454,"relativeDirection":"SLIGHTLY_LEFT","streetName":"path","absoluteDirection":"SOUTH","stayOn":false,"area":false,"bogusName":true,"lon":-71.0591387,"lat":48.424959400000006,"elevation":[]},{"distance":127.559,"relativeDirection":"RIGHT","streetName":"alley","absoluteDirection":"SOUTH","stayOn":true,"area":false,"bogusName":true,"lon":-71.0579166,"lat":48.424303900000005,"elevation":[]},{"distance":7.578,"relativeDirection":"RIGHT","streetName":"Rue Bégin","absoluteDirection":"SOUTHWEST","stayOn":false,"area":false,"bogusName":false,"lon":-71.05719760000001,"lat":48.4235836,"elevation":[]},{"distance":177.29,"relativeDirection":"LEFT","streetName":"Chemin Saint Thomas","absoluteDirection":"SOUTHEAST","stayOn":false,"area":false,"bogusName":false,"lon":-71.0572466,"lat":48.423523700000004,"elevation":[]}]},{"startTime":1522715423000,"endTime":1522715460000,"departureDelay":0,"arrivalDelay":0,"realTime":false,"distance":354.63646711528844,"pathway":false,"mode":"BUS","route":"6","agencyName":"Société de Transport du Saguenay","agencyUrl":"http://ville.saguenay.ca/fr/services-aux-citoyens/transport-sts","agencyTimeZoneOffset":-14400000,"routeColor":"FF0000","routeType":3,"routeId":"1:6","routeTextColor":"FFFFFF","interlineWithPreviousLeg":false,"tripBlockId":"25","headsign":"Terminus UQAC","agencyId":"0","tripId":"1:217954","serviceDate":"20180402","from":{"name":"Cégep de Chicoutimi (voie réservée)","stopId":"1:75","stopCode":"75","lon":-71.055283,"lat":48.422761,"arrival":1522715422000,"departure":1522715423000,"zoneId":"NA","stopIndex":55,"stopSequence":56,"vertexType":"TRANSIT"},"to":{"name":"Terminus UQAC","stopId":"1:1670","stopCode":"1670","lon":-71.053369,"lat":48.420903,"arrival":1522715460000,"departure":1522715700000,"zoneId":"NA","stopIndex":57,"stopSequence":58,"vertexType":"TRANSIT"},"legGeometry":{"points":"oqpfHt~tpLe@gED{@nDqLdBfBxAzAQp@z@~@","length":8},"routeShortName":"6","routeLongName":"Term. Chic/Term. Baie via ch.Plateau","rentedBike":false,"transitLeg":true,"duration":37.0,"steps":[]},{"startTime":1522715700000,"endTime":1522716168000,"departureDelay":0,"arrivalDelay":0,"realTime":false,"distance":4939.533951460505,"pathway":false,"mode":"BUS","route":"5","agencyName":"Société de Transport du Saguenay","agencyUrl":"http://ville.saguenay.ca/fr/services-aux-citoyens/transport-sts","agencyTimeZoneOffset":-14400000,"routeColor":"FF0000","routeType":3,"routeId":"1:5","routeTextColor":"FFFFFF","interlineWithPreviousLeg":true,"tripBlockId":"25","headsign":"Terminus La Baie","agencyId":"0","tripId":"1:217955","serviceDate":"20180402","from":{"name":"Terminus UQAC","stopId":"1:1670","stopCode":"1670","lon":-71.053369,"lat":48.420903,"arrival":1522715460000,"departure":1522715700000,"zoneId":"NA","stopIndex":0,"stopSequence":1,"vertexType":"TRANSIT"},"to":{"name":"boul. St-Jean-Baptiste / Ste-Famille","stopId":"1:273","stopCode":"273","lon":-71.005229,"lat":48.401809,"arrival":1522716168000,"departure":1522716169000,"zoneId":"NA","stopIndex":9,"stopSequence":10,"vertexType":"TRANSIT"},"legGeometry":{"points":"sepfHtrtpLbA`ATs@bB~A~A|ALb@E`EnBvHtNsL~FeFROHI\\Q^Mb@I~CIJCJAXKXMXQRQPQT[\\s@^aAn@mBnCgItD{Kv@iHB_@FyAFsA@q@CeBKkDc@cIsFa{@QoBe@cHc@aEeC_Oa@iDk@iIMWxAo@\\UZUdDeD|IoJp@u@l@_Ah@{@f@{@DMp@uAt@iBnAgDrQme@lKwXnGoP","length":61},"routeShortName":"5","routeLongName":"Term. Chic/Term. Baie via St-J.Batiste","rentedBike":false,"transitLeg":true,"duration":468.0,"steps":[]},{"startTime":1522716169000,"endTime":1522717426000,"departureDelay":0,"arrivalDelay":0,"realTime":false,"distance":1664.958,"pathway":false,"mode":"WALK","route":"","agencyTimeZoneOffset":-14400000,"interlineWithPreviousLeg":false,"from":{"name":"boul. St-Jean-Baptiste / Ste-Famille","stopId":"1:273","stopCode":"273","lon":-71.005229,"lat":48.401809,"arrival":1522716168000,"departure":1522716169000,"zoneId":"NA","stopIndex":9,"stopSequence":10,"vertexType":"TRANSIT"},"to":{"name":"Destination","lon":-71.019226,"lat":48.390725,"arrival":1522717426000,"orig":"","vertexType":"NORMAL"},"legGeometry":{"points":"onlfHlekpLs@fB|LhM`\\v]`AlAr@fAf@t@b@x@xCpG^p@b@v@`A|AfBrBpIfJ","length":14},"rentedBike":false,"transitLeg":false,"duration":1257.0,"steps":[{"distance":48.364,"relativeDirection":"DEPART","streetName":"Boulevard Saint-Jean-Baptiste","absoluteDirection":"NORTHWEST","stayOn":false,"area":false,"bogusName":false,"lon":-71.00518930041385,"lat":48.40184322879472,"elevation":[]},{"distance":1616.594,"relativeDirection":"LEFT","streetName":"Rang Sainte-Famille","absoluteDirection":"SOUTHWEST","stayOn":false,"area":false,"bogusName":false,"lon":-71.0057084,"lat":48.402108600000005,"elevation":[]}]}],"tooSloped":false},{"duration":2696,"startTime":1522718330000,"endTime":1522721026000,"walkTime":1949,"transitTime":745,"waitingTime":2,"walkDistance":2535.136022548033,"walkLimitExceeded":false,"elevationLost":0.0,"elevationGained":0.0,"transfers":0,"legs":[{"startTime":1522718330000,"endTime":1522719022000,"departureDelay":0,"arrivalDelay":0,"realTime":false,"distance":869.919,"pathway":false,"mode":"WALK","route":"","agencyTimeZoneOffset":-14400000,"interlineWithPreviousLeg":false,"from":{"name":"Origin","lon":-71.062753,"lat":48.42636,"departure":1522718330000,"orig":"","vertexType":"NORMAL"},"to":{"name":"Cégep de Chicoutimi (voie réservée)","stopId":"1:75","stopCode":"75","lon":-71.055283,"lat":48.422761,"arrival":1522719022000,"departure":1522719023000,"zoneId":"NA","stopIndex":55,"stopSequence":56,"vertexType":"TRANSIT"},"legGeometry":{"points":"chqfHdmvpL?A@YBeABgB?o@B_D?U@}@?]@SHqEhG^x@]f@[@m@@y@H]L]BUJ@F?j@BNDB@RHLMBe@DeANm@JHd@mARc@l@q@NSN_@PsA@c@Iu@","length":39},"rentedBike":false,"transitLeg":false,"duration":692.0,"steps":[{"distance":278.263,"relativeDirection":"DEPART","streetName":"Rue Jacques-Cartier Est","absoluteDirection":"EAST","stayOn":false,"area":false,"bogusName":false,"lon":-71.06274238390137,"lat":48.42642148536525,"elevation":[]},{"distance":147.775,"relativeDirection":"RIGHT","streetName":"Rue Maltais","absoluteDirection":"SOUTH","stayOn":false,"area":false,"bogusName":false,"lon":-71.0589782,"lat":48.426284100000004,"elevation":[]},{"distance":131.454,"relativeDirection":"SLIGHTLY_LEFT","streetName":"path","absoluteDirection":"SOUTH","stayOn":false,"area":false,"bogusName":true,"lon":-71.0591387,"lat":48.424959400000006,"elevation":[]},{"distance":127.559,"relativeDirection":"RIGHT","streetName":"alley","absoluteDirection":"SOUTH","stayOn":true,"area":false,"bogusName":true,"lon":-71.0579166,"lat":48.424303900000005,"elevation":[]},{"distance":7.578,"relativeDirection":"RIGHT","streetName":"Rue Bégin","absoluteDirection":"SOUTHWEST","stayOn":false,"area":false,"bogusName":false,"lon":-71.05719760000001,"lat":48.4235836,"elevation":[]},{"distance":177.29,"relativeDirection":"LEFT","streetName":"Chemin Saint Thomas","absoluteDirection":"SOUTHEAST","stayOn":false,"area":false,"bogusName":false,"lon":-71.0572466,"lat":48.423523700000004,"elevation":[]}]},{"startTime":1522719023000,"endTime":1522719060000,"departureDelay":0,"arrivalDelay":0,"realTime":false,"distance":354.63646711528844,"pathway":false,"mode":"BUS","route":"6","agencyName":"Société de Transport du Saguenay","agencyUrl":"http://ville.saguenay.ca/fr/services-aux-citoyens/transport-sts","agencyTimeZoneOffset":-14400000,"routeColor":"FF0000","routeType":3,"routeId":"1:6","routeTextColor":"FFFFFF","interlineWithPreviousLeg":false,"tripBlockId":"25","headsign":"Terminus UQAC","agencyId":"0","tripId":"1:217956","serviceDate":"20180402","from":{"name":"Cégep de Chicoutimi (voie réservée)","stopId":"1:75","stopCode":"75","lon":-71.055283,"lat":48.422761,"arrival":1522719022000,"departure":1522719023000,"zoneId":"NA","stopIndex":55,"stopSequence":56,"vertexType":"TRANSIT"},"to":{"name":"Terminus UQAC","stopId":"1:1670","stopCode":"1670","lon":-71.053369,"lat":48.420903,"arrival":1522719060000,"departure":1522719300000,"zoneId":"NA","stopIndex":57,"stopSequence":58,"vertexType":"TRANSIT"},"legGeometry":{"points":"oqpfHt~tpLe@gED{@nDqLdBfBxAzAQp@z@~@","length":8},"routeShortName":"6","routeLongName":"Term. Chic/Term. Baie via ch.Plateau","rentedBike":false,"transitLeg":true,"duration":37.0,"steps":[]},{"startTime":1522719300000,"endTime":1522719768000,"departureDelay":0,"arrivalDelay":0,"realTime":false,"distance":4939.533951460505,"pathway":false,"mode":"BUS","route":"5","agencyName":"Société de Transport du Saguenay","agencyUrl":"http://ville.saguenay.ca/fr/services-aux-citoyens/transport-sts","agencyTimeZoneOffset":-14400000,"routeColor":"FF0000","routeType":3,"routeId":"1:5","routeTextColor":"FFFFFF","interlineWithPreviousLeg":true,"tripBlockId":"25","headsign":"Terminus La Baie","agencyId":"0","tripId":"1:217957","serviceDate":"20180402","from":{"name":"Terminus UQAC","stopId":"1:1670","stopCode":"1670","lon":-71.053369,"lat":48.420903,"arrival":1522719060000,"departure":1522719300000,"zoneId":"NA","stopIndex":0,"stopSequence":1,"vertexType":"TRANSIT"},"to":{"name":"boul. St-Jean-Baptiste / Ste-Famille","stopId":"1:273","stopCode":"273","lon":-71.005229,"lat":48.401809,"arrival":1522719768000,"departure":1522719769000,"zoneId":"NA","stopIndex":9,"stopSequence":10,"vertexType":"TRANSIT"},"legGeometry":{"points":"sepfHtrtpLbA`ATs@bB~A~A|ALb@E`EnBvHtNsL~FeFROHI\\Q^Mb@I~CIJCJAXKXMXQRQPQT[\\s@^aAn@mBnCgItD{Kv@iHB_@FyAFsA@q@CeBKkDc@cIsFa{@QoBe@cHc@aEeC_Oa@iDk@iIMWxAo@\\UZUdDeD|IoJp@u@l@_Ah@{@f@{@DMp@uAt@iBnAgDrQme@lKwXnGoP","length":61},"routeShortName":"5","routeLongName":"Term. Chic/Term. Baie via St-J.Batiste","rentedBike":false,"transitLeg":true,"duration":468.0,"steps":[]},{"startTime":1522719769000,"endTime":1522721026000,"departureDelay":0,"arrivalDelay":0,"realTime":false,"distance":1664.958,"pathway":false,"mode":"WALK","route":"","agencyTimeZoneOffset":-14400000,"interlineWithPreviousLeg":false,"from":{"name":"boul. St-Jean-Baptiste / Ste-Famille","stopId":"1:273","stopCode":"273","lon":-71.005229,"lat":48.401809,"arrival":1522719768000,"departure":1522719769000,"zoneId":"NA","stopIndex":9,"stopSequence":10,"vertexType":"TRANSIT"},"to":{"name":"Destination","lon":-71.019226,"lat":48.390725,"arrival":1522721026000,"orig":"","vertexType":"NORMAL"},"legGeometry":{"points":"onlfHlekpLs@fB|LhM`\\v]`AlAr@fAf@t@b@x@xCpG^p@b@v@`A|AfBrBpIfJ","length":14},"rentedBike":false,"transitLeg":false,"duration":1257.0,"steps":[{"distance":48.364,"relativeDirection":"DEPART","streetName":"Boulevard Saint-Jean-Baptiste","absoluteDirection":"NORTHWEST","stayOn":false,"area":false,"bogusName":false,"lon":-71.00518930041385,"lat":48.40184322879472,"elevation":[]},{"distance":1616.594,"relativeDirection":"LEFT","streetName":"Rang Sainte-Famille","absoluteDirection":"SOUTHWEST","stayOn":false,"area":false,"bogusName":false,"lon":-71.0057084,"lat":48.402108600000005,"elevation":[]}]}],"tooSloped":false},{"duration":2696,"startTime":1522721930000,"endTime":1522724626000,"walkTime":1949,"transitTime":745,"waitingTime":2,"walkDistance":2535.136022548033,"walkLimitExceeded":false,"elevationLost":0.0,"elevationGained":0.0,"transfers":0,"legs":[{"startTime":1522721930000,"endTime":1522722622000,"departureDelay":0,"arrivalDelay":0,"realTime":false,"distance":869.919,"pathway":false,"mode":"WALK","route":"","agencyTimeZoneOffset":-14400000,"interlineWithPreviousLeg":false,"from":{"name":"Origin","lon":-71.062753,"lat":48.42636,"departure":1522721930000,"orig":"","vertexType":"NORMAL"},"to":{"name":"Cégep de Chicoutimi (voie réservée)","stopId":"1:75","stopCode":"75","lon":-71.055283,"lat":48.422761,"arrival":1522722622000,"departure":1522722623000,"zoneId":"NA","stopIndex":55,"stopSequence":56,"vertexType":"TRANSIT"},"legGeometry":{"points":"chqfHdmvpL?A@YBeABgB?o@B_D?U@}@?]@SHqEhG^x@]f@[@m@@y@H]L]BUJ@F?j@BNDB@RHLMBe@DeANm@JHd@mARc@l@q@NSN_@PsA@c@Iu@","length":39},"rentedBike":false,"transitLeg":false,"duration":692.0,"steps":[{"distance":278.263,"relativeDirection":"DEPART","streetName":"Rue Jacques-Cartier Est","absoluteDirection":"EAST","stayOn":false,"area":false,"bogusName":false,"lon":-71.06274238390137,"lat":48.42642148536525,"elevation":[]},{"distance":147.775,"relativeDirection":"RIGHT","streetName":"Rue Maltais","absoluteDirection":"SOUTH","stayOn":false,"area":false,"bogusName":false,"lon":-71.0589782,"lat":48.426284100000004,"elevation":[]},{"distance":131.454,"relativeDirection":"SLIGHTLY_LEFT","streetName":"path","absoluteDirection":"SOUTH","stayOn":false,"area":false,"bogusName":true,"lon":-71.0591387,"lat":48.424959400000006,"elevation":[]},{"distance":127.559,"relativeDirection":"RIGHT","streetName":"alley","absoluteDirection":"SOUTH","stayOn":true,"area":false,"bogusName":true,"lon":-71.0579166,"lat":48.424303900000005,"elevation":[]},{"distance":7.578,"relativeDirection":"RIGHT","streetName":"Rue Bégin","absoluteDirection":"SOUTHWEST","stayOn":false,"area":false,"bogusName":false,"lon":-71.05719760000001,"lat":48.4235836,"elevation":[]},{"distance":177.29,"relativeDirection":"LEFT","streetName":"Chemin Saint Thomas","absoluteDirection":"SOUTHEAST","stayOn":false,"area":false,"bogusName":false,"lon":-71.0572466,"lat":48.423523700000004,"elevation":[]}]},{"startTime":1522722623000,"endTime":1522722660000,"departureDelay":0,"arrivalDelay":0,"realTime":false,"distance":354.63646711528844,"pathway":false,"mode":"BUS","route":"6","agencyName":"Société de Transport du Saguenay","agencyUrl":"http://ville.saguenay.ca/fr/services-aux-citoyens/transport-sts","agencyTimeZoneOffset":-14400000,"routeColor":"FF0000","routeType":3,"routeId":"1:6","routeTextColor":"FFFFFF","interlineWithPreviousLeg":false,"tripBlockId":"25","headsign":"Terminus UQAC","agencyId":"0","tripId":"1:217958","serviceDate":"20180402","from":{"name":"Cégep de Chicoutimi (voie réservée)","stopId":"1:75","stopCode":"75","lon":-71.055283,"lat":48.422761,"arrival":1522722622000,"departure":1522722623000,"zoneId":"NA","stopIndex":55,"stopSequence":56,"vertexType":"TRANSIT"},"to":{"name":"Terminus UQAC","stopId":"1:1670","stopCode":"1670","lon":-71.053369,"lat":48.420903,"arrival":1522722660000,"departure":1522722900000,"zoneId":"NA","stopIndex":57,"stopSequence":58,"vertexType":"TRANSIT"},"legGeometry":{"points":"oqpfHt~tpLe@gED{@nDqLdBfBxAzAQp@z@~@","length":8},"routeShortName":"6","routeLongName":"Term. Chic/Term. Baie via ch.Plateau","rentedBike":false,"transitLeg":true,"duration":37.0,"steps":[]},{"startTime":1522722900000,"endTime":1522723368000,"departureDelay":0,"arrivalDelay":0,"realTime":false,"distance":4939.533951460505,"pathway":false,"mode":"BUS","route":"5","agencyName":"Société de Transport du Saguenay","agencyUrl":"http://ville.saguenay.ca/fr/services-aux-citoyens/transport-sts","agencyTimeZoneOffset":-14400000,"routeColor":"FF0000","routeType":3,"routeId":"1:5","routeTextColor":"FFFFFF","interlineWithPreviousLeg":true,"tripBlockId":"25","headsign":"Terminus La Baie","agencyId":"0","tripId":"1:217959","serviceDate":"20180402","from":{"name":"Terminus UQAC","stopId":"1:1670","stopCode":"1670","lon":-71.053369,"lat":48.420903,"arrival":1522722660000,"departure":1522722900000,"zoneId":"NA","stopIndex":0,"stopSequence":1,"vertexType":"TRANSIT"},"to":{"name":"boul. St-Jean-Baptiste / Ste-Famille","stopId":"1:273","stopCode":"273","lon":-71.005229,"lat":48.401809,"arrival":1522723368000,"departure":1522723369000,"zoneId":"NA","stopIndex":9,"stopSequence":10,"vertexType":"TRANSIT"},"legGeometry":{"points":"sepfHtrtpLbA`ATs@bB~A~A|ALb@E`EnBvHtNsL~FeFROHI\\Q^Mb@I~CIJCJAXKXMXQRQPQT[\\s@^aAn@mBnCgItD{Kv@iHB_@FyAFsA@q@CeBKkDc@cIsFa{@QoBe@cHc@aEeC_Oa@iDk@iIMWxAo@\\UZUdDeD|IoJp@u@l@_Ah@{@f@{@DMp@uAt@iBnAgDrQme@lKwXnGoP","length":61},"routeShortName":"5","routeLongName":"Term. Chic/Term. Baie via St-J.Batiste","rentedBike":false,"transitLeg":true,"duration":468.0,"steps":[]},{"startTime":1522723369000,"endTime":1522724626000,"departureDelay":0,"arrivalDelay":0,"realTime":false,"distance":1664.958,"pathway":false,"mode":"WALK","route":"","agencyTimeZoneOffset":-14400000,"interlineWithPreviousLeg":false,"from":{"name":"boul. St-Jean-Baptiste / Ste-Famille","stopId":"1:273","stopCode":"273","lon":-71.005229,"lat":48.401809,"arrival":1522723368000,"departure":1522723369000,"zoneId":"NA","stopIndex":9,"stopSequence":10,"vertexType":"TRANSIT"},"to":{"name":"Destination","lon":-71.019226,"lat":48.390725,"arrival":1522724626000,"orig":"","vertexType":"NORMAL"},"legGeometry":{"points":"onlfHlekpLs@fB|LhM`\\v]`AlAr@fAf@t@b@x@xCpG^p@b@v@`A|AfBrBpIfJ","length":14},"rentedBike":false,"transitLeg":false,"duration":1257.0,"steps":[{"distance":48.364,"relativeDirection":"DEPART","streetName":"Boulevard Saint-Jean-Baptiste","absoluteDirection":"NORTHWEST","stayOn":false,"area":false,"bogusName":false,"lon":-71.00518930041385,"lat":48.40184322879472,"elevation":[]},{"distance":1616.594,"relativeDirection":"LEFT","streetName":"Rang Sainte-Famille","absoluteDirection":"SOUTHWEST","stayOn":false,"area":false,"bogusName":false,"lon":-71.0057084,"lat":48.402108600000005,"elevation":[]}]}],"tooSloped":false}]},"debugOutput":{"precalculationTime":29,"pathCalculationTime":77,"pathTimes":[28,22,27],"renderingTime":1,"totalTime":107,"timedOut":false},"elevationMetadata":{"ellipsoidToGeoidDifference":-28.885904201182168,"geoidElevation":false}}