{"requestParameters":{"date":"2018/04/02","walkSpeed":"1.33","walkReluctance":"2.0","fromPlace":"48.394631,-71.073569","maxWalkDistance":"3000","waitReluctance":"1.0","carSpeed":"33","numItineraries":"3","waitAtBeginningFactor":"0.4","mode":"TRANSIT,WALK","ignoreRealtimeUpdates":"false","stairsReluctance":"2.0","toPlace":"48.392386,-71.051224","time":"16:30:00"},"plan":{"date":1522701000000,"from":{"name":"Origin","lon":-71.073569,"lat":48.394631,"orig":"","vertexType":"NORMAL"},"to":{"name":"Destination","lon":-71.051224,"lat":48.392386,"orig":"","vertexType":"NORMAL"},"itineraries":[{"duration":372,"startTime":1522701626000,"endTime":1522701998000,"walkTime":148,"transitTime":222,"waitingTime":2,"walkDistance":186.61875939676156,"walkLimitExceeded":false,"elevationLost":0.0,"elevationGained":0.0,"transfers":0,"legs":[{"startTime":1522701626000,"endTime":1522701638000,"departureDelay":0,"arrivalDelay":0,"realTime":false,"distance":15.551,"pathway":false,"mode":"WALK","route":"","agencyTimeZoneOffset":-14400000,"interlineWithPreviousLeg":false,"from":{"name":"Origin","lon":-71.073569,"lat":48.394631,"departure":1522701626000,"orig":"","vertexType":"NORMAL"},"to":{"name":"Maxi - boulevard Barrette","stopId":"1:88","stopCode":"88","lon":-71.07294,"lat":48.395,"arrival":1522701638000,"departure":1522701639000,"zoneId":"NA","stopIndex":34,"stopSequence":35,"vertexType":"TRANSIT"},"legGeometry":{"points":"cdkfHbnxpLNc@","length":2},"rentedBike":false,"transitLeg":false,"duration":12.0,"steps":[{"distance":15.551,"relativeDirection":"DEPART","streetName":"bike path","absoluteDirection":"SOUTHEAST","stayOn":false,"area":false,"bogusName":false,"lon":-71.07313078418363,"lat":48.395062296987234,"elevation":[]}]},{"startTime":1522701639000,"endTime":1522701660000,"departureDelay":0,"arrivalDelay":0,"realTime":false,"distance":308.52410100423333,"pathway":false,"mode":"BUS","route":"14","agencyName":"Société de Transport du Saguenay","agencyUrl":"http://ville.saguenay.ca/fr/services-aux-citoyens/transport-sts","agencyTimeZoneOffset":-14400000,"routeColor":"C0C000","routeType":3,"routeId":"1:14","routeTextColor":"000000","interlineWithPreviousLeg":false,"tripBlockId":"32","headsign":"Talbot / Barrette","agencyId":"0","tripId":"1:218166","serviceDate":"20180402","from":{"name":"Maxi - boulevard Barrette","stopId":"1:88","stopCode":"88","lon":-71.07294,"lat":48.395,"arrival":1522701638000,"departure":1522701639000,"zoneId":"NA","stopIndex":34,"stopSequence":35,"vertexType":"TRANSIT"},"to":{"name":"Roitelets / Sapins","stopId":"1:1543","stopCode":"1543","lon":-71.069553,"lat":48.393375,"arrival":1522701660000,"departure":1522701660000,"zoneId":"NA","stopIndex":35,"stopSequence":36,"vertexType":"TRANSIT"},"legGeometry":{"points":"_dkfHplxpLvH_SLa@","length":3},"routeShortName":"14","routeLongName":"Coopérative","rentedBike":false,"transitLeg":true,"duration":21.0,"steps":[]},{"startTime":1522701660000,"endTime":1522701861000,"departureDelay":0,"arrivalDelay":0,"realTime":false,"distance":1417.6790644138782,"pathway":false,"mode":"BUS","route":"15","agencyName":"Société de Transport du Saguenay","agencyUrl":"http://ville.saguenay.ca/fr/services-aux-citoyens/transport-sts","agencyTimeZoneOffset":-14400000,"routeColor":"FF00FF","routeType":3,"routeId":"1:15","routeTextColor":"FFFFFF","interlineWithPreviousLeg":true,"tripBlockId":"32","headsign":"Terminus Chicoutimi","agencyId":"0","tripId":"1:218167","serviceDate":"20180402","from":{"name":"Roitelets / Sapins","stopId":"1:1543","stopCode":"1543","lon":-71.069553,"lat":48.393375,"arrival":1522701660000,"departure":1522701660000,"zoneId":"NA","stopIndex":0,"stopSequence":1,"vertexType":"TRANSIT"},"to":{"name":"Résidence Villa du Saguenay (Roitelets)","stopId":"1:1546","stopCode":"1546","lon":-71.050627,"lat":48.393589,"arrival":1522701861000,"departure":1522701862000,"zoneId":"NA","stopIndex":5,"stopSequence":6,"vertexType":"TRANSIT"},"legGeometry":{"points":"_zjfHfwwpLx@}BHa@NaADq@@y@Cy@I{@Ka@O[Sg@c@mAWwAMyA?EC]?wABuABmFB{@BmDFuH@i@F[FsC@c@TuGEGVsHPuDLuBXsFDoA?W@]Cu@GcAKu@Q_ASo@a@y@a@o@MO","length":43},"routeShortName":"15","routeLongName":"Term. Chic / Costco","rentedBike":false,"transitLeg":true,"duration":201.0,"steps":[]},{"startTime":1522701862000,"endTime":1522701998000,"departureDelay":0,"arrivalDelay":0,"realTime":false,"distance":171.014,"pathway":false,"mode":"WALK","route":"","agencyTimeZoneOffset":-14400000,"interlineWithPreviousLeg":false,"from":{"name":"Résidence Villa du Saguenay (Roitelets)","stopId":"1:1546","stopCode":"1546","lon":-71.050627,"lat":48.393589,"arrival":1522701861000,"departure":1522701862000,"zoneId":"NA","stopIndex":5,"stopSequence":6,"vertexType":"TRANSIT"},"to":{"name":"Destination","lon":-71.051224,"lat":48.392386,"arrival":1522701998000,"orig":"","vertexType":"NORMAL"},"legGeometry":{"points":"e{jfH|atpLf@p@\\v@b@`AjBsAPb@","length":6},"rentedBike":false,"transitLeg":false,"duration":136.0,"steps":[{"distance":86.397,"relativeDirection":"DEPART","streetName":"bike path","absoluteDirection":"SOUTHWEST","stayOn":false,"area":false,"bogusName":true,"lon":-71.05070830576834,"lat":48.39363439480543,"elevation":[]},{"distance":68.324,"relativeDirection":"LEFT","streetName":"Rue des Pigeons","absoluteDirection":"SOUTHEAST","stayOn":false,"area":false,"bogusName":false,"lon":-71.0515644,"lat":48.393109200000005,"elevation":[]},{"distance":16.293,"relativeDirection":"RIGHT","streetName":"Rue des Goélands","absoluteDirection":"SOUTHWEST","stayOn":false,"area":false,"bogusName":false,"lon":-71.05114730000001,"lat":48.392560700000004,"elevation":[]}]}],"tooSloped":false},{"duration":1370,"startTime":1522701000000,"endTime":1522702370000,"walkTime":1370,"transitTime":0,"waitingTime":0,"walkDistance":1775.88796992036,"walkLimitExceeded":false,"elevationLost":0.0,"elevationGained":0.0,"transfers":0,"legs":[{"startTime":1522701000000,"endTime":1522702370000,"departureDelay":0,"arrivalDelay":0,"realTime":false,"distance":1775.7499999999998,"pathway":false,"mode":"WALK","route":"","agencyTimeZoneOffset":-14400000,"interlineWithPreviousLeg":false,"from":{"name":"Origin","lon":-71.073569,"lat":48.394631,"departure":1522701000000,"orig":"","vertexType":"NORMAL"},"to":{"name":"Destination","lon":-71.051224,"lat":48.392386,"arrival":1522702370000,"orig":"","vertexType":"NORMAL"},"legGeometry":{"points":"cdkfHbnxpLNc@z@cCtCwH?Q?IPc@|A}DDi@Z}@VmAN{ADsAKiAa@uAEOFIGOk@wBSaBGc@?EEqCBaF?eC?m@BuB?k@HwGJqE@]LcDr@wPl@mN@MBWE}AQcBUcAjBsAPb@","length":41},"rentedBike":false,"transitLeg":false,"duration":1370.0,"steps":[{"distance":226.96099999999998,"relativeDirection":"DEPART","streetName":"bike path","absoluteDirection":"SOUTHEAST","stayOn":false,"area":false,"bogusName":false,"lon":-71.07313078418363,"lat":48.395062296987234,"elevation":[]},{"distance":16.674,"relativeDirection":"SLIGHTLY_RIGHT","streetName":"Boulevard Barrette","absoluteDirection":"SOUTHEAST","stayOn":false,"area":false,"bogusName":false,"lon":-71.0705975,"lat":48.3939363,"elevation":[]},{"distance":300.812,"relativeDirection":"CONTINUE","streetName":"Rue Des Roitelets","absoluteDirection":"SOUTHEAST","stayOn":false,"area":false,"bogusName":false,"lon":-71.07041720000001,"lat":48.393846,"elevation":[]},{"distance":5.699,"relativeDirection":"RIGHT","streetName":"service road","absoluteDirection":"SOUTHEAST","stayOn":false,"area":false,"bogusName":true,"lon":-71.0667954,"lat":48.3932324,"elevation":[]},{"distance":1140.9870000000003,"relativeDirection":"LEFT","streetName":"bike path","absoluteDirection":"NORTHEAST","stayOn":true,"area":false,"bogusName":true,"lon":-71.0667475,"lat":48.3931922,"elevation":[]},{"distance":68.324,"relativeDirection":"RIGHT","streetName":"Rue des Pigeons","absoluteDirection":"SOUTHEAST","stayOn":false,"area":false,"bogusName":false,"lon":-71.0515644,"lat":48.393109200000005,"elevation":[]},{"distance":16.293,"relativeDirection":"RIGHT","streetName":"Rue des Goélands","absoluteDirection":"SOUTHWEST","stayOn":false,"area":false,"bogusName":false,"lon":-71.05114730000001,"lat":48.392560700000004,"elevation":[]}]}],"tooSloped":false},{"duration":372,"startTime":1522703426000,"endTime":1522703798000,"walkTime":148,"transitTime":222,"waitingTime":2,"walkDistance":186.61875939676156,"walkLimitExceeded":false,"elevationLost":0.0,"elevationGained":0.0,"transfers":0,"legs":[{"startTime":1522703426000,"endTime":1522703438000,"departureDelay":0,"arrivalDelay":0,"realTime":false,"distance":15.551,"pathway":false,"mode":"WALK","route":"","agencyTimeZoneOffset":-14400000,"interlineWithPreviousLeg":false,"from":{"name":"Origin","lon":-71.073569,"lat":48.394631,"departure":1522703426000,"orig":"","vertexType":"NORMAL"},"to":{"name":"Maxi - boulevard Barrette","stopId":"1:88","stopCode":"88","lon":-71.07294,"lat":48.395,"arrival":1522703438000,"departure":1522703439000,"zoneId":"NA","stopIndex":34,"stopSequence":35,"vertexType":"TRANSIT"},"legGeometry":{"points":"cdkfHbnxpLNc@","length":2},"rentedBike":false,"transitLeg":false,"duration":12.0,"steps":[{"distance":15.551,"relativeDirection":"DEPART","streetName":"bike path","absoluteDirection":"SOUTHEAST","stayOn":false,"area":false,"bogusName":false,"lon":-71.07313078418363,"lat":48.395062296987234,"elevation":[]}]},{"startTime":1522703439000,"endTime":1522703460000,"departureDelay":0,"arrivalDelay":0,"realTime":false,"distance":308.52410100423333,"pathway":false,"mode":"BUS","route":"14","agencyName":"Société de Transport du Saguenay","agencyUrl":"http://ville.saguenay.ca/fr/services-aux-citoyens/transport-sts","agencyTimeZoneOffset":-14400000,"routeColor":"C0C000","routeType":3,"routeId":"1:14","routeTextColor":"000000","interlineWithPreviousLeg":false,"tripBlockId":"30","headsign":"Talbot / Barrette","agencyId":"0","tripId":"1:218107","serviceDate":"20180402","from":{"name":"Maxi - boulevard Barrette","stopId":"1:88","stopCode":"88","lon":-71.07294,"lat":48.395,"arrival":1522703438000,"departure":1522703439000,"zoneId":"NA","stopIndex":34,"stopSequence":35,"vertexType":"TRANSIT"},"to":{"name":"Roitelets / Sapins","stopId":"1:1543","stopCode":"1543","lon":-71.069553,"lat":48.393375,"arrival":1522703460000,"departure":1522703460000,"zoneId":"NA","stopIndex":35,"stopSequence":36,"vertexType":"TRANSIT"},"legGeometry":{"points":"_dkfHplxpLvH_SLa@","length":3},"routeShortName":"14","routeLongName":"Coopérative","rentedBike":false,"transitLeg":true,"duration":21.0,"steps":[]},{"startTime":1522703460000,"endTime":1522703661000,"departureDelay":0,"arrivalDelay":0,"realTime":false,"distance":1417.6790644138782,"pathway":false,"mode":"BUS","route":"15","agencyName":"Société de Transport du Saguenay","agencyUrl":"http://ville.saguenay.ca/fr/services-aux-citoyens/transport-sts","agencyTimeZoneOffset":-14400000,"routeColor":"FF00FF","routeType":3,"routeId":"1:15","routeTextColor":"FFFFFF","interlineWithPreviousLeg":true,"tripBlockId":"30","headsign":"Terminus Chicoutimi","agencyId":"0","tripId":"1:218108","serviceDate":"20180402","from":{"name":"Roitelets / Sapins","stopId":"1:1543","stopCode":"1543","lon":-71.069553,"lat":48.393375,"arrival":1522703460000,"departure":1522703460000,"zoneId":"NA","stopIndex":0,"stopSequence":1,"vertexType":"TRANSIT"},"to":{"name":"Résidence Villa du Saguenay (Roitelets)","stopId":"1:1546","stopCode":"1546","lon":-71.050627,"lat":48.393589,"arrival":1522703661000,"departure":1522703662000,"zoneId":"NA","stopIndex":5,"stopSequence":6,"vertexType":"TRANSIT"},"legGeometry":{"points":"_zjfHfwwpLx@}BHa@NaADq@@y@Cy@I{@Ka@O[Sg@c@mAWwAMyA?EC]?wABuABmFB{@BmDFuH@i@F[FsC@c@TuGEGVsHPuDLuBXsFDoA?W@]Cu@GcAKu@Q_ASo@a@y@a@o@MO","length":43},"routeShortName":"15","routeLongName":"Term. Chic / Costco","rentedBike":false,"transitLeg":true,"duration":201.0,"steps":[]},{"startTime":1522703662000,"endTime":1522703798000,"departureDelay":0,"arrivalDelay":0,"realTime":false,"distance":171.014,"pathway":false,"mode":"WALK","route":"","agencyTimeZoneOffset":-14400000,"interlineWithPreviousLeg":false,"from":{"name":"Résidence Villa du Saguenay (Roitelets)","stopId":"1:1546","stopCode":"1546","lon":-71.050627,"lat":48.393589,"arrival":1522703661000,"departure":1522703662000,"zoneId":"NA","stopIndex":5,"stopSequence":6,"vertexType":"TRANSIT"},"to":{"name":"Destination","lon":-71.051224,"lat":48.392386,"arrival":1522703798000,"orig":"","vertexType":"NORMAL"},"legGeometry":{"points":"e{jfH|atpLf@p@\\v@b@`AjBsAPb@","length":6},"rentedBike":false,"transitLeg":false,"duration":136.0,"steps":[{"distance":86.397,"relativeDirection":"DEPART","streetName":"bike path","absoluteDirection":"SOUTHWEST","stayOn":false,"area":false,"bogusName":true,"lon":-71.05070830576834,"lat":48.39363439480543,"elevation":[]},{"distance":68.324,"relativeDirection":"LEFT","streetName":"Rue des Pigeons","absoluteDirection":"SOUTHEAST","stayOn":false,"area":false,"bogusName":false,"lon":-71.0515644,"lat":48.393109200000005,"elevation":[]},{"distance":16.293,"relativeDirection":"RIGHT","streetName":"Rue des Goélands","absoluteDirection":"SOUTHWEST","stayOn":false,"area":false,"bogusName":false,"lon":-71.05114730000001,"lat":48.392560700000004,"elevation":[]}]}],"tooSloped":false}]},"debugOutput":{"precalculationTime":30,"pathCalculationTime":20,"pathTimes":[12,4,4],"renderingTime":0,"totalTime":50,"timedOut":false},"elevationMetadata":{"ellipsoidToGeoidDifference":-28.885904201182168,"geoidElevation":false}}