{"requestParameters":{"date":"2018/04/02","walkSpeed":"1.33","walkReluctance":"2.0","fromPlace":"48.41026,-71.051927","maxWalkDistance":"3000","waitReluctance":"1.0","carSpeed":"33","numItineraries":"3","waitAtBeginningFactor":"0.4","mode":"TRANSIT,WALK","ignoreRealtimeUpdates":"false","stairsReluctance":"2.0","toPlace":"48.445932,-71.086205","time":"20:10:00"},"plan":{"date":1522714200000,"from":{"name":"Origin","lon":-71.051927,"lat":48.41026,"orig":"","vertexType":"NORMAL"},"to":{"name":"Destination","lon":-71.086205,"lat":48.445932,"orig":"","vertexType":"NORMAL"},"itineraries":[{"duration":1913,"startTime":1522715087000,"endTime":1522717000000,"walkTime":262,"transitTime":1349,"waitingTime":302,"walkDistance":332.94283458376106,"walkLimitExceeded":false,"elevationLost":0.0,"elevationGained":0.0,"transfers":1,"legs":[{"startTime":1522715087000,"endTime":1522715219000,"departureDelay":0,"arrivalDelay":0,"realTime":false,"distance":169.042,"pathway":false,"mode":"WALK","route":"","agencyTimeZoneOffset":-14400000,"interlineWithPreviousLeg":false,"from":{"name":"Origin","lon":-71.051927,"lat":48.41026,"departure":1522715087000,"orig":"","vertexType":"NORMAL"},"to":{"name":"missingStopName","stopId":"1:1812","stopCode":"1812","lon":-71.051352,"lat":48.411592,"arrival":1522715219000,"departure":1522715220000,"zoneId":"NA","stopIndex":11,"stopSequence":12,"vertexType":"TRANSIT"},"legGeometry":{"points":"udnfHzgtpL}@`CcDgD","length":3},"rentedBike":false,"transitLeg":false,"duration":132.0,"steps":[{"distance":58.711,"relativeDirection":"DEPART","streetName":"path","absoluteDirection":"NORTHWEST","stayOn":false,"area":false,"bogusName":false,"lon":-71.05165405036074,"lat":48.41051339369024,"elevation":[]},{"distance":110.331,"relativeDirection":"RIGHT","streetName":"Boulevard Talbot","absoluteDirection":"NORTHEAST","stayOn":false,"area":false,"bogusName":false,"lon":-71.05230110000001,"lat":48.4108205,"elevation":[]}]},{"startTime":1522715220000,"endTime":1522716000000,"departureDelay":0,"arrivalDelay":0,"realTime":false,"distance":3400.2803451917603,"pathway":false,"mode":"BUS","route":"175","agencyName":"Société de Transport du Saguenay","agencyUrl":"http://ville.saguenay.ca/fr/services-aux-citoyens/transport-sts","agencyTimeZoneOffset":-14400000,"routeColor":"FF00FF","routeType":3,"routeId":"1:175","routeTextColor":"FFFFFF","interlineWithPreviousLeg":false,"tripBlockId":"10","headsign":"Terminus Chicoutimi","agencyId":"0","tripId":"1:217454","serviceDate":"20180402","from":{"name":"missingStopName","stopId":"1:1812","stopCode":"1812","lon":-71.051352,"lat":48.411592,"arrival":1522715219000,"departure":1522715220000,"zoneId":"NA","stopIndex":11,"stopSequence":12,"vertexType":"TRANSIT"},"to":{"name":"Terminus Chicoutimi","stopId":"1:1289","stopCode":"1289","lon":-71.066163,"lat":48.428677,"arrival":1522716000000,"departure":1522716300000,"zoneId":"NA","stopIndex":27,"stopSequence":28,"vertexType":"TRANSIT"},"legGeometry":{"points":"wknfHxftpLcBcB{E`Jc@x@qG~@{BlAk@XgSrQqB_GAeFiEeEOt@gAeA_A_ATm@yAwAgBeBqDnL@nBF`@f@|C[dCuAfB]xAs@OmCmCmEkE]a@g@i@ZiGTmEl@oLaEe@cFk@?pH?tJDvBPjMB~Bo@PQDRbFKdGMhIOvIK|EQpHoCQEdC","length":49},"routeShortName":"175","routeLongName":"Term. Chic / Costco","rentedBike":false,"transitLeg":true,"duration":780.0,"steps":[]},{"startTime":1522716300000,"endTime":1522716869000,"departureDelay":0,"arrivalDelay":0,"realTime":false,"distance":3418.693481365158,"pathway":false,"mode":"BUS","route":"20","agencyName":"Société de Transport du Saguenay","agencyUrl":"http://ville.saguenay.ca/fr/services-aux-citoyens/transport-sts","agencyTimeZoneOffset":-14400000,"routeColor":"0000FF","routeType":3,"routeId":"1:20","routeTextColor":"FFFFFF","interlineWithPreviousLeg":false,"tripBlockId":"3","headsign":"Terminus Chicoutimi","agencyId":"0","tripId":"1:217215","serviceDate":"20180402","from":{"name":"Terminus Chicoutimi","stopId":"1:1289","stopCode":"1289","lon":-71.066163,"lat":48.428677,"arrival":1522716000000,"departure":1522716300000,"zoneId":"NA","stopIndex":0,"stopSequence":1,"vertexType":"TRANSIT"},"to":{"name":"St-Armand / St-Denis","stopId":"1:683","stopCode":"683","lon":-71.08776,"lat":48.445141,"arrival":1522716869000,"departure":1522716870000,"zoneId":"NA","stopIndex":8,"stopSequence":9,"vertexType":"TRANSIT"},"legGeometry":{"points":"evqfHzcwpLg@?UhKwAIWACp@O\\WjGOfGCRK^KJMHQB_AMg@Gw`@eR}@g@u@Su@Ia@Ck@Dm@HwAf@c@VeAx@iAlAU^[d@eLtTsAvBg@bAPVd@t@PNNF@@P?TI`@YLITGV?NBTFRNNP`@OLCHGHIFMDSR{ARaBbDdAb@H`Fd@EbAE`AIdBK`AOdAMd@EJKR}B~Bw@`Bs@dB]bAWb@q@jAaB|BkA~A}@nAu@IIAe@Cs@Fy@DWA[EUGyCgAU~@Sx@{A`FyBfHmDjJCDEVE`B?vFBjC@ZFX\\j@","length":97},"routeShortName":"20","routeLongName":"Sainte-Claire","rentedBike":false,"transitLeg":true,"duration":569.0,"steps":[]},{"startTime":1522716870000,"endTime":1522717000000,"departureDelay":0,"arrivalDelay":0,"realTime":false,"distance":163.817,"pathway":false,"mode":"WALK","route":"","agencyTimeZoneOffset":-14400000,"interlineWithPreviousLeg":false,"from":{"name":"St-Armand / St-Denis","stopId":"1:683","stopCode":"683","lon":-71.08776,"lat":48.445141,"arrival":1522716869000,"departure":1522716870000,"zoneId":"NA","stopIndex":8,"stopSequence":9,"vertexType":"TRANSIT"},"to":{"name":"Destination","lon":-71.086205,"lat":48.445932,"arrival":1522717000000,"orig":"","vertexType":"NORMAL"},"legGeometry":{"points":"}|tfHfi{pLe@u@AICqDuBD","length":5},"rentedBike":false,"transitLeg":false,"duration":130.0,"steps":[{"distance":28.96,"relativeDirection":"DEPART","streetName":"Rue Saint-Denis","absoluteDirection":"NORTHEAST","stayOn":false,"area":false,"bogusName":false,"lon":-71.08771063731606,"lat":48.44511122383417,"elevation":[]},{"distance":69.987,"relativeDirection":"RIGHT","streetName":"Rue Saint-Armand","absoluteDirection":"EAST","stayOn":false,"area":false,"bogusName":false,"lon":-71.0874465,"lat":48.445303900000006,"elevation":[]},{"distance":64.87,"relativeDirection":"LEFT","streetName":"Rue Lasalle","absoluteDirection":"NORTH","stayOn":false,"area":false,"bogusName":false,"lon":-71.0865004,"lat":48.445339800000006,"elevation":[]}]}],"tooSloped":false},{"duration":2423,"startTime":1522714604000,"endTime":1522717027000,"walkTime":557,"transitTime":1624,"waitingTime":242,"walkDistance":711.7871654097855,"walkLimitExceeded":false,"elevationLost":0.0,"elevationGained":0.0,"transfers":1,"legs":[{"startTime":1522714604000,"endTime":1522714822000,"departureDelay":0,"arrivalDelay":0,"realTime":false,"distance":278.85900000000004,"pathway":false,"mode":"WALK","route":"","agencyTimeZoneOffset":-14400000,"interlineWithPreviousLeg":false,"from":{"name":"Origin","lon":-71.051927,"lat":48.41026,"departure":1522714604000,"orig":"","vertexType":"NORMAL"},"to":{"name":"Sûreté du Québec (Roitelets / Lorenzo-Genest)","stopId":"1:195","stopCode":"195","lon":-71.048189,"lat":48.4095,"arrival":1522714822000,"departure":1522714823000,"zoneId":"NA","stopIndex":16,"stopSequence":17,"vertexType":"TRANSIT"},"legGeometry":{"points":"udnfHzgtpLXw@VoAZsBVm@L}@b@{Bt@}DGC","length":9},"rentedBike":false,"transitLeg":false,"duration":218.0,"steps":[{"distance":124.786,"relativeDirection":"DEPART","streetName":"path","absoluteDirection":"SOUTHEAST","stayOn":false,"area":false,"bogusName":false,"lon":-71.05165405036074,"lat":48.41051339369024,"elevation":[]},{"distance":149.905,"relativeDirection":"SLIGHTLY_LEFT","streetName":"Rue Lorenzo-Genest","absoluteDirection":"EAST","stayOn":false,"area":false,"bogusName":false,"lon":-71.0501637,"lat":48.4100046,"elevation":[]},{"distance":4.168,"relativeDirection":"LEFT","streetName":"Rue Des Roitelets","absoluteDirection":"NORTH","stayOn":false,"area":false,"bogusName":false,"lon":-71.0482898,"lat":48.409485700000005,"elevation":[]}]},{"startTime":1522714823000,"endTime":1522716060000,"departureDelay":0,"arrivalDelay":0,"realTime":false,"distance":7677.6565278822645,"pathway":false,"mode":"BUS","route":"12","agencyName":"Société de Transport du Saguenay","agencyUrl":"http://ville.saguenay.ca/fr/services-aux-citoyens/transport-sts","agencyTimeZoneOffset":-14400000,"routeColor":"556B2F","routeType":3,"routeId":"1:12","routeTextColor":"FFFFFF","interlineWithPreviousLeg":false,"tripBlockId":"26","headsign":"Terminus Chicoutimi","agencyId":"0","tripId":"1:217991","serviceDate":"20180402","from":{"name":"Sûreté du Québec (Roitelets / Lorenzo-Genest)","stopId":"1:195","stopCode":"195","lon":-71.048189,"lat":48.4095,"arrival":1522714822000,"departure":1522714823000,"zoneId":"NA","stopIndex":16,"stopSequence":17,"vertexType":"TRANSIT"},"to":{"name":"Terminus Chicoutimi","stopId":"1:1289","stopCode":"1289","lon":-71.066163,"lat":48.428677,"arrival":1522716060000,"departure":1522716300000,"zoneId":"NA","stopIndex":33,"stopSequence":34,"vertexType":"TRANSIT"},"legGeometry":{"points":"k~mfHdrspLgD_BgAgBn@kFD_NoIgrAmD_WcAaLaDHoDJi`@wVoAbDbA|AnBU|B|AfBlAyLtKoGxFcFqDkJaHgEoDmDwC_TqQsBeB{HjWfAvAfM|O|FlHmB`IgA|Cy@`UYzHZvMR~Hr@~ZPvHsCrMFxf@|ApJj@nDDl]BvZdCXJhC","length":44},"routeShortName":"12","routeLongName":"Rivière du Moulin","rentedBike":false,"transitLeg":true,"duration":1237.0,"steps":[]},{"startTime":1522716300000,"endTime":1522716687000,"departureDelay":0,"arrivalDelay":0,"realTime":false,"distance":2669.4064857723333,"pathway":false,"mode":"BUS","route":"23","agencyName":"Société de Transport du Saguenay","agencyUrl":"http://ville.saguenay.ca/fr/services-aux-citoyens/transport-sts","agencyTimeZoneOffset":-14400000,"routeColor":"FF00FF","routeType":3,"routeId":"1:23","routeTextColor":"FFFFFF","interlineWithPreviousLeg":false,"tripBlockId":"5","headsign":"Terminus Chicoutimi","agencyId":"0","tripId":"1:217278","serviceDate":"20180402","from":{"name":"Terminus Chicoutimi","stopId":"1:1289","stopCode":"1289","lon":-71.066163,"lat":48.428677,"arrival":1522716060000,"departure":1522716300000,"zoneId":"NA","stopIndex":0,"stopSequence":1,"vertexType":"TRANSIT"},"to":{"name":"St-Gérard / Pasteur","stopId":"1:727","stopCode":"727","lon":-71.084309,"lat":48.448719,"arrival":1522716687000,"departure":1522716688000,"zoneId":"NA","stopIndex":4,"stopSequence":5,"vertexType":"TRANSIT"},"legGeometry":{"points":"kwqfHjbwpLF_CkAOYCm@rRO\\WjGOfGCRK^KJMHQB_AMg@Gw`@eR}@g@u@Su@Ia@Ck@Dm@HwAf@c@VeAx@iAlAU^[d@eLtTsAvB_CvEuAnCmBlE}@|B_BvFoC`JCD}@hCo@~Aq@pAs@fA{BlCqH|Iq@Bq@Im@U","length":46},"routeShortName":"23","routeLongName":"Côte Verdun via Aréna du Plateau","rentedBike":false,"transitLeg":true,"duration":387.0,"steps":[]},{"startTime":1522716688000,"endTime":1522717027000,"departureDelay":0,"arrivalDelay":0,"realTime":false,"distance":432.812,"pathway":false,"mode":"WALK","route":"","agencyTimeZoneOffset":-14400000,"interlineWithPreviousLeg":false,"from":{"name":"St-Gérard / Pasteur","stopId":"1:727","stopCode":"727","lon":-71.084309,"lat":48.448719,"arrival":1522716687000,"departure":1522716688000,"zoneId":"NA","stopIndex":4,"stopSequence":5,"vertexType":"TRANSIT"},"to":{"name":"Destination","lon":-71.086205,"lat":48.445932,"arrival":1522717027000,"orig":"","vertexType":"NORMAL"},"legGeometry":{"points":"_tufHptzpLJTv@lBN\\`@z@HFJHfCEB~DPPtGQ","length":11},"rentedBike":false,"transitLeg":false,"duration":339.0,"steps":[{"distance":75.98,"relativeDirection":"DEPART","streetName":"Rue Saint-Gérard","absoluteDirection":"SOUTHWEST","stayOn":false,"area":false,"bogusName":false,"lon":-71.0844008886955,"lat":48.448801303287965,"elevation":[]},{"distance":35.026,"relativeDirection":"CONTINUE","streetName":"Rue Sainte-Marie Sud","absoluteDirection":"SOUTHWEST","stayOn":false,"area":false,"bogusName":false,"lon":-71.08521470000001,"lat":48.448382800000005,"elevation":[]},{"distance":83.991,"relativeDirection":"LEFT","streetName":"Rue Sainte-Marie Sud","absoluteDirection":"SOUTH","stayOn":true,"area":false,"bogusName":false,"lon":-71.0855571,"lat":48.448167500000004,"elevation":[]},{"distance":70.471,"relativeDirection":"RIGHT","streetName":"Rue Vallières","absoluteDirection":"WEST","stayOn":false,"area":false,"bogusName":false,"lon":-71.0855786,"lat":48.447420400000006,"elevation":[]},{"distance":167.344,"relativeDirection":"LEFT","streetName":"Rue Lasalle","absoluteDirection":"SOUTHWEST","stayOn":false,"area":false,"bogusName":false,"lon":-71.0865339,"lat":48.447408900000006,"elevation":[]}]}],"tooSloped":false},{"duration":2059,"startTime":1522716887000,"endTime":1522718946000,"walkTime":481,"transitTime":1276,"waitingTime":302,"walkDistance":610.4520827024727,"walkLimitExceeded":false,"elevationLost":0.0,"elevationGained":0.0,"transfers":1,"legs":[{"startTime":1522716887000,"endTime":1522717019000,"departureDelay":0,"arrivalDelay":0,"realTime":false,"distance":169.042,"pathway":false,"mode":"WALK","route":"","agencyTimeZoneOffset":-14400000,"interlineWithPreviousLeg":false,"from":{"name":"Origin","lon":-71.051927,"lat":48.41026,"departure":1522716887000,"orig":"","vertexType":"NORMAL"},"to":{"name":"missingStopName","stopId":"1:1812","stopCode":"1812","lon":-71.051352,"lat":48.411592,"arrival":1522717019000,"departure":1522717020000,"zoneId":"NA","stopIndex":11,"stopSequence":12,"vertexType":"TRANSIT"},"legGeometry":{"points":"udnfHzgtpL}@`CcDgD","length":3},"rentedBike":false,"transitLeg":false,"duration":132.0,"steps":[{"distance":58.711,"relativeDirection":"DEPART","streetName":"path","absoluteDirection":"NORTHWEST","stayOn":false,"area":false,"bogusName":false,"lon":-71.05165405036074,"lat":48.41051339369024,"elevation":[]},{"distance":110.331,"relativeDirection":"RIGHT","streetName":"Boulevard Talbot","absoluteDirection":"NORTHEAST","stayOn":false,"area":false,"bogusName":false,"lon":-71.05230110000001,"lat":48.4108205,"elevation":[]}]},{"startTime":1522717020000,"endTime":1522717800000,"departureDelay":0,"arrivalDelay":0,"realTime":false,"distance":3400.2803451917603,"pathway":false,"mode":"BUS","route":"175","agencyName":"Société de Transport du Saguenay","agencyUrl":"http://ville.saguenay.ca/fr/services-aux-citoyens/transport-sts","agencyTimeZoneOffset":-14400000,"routeColor":"FF00FF","routeType":3,"routeId":"1:175","routeTextColor":"FFFFFF","interlineWithPreviousLeg":false,"tripBlockId":"9","headsign":"Terminus Chicoutimi","agencyId":"0","tripId":"1:217420","serviceDate":"20180402","from":{"name":"missingStopName","stopId":"1:1812","stopCode":"1812","lon":-71.051352,"lat":48.411592,"arrival":1522717019000,"departure":1522717020000,"zoneId":"NA","stopIndex":11,"stopSequence":12,"vertexType":"TRANSIT"},"to":{"name":"Terminus Chicoutimi","stopId":"1:1289","stopCode":"1289","lon":-71.066163,"lat":48.428677,"arrival":1522717800000,"departure":1522718100000,"zoneId":"NA","stopIndex":27,"stopSequence":28,"vertexType":"TRANSIT"},"legGeometry":{"points":"wknfHxftpLcBcB{E`Jc@x@qG~@{BlAk@XgSrQqB_GAeFiEeEOt@gAeA_A_ATm@yAwAgBeBqDnL@nBF`@f@|C[dCuAfB]xAs@OmCmCmEkE]a@g@i@ZiGTmEl@oLaEe@cFk@?pH?tJDvBPjMB~Bo@PQDRbFKdGMhIOvIK|EQpHoCQEdC","length":49},"routeShortName":"175","routeLongName":"Term. Chic / Costco","rentedBike":false,"transitLeg":true,"duration":780.0,"steps":[]},{"startTime":1522718100000,"endTime":1522718596000,"departureDelay":0,"arrivalDelay":0,"realTime":false,"distance":3559.685247334825,"pathway":false,"mode":"BUS","route":"21","agencyName":"Société de Transport du Saguenay","agencyUrl":"http://ville.saguenay.ca/fr/services-aux-citoyens/transport-sts","agencyTimeZoneOffset":-14400000,"routeColor":"556B2F","routeType":3,"routeId":"1:21","routeTextColor":"FFFFFF","interlineWithPreviousLeg":false,"tripBlockId":"2","headsign":"Terminus Chicoutimi","agencyId":"0","tripId":"1:217182","serviceDate":"20180402","from":{"name":"Terminus Chicoutimi","stopId":"1:1289","stopCode":"1289","lon":-71.066163,"lat":48.428677,"arrival":1522717800000,"departure":1522718100000,"zoneId":"NA","stopIndex":0,"stopSequence":1,"vertexType":"TRANSIT"},"to":{"name":"St-Gérard / Pasteur","stopId":"1:733","stopCode":"733","lon":-71.0845,"lat":48.4489,"arrival":1522718596000,"departure":1522718597000,"zoneId":"NA","stopIndex":7,"stopSequence":8,"vertexType":"TRANSIT"},"legGeometry":{"points":"kwqfHjbwpLF_CeBSm@rRO\\WjGOfGCRK^KJMHQB_AMg@Gw`@eR}@g@u@Su@Ia@Ck@Dm@HwAf@c@VeAx@iAlAU^[d@eLtTsAvB_CvEuAnCmBlE}@|B_BvFoC`JCD}@hCo@~Aq@pAs@fAWs@IUC[AI?QCeGAs@Gy@Ks@Ou@OcAIcAIgAWgCG_@Og@IQS]UWYQWIUA[Da@P]RSVQ`@Ib@Ef@Et@Gf@Id@I`@Od@cCxFQOgAwA_FqGO[`BcEY_@MOaBtDLTh@bATZpGlIPNa@fAOn@Gd@UtBA^A^R`E^fGRbAVl@P`@","length":99},"routeShortName":"21","routeLongName":"Boul. Ste-Geneviève/Élie","rentedBike":false,"transitLeg":true,"duration":496.0,"steps":[]},{"startTime":1522718597000,"endTime":1522718946000,"departureDelay":0,"arrivalDelay":0,"realTime":false,"distance":441.277,"pathway":false,"mode":"WALK","route":"","agencyTimeZoneOffset":-14400000,"interlineWithPreviousLeg":false,"from":{"name":"St-Gérard / Pasteur","stopId":"1:733","stopCode":"733","lon":-71.0845,"lat":48.4489,"arrival":1522718596000,"departure":1522718597000,"zoneId":"NA","stopIndex":7,"stopSequence":8,"vertexType":"TRANSIT"},"to":{"name":"Destination","lon":-71.086205,"lat":48.445932,"arrival":1522718946000,"orig":"","vertexType":"NORMAL"},"legGeometry":{"points":"qtufHxuzpLH?JGFIv@lBN\\`@z@HFJHfCEB~DPPtGQ","length":13},"rentedBike":false,"transitLeg":false,"duration":349.0,"steps":[{"distance":18.91,"relativeDirection":"DEPART","streetName":"Rue Pasteur Nord","absoluteDirection":"SOUTH","stayOn":false,"area":false,"bogusName":false,"lon":-71.08460477785076,"lat":48.44889846721524,"elevation":[]},{"distance":65.535,"relativeDirection":"RIGHT","streetName":"Rue Saint-Gérard","absoluteDirection":"SOUTHWEST","stayOn":false,"area":false,"bogusName":false,"lon":-71.0845147,"lat":48.4487454,"elevation":[]},{"distance":35.026,"relativeDirection":"CONTINUE","streetName":"Rue Sainte-Marie Sud","absoluteDirection":"SOUTHWEST","stayOn":false,"area":false,"bogusName":false,"lon":-71.08521470000001,"lat":48.448382800000005,"elevation":[]},{"distance":83.991,"relativeDirection":"LEFT","streetName":"Rue Sainte-Marie Sud","absoluteDirection":"SOUTH","stayOn":true,"area":false,"bogusName":false,"lon":-71.0855571,"lat":48.448167500000004,"elevation":[]},{"distance":70.471,"relativeDirection":"RIGHT","streetName":"Rue Vallières","absoluteDirection":"WEST","stayOn":false,"area":false,"bogusName":false,"lon":-71.0855786,"lat":48.447420400000006,"elevation":[]},{"distance":167.344,"relativeDirection":"LEFT","streetName":"Rue Lasalle","absoluteDirection":"SOUTHWEST","stayOn":false,"area":false,"bogusName":false,"lon":-71.0865339,"lat":48.447408900000006,"elevation":[]}]}],"tooSloped":false}]},"debugOutput":{"precalculationTime":35,"pathCalculationTime":71,"pathTimes":[29,19,23],"renderingTime":0,"totalTime":106,"timedOut":false},"elevationMetadata":{"ellipsoidToGeoidDifference":-28.885904201182168,"geoidElevation":false}}