{"requestParameters":{"date":"2018/04/02","walkSpeed":"1.33","walkReluctance":"2.0","fromPlace":"48.409664,-71.072997","maxWalkDistance":"3000","waitReluctance":"1.0","carSpeed":"33","numItineraries":"3","waitAtBeginningFactor":"0.4","mode":"TRANSIT,WALK","ignoreRealtimeUpdates":"false","stairsReluctance":"2.0","toPlace":"48.41388,-71.06744299","time":"18:1:00"},"plan":{"date":1522706460000,"from":{"name":"Origin","lon":-71.072997,"lat":48.409664,"orig":"","vertexType":"NORMAL"},"to":{"name":"Destination","lon":-71.06744299,"lat":48.41388,"orig":"","vertexType":"NORMAL"},"itineraries":[{"duration":695,"startTime":1522706460000,"endTime":1522707155000,"walkTime":695,"transitTime":0,"waitingTime":0,"walkDistance":891.5254135301107,"walkLimitExceeded":false,"elevationLost":0.0,"elevationGained":0.0,"transfers":0,"legs":[{"startTime":1522706460000,"endTime":1522707155000,"departureDelay":0,"arrivalDelay":0,"realTime":false,"distance":891.41,"pathway":false,"mode":"WALK","route":"","agencyTimeZoneOffset":-14400000,"interlineWithPreviousLeg":false,"from":{"name":"Origin","lon":-71.072997,"lat":48.409664,"departure":1522706460000,"orig":"","vertexType":"NORMAL"},"to":{"name":"Destination","lon":-71.06744299,"lat":48.41388,"arrival":1522707155000,"orig":"","vertexType":"NORMAL"},"legGeometry":{"points":"k_nfHfmxpLv@wBhA}CuA}AYc@AAk@w@k@OmA]c@?mA?A?E@aAZkAB}@Uw@y@m@uAUwAGo@?G?CCW@wAFiAMUs@m@{@u@UI_BwBa@|@","length":31},"rentedBike":false,"transitLeg":false,"duration":695.0,"steps":[{"distance":125.445,"relativeDirection":"DEPART","streetName":"Place des Écorceurs","absoluteDirection":"SOUTHEAST","stayOn":false,"area":false,"bogusName":false,"lon":-71.07299342313571,"lat":48.40966735705565,"elevation":[]},{"distance":571.027,"relativeDirection":"LEFT","streetName":"Rue d'Angoulème","absoluteDirection":"NORTHEAST","stayOn":false,"area":false,"bogusName":false,"lon":-71.07160610000001,"lat":48.409015700000005,"elevation":[]},{"distance":165.857,"relativeDirection":"LEFT","streetName":"Rue Bégin","absoluteDirection":"NORTHEAST","stayOn":false,"area":false,"bogusName":false,"lon":-71.0681022,"lat":48.4126786,"elevation":[]},{"distance":29.081,"relativeDirection":"LEFT","streetName":"Rue D'Youville","absoluteDirection":"NORTHWEST","stayOn":false,"area":false,"bogusName":false,"lon":-71.0668443,"lat":48.4138998,"elevation":[]}]}],"tooSloped":false},{"duration":367,"startTime":1522707741000,"endTime":1522708108000,"walkTime":283,"transitTime":82,"waitingTime":2,"walkDistance":356.8425563886363,"walkLimitExceeded":false,"elevationLost":0.0,"elevationGained":0.0,"transfers":0,"legs":[{"startTime":1522707741000,"endTime":1522707904000,"departureDelay":0,"arrivalDelay":0,"realTime":false,"distance":205.903,"pathway":false,"mode":"WALK","route":"","agencyTimeZoneOffset":-14400000,"interlineWithPreviousLeg":false,"from":{"name":"Origin","lon":-71.072997,"lat":48.409664,"departure":1522707741000,"orig":"","vertexType":"NORMAL"},"to":{"name":"Écorceurs - Place des Cordeliers","stopId":"1:543","stopCode":"543","lon":-71.070889,"lat":48.409559,"arrival":1522707904000,"departure":1522707905000,"zoneId":"NA","stopIndex":21,"stopSequence":22,"vertexType":"TRANSIT"},"legGeometry":{"points":"k_nfHfmxpLv@wBhA}CuA}AYc@AA","length":6},"rentedBike":false,"transitLeg":false,"duration":163.0,"steps":[{"distance":125.445,"relativeDirection":"DEPART","streetName":"Place des Écorceurs","absoluteDirection":"SOUTHEAST","stayOn":false,"area":false,"bogusName":false,"lon":-71.07299342313571,"lat":48.40966735705565,"elevation":[]},{"distance":80.45800000000001,"relativeDirection":"LEFT","streetName":"Rue d'Angoulème","absoluteDirection":"NORTHEAST","stayOn":false,"area":false,"bogusName":false,"lon":-71.07160610000001,"lat":48.409015700000005,"elevation":[]}]},{"startTime":1522707905000,"endTime":1522707987000,"departureDelay":0,"arrivalDelay":0,"realTime":false,"distance":476.65064599916377,"pathway":false,"mode":"BUS","route":"15","agencyName":"Société de Transport du Saguenay","agencyUrl":"http://ville.saguenay.ca/fr/services-aux-citoyens/transport-sts","agencyTimeZoneOffset":-14400000,"routeColor":"FF00FF","routeType":3,"routeId":"1:15","routeTextColor":"FFFFFF","interlineWithPreviousLeg":false,"tripBlockId":"30","headsign":"Terminus Chicoutimi","agencyId":"0","tripId":"1:218110","serviceDate":"20180402","from":{"name":"Écorceurs - Place des Cordeliers","stopId":"1:543","stopCode":"543","lon":-71.070889,"lat":48.409559,"arrival":1522707904000,"departure":1522707905000,"zoneId":"NA","stopIndex":21,"stopSequence":22,"vertexType":"TRANSIT"},"to":{"name":"École secondaire de l'Odyssé Dominique-Racine","stopId":"1:580","stopCode":"580","lon":-71.067703,"lat":48.412977,"arrival":1522707987000,"departure":1522707988000,"zoneId":"NA","stopIndex":24,"stopSequence":25,"vertexType":"TRANSIT"},"legGeometry":{"points":"{~mfHj`xpLe@o@qAa@m@MoB?C@}BZwAc@oA_Bs@gDCKZ{Di@QECc@_@","length":15},"routeShortName":"15","routeLongName":"Term. Chic / Costco","rentedBike":false,"transitLeg":true,"duration":82.0,"steps":[]},{"startTime":1522707988000,"endTime":1522708108000,"departureDelay":0,"arrivalDelay":0,"realTime":false,"distance":150.867,"pathway":false,"mode":"WALK","route":"","agencyTimeZoneOffset":-14400000,"interlineWithPreviousLeg":false,"from":{"name":"École secondaire de l'Odyssé Dominique-Racine","stopId":"1:580","stopCode":"580","lon":-71.067703,"lat":48.412977,"arrival":1522707987000,"departure":1522707988000,"zoneId":"NA","stopIndex":24,"stopSequence":25,"vertexType":"TRANSIT"},"to":{"name":"Destination","lon":-71.06744299,"lat":48.41388,"arrival":1522708108000,"orig":"","vertexType":"NORMAL"},"legGeometry":{"points":"gtnfHplwpL{@u@UI_BwBa@|@","length":5},"rentedBike":false,"transitLeg":false,"duration":120.0,"steps":[{"distance":121.786,"relativeDirection":"DEPART","streetName":"Rue Bégin","absoluteDirection":"NORTHEAST","stayOn":false,"area":false,"bogusName":false,"lon":-71.06776357747735,"lat":48.41300064951352,"elevation":[]},{"distance":29.081,"relativeDirection":"LEFT","streetName":"Rue D'Youville","absoluteDirection":"NORTHWEST","stayOn":false,"area":false,"bogusName":false,"lon":-71.0668443,"lat":48.4138998,"elevation":[]}]}],"tooSloped":false}]},"debugOutput":{"precalculationTime":58,"pathCalculationTime":19,"pathTimes":[5,10,4],"renderingTime":1,"totalTime":78,"timedOut":false},"elevationMetadata":{"ellipsoidToGeoidDifference":-28.885904201182168,"geoidElevation":false}}