{"requestParameters":{"date":"2018/04/02","walkSpeed":"1.33","walkReluctance":"2.0","fromPlace":"48.412167,-71.05227399","maxWalkDistance":"3000","waitReluctance":"1.0","carSpeed":"33","numItineraries":"3","waitAtBeginningFactor":"0.4","mode":"TRANSIT,WALK","ignoreRealtimeUpdates":"false","stairsReluctance":"2.0","toPlace":"48.403952,-71.054642","time":"12:30:00"},"plan":{"date":1522686600000,"from":{"name":"Origin","lon":-71.05227399,"lat":48.412167,"orig":"","vertexType":"NORMAL"},"to":{"name":"Destination","lon":-71.054642,"lat":48.403952,"orig":"","vertexType":"NORMAL"},"itineraries":[{"duration":1067,"startTime":1522686600000,"endTime":1522687667000,"walkTime":1067,"transitTime":0,"waitingTime":0,"walkDistance":1353.0709097675347,"walkLimitExceeded":false,"elevationLost":0.0,"elevationGained":0.0,"transfers":0,"legs":[{"startTime":1522686600000,"endTime":1522687667000,"departureDelay":0,"arrivalDelay":0,"realTime":false,"distance":1352.8570000000004,"pathway":false,"mode":"WALK","route":"","agencyTimeZoneOffset":-14400000,"interlineWithPreviousLeg":false,"from":{"name":"Origin","lon":-71.05227399,"lat":48.412167,"departure":1522686600000,"orig":"","vertexType":"NORMAL"},"to":{"name":"Destination","lon":-71.054642,"lat":48.403952,"arrival":1522687667000,"orig":"","vertexType":"NORMAL"},"legGeometry":{"points":"oonfHzltpLi@g@IIfA}CJ]Na@LJx@|@bDfDjDlDPRp@p@lAhApF`FLAn@MLe@H_@nAmEZe@\\e@b@p@XVZ@d@@b@@J@V?Z@T?FC\\Qf@sAL[FQ\\cAFIRRZXXXXVVTXVPROf@Wt@Xb@R\\T^R\\JL","length":51},"rentedBike":false,"transitLeg":false,"duration":1067.0,"steps":[{"distance":34.489,"relativeDirection":"DEPART","streetName":"Rue Thérèse-Casgrain","absoluteDirection":"NORTHEAST","stayOn":false,"area":false,"bogusName":false,"lon":-71.0524549015223,"lat":48.412241552095836,"elevation":[]},{"distance":99.698,"relativeDirection":"RIGHT","streetName":"Boulevard de l'Université","absoluteDirection":"SOUTHEAST","stayOn":false,"area":false,"bogusName":false,"lon":-71.0522085,"lat":48.412505100000004,"elevation":[]},{"distance":529.414,"relativeDirection":"RIGHT","streetName":"Boulevard Talbot","absoluteDirection":"SOUTHWEST","stayOn":false,"area":false,"bogusName":false,"lon":-71.0510904,"lat":48.412002,"elevation":[]},{"distance":34.36,"relativeDirection":"LEFT","streetName":"path","absoluteDirection":"SOUTH","stayOn":false,"area":false,"bogusName":true,"lon":-71.05502820000001,"lat":48.4080238,"elevation":[]},{"distance":426.668,"relativeDirection":"LEFT","streetName":"parking aisle","absoluteDirection":"SOUTHEAST","stayOn":true,"area":false,"bogusName":true,"lon":-71.0549472,"lat":48.407719500000006,"elevation":[]},{"distance":110.87500000000001,"relativeDirection":"RIGHT","streetName":"service road","absoluteDirection":"SOUTHWEST","stayOn":true,"area":false,"bogusName":true,"lon":-71.05245930000001,"lat":48.4049623,"elevation":[]},{"distance":117.35300000000001,"relativeDirection":"RIGHT","streetName":"parking aisle","absoluteDirection":"NORTHWEST","stayOn":true,"area":false,"bogusName":true,"lon":-71.0532652,"lat":48.4041209,"elevation":[]}]}],"tooSloped":false},{"duration":582,"startTime":1522687178000,"endTime":1522687760000,"walkTime":367,"transitTime":213,"waitingTime":2,"walkDistance":451.1297142797217,"walkLimitExceeded":false,"elevationLost":0.0,"elevationGained":0.0,"transfers":0,"legs":[{"startTime":1522687178000,"endTime":1522687323000,"departureDelay":0,"arrivalDelay":0,"realTime":false,"distance":186.87,"pathway":false,"mode":"WALK","route":"","agencyTimeZoneOffset":-14400000,"interlineWithPreviousLeg":false,"from":{"name":"Origin","lon":-71.05227399,"lat":48.412167,"departure":1522687178000,"orig":"","vertexType":"NORMAL"},"to":{"name":"boul. Université / Thérèse Casgrain","stopId":"1:83","stopCode":"83","lon":-71.053451,"lat":48.413578,"arrival":1522687323000,"departure":1522687324000,"zoneId":"NA","stopIndex":13,"stopSequence":14,"vertexType":"TRANSIT"},"legGeometry":{"points":"oonfHzltpLi@g@IIOb@MZq@lAgA`A_AV","length":8},"rentedBike":false,"transitLeg":false,"duration":145.0,"steps":[{"distance":34.489,"relativeDirection":"DEPART","streetName":"Rue Thérèse-Casgrain","absoluteDirection":"NORTHEAST","stayOn":false,"area":false,"bogusName":false,"lon":-71.0524549015223,"lat":48.412241552095836,"elevation":[]},{"distance":152.381,"relativeDirection":"LEFT","streetName":"Boulevard de l'Université","absoluteDirection":"NORTHWEST","stayOn":false,"area":false,"bogusName":false,"lon":-71.0522085,"lat":48.412505100000004,"elevation":[]}]},{"startTime":1522687324000,"endTime":1522687537000,"departureDelay":0,"arrivalDelay":0,"realTime":false,"distance":1309.5381415609606,"pathway":false,"mode":"BUS","route":"175","agencyName":"Société de Transport du Saguenay","agencyUrl":"http://ville.saguenay.ca/fr/services-aux-citoyens/transport-sts","agencyTimeZoneOffset":-14400000,"routeColor":"FF00FF","routeType":3,"routeId":"1:175","routeTextColor":"FFFFFF","interlineWithPreviousLeg":false,"tripBlockId":"81","headsign":"Costco","agencyId":"0","tripId":"1:218660","serviceDate":"20180402","from":{"name":"boul. Université / Thérèse Casgrain","stopId":"1:83","stopCode":"83","lon":-71.053451,"lat":48.413578,"arrival":1522687323000,"departure":1522687324000,"zoneId":"NA","stopIndex":13,"stopSequence":14,"vertexType":"TRANSIT"},"to":{"name":"Champs-Élysées (no. 1415)","stopId":"1:1925","stopCode":"1925","lon":-71.051931,"lat":48.403672,"arrival":1522687537000,"departure":1522687538000,"zoneId":"NA","stopIndex":18,"stopSequence":19,"vertexType":"TRANSIT"},"legGeometry":{"points":"}wnfHnrtpLfA[|@q@fAsBlEmMr@sBhCsKz@dAjB|@dM`GzCvAXrCr@~Gx@]PEr@ObACn@FrBb@|@Ch@Kx@U","length":22},"routeShortName":"175","routeLongName":"Term. Chic / Costco","rentedBike":false,"transitLeg":true,"duration":213.0,"steps":[]},{"startTime":1522687538000,"endTime":1522687760000,"departureDelay":0,"arrivalDelay":0,"realTime":false,"distance":264.074,"pathway":false,"mode":"WALK","route":"","agencyTimeZoneOffset":-14400000,"interlineWithPreviousLeg":false,"from":{"name":"Champs-Élysées (no. 1415)","stopId":"1:1925","stopCode":"1925","lon":-71.051931,"lat":48.403672,"arrival":1522687537000,"departure":1522687538000,"zoneId":"NA","stopIndex":18,"stopSequence":19,"vertexType":"TRANSIT"},"to":{"name":"Destination","lon":-71.054642,"lat":48.403952,"arrival":1522687760000,"orig":"","vertexType":"NORMAL"},"legGeometry":{"points":"czlfHphtpLOFe@L@zA?p@ELPNk@hBOf@Wt@Xb@R\\T^R\\JL","length":15},"rentedBike":false,"transitLeg":false,"duration":222.0,"steps":[{"distance":31.103,"relativeDirection":"DEPART","streetName":"Rue des Champs-Élysées","absoluteDirection":"NORTH","stayOn":false,"area":false,"bogusName":false,"lon":-71.05176919271997,"lat":48.40370108692007,"elevation":[]},{"distance":232.97099999999998,"relativeDirection":"LEFT","streetName":"parking aisle","absoluteDirection":"WEST","stayOn":false,"area":false,"bogusName":true,"lon":-71.0518792,"lat":48.4039711,"elevation":[]}]}],"tooSloped":false},{"duration":610,"startTime":1522687896000,"endTime":1522688506000,"walkTime":367,"transitTime":241,"waitingTime":2,"walkDistance":451.1297142797217,"walkLimitExceeded":false,"elevationLost":0.0,"elevationGained":0.0,"transfers":0,"legs":[{"startTime":1522687896000,"endTime":1522688041000,"departureDelay":0,"arrivalDelay":0,"realTime":false,"distance":186.87,"pathway":false,"mode":"WALK","route":"","agencyTimeZoneOffset":-14400000,"interlineWithPreviousLeg":false,"from":{"name":"Origin","lon":-71.05227399,"lat":48.412167,"departure":1522687896000,"orig":"","vertexType":"NORMAL"},"to":{"name":"boul. Université / Thérèse Casgrain","stopId":"1:83","stopCode":"83","lon":-71.053451,"lat":48.413578,"arrival":1522688041000,"departure":1522688042000,"zoneId":"NA","stopIndex":19,"stopSequence":20,"vertexType":"TRANSIT"},"legGeometry":{"points":"oonfHzltpLi@g@IIOb@MZq@lAgA`A_AV","length":8},"rentedBike":false,"transitLeg":false,"duration":145.0,"steps":[{"distance":34.489,"relativeDirection":"DEPART","streetName":"Rue Thérèse-Casgrain","absoluteDirection":"NORTHEAST","stayOn":false,"area":false,"bogusName":false,"lon":-71.0524549015223,"lat":48.412241552095836,"elevation":[]},{"distance":152.381,"relativeDirection":"LEFT","streetName":"Boulevard de l'Université","absoluteDirection":"NORTHWEST","stayOn":false,"area":false,"bogusName":false,"lon":-71.0522085,"lat":48.412505100000004,"elevation":[]}]},{"startTime":1522688042000,"endTime":1522688283000,"departureDelay":0,"arrivalDelay":0,"realTime":false,"distance":1309.5381415609606,"pathway":false,"mode":"BUS","route":"27","agencyName":"Société de Transport du Saguenay","agencyUrl":"http://ville.saguenay.ca/fr/services-aux-citoyens/transport-sts","agencyTimeZoneOffset":-14400000,"routeColor":"00FFFF","routeType":3,"routeId":"1:27","routeTextColor":"000000","interlineWithPreviousLeg":false,"tripBlockId":"98","headsign":"Place du Royaume","agencyId":"0","tripId":"1:218746","serviceDate":"20180402","from":{"name":"boul. Université / Thérèse Casgrain","stopId":"1:83","stopCode":"83","lon":-71.053451,"lat":48.413578,"arrival":1522688041000,"departure":1522688042000,"zoneId":"NA","stopIndex":19,"stopSequence":20,"vertexType":"TRANSIT"},"to":{"name":"Champs-Élysées (no. 1415)","stopId":"1:1925","stopCode":"1925","lon":-71.051931,"lat":48.403672,"arrival":1522688283000,"departure":1522688284000,"zoneId":"NA","stopIndex":24,"stopSequence":25,"vertexType":"TRANSIT"},"legGeometry":{"points":"ywnfHtrtpL??x@WhAcAr@kAhA_Dr@uB`BqE@CXy@nBqGLo@^k@VOf@KjB~@@@~DlB~C|AbBt@FD`Bv@LJ^l@BH?~@B^BL@LFn@`@pBZdBt@_@n@Qt@En@Dp@Ft@LzBB`@Gt@S","length":41},"routeShortName":"27","routeLongName":"St-Honoré","rentedBike":false,"transitLeg":true,"duration":241.0,"steps":[]},{"startTime":1522688284000,"endTime":1522688506000,"departureDelay":0,"arrivalDelay":0,"realTime":false,"distance":264.074,"pathway":false,"mode":"WALK","route":"","agencyTimeZoneOffset":-14400000,"interlineWithPreviousLeg":false,"from":{"name":"Champs-Élysées (no. 1415)","stopId":"1:1925","stopCode":"1925","lon":-71.051931,"lat":48.403672,"arrival":1522688283000,"departure":1522688284000,"zoneId":"NA","stopIndex":24,"stopSequence":25,"vertexType":"TRANSIT"},"to":{"name":"Destination","lon":-71.054642,"lat":48.403952,"arrival":1522688506000,"orig":"","vertexType":"NORMAL"},"legGeometry":{"points":"czlfHphtpLOFe@L@zA?p@ELPNk@hBOf@Wt@Xb@R\\T^R\\JL","length":15},"rentedBike":false,"transitLeg":false,"duration":222.0,"steps":[{"distance":31.103,"relativeDirection":"DEPART","streetName":"Rue des Champs-Élysées","absoluteDirection":"NORTH","stayOn":false,"area":false,"bogusName":false,"lon":-71.05176919271997,"lat":48.40370108692007,"elevation":[]},{"distance":232.97099999999998,"relativeDirection":"LEFT","streetName":"parking aisle","absoluteDirection":"WEST","stayOn":false,"area":false,"bogusName":true,"lon":-71.0518792,"lat":48.4039711,"elevation":[]}]}],"tooSloped":false}]},"debugOutput":{"precalculationTime":46,"pathCalculationTime":25,"pathTimes":[14,5,6],"renderingTime":0,"totalTime":71,"timedOut":false},"elevationMetadata":{"ellipsoidToGeoidDifference":-28.885904201182168,"geoidElevation":false}}