{"requestParameters":{"date":"2018/04/02","walkSpeed":"1.33","walkReluctance":"2.0","fromPlace":"48.418063,-71.07115699","maxWalkDistance":"3000","waitReluctance":"1.0","carSpeed":"33","numItineraries":"3","waitAtBeginningFactor":"0.4","mode":"TRANSIT,WALK","ignoreRealtimeUpdates":"false","stairsReluctance":"2.0","toPlace":"48.426446,-71.067442","time":"12:0:00"},"plan":{"date":1522684800000,"from":{"name":"Origin","lon":-71.07115699,"lat":48.418063,"orig":"","vertexType":"NORMAL"},"to":{"name":"Destination","lon":-71.067442,"lat":48.426446,"orig":"","vertexType":"NORMAL"},"itineraries":[{"duration":961,"startTime":1522684800000,"endTime":1522685761000,"walkTime":961,"transitTime":0,"waitingTime":0,"walkDistance":1232.632616538236,"walkLimitExceeded":false,"elevationLost":0.0,"elevationGained":0.0,"transfers":0,"legs":[{"startTime":1522684800000,"endTime":1522685761000,"departureDelay":0,"arrivalDelay":0,"realTime":false,"distance":1232.5360000000003,"pathway":false,"mode":"WALK","route":"","agencyTimeZoneOffset":-14400000,"interlineWithPreviousLeg":false,"from":{"name":"Origin","lon":-71.07115699,"lat":48.418063,"departure":1522684800000,"orig":"","vertexType":"NORMAL"},"to":{"name":"Destination","lon":-71.067442,"lat":48.426446,"arrival":1522685761000,"orig":"","vertexType":"NORMAL"},"legGeometry":{"points":"osofHj}wpLFc@b@{AZm@Pa@Fm@@QO?c@CW?o@L_@J]DGBy@VYJ{@@e@BiBO]DSCgCQkBOMAQASAs@Eu@EyAGe@C{BOm@Eg@ESAYCkCO[CC?uAKC?aCO{@GiAIB_BDoB@W","length":46},"rentedBike":false,"transitLeg":false,"duration":961.0,"steps":[{"distance":116.261,"relativeDirection":"DEPART","streetName":"service road","absoluteDirection":"EAST","stayOn":false,"area":false,"bogusName":true,"lon":-71.070452,"lat":48.418007300000006,"elevation":[]},{"distance":142.52,"relativeDirection":"LEFT","streetName":"Rue Jolliet","absoluteDirection":"NORTH","stayOn":false,"area":false,"bogusName":false,"lon":-71.0690988,"lat":48.4175072,"elevation":[]},{"distance":888.392,"relativeDirection":"CONTINUE","streetName":"Rue Sainte-Anne","absoluteDirection":"NORTH","stayOn":false,"area":false,"bogusName":false,"lon":-71.0693796,"lat":48.418765,"elevation":[]},{"distance":85.363,"relativeDirection":"RIGHT","streetName":"Rue Jacques-Cartier Est","absoluteDirection":"EAST","stayOn":false,"area":false,"bogusName":false,"lon":-71.0685709,"lat":48.426721,"elevation":[]}]}],"tooSloped":false},{"duration":1067,"startTime":1522685934000,"endTime":1522687001000,"walkTime":534,"transitTime":531,"waitingTime":2,"walkDistance":681.0237142813351,"walkLimitExceeded":false,"elevationLost":0.0,"elevationGained":0.0,"transfers":0,"legs":[{"startTime":1522685934000,"endTime":1522686461000,"departureDelay":0,"arrivalDelay":0,"realTime":false,"distance":671.917,"pathway":false,"mode":"WALK","route":"","agencyTimeZoneOffset":-14400000,"interlineWithPreviousLeg":false,"from":{"name":"Origin","lon":-71.07115699,"lat":48.418063,"departure":1522685934000,"orig":"","vertexType":"NORMAL"},"to":{"name":"Résidence Funéraire (Bégin)","stopId":"1:582","stopCode":"582","lon":-71.063981,"lat":48.416642,"arrival":1522686461000,"departure":1522686462000,"zoneId":"NA","stopIndex":26,"stopSequence":27,"vertexType":"TRANSIT"},"legGeometry":{"points":"osofHj}wpLFc@b@{AZm@Pa@Fm@@QO?c@CW?Xy@d@oBn@oB\\y@dAUt@yBdAwCFSjAeDo@m@GE}AaB]Y","length":23},"rentedBike":false,"transitLeg":false,"duration":527.0,"steps":[{"distance":116.261,"relativeDirection":"DEPART","streetName":"service road","absoluteDirection":"EAST","stayOn":false,"area":false,"bogusName":true,"lon":-71.070452,"lat":48.418007300000006,"elevation":[]},{"distance":42.323,"relativeDirection":"LEFT","streetName":"Rue Jolliet","absoluteDirection":"NORTH","stayOn":false,"area":false,"bogusName":false,"lon":-71.0690988,"lat":48.4175072,"elevation":[]},{"distance":188.869,"relativeDirection":"HARD_RIGHT","streetName":"path","absoluteDirection":"SOUTHEAST","stayOn":false,"area":false,"bogusName":true,"lon":-71.069079,"lat":48.417887500000006,"elevation":[]},{"distance":205.419,"relativeDirection":"LEFT","streetName":"Rue Dubé","absoluteDirection":"SOUTHEAST","stayOn":false,"area":false,"bogusName":false,"lon":-71.0672681,"lat":48.416826400000005,"elevation":[]},{"distance":119.045,"relativeDirection":"LEFT","streetName":"Rue Bégin","absoluteDirection":"NORTHEAST","stayOn":false,"area":false,"bogusName":false,"lon":-71.06496530000001,"lat":48.4157887,"elevation":[]}]},{"startTime":1522686462000,"endTime":1522686993000,"departureDelay":0,"arrivalDelay":0,"realTime":false,"distance":2633.3963294084288,"pathway":false,"mode":"BUS","route":"15","agencyName":"Société de Transport du Saguenay","agencyUrl":"http://ville.saguenay.ca/fr/services-aux-citoyens/transport-sts","agencyTimeZoneOffset":-14400000,"routeColor":"FF00FF","routeType":3,"routeId":"1:15","routeTextColor":"FFFFFF","interlineWithPreviousLeg":false,"tripBlockId":"30","headsign":"Terminus Chicoutimi","agencyId":"0","tripId":"1:218098","serviceDate":"20180402","from":{"name":"Résidence Funéraire (Bégin)","stopId":"1:582","stopCode":"582","lon":-71.063981,"lat":48.416642,"arrival":1522686461000,"departure":1522686462000,"zoneId":"NA","stopIndex":26,"stopSequence":27,"vertexType":"TRANSIT"},"to":{"name":"Jacques-Cartier / Tessier","stopId":"1:62","stopCode":"62","lon":-71.067531,"lat":48.426736,"arrival":1522686993000,"departure":1522686994000,"zoneId":"NA","stopIndex":37,"stopSequence":38,"vertexType":"TRANSIT"},"legGeometry":{"points":"kkofHvuvpLkIkIaJaJUUwBaCj@wCjAsCzGoG_CoHL{D_@kAqD{CQr@iAcAy@w@L{@wAuA_B_B_EpLDh@NbBVvCIxBg@`Am@l@Sb@a@rAqDqDmEkE]a@kAqAU|@WnKG|DGxDOdPKvJU|F?XQlJC~@ChA","length":42},"routeShortName":"15","routeLongName":"Term. Chic / Costco","rentedBike":false,"transitLeg":true,"duration":531.0,"steps":[]},{"startTime":1522686994000,"endTime":1522687001000,"departureDelay":0,"arrivalDelay":0,"realTime":false,"distance":8.971,"pathway":false,"mode":"WALK","route":"","agencyTimeZoneOffset":-14400000,"interlineWithPreviousLeg":false,"from":{"name":"Jacques-Cartier / Tessier","stopId":"1:62","stopCode":"62","lon":-71.067531,"lat":48.426736,"arrival":1522686993000,"departure":1522686994000,"zoneId":"NA","stopIndex":37,"stopSequence":38,"vertexType":"TRANSIT"},"to":{"name":"Destination","lon":-71.067442,"lat":48.426446,"arrival":1522687001000,"orig":"","vertexType":"NORMAL"},"legGeometry":{"points":"uiqfHbkwpL@W","length":2},"rentedBike":false,"transitLeg":false,"duration":7.0,"steps":[{"distance":8.971,"relativeDirection":"DEPART","streetName":"Rue Jacques-Cartier Est","absoluteDirection":"EAST","stayOn":false,"area":false,"bogusName":false,"lon":-71.0675380239516,"lat":48.42667414840684,"elevation":[]}]}],"tooSloped":false},{"duration":1270,"startTime":1522685880000,"endTime":1522687150000,"walkTime":569,"transitTime":699,"waitingTime":2,"walkDistance":730.1037969902612,"walkLimitExceeded":false,"elevationLost":0.0,"elevationGained":0.0,"transfers":0,"legs":[{"startTime":1522685880000,"endTime":1522686312000,"departureDelay":0,"arrivalDelay":0,"realTime":false,"distance":552.086,"pathway":false,"mode":"WALK","route":"","agencyTimeZoneOffset":-14400000,"interlineWithPreviousLeg":false,"from":{"name":"Origin","lon":-71.07115699,"lat":48.418063,"departure":1522685880000,"orig":"","vertexType":"NORMAL"},"to":{"name":"Jolliet / Audet","stopId":"1:522","stopCode":"522","lon":-71.07278,"lat":48.420244,"arrival":1522686312000,"departure":1522686313000,"zoneId":"NA","stopIndex":27,"stopSequence":28,"vertexType":"TRANSIT"},"legGeometry":{"points":"osofHj}wpLFc@b@{AZm@Pa@Fm@@QO?c@CW?o@L_@J_@X]XGDWZW`@QR[h@gBvEo@|AcAjC[|@","length":23},"rentedBike":false,"transitLeg":false,"duration":432.0,"steps":[{"distance":116.261,"relativeDirection":"DEPART","streetName":"service road","absoluteDirection":"EAST","stayOn":false,"area":false,"bogusName":true,"lon":-71.070452,"lat":48.418007300000006,"elevation":[]},{"distance":435.825,"relativeDirection":"LEFT","streetName":"Rue Jolliet","absoluteDirection":"NORTH","stayOn":false,"area":false,"bogusName":false,"lon":-71.0690988,"lat":48.4175072,"elevation":[]}]},{"startTime":1522686313000,"endTime":1522687012000,"departureDelay":0,"arrivalDelay":0,"realTime":false,"distance":2973.6181338152987,"pathway":false,"mode":"BUS","route":"14","agencyName":"Société de Transport du Saguenay","agencyUrl":"http://ville.saguenay.ca/fr/services-aux-citoyens/transport-sts","agencyTimeZoneOffset":-14400000,"routeColor":"C0C000","routeType":3,"routeId":"1:14","routeTextColor":"000000","interlineWithPreviousLeg":false,"tripBlockId":"31","headsign":"Terminus Chicoutimi","agencyId":"0","tripId":"1:218133","serviceDate":"20180402","from":{"name":"Jolliet / Audet","stopId":"1:522","stopCode":"522","lon":-71.07278,"lat":48.420244,"arrival":1522686312000,"departure":1522686313000,"zoneId":"NA","stopIndex":27,"stopSequence":28,"vertexType":"TRANSIT"},"to":{"name":"Jacques-Cartier / Morin","stopId":"1:1930","stopCode":"1930","lon":-71.065007,"lat":48.426603,"arrival":1522687012000,"departure":1522687013000,"zoneId":"NA","stopIndex":36,"stopSequence":37,"vertexType":"TRANSIT"},"legGeometry":{"points":"ibpfHdkxpLZeAa@SyEQg@CPcALuCx@{b@t@{[XoDd@sBl@iB~@gA`G{F{A{D_@sBFqDOq@iG{FGIoCkCgBgBsDpLHzBBT`@~COnBQf@gAjAg@bBuDmDmFgFa@_@w@s@CfAOrBEtAGbA?jBQtC?|@ExKMdIG~EUnL","length":45},"routeShortName":"14","routeLongName":"Coopérative","rentedBike":false,"transitLeg":true,"duration":699.0,"steps":[]},{"startTime":1522687013000,"endTime":1522687150000,"departureDelay":0,"arrivalDelay":0,"realTime":false,"distance":177.949,"pathway":false,"mode":"WALK","route":"","agencyTimeZoneOffset":-14400000,"interlineWithPreviousLeg":false,"from":{"name":"Jacques-Cartier / Morin","stopId":"1:1930","stopCode":"1930","lon":-71.065007,"lat":48.426603,"arrival":1522687012000,"departure":1522687013000,"zoneId":"NA","stopIndex":36,"stopSequence":37,"vertexType":"TRANSIT"},"to":{"name":"Destination","lon":-71.067442,"lat":48.426446,"arrival":1522687150000,"orig":"","vertexType":"NORMAL"},"legGeometry":{"points":"{hqfHj{vpLEvCKdEC`AA~@","length":5},"rentedBike":false,"transitLeg":false,"duration":137.0,"steps":[{"distance":177.949,"relativeDirection":"DEPART","streetName":"Rue Jacques-Cartier Est","absoluteDirection":"WEST","stayOn":false,"area":false,"bogusName":false,"lon":-71.06501225432459,"lat":48.42654615659386,"elevation":[]}]}],"tooSloped":false}]},"debugOutput":{"precalculationTime":59,"pathCalculationTime":32,"pathTimes":[17,6,9],"renderingTime":2,"totalTime":93,"timedOut":false},"elevationMetadata":{"ellipsoidToGeoidDifference":-28.885904201182168,"geoidElevation":false}}