{"requestParameters":{"date":"2018/04/02","walkSpeed":"1.33","walkReluctance":"2.0","fromPlace":"48.429591,-71.096021","maxWalkDistance":"3000","waitReluctance":"1.0","carSpeed":"33","numItineraries":"3","waitAtBeginningFactor":"0.4","mode":"TRANSIT,WALK","ignoreRealtimeUpdates":"false","stairsReluctance":"2.0","toPlace":"48.399735,-71.102625","time":"7:0:00"},"plan":{"date":1522666800000,"from":{"name":"Origin","lon":-71.096021,"lat":48.429591,"orig":"","vertexType":"NORMAL"},"to":{"name":"Destination","lon":-71.102625,"lat":48.399735,"orig":"","vertexType":"NORMAL"},"itineraries":[{"duration":2218,"startTime":1522668138000,"endTime":1522670356000,"walkTime":1831,"transitTime":385,"waitingTime":2,"walkDistance":2388.339323304098,"walkLimitExceeded":false,"elevationLost":0.0,"elevationGained":0.0,"transfers":0,"legs":[{"startTime":1522668138000,"endTime":1522668325000,"departureDelay":0,"arrivalDelay":0,"realTime":false,"distance":243.816,"pathway":false,"mode":"WALK","route":"","agencyTimeZoneOffset":-14400000,"interlineWithPreviousLeg":false,"from":{"name":"Origin","lon":-71.096021,"lat":48.429591,"departure":1522668138000,"orig":"","vertexType":"NORMAL"},"to":{"name":"Dequen / Marguerite-Bourgeois","stopId":"1:604","stopCode":"604","lon":-71.0943,"lat":48.4278,"arrival":1522668325000,"departure":1522668326000,"zoneId":"NA","stopIndex":18,"stopSequence":19,"vertexType":"TRANSIT"},"legGeometry":{"points":"y{qfHd||pLl@FtD}AxAcCh@aADO","length":6},"rentedBike":false,"transitLeg":false,"duration":187.0,"steps":[{"distance":243.816,"relativeDirection":"DEPART","streetName":"Rue De Quen","absoluteDirection":"SOUTH","stayOn":false,"area":false,"bogusName":false,"lon":-71.09586254386706,"lat":48.42957867565313,"elevation":[]}]},{"startTime":1522668326000,"endTime":1522668711000,"departureDelay":0,"arrivalDelay":0,"realTime":false,"distance":2354.841849846661,"pathway":false,"mode":"BUS","route":"16","agencyName":"Société de Transport du Saguenay","agencyUrl":"http://ville.saguenay.ca/fr/services-aux-citoyens/transport-sts","agencyTimeZoneOffset":-14400000,"routeColor":"00FF00","routeType":3,"routeId":"1:16","routeTextColor":"000000","interlineWithPreviousLeg":false,"tripBlockId":"37","headsign":"Faubourg Sagamie","agencyId":"0","tripId":"1:218304","serviceDate":"20180402","from":{"name":"Dequen / Marguerite-Bourgeois","stopId":"1:604","stopCode":"604","lon":-71.0943,"lat":48.4278,"arrival":1522668325000,"departure":1522668326000,"zoneId":"NA","stopIndex":18,"stopSequence":19,"vertexType":"TRANSIT"},"to":{"name":"Sentier Panoramique","stopId":"1:466","stopCode":"466","lon":-71.109918,"lat":48.412835,"arrival":1522668711000,"departure":1522668712000,"zoneId":"NA","stopIndex":27,"stopSequence":28,"vertexType":"TRANSIT"},"legGeometry":{"points":"kpqfHvr|pLg@tAr@r@h@^jA\\\\Nt@\\PHf@RVDXEROR[p@iBr@uBJQLIDCNEr@lERbBFzA@LFbFN`A^r@bB|AlC`BDBz@t@eAjD|@x@~AxAxB`BbAiDjCzB|ApAvAZbAo@|@cDf@gB~DbA~Cr@fNtNZ\\nCbDl@jBZrB\\`Dx@tIbB|K","length":51},"routeShortName":"16","routeLongName":"Côte de la Réserve","rentedBike":false,"transitLeg":true,"duration":385.0,"steps":[]},{"startTime":1522668712000,"endTime":1522670356000,"departureDelay":0,"arrivalDelay":0,"realTime":false,"distance":2144.394,"pathway":false,"mode":"WALK","route":"","agencyTimeZoneOffset":-14400000,"interlineWithPreviousLeg":false,"from":{"name":"Sentier Panoramique","stopId":"1:466","stopCode":"466","lon":-71.109918,"lat":48.412835,"arrival":1522668711000,"departure":1522668712000,"zoneId":"NA","stopIndex":27,"stopSequence":28,"vertexType":"TRANSIT"},"to":{"name":"Destination","lon":-71.102625,"lat":48.399735,"arrival":1522670356000,"orig":"","vertexType":"NORMAL"},"legGeometry":{"points":"urnfHxs_qLIs@Ii@s@}FQoA|As@`FwBvDcBdF{BnGoCrCoBhCkD|AgDn@sCLi@p@kCjCoJt@iBr@mBhB{EpA~AbAjAf@h@z@dA~@dAf@j@HJvA`BLNf@l@hAnAvAbBxAdBFFd@h@NPPRBDr@v@","length":39},"rentedBike":false,"transitLeg":false,"duration":1644.0,"steps":[{"distance":165.518,"relativeDirection":"DEPART","streetName":"Chemin de la Réserve","absoluteDirection":"EAST","stayOn":false,"area":false,"bogusName":false,"lon":-71.10988596599562,"lat":48.412758944454424,"elevation":[]},{"distance":1359.7250000000001,"relativeDirection":"RIGHT","streetName":"Boulevard Barrette","absoluteDirection":"SOUTH","stayOn":false,"area":false,"bogusName":false,"lon":-71.1077458,"lat":48.413203300000006,"elevation":[]},{"distance":619.151,"relativeDirection":"RIGHT","streetName":"Boulevard Saint-Paul","absoluteDirection":"SOUTHWEST","stayOn":false,"area":false,"bogusName":false,"lon":-71.0971116,"lat":48.4039529,"elevation":[]}]}],"tooSloped":false},{"duration":2495,"startTime":1522668025000,"endTime":1522670520000,"walkTime":830,"transitTime":1663,"waitingTime":2,"walkDistance":1066.4410827024728,"walkLimitExceeded":false,"elevationLost":0.0,"elevationGained":0.0,"transfers":0,"legs":[{"startTime":1522668025000,"endTime":1522668784000,"departureDelay":0,"arrivalDelay":0,"realTime":false,"distance":977.77,"pathway":false,"mode":"WALK","route":"","agencyTimeZoneOffset":-14400000,"interlineWithPreviousLeg":false,"from":{"name":"Origin","lon":-71.096021,"lat":48.429591,"departure":1522668025000,"orig":"","vertexType":"NORMAL"},"to":{"name":"ch. de la Réserve / Albanel","stopId":"1:623","stopCode":"623","lon":-71.0885,"lat":48.4237,"arrival":1522668784000,"departure":1522668785000,"zoneId":"NA","stopIndex":28,"stopSequence":29,"vertexType":"TRANSIT"},"legGeometry":{"points":"y{qfHd||pLl@FtD}AxAcCh@aADOf@wAPc@|DeLBKlAiDvA_EL_@|@gC~C|CfA_DRi@^eATf@??","length":20},"rentedBike":false,"transitLeg":false,"duration":759.0,"steps":[{"distance":729.8240000000001,"relativeDirection":"DEPART","streetName":"Rue De Quen","absoluteDirection":"SOUTH","stayOn":false,"area":false,"bogusName":false,"lon":-71.09586254386706,"lat":48.42957867565313,"elevation":[]},{"distance":107.137,"relativeDirection":"RIGHT","streetName":"Rue Émile Grouard","absoluteDirection":"SOUTHWEST","stayOn":false,"area":false,"bogusName":false,"lon":-71.08892230000001,"lat":48.425276100000005,"elevation":[]},{"distance":121.227,"relativeDirection":"LEFT","streetName":"Rue Albanel","absoluteDirection":"SOUTHEAST","stayOn":false,"area":false,"bogusName":false,"lon":-71.089719,"lat":48.42447060000001,"elevation":[]},{"distance":19.582,"relativeDirection":"RIGHT","streetName":"Chemin de la Réserve","absoluteDirection":"SOUTHWEST","stayOn":false,"area":false,"bogusName":false,"lon":-71.0883591,"lat":48.423858900000006,"elevation":[]}]},{"startTime":1522668785000,"endTime":1522669260000,"departureDelay":0,"arrivalDelay":0,"realTime":false,"distance":2160.2166227334155,"pathway":false,"mode":"BUS","route":"16","agencyName":"Société de Transport du Saguenay","agencyUrl":"http://ville.saguenay.ca/fr/services-aux-citoyens/transport-sts","agencyTimeZoneOffset":-14400000,"routeColor":"00FF00","routeType":3,"routeId":"1:16","routeTextColor":"000000","interlineWithPreviousLeg":false,"tripBlockId":"35","headsign":"Terminus Chicoutimi","agencyId":"0","tripId":"1:218243","serviceDate":"20180402","from":{"name":"ch. de la Réserve / Albanel","stopId":"1:623","stopCode":"623","lon":-71.0885,"lat":48.4237,"arrival":1522668784000,"departure":1522668785000,"zoneId":"NA","stopIndex":28,"stopSequence":29,"vertexType":"TRANSIT"},"to":{"name":"Terminus Chicoutimi","stopId":"1:1289","stopCode":"1289","lon":-71.066163,"lat":48.428677,"arrival":1522669260000,"departure":1522669500000,"zoneId":"NA","stopIndex":35,"stopSequence":36,"vertexType":"TRANSIT"},"legGeometry":{"points":"wwpfHzn{pLqBsFQ_@wA_DyAaD_AoBQ[sAuC{@sBeCcGqAwC[g@]a@aAw@[_@cA}A_@w@GU[iDWaDzByCv@cA`@e@TSp@g@nAo@nBm@ZSf@c@PMb@[b@_@b@e@PYP]N_@La@P{@NcB@IBcAG_A{@sEEg@oAP}@DiBDFeBMa@iBCq@FmBPFcEDoBNiHyDWN_HBoA@Y@m@","length":60},"routeShortName":"16","routeLongName":"Côte de la Réserve","rentedBike":false,"transitLeg":true,"duration":475.0,"steps":[]},{"startTime":1522669500000,"endTime":1522670448000,"departureDelay":0,"arrivalDelay":0,"realTime":false,"distance":4890.775350185287,"pathway":false,"mode":"BUS","route":"11","agencyName":"Société de Transport du Saguenay","agencyUrl":"http://ville.saguenay.ca/fr/services-aux-citoyens/transport-sts","agencyTimeZoneOffset":-14400000,"routeColor":"FF0000","routeType":3,"routeId":"1:11","routeTextColor":"FFFFFF","interlineWithPreviousLeg":true,"tripBlockId":"35","headsign":"Boul.Royaume/St-Pierre","agencyId":"0","tripId":"1:218244","serviceDate":"20180402","from":{"name":"Terminus Chicoutimi","stopId":"1:1289","stopCode":"1289","lon":-71.066163,"lat":48.428677,"arrival":1522669260000,"departure":1522669500000,"zoneId":"NA","stopIndex":0,"stopSequence":1,"vertexType":"TRANSIT"},"to":{"name":"boul. St-Paul / Actionnaires","stopId":"1:262","stopCode":"262","lon":-71.101542,"lat":48.400192,"arrival":1522670448000,"departure":1522670449000,"zoneId":"NA","stopIndex":18,"stopSequence":19,"vertexType":"TRANSIT"},"legGeometry":{"points":"evqfHzcwpLk@?UhKfIh@dKp@GnDIfDOtEE~@Ff@x@rEF~@CbAALO~ADRNJXBr@DfGRPBPJLN@@FPFTBX?TE`BhBR@?J@NELKFOlAiDL[bA`AfIjIbGdGzDzD`A~An@`ApApBpClEvJrOR\\bAfBLa@t@]LjAVvAVbAVv@^bAXj@b@t@xEtGh@r@n@x@FDjA|AlBpCnJ|NNTX`@V`@eCtHpFjH{FhPcB|Ft@|CEAdCnEdHKrBz@lGiQ|CyI~IrJtAzAmKrWsE`LzJjL|P}d@","length":84},"routeShortName":"11","routeLongName":"Chic/Faubourg via St-Paul","rentedBike":false,"transitLeg":true,"duration":948.0,"steps":[]},{"startTime":1522670449000,"endTime":1522670520000,"departureDelay":0,"arrivalDelay":0,"realTime":false,"distance":88.538,"pathway":false,"mode":"WALK","route":"","agencyTimeZoneOffset":-14400000,"interlineWithPreviousLeg":false,"from":{"name":"boul. St-Paul / Actionnaires","stopId":"1:262","stopCode":"262","lon":-71.101542,"lat":48.400192,"arrival":1522670448000,"departure":1522670449000,"zoneId":"NA","stopIndex":18,"stopSequence":19,"vertexType":"TRANSIT"},"to":{"name":"Destination","lon":-71.102625,"lat":48.399735,"arrival":1522670520000,"orig":"","vertexType":"NORMAL"},"legGeometry":{"points":"wclfHz~}pLd@h@NPPRBDr@v@","length":6},"rentedBike":false,"transitLeg":false,"duration":71.0,"steps":[{"distance":88.538,"relativeDirection":"DEPART","streetName":"Boulevard Saint-Paul","absoluteDirection":"SOUTHWEST","stayOn":false,"area":false,"bogusName":false,"lon":-71.1014117905321,"lat":48.40012934207119,"elevation":[]}]}],"tooSloped":false},{"duration":2495,"startTime":1522669825000,"endTime":1522672320000,"walkTime":830,"transitTime":1663,"waitingTime":2,"walkDistance":1066.4410827024728,"walkLimitExceeded":false,"elevationLost":0.0,"elevationGained":0.0,"transfers":0,"legs":[{"startTime":1522669825000,"endTime":1522670584000,"departureDelay":0,"arrivalDelay":0,"realTime":false,"distance":977.77,"pathway":false,"mode":"WALK","route":"","agencyTimeZoneOffset":-14400000,"interlineWithPreviousLeg":false,"from":{"name":"Origin","lon":-71.096021,"lat":48.429591,"departure":1522669825000,"orig":"","vertexType":"NORMAL"},"to":{"name":"ch. de la Réserve / Albanel","stopId":"1:623","stopCode":"623","lon":-71.0885,"lat":48.4237,"arrival":1522670584000,"departure":1522670585000,"zoneId":"NA","stopIndex":28,"stopSequence":29,"vertexType":"TRANSIT"},"legGeometry":{"points":"y{qfHd||pLl@FtD}AxAcCh@aADOf@wAPc@|DeLBKlAiDvA_EL_@|@gC~C|CfA_DRi@^eATf@??","length":20},"rentedBike":false,"transitLeg":false,"duration":759.0,"steps":[{"distance":729.8240000000001,"relativeDirection":"DEPART","streetName":"Rue De Quen","absoluteDirection":"SOUTH","stayOn":false,"area":false,"bogusName":false,"lon":-71.09586254386706,"lat":48.42957867565313,"elevation":[]},{"distance":107.137,"relativeDirection":"RIGHT","streetName":"Rue Émile Grouard","absoluteDirection":"SOUTHWEST","stayOn":false,"area":false,"bogusName":false,"lon":-71.08892230000001,"lat":48.425276100000005,"elevation":[]},{"distance":121.227,"relativeDirection":"LEFT","streetName":"Rue Albanel","absoluteDirection":"SOUTHEAST","stayOn":false,"area":false,"bogusName":false,"lon":-71.089719,"lat":48.42447060000001,"elevation":[]},{"distance":19.582,"relativeDirection":"RIGHT","streetName":"Chemin de la Réserve","absoluteDirection":"SOUTHWEST","stayOn":false,"area":false,"bogusName":false,"lon":-71.0883591,"lat":48.423858900000006,"elevation":[]}]},{"startTime":1522670585000,"endTime":1522671060000,"departureDelay":0,"arrivalDelay":0,"realTime":false,"distance":2160.2166227334155,"pathway":false,"mode":"BUS","route":"16","agencyName":"Société de Transport du Saguenay","agencyUrl":"http://ville.saguenay.ca/fr/services-aux-citoyens/transport-sts","agencyTimeZoneOffset":-14400000,"routeColor":"00FF00","routeType":3,"routeId":"1:16","routeTextColor":"000000","interlineWithPreviousLeg":false,"tripBlockId":"37","headsign":"Terminus Chicoutimi","agencyId":"0","tripId":"1:218305","serviceDate":"20180402","from":{"name":"ch. de la Réserve / Albanel","stopId":"1:623","stopCode":"623","lon":-71.0885,"lat":48.4237,"arrival":1522670584000,"departure":1522670585000,"zoneId":"NA","stopIndex":28,"stopSequence":29,"vertexType":"TRANSIT"},"to":{"name":"Terminus Chicoutimi","stopId":"1:1289","stopCode":"1289","lon":-71.066163,"lat":48.428677,"arrival":1522671060000,"departure":1522671300000,"zoneId":"NA","stopIndex":35,"stopSequence":36,"vertexType":"TRANSIT"},"legGeometry":{"points":"wwpfHzn{pLqBsFQ_@wA_DyAaD_AoBQ[sAuC{@sBeCcGqAwC[g@]a@aAw@[_@cA}A_@w@GU[iDWaDzByCv@cA`@e@TSp@g@nAo@nBm@ZSf@c@PMb@[b@_@b@e@PYP]N_@La@P{@NcB@IBcAG_A{@sEEg@oAP}@DiBDFeBMa@iBCq@FmBPFcEDoBNiHyDWN_HBoA@Y@m@","length":60},"routeShortName":"16","routeLongName":"Côte de la Réserve","rentedBike":false,"transitLeg":true,"duration":475.0,"steps":[]},{"startTime":1522671300000,"endTime":1522672248000,"departureDelay":0,"arrivalDelay":0,"realTime":false,"distance":4890.775350185287,"pathway":false,"mode":"BUS","route":"11","agencyName":"Société de Transport du Saguenay","agencyUrl":"http://ville.saguenay.ca/fr/services-aux-citoyens/transport-sts","agencyTimeZoneOffset":-14400000,"routeColor":"FF0000","routeType":3,"routeId":"1:11","routeTextColor":"FFFFFF","interlineWithPreviousLeg":true,"tripBlockId":"37","headsign":"Boul.Royaume/St-Pierre","agencyId":"0","tripId":"1:218306","serviceDate":"20180402","from":{"name":"Terminus Chicoutimi","stopId":"1:1289","stopCode":"1289","lon":-71.066163,"lat":48.428677,"arrival":1522671060000,"departure":1522671300000,"zoneId":"NA","stopIndex":0,"stopSequence":1,"vertexType":"TRANSIT"},"to":{"name":"boul. St-Paul / Actionnaires","stopId":"1:262","stopCode":"262","lon":-71.101542,"lat":48.400192,"arrival":1522672248000,"departure":1522672249000,"zoneId":"NA","stopIndex":18,"stopSequence":19,"vertexType":"TRANSIT"},"legGeometry":{"points":"evqfHzcwpLk@?UhKfIh@dKp@GnDIfDOtEE~@Ff@x@rEF~@CbAALO~ADRNJXBr@DfGRPBPJLN@@FPFTBX?TE`BhBR@?J@NELKFOlAiDL[bA`AfIjIbGdGzDzD`A~An@`ApApBpClEvJrOR\\bAfBLa@t@]LjAVvAVbAVv@^bAXj@b@t@xEtGh@r@n@x@FDjA|AlBpCnJ|NNTX`@V`@eCtHpFjH{FhPcB|Ft@|CEAdCnEdHKrBz@lGiQ|CyI~IrJtAzAmKrWsE`LzJjL|P}d@","length":84},"routeShortName":"11","routeLongName":"Chic/Faubourg via St-Paul","rentedBike":false,"transitLeg":true,"duration":948.0,"steps":[]},{"startTime":1522672249000,"endTime":1522672320000,"departureDelay":0,"arrivalDelay":0,"realTime":false,"distance":88.538,"pathway":false,"mode":"WALK","route":"","agencyTimeZoneOffset":-14400000,"interlineWithPreviousLeg":false,"from":{"name":"boul. St-Paul / Actionnaires","stopId":"1:262","stopCode":"262","lon":-71.101542,"lat":48.400192,"arrival":1522672248000,"departure":1522672249000,"zoneId":"NA","stopIndex":18,"stopSequence":19,"vertexType":"TRANSIT"},"to":{"name":"Destination","lon":-71.102625,"lat":48.399735,"arrival":1522672320000,"orig":"","vertexType":"NORMAL"},"legGeometry":{"points":"wclfHz~}pLd@h@NPPRBDr@v@","length":6},"rentedBike":false,"transitLeg":false,"duration":71.0,"steps":[{"distance":88.538,"relativeDirection":"DEPART","streetName":"Boulevard Saint-Paul","absoluteDirection":"SOUTHWEST","stayOn":false,"area":false,"bogusName":false,"lon":-71.1014117905321,"lat":48.40012934207119,"elevation":[]}]}],"tooSloped":false}]},"debugOutput":{"precalculationTime":14,"pathCalculationTime":22,"pathTimes":[15,4,3],"renderingTime":1,"totalTime":37,"timedOut":false},"elevationMetadata":{"ellipsoidToGeoidDifference":-28.885904201182168,"geoidElevation":false}}