{"requestParameters":{"date":"2018/04/02","walkSpeed":"1.33","walkReluctance":"2.0","fromPlace":"48.39971,-71.075443","maxWalkDistance":"3000","waitReluctance":"1.0","carSpeed":"33","numItineraries":"3","waitAtBeginningFactor":"0.4","mode":"TRANSIT,WALK","ignoreRealtimeUpdates":"false","stairsReluctance":"2.0","toPlace":"48.416289,-71.05181899","time":"9:30:00"},"plan":{"date":1522675800000,"from":{"name":"Origin","lon":-71.075443,"lat":48.39971,"orig":"","vertexType":"NORMAL"},"to":{"name":"Destination","lon":-71.05181899,"lat":48.416289,"orig":"","vertexType":"NORMAL"},"itineraries":[{"duration":1499,"startTime":1522676210000,"endTime":1522677709000,"walkTime":1048,"transitTime":449,"waitingTime":2,"walkDistance":1351.112218039072,"walkLimitExceeded":false,"elevationLost":0.0,"elevationGained":0.0,"transfers":0,"legs":[{"startTime":1522676210000,"endTime":1522677059000,"departureDelay":0,"arrivalDelay":0,"realTime":false,"distance":1095.669,"pathway":false,"mode":"WALK","route":"","agencyTimeZoneOffset":-14400000,"interlineWithPreviousLeg":false,"from":{"name":"Origin","lon":-71.075443,"lat":48.39971,"departure":1522676210000,"orig":"","vertexType":"NORMAL"},"to":{"name":"boul. Talbot / boul. Barrette","stopId":"1:49","stopCode":"49","lon":-71.069502,"lat":48.394497,"arrival":1522677059000,"departure":1522677060000,"zoneId":"NA","stopIndex":7,"stopSequence":8,"vertexType":"TRANSIT"},"legGeometry":{"points":"calfHl|xpL\\LnCvCtAmDv@`Ax@bAxB|BtAnAZgAfB{GhAsEFSd@eBVm@x@yB|EgMPc@}BmC","length":18},"rentedBike":false,"transitLeg":false,"duration":849.0,"steps":[{"distance":114.851,"relativeDirection":"DEPART","streetName":"Rue de la Place Royale","absoluteDirection":"SOUTH","stayOn":false,"area":false,"bogusName":false,"lon":-71.0754262045918,"lat":48.39970664990208,"elevation":[]},{"distance":80.599,"relativeDirection":"LEFT","streetName":"Rue des Vingt-et-Un","absoluteDirection":"SOUTHEAST","stayOn":false,"area":false,"bogusName":false,"lon":-71.0762516,"lat":48.3988389,"elevation":[]},{"distance":219.137,"relativeDirection":"RIGHT","streetName":"Rue des Cent-Associés","absoluteDirection":"SOUTHWEST","stayOn":false,"area":false,"bogusName":false,"lon":-71.0753823,"lat":48.3984004,"elevation":[]},{"distance":593.355,"relativeDirection":"LEFT","streetName":"Boulevard Barrette","absoluteDirection":"SOUTHEAST","stayOn":false,"area":false,"bogusName":false,"lon":-71.07708930000001,"lat":48.396790800000005,"elevation":[]},{"distance":87.727,"relativeDirection":"LEFT","streetName":"Boulevard Talbot","absoluteDirection":"NORTHEAST","stayOn":false,"area":false,"bogusName":false,"lon":-71.0703318,"lat":48.3939238,"elevation":[]}]},{"startTime":1522677060000,"endTime":1522677509000,"departureDelay":0,"arrivalDelay":0,"realTime":false,"distance":2795.7699242174217,"pathway":false,"mode":"BUS","route":"175","agencyName":"Société de Transport du Saguenay","agencyUrl":"http://ville.saguenay.ca/fr/services-aux-citoyens/transport-sts","agencyTimeZoneOffset":-14400000,"routeColor":"FF00FF","routeType":3,"routeId":"1:175","routeTextColor":"FFFFFF","interlineWithPreviousLeg":false,"tripBlockId":"10","headsign":"Terminus Chicoutimi","agencyId":"0","tripId":"1:217433","serviceDate":"20180402","from":{"name":"boul. Talbot / boul. Barrette","stopId":"1:49","stopCode":"49","lon":-71.069502,"lat":48.394497,"arrival":1522677059000,"departure":1522677060000,"zoneId":"NA","stopIndex":7,"stopSequence":8,"vertexType":"TRANSIT"},"to":{"name":"Polyclinique du Saguenay (boul. Université)","stopId":"1:61","stopCode":"61","lon":-71.053728,"lat":48.415424,"arrival":1522677509000,"departure":1522677510000,"zoneId":"NA","stopIndex":13,"stopSequence":14,"vertexType":"TRANSIT"},"legGeometry":{"points":"aakfHlxwpLiAoAgEsFkFsHqJ_N}FkImPkOuO{N_U_TcNgNcBcB{E`Jc@x@qG~@{BlA","length":15},"routeShortName":"175","routeLongName":"Term. Chic / Costco","rentedBike":false,"transitLeg":true,"duration":449.0,"steps":[]},{"startTime":1522677510000,"endTime":1522677709000,"departureDelay":0,"arrivalDelay":0,"realTime":false,"distance":255.25599999999997,"pathway":false,"mode":"WALK","route":"","agencyTimeZoneOffset":-14400000,"interlineWithPreviousLeg":false,"from":{"name":"Polyclinique du Saguenay (boul. Université)","stopId":"1:61","stopCode":"61","lon":-71.053728,"lat":48.415424,"arrival":1522677509000,"departure":1522677510000,"zoneId":"NA","stopIndex":13,"stopSequence":14,"vertexType":"TRANSIT"},"to":{"name":"Destination","lon":-71.05181899,"lat":48.416289,"arrival":1522677709000,"orig":"","vertexType":"NORMAL"},"legGeometry":{"points":"gcofHbutpLaBvAKHAAGM_@sAwAiF?UIe@Ik@","length":10},"rentedBike":false,"transitLeg":false,"duration":199.0,"steps":[{"distance":71.131,"relativeDirection":"DEPART","streetName":"Boulevard de l'Université","absoluteDirection":"NORTHWEST","stayOn":false,"area":false,"bogusName":false,"lon":-71.05377815383544,"lat":48.415404134793874,"elevation":[]},{"distance":143.079,"relativeDirection":"RIGHT","streetName":"path","absoluteDirection":"NORTHEAST","stayOn":false,"area":false,"bogusName":true,"lon":-71.0542688,"lat":48.4159547,"elevation":[]},{"distance":41.046,"relativeDirection":"CONTINUE","streetName":"Rue des Étudiants","absoluteDirection":"EAST","stayOn":false,"area":false,"bogusName":false,"lon":-71.05259620000001,"lat":48.416600700000004,"elevation":[]}]}],"tooSloped":false},{"duration":1725,"startTime":1522676470000,"endTime":1522678195000,"walkTime":871,"transitTime":852,"waitingTime":2,"walkDistance":1114.7419022504473,"walkLimitExceeded":false,"elevationLost":0.0,"elevationGained":0.0,"transfers":0,"legs":[{"startTime":1522676470000,"endTime":1522676807000,"departureDelay":0,"arrivalDelay":0,"realTime":false,"distance":436.41200000000003,"pathway":false,"mode":"WALK","route":"","agencyTimeZoneOffset":-14400000,"interlineWithPreviousLeg":false,"from":{"name":"Origin","lon":-71.075443,"lat":48.39971,"departure":1522676470000,"orig":"","vertexType":"NORMAL"},"to":{"name":"Bégin / St-Urbain","stopId":"1:450","stopCode":"450","lon":-71.076619,"lat":48.402909,"arrival":1522676807000,"departure":1522676808000,"zoneId":"NA","stopIndex":14,"stopSequence":15,"vertexType":"TRANSIT"},"legGeometry":{"points":"calfHl|xpL{@Y}A_@uBJk@IOM{AkAM^{@dCk@zAc@bAy@bA","length":12},"rentedBike":false,"transitLeg":false,"duration":337.0,"steps":[{"distance":247.63600000000002,"relativeDirection":"DEPART","streetName":"Rue de la Place Royale","absoluteDirection":"NORTH","stayOn":false,"area":false,"bogusName":false,"lon":-71.0754262045918,"lat":48.39970664990208,"elevation":[]},{"distance":188.776,"relativeDirection":"LEFT","streetName":"Rue Saint-Urbain","absoluteDirection":"NORTHWEST","stayOn":false,"area":false,"bogusName":false,"lon":-71.07469180000001,"lat":48.401827600000004,"elevation":[]}]},{"startTime":1522676808000,"endTime":1522677660000,"departureDelay":0,"arrivalDelay":0,"realTime":false,"distance":4021.735082674694,"pathway":false,"mode":"BUS","route":"14","agencyName":"Société de Transport du Saguenay","agencyUrl":"http://ville.saguenay.ca/fr/services-aux-citoyens/transport-sts","agencyTimeZoneOffset":-14400000,"routeColor":"C0C000","routeType":3,"routeId":"1:14","routeTextColor":"000000","interlineWithPreviousLeg":false,"tripBlockId":"33","headsign":"Terminus Chicoutimi","agencyId":"0","tripId":"1:218178","serviceDate":"20180402","from":{"name":"Bégin / St-Urbain","stopId":"1:450","stopCode":"450","lon":-71.076619,"lat":48.402909,"arrival":1522676807000,"departure":1522676808000,"zoneId":"NA","stopIndex":14,"stopSequence":15,"vertexType":"TRANSIT"},"to":{"name":"Terminus UQAC","stopId":"1:1670","stopCode":"1670","lon":-71.053369,"lat":48.420903,"arrival":1522677660000,"departure":1522677661000,"zoneId":"NA","stopIndex":29,"stopSequence":30,"vertexType":"TRANSIT"},"legGeometry":{"points":"mulfHhdypLgEyHCGy@uB}@rAa@nAc@lFEf@mGvUYfAqCs@ICMCqFmDc@s@mAkBuEoESUgAhDiAfD}@zDyAcA_@Um@U{AWgB_Au@s@EEsBkCqFgF{IiI][aBhE}@}@oBmBwE{EwE{Ej@mBZeAa@SyEQg@CPcALuCx@{b@t@{[XoDd@sBl@iB~@gA`G{F{A{D_@sBFqDOq@iG{F","length":56},"routeShortName":"14","routeLongName":"Coopérative","rentedBike":false,"transitLeg":true,"duration":852.0,"steps":[]},{"startTime":1522677661000,"endTime":1522678195000,"departureDelay":0,"arrivalDelay":0,"realTime":false,"distance":678.1690000000001,"pathway":false,"mode":"WALK","route":"","agencyTimeZoneOffset":-14400000,"interlineWithPreviousLeg":false,"from":{"name":"Terminus UQAC","stopId":"1:1670","stopCode":"1670","lon":-71.053369,"lat":48.420903,"arrival":1522677660000,"departure":1522677661000,"zoneId":"NA","stopIndex":29,"stopSequence":30,"vertexType":"TRANSIT"},"to":{"name":"Destination","lon":-71.05181899,"lat":48.416289,"arrival":1522678195000,"orig":"","vertexType":"NORMAL"},"legGeometry":{"points":"sepfHrrtpLbA`ATq@f@wAd@wATs@X{@p@YTI`AbAxAxAh@j@ZNtDrDdA_CNSlAaB?UIe@Ik@","length":20},"rentedBike":false,"transitLeg":false,"duration":534.0,"steps":[{"distance":236.573,"relativeDirection":"DEPART","streetName":"service road","absoluteDirection":"SOUTHWEST","stayOn":false,"area":false,"bogusName":true,"lon":-71.0533724395415,"lat":48.420904465432976,"elevation":[]},{"distance":271.004,"relativeDirection":"RIGHT","streetName":"Rue de la Fondation","absoluteDirection":"SOUTHWEST","stayOn":false,"area":false,"bogusName":false,"lon":-71.0518321,"lat":48.419468900000005,"elevation":[]},{"distance":129.546,"relativeDirection":"LEFT","streetName":"Rue des Étudiants","absoluteDirection":"SOUTHEAST","stayOn":false,"area":false,"bogusName":false,"lon":-71.05382350000001,"lat":48.417425900000005,"elevation":[]},{"distance":41.046,"relativeDirection":"LEFT","streetName":"Rue des Étudiants","absoluteDirection":"EAST","stayOn":true,"area":false,"bogusName":false,"lon":-71.05259620000001,"lat":48.416600700000004,"elevation":[]}]}],"tooSloped":false},{"duration":1607,"startTime":1522676588000,"endTime":1522678195000,"walkTime":1166,"transitTime":439,"waitingTime":2,"walkDistance":1486.7800075106334,"walkLimitExceeded":false,"elevationLost":0.0,"elevationGained":0.0,"transfers":0,"legs":[{"startTime":1522676588000,"endTime":1522677220000,"departureDelay":0,"arrivalDelay":0,"realTime":false,"distance":808.3580000000001,"pathway":false,"mode":"WALK","route":"","agencyTimeZoneOffset":-14400000,"interlineWithPreviousLeg":false,"from":{"name":"Origin","lon":-71.075443,"lat":48.39971,"departure":1522676588000,"orig":"","vertexType":"NORMAL"},"to":{"name":"Angoulême / Bégin","stopId":"1:53","stopCode":"53","lon":-71.073604,"lat":48.405143,"arrival":1522677220000,"departure":1522677221000,"zoneId":"NA","stopIndex":18,"stopSequence":19,"vertexType":"TRANSIT"},"legGeometry":{"points":"calfHl|xpL{@Y}A_@uBJk@IOM{AkAM^{@dCk@zAc@bAy@bAMNe@{@gA}BwAyC_AmBIUYs@CqAyBB@W","length":22},"rentedBike":false,"transitLeg":false,"duration":632.0,"steps":[{"distance":247.63600000000002,"relativeDirection":"DEPART","streetName":"Rue de la Place Royale","absoluteDirection":"NORTH","stayOn":false,"area":false,"bogusName":false,"lon":-71.0754262045918,"lat":48.39970664990208,"elevation":[]},{"distance":198.84300000000002,"relativeDirection":"LEFT","streetName":"Rue Saint-Urbain","absoluteDirection":"NORTHWEST","stayOn":false,"area":false,"bogusName":false,"lon":-71.07469180000001,"lat":48.401827600000004,"elevation":[]},{"distance":285.025,"relativeDirection":"RIGHT","streetName":"Rue Bégin","absoluteDirection":"NORTHEAST","stayOn":false,"area":false,"bogusName":false,"lon":-71.0767486,"lat":48.402957,"elevation":[]},{"distance":67.789,"relativeDirection":"LEFT","streetName":"Rue d'Angoulème","absoluteDirection":"NORTH","stayOn":false,"area":false,"bogusName":false,"lon":-71.0737143,"lat":48.404464100000006,"elevation":[]},{"distance":9.065,"relativeDirection":"RIGHT","streetName":"Rue R. E. Joron","absoluteDirection":"EAST","stayOn":false,"area":false,"bogusName":false,"lon":-71.073734,"lat":48.4050736,"elevation":[]}]},{"startTime":1522677221000,"endTime":1522677660000,"departureDelay":0,"arrivalDelay":0,"realTime":false,"distance":2510.6692756414473,"pathway":false,"mode":"BUS","route":"15","agencyName":"Société de Transport du Saguenay","agencyUrl":"http://ville.saguenay.ca/fr/services-aux-citoyens/transport-sts","agencyTimeZoneOffset":-14400000,"routeColor":"FF00FF","routeType":3,"routeId":"1:15","routeTextColor":"FFFFFF","interlineWithPreviousLeg":false,"tripBlockId":"32","headsign":"Terminus Chicoutimi","agencyId":"0","tripId":"1:218153","serviceDate":"20180402","from":{"name":"Angoulême / Bégin","stopId":"1:53","stopCode":"53","lon":-71.073604,"lat":48.405143,"arrival":1522677220000,"departure":1522677221000,"zoneId":"NA","stopIndex":18,"stopSequence":19,"vertexType":"TRANSIT"},"to":{"name":"Terminus UQAC","stopId":"1:1670","stopCode":"1670","lon":-71.053369,"lat":48.420903,"arrival":1522677660000,"departure":1522677661000,"zoneId":"NA","stopIndex":29,"stopSequence":30,"vertexType":"TRANSIT"},"legGeometry":{"points":"acmfH`rxpLw@FiG}@iDwAECcCcBo@y@sEeGe@o@qAa@m@MoB?C@}BZwAc@oA_Bs@gDCKZ{Di@QECc@_@sAkAoBwB_EcE{A_BoAmAk@o@cCaCkIkIaJaJUUwBaCj@wCjAsCzGoG_CoHL{D_@kAqD{CQr@iAcA","length":42},"routeShortName":"15","routeLongName":"Term. Chic / Costco","rentedBike":false,"transitLeg":true,"duration":439.0,"steps":[]},{"startTime":1522677661000,"endTime":1522678195000,"departureDelay":0,"arrivalDelay":0,"realTime":false,"distance":678.1690000000001,"pathway":false,"mode":"WALK","route":"","agencyTimeZoneOffset":-14400000,"interlineWithPreviousLeg":false,"from":{"name":"Terminus UQAC","stopId":"1:1670","stopCode":"1670","lon":-71.053369,"lat":48.420903,"arrival":1522677660000,"departure":1522677661000,"zoneId":"NA","stopIndex":29,"stopSequence":30,"vertexType":"TRANSIT"},"to":{"name":"Destination","lon":-71.05181899,"lat":48.416289,"arrival":1522678195000,"orig":"","vertexType":"NORMAL"},"legGeometry":{"points":"sepfHrrtpLbA`ATq@f@wAd@wATs@X{@p@YTI`AbAxAxAh@j@ZNtDrDdA_CNSlAaB?UIe@Ik@","length":20},"rentedBike":false,"transitLeg":false,"duration":534.0,"steps":[{"distance":236.573,"relativeDirection":"DEPART","streetName":"service road","absoluteDirection":"SOUTHWEST","stayOn":false,"area":false,"bogusName":true,"lon":-71.0533724395415,"lat":48.420904465432976,"elevation":[]},{"distance":271.004,"relativeDirection":"RIGHT","streetName":"Rue de la Fondation","absoluteDirection":"SOUTHWEST","stayOn":false,"area":false,"bogusName":false,"lon":-71.0518321,"lat":48.419468900000005,"elevation":[]},{"distance":129.546,"relativeDirection":"LEFT","streetName":"Rue des Étudiants","absoluteDirection":"SOUTHEAST","stayOn":false,"area":false,"bogusName":false,"lon":-71.05382350000001,"lat":48.417425900000005,"elevation":[]},{"distance":41.046,"relativeDirection":"LEFT","streetName":"Rue des Étudiants","absoluteDirection":"EAST","stayOn":true,"area":false,"bogusName":false,"lon":-71.05259620000001,"lat":48.416600700000004,"elevation":[]}]}],"tooSloped":false}]},"debugOutput":{"precalculationTime":42,"pathCalculationTime":35,"pathTimes":[21,6,8],"renderingTime":0,"totalTime":77,"timedOut":false},"elevationMetadata":{"ellipsoidToGeoidDifference":-28.885904201182168,"geoidElevation":false}}