{"requestParameters":{"date":"2018/04/02","walkSpeed":"1.33","walkReluctance":"2.0","fromPlace":"48.41759,-71.048305","maxWalkDistance":"3000","waitReluctance":"1.0","carSpeed":"33","numItineraries":"3","waitAtBeginningFactor":"0.4","mode":"TRANSIT,WALK","ignoreRealtimeUpdates":"false","stairsReluctance":"2.0","toPlace":"48.403878,-71.06054399","time":"7:55:00"},"plan":{"date":1522670100000,"from":{"name":"Origin","lon":-71.048305,"lat":48.41759,"orig":"","vertexType":"NORMAL"},"to":{"name":"Destination","lon":-71.06054399,"lat":48.403878,"orig":"","vertexType":"NORMAL"},"itineraries":[{"duration":1197,"startTime":1522670451000,"endTime":1522671648000,"walkTime":659,"transitTime":536,"waitingTime":2,"walkDistance":830.9308947317472,"walkLimitExceeded":false,"elevationLost":0.0,"elevationGained":0.0,"transfers":0,"legs":[{"startTime":1522670451000,"endTime":1522670939000,"departureDelay":0,"arrivalDelay":0,"realTime":false,"distance":610.516,"pathway":false,"mode":"WALK","route":"","agencyTimeZoneOffset":-14400000,"interlineWithPreviousLeg":false,"from":{"name":"Origin","lon":-71.048305,"lat":48.41759,"departure":1522670451000,"orig":"","vertexType":"NORMAL"},"to":{"name":"Terminus UQAC","stopId":"1:1670","stopCode":"1670","lon":-71.053369,"lat":48.420903,"arrival":1522670939000,"departure":1522670940000,"zoneId":"NA","stopIndex":11,"stopSequence":12,"vertexType":"TRANSIT"},"legGeometry":{"points":"qqofHltspLwAwACFOV[JUNa@fAk@|ACn@@^Gb@K^]pAYz@Wv@KVUr@Wv@BBa@hAYz@Ur@e@vAg@vAUp@cAaA","length":26},"rentedBike":false,"transitLeg":false,"duration":488.0,"steps":[{"distance":58.024,"relativeDirection":"DEPART","streetName":"Rue d'Alma","absoluteDirection":"NORTHEAST","stayOn":false,"area":false,"bogusName":false,"lon":-71.04854742910891,"lat":48.41769909333125,"elevation":[]},{"distance":552.492,"relativeDirection":"LEFT","streetName":"path","absoluteDirection":"NORTHWEST","stayOn":false,"area":false,"bogusName":true,"lon":-71.0481062,"lat":48.418131,"elevation":[]}]},{"startTime":1522670940000,"endTime":1522671476000,"departureDelay":0,"arrivalDelay":0,"realTime":false,"distance":3021.890611696156,"pathway":false,"mode":"BUS","route":"175","agencyName":"Société de Transport du Saguenay","agencyUrl":"http://ville.saguenay.ca/fr/services-aux-citoyens/transport-sts","agencyTimeZoneOffset":-14400000,"routeColor":"FF00FF","routeType":3,"routeId":"1:175","routeTextColor":"FFFFFF","interlineWithPreviousLeg":false,"tripBlockId":"79","headsign":"Costco","agencyId":"0","tripId":"1:218649","serviceDate":"20180402","from":{"name":"Terminus UQAC","stopId":"1:1670","stopCode":"1670","lon":-71.053369,"lat":48.420903,"arrival":1522670939000,"departure":1522670940000,"zoneId":"NA","stopIndex":11,"stopSequence":12,"vertexType":"TRANSIT"},"to":{"name":"boul. Talbot (no. 1494) (Tim-Horton)","stopId":"1:1854","stopCode":"1854","lon":-71.060941,"lat":48.402118,"arrival":1522671476000,"departure":1522671477000,"zoneId":"NA","stopIndex":21,"stopSequence":22,"vertexType":"TRANSIT"},"legGeometry":{"points":"sepfHtrtpL`A~@Xw@~D~DPxFZtA~ApE`N{LpFmEb@[ROl@[vDQXKfA[|@q@fAsBlEmMr@sBhCsKz@dAjB|@dM`GzCvAXrCr@~Gx@]PEr@ObACn@FrBb@|@Ch@Kx@U~HsB^KZ|DJpII~Fa@rFUzBi@bDUxAm@nCcAlDM^RTfD`D","length":49},"routeShortName":"175","routeLongName":"Term. Chic / Costco","rentedBike":false,"transitLeg":true,"duration":536.0,"steps":[]},{"startTime":1522671477000,"endTime":1522671648000,"departureDelay":0,"arrivalDelay":0,"realTime":false,"distance":220.257,"pathway":false,"mode":"WALK","route":"","agencyTimeZoneOffset":-14400000,"interlineWithPreviousLeg":false,"from":{"name":"boul. Talbot (no. 1494) (Tim-Horton)","stopId":"1:1854","stopCode":"1854","lon":-71.060941,"lat":48.402118,"arrival":1522671476000,"departure":1522671477000,"zoneId":"NA","stopIndex":21,"stopSequence":22,"vertexType":"TRANSIT"},"to":{"name":"Destination","lon":-71.06054399,"lat":48.403878,"arrival":1522671648000,"orig":"","vertexType":"NORMAL"},"legGeometry":{"points":"}olfHhavpLgDcDWUcBhE","length":4},"rentedBike":false,"transitLeg":false,"duration":171.0,"steps":[{"distance":126.503,"relativeDirection":"DEPART","streetName":"Boulevard Talbot","absoluteDirection":"NORTHEAST","stayOn":false,"area":false,"bogusName":false,"lon":-71.06084575275527,"lat":48.40207691199218,"elevation":[]},{"distance":93.754,"relativeDirection":"LEFT","streetName":"Rue des Saguenéens","absoluteDirection":"NORTHWEST","stayOn":false,"area":false,"bogusName":false,"lon":-71.0599121,"lat":48.403030900000005,"elevation":[]}]}],"tooSloped":false},{"duration":1197,"startTime":1522671351000,"endTime":1522672548000,"walkTime":659,"transitTime":536,"waitingTime":2,"walkDistance":830.9308947317472,"walkLimitExceeded":false,"elevationLost":0.0,"elevationGained":0.0,"transfers":0,"legs":[{"startTime":1522671351000,"endTime":1522671839000,"departureDelay":0,"arrivalDelay":0,"realTime":false,"distance":610.516,"pathway":false,"mode":"WALK","route":"","agencyTimeZoneOffset":-14400000,"interlineWithPreviousLeg":false,"from":{"name":"Origin","lon":-71.048305,"lat":48.41759,"departure":1522671351000,"orig":"","vertexType":"NORMAL"},"to":{"name":"Terminus UQAC","stopId":"1:1670","stopCode":"1670","lon":-71.053369,"lat":48.420903,"arrival":1522671839000,"departure":1522671840000,"zoneId":"NA","stopIndex":11,"stopSequence":12,"vertexType":"TRANSIT"},"legGeometry":{"points":"qqofHltspLwAwACFOV[JUNa@fAk@|ACn@@^Gb@K^]pAYz@Wv@KVUr@Wv@BBa@hAYz@Ur@e@vAg@vAUp@cAaA","length":26},"rentedBike":false,"transitLeg":false,"duration":488.0,"steps":[{"distance":58.024,"relativeDirection":"DEPART","streetName":"Rue d'Alma","absoluteDirection":"NORTHEAST","stayOn":false,"area":false,"bogusName":false,"lon":-71.04854742910891,"lat":48.41769909333125,"elevation":[]},{"distance":552.492,"relativeDirection":"LEFT","streetName":"path","absoluteDirection":"NORTHWEST","stayOn":false,"area":false,"bogusName":true,"lon":-71.0481062,"lat":48.418131,"elevation":[]}]},{"startTime":1522671840000,"endTime":1522672376000,"departureDelay":0,"arrivalDelay":0,"realTime":false,"distance":3021.890611696156,"pathway":false,"mode":"BUS","route":"175","agencyName":"Société de Transport du Saguenay","agencyUrl":"http://ville.saguenay.ca/fr/services-aux-citoyens/transport-sts","agencyTimeZoneOffset":-14400000,"routeColor":"FF00FF","routeType":3,"routeId":"1:175","routeTextColor":"FFFFFF","interlineWithPreviousLeg":false,"tripBlockId":"6","headsign":"Costco","agencyId":"0","tripId":"1:217288","serviceDate":"20180402","from":{"name":"Terminus UQAC","stopId":"1:1670","stopCode":"1670","lon":-71.053369,"lat":48.420903,"arrival":1522671839000,"departure":1522671840000,"zoneId":"NA","stopIndex":11,"stopSequence":12,"vertexType":"TRANSIT"},"to":{"name":"boul. Talbot (no. 1494) (Tim-Horton)","stopId":"1:1854","stopCode":"1854","lon":-71.060941,"lat":48.402118,"arrival":1522672376000,"departure":1522672377000,"zoneId":"NA","stopIndex":21,"stopSequence":22,"vertexType":"TRANSIT"},"legGeometry":{"points":"sepfHtrtpL`A~@Xw@~D~DPxFZtA~ApE`N{LpFmEb@[ROl@[vDQXKfA[|@q@fAsBlEmMr@sBhCsKz@dAjB|@dM`GzCvAXrCr@~Gx@]PEr@ObACn@FrBb@|@Ch@Kx@U~HsB^KZ|DJpII~Fa@rFUzBi@bDUxAm@nCcAlDM^RTfD`D","length":49},"routeShortName":"175","routeLongName":"Term. Chic / Costco","rentedBike":false,"transitLeg":true,"duration":536.0,"steps":[]},{"startTime":1522672377000,"endTime":1522672548000,"departureDelay":0,"arrivalDelay":0,"realTime":false,"distance":220.257,"pathway":false,"mode":"WALK","route":"","agencyTimeZoneOffset":-14400000,"interlineWithPreviousLeg":false,"from":{"name":"boul. Talbot (no. 1494) (Tim-Horton)","stopId":"1:1854","stopCode":"1854","lon":-71.060941,"lat":48.402118,"arrival":1522672376000,"departure":1522672377000,"zoneId":"NA","stopIndex":21,"stopSequence":22,"vertexType":"TRANSIT"},"to":{"name":"Destination","lon":-71.06054399,"lat":48.403878,"arrival":1522672548000,"orig":"","vertexType":"NORMAL"},"legGeometry":{"points":"}olfHhavpLgDcDWUcBhE","length":4},"rentedBike":false,"transitLeg":false,"duration":171.0,"steps":[{"distance":126.503,"relativeDirection":"DEPART","streetName":"Boulevard Talbot","absoluteDirection":"NORTHEAST","stayOn":false,"area":false,"bogusName":false,"lon":-71.06084575275527,"lat":48.40207691199218,"elevation":[]},{"distance":93.754,"relativeDirection":"LEFT","streetName":"Rue des Saguenéens","absoluteDirection":"NORTHWEST","stayOn":false,"area":false,"bogusName":false,"lon":-71.0599121,"lat":48.403030900000005,"elevation":[]}]}],"tooSloped":false},{"duration":1345,"startTime":1522671231000,"endTime":1522672576000,"walkTime":504,"transitTime":839,"waitingTime":2,"walkDistance":631.1721879658852,"walkLimitExceeded":false,"elevationLost":0.0,"elevationGained":0.0,"transfers":0,"legs":[{"startTime":1522671231000,"endTime":1522671719000,"departureDelay":0,"arrivalDelay":0,"realTime":false,"distance":610.516,"pathway":false,"mode":"WALK","route":"","agencyTimeZoneOffset":-14400000,"interlineWithPreviousLeg":false,"from":{"name":"Origin","lon":-71.048305,"lat":48.41759,"departure":1522671231000,"orig":"","vertexType":"NORMAL"},"to":{"name":"Terminus UQAC","stopId":"1:1670","stopCode":"1670","lon":-71.053369,"lat":48.420903,"arrival":1522671719000,"departure":1522671720000,"zoneId":"NA","stopIndex":7,"stopSequence":8,"vertexType":"TRANSIT"},"legGeometry":{"points":"qqofHltspLwAwACFOV[JUNa@fAk@|ACn@@^Gb@K^]pAYz@Wv@KVUr@Wv@BBa@hAYz@Ur@e@vAg@vAUp@cAaA","length":26},"rentedBike":false,"transitLeg":false,"duration":488.0,"steps":[{"distance":58.024,"relativeDirection":"DEPART","streetName":"Rue d'Alma","absoluteDirection":"NORTHEAST","stayOn":false,"area":false,"bogusName":false,"lon":-71.04854742910891,"lat":48.41769909333125,"elevation":[]},{"distance":552.492,"relativeDirection":"LEFT","streetName":"path","absoluteDirection":"NORTHWEST","stayOn":false,"area":false,"bogusName":true,"lon":-71.0481062,"lat":48.418131,"elevation":[]}]},{"startTime":1522671720000,"endTime":1522672559000,"departureDelay":0,"arrivalDelay":0,"realTime":false,"distance":3719.482457593569,"pathway":false,"mode":"BUS","route":"15","agencyName":"Société de Transport du Saguenay","agencyUrl":"http://ville.saguenay.ca/fr/services-aux-citoyens/transport-sts","agencyTimeZoneOffset":-14400000,"routeColor":"FF00FF","routeType":3,"routeId":"1:15","routeTextColor":"FFFFFF","interlineWithPreviousLeg":false,"tripBlockId":"33","headsign":"Talbot / Barrette","agencyId":"0","tripId":"1:218175","serviceDate":"20180402","from":{"name":"Terminus UQAC","stopId":"1:1670","stopCode":"1670","lon":-71.053369,"lat":48.420903,"arrival":1522671719000,"departure":1522671720000,"zoneId":"NA","stopIndex":7,"stopSequence":8,"vertexType":"TRANSIT"},"to":{"name":"Saguenéens  / Bach","stopId":"1:575","stopCode":"575","lon":-71.061104,"lat":48.403689,"arrival":1522672559000,"departure":1522672560000,"zoneId":"NA","stopIndex":23,"stopSequence":24,"vertexType":"TRANSIT"},"legGeometry":{"points":"sepfHrrtpLbA`ATw@dD~Ch@fA@`E~AjGuH`Iy@bBi@dCbEdEjJlJ`HbHlJpJ|J~JdAfALzDNzDrAdBrEKvBEbCv@d@TvFlC|DlBpMlGrB`AM}@hAwEC{B]oBiBmBsH_@_K{H`EgIvCaGfEoItDsH~DeI","length":39},"routeShortName":"15","routeLongName":"Term. Chic / Costco","rentedBike":false,"transitLeg":true,"duration":839.0,"steps":[]},{"startTime":1522672560000,"endTime":1522672576000,"departureDelay":0,"arrivalDelay":0,"realTime":false,"distance":20.531,"pathway":false,"mode":"WALK","route":"","agencyTimeZoneOffset":-14400000,"interlineWithPreviousLeg":false,"from":{"name":"Saguenéens  / Bach","stopId":"1:575","stopCode":"575","lon":-71.061104,"lat":48.403689,"arrival":1522672559000,"departure":1522672560000,"zoneId":"NA","stopIndex":23,"stopSequence":24,"vertexType":"TRANSIT"},"to":{"name":"Destination","lon":-71.06054399,"lat":48.403878,"arrival":1522672576000,"orig":"","vertexType":"NORMAL"},"legGeometry":{"points":"wylfHfcvpLTm@","length":2},"rentedBike":false,"transitLeg":false,"duration":16.0,"steps":[{"distance":20.531,"relativeDirection":"DEPART","streetName":"Rue des Saguenéens","absoluteDirection":"SOUTHEAST","stayOn":false,"area":false,"bogusName":false,"lon":-71.0611521754673,"lat":48.403646208471976,"elevation":[]}]}],"tooSloped":false}]},"debugOutput":{"precalculationTime":53,"pathCalculationTime":46,"pathTimes":[25,10,11],"renderingTime":0,"totalTime":99,"timedOut":false},"elevationMetadata":{"ellipsoidToGeoidDifference":-28.885904201182168,"geoidElevation":false}}