{"requestParameters":{"date":"2018/04/02","walkSpeed":"1.33","walkReluctance":"2.0","fromPlace":"48.440148,-71.061485","maxWalkDistance":"3000","waitReluctance":"1.0","carSpeed":"33","numItineraries":"3","waitAtBeginningFactor":"0.4","mode":"TRANSIT,WALK","ignoreRealtimeUpdates":"false","stairsReluctance":"2.0","toPlace":"48.441012,-71.038311","time":"7:0:00"},"plan":{"date":1522666800000,"from":{"name":"Origin","lon":-71.061485,"lat":48.440148,"orig":"","vertexType":"NORMAL"},"to":{"name":"Destination","lon":-71.038311,"lat":48.441012,"orig":"","vertexType":"NORMAL"},"itineraries":[{"duration":1575,"startTime":1522666800000,"endTime":1522668375000,"walkTime":1575,"transitTime":0,"waitingTime":0,"walkDistance":2024.4713909691704,"walkLimitExceeded":false,"elevationLost":0.0,"elevationGained":0.0,"transfers":0,"legs":[{"startTime":1522666800000,"endTime":1522668375000,"departureDelay":0,"arrivalDelay":0,"realTime":false,"distance":2024.215,"pathway":false,"mode":"WALK","route":"","agencyTimeZoneOffset":-14400000,"interlineWithPreviousLeg":false,"from":{"name":"Origin","lon":-71.061485,"lat":48.440148,"departure":1522666800000,"orig":"","vertexType":"NORMAL"},"to":{"name":"Destination","lon":-71.038311,"lat":48.441012,"arrival":1522668375000,"orig":"","vertexType":"NORMAL"},"legGeometry":{"points":"e}sfHravpLk@S{Ao@e@i@A?W]U_@ACSe@M[CKMa@AGCMG]CQE_@WcDSeBEq@AMC_@Ck@Ae@Ai@Bw@Fk@Da@F]F_@Hi@VmBPoAD]Fc@Hy@BW@Y@K?k@?G?c@Eu@Gc@AIpA{BTwAKaBSeCAo@OqDTsBsAg@CCMGGIIIEOEOAO?[D]LuAICn@eEzB|@VgCFeBAyAEwAAwA@oABy@JaATmB@]BYBSwDaBXqBDe@Da@^eEFk@Fa@BSFa@Hy@Js@","length":89},"rentedBike":false,"transitLeg":false,"duration":1575.0,"steps":[{"distance":723.4270000000001,"relativeDirection":"DEPART","streetName":"Boulevard de Tadoussac","absoluteDirection":"NORTH","stayOn":false,"area":false,"bogusName":false,"lon":-71.0608976234176,"lat":48.440033678177144,"elevation":[]},{"distance":315.517,"relativeDirection":"RIGHT","streetName":"path","absoluteDirection":"SOUTHEAST","stayOn":false,"area":false,"bogusName":true,"lon":-71.0525068,"lat":48.441346100000004,"elevation":[]},{"distance":145.997,"relativeDirection":"LEFT","streetName":"Rue du Beaujolais","absoluteDirection":"NORTH","stayOn":false,"area":false,"bogusName":false,"lon":-71.0485709,"lat":48.4409676,"elevation":[]},{"distance":5.474,"relativeDirection":"LEFT","streetName":"Rue Saint-Émile","absoluteDirection":"NORTH","stayOn":false,"area":false,"bogusName":false,"lon":-71.04725330000001,"lat":48.4415337,"elevation":[]},{"distance":76.918,"relativeDirection":"RIGHT","streetName":"Rue Jogues","absoluteDirection":"EAST","stayOn":false,"area":false,"bogusName":false,"lon":-71.04723220000001,"lat":48.441580900000005,"elevation":[]},{"distance":73.277,"relativeDirection":"RIGHT","streetName":"Rue Louvois","absoluteDirection":"SOUTH","stayOn":false,"area":false,"bogusName":false,"lon":-71.04625,"lat":48.441348600000005,"elevation":[]},{"distance":335.231,"relativeDirection":"LEFT","streetName":"Rue de Belleville","absoluteDirection":"EAST","stayOn":false,"area":false,"bogusName":false,"lon":-71.0465581,"lat":48.4407221,"elevation":[]},{"distance":108.348,"relativeDirection":"LEFT","streetName":"Rue Olier","absoluteDirection":"NORTH","stayOn":false,"area":false,"bogusName":false,"lon":-71.04208770000001,"lat":48.4403664,"elevation":[]},{"distance":240.026,"relativeDirection":"RIGHT","streetName":"Rue Diana","absoluteDirection":"EAST","stayOn":false,"area":false,"bogusName":false,"lon":-71.04159270000001,"lat":48.4412838,"elevation":[]}]}],"tooSloped":false},{"duration":911,"startTime":1522667725000,"endTime":1522668636000,"walkTime":473,"transitTime":436,"waitingTime":2,"walkDistance":604.7562556357982,"walkLimitExceeded":false,"elevationLost":0.0,"elevationGained":0.0,"transfers":0,"legs":[{"startTime":1522667725000,"endTime":1522667931000,"departureDelay":0,"arrivalDelay":0,"realTime":false,"distance":262.038,"pathway":false,"mode":"WALK","route":"","agencyTimeZoneOffset":-14400000,"interlineWithPreviousLeg":false,"from":{"name":"Origin","lon":-71.061485,"lat":48.440148,"departure":1522667725000,"orig":"","vertexType":"NORMAL"},"to":{"name":"Napoléon / Roussel","stopId":"1:805","stopCode":"805","lon":-71.059698,"lat":48.438926,"arrival":1522667931000,"departure":1522667932000,"zoneId":"NA","stopIndex":3,"stopSequence":4,"vertexType":"TRANSIT"},"legGeometry":{"points":"e}sfHravpLk@Sx@mHjE`B","length":4},"rentedBike":false,"transitLeg":false,"duration":206.0,"steps":[{"distance":26.157,"relativeDirection":"DEPART","streetName":"Boulevard de Tadoussac","absoluteDirection":"NORTH","stayOn":false,"area":false,"bogusName":false,"lon":-71.0608976234176,"lat":48.440033678177144,"elevation":[]},{"distance":116.708,"relativeDirection":"RIGHT","streetName":"Rue De Bienville","absoluteDirection":"EAST","stayOn":false,"area":false,"bogusName":false,"lon":-71.0607978,"lat":48.4402594,"elevation":[]},{"distance":119.173,"relativeDirection":"RIGHT","streetName":"Rue Napoléon","absoluteDirection":"SOUTH","stayOn":false,"area":false,"bogusName":false,"lon":-71.0592803,"lat":48.4399625,"elevation":[]}]},{"startTime":1522667932000,"endTime":1522668368000,"departureDelay":0,"arrivalDelay":0,"realTime":false,"distance":3590.269847329239,"pathway":false,"mode":"BUS","route":"24","agencyName":"Société de Transport du Saguenay","agencyUrl":"http://ville.saguenay.ca/fr/services-aux-citoyens/transport-sts","agencyTimeZoneOffset":-14400000,"routeColor":"00FF00","routeType":3,"routeId":"1:24","routeTextColor":"000000","interlineWithPreviousLeg":false,"tripBlockId":"5","headsign":"Terminus Chicoutimi","agencyId":"0","tripId":"1:217251","serviceDate":"20180402","from":{"name":"Napoléon / Roussel","stopId":"1:805","stopCode":"805","lon":-71.059698,"lat":48.438926,"arrival":1522667931000,"departure":1522667932000,"zoneId":"NA","stopIndex":3,"stopSequence":4,"vertexType":"TRANSIT"},"to":{"name":"Roussel / Sabrina","stopId":"1:821","stopCode":"821","lon":-71.036499,"lat":48.438915,"arrival":1522668368000,"departure":1522668369000,"zoneId":"NA","stopIndex":17,"stopSequence":18,"vertexType":"TRANSIT"},"legGeometry":{"points":"ivsfHpzupLiE}Ah@}DH}@?c@Ea@[_BA?My@Cm@?Y@g@Hu@b@sD\\_DBSyHsC_@MBQA}@IwAUoAcAkCWo@qDgJg@cBk@uBi@sC]aCWwCiKuDwQuGDWbAoGV{AxG~BPFhCdAn@Lx@BxA]QeDI}AzAW~ASQoDg@eKG{A?_@?m@?i@LeCJkAd@yGxAqSBs@p@^VRPRbF~FlCxBxB|B~JjK","length":63},"routeShortName":"24","routeLongName":"Saint-Luc","rentedBike":false,"transitLeg":true,"duration":436.0,"steps":[]},{"startTime":1522668369000,"endTime":1522668636000,"departureDelay":0,"arrivalDelay":0,"realTime":false,"distance":342.61600000000004,"pathway":false,"mode":"WALK","route":"","agencyTimeZoneOffset":-14400000,"interlineWithPreviousLeg":false,"from":{"name":"Roussel / Sabrina","stopId":"1:821","stopCode":"821","lon":-71.036499,"lat":48.438915,"arrival":1522668368000,"departure":1522668369000,"zoneId":"NA","stopIndex":17,"stopSequence":18,"vertexType":"TRANSIT"},"to":{"name":"Destination","lon":-71.038311,"lat":48.441012,"arrival":1522668636000,"orig":"","vertexType":"NORMAL"},"legGeometry":{"points":"{usfHjhqpLWWQOeAcAg@g@[z@O^Wx@[x@Sh@ELe@|A]~AUnB","length":14},"rentedBike":false,"transitLeg":false,"duration":267.0,"steps":[{"distance":100.739,"relativeDirection":"DEPART","streetName":"Rue Roussel","absoluteDirection":"NORTHEAST","stayOn":false,"area":false,"bogusName":false,"lon":-71.03637845087752,"lat":48.43886349987849,"elevation":[]},{"distance":241.877,"relativeDirection":"LEFT","streetName":"Rue Diana","absoluteDirection":"NORTHWEST","stayOn":false,"area":false,"bogusName":false,"lon":-71.0356349,"lat":48.4396234,"elevation":[]}]}],"tooSloped":false},{"duration":960,"startTime":1522669596000,"endTime":1522670556000,"walkTime":473,"transitTime":485,"waitingTime":2,"walkDistance":604.7562556357982,"walkLimitExceeded":false,"elevationLost":0.0,"elevationGained":0.0,"transfers":0,"legs":[{"startTime":1522669596000,"endTime":1522669802000,"departureDelay":0,"arrivalDelay":0,"realTime":false,"distance":262.038,"pathway":false,"mode":"WALK","route":"","agencyTimeZoneOffset":-14400000,"interlineWithPreviousLeg":false,"from":{"name":"Origin","lon":-71.061485,"lat":48.440148,"departure":1522669596000,"orig":"","vertexType":"NORMAL"},"to":{"name":"Napoléon / Roussel","stopId":"1:805","stopCode":"805","lon":-71.059698,"lat":48.438926,"arrival":1522669802000,"departure":1522669803000,"zoneId":"NA","stopIndex":3,"stopSequence":4,"vertexType":"TRANSIT"},"legGeometry":{"points":"e}sfHravpLk@Sx@mHjE`B","length":4},"rentedBike":false,"transitLeg":false,"duration":206.0,"steps":[{"distance":26.157,"relativeDirection":"DEPART","streetName":"Boulevard de Tadoussac","absoluteDirection":"NORTH","stayOn":false,"area":false,"bogusName":false,"lon":-71.0608976234176,"lat":48.440033678177144,"elevation":[]},{"distance":116.708,"relativeDirection":"RIGHT","streetName":"Rue De Bienville","absoluteDirection":"EAST","stayOn":false,"area":false,"bogusName":false,"lon":-71.0607978,"lat":48.4402594,"elevation":[]},{"distance":119.173,"relativeDirection":"RIGHT","streetName":"Rue Napoléon","absoluteDirection":"SOUTH","stayOn":false,"area":false,"bogusName":false,"lon":-71.0592803,"lat":48.4399625,"elevation":[]}]},{"startTime":1522669803000,"endTime":1522670288000,"departureDelay":0,"arrivalDelay":0,"realTime":false,"distance":3590.269847329239,"pathway":false,"mode":"BUS","route":"24","agencyName":"Société de Transport du Saguenay","agencyUrl":"http://ville.saguenay.ca/fr/services-aux-citoyens/transport-sts","agencyTimeZoneOffset":-14400000,"routeColor":"00FF00","routeType":3,"routeId":"1:24","routeTextColor":"000000","interlineWithPreviousLeg":false,"tripBlockId":"4","headsign":"Terminus Chicoutimi","agencyId":"0","tripId":"1:217225","serviceDate":"20180402","from":{"name":"Napoléon / Roussel","stopId":"1:805","stopCode":"805","lon":-71.059698,"lat":48.438926,"arrival":1522669802000,"departure":1522669803000,"zoneId":"NA","stopIndex":3,"stopSequence":4,"vertexType":"TRANSIT"},"to":{"name":"Roussel / Sabrina","stopId":"1:821","stopCode":"821","lon":-71.036499,"lat":48.438915,"arrival":1522670288000,"departure":1522670289000,"zoneId":"NA","stopIndex":17,"stopSequence":18,"vertexType":"TRANSIT"},"legGeometry":{"points":"ivsfHpzupLiE}Ah@}DH}@?c@Ea@[_BA?My@Cm@?Y@g@Hu@b@sD\\_DBSyHsC_@MBQA}@IwAUoAcAkCWo@qDgJg@cBk@uBi@sC]aCWwCiKuDwQuGDWbAoGV{AxG~BPFhCdAn@Lx@BxA]QeDI}AzAW~ASQoDg@eKG{A?_@?m@?i@LeCJkAd@yGxAqSBs@p@^VRPRbF~FlCxBxB|B~JjK","length":63},"routeShortName":"24","routeLongName":"Saint-Luc","rentedBike":false,"transitLeg":true,"duration":485.0,"steps":[]},{"startTime":1522670289000,"endTime":1522670556000,"departureDelay":0,"arrivalDelay":0,"realTime":false,"distance":342.61600000000004,"pathway":false,"mode":"WALK","route":"","agencyTimeZoneOffset":-14400000,"interlineWithPreviousLeg":false,"from":{"name":"Roussel / Sabrina","stopId":"1:821","stopCode":"821","lon":-71.036499,"lat":48.438915,"arrival":1522670288000,"departure":1522670289000,"zoneId":"NA","stopIndex":17,"stopSequence":18,"vertexType":"TRANSIT"},"to":{"name":"Destination","lon":-71.038311,"lat":48.441012,"arrival":1522670556000,"orig":"","vertexType":"NORMAL"},"legGeometry":{"points":"{usfHjhqpLWWQOeAcAg@g@[z@O^Wx@[x@Sh@ELe@|A]~AUnB","length":14},"rentedBike":false,"transitLeg":false,"duration":267.0,"steps":[{"distance":100.739,"relativeDirection":"DEPART","streetName":"Rue Roussel","absoluteDirection":"NORTHEAST","stayOn":false,"area":false,"bogusName":false,"lon":-71.03637845087752,"lat":48.43886349987849,"elevation":[]},{"distance":241.877,"relativeDirection":"LEFT","streetName":"Rue Diana","absoluteDirection":"NORTHWEST","stayOn":false,"area":false,"bogusName":false,"lon":-71.0356349,"lat":48.4396234,"elevation":[]}]}],"tooSloped":false}]},"debugOutput":{"precalculationTime":20,"pathCalculationTime":24,"pathTimes":[14,4,6],"renderingTime":0,"totalTime":44,"timedOut":false},"elevationMetadata":{"ellipsoidToGeoidDifference":-28.885904201182168,"geoidElevation":false}}