{"requestParameters":{"date":"2018/04/02","walkSpeed":"1.33","walkReluctance":"2.0","fromPlace":"48.428598,-71.05257","maxWalkDistance":"3000","waitReluctance":"1.0","carSpeed":"33","numItineraries":"3","waitAtBeginningFactor":"0.4","mode":"TRANSIT,WALK","ignoreRealtimeUpdates":"false","stairsReluctance":"2.0","toPlace":"48.402014,-71.07738","time":"19:35:00"},"plan":{"date":1522712100000,"from":{"name":"Origin","lon":-71.05257,"lat":48.428598,"orig":"","vertexType":"NORMAL"},"to":{"name":"Destination","lon":-71.07738,"lat":48.402014,"orig":"","vertexType":"NORMAL"},"itineraries":[{"duration":1578,"startTime":1522712547000,"endTime":1522714125000,"walkTime":530,"transitTime":1046,"waitingTime":2,"walkDistance":659.4660300699596,"walkLimitExceeded":false,"elevationLost":0.0,"elevationGained":0.0,"transfers":0,"legs":[{"startTime":1522712547000,"endTime":1522712936000,"departureDelay":0,"arrivalDelay":0,"realTime":false,"distance":487.097,"pathway":false,"mode":"WALK","route":"","agencyTimeZoneOffset":-14400000,"interlineWithPreviousLeg":false,"from":{"name":"Origin","lon":-71.05257,"lat":48.428598,"departure":1522712547000,"orig":"","vertexType":"NORMAL"},"to":{"name":"Bégin / Jacques-Cartier","stopId":"1:67","stopCode":"67","lon":-71.055431,"lat":48.425501,"arrival":1522712936000,"departure":1522712937000,"zoneId":"NA","stopIndex":4,"stopSequence":5,"vertexType":"TRANSIT"},"legGeometry":{"points":"wvqfHxmtpLDbA@VBj@Dn@jAGvBKd@CJBxAtABB`A|@h@`@ZVz@r@p@p@`@`@b@b@KZ","length":19},"rentedBike":false,"transitLeg":false,"duration":389.0,"steps":[{"distance":69.17500000000001,"relativeDirection":"DEPART","streetName":"Rue Racine Est","absoluteDirection":"WEST","stayOn":false,"area":false,"bogusName":false,"lon":-71.05260299502488,"lat":48.42876731831336,"elevation":[]},{"distance":405.877,"relativeDirection":"LEFT","streetName":"Rue Bégin","absoluteDirection":"SOUTH","stayOn":false,"area":false,"bogusName":false,"lon":-71.0535297,"lat":48.4286752,"elevation":[]},{"distance":12.045,"relativeDirection":"RIGHT","streetName":"Rue Gaudreault","absoluteDirection":"NORTHWEST","stayOn":false,"area":false,"bogusName":false,"lon":-71.0553392,"lat":48.4253936,"elevation":[]}]},{"startTime":1522712937000,"endTime":1522713983000,"departureDelay":0,"arrivalDelay":0,"realTime":false,"distance":4603.376774732079,"pathway":false,"mode":"BUS","route":"14","agencyName":"Société de Transport du Saguenay","agencyUrl":"http://ville.saguenay.ca/fr/services-aux-citoyens/transport-sts","agencyTimeZoneOffset":-14400000,"routeColor":"C0C000","routeType":3,"routeId":"1:14","routeTextColor":"000000","interlineWithPreviousLeg":false,"tripBlockId":"30","headsign":"Talbot / Barrette","agencyId":"0","tripId":"1:218113","serviceDate":"20180402","from":{"name":"Bégin / Jacques-Cartier","stopId":"1:67","stopCode":"67","lon":-71.055431,"lat":48.425501,"arrival":1522712936000,"departure":1522712937000,"zoneId":"NA","stopIndex":4,"stopSequence":5,"vertexType":"TRANSIT"},"to":{"name":"Bégin / Château Richer","stopId":"1:1982","stopCode":"1982","lon":-71.076545,"lat":48.403266,"arrival":1522713983000,"departure":1522713984000,"zoneId":"NA","stopIndex":21,"stopSequence":22,"vertexType":"TRANSIT"},"legGeometry":{"points":"_bqfHr~tpLvIrIn@n@\\iATg@v@_ATg@LmABg@Is@c@iEAm@bAcDTcAtA{DJI|AxAvAvAQv@~@z@dA`ATq@`E~DL`@E`Ex@hDd@`B}FtFaAzAm@xAe@jCa@nDiAbm@SpKM`H]vBhDVzCTcAvCO^bEbEzK`LfBeEtK`KhAdAnCbCvBpCNR~BxAxBf@z@h@vAz@z@{DrCoITTlElEtAnB`@l@pFrD@?fDr@XgAjFuR\\yADm@b@gFd@_B`A}@tEvJ","length":69},"routeShortName":"14","routeLongName":"Coopérative","rentedBike":false,"transitLeg":true,"duration":1046.0,"steps":[]},{"startTime":1522713984000,"endTime":1522714125000,"departureDelay":0,"arrivalDelay":0,"realTime":false,"distance":172.207,"pathway":false,"mode":"WALK","route":"","agencyTimeZoneOffset":-14400000,"interlineWithPreviousLeg":false,"from":{"name":"Bégin / Château Richer","stopId":"1:1982","stopCode":"1982","lon":-71.076545,"lat":48.403266,"arrival":1522713983000,"departure":1522713984000,"zoneId":"NA","stopIndex":21,"stopSequence":22,"vertexType":"TRANSIT"},"to":{"name":"Destination","lon":-71.07738,"lat":48.402014,"arrival":1522714125000,"orig":"","vertexType":"NORMAL"},"legGeometry":{"points":"_wlfHxcypLJ_@d@z@\\p@xAzBd@oA","length":6},"rentedBike":false,"transitLeg":false,"duration":141.0,"steps":[{"distance":13.283,"relativeDirection":"DEPART","streetName":"Rue Château-Richer","absoluteDirection":"SOUTHEAST","stayOn":false,"area":false,"bogusName":false,"lon":-71.07660261127909,"lat":48.403201223823444,"elevation":[]},{"distance":122.624,"relativeDirection":"RIGHT","streetName":"Rue Bégin","absoluteDirection":"SOUTHWEST","stayOn":false,"area":false,"bogusName":false,"lon":-71.0764477,"lat":48.403140500000006,"elevation":[]},{"distance":36.3,"relativeDirection":"LEFT","streetName":"Rue Blackburn","absoluteDirection":"SOUTHEAST","stayOn":false,"area":false,"bogusName":false,"lon":-71.0776148,"lat":48.402357,"elevation":[]}]}],"tooSloped":false},{"duration":1485,"startTime":1522714345000,"endTime":1522715830000,"walkTime":774,"transitTime":709,"waitingTime":2,"walkDistance":978.6272405967849,"walkLimitExceeded":false,"elevationLost":0.0,"elevationGained":0.0,"transfers":0,"legs":[{"startTime":1522714345000,"endTime":1522714734000,"departureDelay":0,"arrivalDelay":0,"realTime":false,"distance":487.097,"pathway":false,"mode":"WALK","route":"","agencyTimeZoneOffset":-14400000,"interlineWithPreviousLeg":false,"from":{"name":"Origin","lon":-71.05257,"lat":48.428598,"departure":1522714345000,"orig":"","vertexType":"NORMAL"},"to":{"name":"Bégin / Jacques-Cartier","stopId":"1:67","stopCode":"67","lon":-71.055431,"lat":48.425501,"arrival":1522714734000,"departure":1522714735000,"zoneId":"NA","stopIndex":4,"stopSequence":5,"vertexType":"TRANSIT"},"legGeometry":{"points":"wvqfHxmtpLDbA@VBj@Dn@jAGvBKd@CJBxAtABB`A|@h@`@ZVz@r@p@p@`@`@b@b@KZ","length":19},"rentedBike":false,"transitLeg":false,"duration":389.0,"steps":[{"distance":69.17500000000001,"relativeDirection":"DEPART","streetName":"Rue Racine Est","absoluteDirection":"WEST","stayOn":false,"area":false,"bogusName":false,"lon":-71.05260299502488,"lat":48.42876731831336,"elevation":[]},{"distance":405.877,"relativeDirection":"LEFT","streetName":"Rue Bégin","absoluteDirection":"SOUTH","stayOn":false,"area":false,"bogusName":false,"lon":-71.0535297,"lat":48.4286752,"elevation":[]},{"distance":12.045,"relativeDirection":"RIGHT","streetName":"Rue Gaudreault","absoluteDirection":"NORTHWEST","stayOn":false,"area":false,"bogusName":false,"lon":-71.0553392,"lat":48.4253936,"elevation":[]}]},{"startTime":1522714735000,"endTime":1522715444000,"departureDelay":0,"arrivalDelay":0,"realTime":false,"distance":3197.5858075635815,"pathway":false,"mode":"BUS","route":"15","agencyName":"Société de Transport du Saguenay","agencyUrl":"http://ville.saguenay.ca/fr/services-aux-citoyens/transport-sts","agencyTimeZoneOffset":-14400000,"routeColor":"FF00FF","routeType":3,"routeId":"1:15","routeTextColor":"FFFFFF","interlineWithPreviousLeg":false,"tripBlockId":"33","headsign":"Talbot / Barrette","agencyId":"0","tripId":"1:218199","serviceDate":"20180402","from":{"name":"Bégin / Jacques-Cartier","stopId":"1:67","stopCode":"67","lon":-71.055431,"lat":48.425501,"arrival":1522714734000,"departure":1522714735000,"zoneId":"NA","stopIndex":4,"stopSequence":5,"vertexType":"TRANSIT"},"to":{"name":"Angoulême / Bégin","stopId":"1:536","stopCode":"536","lon":-71.073862,"lat":48.405153,"arrival":1522715444000,"departure":1522715445000,"zoneId":"NA","stopIndex":18,"stopSequence":19,"vertexType":"TRANSIT"},"legGeometry":{"points":"_bqfHt~tpLvIpIr@r@\\mBfAaA`@gBOkB_@uF|DyL|DpDQ|@|@z@bA`ATw@dD~Ch@fA@`E~AjGuH`Iy@bBi@dCbEdEjJlJ`HbHlJpJ|J~JdAfALzDNzDrAdBrEKvBEbCv@d@TvFlC|DlBpMlG","length":37},"routeShortName":"15","routeLongName":"Term. Chic / Costco","rentedBike":false,"transitLeg":true,"duration":709.0,"steps":[]},{"startTime":1522715445000,"endTime":1522715830000,"departureDelay":0,"arrivalDelay":0,"realTime":false,"distance":491.384,"pathway":false,"mode":"WALK","route":"","agencyTimeZoneOffset":-14400000,"interlineWithPreviousLeg":false,"from":{"name":"Angoulême / Bégin","stopId":"1:536","stopCode":"536","lon":-71.073862,"lat":48.405153,"arrival":1522715444000,"departure":1522715445000,"zoneId":"NA","stopIndex":18,"stopSequence":19,"vertexType":"TRANSIT"},"to":{"name":"Destination","lon":-71.07738,"lat":48.402014,"arrival":1522715830000,"orig":"","vertexType":"NORMAL"},"legGeometry":{"points":"gcmfH|qxpLPAxBCBpAXr@HT~@lBvAxCfA|Bd@z@\\p@xAzBd@oA","length":13},"rentedBike":false,"transitLeg":false,"duration":385.0,"steps":[{"distance":77.596,"relativeDirection":"DEPART","streetName":"Rue d'Angoulème","absoluteDirection":"SOUTH","stayOn":false,"area":false,"bogusName":false,"lon":-71.07374850893203,"lat":48.405161276828096,"elevation":[]},{"distance":377.488,"relativeDirection":"RIGHT","streetName":"Rue Bégin","absoluteDirection":"WEST","stayOn":false,"area":false,"bogusName":false,"lon":-71.0737143,"lat":48.404464100000006,"elevation":[]},{"distance":36.3,"relativeDirection":"LEFT","streetName":"Rue Blackburn","absoluteDirection":"SOUTHEAST","stayOn":false,"area":false,"bogusName":false,"lon":-71.0776148,"lat":48.402357,"elevation":[]}]}],"tooSloped":false},{"duration":1578,"startTime":1522716147000,"endTime":1522717725000,"walkTime":530,"transitTime":1046,"waitingTime":2,"walkDistance":659.4660300699596,"walkLimitExceeded":false,"elevationLost":0.0,"elevationGained":0.0,"transfers":0,"legs":[{"startTime":1522716147000,"endTime":1522716536000,"departureDelay":0,"arrivalDelay":0,"realTime":false,"distance":487.097,"pathway":false,"mode":"WALK","route":"","agencyTimeZoneOffset":-14400000,"interlineWithPreviousLeg":false,"from":{"name":"Origin","lon":-71.05257,"lat":48.428598,"departure":1522716147000,"orig":"","vertexType":"NORMAL"},"to":{"name":"Bégin / Jacques-Cartier","stopId":"1:67","stopCode":"67","lon":-71.055431,"lat":48.425501,"arrival":1522716536000,"departure":1522716537000,"zoneId":"NA","stopIndex":4,"stopSequence":5,"vertexType":"TRANSIT"},"legGeometry":{"points":"wvqfHxmtpLDbA@VBj@Dn@jAGvBKd@CJBxAtABB`A|@h@`@ZVz@r@p@p@`@`@b@b@KZ","length":19},"rentedBike":false,"transitLeg":false,"duration":389.0,"steps":[{"distance":69.17500000000001,"relativeDirection":"DEPART","streetName":"Rue Racine Est","absoluteDirection":"WEST","stayOn":false,"area":false,"bogusName":false,"lon":-71.05260299502488,"lat":48.42876731831336,"elevation":[]},{"distance":405.877,"relativeDirection":"LEFT","streetName":"Rue Bégin","absoluteDirection":"SOUTH","stayOn":false,"area":false,"bogusName":false,"lon":-71.0535297,"lat":48.4286752,"elevation":[]},{"distance":12.045,"relativeDirection":"RIGHT","streetName":"Rue Gaudreault","absoluteDirection":"NORTHWEST","stayOn":false,"area":false,"bogusName":false,"lon":-71.0553392,"lat":48.4253936,"elevation":[]}]},{"startTime":1522716537000,"endTime":1522717583000,"departureDelay":0,"arrivalDelay":0,"realTime":false,"distance":4603.376774732079,"pathway":false,"mode":"BUS","route":"14","agencyName":"Société de Transport du Saguenay","agencyUrl":"http://ville.saguenay.ca/fr/services-aux-citoyens/transport-sts","agencyTimeZoneOffset":-14400000,"routeColor":"C0C000","routeType":3,"routeId":"1:14","routeTextColor":"000000","interlineWithPreviousLeg":false,"tripBlockId":"30","headsign":"Talbot / Barrette","agencyId":"0","tripId":"1:218115","serviceDate":"20180402","from":{"name":"Bégin / Jacques-Cartier","stopId":"1:67","stopCode":"67","lon":-71.055431,"lat":48.425501,"arrival":1522716536000,"departure":1522716537000,"zoneId":"NA","stopIndex":4,"stopSequence":5,"vertexType":"TRANSIT"},"to":{"name":"Bégin / Château Richer","stopId":"1:1982","stopCode":"1982","lon":-71.076545,"lat":48.403266,"arrival":1522717583000,"departure":1522717584000,"zoneId":"NA","stopIndex":21,"stopSequence":22,"vertexType":"TRANSIT"},"legGeometry":{"points":"_bqfHr~tpLvIrIn@n@\\iATg@v@_ATg@LmABg@Is@c@iEAm@bAcDTcAtA{DJI|AxAvAvAQv@~@z@dA`ATq@`E~DL`@E`Ex@hDd@`B}FtFaAzAm@xAe@jCa@nDiAbm@SpKM`H]vBhDVzCTcAvCO^bEbEzK`LfBeEtK`KhAdAnCbCvBpCNR~BxAxBf@z@h@vAz@z@{DrCoITTlElEtAnB`@l@pFrD@?fDr@XgAjFuR\\yADm@b@gFd@_B`A}@tEvJ","length":69},"routeShortName":"14","routeLongName":"Coopérative","rentedBike":false,"transitLeg":true,"duration":1046.0,"steps":[]},{"startTime":1522717584000,"endTime":1522717725000,"departureDelay":0,"arrivalDelay":0,"realTime":false,"distance":172.207,"pathway":false,"mode":"WALK","route":"","agencyTimeZoneOffset":-14400000,"interlineWithPreviousLeg":false,"from":{"name":"Bégin / Château Richer","stopId":"1:1982","stopCode":"1982","lon":-71.076545,"lat":48.403266,"arrival":1522717583000,"departure":1522717584000,"zoneId":"NA","stopIndex":21,"stopSequence":22,"vertexType":"TRANSIT"},"to":{"name":"Destination","lon":-71.07738,"lat":48.402014,"arrival":1522717725000,"orig":"","vertexType":"NORMAL"},"legGeometry":{"points":"_wlfHxcypLJ_@d@z@\\p@xAzBd@oA","length":6},"rentedBike":false,"transitLeg":false,"duration":141.0,"steps":[{"distance":13.283,"relativeDirection":"DEPART","streetName":"Rue Château-Richer","absoluteDirection":"SOUTHEAST","stayOn":false,"area":false,"bogusName":false,"lon":-71.07660261127909,"lat":48.403201223823444,"elevation":[]},{"distance":122.624,"relativeDirection":"RIGHT","streetName":"Rue Bégin","absoluteDirection":"SOUTHWEST","stayOn":false,"area":false,"bogusName":false,"lon":-71.0764477,"lat":48.403140500000006,"elevation":[]},{"distance":36.3,"relativeDirection":"LEFT","streetName":"Rue Blackburn","absoluteDirection":"SOUTHEAST","stayOn":false,"area":false,"bogusName":false,"lon":-71.0776148,"lat":48.402357,"elevation":[]}]}],"tooSloped":false}]},"debugOutput":{"precalculationTime":40,"pathCalculationTime":45,"pathTimes":[18,11,16],"renderingTime":1,"totalTime":86,"timedOut":false},"elevationMetadata":{"ellipsoidToGeoidDifference":-28.885904201182168,"geoidElevation":false}}