{"requestParameters":{"date":"2018/04/02","walkSpeed":"1.33","walkReluctance":"2.0","fromPlace":"48.306162,-71.110484","maxWalkDistance":"3000","waitReluctance":"1.0","carSpeed":"33","numItineraries":"3","waitAtBeginningFactor":"0.4","mode":"TRANSIT,WALK","ignoreRealtimeUpdates":"false","stairsReluctance":"2.0","toPlace":"48.325875,-71.048993","time":"16:0:00"},"plan":{"date":1522699200000,"from":{"name":"Origin","lon":-71.110484,"lat":48.306162,"orig":"","vertexType":"NORMAL"},"to":{"name":"Destination","lon":-71.048993,"lat":48.325875,"orig":"","vertexType":"NORMAL"},"itineraries":[{"duration":2476,"startTime":1522700089000,"endTime":1522702565000,"walkTime":343,"transitTime":1771,"waitingTime":362,"walkDistance":450.41667669106215,"walkLimitExceeded":false,"elevationLost":0.0,"elevationGained":0.0,"transfers":1,"legs":[{"startTime":1522700089000,"endTime":1522700219000,"departureDelay":0,"arrivalDelay":0,"realTime":false,"distance":168.34500000000003,"pathway":false,"mode":"WALK","route":"","agencyTimeZoneOffset":-14400000,"interlineWithPreviousLeg":false,"from":{"name":"Origin","lon":-71.110484,"lat":48.306162,"departure":1522700089000,"orig":"","vertexType":"NORMAL"},"to":{"name":"Notre-Dame / Gauthier","stopId":"1:1737","stopCode":"1737","lon":-71.110501,"lat":48.307493,"arrival":1522700219000,"departure":1522700220000,"zoneId":"NA","stopIndex":14,"stopSequence":15,"vertexType":"TRANSIT"},"legGeometry":{"points":"{xyeH`t_qLc@HuAh@_Av@u@|@OWGM","length":7},"rentedBike":false,"transitLeg":false,"duration":130.0,"steps":[{"distance":148.693,"relativeDirection":"DEPART","streetName":"Rue Gauthier","absoluteDirection":"NORTH","stayOn":false,"area":false,"bogusName":false,"lon":-71.10992676041147,"lat":48.30622993293171,"elevation":[]},{"distance":19.652,"relativeDirection":"RIGHT","streetName":"Rue Notre-Dame","absoluteDirection":"NORTHEAST","stayOn":false,"area":false,"bogusName":false,"lon":-71.1107748,"lat":48.3074231,"elevation":[]}]},{"startTime":1522700220000,"endTime":1522701240000,"departureDelay":0,"arrivalDelay":0,"realTime":false,"distance":10677.93000402605,"pathway":false,"mode":"BUS","route":"62","agencyName":"Société de Transport du Saguenay","agencyUrl":"http://ville.saguenay.ca/fr/services-aux-citoyens/transport-sts","agencyTimeZoneOffset":-14400000,"routeColor":"00FFFF","routeType":3,"routeId":"1:62","routeTextColor":"000000","interlineWithPreviousLeg":false,"tripBlockId":"107","headsign":"Costco","agencyId":"0","tripId":"1:218822","serviceDate":"20180402","from":{"name":"Notre-Dame / Gauthier","stopId":"1:1737","stopCode":"1737","lon":-71.110501,"lat":48.307493,"arrival":1522700219000,"departure":1522700220000,"zoneId":"NA","stopIndex":14,"stopSequence":15,"vertexType":"TRANSIT"},"to":{"name":"COSTCO","stopId":"1:1710","stopCode":"1710","lon":-71.085767,"lat":48.382333,"arrival":1522701240000,"departure":1522701600000,"zoneId":"NA","stopIndex":30,"stopSequence":31,"vertexType":"TRANSIT"},"legGeometry":{"points":"aazeHbx_qLkF{IyAwDSe@U_@o@eAkDwDoF}Fa@u@iIeQ}Qi`@_@s@a@y@}@_D_Im]y@eCgCwGsDyI]}@_@y@Sc@QSW[mBuAk@Y_@KiAe@a_@_KsUsEcAg@a@YEEcFyFsUsWmB_CqB_CeFoGmAuBi@oAEKiAsBsA{A_As@gEeCy@k@iBkBgGuG[Ya@_@qFuEg@e@qAeB{BcDq@{@iAsAgYc[qJkKyN{Ok@o@{BoAc@Sm@lBcFzO}@rB}@bBcCxCsAjAcAr@eClAsJdEoF~BsJdEsJbEAC{TpJmHjCiEhAHz@d@pGE~@I~@Kj@Od@_e@rkAUReFdMIXyCtHwBcC","length":89},"routeShortName":"62","routeLongName":"Portage des Roches Sud","rentedBike":false,"transitLeg":true,"duration":1020.0,"steps":[]},{"startTime":1522701600000,"endTime":1522702351000,"departureDelay":0,"arrivalDelay":0,"realTime":false,"distance":8287.032167522992,"pathway":false,"mode":"BUS","route":"62","agencyName":"Société de Transport du Saguenay","agencyUrl":"http://ville.saguenay.ca/fr/services-aux-citoyens/transport-sts","agencyTimeZoneOffset":-14400000,"routeColor":"00FFFF","routeType":3,"routeId":"1:62","routeTextColor":"000000","interlineWithPreviousLeg":false,"tripBlockId":"95","headsign":"Barrage Port. Roches","agencyId":"0","tripId":"1:218718","serviceDate":"20180402","from":{"name":"COSTCO","stopId":"1:1710","stopCode":"1710","lon":-71.085767,"lat":48.382333,"arrival":1522701240000,"departure":1522701600000,"zoneId":"NA","stopIndex":0,"stopSequence":1,"vertexType":"TRANSIT"},"to":{"name":"ch. St-Isidore (no. 5068)","stopId":"1:1718","stopCode":"1718","lon":-71.047317,"lat":48.328186,"arrival":1522702351000,"departure":1522702352000,"zoneId":"NA","stopIndex":10,"stopSequence":11,"vertexType":"TRANSIT"},"legGeometry":{"points":"uthfHh}zpLoB}Bs@`BjChDZbB`@x@PNlFwMHWbFmMBc@~d@skANe@Jk@H_AD_ABuADs@Hk@Lc@N_@X_@ZYbAq@pA]hDuA~UqLAEjJ_EjRiIrJeEdCmAbAs@rAkAbCyC|@cB|@sBpEkN|cA}`D~@wCz@~@~GjH|^d`@fNxNng@di@dJrJ","length":46},"routeShortName":"62","routeLongName":"Portage des Roches Sud","rentedBike":false,"transitLeg":true,"duration":751.0,"steps":[]},{"startTime":1522702352000,"endTime":1522702565000,"departureDelay":0,"arrivalDelay":0,"realTime":false,"distance":282.051,"pathway":false,"mode":"WALK","route":"","agencyTimeZoneOffset":-14400000,"interlineWithPreviousLeg":false,"from":{"name":"ch. St-Isidore (no. 5068)","stopId":"1:1718","stopCode":"1718","lon":-71.047317,"lat":48.328186,"arrival":1522702351000,"departure":1522702352000,"zoneId":"NA","stopIndex":10,"stopSequence":11,"vertexType":"TRANSIT"},"to":{"name":"Destination","lon":-71.048993,"lat":48.325875,"arrival":1522702565000,"orig":"","vertexType":"NORMAL"},"legGeometry":{"points":"sa~eHpkspLbLnL","length":2},"rentedBike":false,"transitLeg":false,"duration":213.0,"steps":[{"distance":282.051,"relativeDirection":"DEPART","streetName":"Chemin Saint-Isidore","absoluteDirection":"SOUTHWEST","stayOn":false,"area":false,"bogusName":false,"lon":-71.04712901907348,"lat":48.32810049785214,"elevation":[]}]}],"tooSloped":false},{"duration":4336,"startTime":1522703629000,"endTime":1522707965000,"walkTime":343,"transitTime":1771,"waitingTime":2222,"walkDistance":450.41667669106215,"walkLimitExceeded":false,"elevationLost":0.0,"elevationGained":0.0,"transfers":1,"legs":[{"startTime":1522703629000,"endTime":1522703759000,"departureDelay":0,"arrivalDelay":0,"realTime":false,"distance":168.34500000000003,"pathway":false,"mode":"WALK","route":"","agencyTimeZoneOffset":-14400000,"interlineWithPreviousLeg":false,"from":{"name":"Origin","lon":-71.110484,"lat":48.306162,"departure":1522703629000,"orig":"","vertexType":"NORMAL"},"to":{"name":"Notre-Dame / Gauthier","stopId":"1:1737","stopCode":"1737","lon":-71.110501,"lat":48.307493,"arrival":1522703759000,"departure":1522703760000,"zoneId":"NA","stopIndex":14,"stopSequence":15,"vertexType":"TRANSIT"},"legGeometry":{"points":"{xyeH`t_qLc@HuAh@_Av@u@|@OWGM","length":7},"rentedBike":false,"transitLeg":false,"duration":130.0,"steps":[{"distance":148.693,"relativeDirection":"DEPART","streetName":"Rue Gauthier","absoluteDirection":"NORTH","stayOn":false,"area":false,"bogusName":false,"lon":-71.10992676041147,"lat":48.30622993293171,"elevation":[]},{"distance":19.652,"relativeDirection":"RIGHT","streetName":"Rue Notre-Dame","absoluteDirection":"NORTHEAST","stayOn":false,"area":false,"bogusName":false,"lon":-71.1107748,"lat":48.3074231,"elevation":[]}]},{"startTime":1522703760000,"endTime":1522704780000,"departureDelay":0,"arrivalDelay":0,"realTime":false,"distance":10677.93000402605,"pathway":false,"mode":"BUS","route":"62","agencyName":"Société de Transport du Saguenay","agencyUrl":"http://ville.saguenay.ca/fr/services-aux-citoyens/transport-sts","agencyTimeZoneOffset":-14400000,"routeColor":"00FFFF","routeType":3,"routeId":"1:62","routeTextColor":"000000","interlineWithPreviousLeg":false,"tripBlockId":"95","headsign":"Costco","agencyId":"0","tripId":"1:218719","serviceDate":"20180402","from":{"name":"Notre-Dame / Gauthier","stopId":"1:1737","stopCode":"1737","lon":-71.110501,"lat":48.307493,"arrival":1522703759000,"departure":1522703760000,"zoneId":"NA","stopIndex":14,"stopSequence":15,"vertexType":"TRANSIT"},"to":{"name":"COSTCO","stopId":"1:1710","stopCode":"1710","lon":-71.085767,"lat":48.382333,"arrival":1522704780000,"departure":1522707000000,"zoneId":"NA","stopIndex":30,"stopSequence":31,"vertexType":"TRANSIT"},"legGeometry":{"points":"aazeHbx_qLkF{IyAwDSe@U_@o@eAkDwDoF}Fa@u@iIeQ}Qi`@_@s@a@y@}@_D_Im]y@eCgCwGsDyI]}@_@y@Sc@QSW[mBuAk@Y_@KiAe@a_@_KsUsEcAg@a@YEEcFyFsUsWmB_CqB_CeFoGmAuBi@oAEKiAsBsA{A_As@gEeCy@k@iBkBgGuG[Ya@_@qFuEg@e@qAeB{BcDq@{@iAsAgYc[qJkKyN{Ok@o@{BoAc@Sm@lBcFzO}@rB}@bBcCxCsAjAcAr@eClAsJdEoF~BsJdEsJbEAC{TpJmHjCiEhAHz@d@pGE~@I~@Kj@Od@_e@rkAUReFdMIXyCtHwBcC","length":89},"routeShortName":"62","routeLongName":"Portage des Roches Sud","rentedBike":false,"transitLeg":true,"duration":1020.0,"steps":[]},{"startTime":1522707000000,"endTime":1522707751000,"departureDelay":0,"arrivalDelay":0,"realTime":false,"distance":8287.032167522992,"pathway":false,"mode":"BUS","route":"62","agencyName":"Société de Transport du Saguenay","agencyUrl":"http://ville.saguenay.ca/fr/services-aux-citoyens/transport-sts","agencyTimeZoneOffset":-14400000,"routeColor":"00FFFF","routeType":3,"routeId":"1:62","routeTextColor":"000000","interlineWithPreviousLeg":false,"tripBlockId":"23","headsign":"Barrage Port. Roches","agencyId":"0","tripId":"1:217895","serviceDate":"20180402","from":{"name":"COSTCO","stopId":"1:1710","stopCode":"1710","lon":-71.085767,"lat":48.382333,"arrival":1522704780000,"departure":1522707000000,"zoneId":"NA","stopIndex":0,"stopSequence":1,"vertexType":"TRANSIT"},"to":{"name":"ch. St-Isidore (no. 5068)","stopId":"1:1718","stopCode":"1718","lon":-71.047317,"lat":48.328186,"arrival":1522707751000,"departure":1522707752000,"zoneId":"NA","stopIndex":10,"stopSequence":11,"vertexType":"TRANSIT"},"legGeometry":{"points":"uthfHh}zpLoB}Bs@`BjChDZbB`@x@PNlFwMHWbFmMBc@~d@skANe@Jk@H_AD_ABuADs@Hk@Lc@N_@X_@ZYbAq@pA]hDuA~UqLAEjJ_EjRiIrJeEdCmAbAs@rAkAbCyC|@cB|@sBpEkN|cA}`D~@wCz@~@~GjH|^d`@fNxNng@di@dJrJ","length":46},"routeShortName":"62","routeLongName":"Portage des Roches Sud","rentedBike":false,"transitLeg":true,"duration":751.0,"steps":[]},{"startTime":1522707752000,"endTime":1522707965000,"departureDelay":0,"arrivalDelay":0,"realTime":false,"distance":282.051,"pathway":false,"mode":"WALK","route":"","agencyTimeZoneOffset":-14400000,"interlineWithPreviousLeg":false,"from":{"name":"ch. St-Isidore (no. 5068)","stopId":"1:1718","stopCode":"1718","lon":-71.047317,"lat":48.328186,"arrival":1522707751000,"departure":1522707752000,"zoneId":"NA","stopIndex":10,"stopSequence":11,"vertexType":"TRANSIT"},"to":{"name":"Destination","lon":-71.048993,"lat":48.325875,"arrival":1522707965000,"orig":"","vertexType":"NORMAL"},"legGeometry":{"points":"sa~eHpkspLbLnL","length":2},"rentedBike":false,"transitLeg":false,"duration":213.0,"steps":[{"distance":282.051,"relativeDirection":"DEPART","streetName":"Chemin Saint-Isidore","absoluteDirection":"SOUTHWEST","stayOn":false,"area":false,"bogusName":false,"lon":-71.04712901907348,"lat":48.32810049785214,"elevation":[]}]}],"tooSloped":false},{"duration":8105,"startTime":1522701184000,"endTime":1522709289000,"walkTime":4212,"transitTime":1412,"waitingTime":2481,"walkDistance":5546.373165408172,"walkLimitExceeded":false,"elevationLost":0.0,"elevationGained":0.0,"transfers":1,"legs":[{"startTime":1522701184000,"endTime":1522703339000,"departureDelay":0,"arrivalDelay":0,"realTime":false,"distance":2822.406,"pathway":false,"mode":"WALK","route":"","agencyTimeZoneOffset":-14400000,"interlineWithPreviousLeg":false,"from":{"name":"Origin","lon":-71.110484,"lat":48.306162,"departure":1522701184000,"orig":"","vertexType":"NORMAL"},"to":{"name":"ch. Portage Roches N / Caravanes","stopId":"1:1779","stopCode":"1779","lon":-71.138324,"lat":48.31808,"arrival":1522703339000,"departure":1522703340000,"zoneId":"NA","stopIndex":12,"stopSequence":13,"vertexType":"TRANSIT"},"legGeometry":{"points":"{xyeH`t_qLc@HuAh@_Av@u@|@vDbGi@pA_@v@kAvCe@t@q@x@kGbFCBQLk@r@{AhCa@p@Yp@A@g@xAmHtSGPqBtF{ElNABcDhJ?B}JnY?@aDfJ}@bC]p@qAtDmAlD_BpEkBjFhDdDrApA@@","length":39},"rentedBike":false,"transitLeg":false,"duration":2155.0,"steps":[{"distance":148.693,"relativeDirection":"DEPART","streetName":"Rue Gauthier","absoluteDirection":"NORTH","stayOn":false,"area":false,"bogusName":false,"lon":-71.10992676041147,"lat":48.30622993293171,"elevation":[]},{"distance":140.379,"relativeDirection":"LEFT","streetName":"Rue Notre-Dame","absoluteDirection":"SOUTHWEST","stayOn":false,"area":false,"bogusName":false,"lon":-71.1107748,"lat":48.3074231,"elevation":[]},{"distance":2364.198,"relativeDirection":"RIGHT","streetName":"Rue du Boulevard","absoluteDirection":"NORTHWEST","stayOn":false,"area":false,"bogusName":false,"lon":-71.1120744,"lat":48.306503000000006,"elevation":[]},{"distance":169.136,"relativeDirection":"LEFT","streetName":"Chemin du Portage-des-Roches Nord","absoluteDirection":"SOUTHWEST","stayOn":false,"area":false,"bogusName":false,"lon":-71.1371469,"lat":48.3193853,"elevation":[]}]},{"startTime":1522703340000,"endTime":1522704066000,"departureDelay":0,"arrivalDelay":0,"realTime":false,"distance":10403.717846182064,"pathway":false,"mode":"BUS","route":"60","agencyName":"Société de Transport du Saguenay","agencyUrl":"http://ville.saguenay.ca/fr/services-aux-citoyens/transport-sts","agencyTimeZoneOffset":-14400000,"routeColor":"00FFFF","routeType":3,"routeId":"1:60","routeTextColor":"000000","interlineWithPreviousLeg":false,"tripBlockId":"107","headsign":"Terminus Chicoutimi","agencyId":"0","tripId":"1:218824","serviceDate":"20180402","from":{"name":"ch. Portage Roches N / Caravanes","stopId":"1:1779","stopCode":"1779","lon":-71.138324,"lat":48.31808,"arrival":1522703339000,"departure":1522703340000,"zoneId":"NA","stopIndex":12,"stopSequence":13,"vertexType":"TRANSIT"},"to":{"name":"boul. Royaume (no. 1460)","stopId":"1:267","stopCode":"267","lon":-71.1185,"lat":48.388791,"arrival":1522704066000,"departure":1522706545000,"zoneId":"NA","stopIndex":25,"stopSequence":26,"vertexType":"TRANSIT"},"legGeometry":{"points":"cc|eH|eeqLcD{Cw@{@]]i@i@w@gA_@e@e@UmAc@sHmAaIiA_BAM?cADsJn@gAPkAZODcAl@}@j@w@x@ML_BlB_B`DiAlDsBdH_AfCq@zAQ^S\\{BtD}BxCyAvAyA`AqDtAiCn@yD\\w@DKAOCw@c@EAcRwRe@]_AWMAgJeB{BKe@LGDeAj@kAx@cEnC_BlAoAxAeB`DsBbIQbAiAhHk@tFMlAKzAYhCOnCKdDWjGKlAMxAa@vCWnAoBbFkH~Si@lAc@j@WNcAf@{@HiCYcBc@m@Wq@Iu@Qy@_@qBeAkAu@uAm@mImCsA_@yDs@qGk@eB[o@KWCgASaA]cBkAgPsN_FkEwAgAwAsAgAyBe@gBU}AAEMmB_@aEUaB_AeE}BqIy@mCmD{JsAuCu@_Ao@u@y@y@MOsIoKeHaKkEuFSYuAcBqA_BkDgDoBuA{JsFgKgEoBo@aAS_CAeDR}Ej@yHP{BMgBYwC{@kGoCsBs@wAUqAUaCM[eF_@{IE_B?{BBsA@]LkCHaAf@}D\\mBZkA@EXaAxBkGzFmO","length":155},"routeShortName":"60","routeLongName":"Portage des Roches Nord","rentedBike":false,"transitLeg":true,"duration":726.0,"steps":[]},{"startTime":1522706545000,"endTime":1522707231000,"departureDelay":0,"arrivalDelay":0,"realTime":false,"distance":8883.552831392271,"pathway":false,"mode":"BUS","route":"62S","agencyName":"Société de Transport du Saguenay","agencyUrl":"http://ville.saguenay.ca/fr/services-aux-citoyens/transport-sts","agencyTimeZoneOffset":-14400000,"routeColor":"8B0000","routeType":3,"routeId":"1:62S","routeTextColor":"FFFFFF","interlineWithPreviousLeg":false,"tripBlockId":"109","headsign":"Terminus La Baie","agencyId":"0","tripId":"1:218845","serviceDate":"20180402","from":{"name":"boul. Royaume (no. 1460)","stopId":"1:267","stopCode":"267","lon":-71.1185,"lat":48.388791,"arrival":1522704066000,"departure":1522706545000,"zoneId":"NA","stopIndex":18,"stopSequence":19,"vertexType":"TRANSIT"},"to":{"name":"boul. Royaume / ch. St-Isidore","stopId":"1:1713","stopCode":"1713","lon":-71.029742,"lat":48.345965,"arrival":1522707231000,"departure":1522707232000,"zoneId":"NA","stopIndex":26,"stopSequence":27,"vertexType":"TRANSIT"},"legGeometry":{"points":"g}ifHfiaqLfD}ItBmFL[nAwDdAmDDSrBuIh@cC~@sFb@qCn@oF`@kEX{DLqBPkEDoBDs@LkIXco@FiDPmCToBVkBd@yBZmA~@uCjAoCRYtCyHQOa@y@[cBv@kB_@a@oB}BsCoDwCqDrCsGN_@{DmEY_@k@s@]m@Wu@As@RcARq@TgA~@qE~A_Hl@eDjBeFn@qBx@wB`A{Bt@{AlAiBhAkAl@k@pA_ApB}@nq@cRhDuA~UqLAEjJ_EjRiIrJeEdCmAbAs@rAkAbCyC|@cB|@sBpEkN|cA}`D","length":77},"routeShortName":"62S","routeLongName":"Term. Baie / Cégep Jonq","rentedBike":false,"transitLeg":true,"duration":686.0,"steps":[]},{"startTime":1522707232000,"endTime":1522709289000,"departureDelay":0,"arrivalDelay":0,"realTime":false,"distance":2723.801,"pathway":false,"mode":"WALK","route":"","agencyTimeZoneOffset":-14400000,"interlineWithPreviousLeg":false,"from":{"name":"boul. Royaume / ch. St-Isidore","stopId":"1:1713","stopCode":"1713","lon":-71.029742,"lat":48.345965,"arrival":1522707231000,"departure":1522707232000,"zoneId":"NA","stopIndex":26,"stopSequence":27,"vertexType":"TRANSIT"},"to":{"name":"Destination","lon":-71.048993,"lat":48.325875,"arrival":1522709289000,"orig":"","vertexType":"NORMAL"},"legGeometry":{"points":"uqafHn~opLBGx@kCv@dABB`HhH`_@~_@fNtNpL~LbZxZdJpJbLnL","length":12},"rentedBike":false,"transitLeg":false,"duration":2057.0,"steps":[{"distance":65.075,"relativeDirection":"DEPART","streetName":"R 170","absoluteDirection":"SOUTHEAST","stayOn":false,"area":false,"bogusName":false,"lon":-71.02967448956352,"lat":48.346035219115834,"elevation":[]},{"distance":2658.7259999999997,"relativeDirection":"RIGHT","streetName":"Chemin Saint-Isidore","absoluteDirection":"SOUTHWEST","stayOn":false,"area":false,"bogusName":false,"lon":-71.02893250000001,"lat":48.3457201,"elevation":[]}]}],"tooSloped":false}]},"debugOutput":{"precalculationTime":1,"pathCalculationTime":25,"pathTimes":[6,6,13],"renderingTime":1,"totalTime":27,"timedOut":false},"elevationMetadata":{"ellipsoidToGeoidDifference":-28.885904201182168,"geoidElevation":false}}