{"requestParameters":{"date":"2018/04/02","walkSpeed":"1.33","walkReluctance":"2.0","fromPlace":"48.403223,-71.047205","maxWalkDistance":"3000","waitReluctance":"1.0","carSpeed":"33","numItineraries":"3","waitAtBeginningFactor":"0.4","mode":"TRANSIT,WALK","ignoreRealtimeUpdates":"false","stairsReluctance":"2.0","toPlace":"48.415164,-71.051562","time":"16:0:00"},"plan":{"date":1522699200000,"from":{"name":"Origin","lon":-71.047205,"lat":48.403223,"orig":"","vertexType":"NORMAL"},"to":{"name":"Destination","lon":-71.051562,"lat":48.415164,"orig":"","vertexType":"NORMAL"},"itineraries":[{"duration":1271,"startTime":1522699200000,"endTime":1522700471000,"walkTime":1271,"transitTime":0,"waitingTime":0,"walkDistance":1634.6935413463962,"walkLimitExceeded":false,"elevationLost":0.0,"elevationGained":0.0,"transfers":0,"legs":[{"startTime":1522699200000,"endTime":1522700471000,"departureDelay":0,"arrivalDelay":0,"realTime":false,"distance":1634.4769999999999,"pathway":false,"mode":"WALK","route":"","agencyTimeZoneOffset":-14400000,"interlineWithPreviousLeg":false,"from":{"name":"Origin","lon":-71.047205,"lat":48.403223,"departure":1522699200000,"orig":"","vertexType":"NORMAL"},"to":{"name":"Destination","lon":-71.051562,"lat":48.415164,"arrival":1522700471000,"orig":"","vertexType":"NORMAL"},"legGeometry":{"points":"{vlfHbmspL{Bv@c@Ni@L{AZ{@@oAKkAjDMt@Bb@FbAcCj@k@FM?k@GmB}@AAm@WqG}CqAq@GCk@Y_Bw@KEe@JYLa@n@G^yBdHWQ[|@oAhDELOb@qAlDELIG{AuA[C{@\\u@ZY@UQy@u@KKaB{A","length":46},"rentedBike":false,"transitLeg":false,"duration":1271.0,"steps":[{"distance":247.012,"relativeDirection":"DEPART","streetName":"Rue Cyrille-Vaillancourt","absoluteDirection":"NORTH","stayOn":false,"area":false,"bogusName":false,"lon":-71.04737978808458,"lat":48.40318874634472,"elevation":[]},{"distance":136.063,"relativeDirection":"LEFT","streetName":"Rue Alfred-Rouleau","absoluteDirection":"NORTHWEST","stayOn":false,"area":false,"bogusName":false,"lon":-71.0478951,"lat":48.4053594,"elevation":[]},{"distance":533.5000000000001,"relativeDirection":"RIGHT","streetName":"Rue Des Roitelets","absoluteDirection":"NORTH","stayOn":false,"area":false,"bogusName":false,"lon":-71.0495416,"lat":48.405743300000005,"elevation":[]},{"distance":62.949,"relativeDirection":"SLIGHTLY_LEFT","streetName":"link","absoluteDirection":"NORTH","stayOn":false,"area":false,"bogusName":true,"lon":-71.0478246,"lat":48.4102837,"elevation":[]},{"distance":367.08399999999995,"relativeDirection":"SLIGHTLY_LEFT","streetName":"Boulevard de l'Université","absoluteDirection":"NORTHWEST","stayOn":false,"area":false,"bogusName":false,"lon":-71.04819570000001,"lat":48.410774100000005,"elevation":[]},{"distance":287.869,"relativeDirection":"RIGHT","streetName":"Rue d'Alma","absoluteDirection":"NORTHEAST","stayOn":false,"area":false,"bogusName":false,"lon":-71.0520843,"lat":48.4126337,"elevation":[]}]}],"tooSloped":false},{"duration":1105,"startTime":1522699946000,"endTime":1522701051000,"walkTime":1049,"transitTime":54,"waitingTime":2,"walkDistance":1351.7525714228095,"walkLimitExceeded":false,"elevationLost":0.0,"elevationGained":0.0,"transfers":0,"legs":[{"startTime":1522699946000,"endTime":1522700368000,"departureDelay":0,"arrivalDelay":0,"realTime":false,"distance":539.289,"pathway":false,"mode":"WALK","route":"","agencyTimeZoneOffset":-14400000,"interlineWithPreviousLeg":false,"from":{"name":"Origin","lon":-71.047205,"lat":48.403223,"departure":1522699946000,"orig":"","vertexType":"NORMAL"},"to":{"name":"Émile-Girardin / Roitelets","stopId":"1:268","stopCode":"268","lon":-71.050698,"lat":48.406546,"arrival":1522700368000,"departure":1522700369000,"zoneId":"NA","stopIndex":14,"stopSequence":15,"vertexType":"TRANSIT"},"legGeometry":{"points":"{vlfHbmspL{Bv@c@Ni@L{AZ{@@oAKkAjDMt@Bb@FbAcCj@OTMTM`@?fACb@@F","length":18},"rentedBike":false,"transitLeg":false,"duration":422.0,"steps":[{"distance":247.012,"relativeDirection":"DEPART","streetName":"Rue Cyrille-Vaillancourt","absoluteDirection":"NORTH","stayOn":false,"area":false,"bogusName":false,"lon":-71.04737978808458,"lat":48.40318874634472,"elevation":[]},{"distance":136.063,"relativeDirection":"LEFT","streetName":"Rue Alfred-Rouleau","absoluteDirection":"NORTHWEST","stayOn":false,"area":false,"bogusName":false,"lon":-71.0478951,"lat":48.4053594,"elevation":[]},{"distance":75.298,"relativeDirection":"RIGHT","streetName":"Rue Des Roitelets","absoluteDirection":"NORTH","stayOn":false,"area":false,"bogusName":false,"lon":-71.0495416,"lat":48.405743300000005,"elevation":[]},{"distance":38.282,"relativeDirection":"SLIGHTLY_LEFT","streetName":"link","absoluteDirection":"NORTHWEST","stayOn":false,"area":false,"bogusName":true,"lon":-71.0497612,"lat":48.4064046,"elevation":[]},{"distance":42.634,"relativeDirection":"SLIGHTLY_LEFT","streetName":"Rue Émile-Girardin","absoluteDirection":"WEST","stayOn":false,"area":false,"bogusName":false,"lon":-71.0501581,"lat":48.406621400000006,"elevation":[]}]},{"startTime":1522700369000,"endTime":1522700423000,"departureDelay":0,"arrivalDelay":0,"realTime":false,"distance":383.8109824668376,"pathway":false,"mode":"BUS","route":"12","agencyName":"Société de Transport du Saguenay","agencyUrl":"http://ville.saguenay.ca/fr/services-aux-citoyens/transport-sts","agencyTimeZoneOffset":-14400000,"routeColor":"556B2F","routeType":3,"routeId":"1:12","routeTextColor":"FFFFFF","interlineWithPreviousLeg":false,"tripBlockId":"26","headsign":"Terminus Chicoutimi","agencyId":"0","tripId":"1:217983","serviceDate":"20180402","from":{"name":"Émile-Girardin / Roitelets","stopId":"1:268","stopCode":"268","lon":-71.050698,"lat":48.406546,"arrival":1522700368000,"departure":1522700369000,"zoneId":"NA","stopIndex":14,"stopSequence":15,"vertexType":"TRANSIT"},"to":{"name":"Sûreté du Québec (Roitelets / Lorenzo-Genest)","stopId":"1:195","stopCode":"195","lon":-71.048189,"lat":48.4095,"arrival":1522700423000,"departure":1522700424000,"zoneId":"NA","stopIndex":16,"stopSequence":17,"vertexType":"TRANSIT"},"legGeometry":{"points":"ukmfHxatpLYkD}CyA}KmF","length":4},"routeShortName":"12","routeLongName":"Rivière du Moulin","rentedBike":false,"transitLeg":true,"duration":54.0,"steps":[]},{"startTime":1522700424000,"endTime":1522701051000,"departureDelay":0,"arrivalDelay":0,"realTime":false,"distance":812.285,"pathway":false,"mode":"WALK","route":"","agencyTimeZoneOffset":-14400000,"interlineWithPreviousLeg":false,"from":{"name":"Sûreté du Québec (Roitelets / Lorenzo-Genest)","stopId":"1:195","stopCode":"195","lon":-71.048189,"lat":48.4095,"arrival":1522700423000,"departure":1522700424000,"zoneId":"NA","stopIndex":16,"stopSequence":17,"vertexType":"TRANSIT"},"to":{"name":"Destination","lon":-71.051562,"lat":48.415164,"arrival":1522701051000,"orig":"","vertexType":"NORMAL"},"legGeometry":{"points":"o~mfHtrspLk@Y_Bw@KEe@JYLa@n@G^yBdHUn@}AlEO`@K\\gA|CYWIG{AuA[C{@\\u@ZY@UQy@u@KKaB{A","length":25},"rentedBike":false,"transitLeg":false,"duration":627.0,"steps":[{"distance":90.97600000000001,"relativeDirection":"DEPART","streetName":"Rue Des Roitelets","absoluteDirection":"NORTH","stayOn":false,"area":false,"bogusName":false,"lon":-71.04826942089277,"lat":48.40952065789795,"elevation":[]},{"distance":62.949,"relativeDirection":"SLIGHTLY_LEFT","streetName":"link","absoluteDirection":"NORTH","stayOn":false,"area":false,"bogusName":true,"lon":-71.0478246,"lat":48.4102837,"elevation":[]},{"distance":353.506,"relativeDirection":"SLIGHTLY_LEFT","streetName":"Boulevard de l'Université","absoluteDirection":"NORTHWEST","stayOn":false,"area":false,"bogusName":false,"lon":-71.04819570000001,"lat":48.410774100000005,"elevation":[]},{"distance":304.85400000000004,"relativeDirection":"RIGHT","streetName":"Rue d'Alma","absoluteDirection":"NORTHEAST","stayOn":false,"area":false,"bogusName":false,"lon":-71.0522085,"lat":48.412505100000004,"elevation":[]}]}],"tooSloped":false},{"duration":1210,"startTime":1522699939000,"endTime":1522701149000,"walkTime":1045,"transitTime":163,"waitingTime":2,"walkDistance":1311.4185864537558,"walkLimitExceeded":false,"elevationLost":0.0,"elevationGained":0.0,"transfers":0,"legs":[{"startTime":1522699939000,"endTime":1522700699000,"departureDelay":0,"arrivalDelay":0,"realTime":false,"distance":939.3929999999999,"pathway":false,"mode":"WALK","route":"","agencyTimeZoneOffset":-14400000,"interlineWithPreviousLeg":false,"from":{"name":"Origin","lon":-71.047205,"lat":48.403223,"departure":1522699939000,"orig":"","vertexType":"NORMAL"},"to":{"name":"Place Royaume","stopId":"1:1801","stopCode":"1801","lon":-71.057017,"lat":48.405588,"arrival":1522700699000,"departure":1522700700000,"zoneId":"NA","stopIndex":10,"stopSequence":11,"vertexType":"TRANSIT"},"legGeometry":{"points":"{vlfHbmspL{Bv@c@Ni@Lb@zEC@_@Jf@|FG@p@tHe@L@zA]DSIq@zB{CfKVVN\\?p@c@~AXTq@tBa@zA","length":23},"rentedBike":false,"transitLeg":false,"duration":760.0,"steps":[{"distance":115.98400000000001,"relativeDirection":"DEPART","streetName":"Rue Cyrille-Vaillancourt","absoluteDirection":"NORTH","stayOn":false,"area":false,"bogusName":false,"lon":-71.04737978808458,"lat":48.40318874634472,"elevation":[]},{"distance":321.635,"relativeDirection":"LEFT","streetName":"path","absoluteDirection":"WEST","stayOn":false,"area":false,"bogusName":true,"lon":-71.04780290000001,"lat":48.4041926,"elevation":[]},{"distance":21.413,"relativeDirection":"RIGHT","streetName":"Rue des Champs-Élysées","absoluteDirection":"NORTH","stayOn":false,"area":false,"bogusName":false,"lon":-71.0518035,"lat":48.4037852,"elevation":[]},{"distance":284.65700000000004,"relativeDirection":"LEFT","streetName":"parking aisle","absoluteDirection":"WEST","stayOn":false,"area":false,"bogusName":true,"lon":-71.0518792,"lat":48.4039711,"elevation":[]},{"distance":105.386,"relativeDirection":"LEFT","streetName":"service road","absoluteDirection":"SOUTHWEST","stayOn":true,"area":false,"bogusName":true,"lon":-71.054893,"lat":48.4052475,"elevation":[]},{"distance":90.318,"relativeDirection":"RIGHT","streetName":"parking aisle","absoluteDirection":"NORTHWEST","stayOn":true,"area":false,"bogusName":true,"lon":-71.05600720000001,"lat":48.4050992,"elevation":[]}]},{"startTime":1522700700000,"endTime":1522700863000,"departureDelay":0,"arrivalDelay":0,"realTime":false,"distance":995.5036659423915,"pathway":false,"mode":"BUS","route":"175","agencyName":"Société de Transport du Saguenay","agencyUrl":"http://ville.saguenay.ca/fr/services-aux-citoyens/transport-sts","agencyTimeZoneOffset":-14400000,"routeColor":"FF00FF","routeType":3,"routeId":"1:175","routeTextColor":"FFFFFF","interlineWithPreviousLeg":false,"tripBlockId":"9","headsign":"Terminus Chicoutimi","agencyId":"0","tripId":"1:217411","serviceDate":"20180402","from":{"name":"Place Royaume","stopId":"1:1801","stopCode":"1801","lon":-71.057017,"lat":48.405588,"arrival":1522700699000,"departure":1522700700000,"zoneId":"NA","stopIndex":10,"stopSequence":11,"vertexType":"TRANSIT"},"to":{"name":"boul. Université / Alma","stopId":"1:60","stopCode":"60","lon":-71.052847,"lat":48.413175,"arrival":1522700863000,"departure":1522700864000,"zoneId":"NA","stopIndex":12,"stopSequence":13,"vertexType":"TRANSIT"},"legGeometry":{"points":"sfmfH`kupL_U_TcNgNcBcB{E`J","length":5},"routeShortName":"175","routeLongName":"Term. Chic / Costco","rentedBike":false,"transitLeg":true,"duration":163.0,"steps":[]},{"startTime":1522700864000,"endTime":1522701149000,"departureDelay":0,"arrivalDelay":0,"realTime":false,"distance":371.641,"pathway":false,"mode":"WALK","route":"","agencyTimeZoneOffset":-14400000,"interlineWithPreviousLeg":false,"from":{"name":"boul. Université / Alma","stopId":"1:60","stopCode":"60","lon":-71.052847,"lat":48.413175,"arrival":1522700863000,"departure":1522700864000,"zoneId":"NA","stopIndex":12,"stopSequence":13,"vertexType":"TRANSIT"},"to":{"name":"Destination","lon":-71.051562,"lat":48.415164,"arrival":1522701149000,"orig":"","vertexType":"NORMAL"},"legGeometry":{"points":"gunfHpotpL^]hAaCIG{AuA[C{@\\u@ZY@UQy@u@KKaB{A","length":13},"rentedBike":false,"transitLeg":false,"duration":285.0,"steps":[{"distance":83.772,"relativeDirection":"DEPART","streetName":"Boulevard de l'Université","absoluteDirection":"SOUTHEAST","stayOn":false,"area":false,"bogusName":false,"lon":-71.05288001080534,"lat":48.41316151165065,"elevation":[]},{"distance":287.869,"relativeDirection":"LEFT","streetName":"Rue d'Alma","absoluteDirection":"NORTHEAST","stayOn":false,"area":false,"bogusName":false,"lon":-71.0520843,"lat":48.4126337,"elevation":[]}]}],"tooSloped":false}]},"debugOutput":{"precalculationTime":48,"pathCalculationTime":38,"pathTimes":[20,9,9],"renderingTime":1,"totalTime":87,"timedOut":false},"elevationMetadata":{"ellipsoidToGeoidDifference":-28.885904201182168,"geoidElevation":false}}