{"requestParameters":{"date":"2018/04/02","walkSpeed":"1.33","walkReluctance":"2.0","fromPlace":"48.403533,-71.09575499","maxWalkDistance":"3000","waitReluctance":"1.0","carSpeed":"33","numItineraries":"3","waitAtBeginningFactor":"0.4","mode":"TRANSIT,WALK","ignoreRealtimeUpdates":"false","stairsReluctance":"2.0","toPlace":"48.441933,-71.058787","time":"14:45:00"},"plan":{"date":1522694700000,"from":{"name":"Origin","lon":-71.09575499,"lat":48.403533,"orig":"","vertexType":"NORMAL"},"to":{"name":"Destination","lon":-71.058787,"lat":48.441933,"orig":"","vertexType":"NORMAL"},"itineraries":[{"duration":1762,"startTime":1522695325000,"endTime":1522697087000,"walkTime":442,"transitTime":1078,"waitingTime":242,"walkDistance":574.4399323300871,"walkLimitExceeded":false,"elevationLost":0.0,"elevationGained":0.0,"transfers":1,"legs":[{"startTime":1522695325000,"endTime":1522695484000,"departureDelay":0,"arrivalDelay":0,"realTime":false,"distance":208.861,"pathway":false,"mode":"WALK","route":"","agencyTimeZoneOffset":-14400000,"interlineWithPreviousLeg":false,"from":{"name":"Origin","lon":-71.09575499,"lat":48.403533,"departure":1522695325000,"orig":"","vertexType":"NORMAL"},"to":{"name":"boul. Barrette / Estacade","stopId":"1:478","stopCode":"478","lon":-71.098119,"lat":48.404568,"arrival":1522695484000,"departure":1522695485000,"zoneId":"NA","stopIndex":12,"stopSequence":13,"vertexType":"TRANSIT"},"legGeometry":{"points":"cxlfHn||pLqBnFiBzE","length":3},"rentedBike":false,"transitLeg":false,"duration":159.0,"steps":[{"distance":208.861,"relativeDirection":"DEPART","streetName":"Boulevard Barrette","absoluteDirection":"NORTHWEST","stayOn":false,"area":false,"bogusName":false,"lon":-71.09591998946789,"lat":48.40338137772272,"elevation":[]}]},{"startTime":1522695485000,"endTime":1522696260000,"departureDelay":0,"arrivalDelay":0,"realTime":false,"distance":4144.10955641661,"pathway":false,"mode":"BUS","route":"11","agencyName":"Société de Transport du Saguenay","agencyUrl":"http://ville.saguenay.ca/fr/services-aux-citoyens/transport-sts","agencyTimeZoneOffset":-14400000,"routeColor":"FF0000","routeType":3,"routeId":"1:11","routeTextColor":"FFFFFF","interlineWithPreviousLeg":false,"tripBlockId":"37","headsign":"Terminus Chicoutimi","agencyId":"0","tripId":"1:218319","serviceDate":"20180402","from":{"name":"boul. Barrette / Estacade","stopId":"1:478","stopCode":"478","lon":-71.098119,"lat":48.404568,"arrival":1522695484000,"departure":1522695485000,"zoneId":"NA","stopIndex":12,"stopSequence":13,"vertexType":"TRANSIT"},"to":{"name":"Terminus Chicoutimi","stopId":"1:1289","stopCode":"1289","lon":-71.066163,"lat":48.428677,"arrival":1522696260000,"departure":1522696500000,"zoneId":"NA","stopIndex":30,"stopSequence":31,"vertexType":"TRANSIT"},"legGeometry":{"points":"c_mfHtj}pLy@vBeCuCoCaDkDuE_@g@{FwGOMnA}CnA_DJWu@iAW[S[yI{MmBqC{@wAQUw@gAsDiF_B_CQYa@cA[_AUy@YcBOgAYHu@\\M`@cAiBuAyBkHgL{C{E}AcCc@o@q@gAOWwCyCyGyG_IaIs@rBEHwAtDmBvEOd@[bBK~AIf@YHE@Q@O?OCI_@GMEKI_AB_A?Yo@IKCIEIIKOEKCKe@}BKs@CQAUE_A@yCFcDVsLDaCD_@kBKW?e@Q_BQNuEDuBXmNLgHmKm@}BW{AMCn@o@G??","length":91},"routeShortName":"11","routeLongName":"Chic/Faubourg via St-Paul","rentedBike":false,"transitLeg":true,"duration":775.0,"steps":[]},{"startTime":1522696500000,"endTime":1522696803000,"departureDelay":0,"arrivalDelay":0,"realTime":false,"distance":1445.1781370852384,"pathway":false,"mode":"BUS","route":"24","agencyName":"Société de Transport du Saguenay","agencyUrl":"http://ville.saguenay.ca/fr/services-aux-citoyens/transport-sts","agencyTimeZoneOffset":-14400000,"routeColor":"00FF00","routeType":3,"routeId":"1:24","routeTextColor":"000000","interlineWithPreviousLeg":false,"tripBlockId":"5","headsign":"Terminus Chicoutimi","agencyId":"0","tripId":"1:217267","serviceDate":"20180402","from":{"name":"Terminus Chicoutimi","stopId":"1:1289","stopCode":"1289","lon":-71.066163,"lat":48.428677,"arrival":1522696260000,"departure":1522696500000,"zoneId":"NA","stopIndex":0,"stopSequence":1,"vertexType":"TRANSIT"},"to":{"name":"Napoléon / Roussel","stopId":"1:805","stopCode":"805","lon":-71.059698,"lat":48.438926,"arrival":1522696803000,"departure":1522696804000,"zoneId":"NA","stopIndex":3,"stopSequence":4,"vertexType":"TRANSIT"},"legGeometry":{"points":"evqfHzcwpLg@?EhBO~GoBKCp@O\\WjGOfGCRK^KJMHQB_AMg@Gm\\wO]i@wAyA_@WUKMEwEm@Js@Da@??@@??@?@???@???@?@??A@???@A@??A@??A@A??@A?A??@A?A?A?A@A?A???A?A?A???A?A?A?A???A?AAA?A???AAA?A??AA?AA??AA??A??AA??A??AA?A???A????q@C{AAaB?mAEcAGs@OoAa@sB[kAYcASq@Ok@Qq@Ku@MoBKmAa@eHi@FKC_@I??","length":110},"routeShortName":"24","routeLongName":"Saint-Luc","rentedBike":false,"transitLeg":true,"duration":303.0,"steps":[]},{"startTime":1522696804000,"endTime":1522697087000,"departureDelay":0,"arrivalDelay":0,"realTime":false,"distance":365.55600000000004,"pathway":false,"mode":"WALK","route":"","agencyTimeZoneOffset":-14400000,"interlineWithPreviousLeg":false,"from":{"name":"Napoléon / Roussel","stopId":"1:805","stopCode":"805","lon":-71.059698,"lat":48.438926,"arrival":1522696803000,"departure":1522696804000,"zoneId":"NA","stopIndex":3,"stopSequence":4,"vertexType":"TRANSIT"},"to":{"name":"Destination","lon":-71.058787,"lat":48.441933,"arrival":1522697087000,"orig":"","vertexType":"NORMAL"},"legGeometry":{"points":"kvsfHrzupLkEaBcFmB[BIv@UFSDyAa@","length":8},"rentedBike":false,"transitLeg":false,"duration":283.0,"steps":[{"distance":252.034,"relativeDirection":"DEPART","streetName":"Rue Napoléon","absoluteDirection":"NORTH","stayOn":false,"area":false,"bogusName":false,"lon":-71.05977092785905,"lat":48.43894142274176,"elevation":[]},{"distance":61.104,"relativeDirection":"SLIGHTLY_LEFT","streetName":"path","absoluteDirection":"NORTH","stayOn":false,"area":false,"bogusName":true,"lon":-71.058738,"lat":48.4411019,"elevation":[]},{"distance":52.418,"relativeDirection":"SLIGHTLY_RIGHT","streetName":"bike path","absoluteDirection":"NORTH","stayOn":false,"area":false,"bogusName":false,"lon":-71.0591098,"lat":48.4415014,"elevation":[]}]}],"tooSloped":false},{"duration":1477,"startTime":1522697125000,"endTime":1522698602000,"walkTime":210,"transitTime":1145,"waitingTime":122,"walkDistance":272.6119022552873,"walkLimitExceeded":false,"elevationLost":0.0,"elevationGained":0.0,"transfers":1,"legs":[{"startTime":1522697125000,"endTime":1522697284000,"departureDelay":0,"arrivalDelay":0,"realTime":false,"distance":208.861,"pathway":false,"mode":"WALK","route":"","agencyTimeZoneOffset":-14400000,"interlineWithPreviousLeg":false,"from":{"name":"Origin","lon":-71.09575499,"lat":48.403533,"departure":1522697125000,"orig":"","vertexType":"NORMAL"},"to":{"name":"boul. Barrette / Estacade","stopId":"1:478","stopCode":"478","lon":-71.098119,"lat":48.404568,"arrival":1522697284000,"departure":1522697285000,"zoneId":"NA","stopIndex":12,"stopSequence":13,"vertexType":"TRANSIT"},"legGeometry":{"points":"cxlfHn||pLqBnFiBzE","length":3},"rentedBike":false,"transitLeg":false,"duration":159.0,"steps":[{"distance":208.861,"relativeDirection":"DEPART","streetName":"Boulevard Barrette","absoluteDirection":"NORTHWEST","stayOn":false,"area":false,"bogusName":false,"lon":-71.09591998946789,"lat":48.40338137772272,"elevation":[]}]},{"startTime":1522697285000,"endTime":1522698060000,"departureDelay":0,"arrivalDelay":0,"realTime":false,"distance":4144.10955641661,"pathway":false,"mode":"BUS","route":"11","agencyName":"Société de Transport du Saguenay","agencyUrl":"http://ville.saguenay.ca/fr/services-aux-citoyens/transport-sts","agencyTimeZoneOffset":-14400000,"routeColor":"FF0000","routeType":3,"routeId":"1:11","routeTextColor":"FFFFFF","interlineWithPreviousLeg":false,"tripBlockId":"34","headsign":"Terminus Chicoutimi","agencyId":"0","tripId":"1:218224","serviceDate":"20180402","from":{"name":"boul. Barrette / Estacade","stopId":"1:478","stopCode":"478","lon":-71.098119,"lat":48.404568,"arrival":1522697284000,"departure":1522697285000,"zoneId":"NA","stopIndex":12,"stopSequence":13,"vertexType":"TRANSIT"},"to":{"name":"Terminus Chicoutimi","stopId":"1:1289","stopCode":"1289","lon":-71.066163,"lat":48.428677,"arrival":1522698060000,"departure":1522698180000,"zoneId":"NA","stopIndex":30,"stopSequence":31,"vertexType":"TRANSIT"},"legGeometry":{"points":"c_mfHtj}pLy@vBeCuCoCaDkDuE_@g@{FwGOMnA}CnA_DJWu@iAW[S[yI{MmBqC{@wAQUw@gAsDiF_B_CQYa@cA[_AUy@YcBOgAYHu@\\M`@cAiBuAyBkHgL{C{E}AcCc@o@q@gAOWwCyCyGyG_IaIs@rBEHwAtDmBvEOd@[bBK~AIf@YHE@Q@O?OCI_@GMEKI_AB_A?Yo@IKCIEIIKOEKCKe@}BKs@CQAUE_A@yCFcDVsLDaCD_@kBKW?e@Q_BQNuEDuBXmNLgHmKm@}BW{AMCn@o@G??","length":91},"routeShortName":"11","routeLongName":"Chic/Faubourg via St-Paul","rentedBike":false,"transitLeg":true,"duration":775.0,"steps":[]},{"startTime":1522698180000,"endTime":1522698550000,"departureDelay":0,"arrivalDelay":0,"realTime":false,"distance":1667.8280184187613,"pathway":false,"mode":"BUS","route":"25","agencyName":"Société de Transport du Saguenay","agencyUrl":"http://ville.saguenay.ca/fr/services-aux-citoyens/transport-sts","agencyTimeZoneOffset":-14400000,"routeColor":"00FFFF","routeType":3,"routeId":"1:25","routeTextColor":"000000","interlineWithPreviousLeg":false,"tripBlockId":"68","headsign":"Terminus Chicoutimi","agencyId":"0","tripId":"1:218586","serviceDate":"20180402","from":{"name":"Terminus Chicoutimi","stopId":"1:1289","stopCode":"1289","lon":-71.066163,"lat":48.428677,"arrival":1522698060000,"departure":1522698180000,"zoneId":"NA","stopIndex":0,"stopSequence":1,"vertexType":"TRANSIT"},"to":{"name":"Église St-Luc (boul. Tadoussac)","stopId":"1:2026","stopCode":"2026","lon":-71.058973,"lat":48.441418,"arrival":1522698550000,"departure":1522698551000,"zoneId":"NA","stopIndex":4,"stopSequence":5,"vertexType":"TRANSIT"},"legGeometry":{"points":"avqfH``wpLc@E@o@kAOYCm@rRO\\WjGOfGCRK^KJMHQB_AMg@Gm\\wO]i@wAyA_@WUKMEwEm@Js@Da@??@@??@?@???@???@?@??A@???@A@??A@??A@A??@A?A??@A?A?A?A@A?A???A?A?A???A?A?A?A???A?AAA?A???AAA?A??AA?AA??AA??A??AA??A??AA?A???A????q@C{AAaB?mAEcAGs@OoAa@sB[kAYcASq@Ok@Qq@Ku@MoBiC}@yBu@AAyBu@o@Qs@[YSSUY]Ye@]{@Me@Kg@K{@","length":118},"routeShortName":"25","routeLongName":"Valin","rentedBike":false,"transitLeg":true,"duration":370.0,"steps":[]},{"startTime":1522698551000,"endTime":1522698602000,"departureDelay":0,"arrivalDelay":0,"realTime":false,"distance":63.739999999999995,"pathway":false,"mode":"WALK","route":"","agencyTimeZoneOffset":-14400000,"interlineWithPreviousLeg":false,"from":{"name":"Église St-Luc (boul. Tadoussac)","stopId":"1:2026","stopCode":"2026","lon":-71.058973,"lat":48.441418,"arrival":1522698550000,"departure":1522698551000,"zoneId":"NA","stopIndex":4,"stopSequence":5,"vertexType":"TRANSIT"},"to":{"name":"Destination","lon":-71.058787,"lat":48.441933,"arrival":1522698602000,"orig":"","vertexType":"NORMAL"},"legGeometry":{"points":"wetfHfvupLSDyAa@","length":3},"rentedBike":false,"transitLeg":false,"duration":51.0,"steps":[{"distance":11.322,"relativeDirection":"DEPART","streetName":"path","absoluteDirection":"NORTH","stayOn":false,"area":false,"bogusName":true,"lon":-71.05907515325818,"lat":48.441402285226026,"elevation":[]},{"distance":52.418,"relativeDirection":"SLIGHTLY_RIGHT","streetName":"bike path","absoluteDirection":"NORTH","stayOn":false,"area":false,"bogusName":false,"lon":-71.0591098,"lat":48.4415014,"elevation":[]}]}],"tooSloped":false},{"duration":2810,"startTime":1522696077000,"endTime":1522698887000,"walkTime":671,"transitTime":1717,"waitingTime":422,"walkDistance":871.2080150357866,"walkLimitExceeded":false,"elevationLost":0.0,"elevationGained":0.0,"transfers":1,"legs":[{"startTime":1522696077000,"endTime":1522696465000,"departureDelay":0,"arrivalDelay":0,"realTime":false,"distance":505.596,"pathway":false,"mode":"WALK","route":"","agencyTimeZoneOffset":-14400000,"interlineWithPreviousLeg":false,"from":{"name":"Origin","lon":-71.09575499,"lat":48.403533,"departure":1522696077000,"orig":"","vertexType":"NORMAL"},"to":{"name":"Malraux / Pagnol","stopId":"1:441","stopCode":"441","lon":-71.09356,"lat":48.400447,"arrival":1522696465000,"departure":1522696466000,"zoneId":"NA","stopIndex":6,"stopSequence":7,"vertexType":"TRANSIT"},"legGeometry":{"points":"cxlfHn||pL`@cAFQx@uBzEwM@?`@kAjFzFDD","length":9},"rentedBike":false,"transitLeg":false,"duration":388.0,"steps":[{"distance":340.789,"relativeDirection":"DEPART","streetName":"Boulevard Barrette","absoluteDirection":"SOUTHEAST","stayOn":false,"area":false,"bogusName":false,"lon":-71.09591998946789,"lat":48.40338137772272,"elevation":[]},{"distance":164.807,"relativeDirection":"RIGHT","streetName":"Rue Malraux","absoluteDirection":"SOUTHWEST","stayOn":false,"area":false,"bogusName":false,"lon":-71.0921587,"lat":48.401604500000005,"elevation":[]}]},{"startTime":1522696466000,"endTime":1522697880000,"departureDelay":0,"arrivalDelay":0,"realTime":false,"distance":7619.113334279732,"pathway":false,"mode":"BUS","route":"14","agencyName":"Société de Transport du Saguenay","agencyUrl":"http://ville.saguenay.ca/fr/services-aux-citoyens/transport-sts","agencyTimeZoneOffset":-14400000,"routeColor":"C0C000","routeType":3,"routeId":"1:14","routeTextColor":"000000","interlineWithPreviousLeg":false,"tripBlockId":"31","headsign":"Terminus Chicoutimi","agencyId":"0","tripId":"1:218139","serviceDate":"20180402","from":{"name":"Malraux / Pagnol","stopId":"1:441","stopCode":"441","lon":-71.09356,"lat":48.400447,"arrival":1522696465000,"departure":1522696466000,"zoneId":"NA","stopIndex":6,"stopSequence":7,"vertexType":"TRANSIT"},"to":{"name":"Terminus Chicoutimi","stopId":"1:1289","stopCode":"1289","lon":-71.066163,"lat":48.428677,"arrival":1522697880000,"departure":1522698300000,"zoneId":"NA","stopIndex":37,"stopSequence":38,"vertexType":"TRANSIT"},"legGeometry":{"points":"melfHbm|pLhCtCdDY|F_On@aB`B_GNoBvAyT|@sNuAyAuF}F}AaB_BkAC@qC\\gAWiBwBiKgMiCwEgEyHCGy@uB}@rAa@nAc@lFEf@mGvUYfAqCs@ICMCqFmDc@s@mAkBuEoESUgAhDiAfD}@zDyAcA_@Um@U{AWgB_Au@s@EEsBkCqFgF{IiI][aBhE}@}@oBmBwE{EwE{Ej@mBZeAa@SyEQg@CPcALuCx@{b@t@{[XoDd@sBl@iB~@gA`G{F{A{D_@sBFqDOq@iG{FGIoCkCgBgBsDpLHzBBT`@~COnBQf@gAjAg@bBuDmDmFgFa@_@w@s@CfAOrBEtAGbA?jBQtC?|@ExKMdIG~EUnLEhC}CKkBOkCOYbC","length":105},"routeShortName":"14","routeLongName":"Coopérative","rentedBike":false,"transitLeg":true,"duration":1414.0,"steps":[]},{"startTime":1522698300000,"endTime":1522698603000,"departureDelay":0,"arrivalDelay":0,"realTime":false,"distance":1445.1781370852384,"pathway":false,"mode":"BUS","route":"24","agencyName":"Société de Transport du Saguenay","agencyUrl":"http://ville.saguenay.ca/fr/services-aux-citoyens/transport-sts","agencyTimeZoneOffset":-14400000,"routeColor":"00FF00","routeType":3,"routeId":"1:24","routeTextColor":"000000","interlineWithPreviousLeg":false,"tripBlockId":"4","headsign":"Terminus Chicoutimi","agencyId":"0","tripId":"1:217241","serviceDate":"20180402","from":{"name":"Terminus Chicoutimi","stopId":"1:1289","stopCode":"1289","lon":-71.066163,"lat":48.428677,"arrival":1522697880000,"departure":1522698300000,"zoneId":"NA","stopIndex":0,"stopSequence":1,"vertexType":"TRANSIT"},"to":{"name":"Napoléon / Roussel","stopId":"1:805","stopCode":"805","lon":-71.059698,"lat":48.438926,"arrival":1522698603000,"departure":1522698604000,"zoneId":"NA","stopIndex":3,"stopSequence":4,"vertexType":"TRANSIT"},"legGeometry":{"points":"evqfHzcwpLg@?EhBO~GoBKCp@O\\WjGOfGCRK^KJMHQB_AMg@Gm\\wO]i@wAyA_@WUKMEwEm@Js@Da@??@@??@?@???@???@?@??A@???@A@??A@??A@A??@A?A??@A?A?A?A@A?A???A?A?A???A?A?A?A???A?AAA?A???AAA?A??AA?AA??AA??A??AA??A??AA?A???A????q@C{AAaB?mAEcAGs@OoAa@sB[kAYcASq@Ok@Qq@Ku@MoBKmAa@eHi@FKC_@I??","length":110},"routeShortName":"24","routeLongName":"Saint-Luc","rentedBike":false,"transitLeg":true,"duration":303.0,"steps":[]},{"startTime":1522698604000,"endTime":1522698887000,"departureDelay":0,"arrivalDelay":0,"realTime":false,"distance":365.55600000000004,"pathway":false,"mode":"WALK","route":"","agencyTimeZoneOffset":-14400000,"interlineWithPreviousLeg":false,"from":{"name":"Napoléon / Roussel","stopId":"1:805","stopCode":"805","lon":-71.059698,"lat":48.438926,"arrival":1522698603000,"departure":1522698604000,"zoneId":"NA","stopIndex":3,"stopSequence":4,"vertexType":"TRANSIT"},"to":{"name":"Destination","lon":-71.058787,"lat":48.441933,"arrival":1522698887000,"orig":"","vertexType":"NORMAL"},"legGeometry":{"points":"kvsfHrzupLkEaBcFmB[BIv@UFSDyAa@","length":8},"rentedBike":false,"transitLeg":false,"duration":283.0,"steps":[{"distance":252.034,"relativeDirection":"DEPART","streetName":"Rue Napoléon","absoluteDirection":"NORTH","stayOn":false,"area":false,"bogusName":false,"lon":-71.05977092785905,"lat":48.43894142274176,"elevation":[]},{"distance":61.104,"relativeDirection":"SLIGHTLY_LEFT","streetName":"path","absoluteDirection":"NORTH","stayOn":false,"area":false,"bogusName":true,"lon":-71.058738,"lat":48.4411019,"elevation":[]},{"distance":52.418,"relativeDirection":"SLIGHTLY_RIGHT","streetName":"bike path","absoluteDirection":"NORTH","stayOn":false,"area":false,"bogusName":false,"lon":-71.0591098,"lat":48.4415014,"elevation":[]}]}],"tooSloped":false}]},"debugOutput":{"precalculationTime":21,"pathCalculationTime":31,"pathTimes":[17,4,10],"renderingTime":1,"totalTime":53,"timedOut":false},"elevationMetadata":{"ellipsoidToGeoidDifference":-28.885904201182168,"geoidElevation":false}}