{"requestParameters":{"date":"2018/04/02","walkSpeed":"1.33","walkReluctance":"2.0","fromPlace":"48.440318,-71.07761499","maxWalkDistance":"3000","waitReluctance":"1.0","carSpeed":"33","numItineraries":"3","waitAtBeginningFactor":"0.4","mode":"TRANSIT,WALK","ignoreRealtimeUpdates":"false","stairsReluctance":"2.0","toPlace":"48.481028,-71.056631","time":"15:30:00"},"plan":{"date":1522697400000,"from":{"name":"Origin","lon":-71.07761499,"lat":48.440318,"orig":"","vertexType":"NORMAL"},"to":{"name":"Destination","lon":-71.056631,"lat":48.481028,"orig":"","vertexType":"NORMAL"},"itineraries":[{"duration":3432,"startTime":1522700017000,"endTime":1522703449000,"walkTime":1598,"transitTime":1832,"waitingTime":2,"walkDistance":2080.580601497609,"walkLimitExceeded":false,"elevationLost":0.0,"elevationGained":0.0,"transfers":0,"legs":[{"startTime":1522700017000,"endTime":1522700459000,"departureDelay":0,"arrivalDelay":0,"realTime":false,"distance":562.4110000000001,"pathway":false,"mode":"WALK","route":"","agencyTimeZoneOffset":-14400000,"interlineWithPreviousLeg":false,"from":{"name":"Origin","lon":-71.07761499,"lat":48.440318,"departure":1522700017000,"orig":"","vertexType":"NORMAL"},"to":{"name":"boul. Ste-Geneviève / Champs","stopId":"1:705","stopCode":"705","lon":-71.074706,"lat":48.442337,"arrival":1522700459000,"departure":1522700460000,"zoneId":"NA","stopIndex":1,"stopSequence":2,"vertexType":"TRANSIT"},"legGeometry":{"points":"k}sfHtgypLGK?M@MDKzAqAbAi@][II_AwAGOO[Uc@KUOe@{@cCQE{@OcAn@o@F[MMO_@c@SSoAdC","length":25},"rentedBike":false,"transitLeg":false,"duration":442.0,"steps":[{"distance":11.471,"relativeDirection":"DEPART","streetName":"Rue Saint-Calixte","absoluteDirection":"EAST","stayOn":false,"area":false,"bogusName":false,"lon":-71.07722592641467,"lat":48.440067962211344,"elevation":[]},{"distance":110.843,"relativeDirection":"RIGHT","streetName":"Rue Frontenac","absoluteDirection":"EAST","stayOn":false,"area":false,"bogusName":false,"lon":-71.0770979,"lat":48.4401002,"elevation":[]},{"distance":373.704,"relativeDirection":"HARD_LEFT","streetName":"Rue des Champs","absoluteDirection":"NORTHEAST","stayOn":false,"area":false,"bogusName":false,"lon":-71.0763494,"lat":48.4392658,"elevation":[]},{"distance":66.393,"relativeDirection":"LEFT","streetName":"Boulevard Sainte-Geneviève","absoluteDirection":"NORTHWEST","stayOn":false,"area":false,"bogusName":false,"lon":-71.0740944,"lat":48.4418955,"elevation":[]}]},{"startTime":1522700460000,"endTime":1522702292000,"departureDelay":0,"arrivalDelay":0,"realTime":false,"distance":22787.377129091703,"pathway":false,"mode":"BUS","route":"27","agencyName":"Société de Transport du Saguenay","agencyUrl":"http://ville.saguenay.ca/fr/services-aux-citoyens/transport-sts","agencyTimeZoneOffset":-14400000,"routeColor":"00FFFF","routeType":3,"routeId":"1:27","routeTextColor":"000000","interlineWithPreviousLeg":false,"tripBlockId":"97","headsign":"Terminus Chicoutimi","agencyId":"0","tripId":"1:218741","serviceDate":"20180402","from":{"name":"boul. Ste-Geneviève / Champs","stopId":"1:705","stopCode":"705","lon":-71.074706,"lat":48.442337,"arrival":1522700459000,"departure":1522700460000,"zoneId":"NA","stopIndex":1,"stopSequence":2,"vertexType":"TRANSIT"},"to":{"name":"Madoc / ch. Ruisseaux","stopId":"1:1797","stopCode":"1797","lon":-71.047484,"lat":48.491855,"arrival":1522702292000,"departure":1522702293000,"zoneId":"NA","stopIndex":19,"stopSequence":20,"vertexType":"TRANSIT"},"legGeometry":{"points":"iktfHhxxpLuAnCmBlE}@|B_BvFoC`JCD}@hCo@~Aq@pAs@fA{BlCoOrQMP}@jAY`@q@jAm@jA}@rBmArD?Tu@|CYzAEToB`ScA`KcB@sw@rCkDHw@Bsp@bCyDz@sCjAmBpAcAv@yn@~i@_Ap@}@b@m@Po@LgAJgAAeAMm@Me^mKwc@sM_eDcaA{i@}McLoC}SiFa@IYGSGOKy@MwFsAaPuD}UuFRkCb@sHxAaS`@}DNcB~@sI`@kEvBiRDg@tCcXH}@nAgL^cE`Hgp@RoBvAcN\\kCf@aFJ{@vBmSLqBh@aFVaBp@oGLkAH_AR}AdBwPLcAn@mGVmCdAwKPcBTaCj@iFx@_FZcA^e@rFiEl@m@P]Ps@IsD[wHWoBaBmDIu@jAyJfCqTnDc]j@kFp@SVAjAT|HbCrAb@NFhDfA~DpAdGpBfFzAhCv@j@T|@h@hAt@pAzAtBv@hFxApCn@hF~AnLvDf@NdHlBl@N~Av@z@nAj@fBF|AAhAM|DDv@J^H^x@jAbAz@p@j@oAtNtErAbCv@t@Nt@@p@Kl@_@bD_Dh@Y`@Kd@Dl@`@lBxBd@f@n@l@n@\\r@`@t@Ll@Af@Kt@o@`@i@nA}ApAcCf@w@^[z@s@d@o@Tw@l@{Cv@uBr@_BjDiGbAeBl@wA~CoIz@_A~@QHDjD^rBH~@FdAThAj@bAvA~FjIlEdDlAlAz@X`A?zDqAp@AfAV^fAf@dAb@jA`CxF^z@PjB?PAHCVAZaId|@QfBwHhz@xAf@","length":211},"routeShortName":"27","routeLongName":"St-Honoré","rentedBike":false,"transitLeg":true,"duration":1832.0,"steps":[]},{"startTime":1522702293000,"endTime":1522703449000,"departureDelay":0,"arrivalDelay":0,"realTime":false,"distance":1517.979,"pathway":false,"mode":"WALK","route":"","agencyTimeZoneOffset":-14400000,"interlineWithPreviousLeg":false,"from":{"name":"Madoc / ch. Ruisseaux","stopId":"1:1797","stopCode":"1797","lon":-71.047484,"lat":48.491855,"arrival":1522702292000,"departure":1522702293000,"zoneId":"NA","stopIndex":19,"stopSequence":20,"vertexType":"TRANSIT"},"to":{"name":"Destination","lon":-71.056631,"lat":48.481028,"arrival":1522703449000,"orig":"","vertexType":"NORMAL"},"legGeometry":{"points":"{`~fHzlspL@?h[tKfEvA~BxAt@|@l@xA|@vGh@~BL^r@rAPJBBbDfB`D~@rD~CzA`@]fE?d@HX\\VJB","length":22},"rentedBike":false,"transitLeg":false,"duration":1156.0,"steps":[{"distance":1392.482,"relativeDirection":"DEPART","streetName":"Route Madoc","absoluteDirection":"SOUTH","stayOn":false,"area":false,"bogusName":false,"lon":-71.04733533809194,"lat":48.491825915175035,"elevation":[]},{"distance":125.497,"relativeDirection":"RIGHT","streetName":"road","absoluteDirection":"WEST","stayOn":false,"area":false,"bogusName":false,"lon":-71.0555294,"lat":48.481196600000004,"elevation":[]}]}],"tooSloped":false},{"duration":3600,"startTime":1522703927000,"endTime":1522707527000,"walkTime":1598,"transitTime":2000,"waitingTime":2,"walkDistance":2080.580601497609,"walkLimitExceeded":false,"elevationLost":0.0,"elevationGained":0.0,"transfers":0,"legs":[{"startTime":1522703927000,"endTime":1522704369000,"departureDelay":0,"arrivalDelay":0,"realTime":false,"distance":562.4110000000001,"pathway":false,"mode":"WALK","route":"","agencyTimeZoneOffset":-14400000,"interlineWithPreviousLeg":false,"from":{"name":"Origin","lon":-71.07761499,"lat":48.440318,"departure":1522703927000,"orig":"","vertexType":"NORMAL"},"to":{"name":"boul. Ste-Geneviève / Champs","stopId":"1:705","stopCode":"705","lon":-71.074706,"lat":48.442337,"arrival":1522704369000,"departure":1522704370000,"zoneId":"NA","stopIndex":10,"stopSequence":11,"vertexType":"TRANSIT"},"legGeometry":{"points":"k}sfHtgypLGK?M@MDKzAqAbAi@][II_AwAGOO[Uc@KUOe@{@cCQE{@OcAn@o@F[MMO_@c@SSoAdC","length":25},"rentedBike":false,"transitLeg":false,"duration":442.0,"steps":[{"distance":11.471,"relativeDirection":"DEPART","streetName":"Rue Saint-Calixte","absoluteDirection":"EAST","stayOn":false,"area":false,"bogusName":false,"lon":-71.07722592641467,"lat":48.440067962211344,"elevation":[]},{"distance":110.843,"relativeDirection":"RIGHT","streetName":"Rue Frontenac","absoluteDirection":"EAST","stayOn":false,"area":false,"bogusName":false,"lon":-71.0770979,"lat":48.4401002,"elevation":[]},{"distance":373.704,"relativeDirection":"HARD_LEFT","streetName":"Rue des Champs","absoluteDirection":"NORTHEAST","stayOn":false,"area":false,"bogusName":false,"lon":-71.0763494,"lat":48.4392658,"elevation":[]},{"distance":66.393,"relativeDirection":"LEFT","streetName":"Boulevard Sainte-Geneviève","absoluteDirection":"NORTHWEST","stayOn":false,"area":false,"bogusName":false,"lon":-71.0740944,"lat":48.4418955,"elevation":[]}]},{"startTime":1522704370000,"endTime":1522706370000,"departureDelay":0,"arrivalDelay":0,"realTime":false,"distance":22787.377129091703,"pathway":false,"mode":"BUS","route":"27","agencyName":"Société de Transport du Saguenay","agencyUrl":"http://ville.saguenay.ca/fr/services-aux-citoyens/transport-sts","agencyTimeZoneOffset":-14400000,"routeColor":"00FFFF","routeType":3,"routeId":"1:27","routeTextColor":"000000","interlineWithPreviousLeg":false,"tripBlockId":"100","headsign":"Terminus Chicoutimi","agencyId":"0","tripId":"1:218761","serviceDate":"20180402","from":{"name":"boul. Ste-Geneviève / Champs","stopId":"1:705","stopCode":"705","lon":-71.074706,"lat":48.442337,"arrival":1522704369000,"departure":1522704370000,"zoneId":"NA","stopIndex":10,"stopSequence":11,"vertexType":"TRANSIT"},"to":{"name":"Madoc / ch. Ruisseaux","stopId":"1:1797","stopCode":"1797","lon":-71.047484,"lat":48.491855,"arrival":1522706370000,"departure":1522706371000,"zoneId":"NA","stopIndex":28,"stopSequence":29,"vertexType":"TRANSIT"},"legGeometry":{"points":"iktfHhxxpLuAnCmBlE}@|B_BvFoC`JCD}@hCo@~Aq@pAs@fA{BlCoOrQMP}@jAY`@q@jAm@jA}@rBmArD?Tu@|CYzAEToB`ScA`KcB@sw@rCkDHw@Bsp@bCyDz@sCjAmBpAcAv@yn@~i@_Ap@}@b@m@Po@LgAJgAAeAMm@Me^mKwc@sMibCis@qc@oM{c@gLaCk@cLmCaOkD_EaAsBg@{FyA{@Ue@KeFsAwEeAUE}Bi@}KgCqDy@fCu_@nHcr@dAyJbNkrA~M}oAjB_Qt@sHPeBT{B^iDr@iH\\gDlAcJbAuAhAmAxDkCx@yACwCYiHWaDgBoDIgAjBePtAuKb@mEx@oIlCuVv@WZCxLvDZHxAb@rIpCpFfB`FrA`Cx@rBfAd@b@d@d@\\b@`@Z`C|@jCp@`Ex@xFrBrLtDfFxAxCt@~Ax@t@jAl@nBHvAQjF@h@Dn@Nt@p@`AnAhAp@l@WrCy@|Id@J|ExA|Af@~@Nf@?l@KRIXSpBkBr@w@f@Ub@Mf@Fj@^|BjCfAbA`B|@p@Np@Af@On@c@vBqCxB}DlA}@TUT]Vm@Lm@b@{BbAqCdAwBtBsDbBuCfE_Lx@_A`AO~@J~BZfCHjBZbAh@`B~BzExGvEnDhAjAv@XdABt@WlC}@j@AhA\\lAzC|CrH^z@NrCqJtdA}Gdv@xAf@","length":182},"routeShortName":"27","routeLongName":"St-Honoré","rentedBike":false,"transitLeg":true,"duration":2000.0,"steps":[]},{"startTime":1522706371000,"endTime":1522707527000,"departureDelay":0,"arrivalDelay":0,"realTime":false,"distance":1517.979,"pathway":false,"mode":"WALK","route":"","agencyTimeZoneOffset":-14400000,"interlineWithPreviousLeg":false,"from":{"name":"Madoc / ch. Ruisseaux","stopId":"1:1797","stopCode":"1797","lon":-71.047484,"lat":48.491855,"arrival":1522706370000,"departure":1522706371000,"zoneId":"NA","stopIndex":28,"stopSequence":29,"vertexType":"TRANSIT"},"to":{"name":"Destination","lon":-71.056631,"lat":48.481028,"arrival":1522707527000,"orig":"","vertexType":"NORMAL"},"legGeometry":{"points":"{`~fHzlspL@?h[tKfEvA~BxAt@|@l@xA|@vGh@~BL^r@rAPJBBbDfB`D~@rD~CzA`@]fE?d@HX\\VJB","length":22},"rentedBike":false,"transitLeg":false,"duration":1156.0,"steps":[{"distance":1392.482,"relativeDirection":"DEPART","streetName":"Route Madoc","absoluteDirection":"SOUTH","stayOn":false,"area":false,"bogusName":false,"lon":-71.04733533809194,"lat":48.491825915175035,"elevation":[]},{"distance":125.497,"relativeDirection":"RIGHT","streetName":"road","absoluteDirection":"WEST","stayOn":false,"area":false,"bogusName":false,"lon":-71.0555294,"lat":48.481196600000004,"elevation":[]}]}],"tooSloped":false}]},"debugOutput":{"precalculationTime":16,"pathCalculationTime":56,"pathTimes":[19,12],"renderingTime":1,"totalTime":73,"timedOut":false},"elevationMetadata":{"ellipsoidToGeoidDifference":-28.885904201182168,"geoidElevation":false}}