{"requestParameters":{"date":"2018/04/02","walkSpeed":"1.33","walkReluctance":"2.0","fromPlace":"48.451669,-71.093183","maxWalkDistance":"3000","waitReluctance":"1.0","carSpeed":"33","numItineraries":"3","waitAtBeginningFactor":"0.4","mode":"TRANSIT,WALK","ignoreRealtimeUpdates":"false","stairsReluctance":"2.0","toPlace":"48.452939,-71.056973","time":"18:0:00"},"plan":{"date":1522706400000,"from":{"name":"Origin","lon":-71.093183,"lat":48.451669,"orig":"","vertexType":"NORMAL"},"to":{"name":"Destination","lon":-71.056973,"lat":48.452939,"orig":"","vertexType":"NORMAL"},"itineraries":[{"duration":1635,"startTime":1522706541000,"endTime":1522708176000,"walkTime":88,"transitTime":1245,"waitingTime":302,"walkDistance":114.19399999999999,"walkLimitExceeded":false,"elevationLost":0.0,"elevationGained":0.0,"transfers":1,"legs":[{"startTime":1522706541000,"endTime":1522706596000,"departureDelay":0,"arrivalDelay":0,"realTime":false,"distance":70.931,"pathway":false,"mode":"WALK","route":"","agencyTimeZoneOffset":-14400000,"interlineWithPreviousLeg":false,"from":{"name":"Origin","lon":-71.093183,"lat":48.451669,"departure":1522706541000,"orig":"","vertexType":"NORMAL"},"to":{"name":"boul. Ste-Geneviève / St-Sauveur","stopId":"1:725","stopCode":"725","lon":-71.094112,"lat":48.451823,"arrival":1522706596000,"departure":1522706597000,"zoneId":"NA","stopIndex":27,"stopSequence":28,"vertexType":"TRANSIT"},"legGeometry":{"points":"ufvfHbk|pLGl@Q~AEj@","length":4},"rentedBike":false,"transitLeg":false,"duration":55.0,"steps":[{"distance":70.931,"relativeDirection":"DEPART","streetName":"Boulevard Sainte-Geneviève","absoluteDirection":"WEST","stayOn":false,"area":false,"bogusName":false,"lon":-71.09313242384295,"lat":48.45179711242822,"elevation":[]}]},{"startTime":1522706597000,"endTime":1522707000000,"departureDelay":0,"arrivalDelay":0,"realTime":false,"distance":3553.853919969515,"pathway":false,"mode":"BUS","route":"21","agencyName":"Société de Transport du Saguenay","agencyUrl":"http://ville.saguenay.ca/fr/services-aux-citoyens/transport-sts","agencyTimeZoneOffset":-14400000,"routeColor":"556B2F","routeType":3,"routeId":"1:21","routeTextColor":"FFFFFF","interlineWithPreviousLeg":false,"tripBlockId":"2","headsign":"Terminus Chicoutimi","agencyId":"0","tripId":"1:217178","serviceDate":"20180402","from":{"name":"boul. Ste-Geneviève / St-Sauveur","stopId":"1:725","stopCode":"725","lon":-71.094112,"lat":48.451823,"arrival":1522706596000,"departure":1522706597000,"zoneId":"NA","stopIndex":27,"stopSequence":28,"vertexType":"TRANSIT"},"to":{"name":"Terminus Chicoutimi","stopId":"1:1289","stopCode":"1289","lon":-71.066163,"lat":48.428677,"arrival":1522707000000,"departure":1522707300000,"zoneId":"NA","stopIndex":34,"stopSequence":35,"vertexType":"TRANSIT"},"legGeometry":{"points":"mgvfH~p|pLDi@b@iExAsO@E^qBt@}CJGnAmDx@iBpAcCb@o@Zi@h@o@`AiArFkG`FgGdBwBt@cAbAmBx@eBj@eB`CoHpCyJbAmCtAuCZg@|@gBxAsCrCmFhHqN~@eBr@cAt@_Av@}@RQPMz@k@tAe@REZG^Af@@X@VF`@Jn@XbClAr@Xt\\`PrAb@pA^hBTjAFj@Pb@JPHLLJNJRFXDT?X?ZEVEVKTMNMHMFOB}DWSGOSYcAN}FFkAF}DJyDPwGvAHVyL","length":82},"routeShortName":"21","routeLongName":"Boul. Ste-Geneviève/Élie","rentedBike":false,"transitLeg":true,"duration":403.0,"steps":[]},{"startTime":1522707300000,"endTime":1522708142000,"departureDelay":0,"arrivalDelay":0,"realTime":false,"distance":5127.740034948495,"pathway":false,"mode":"BUS","route":"22","agencyName":"Société de Transport du Saguenay","agencyUrl":"http://ville.saguenay.ca/fr/services-aux-citoyens/transport-sts","agencyTimeZoneOffset":-14400000,"routeColor":"C0C000","routeType":3,"routeId":"1:22","routeTextColor":"000000","interlineWithPreviousLeg":false,"tripBlockId":"3","headsign":"Terminus Chicoutimi","agencyId":"0","tripId":"1:217210","serviceDate":"20180402","from":{"name":"Terminus Chicoutimi","stopId":"1:1289","stopCode":"1289","lon":-71.066163,"lat":48.428677,"arrival":1522707000000,"departure":1522707300000,"zoneId":"NA","stopIndex":0,"stopSequence":1,"vertexType":"TRANSIT"},"to":{"name":"Vimy 1963 (Ch) /","stopId":"1:757","stopCode":"757","lon":-71.0573,"lat":48.4526,"arrival":1522708142000,"departure":1522708143000,"zoneId":"NA","stopIndex":21,"stopSequence":22,"vertexType":"TRANSIT"},"legGeometry":{"points":"evqfHzcwpLg@?UhKxDVOhHMrH~CYhBBInAKXSNg@L{JHgBMoA[s@Usb@gS}@g@u@Su@Ia@Ck@Dm@HwAf@c@VeAx@iAlAU^[d@eLtTsAvBMJYF[EMIQ]y@wB[y@[{@_B{D{@uBe@gAO}AGw@SaCmAZe@AYOy@o@MKsAcA}BmBuC}BgA}@}BsBaAaA{@y@d@kDp@uEyIkDqHwC_@QmLyEy@]}I_D\\cDBWwCgAcCy@NoAZoCH{@BaA@}AJuBBYTuBaAa@c@QEEACAG?G?G?KAGgE}HGMGOU{@EOp@m@FIHQFSDW^qDJB`@LHDFFFJ^hAFVDZBXBn@@H@RBLFTHNHHJFLBP@j@OLAJAN@@?l@NTwBDQFMFIJGHCL?H@hGjB`GjBz@VNJJRBTAVQdAn@XrAh@uCvS","length":141},"routeShortName":"22","routeLongName":"Vanier","rentedBike":false,"transitLeg":true,"duration":842.0,"steps":[]},{"startTime":1522708143000,"endTime":1522708176000,"departureDelay":0,"arrivalDelay":0,"realTime":false,"distance":43.263,"pathway":false,"mode":"WALK","route":"","agencyTimeZoneOffset":-14400000,"interlineWithPreviousLeg":false,"from":{"name":"Vimy 1963 (Ch) /","stopId":"1:757","stopCode":"757","lon":-71.0573,"lat":48.4526,"arrival":1522708142000,"departure":1522708143000,"zoneId":"NA","stopIndex":21,"stopSequence":22,"vertexType":"TRANSIT"},"to":{"name":"Destination","lon":-71.056973,"lat":48.452939,"arrival":1522708176000,"orig":"","vertexType":"NORMAL"},"legGeometry":{"points":"{kvfHzkupLiAc@","length":2},"rentedBike":false,"transitLeg":false,"duration":33.0,"steps":[{"distance":43.263,"relativeDirection":"DEPART","streetName":"Rue Fabre","absoluteDirection":"NORTH","stayOn":false,"area":false,"bogusName":false,"lon":-71.05741714507252,"lat":48.452624954738766,"elevation":[]}]}],"tooSloped":false},{"duration":1183,"startTime":1522707082000,"endTime":1522708265000,"walkTime":908,"transitTime":273,"waitingTime":2,"walkDistance":1174.9665714260361,"walkLimitExceeded":false,"elevationLost":0.0,"elevationGained":0.0,"transfers":0,"legs":[{"startTime":1522707082000,"endTime":1522707686000,"departureDelay":0,"arrivalDelay":0,"realTime":false,"distance":783.993,"pathway":false,"mode":"WALK","route":"","agencyTimeZoneOffset":-14400000,"interlineWithPreviousLeg":false,"from":{"name":"Origin","lon":-71.093183,"lat":48.451669,"departure":1522707082000,"orig":"","vertexType":"NORMAL"},"to":{"name":"St-Gérard / Pasteur","stopId":"1:727","stopCode":"727","lon":-71.084309,"lat":48.448719,"arrival":1522707686000,"departure":1522707687000,"zoneId":"NA","stopIndex":4,"stopSequence":5,"vertexType":"TRANSIT"},"legGeometry":{"points":"ufvfHbk|pLDg@ZeDr@wGHu@H_@BSDWFc@F[Lm@TeABINk@@GZeABI`@oAXu@bAkC|AoCdAyAPUdCqCw@mBKU","length":26},"rentedBike":false,"transitLeg":false,"duration":604.0,"steps":[{"distance":722.622,"relativeDirection":"DEPART","streetName":"Boulevard Sainte-Geneviève","absoluteDirection":"EAST","stayOn":false,"area":false,"bogusName":false,"lon":-71.09313242384295,"lat":48.45179711242822,"elevation":[]},{"distance":61.371,"relativeDirection":"LEFT","streetName":"Rue Saint-Gérard","absoluteDirection":"NORTHEAST","stayOn":false,"area":false,"bogusName":false,"lon":-71.08506560000001,"lat":48.448469300000006,"elevation":[]}]},{"startTime":1522707687000,"endTime":1522707960000,"departureDelay":0,"arrivalDelay":0,"realTime":false,"distance":2177.277262893022,"pathway":false,"mode":"BUS","route":"23","agencyName":"Société de Transport du Saguenay","agencyUrl":"http://ville.saguenay.ca/fr/services-aux-citoyens/transport-sts","agencyTimeZoneOffset":-14400000,"routeColor":"FF00FF","routeType":3,"routeId":"1:23","routeTextColor":"FFFFFF","interlineWithPreviousLeg":false,"tripBlockId":"4","headsign":"Terminus Chicoutimi","agencyId":"0","tripId":"1:217246","serviceDate":"20180402","from":{"name":"St-Gérard / Pasteur","stopId":"1:727","stopCode":"727","lon":-71.084309,"lat":48.448719,"arrival":1522707686000,"departure":1522707687000,"zoneId":"NA","stopIndex":4,"stopSequence":5,"vertexType":"TRANSIT"},"to":{"name":"Verdun / Riviera","stopId":"1:2023","stopCode":"2023","lon":-71.057875,"lat":48.449739,"arrival":1522707960000,"departure":1522707961000,"zoneId":"NA","stopIndex":14,"stopSequence":15,"vertexType":"TRANSIT"},"legGeometry":{"points":"ssufHxtzpLGCUi@Wm@ScA_@gGSaE@_@@_@@ERoBFe@No@`@gAbCyFNe@Ha@He@Fg@Du@Dg@Hc@Pa@RW\\S`@QZEm@eHM}B?GGi@Is@Ou@Qw@Mo@Kw@ImAGoBAk@aALa@?YEUKc@Yc@_@KOIUGUEWAW?YBqAH_AXeC@IdB_Mh@_EJk@d@kDhAqI`AgHz@oGBU?UAWCWUwAWD]B]AUEoAc@kE}AOIq@g@g@u@]w@b@s@","length":78},"routeShortName":"23","routeLongName":"Côte Verdun via Aréna du Plateau","rentedBike":false,"transitLeg":true,"duration":273.0,"steps":[]},{"startTime":1522707961000,"endTime":1522708265000,"departureDelay":0,"arrivalDelay":0,"realTime":false,"distance":390.895,"pathway":false,"mode":"WALK","route":"","agencyTimeZoneOffset":-14400000,"interlineWithPreviousLeg":false,"from":{"name":"Verdun / Riviera","stopId":"1:2023","stopCode":"2023","lon":-71.057875,"lat":48.449739,"arrival":1522707960000,"departure":1522707961000,"zoneId":"NA","stopIndex":14,"stopSequence":15,"vertexType":"TRANSIT"},"to":{"name":"Destination","lon":-71.056973,"lat":48.452939,"arrival":1522708265000,"orig":"","vertexType":"NORMAL"},"legGeometry":{"points":"czufHfnupLg@x@_ArAcBq@WIwCgAyCeAOGQGiAc@","length":10},"rentedBike":false,"transitLeg":false,"duration":304.0,"steps":[{"distance":77.14,"relativeDirection":"DEPART","streetName":"Rue de Verdun","absoluteDirection":"NORTHWEST","stayOn":false,"area":false,"bogusName":false,"lon":-71.05779790898674,"lat":48.44978803093983,"elevation":[]},{"distance":260.302,"relativeDirection":"RIGHT","streetName":"Rue Richelieu","absoluteDirection":"NORTH","stayOn":false,"area":false,"bogusName":false,"lon":-71.05850140000001,"lat":48.450301200000006,"elevation":[]},{"distance":53.452999999999996,"relativeDirection":"CONTINUE","streetName":"Rue Fabre","absoluteDirection":"NORTH","stayOn":false,"area":false,"bogusName":false,"lon":-71.0574594,"lat":48.4525377,"elevation":[]}]}],"tooSloped":false},{"duration":1183,"startTime":1522708882000,"endTime":1522710065000,"walkTime":908,"transitTime":273,"waitingTime":2,"walkDistance":1174.9665714260361,"walkLimitExceeded":false,"elevationLost":0.0,"elevationGained":0.0,"transfers":0,"legs":[{"startTime":1522708882000,"endTime":1522709486000,"departureDelay":0,"arrivalDelay":0,"realTime":false,"distance":783.993,"pathway":false,"mode":"WALK","route":"","agencyTimeZoneOffset":-14400000,"interlineWithPreviousLeg":false,"from":{"name":"Origin","lon":-71.093183,"lat":48.451669,"departure":1522708882000,"orig":"","vertexType":"NORMAL"},"to":{"name":"St-Gérard / Pasteur","stopId":"1:727","stopCode":"727","lon":-71.084309,"lat":48.448719,"arrival":1522709486000,"departure":1522709487000,"zoneId":"NA","stopIndex":4,"stopSequence":5,"vertexType":"TRANSIT"},"legGeometry":{"points":"ufvfHbk|pLDg@ZeDr@wGHu@H_@BSDWFc@F[Lm@TeABINk@@GZeABI`@oAXu@bAkC|AoCdAyAPUdCqCw@mBKU","length":26},"rentedBike":false,"transitLeg":false,"duration":604.0,"steps":[{"distance":722.622,"relativeDirection":"DEPART","streetName":"Boulevard Sainte-Geneviève","absoluteDirection":"EAST","stayOn":false,"area":false,"bogusName":false,"lon":-71.09313242384295,"lat":48.45179711242822,"elevation":[]},{"distance":61.371,"relativeDirection":"LEFT","streetName":"Rue Saint-Gérard","absoluteDirection":"NORTHEAST","stayOn":false,"area":false,"bogusName":false,"lon":-71.08506560000001,"lat":48.448469300000006,"elevation":[]}]},{"startTime":1522709487000,"endTime":1522709760000,"departureDelay":0,"arrivalDelay":0,"realTime":false,"distance":2177.277262893022,"pathway":false,"mode":"BUS","route":"23","agencyName":"Société de Transport du Saguenay","agencyUrl":"http://ville.saguenay.ca/fr/services-aux-citoyens/transport-sts","agencyTimeZoneOffset":-14400000,"routeColor":"FF00FF","routeType":3,"routeId":"1:23","routeTextColor":"FFFFFF","interlineWithPreviousLeg":false,"tripBlockId":"5","headsign":"Terminus Chicoutimi","agencyId":"0","tripId":"1:217274","serviceDate":"20180402","from":{"name":"St-Gérard / Pasteur","stopId":"1:727","stopCode":"727","lon":-71.084309,"lat":48.448719,"arrival":1522709486000,"departure":1522709487000,"zoneId":"NA","stopIndex":4,"stopSequence":5,"vertexType":"TRANSIT"},"to":{"name":"Verdun / Riviera","stopId":"1:2023","stopCode":"2023","lon":-71.057875,"lat":48.449739,"arrival":1522709760000,"departure":1522709761000,"zoneId":"NA","stopIndex":14,"stopSequence":15,"vertexType":"TRANSIT"},"legGeometry":{"points":"ssufHxtzpLGCUi@Wm@ScA_@gGSaE@_@@_@@ERoBFe@No@`@gAbCyFNe@Ha@He@Fg@Du@Dg@Hc@Pa@RW\\S`@QZEm@eHM}B?GGi@Is@Ou@Qw@Mo@Kw@ImAGoBAk@aALa@?YEUKc@Yc@_@KOIUGUEWAW?YBqAH_AXeC@IdB_Mh@_EJk@d@kDhAqI`AgHz@oGBU?UAWCWUwAWD]B]AUEoAc@kE}AOIq@g@g@u@]w@b@s@","length":78},"routeShortName":"23","routeLongName":"Côte Verdun via Aréna du Plateau","rentedBike":false,"transitLeg":true,"duration":273.0,"steps":[]},{"startTime":1522709761000,"endTime":1522710065000,"departureDelay":0,"arrivalDelay":0,"realTime":false,"distance":390.895,"pathway":false,"mode":"WALK","route":"","agencyTimeZoneOffset":-14400000,"interlineWithPreviousLeg":false,"from":{"name":"Verdun / Riviera","stopId":"1:2023","stopCode":"2023","lon":-71.057875,"lat":48.449739,"arrival":1522709760000,"departure":1522709761000,"zoneId":"NA","stopIndex":14,"stopSequence":15,"vertexType":"TRANSIT"},"to":{"name":"Destination","lon":-71.056973,"lat":48.452939,"arrival":1522710065000,"orig":"","vertexType":"NORMAL"},"legGeometry":{"points":"czufHfnupLg@x@_ArAcBq@WIwCgAyCeAOGQGiAc@","length":10},"rentedBike":false,"transitLeg":false,"duration":304.0,"steps":[{"distance":77.14,"relativeDirection":"DEPART","streetName":"Rue de Verdun","absoluteDirection":"NORTHWEST","stayOn":false,"area":false,"bogusName":false,"lon":-71.05779790898674,"lat":48.44978803093983,"elevation":[]},{"distance":260.302,"relativeDirection":"RIGHT","streetName":"Rue Richelieu","absoluteDirection":"NORTH","stayOn":false,"area":false,"bogusName":false,"lon":-71.05850140000001,"lat":48.450301200000006,"elevation":[]},{"distance":53.452999999999996,"relativeDirection":"CONTINUE","streetName":"Rue Fabre","absoluteDirection":"NORTH","stayOn":false,"area":false,"bogusName":false,"lon":-71.0574594,"lat":48.4525377,"elevation":[]}]}],"tooSloped":false}]},"debugOutput":{"precalculationTime":12,"pathCalculationTime":20,"pathTimes":[15,2,3],"renderingTime":1,"totalTime":33,"timedOut":false},"elevationMetadata":{"ellipsoidToGeoidDifference":-28.885904201182168,"geoidElevation":false}}