{"requestParameters":{"date":"2018/04/02","walkSpeed":"1.33","walkReluctance":"2.0","fromPlace":"48.452691,-71.062218","maxWalkDistance":"3000","waitReluctance":"1.0","carSpeed":"33","numItineraries":"3","waitAtBeginningFactor":"0.4","mode":"TRANSIT,WALK","ignoreRealtimeUpdates":"false","stairsReluctance":"2.0","toPlace":"48.452939,-71.056973","time":"17:15:00"},"plan":{"date":1522703700000,"from":{"name":"Origin","lon":-71.062218,"lat":48.452691,"orig":"","vertexType":"NORMAL"},"to":{"name":"Destination","lon":-71.056973,"lat":48.452939,"orig":"","vertexType":"NORMAL"},"itineraries":[{"duration":396,"startTime":1522703700000,"endTime":1522704096000,"walkTime":396,"transitTime":0,"waitingTime":0,"walkDistance":508.2956165382358,"walkLimitExceeded":false,"elevationLost":0.0,"elevationGained":0.0,"transfers":0,"legs":[{"startTime":1522703700000,"endTime":1522704096000,"departureDelay":0,"arrivalDelay":0,"realTime":false,"distance":508.19899999999996,"pathway":false,"mode":"WALK","route":"","agencyTimeZoneOffset":-14400000,"interlineWithPreviousLeg":false,"from":{"name":"Origin","lon":-71.062218,"lat":48.452691,"departure":1522703700000,"orig":"","vertexType":"NORMAL"},"to":{"name":"Destination","lon":-71.056973,"lat":48.452939,"arrival":1522704096000,"orig":"","vertexType":"NORMAL"},"legGeometry":{"points":"kkvfHrevpL_E}AECcAa@jB}CTa@Pa@Ne@F[Hc@F_@lAcIQGiAc@","length":14},"rentedBike":false,"transitLeg":false,"duration":396.0,"steps":[{"distance":155.951,"relativeDirection":"DEPART","streetName":"Rue Delisle","absoluteDirection":"NORTH","stayOn":false,"area":false,"bogusName":false,"lon":-71.06153432745567,"lat":48.45254252853581,"elevation":[]},{"distance":298.79499999999996,"relativeDirection":"HARD_RIGHT","streetName":"Rue de Vimy","absoluteDirection":"SOUTHEAST","stayOn":false,"area":false,"bogusName":false,"lon":-71.0608763,"lat":48.4538754,"elevation":[]},{"distance":53.452999999999996,"relativeDirection":"LEFT","streetName":"Rue Fabre","absoluteDirection":"NORTH","stayOn":false,"area":false,"bogusName":false,"lon":-71.0574594,"lat":48.4525377,"elevation":[]}]}],"tooSloped":false},{"duration":485,"startTime":1522704091000,"endTime":1522704576000,"walkTime":121,"transitTime":362,"waitingTime":2,"walkDistance":158.95499999999998,"walkLimitExceeded":false,"elevationLost":0.0,"elevationGained":0.0,"transfers":0,"legs":[{"startTime":1522704091000,"endTime":1522704179000,"departureDelay":0,"arrivalDelay":0,"realTime":false,"distance":115.692,"pathway":false,"mode":"WALK","route":"","agencyTimeZoneOffset":-14400000,"interlineWithPreviousLeg":false,"from":{"name":"Origin","lon":-71.062218,"lat":48.452691,"departure":1522704091000,"orig":"","vertexType":"NORMAL"},"to":{"name":"Delisle / Vimy","stopId":"1:2016","stopCode":"2016","lon":-71.060948,"lat":48.45351,"arrival":1522704179000,"departure":1522704180000,"zoneId":"NA","stopIndex":9,"stopSequence":10,"vertexType":"TRANSIT"},"legGeometry":{"points":"kkvfHrevpL_E}AEC","length":3},"rentedBike":false,"transitLeg":false,"duration":88.0,"steps":[{"distance":115.692,"relativeDirection":"DEPART","streetName":"Rue Delisle","absoluteDirection":"NORTH","stayOn":false,"area":false,"bogusName":false,"lon":-71.06153432745567,"lat":48.45254252853581,"elevation":[]}]},{"startTime":1522704180000,"endTime":1522704542000,"departureDelay":0,"arrivalDelay":0,"realTime":false,"distance":1955.7780245864346,"pathway":false,"mode":"BUS","route":"22","agencyName":"Société de Transport du Saguenay","agencyUrl":"http://ville.saguenay.ca/fr/services-aux-citoyens/transport-sts","agencyTimeZoneOffset":-14400000,"routeColor":"C0C000","routeType":3,"routeId":"1:22","routeTextColor":"000000","interlineWithPreviousLeg":false,"tripBlockId":"3","headsign":"Terminus Chicoutimi","agencyId":"0","tripId":"1:217208","serviceDate":"20180402","from":{"name":"Delisle / Vimy","stopId":"1:2016","stopCode":"2016","lon":-71.060948,"lat":48.45351,"arrival":1522704179000,"departure":1522704180000,"zoneId":"NA","stopIndex":9,"stopSequence":10,"vertexType":"TRANSIT"},"to":{"name":"Vimy 1963 (Ch) /","stopId":"1:757","stopCode":"757","lon":-71.0573,"lat":48.4526,"arrival":1522704542000,"departure":1522704543000,"zoneId":"NA","stopIndex":21,"stopSequence":22,"vertexType":"TRANSIT"},"legGeometry":{"points":"qqvfHtbvpLy@]}I_D\\cDBWwCgAcCy@NoAZoCH{@BaA@}AJuBBYTuBaAa@c@QEEACAG?G?G?KAGgE}HGMGOU{@EOp@m@FIHQFSDW^qDJB`@LHDFFFJ^hAFVDZBXBn@@H@RBLFTHNHHJFLBP@j@OLAJAN@@?l@NTwBDQFMFIJGHCL?H@hGjB`GjBz@VNJJRBTAVQdAn@XrAh@uCvS","length":79},"routeShortName":"22","routeLongName":"Vanier","rentedBike":false,"transitLeg":true,"duration":362.0,"steps":[]},{"startTime":1522704543000,"endTime":1522704576000,"departureDelay":0,"arrivalDelay":0,"realTime":false,"distance":43.263,"pathway":false,"mode":"WALK","route":"","agencyTimeZoneOffset":-14400000,"interlineWithPreviousLeg":false,"from":{"name":"Vimy 1963 (Ch) /","stopId":"1:757","stopCode":"757","lon":-71.0573,"lat":48.4526,"arrival":1522704542000,"departure":1522704543000,"zoneId":"NA","stopIndex":21,"stopSequence":22,"vertexType":"TRANSIT"},"to":{"name":"Destination","lon":-71.056973,"lat":48.452939,"arrival":1522704576000,"orig":"","vertexType":"NORMAL"},"legGeometry":{"points":"{kvfHzkupLiAc@","length":2},"rentedBike":false,"transitLeg":false,"duration":33.0,"steps":[{"distance":43.263,"relativeDirection":"DEPART","streetName":"Rue Fabre","absoluteDirection":"NORTH","stayOn":false,"area":false,"bogusName":false,"lon":-71.05741714507252,"lat":48.452624954738766,"elevation":[]}]}],"tooSloped":false},{"duration":485,"startTime":1522705891000,"endTime":1522706376000,"walkTime":121,"transitTime":362,"waitingTime":2,"walkDistance":158.95499999999998,"walkLimitExceeded":false,"elevationLost":0.0,"elevationGained":0.0,"transfers":0,"legs":[{"startTime":1522705891000,"endTime":1522705979000,"departureDelay":0,"arrivalDelay":0,"realTime":false,"distance":115.692,"pathway":false,"mode":"WALK","route":"","agencyTimeZoneOffset":-14400000,"interlineWithPreviousLeg":false,"from":{"name":"Origin","lon":-71.062218,"lat":48.452691,"departure":1522705891000,"orig":"","vertexType":"NORMAL"},"to":{"name":"Delisle / Vimy","stopId":"1:2016","stopCode":"2016","lon":-71.060948,"lat":48.45351,"arrival":1522705979000,"departure":1522705980000,"zoneId":"NA","stopIndex":9,"stopSequence":10,"vertexType":"TRANSIT"},"legGeometry":{"points":"kkvfHrevpL_E}AEC","length":3},"rentedBike":false,"transitLeg":false,"duration":88.0,"steps":[{"distance":115.692,"relativeDirection":"DEPART","streetName":"Rue Delisle","absoluteDirection":"NORTH","stayOn":false,"area":false,"bogusName":false,"lon":-71.06153432745567,"lat":48.45254252853581,"elevation":[]}]},{"startTime":1522705980000,"endTime":1522706342000,"departureDelay":0,"arrivalDelay":0,"realTime":false,"distance":1955.7780245864346,"pathway":false,"mode":"BUS","route":"22","agencyName":"Société de Transport du Saguenay","agencyUrl":"http://ville.saguenay.ca/fr/services-aux-citoyens/transport-sts","agencyTimeZoneOffset":-14400000,"routeColor":"C0C000","routeType":3,"routeId":"1:22","routeTextColor":"000000","interlineWithPreviousLeg":false,"tripBlockId":"1","headsign":"Terminus Chicoutimi","agencyId":"0","tripId":"1:217151","serviceDate":"20180402","from":{"name":"Delisle / Vimy","stopId":"1:2016","stopCode":"2016","lon":-71.060948,"lat":48.45351,"arrival":1522705979000,"departure":1522705980000,"zoneId":"NA","stopIndex":9,"stopSequence":10,"vertexType":"TRANSIT"},"to":{"name":"Vimy 1963 (Ch) /","stopId":"1:757","stopCode":"757","lon":-71.0573,"lat":48.4526,"arrival":1522706342000,"departure":1522706343000,"zoneId":"NA","stopIndex":21,"stopSequence":22,"vertexType":"TRANSIT"},"legGeometry":{"points":"qqvfHtbvpLy@]}I_D\\cDBWwCgAcCy@NoAZoCH{@BaA@}AJuBBYTuBaAa@c@QEEACAG?G?G?KAGgE}HGMGOU{@EOp@m@FIHQFSDW^qDJB`@LHDFFFJ^hAFVDZBXBn@@H@RBLFTHNHHJFLBP@j@OLAJAN@@?l@NTwBDQFMFIJGHCL?H@hGjB`GjBz@VNJJRBTAVQdAn@XrAh@uCvS","length":79},"routeShortName":"22","routeLongName":"Vanier","rentedBike":false,"transitLeg":true,"duration":362.0,"steps":[]},{"startTime":1522706343000,"endTime":1522706376000,"departureDelay":0,"arrivalDelay":0,"realTime":false,"distance":43.263,"pathway":false,"mode":"WALK","route":"","agencyTimeZoneOffset":-14400000,"interlineWithPreviousLeg":false,"from":{"name":"Vimy 1963 (Ch) /","stopId":"1:757","stopCode":"757","lon":-71.0573,"lat":48.4526,"arrival":1522706342000,"departure":1522706343000,"zoneId":"NA","stopIndex":21,"stopSequence":22,"vertexType":"TRANSIT"},"to":{"name":"Destination","lon":-71.056973,"lat":48.452939,"arrival":1522706376000,"orig":"","vertexType":"NORMAL"},"legGeometry":{"points":"{kvfHzkupLiAc@","length":2},"rentedBike":false,"transitLeg":false,"duration":33.0,"steps":[{"distance":43.263,"relativeDirection":"DEPART","streetName":"Rue Fabre","absoluteDirection":"NORTH","stayOn":false,"area":false,"bogusName":false,"lon":-71.05741714507252,"lat":48.452624954738766,"elevation":[]}]}],"tooSloped":false}]},"debugOutput":{"precalculationTime":14,"pathCalculationTime":16,"pathTimes":[4,8,4],"renderingTime":0,"totalTime":30,"timedOut":false},"elevationMetadata":{"ellipsoidToGeoidDifference":-28.885904201182168,"geoidElevation":false}}