{"requestParameters":{"date":"2018/04/02","walkSpeed":"1.33","walkReluctance":"2.0","fromPlace":"48.443416,-71.078525","maxWalkDistance":"3000","waitReluctance":"1.0","carSpeed":"33","numItineraries":"3","waitAtBeginningFactor":"0.4","mode":"TRANSIT,WALK","ignoreRealtimeUpdates":"false","stairsReluctance":"2.0","toPlace":"48.44892,-71.08624","time":"11:30:00"},"plan":{"date":1522683000000,"from":{"name":"Origin","lon":-71.078525,"lat":48.443416,"orig":"","vertexType":"NORMAL"},"to":{"name":"Destination","lon":-71.08624,"lat":48.44892,"orig":"","vertexType":"NORMAL"},"itineraries":[{"duration":629,"startTime":1522683000000,"endTime":1522683629000,"walkTime":629,"transitTime":0,"waitingTime":0,"walkDistance":825.9625263154498,"walkLimitExceeded":false,"elevationLost":0.0,"elevationGained":0.0,"transfers":0,"legs":[{"startTime":1522683000000,"endTime":1522683629000,"departureDelay":0,"arrivalDelay":0,"realTime":false,"distance":825.952,"pathway":false,"mode":"WALK","route":"","agencyTimeZoneOffset":-14400000,"interlineWithPreviousLeg":false,"from":{"name":"Origin","lon":-71.078525,"lat":48.443416,"departure":1522683000000,"orig":"","vertexType":"NORMAL"},"to":{"name":"Destination","lon":-71.08624,"lat":48.44892,"arrival":1522683629000,"orig":"","vertexType":"NORMAL"},"legGeometry":{"points":"eutfHjmypLcAtDsAvEa@fAi@~AaBbD}A~B}AnBk@r@uDlEaDzDoAvAw@x@","length":13},"rentedBike":false,"transitLeg":false,"duration":629.0,"steps":[{"distance":825.952,"relativeDirection":"DEPART","streetName":"Boulevard Sainte-Geneviève","absoluteDirection":"NORTHWEST","stayOn":false,"area":false,"bogusName":false,"lon":-71.07813879028596,"lat":48.44387841956288,"elevation":[]}]}],"tooSloped":false},{"duration":358,"startTime":1522684063000,"endTime":1522684421000,"walkTime":288,"transitTime":68,"waitingTime":2,"walkDistance":362.54588721466064,"walkLimitExceeded":false,"elevationLost":0.0,"elevationGained":0.0,"transfers":0,"legs":[{"startTime":1522684063000,"endTime":1522684218000,"departureDelay":0,"arrivalDelay":0,"realTime":false,"distance":193.902,"pathway":false,"mode":"WALK","route":"","agencyTimeZoneOffset":-14400000,"interlineWithPreviousLeg":false,"from":{"name":"Origin","lon":-71.078525,"lat":48.443416,"departure":1522684063000,"orig":"","vertexType":"NORMAL"},"to":{"name":"Place de la Colline (boul. Ste-Geneviève)","stopId":"1:706","stopCode":"706","lon":-71.080094,"lat":48.44485,"arrival":1522684218000,"departure":1522684219000,"zoneId":"NA","stopIndex":2,"stopSequence":3,"vertexType":"TRANSIT"},"legGeometry":{"points":"eutfHjmypLcAtDQSeBjF","length":4},"rentedBike":false,"transitLeg":false,"duration":155.0,"steps":[{"distance":193.902,"relativeDirection":"DEPART","streetName":"Boulevard Sainte-Geneviève","absoluteDirection":"NORTHWEST","stayOn":false,"area":false,"bogusName":false,"lon":-71.07813879028596,"lat":48.44387841956288,"elevation":[]}]},{"startTime":1522684219000,"endTime":1522684287000,"departureDelay":0,"arrivalDelay":0,"realTime":false,"distance":539.0834998067221,"pathway":false,"mode":"BUS","route":"23","agencyName":"Société de Transport du Saguenay","agencyUrl":"http://ville.saguenay.ca/fr/services-aux-citoyens/transport-sts","agencyTimeZoneOffset":-14400000,"routeColor":"FF00FF","routeType":3,"routeId":"1:23","routeTextColor":"FFFFFF","interlineWithPreviousLeg":false,"tripBlockId":"5","headsign":"Terminus Chicoutimi","agencyId":"0","tripId":"1:217260","serviceDate":"20180402","from":{"name":"Place de la Colline (boul. Ste-Geneviève)","stopId":"1:706","stopCode":"706","lon":-71.080094,"lat":48.44485,"arrival":1522684218000,"departure":1522684219000,"zoneId":"NA","stopIndex":2,"stopSequence":3,"vertexType":"TRANSIT"},"to":{"name":"St-Gérard / Pasteur","stopId":"1:727","stopCode":"727","lon":-71.084309,"lat":48.448719,"arrival":1522684287000,"departure":1522684288000,"zoneId":"NA","stopIndex":4,"stopSequence":5,"vertexType":"TRANSIT"},"legGeometry":{"points":"{ztfH~yypLCD}@hCo@~Aq@pAs@fA{BlCqH|Iq@Bq@Im@U","length":11},"routeShortName":"23","routeLongName":"Côte Verdun via Aréna du Plateau","rentedBike":false,"transitLeg":true,"duration":68.0,"steps":[]},{"startTime":1522684288000,"endTime":1522684421000,"departureDelay":0,"arrivalDelay":0,"realTime":false,"distance":168.539,"pathway":false,"mode":"WALK","route":"","agencyTimeZoneOffset":-14400000,"interlineWithPreviousLeg":false,"from":{"name":"St-Gérard / Pasteur","stopId":"1:727","stopCode":"727","lon":-71.084309,"lat":48.448719,"arrival":1522684287000,"departure":1522684288000,"zoneId":"NA","stopIndex":4,"stopSequence":5,"vertexType":"TRANSIT"},"to":{"name":"Destination","lon":-71.08624,"lat":48.44892,"arrival":1522684421000,"orig":"","vertexType":"NORMAL"},"legGeometry":{"points":"_tufHptzpLJTv@lBN\\oAvAw@x@","length":6},"rentedBike":false,"transitLeg":false,"duration":133.0,"steps":[{"distance":75.98,"relativeDirection":"DEPART","streetName":"Rue Saint-Gérard","absoluteDirection":"SOUTHWEST","stayOn":false,"area":false,"bogusName":false,"lon":-71.0844008886955,"lat":48.448801303287965,"elevation":[]},{"distance":92.559,"relativeDirection":"RIGHT","streetName":"Boulevard Sainte-Geneviève","absoluteDirection":"NORTHWEST","stayOn":false,"area":false,"bogusName":false,"lon":-71.08521470000001,"lat":48.448382800000005,"elevation":[]}]}],"tooSloped":false},{"duration":365,"startTime":1522684082000,"endTime":1522684447000,"walkTime":193,"transitTime":170,"waitingTime":2,"walkDistance":233.22358646182272,"walkLimitExceeded":false,"elevationLost":0.0,"elevationGained":0.0,"transfers":0,"legs":[{"startTime":1522684082000,"endTime":1522684237000,"departureDelay":0,"arrivalDelay":0,"realTime":false,"distance":193.902,"pathway":false,"mode":"WALK","route":"","agencyTimeZoneOffset":-14400000,"interlineWithPreviousLeg":false,"from":{"name":"Origin","lon":-71.078525,"lat":48.443416,"departure":1522684082000,"orig":"","vertexType":"NORMAL"},"to":{"name":"Place de la Colline (boul. Ste-Geneviève)","stopId":"1:706","stopCode":"706","lon":-71.080094,"lat":48.44485,"arrival":1522684237000,"departure":1522684238000,"zoneId":"NA","stopIndex":2,"stopSequence":3,"vertexType":"TRANSIT"},"legGeometry":{"points":"eutfHjmypLcAtDQSeBjF","length":4},"rentedBike":false,"transitLeg":false,"duration":155.0,"steps":[{"distance":193.902,"relativeDirection":"DEPART","streetName":"Boulevard Sainte-Geneviève","absoluteDirection":"NORTHWEST","stayOn":false,"area":false,"bogusName":false,"lon":-71.07813879028596,"lat":48.44387841956288,"elevation":[]}]},{"startTime":1522684238000,"endTime":1522684408000,"departureDelay":0,"arrivalDelay":0,"realTime":false,"distance":1525.2782456150321,"pathway":false,"mode":"BUS","route":"21","agencyName":"Société de Transport du Saguenay","agencyUrl":"http://ville.saguenay.ca/fr/services-aux-citoyens/transport-sts","agencyTimeZoneOffset":-14400000,"routeColor":"556B2F","routeType":3,"routeId":"1:21","routeTextColor":"FFFFFF","interlineWithPreviousLeg":false,"tripBlockId":"2","headsign":"Terminus Chicoutimi","agencyId":"0","tripId":"1:217166","serviceDate":"20180402","from":{"name":"Place de la Colline (boul. Ste-Geneviève)","stopId":"1:706","stopCode":"706","lon":-71.080094,"lat":48.44485,"arrival":1522684237000,"departure":1522684238000,"zoneId":"NA","stopIndex":2,"stopSequence":3,"vertexType":"TRANSIT"},"to":{"name":"boul. Ste-Geneviève / Ste-Marie","stopId":"1:708","stopCode":"708","lon":-71.08574,"lat":48.44916,"arrival":1522684408000,"departure":1522684409000,"zoneId":"NA","stopIndex":8,"stopSequence":9,"vertexType":"TRANSIT"},"legGeometry":{"points":"{ztfH~yypLCD}@hCo@~Aq@pAs@fAWs@IUC[AI?QCeGAs@Gy@Ks@Ou@OcAIcAIgAWgCG_@Og@IQS]UWYQWIUA[Da@P]RSVQ`@Ib@Ef@Et@Gf@Id@I`@Od@cCxFQOgAwA_FqGO[`BcEY_@MOaBtDLTh@bATZpGlIPNa@fAOn@Gd@UtBA^A^R`E^fGRbAVl@P`@BFNb@t@xAiCvC","length":69},"routeShortName":"21","routeLongName":"Boul. Ste-Geneviève/Élie","rentedBike":false,"transitLeg":true,"duration":170.0,"steps":[]},{"startTime":1522684409000,"endTime":1522684447000,"departureDelay":0,"arrivalDelay":0,"realTime":false,"distance":39.187,"pathway":false,"mode":"WALK","route":"","agencyTimeZoneOffset":-14400000,"interlineWithPreviousLeg":false,"from":{"name":"boul. Ste-Geneviève / Ste-Marie","stopId":"1:708","stopCode":"708","lon":-71.08574,"lat":48.44916,"arrival":1522684408000,"departure":1522684409000,"zoneId":"NA","stopIndex":8,"stopSequence":9,"vertexType":"TRANSIT"},"to":{"name":"Destination","lon":-71.08624,"lat":48.44892,"arrival":1522684447000,"orig":"","vertexType":"NORMAL"},"legGeometry":{"points":"avufHf}zpLQTLZPS","length":4},"rentedBike":false,"transitLeg":false,"duration":38.0,"steps":[{"distance":12.802,"relativeDirection":"DEPART","streetName":"Boulevard Sainte-Geneviève","absoluteDirection":"NORTHWEST","stayOn":false,"area":false,"bogusName":false,"lon":-71.0857982223501,"lat":48.449131668488924,"elevation":[]},{"distance":26.384999999999998,"relativeDirection":"UTURN_LEFT","streetName":"Boulevard Sainte-Geneviève","absoluteDirection":"SOUTHEAST","stayOn":true,"area":false,"bogusName":false,"lon":-71.08604790000001,"lat":48.4491566,"elevation":[]}]}],"tooSloped":false}]},"debugOutput":{"precalculationTime":16,"pathCalculationTime":17,"pathTimes":[9,6,2],"renderingTime":0,"totalTime":33,"timedOut":false},"elevationMetadata":{"ellipsoidToGeoidDifference":-28.885904201182168,"geoidElevation":false}}