{"requestParameters":{"date":"2018/04/02","walkSpeed":"1.33","walkReluctance":"2.0","fromPlace":"48.335041,-71.076326","maxWalkDistance":"3000","waitReluctance":"1.0","carSpeed":"33","numItineraries":"3","waitAtBeginningFactor":"0.4","mode":"TRANSIT,WALK","ignoreRealtimeUpdates":"false","stairsReluctance":"2.0","toPlace":"48.309498,-71.11380099","time":"7:30:00"},"plan":{"date":1522668600000,"from":{"name":"Origin","lon":-71.076326,"lat":48.335041,"orig":"","vertexType":"NORMAL"},"to":{"name":"Destination","lon":-71.11380099,"lat":48.309498,"orig":"","vertexType":"NORMAL"},"itineraries":[{"duration":2716,"startTime":1522683161000,"endTime":1522685877000,"walkTime":2505,"transitTime":209,"waitingTime":2,"walkDistance":3303.559857138247,"walkLimitExceeded":false,"elevationLost":0.0,"elevationGained":0.0,"transfers":0,"legs":[{"startTime":1522683161000,"endTime":1522685410000,"departureDelay":0,"arrivalDelay":0,"realTime":false,"distance":2978.187,"pathway":false,"mode":"WALK","route":"","agencyTimeZoneOffset":-14400000,"interlineWithPreviousLeg":false,"from":{"name":"Origin","lon":-71.076326,"lat":48.335041,"departure":1522683161000,"orig":"","vertexType":"NORMAL"},"to":{"name":"ch. St-Isidore / ch. St-Henri","stopId":"1:1721","stopCode":"1721","lon":-71.083358,"lat":48.314965,"arrival":1522685410000,"departure":1522685411000,"zoneId":"NA","stopIndex":13,"stopSequence":14,"vertexType":"TRANSIT"},"legGeometry":{"points":"wo_fHtgypLxNnPz@bAfDtDLNx@h@dJfB`TxExXpHdDrBbA|@Tj@vJrUt@vCv@fF|Tip@DK","length":17},"rentedBike":false,"transitLeg":false,"duration":2249.0,"steps":[{"distance":2271.142,"relativeDirection":"DEPART","streetName":"Chemin de l'Église","absoluteDirection":"SOUTHWEST","stayOn":false,"area":false,"bogusName":false,"lon":-71.077226374265,"lat":48.33548185935467,"elevation":[]},{"distance":707.045,"relativeDirection":"HARD_LEFT","streetName":"Chemin Saint-Isidore","absoluteDirection":"SOUTHEAST","stayOn":false,"area":false,"bogusName":false,"lon":-71.091352,"lat":48.318451800000005,"elevation":[]}]},{"startTime":1522685411000,"endTime":1522685620000,"departureDelay":0,"arrivalDelay":0,"realTime":false,"distance":3281.86800105062,"pathway":false,"mode":"BUS","route":"62","agencyName":"Société de Transport du Saguenay","agencyUrl":"http://ville.saguenay.ca/fr/services-aux-citoyens/transport-sts","agencyTimeZoneOffset":-14400000,"routeColor":"00FFFF","routeType":3,"routeId":"1:62","routeTextColor":"000000","interlineWithPreviousLeg":false,"tripBlockId":"73","headsign":"Costco","agencyId":"0","tripId":"1:218619","serviceDate":"20180402","from":{"name":"ch. St-Isidore / ch. St-Henri","stopId":"1:1721","stopCode":"1721","lon":-71.083358,"lat":48.314965,"arrival":1522685410000,"departure":1522685411000,"zoneId":"NA","stopIndex":13,"stopSequence":14,"vertexType":"TRANSIT"},"to":{"name":"Boulevard / Culture","stopId":"1:319","stopCode":"319","lon":-71.117175,"lat":48.310379,"arrival":1522685620000,"departure":1522685621000,"zoneId":"NA","stopIndex":17,"stopSequence":18,"vertexType":"TRANSIT"},"legGeometry":{"points":"ao{eHlnzpLCDt_AzaA^h@BFDTBV?VATADwBlGCPCl@Jt@pBnG^pBFd@DlAEdCGhCElAg@pG?nAF~@PnAVxAp@lF^`B^dAxAnC@@pAzAr@lAPp@Lj@Dh@HjB@fAWzFA~BQAOAQGWMk@k@QSM[M_@IY_@_AQWSO_DcBUEYLa@VWLYPyGrNeC`GoAzBw@t@kCvBkBvAg@`@[\\g@t@i@bACF}AlE","length":70},"routeShortName":"62","routeLongName":"Portage des Roches Sud","rentedBike":false,"transitLeg":true,"duration":209.0,"steps":[]},{"startTime":1522685621000,"endTime":1522685877000,"departureDelay":0,"arrivalDelay":0,"realTime":false,"distance":325.23,"pathway":false,"mode":"WALK","route":"","agencyTimeZoneOffset":-14400000,"interlineWithPreviousLeg":false,"from":{"name":"Boulevard / Culture","stopId":"1:319","stopCode":"319","lon":-71.117175,"lat":48.310379,"arrival":1522685620000,"departure":1522685621000,"zoneId":"NA","stopIndex":17,"stopSequence":18,"vertexType":"TRANSIT"},"to":{"name":"Destination","lon":-71.11380099,"lat":48.309498,"arrival":1522685877000,"orig":"","vertexType":"NORMAL"},"legGeometry":{"points":"qrzeHtaaqLf@yAwBqB`BqEvB}CYq@","length":6},"rentedBike":false,"transitLeg":false,"duration":256.0,"steps":[{"distance":39.857,"relativeDirection":"DEPART","streetName":"Rue du Boulevard","absoluteDirection":"SOUTHEAST","stayOn":false,"area":false,"bogusName":false,"lon":-71.11722134605982,"lat":48.310334116525226,"elevation":[]},{"distance":79.487,"relativeDirection":"LEFT","streetName":"Rue de la culture","absoluteDirection":"NORTHEAST","stayOn":false,"area":false,"bogusName":false,"lon":-71.11677710000001,"lat":48.3101312,"elevation":[]},{"distance":183.303,"relativeDirection":"RIGHT","streetName":"Rue de la Moisson","absoluteDirection":"SOUTHEAST","stayOn":false,"area":false,"bogusName":false,"lon":-71.1162046,"lat":48.3107362,"elevation":[]},{"distance":22.583,"relativeDirection":"LEFT","streetName":"rue de la Moisson","absoluteDirection":"NORTHEAST","stayOn":false,"area":false,"bogusName":false,"lon":-71.1143612,"lat":48.309649900000004,"elevation":[]}]}],"tooSloped":false},{"duration":4164,"startTime":1522686095000,"endTime":1522690259000,"walkTime":4078,"transitTime":84,"waitingTime":2,"walkDistance":5386.635157889474,"walkLimitExceeded":false,"elevationLost":0.0,"elevationGained":0.0,"transfers":0,"legs":[{"startTime":1522686095000,"endTime":1522688116000,"departureDelay":0,"arrivalDelay":0,"realTime":false,"distance":2682.625,"pathway":false,"mode":"WALK","route":"","agencyTimeZoneOffset":-14400000,"interlineWithPreviousLeg":false,"from":{"name":"Origin","lon":-71.076326,"lat":48.335041,"departure":1522686095000,"orig":"","vertexType":"NORMAL"},"to":{"name":"Notre-Dame (no. 5753)","stopId":"1:1740","stopCode":"1740","lon":-71.096177,"lat":48.316626,"arrival":1522688116000,"departure":1522688117000,"zoneId":"NA","stopIndex":16,"stopSequence":17,"vertexType":"TRANSIT"},"legGeometry":{"points":"wo_fHtgypLxNnPz@bAfDtDLNx@h@dJfB`TxExXpHdDrBbA|@Tj@vJrUt@vCv@fFDPNl@~FdU`@`Bt@|A","length":20},"rentedBike":false,"transitLeg":false,"duration":2021.0,"steps":[{"distance":2271.142,"relativeDirection":"DEPART","streetName":"Chemin de l'Église","absoluteDirection":"SOUTHWEST","stayOn":false,"area":false,"bogusName":false,"lon":-71.077226374265,"lat":48.33548185935467,"elevation":[]},{"distance":411.483,"relativeDirection":"CONTINUE","streetName":"Rue Notre-Dame","absoluteDirection":"SOUTHWEST","stayOn":false,"area":false,"bogusName":false,"lon":-71.091352,"lat":48.318451800000005,"elevation":[]}]},{"startTime":1522688117000,"endTime":1522688201000,"departureDelay":0,"arrivalDelay":0,"realTime":false,"distance":900.6852113448837,"pathway":false,"mode":"BUS","route":"60","agencyName":"Société de Transport du Saguenay","agencyUrl":"http://ville.saguenay.ca/fr/services-aux-citoyens/transport-sts","agencyTimeZoneOffset":-14400000,"routeColor":"00FFFF","routeType":3,"routeId":"1:60","routeTextColor":"000000","interlineWithPreviousLeg":false,"tripBlockId":"73","headsign":"Costco","agencyId":"0","tripId":"1:218620","serviceDate":"20180402","from":{"name":"Notre-Dame (no. 5753)","stopId":"1:1740","stopCode":"1740","lon":-71.096177,"lat":48.316626,"arrival":1522688116000,"departure":1522688117000,"zoneId":"NA","stopIndex":16,"stopSequence":17,"vertexType":"TRANSIT"},"to":{"name":"ch. de l'Église (no. 5505)","stopId":"1:1741","stopCode":"1741","lon":-71.085815,"lat":48.320884,"arrival":1522688201000,"departure":1522688202000,"zoneId":"NA","stopIndex":17,"stopSequence":18,"vertexType":"TRANSIT"},"legGeometry":{"points":"gz{eHr~|pLa@y@}@_D_Im]y@eCgCwGsDyI]}@_@y@","length":9},"routeShortName":"60","routeLongName":"Portage des Roches Nord","rentedBike":false,"transitLeg":true,"duration":84.0,"steps":[]},{"startTime":1522688202000,"endTime":1522690259000,"departureDelay":0,"arrivalDelay":0,"realTime":false,"distance":2703.8469999999993,"pathway":false,"mode":"WALK","route":"","agencyTimeZoneOffset":-14400000,"interlineWithPreviousLeg":false,"from":{"name":"ch. de l'Église (no. 5505)","stopId":"1:1741","stopCode":"1741","lon":-71.085815,"lat":48.320884,"arrival":1522688201000,"departure":1522688202000,"zoneId":"NA","stopIndex":17,"stopSequence":18,"vertexType":"TRANSIT"},"to":{"name":"Destination","lon":-71.11380099,"lat":48.309498,"arrival":1522690259000,"orig":"","vertexType":"NORMAL"},"legGeometry":{"points":"ot|eHj}zpLvJrUt@vCv@fFDPNl@~FdU`@`Bt@|AxRbb@rH`Pb@fAbGdGhClCtAvBxBjGmBrEg@[s@pBSdDe@jB{AtDl@vBzApD","length":24},"rentedBike":false,"transitLeg":false,"duration":2057.0,"steps":[{"distance":494.422,"relativeDirection":"DEPART","streetName":"Chemin de l'Église","absoluteDirection":"SOUTHWEST","stayOn":false,"area":false,"bogusName":false,"lon":-71.08581187853804,"lat":48.32088133339157,"elevation":[]},{"distance":1707.1209999999999,"relativeDirection":"CONTINUE","streetName":"Rue Notre-Dame","absoluteDirection":"SOUTHWEST","stayOn":false,"area":false,"bogusName":false,"lon":-71.091352,"lat":48.318451800000005,"elevation":[]},{"distance":99.132,"relativeDirection":"RIGHT","streetName":"Rue de la Fabrique","absoluteDirection":"NORTHWEST","stayOn":false,"area":false,"bogusName":false,"lon":-71.1088568,"lat":48.3087084,"elevation":[]},{"distance":25.022,"relativeDirection":"RIGHT","streetName":"Rue Lapointe","absoluteDirection":"NORTHEAST","stayOn":false,"area":false,"bogusName":false,"lon":-71.1099185,"lat":48.3092526,"elevation":[]},{"distance":378.15000000000003,"relativeDirection":"LEFT","streetName":"rue de la Moisson","absoluteDirection":"NORTHWEST","stayOn":false,"area":false,"bogusName":false,"lon":-71.1097728,"lat":48.3094557,"elevation":[]}]}],"tooSloped":false},{"duration":2754,"startTime":1522696716000,"endTime":1522699470000,"walkTime":2505,"transitTime":247,"waitingTime":2,"walkDistance":3303.559857138247,"walkLimitExceeded":false,"elevationLost":0.0,"elevationGained":0.0,"transfers":0,"legs":[{"startTime":1522696716000,"endTime":1522698965000,"departureDelay":0,"arrivalDelay":0,"realTime":false,"distance":2978.187,"pathway":false,"mode":"WALK","route":"","agencyTimeZoneOffset":-14400000,"interlineWithPreviousLeg":false,"from":{"name":"Origin","lon":-71.076326,"lat":48.335041,"departure":1522696716000,"orig":"","vertexType":"NORMAL"},"to":{"name":"ch. St-Isidore / ch. St-Henri","stopId":"1:1721","stopCode":"1721","lon":-71.083358,"lat":48.314965,"arrival":1522698965000,"departure":1522698966000,"zoneId":"NA","stopIndex":13,"stopSequence":14,"vertexType":"TRANSIT"},"legGeometry":{"points":"wo_fHtgypLxNnPz@bAfDtDLNx@h@dJfB`TxExXpHdDrBbA|@Tj@vJrUt@vCv@fF|Tip@DK","length":17},"rentedBike":false,"transitLeg":false,"duration":2249.0,"steps":[{"distance":2271.142,"relativeDirection":"DEPART","streetName":"Chemin de l'Église","absoluteDirection":"SOUTHWEST","stayOn":false,"area":false,"bogusName":false,"lon":-71.077226374265,"lat":48.33548185935467,"elevation":[]},{"distance":707.045,"relativeDirection":"HARD_LEFT","streetName":"Chemin Saint-Isidore","absoluteDirection":"SOUTHEAST","stayOn":false,"area":false,"bogusName":false,"lon":-71.091352,"lat":48.318451800000005,"elevation":[]}]},{"startTime":1522698966000,"endTime":1522699213000,"departureDelay":0,"arrivalDelay":0,"realTime":false,"distance":3281.86800105062,"pathway":false,"mode":"BUS","route":"62","agencyName":"Société de Transport du Saguenay","agencyUrl":"http://ville.saguenay.ca/fr/services-aux-citoyens/transport-sts","agencyTimeZoneOffset":-14400000,"routeColor":"00FFFF","routeType":3,"routeId":"1:62","routeTextColor":"000000","interlineWithPreviousLeg":false,"tripBlockId":"107","headsign":"Barrage Port. Roches","agencyId":"0","tripId":"1:218821","serviceDate":"20180402","from":{"name":"ch. St-Isidore / ch. St-Henri","stopId":"1:1721","stopCode":"1721","lon":-71.083358,"lat":48.314965,"arrival":1522698965000,"departure":1522698966000,"zoneId":"NA","stopIndex":13,"stopSequence":14,"vertexType":"TRANSIT"},"to":{"name":"Boulevard / Culture","stopId":"1:319","stopCode":"319","lon":-71.117175,"lat":48.310379,"arrival":1522699213000,"departure":1522699214000,"zoneId":"NA","stopIndex":17,"stopSequence":18,"vertexType":"TRANSIT"},"legGeometry":{"points":"ao{eHlnzpLCDt_AzaA^h@BFDTBV?VATADwBlGCPCl@Jt@pBnG^pBFd@DlAEdCGhCElAg@pG?nAF~@PnAVxAp@lF^`B^dAxAnC@@pAzAr@lAPp@Lj@Dh@HjB@fAWzFA~BQAOAQGWMk@k@QSM[M_@IY_@_AQWSO_DcBUEYLa@VWLYPyGrNeC`GoAzBw@t@kCvBkBvAg@`@[\\g@t@i@bACF}AlE","length":70},"routeShortName":"62","routeLongName":"Portage des Roches Sud","rentedBike":false,"transitLeg":true,"duration":247.0,"steps":[]},{"startTime":1522699214000,"endTime":1522699470000,"departureDelay":0,"arrivalDelay":0,"realTime":false,"distance":325.23,"pathway":false,"mode":"WALK","route":"","agencyTimeZoneOffset":-14400000,"interlineWithPreviousLeg":false,"from":{"name":"Boulevard / Culture","stopId":"1:319","stopCode":"319","lon":-71.117175,"lat":48.310379,"arrival":1522699213000,"departure":1522699214000,"zoneId":"NA","stopIndex":17,"stopSequence":18,"vertexType":"TRANSIT"},"to":{"name":"Destination","lon":-71.11380099,"lat":48.309498,"arrival":1522699470000,"orig":"","vertexType":"NORMAL"},"legGeometry":{"points":"qrzeHtaaqLf@yAwBqB`BqEvB}CYq@","length":6},"rentedBike":false,"transitLeg":false,"duration":256.0,"steps":[{"distance":39.857,"relativeDirection":"DEPART","streetName":"Rue du Boulevard","absoluteDirection":"SOUTHEAST","stayOn":false,"area":false,"bogusName":false,"lon":-71.11722134605982,"lat":48.310334116525226,"elevation":[]},{"distance":79.487,"relativeDirection":"LEFT","streetName":"Rue de la culture","absoluteDirection":"NORTHEAST","stayOn":false,"area":false,"bogusName":false,"lon":-71.11677710000001,"lat":48.3101312,"elevation":[]},{"distance":183.303,"relativeDirection":"RIGHT","streetName":"Rue de la Moisson","absoluteDirection":"SOUTHEAST","stayOn":false,"area":false,"bogusName":false,"lon":-71.1162046,"lat":48.3107362,"elevation":[]},{"distance":22.583,"relativeDirection":"LEFT","streetName":"rue de la Moisson","absoluteDirection":"NORTHEAST","stayOn":false,"area":false,"bogusName":false,"lon":-71.1143612,"lat":48.309649900000004,"elevation":[]}]}],"tooSloped":false}]},"debugOutput":{"precalculationTime":1,"pathCalculationTime":16,"pathTimes":[1,9,5],"renderingTime":0,"totalTime":17,"timedOut":false},"elevationMetadata":{"ellipsoidToGeoidDifference":-28.885904201182168,"geoidElevation":false}}