{"requestParameters":{"date":"2018/04/02","walkSpeed":"1.33","walkReluctance":"2.0","fromPlace":"48.439349,-71.05737999","maxWalkDistance":"3000","waitReluctance":"1.0","carSpeed":"33","numItineraries":"3","waitAtBeginningFactor":"0.4","mode":"TRANSIT,WALK","ignoreRealtimeUpdates":"false","stairsReluctance":"2.0","toPlace":"48.439146,-71.050632","time":"11:30:00"},"plan":{"date":1522683000000,"from":{"name":"Origin","lon":-71.05737999,"lat":48.439349,"orig":"","vertexType":"NORMAL"},"to":{"name":"Destination","lon":-71.050632,"lat":48.439146,"orig":"","vertexType":"NORMAL"},"itineraries":[{"duration":674,"startTime":1522683000000,"endTime":1522683674000,"walkTime":674,"transitTime":0,"waitingTime":0,"walkDistance":862.6753383414976,"walkLimitExceeded":false,"elevationLost":0.0,"elevationGained":0.0,"transfers":0,"legs":[{"startTime":1522683000000,"endTime":1522683674000,"departureDelay":0,"arrivalDelay":0,"realTime":false,"distance":862.5400000000001,"pathway":false,"mode":"WALK","route":"","agencyTimeZoneOffset":-14400000,"interlineWithPreviousLeg":false,"from":{"name":"Origin","lon":-71.05737999,"lat":48.439349,"departure":1522683000000,"orig":"","vertexType":"NORMAL"},"to":{"name":"Destination","lon":-71.050632,"lat":48.439146,"arrival":1522683674000,"orig":"","vertexType":"NORMAL"},"legGeometry":{"points":"o{sfHfmupLAGKo@IUGSEYEa@Ak@BYFw@F[`@oD`@mDNDfFzARcEd@sOLsAJ{@i@OQEYCUDWDQ@WAeAM","length":27},"rentedBike":false,"transitLeg":false,"duration":674.0,"steps":[{"distance":256.46700000000004,"relativeDirection":"DEPART","streetName":"Rue De Bienville","absoluteDirection":"EAST","stayOn":false,"area":false,"bogusName":false,"lon":-71.05763278979575,"lat":48.43976932034818,"elevation":[]},{"distance":142.797,"relativeDirection":"RIGHT","streetName":"Rue Viau","absoluteDirection":"SOUTH","stayOn":false,"area":false,"bogusName":false,"lon":-71.0543245,"lat":48.439553800000006,"elevation":[]},{"distance":325.255,"relativeDirection":"LEFT","streetName":"Rue Roussel","absoluteDirection":"EAST","stayOn":false,"area":false,"bogusName":false,"lon":-71.0548121,"lat":48.438311000000006,"elevation":[]},{"distance":138.021,"relativeDirection":"LEFT","streetName":"Rue de Beauvoir","absoluteDirection":"NORTH","stayOn":false,"area":false,"bogusName":false,"lon":-71.0504562,"lat":48.437893200000005,"elevation":[]}]}],"tooSloped":false},{"duration":513,"startTime":1522684211000,"endTime":1522684724000,"walkTime":485,"transitTime":26,"waitingTime":2,"walkDistance":629.0633157870111,"walkLimitExceeded":false,"elevationLost":0.0,"elevationGained":0.0,"transfers":0,"legs":[{"startTime":1522684211000,"endTime":1522684235000,"departureDelay":0,"arrivalDelay":0,"realTime":false,"distance":31.428,"pathway":false,"mode":"WALK","route":"","agencyTimeZoneOffset":-14400000,"interlineWithPreviousLeg":false,"from":{"name":"Origin","lon":-71.05737999,"lat":48.439349,"departure":1522684211000,"orig":"","vertexType":"NORMAL"},"to":{"name":"École le Roseau (Bienville)","stopId":"1:806","stopCode":"806","lon":-71.057164,"lat":48.439798,"arrival":1522684235000,"departure":1522684236000,"zoneId":"NA","stopIndex":4,"stopSequence":5,"vertexType":"TRANSIT"},"legGeometry":{"points":"o{sfHfmupLAGKo@IU","length":4},"rentedBike":false,"transitLeg":false,"duration":24.0,"steps":[{"distance":31.428,"relativeDirection":"DEPART","streetName":"Rue De Bienville","absoluteDirection":"EAST","stayOn":false,"area":false,"bogusName":false,"lon":-71.05763278979575,"lat":48.43976932034818,"elevation":[]}]},{"startTime":1522684236000,"endTime":1522684262000,"departureDelay":0,"arrivalDelay":0,"realTime":false,"distance":205.34988195039017,"pathway":false,"mode":"BUS","route":"24","agencyName":"Société de Transport du Saguenay","agencyUrl":"http://ville.saguenay.ca/fr/services-aux-citoyens/transport-sts","agencyTimeZoneOffset":-14400000,"routeColor":"00FF00","routeType":3,"routeId":"1:24","routeTextColor":"000000","interlineWithPreviousLeg":false,"tripBlockId":"4","headsign":"Terminus Chicoutimi","agencyId":"0","tripId":"1:217233","serviceDate":"20180402","from":{"name":"École le Roseau (Bienville)","stopId":"1:806","stopCode":"806","lon":-71.057164,"lat":48.439798,"arrival":1522684235000,"departure":1522684236000,"zoneId":"NA","stopIndex":4,"stopSequence":5,"vertexType":"TRANSIT"},"to":{"name":"Bienville / Viau","stopId":"1:808","stopCode":"808","lon":-71.054419,"lat":48.439491,"arrival":1522684262000,"departure":1522684263000,"zoneId":"NA","stopIndex":5,"stopSequence":6,"vertexType":"TRANSIT"},"legGeometry":{"points":"a|sfHpjupLA?My@Cm@?Y@g@Hu@b@sD\\_D","length":9},"routeShortName":"24","routeLongName":"Saint-Luc","rentedBike":false,"transitLeg":true,"duration":26.0,"steps":[]},{"startTime":1522684263000,"endTime":1522684724000,"departureDelay":0,"arrivalDelay":0,"realTime":false,"distance":597.559,"pathway":false,"mode":"WALK","route":"","agencyTimeZoneOffset":-14400000,"interlineWithPreviousLeg":false,"from":{"name":"Bienville / Viau","stopId":"1:808","stopCode":"808","lon":-71.054419,"lat":48.439491,"arrival":1522684262000,"departure":1522684263000,"zoneId":"NA","stopIndex":5,"stopSequence":6,"vertexType":"TRANSIT"},"to":{"name":"Destination","lon":-71.050632,"lat":48.439146,"arrival":1522684724000,"orig":"","vertexType":"NORMAL"},"legGeometry":{"points":"uysfHvxtpLfFzARcEd@sOLsAJ{@i@OQEYCUDWDQ@WAeAM","length":14},"rentedBike":false,"transitLeg":false,"duration":461.0,"steps":[{"distance":134.283,"relativeDirection":"DEPART","streetName":"Rue Viau","absoluteDirection":"SOUTH","stayOn":false,"area":false,"bogusName":false,"lon":-71.05435357152419,"lat":48.43947970219391,"elevation":[]},{"distance":325.255,"relativeDirection":"LEFT","streetName":"Rue Roussel","absoluteDirection":"EAST","stayOn":false,"area":false,"bogusName":false,"lon":-71.0548121,"lat":48.438311000000006,"elevation":[]},{"distance":138.021,"relativeDirection":"LEFT","streetName":"Rue de Beauvoir","absoluteDirection":"NORTH","stayOn":false,"area":false,"bogusName":false,"lon":-71.0504562,"lat":48.437893200000005,"elevation":[]}]}],"tooSloped":false},{"duration":513,"startTime":1522686011000,"endTime":1522686524000,"walkTime":485,"transitTime":26,"waitingTime":2,"walkDistance":629.0633157870111,"walkLimitExceeded":false,"elevationLost":0.0,"elevationGained":0.0,"transfers":0,"legs":[{"startTime":1522686011000,"endTime":1522686035000,"departureDelay":0,"arrivalDelay":0,"realTime":false,"distance":31.428,"pathway":false,"mode":"WALK","route":"","agencyTimeZoneOffset":-14400000,"interlineWithPreviousLeg":false,"from":{"name":"Origin","lon":-71.05737999,"lat":48.439349,"departure":1522686011000,"orig":"","vertexType":"NORMAL"},"to":{"name":"École le Roseau (Bienville)","stopId":"1:806","stopCode":"806","lon":-71.057164,"lat":48.439798,"arrival":1522686035000,"departure":1522686036000,"zoneId":"NA","stopIndex":4,"stopSequence":5,"vertexType":"TRANSIT"},"legGeometry":{"points":"o{sfHfmupLAGKo@IU","length":4},"rentedBike":false,"transitLeg":false,"duration":24.0,"steps":[{"distance":31.428,"relativeDirection":"DEPART","streetName":"Rue De Bienville","absoluteDirection":"EAST","stayOn":false,"area":false,"bogusName":false,"lon":-71.05763278979575,"lat":48.43976932034818,"elevation":[]}]},{"startTime":1522686036000,"endTime":1522686062000,"departureDelay":0,"arrivalDelay":0,"realTime":false,"distance":205.34988195039017,"pathway":false,"mode":"BUS","route":"24","agencyName":"Société de Transport du Saguenay","agencyUrl":"http://ville.saguenay.ca/fr/services-aux-citoyens/transport-sts","agencyTimeZoneOffset":-14400000,"routeColor":"00FF00","routeType":3,"routeId":"1:24","routeTextColor":"000000","interlineWithPreviousLeg":false,"tripBlockId":"5","headsign":"Terminus Chicoutimi","agencyId":"0","tripId":"1:217261","serviceDate":"20180402","from":{"name":"École le Roseau (Bienville)","stopId":"1:806","stopCode":"806","lon":-71.057164,"lat":48.439798,"arrival":1522686035000,"departure":1522686036000,"zoneId":"NA","stopIndex":4,"stopSequence":5,"vertexType":"TRANSIT"},"to":{"name":"Bienville / Viau","stopId":"1:808","stopCode":"808","lon":-71.054419,"lat":48.439491,"arrival":1522686062000,"departure":1522686063000,"zoneId":"NA","stopIndex":5,"stopSequence":6,"vertexType":"TRANSIT"},"legGeometry":{"points":"a|sfHpjupLA?My@Cm@?Y@g@Hu@b@sD\\_D","length":9},"routeShortName":"24","routeLongName":"Saint-Luc","rentedBike":false,"transitLeg":true,"duration":26.0,"steps":[]},{"startTime":1522686063000,"endTime":1522686524000,"departureDelay":0,"arrivalDelay":0,"realTime":false,"distance":597.559,"pathway":false,"mode":"WALK","route":"","agencyTimeZoneOffset":-14400000,"interlineWithPreviousLeg":false,"from":{"name":"Bienville / Viau","stopId":"1:808","stopCode":"808","lon":-71.054419,"lat":48.439491,"arrival":1522686062000,"departure":1522686063000,"zoneId":"NA","stopIndex":5,"stopSequence":6,"vertexType":"TRANSIT"},"to":{"name":"Destination","lon":-71.050632,"lat":48.439146,"arrival":1522686524000,"orig":"","vertexType":"NORMAL"},"legGeometry":{"points":"uysfHvxtpLfFzARcEd@sOLsAJ{@i@OQEYCUDWDQ@WAeAM","length":14},"rentedBike":false,"transitLeg":false,"duration":461.0,"steps":[{"distance":134.283,"relativeDirection":"DEPART","streetName":"Rue Viau","absoluteDirection":"SOUTH","stayOn":false,"area":false,"bogusName":false,"lon":-71.05435357152419,"lat":48.43947970219391,"elevation":[]},{"distance":325.255,"relativeDirection":"LEFT","streetName":"Rue Roussel","absoluteDirection":"EAST","stayOn":false,"area":false,"bogusName":false,"lon":-71.0548121,"lat":48.438311000000006,"elevation":[]},{"distance":138.021,"relativeDirection":"LEFT","streetName":"Rue de Beauvoir","absoluteDirection":"NORTH","stayOn":false,"area":false,"bogusName":false,"lon":-71.0504562,"lat":48.437893200000005,"elevation":[]}]}],"tooSloped":false}]},"debugOutput":{"precalculationTime":22,"pathCalculationTime":18,"pathTimes":[10,5,3],"renderingTime":0,"totalTime":40,"timedOut":false},"elevationMetadata":{"ellipsoidToGeoidDifference":-28.885904201182168,"geoidElevation":false}}