{"requestParameters":{"date":"2018/04/02","walkSpeed":"1.33","walkReluctance":"2.0","fromPlace":"48.378208,-71.08772299","maxWalkDistance":"3000","waitReluctance":"1.0","carSpeed":"33","numItineraries":"3","waitAtBeginningFactor":"0.4","mode":"TRANSIT,WALK","ignoreRealtimeUpdates":"false","stairsReluctance":"2.0","toPlace":"48.426054,-71.028828","time":"21:30:00"},"plan":{"date":1522719000000,"from":{"name":"Origin","lon":-71.08772299,"lat":48.378208,"orig":"","vertexType":"NORMAL"},"to":{"name":"Destination","lon":-71.028828,"lat":48.426054,"orig":"","vertexType":"NORMAL"},"itineraries":[{"duration":3981,"startTime":1522719214000,"endTime":1522723195000,"walkTime":938,"transitTime":2499,"waitingTime":544,"walkDistance":1212.6925939805226,"walkLimitExceeded":false,"elevationLost":0.0,"elevationGained":0.0,"transfers":1,"legs":[{"startTime":1522719214000,"endTime":1522719618000,"departureDelay":0,"arrivalDelay":0,"realTime":false,"distance":531.953,"pathway":false,"mode":"WALK","route":"","agencyTimeZoneOffset":-14400000,"interlineWithPreviousLeg":false,"from":{"name":"Origin","lon":-71.08772299,"lat":48.378208,"departure":1522719214000,"orig":"","vertexType":"NORMAL"},"to":{"name":"nouveau","stopId":"1:2280","stopCode":"2280","lon":-71.091199,"lat":48.383276,"arrival":1522719618000,"departure":1522719619000,"zoneId":"NA","stopIndex":27,"stopSequence":28,"vertexType":"TRANSIT"},"legGeometry":{"points":"wkhfHpxzpLADMVqBlFq@bBi@vAyCzHS`@_AxBsA`EMl@","length":11},"rentedBike":false,"transitLeg":false,"duration":404.0,"steps":[{"distance":531.953,"relativeDirection":"DEPART","streetName":"Boulevard du Royaume Ouest","absoluteDirection":"NORTHWEST","stayOn":false,"area":false,"bogusName":false,"lon":-71.08504676514308,"lat":48.38092725102276,"elevation":[]}]},{"startTime":1522719619000,"endTime":1522719660000,"departureDelay":0,"arrivalDelay":0,"realTime":false,"distance":414.63255884647657,"pathway":false,"mode":"BUS","route":"2","agencyName":"Société de Transport du Saguenay","agencyUrl":"http://ville.saguenay.ca/fr/services-aux-citoyens/transport-sts","agencyTimeZoneOffset":-14400000,"routeColor":"FF0000","routeType":3,"routeId":"1:2","routeTextColor":"FFFFFF","interlineWithPreviousLeg":false,"tripBlockId":"10","headsign":"Costco","agencyId":"0","tripId":"1:217456","serviceDate":"20180402","from":{"name":"nouveau","stopId":"1:2280","stopCode":"2280","lon":-71.091199,"lat":48.383276,"arrival":1522719618000,"departure":1522719619000,"zoneId":"NA","stopIndex":27,"stopSequence":28,"vertexType":"TRANSIT"},"to":{"name":"COSTCO","stopId":"1:1710","stopCode":"1710","lon":-71.085767,"lat":48.382333,"arrival":1522719660000,"departure":1522719900000,"zoneId":"NA","stopIndex":28,"stopSequence":29,"vertexType":"TRANSIT"},"legGeometry":{"points":"w|hfHh}{pLz@yDtI}UaCcC","length":4},"routeShortName":"2","routeLongName":"Chic/Jonq via Boul. Royaume","rentedBike":false,"transitLeg":true,"duration":41.0,"steps":[]},{"startTime":1522719900000,"endTime":1522720934000,"departureDelay":0,"arrivalDelay":0,"realTime":false,"distance":5749.052639637801,"pathway":false,"mode":"BUS","route":"175","agencyName":"Société de Transport du Saguenay","agencyUrl":"http://ville.saguenay.ca/fr/services-aux-citoyens/transport-sts","agencyTimeZoneOffset":-14400000,"routeColor":"FF00FF","routeType":3,"routeId":"1:175","routeTextColor":"FFFFFF","interlineWithPreviousLeg":true,"tripBlockId":"10","headsign":"Terminus Chicoutimi","agencyId":"0","tripId":"1:217457","serviceDate":"20180402","from":{"name":"COSTCO","stopId":"1:1710","stopCode":"1710","lon":-71.085767,"lat":48.382333,"arrival":1522719660000,"departure":1522719900000,"zoneId":"NA","stopIndex":0,"stopSequence":1,"vertexType":"TRANSIT"},"to":{"name":"Cégep de Chicoutimi (voie réservée)","stopId":"1:65","stopCode":"65","lon":-71.054799,"lat":48.423007,"arrival":1522720934000,"departure":1522721476000,"zoneId":"NA","stopIndex":16,"stopSequence":17,"vertexType":"TRANSIT"},"legGeometry":{"points":"euhfHt|zpL_BiBsCoDwCqDrCsGN_@uEoFoEiFUWSUqCwC]a@{ByC{@cAkJuKoAwA_CeCeExJ~AlB`@mAu@k@}@q@|C}Iw@}@aO_QkEsEiAoAgEsFkFsHqJ_N}FkImPkOuO{N_U_TcNgNcBcB{E`Jc@x@qG~@{BlAk@XgSrQqB_GAeFiEeEOt@gAeA_A_ATm@yAwAgBeBqDnL@nBF`@","length":54},"routeShortName":"175","routeLongName":"Term. Chic / Costco","rentedBike":false,"transitLeg":true,"duration":1034.0,"steps":[]},{"startTime":1522721476000,"endTime":1522722660000,"departureDelay":0,"arrivalDelay":0,"realTime":false,"distance":6527.222902160162,"pathway":false,"mode":"BUS","route":"12","agencyName":"Société de Transport du Saguenay","agencyUrl":"http://ville.saguenay.ca/fr/services-aux-citoyens/transport-sts","agencyTimeZoneOffset":-14400000,"routeColor":"556B2F","routeType":3,"routeId":"1:12","routeTextColor":"FFFFFF","interlineWithPreviousLeg":false,"tripBlockId":"26","headsign":"Terminus Chicoutimi","agencyId":"0","tripId":"1:217995","serviceDate":"20180402","from":{"name":"Cégep de Chicoutimi (voie réservée)","stopId":"1:65","stopCode":"65","lon":-71.054799,"lat":48.423007,"arrival":1522720934000,"departure":1522721476000,"zoneId":"NA","stopIndex":2,"stopSequence":3,"vertexType":"TRANSIT"},"to":{"name":"Normandie / Luberon","stopId":"1:1539","stopCode":"1539","lon":-71.0227,"lat":48.4262,"arrival":1522722660000,"departure":1522722661000,"zoneId":"NA","stopIndex":21,"stopSequence":22,"vertexType":"TRANSIT"},"legGeometry":{"points":"wrpfHn{tpLv@fCa@nDaC`D~E`F~MfNjJnJ~GbHnCpCv@iBlAgIdCmFbAqDtBeCjFm@`Gs@hFo@xAmBrGcPxFoNlCyGa@yFYkD}CyA}KmFgD_BgAgBn@kFD_NoIgrAmD_WcAaLaDHoDJi`@wVoAbDbA|AnBU|B|AfBlAyLtKoGxFcFqDkJaHgEoD","length":45},"routeShortName":"12","routeLongName":"Rivière du Moulin","rentedBike":false,"transitLeg":true,"duration":1184.0,"steps":[]},{"startTime":1522722661000,"endTime":1522723195000,"departureDelay":0,"arrivalDelay":0,"realTime":false,"distance":680.6020000000001,"pathway":false,"mode":"WALK","route":"","agencyTimeZoneOffset":-14400000,"interlineWithPreviousLeg":false,"from":{"name":"Normandie / Luberon","stopId":"1:1539","stopCode":"1539","lon":-71.0227,"lat":48.4262,"arrival":1522722660000,"departure":1522722661000,"zoneId":"NA","stopIndex":21,"stopSequence":22,"vertexType":"TRANSIT"},"to":{"name":"Destination","lon":-71.028828,"lat":48.426054,"arrival":1522723195000,"orig":"","vertexType":"NORMAL"},"legGeometry":{"points":"_gqfHpsnpLPNPLX\\CrASrGI|@F`@FTFPNaAq@lAa@Nc@RG|@Ij@AlCMlHKrBIVvC_@","length":21},"rentedBike":false,"transitLeg":false,"duration":534.0,"steps":[{"distance":40.611000000000004,"relativeDirection":"DEPART","streetName":"Rue de Normandie","absoluteDirection":"SOUTHWEST","stayOn":false,"area":false,"bogusName":false,"lon":-71.02280873633681,"lat":48.42624039743895,"elevation":[]},{"distance":214.682,"relativeDirection":"RIGHT","streetName":"Rue de la Terrasse","absoluteDirection":"WEST","stayOn":false,"area":false,"bogusName":false,"lon":-71.0231006,"lat":48.4259314,"elevation":[]},{"distance":121.248,"relativeDirection":"HARD_LEFT","streetName":"bike path","absoluteDirection":"NORTHWEST","stayOn":false,"area":false,"bogusName":true,"lon":-71.0252517,"lat":48.425902900000004,"elevation":[]},{"distance":218.477,"relativeDirection":"SLIGHTLY_LEFT","streetName":"Rue Saint-Thimothée","absoluteDirection":"WEST","stayOn":false,"area":false,"bogusName":false,"lon":-71.0263515,"lat":48.4265923,"elevation":[]},{"distance":85.584,"relativeDirection":"HARD_LEFT","streetName":"Rue de la Chute","absoluteDirection":"SOUTH","stayOn":false,"area":false,"bogusName":false,"lon":-71.02927700000001,"lat":48.4267891,"elevation":[]}]}],"tooSloped":false},{"duration":3981,"startTime":1522721014000,"endTime":1522724995000,"walkTime":938,"transitTime":2499,"waitingTime":544,"walkDistance":1212.6925939805226,"walkLimitExceeded":false,"elevationLost":0.0,"elevationGained":0.0,"transfers":1,"legs":[{"startTime":1522721014000,"endTime":1522721418000,"departureDelay":0,"arrivalDelay":0,"realTime":false,"distance":531.953,"pathway":false,"mode":"WALK","route":"","agencyTimeZoneOffset":-14400000,"interlineWithPreviousLeg":false,"from":{"name":"Origin","lon":-71.08772299,"lat":48.378208,"departure":1522721014000,"orig":"","vertexType":"NORMAL"},"to":{"name":"nouveau","stopId":"1:2280","stopCode":"2280","lon":-71.091199,"lat":48.383276,"arrival":1522721418000,"departure":1522721419000,"zoneId":"NA","stopIndex":27,"stopSequence":28,"vertexType":"TRANSIT"},"legGeometry":{"points":"wkhfHpxzpLADMVqBlFq@bBi@vAyCzHS`@_AxBsA`EMl@","length":11},"rentedBike":false,"transitLeg":false,"duration":404.0,"steps":[{"distance":531.953,"relativeDirection":"DEPART","streetName":"Boulevard du Royaume Ouest","absoluteDirection":"NORTHWEST","stayOn":false,"area":false,"bogusName":false,"lon":-71.08504676514308,"lat":48.38092725102276,"elevation":[]}]},{"startTime":1522721419000,"endTime":1522721460000,"departureDelay":0,"arrivalDelay":0,"realTime":false,"distance":414.63255884647657,"pathway":false,"mode":"BUS","route":"2","agencyName":"Société de Transport du Saguenay","agencyUrl":"http://ville.saguenay.ca/fr/services-aux-citoyens/transport-sts","agencyTimeZoneOffset":-14400000,"routeColor":"FF0000","routeType":3,"routeId":"1:2","routeTextColor":"FFFFFF","interlineWithPreviousLeg":false,"tripBlockId":"9","headsign":"Costco","agencyId":"0","tripId":"1:217422","serviceDate":"20180402","from":{"name":"nouveau","stopId":"1:2280","stopCode":"2280","lon":-71.091199,"lat":48.383276,"arrival":1522721418000,"departure":1522721419000,"zoneId":"NA","stopIndex":27,"stopSequence":28,"vertexType":"TRANSIT"},"to":{"name":"COSTCO","stopId":"1:1710","stopCode":"1710","lon":-71.085767,"lat":48.382333,"arrival":1522721460000,"departure":1522721700000,"zoneId":"NA","stopIndex":28,"stopSequence":29,"vertexType":"TRANSIT"},"legGeometry":{"points":"w|hfHh}{pLz@yDtI}UaCcC","length":4},"routeShortName":"2","routeLongName":"Chic/Jonq via Boul. Royaume","rentedBike":false,"transitLeg":true,"duration":41.0,"steps":[]},{"startTime":1522721700000,"endTime":1522722734000,"departureDelay":0,"arrivalDelay":0,"realTime":false,"distance":5749.052639637801,"pathway":false,"mode":"BUS","route":"175","agencyName":"Société de Transport du Saguenay","agencyUrl":"http://ville.saguenay.ca/fr/services-aux-citoyens/transport-sts","agencyTimeZoneOffset":-14400000,"routeColor":"FF00FF","routeType":3,"routeId":"1:175","routeTextColor":"FFFFFF","interlineWithPreviousLeg":true,"tripBlockId":"9","headsign":"Terminus Chicoutimi","agencyId":"0","tripId":"1:217423","serviceDate":"20180402","from":{"name":"COSTCO","stopId":"1:1710","stopCode":"1710","lon":-71.085767,"lat":48.382333,"arrival":1522721460000,"departure":1522721700000,"zoneId":"NA","stopIndex":0,"stopSequence":1,"vertexType":"TRANSIT"},"to":{"name":"Cégep de Chicoutimi (voie réservée)","stopId":"1:65","stopCode":"65","lon":-71.054799,"lat":48.423007,"arrival":1522722734000,"departure":1522723276000,"zoneId":"NA","stopIndex":16,"stopSequence":17,"vertexType":"TRANSIT"},"legGeometry":{"points":"euhfHt|zpL_BiBsCoDwCqDrCsGN_@uEoFoEiFUWSUqCwC]a@{ByC{@cAkJuKoAwA_CeCeExJ~AlB`@mAu@k@}@q@|C}Iw@}@aO_QkEsEiAoAgEsFkFsHqJ_N}FkImPkOuO{N_U_TcNgNcBcB{E`Jc@x@qG~@{BlAk@XgSrQqB_GAeFiEeEOt@gAeA_A_ATm@yAwAgBeBqDnL@nBF`@","length":54},"routeShortName":"175","routeLongName":"Term. Chic / Costco","rentedBike":false,"transitLeg":true,"duration":1034.0,"steps":[]},{"startTime":1522723276000,"endTime":1522724460000,"departureDelay":0,"arrivalDelay":0,"realTime":false,"distance":6527.222902160162,"pathway":false,"mode":"BUS","route":"12","agencyName":"Société de Transport du Saguenay","agencyUrl":"http://ville.saguenay.ca/fr/services-aux-citoyens/transport-sts","agencyTimeZoneOffset":-14400000,"routeColor":"556B2F","routeType":3,"routeId":"1:12","routeTextColor":"FFFFFF","interlineWithPreviousLeg":false,"tripBlockId":"29","headsign":"Terminus Chicoutimi","agencyId":"0","tripId":"1:218084","serviceDate":"20180402","from":{"name":"Cégep de Chicoutimi (voie réservée)","stopId":"1:65","stopCode":"65","lon":-71.054799,"lat":48.423007,"arrival":1522722734000,"departure":1522723276000,"zoneId":"NA","stopIndex":2,"stopSequence":3,"vertexType":"TRANSIT"},"to":{"name":"Normandie / Luberon","stopId":"1:1539","stopCode":"1539","lon":-71.0227,"lat":48.4262,"arrival":1522724460000,"departure":1522724461000,"zoneId":"NA","stopIndex":21,"stopSequence":22,"vertexType":"TRANSIT"},"legGeometry":{"points":"wrpfHn{tpLv@fCa@nDaC`D~E`F~MfNjJnJ~GbHnCpCv@iBlAgIdCmFbAqDtBeCjFm@`Gs@hFo@xAmBrGcPxFoNlCyGa@yFYkD}CyA}KmFgD_BgAgBn@kFD_NoIgrAmD_WcAaLaDHoDJi`@wVoAbDbA|AnBU|B|AfBlAyLtKoGxFcFqDkJaHgEoD","length":45},"routeShortName":"12","routeLongName":"Rivière du Moulin","rentedBike":false,"transitLeg":true,"duration":1184.0,"steps":[]},{"startTime":1522724461000,"endTime":1522724995000,"departureDelay":0,"arrivalDelay":0,"realTime":false,"distance":680.6020000000001,"pathway":false,"mode":"WALK","route":"","agencyTimeZoneOffset":-14400000,"interlineWithPreviousLeg":false,"from":{"name":"Normandie / Luberon","stopId":"1:1539","stopCode":"1539","lon":-71.0227,"lat":48.4262,"arrival":1522724460000,"departure":1522724461000,"zoneId":"NA","stopIndex":21,"stopSequence":22,"vertexType":"TRANSIT"},"to":{"name":"Destination","lon":-71.028828,"lat":48.426054,"arrival":1522724995000,"orig":"","vertexType":"NORMAL"},"legGeometry":{"points":"_gqfHpsnpLPNPLX\\CrASrGI|@F`@FTFPNaAq@lAa@Nc@RG|@Ij@AlCMlHKrBIVvC_@","length":21},"rentedBike":false,"transitLeg":false,"duration":534.0,"steps":[{"distance":40.611000000000004,"relativeDirection":"DEPART","streetName":"Rue de Normandie","absoluteDirection":"SOUTHWEST","stayOn":false,"area":false,"bogusName":false,"lon":-71.02280873633681,"lat":48.42624039743895,"elevation":[]},{"distance":214.682,"relativeDirection":"RIGHT","streetName":"Rue de la Terrasse","absoluteDirection":"WEST","stayOn":false,"area":false,"bogusName":false,"lon":-71.0231006,"lat":48.4259314,"elevation":[]},{"distance":121.248,"relativeDirection":"HARD_LEFT","streetName":"bike path","absoluteDirection":"NORTHWEST","stayOn":false,"area":false,"bogusName":true,"lon":-71.0252517,"lat":48.425902900000004,"elevation":[]},{"distance":218.477,"relativeDirection":"SLIGHTLY_LEFT","streetName":"Rue Saint-Thimothée","absoluteDirection":"WEST","stayOn":false,"area":false,"bogusName":false,"lon":-71.0263515,"lat":48.4265923,"elevation":[]},{"distance":85.584,"relativeDirection":"HARD_LEFT","streetName":"Rue de la Chute","absoluteDirection":"SOUTH","stayOn":false,"area":false,"bogusName":false,"lon":-71.02927700000001,"lat":48.4267891,"elevation":[]}]}],"tooSloped":false},{"duration":3714,"startTime":1522722814000,"endTime":1522726528000,"walkTime":2231,"transitTime":1481,"waitingTime":2,"walkDistance":2888.539375930156,"walkLimitExceeded":false,"elevationLost":0.0,"elevationGained":0.0,"transfers":0,"legs":[{"startTime":1522722814000,"endTime":1522723218000,"departureDelay":0,"arrivalDelay":0,"realTime":false,"distance":531.953,"pathway":false,"mode":"WALK","route":"","agencyTimeZoneOffset":-14400000,"interlineWithPreviousLeg":false,"from":{"name":"Origin","lon":-71.08772299,"lat":48.378208,"departure":1522722814000,"orig":"","vertexType":"NORMAL"},"to":{"name":"nouveau","stopId":"1:2280","stopCode":"2280","lon":-71.091199,"lat":48.383276,"arrival":1522723218000,"departure":1522723219000,"zoneId":"NA","stopIndex":27,"stopSequence":28,"vertexType":"TRANSIT"},"legGeometry":{"points":"wkhfHpxzpLADMVqBlFq@bBi@vAyCzHS`@_AxBsA`EMl@","length":11},"rentedBike":false,"transitLeg":false,"duration":404.0,"steps":[{"distance":531.953,"relativeDirection":"DEPART","streetName":"Boulevard du Royaume Ouest","absoluteDirection":"NORTHWEST","stayOn":false,"area":false,"bogusName":false,"lon":-71.08504676514308,"lat":48.38092725102276,"elevation":[]}]},{"startTime":1522723219000,"endTime":1522723260000,"departureDelay":0,"arrivalDelay":0,"realTime":false,"distance":414.63255884647657,"pathway":false,"mode":"BUS","route":"2","agencyName":"Société de Transport du Saguenay","agencyUrl":"http://ville.saguenay.ca/fr/services-aux-citoyens/transport-sts","agencyTimeZoneOffset":-14400000,"routeColor":"FF0000","routeType":3,"routeId":"1:2","routeTextColor":"FFFFFF","interlineWithPreviousLeg":false,"tripBlockId":"11","headsign":"Costco","agencyId":"0","tripId":"1:217493","serviceDate":"20180402","from":{"name":"nouveau","stopId":"1:2280","stopCode":"2280","lon":-71.091199,"lat":48.383276,"arrival":1522723218000,"departure":1522723219000,"zoneId":"NA","stopIndex":27,"stopSequence":28,"vertexType":"TRANSIT"},"to":{"name":"COSTCO","stopId":"1:1710","stopCode":"1710","lon":-71.085767,"lat":48.382333,"arrival":1522723260000,"departure":1522723500000,"zoneId":"NA","stopIndex":28,"stopSequence":29,"vertexType":"TRANSIT"},"legGeometry":{"points":"w|hfHh}{pLz@yDtI}UaCcC","length":4},"routeShortName":"2","routeLongName":"Chic/Jonq via Boul. Royaume","rentedBike":false,"transitLeg":true,"duration":41.0,"steps":[]},{"startTime":1522723500000,"endTime":1522724700000,"departureDelay":0,"arrivalDelay":0,"realTime":false,"distance":6484.3919540148745,"pathway":false,"mode":"BUS","route":"175","agencyName":"Société de Transport du Saguenay","agencyUrl":"http://ville.saguenay.ca/fr/services-aux-citoyens/transport-sts","agencyTimeZoneOffset":-14400000,"routeColor":"FF00FF","routeType":3,"routeId":"1:175","routeTextColor":"FFFFFF","interlineWithPreviousLeg":true,"tripBlockId":"11","headsign":"Terminus Chicoutimi","agencyId":"0","tripId":"1:217494","serviceDate":"20180402","from":{"name":"COSTCO","stopId":"1:1710","stopCode":"1710","lon":-71.085767,"lat":48.382333,"arrival":1522723260000,"departure":1522723500000,"zoneId":"NA","stopIndex":0,"stopSequence":1,"vertexType":"TRANSIT"},"to":{"name":"Hôpital de Chicoutimi (Saint-Vallier)","stopId":"1:410","stopCode":"410","lon":-71.050193,"lat":48.426282,"arrival":1522724700000,"departure":1522724701000,"zoneId":"NA","stopIndex":20,"stopSequence":21,"vertexType":"TRANSIT"},"legGeometry":{"points":"euhfHt|zpL_BiBsCoDwCqDrCsGN_@uEoFoEiFUWSUqCwC]a@{ByC{@cAkJuKoAwA_CeCeExJ~AlB`@mAu@k@}@q@|C}Iw@}@aO_QkEsEiAoAgEsFkFsHqJ_N}FkImPkOuO{N_U_TcNgNcBcB{E`Jc@x@qG~@{BlAk@XgSrQqB_GAeFiEeEOt@gAeA_A_ATm@yAwAgBeBqDnL@nBF`@f@|C[dCuAfB]xAs@OmCmCmEkE]a@g@i@ZiGTmEl@oLaEe@","length":67},"routeShortName":"175","routeLongName":"Term. Chic / Costco","rentedBike":false,"transitLeg":true,"duration":1200.0,"steps":[]},{"startTime":1522724701000,"endTime":1522726528000,"departureDelay":0,"arrivalDelay":0,"realTime":false,"distance":2356.286,"pathway":false,"mode":"WALK","route":"","agencyTimeZoneOffset":-14400000,"interlineWithPreviousLeg":false,"from":{"name":"Hôpital de Chicoutimi (Saint-Vallier)","stopId":"1:410","stopCode":"410","lon":-71.050193,"lat":48.426282,"arrival":1522724700000,"departure":1522724701000,"zoneId":"NA","stopIndex":20,"stopSequence":21,"vertexType":"TRANSIT"},"to":{"name":"Destination","lon":-71.028828,"lat":48.426054,"arrival":1522726528000,"orig":"","vertexType":"NORMAL"},"legGeometry":{"points":"egqfHd~spL^DhBZP?FOBg@BoADy@D{@AWAUm@kBEOC[Ga@FEh@kAgAk@ICN{CK}@_A{@d@qG@YKi@U]a@c@YOq@GgA?i@H]AKGSKc@Sy@e@M?iBHiCF@}@@M?ADqCA{JMuDCYGy@MiBKyAIqAM_BEq@?AKkAe@{HGgAAwADg@@S@YLgC?A@W@SF_AbA^^Fh@J\\GN[TeAFYPu@b@gAP_@t@yAfBgClB{B^WL]vC_@","length":81},"rentedBike":false,"transitLeg":false,"duration":1827.0,"steps":[{"distance":94.97,"relativeDirection":"DEPART","streetName":"service road","absoluteDirection":"SOUTH","stayOn":false,"area":false,"bogusName":true,"lon":-71.05010794672428,"lat":48.426274963568915,"elevation":[]},{"distance":273.061,"relativeDirection":"LEFT","streetName":"service road","absoluteDirection":"EAST","stayOn":true,"area":false,"bogusName":true,"lon":-71.05019700000001,"lat":48.425456700000005,"elevation":[]},{"distance":418.005,"relativeDirection":"RIGHT","streetName":"path","absoluteDirection":"EAST","stayOn":true,"area":false,"bogusName":true,"lon":-71.0471993,"lat":48.4258536,"elevation":[]},{"distance":218.841,"relativeDirection":"SLIGHTLY_RIGHT","streetName":"Rue du Bon-Conseil","absoluteDirection":"NORTH","stayOn":false,"area":false,"bogusName":false,"lon":-71.0436803,"lat":48.427398100000005,"elevation":[]},{"distance":812.876,"relativeDirection":"RIGHT","streetName":"Boulevard du Saguenay Est","absoluteDirection":"EAST","stayOn":false,"area":false,"bogusName":false,"lon":-71.0433845,"lat":48.429314600000005,"elevation":[]},{"distance":452.949,"relativeDirection":"RIGHT","streetName":"Rue Saint-Thimothée","absoluteDirection":"SOUTH","stayOn":false,"area":false,"bogusName":false,"lon":-71.032488,"lat":48.4298091,"elevation":[]},{"distance":85.584,"relativeDirection":"RIGHT","streetName":"Rue de la Chute","absoluteDirection":"SOUTH","stayOn":false,"area":false,"bogusName":false,"lon":-71.02927700000001,"lat":48.4267891,"elevation":[]}]}],"tooSloped":false}]},"debugOutput":{"precalculationTime":7,"pathCalculationTime":24,"pathTimes":[15,6,3],"renderingTime":1,"totalTime":32,"timedOut":false},"elevationMetadata":{"ellipsoidToGeoidDifference":-28.885904201182168,"geoidElevation":false}}