{"requestParameters":{"date":"2018/04/02","walkSpeed":"1.33","walkReluctance":"2.0","fromPlace":"48.426054,-71.028828","maxWalkDistance":"3000","waitReluctance":"1.0","carSpeed":"33","numItineraries":"3","waitAtBeginningFactor":"0.4","mode":"TRANSIT,WALK","ignoreRealtimeUpdates":"false","stairsReluctance":"2.0","toPlace":"48.402927,-71.060087","time":"15:30:00"},"plan":{"date":1522697400000,"from":{"name":"Origin","lon":-71.028828,"lat":48.426054,"orig":"","vertexType":"NORMAL"},"to":{"name":"Destination","lon":-71.060087,"lat":48.402927,"orig":"","vertexType":"NORMAL"},"itineraries":[{"duration":1904,"startTime":1522698413000,"endTime":1522700317000,"walkTime":1221,"transitTime":681,"waitingTime":2,"walkDistance":1562.0963082618578,"walkLimitExceeded":false,"elevationLost":0.0,"elevationGained":0.0,"transfers":0,"legs":[{"startTime":1522698413000,"endTime":1522698938000,"departureDelay":0,"arrivalDelay":0,"realTime":false,"distance":669.761,"pathway":false,"mode":"WALK","route":"","agencyTimeZoneOffset":-14400000,"interlineWithPreviousLeg":false,"from":{"name":"Origin","lon":-71.028828,"lat":48.426054,"departure":1522698413000,"orig":"","vertexType":"NORMAL"},"to":{"name":"Normandie / Terrasse","stopId":"1:1531","stopCode":"1531","lon":-71.02299,"lat":48.426196,"arrival":1522698938000,"departure":1522698939000,"zoneId":"NA","stopIndex":19,"stopSequence":20,"vertexType":"TRANSIT"},"legGeometry":{"points":"seqfH~zopLwC^HWJsBLmH@mCHk@F}@b@S`@Op@mAO`AGQGUGa@H}@RsGBsAY]QM","length":20},"rentedBike":false,"transitLeg":false,"duration":525.0,"steps":[{"distance":85.584,"relativeDirection":"DEPART","streetName":"Rue de la Chute","absoluteDirection":"NORTH","stayOn":false,"area":false,"bogusName":false,"lon":-71.02911401016972,"lat":48.42602706232555,"elevation":[]},{"distance":218.477,"relativeDirection":"HARD_RIGHT","streetName":"Rue Saint-Thimothée","absoluteDirection":"SOUTHEAST","stayOn":false,"area":false,"bogusName":false,"lon":-71.02927700000001,"lat":48.4267891,"elevation":[]},{"distance":121.248,"relativeDirection":"SLIGHTLY_RIGHT","streetName":"bike path","absoluteDirection":"EAST","stayOn":false,"area":false,"bogusName":true,"lon":-71.0263515,"lat":48.4265923,"elevation":[]},{"distance":214.682,"relativeDirection":"HARD_RIGHT","streetName":"Rue de la Terrasse","absoluteDirection":"WEST","stayOn":false,"area":false,"bogusName":false,"lon":-71.0252517,"lat":48.425902900000004,"elevation":[]},{"distance":29.770000000000003,"relativeDirection":"LEFT","streetName":"Rue de Normandie","absoluteDirection":"NORTHEAST","stayOn":false,"area":false,"bogusName":false,"lon":-71.0231006,"lat":48.4259314,"elevation":[]}]},{"startTime":1522698939000,"endTime":1522699620000,"departureDelay":0,"arrivalDelay":0,"realTime":false,"distance":4052.977816000293,"pathway":false,"mode":"BUS","route":"12","agencyName":"Société de Transport du Saguenay","agencyUrl":"http://ville.saguenay.ca/fr/services-aux-citoyens/transport-sts","agencyTimeZoneOffset":-14400000,"routeColor":"556B2F","routeType":3,"routeId":"1:12","routeTextColor":"FFFFFF","interlineWithPreviousLeg":false,"tripBlockId":"27","headsign":"Terminus UQAC","agencyId":"0","tripId":"1:218018","serviceDate":"20180402","from":{"name":"Normandie / Terrasse","stopId":"1:1531","stopCode":"1531","lon":-71.02299,"lat":48.426196,"arrival":1522698938000,"departure":1522698939000,"zoneId":"NA","stopIndex":19,"stopSequence":20,"vertexType":"TRANSIT"},"to":{"name":"Place du Royaume (Champs-Élysées)","stopId":"1:193","stopCode":"193","lon":-71.052659,"lat":48.407065,"arrival":1522699620000,"departure":1522699621000,"zoneId":"NA","stopIndex":28,"stopSequence":29,"vertexType":"TRANSIT"},"legGeometry":{"points":"ufqfHttnpLnOdIdGlGjL|BzBiLv@}L`b@fNvVvrCdRvMcAjK","length":10},"routeShortName":"12","routeLongName":"Rivière du Moulin","rentedBike":false,"transitLeg":true,"duration":681.0,"steps":[]},{"startTime":1522699621000,"endTime":1522700317000,"departureDelay":0,"arrivalDelay":0,"realTime":false,"distance":892.062,"pathway":false,"mode":"WALK","route":"","agencyTimeZoneOffset":-14400000,"interlineWithPreviousLeg":false,"from":{"name":"Place du Royaume (Champs-Élysées)","stopId":"1:193","stopCode":"193","lon":-71.052659,"lat":48.407065,"arrival":1522699620000,"departure":1522699621000,"zoneId":"NA","stopIndex":28,"stopSequence":29,"vertexType":"TRANSIT"},"to":{"name":"Destination","lon":-71.060087,"lat":48.402927,"arrival":1522700317000,"orig":"","vertexType":"NORMAL"},"legGeometry":{"points":"unmfH|ntpLQTOb@aA~Cs@pB^\\~EnEm@|B|DpDLJhE~DhFvEjBdBVVMZEH","length":16},"rentedBike":false,"transitLeg":false,"duration":696.0,"steps":[{"distance":149.249,"relativeDirection":"DEPART","streetName":"Rue des Champs-Élysées","absoluteDirection":"NORTHWEST","stayOn":false,"area":false,"bogusName":false,"lon":-71.0527883359973,"lat":48.40699779220329,"elevation":[]},{"distance":167.27,"relativeDirection":"LEFT","streetName":"parking aisle","absoluteDirection":"SOUTHWEST","stayOn":false,"area":false,"bogusName":true,"lon":-71.0544462,"lat":48.407755200000004,"elevation":[]},{"distance":53.12,"relativeDirection":"RIGHT","streetName":"service road","absoluteDirection":"NORTHWEST","stayOn":true,"area":false,"bogusName":true,"lon":-71.0556352,"lat":48.4064746,"elevation":[]},{"distance":505.121,"relativeDirection":"LEFT","streetName":"Boulevard Talbot","absoluteDirection":"SOUTHWEST","stayOn":false,"area":false,"bogusName":false,"lon":-71.0562666,"lat":48.4067038,"elevation":[]},{"distance":17.302,"relativeDirection":"RIGHT","streetName":"Rue des Saguenéens","absoluteDirection":"NORTHWEST","stayOn":false,"area":false,"bogusName":false,"lon":-71.0598825,"lat":48.402847200000004,"elevation":[]}]}],"tooSloped":false},{"duration":1693,"startTime":1522699084000,"endTime":1522700777000,"walkTime":576,"transitTime":1115,"waitingTime":2,"walkDistance":752.4306766910621,"walkLimitExceeded":false,"elevationLost":0.0,"elevationGained":0.0,"transfers":1,"legs":[{"startTime":1522699084000,"endTime":1522699524000,"departureDelay":0,"arrivalDelay":0,"realTime":false,"distance":578.322,"pathway":false,"mode":"WALK","route":"","agencyTimeZoneOffset":-14400000,"interlineWithPreviousLeg":false,"from":{"name":"Origin","lon":-71.028828,"lat":48.426054,"departure":1522699084000,"orig":"","vertexType":"NORMAL"},"to":{"name":"boul. Saguenay / Jacques Bacon","stopId":"1:1994","stopCode":"1994","lon":-71.033006,"lat":48.429934,"arrival":1522699524000,"departure":1522699525000,"zoneId":"NA","stopIndex":26,"stopSequence":27,"vertexType":"TRANSIT"},"legGeometry":{"points":"seqfH~zopLwC^M\\_@VmBzBgBfCu@xAQ^c@fAQt@GXUdAOZ]Fi@K_@GcA_@G~@ARAV","length":20},"rentedBike":false,"transitLeg":false,"duration":440.0,"steps":[{"distance":85.584,"relativeDirection":"DEPART","streetName":"Rue de la Chute","absoluteDirection":"NORTH","stayOn":false,"area":false,"bogusName":false,"lon":-71.02911401016972,"lat":48.42602706232555,"elevation":[]},{"distance":452.949,"relativeDirection":"LEFT","streetName":"Rue Saint-Thimothée","absoluteDirection":"NORTHWEST","stayOn":false,"area":false,"bogusName":false,"lon":-71.02927700000001,"lat":48.4267891,"elevation":[]},{"distance":39.789,"relativeDirection":"LEFT","streetName":"Boulevard du Saguenay Est","absoluteDirection":"WEST","stayOn":false,"area":false,"bogusName":false,"lon":-71.032488,"lat":48.4298091,"elevation":[]}]},{"startTime":1522699525000,"endTime":1522699860000,"departureDelay":0,"arrivalDelay":0,"realTime":false,"distance":2467.0693783784,"pathway":false,"mode":"BUS","route":"12","agencyName":"Société de Transport du Saguenay","agencyUrl":"http://ville.saguenay.ca/fr/services-aux-citoyens/transport-sts","agencyTimeZoneOffset":-14400000,"routeColor":"556B2F","routeType":3,"routeId":"1:12","routeTextColor":"FFFFFF","interlineWithPreviousLeg":false,"tripBlockId":"29","headsign":"Terminus Chicoutimi","agencyId":"0","tripId":"1:218070","serviceDate":"20180402","from":{"name":"boul. Saguenay / Jacques Bacon","stopId":"1:1994","stopCode":"1994","lon":-71.033006,"lat":48.429934,"arrival":1522699524000,"departure":1522699525000,"zoneId":"NA","stopIndex":26,"stopSequence":27,"vertexType":"TRANSIT"},"to":{"name":"Terminus Chicoutimi","stopId":"1:1289","stopCode":"1289","lon":-71.066163,"lat":48.428677,"arrival":1522699860000,"departure":1522699860000,"zoneId":"NA","stopIndex":33,"stopSequence":34,"vertexType":"TRANSIT"},"legGeometry":{"points":"{}qfHjsppLYzHZvMR~Hr@~ZPvHsCrMFxf@|ApJj@nDDl]BvZdCXJhC","length":14},"routeShortName":"12","routeLongName":"Rivière du Moulin","rentedBike":false,"transitLeg":true,"duration":335.0,"steps":[]},{"startTime":1522699860000,"endTime":1522700640000,"departureDelay":0,"arrivalDelay":0,"realTime":false,"distance":4222.566090468581,"pathway":false,"mode":"BUS","route":"415S","agencyName":"Société de Transport du Saguenay","agencyUrl":"http://ville.saguenay.ca/fr/services-aux-citoyens/transport-sts","agencyTimeZoneOffset":-14400000,"routeColor":"8B0000","routeType":3,"routeId":"1:415S","routeTextColor":"FFFFFF","interlineWithPreviousLeg":false,"tripBlockId":"68","headsign":"Costco","agencyId":"0","tripId":"1:218587","serviceDate":"20180402","from":{"name":"Terminus Chicoutimi","stopId":"1:1289","stopCode":"1289","lon":-71.066163,"lat":48.428677,"arrival":1522699860000,"departure":1522699860000,"zoneId":"NA","stopIndex":0,"stopSequence":1,"vertexType":"TRANSIT"},"to":{"name":"Place du Royaume (Saguenéens)","stopId":"1:2203","stopCode":"2203","lon":-71.058027,"lat":48.402154,"arrival":1522700640000,"departure":1522700641000,"zoneId":"NA","stopIndex":16,"stopSequence":17,"vertexType":"TRANSIT"},"legGeometry":{"points":"kwqfHjbwpLF_CzDX|BXfCNF}D@YRcFJgLNuNDkCHkFVoKT}@dBnBBBpInIdG`GtFrFv@p@hCvCf@f@lJjJpLpLj@n@nAlA`BbBxD~DnBvBvBjBd@Tv@FzBD^Bt@Pd@TRLNJZXj@\\p@Rd@D~CEtBIh@@D@XFXHh@_B`CmGhC{GlBcFXm@^e@RQdA}@PAzCmCLKd@q@p@mAXw@zBcGhAmCR]nAaFl@yC","length":67},"routeShortName":"415S","routeLongName":"Term. Chic / Costco","rentedBike":false,"transitLeg":true,"duration":780.0,"steps":[]},{"startTime":1522700641000,"endTime":1522700777000,"departureDelay":0,"arrivalDelay":0,"realTime":false,"distance":174.08800000000002,"pathway":false,"mode":"WALK","route":"","agencyTimeZoneOffset":-14400000,"interlineWithPreviousLeg":false,"from":{"name":"Place du Royaume (Saguenéens)","stopId":"1:2203","stopCode":"2203","lon":-71.058027,"lat":48.402154,"arrival":1522700640000,"departure":1522700641000,"zoneId":"NA","stopIndex":16,"stopSequence":17,"vertexType":"TRANSIT"},"to":{"name":"Destination","lon":-71.060087,"lat":48.402927,"arrival":1522700777000,"orig":"","vertexType":"NORMAL"},"legGeometry":{"points":"yplfHloupLi@lCa@bBq@hCMZEH","length":6},"rentedBike":false,"transitLeg":false,"duration":136.0,"steps":[{"distance":174.08800000000002,"relativeDirection":"DEPART","streetName":"Rue des Saguenéens","absoluteDirection":"NORTHWEST","stayOn":false,"area":false,"bogusName":false,"lon":-71.0579882155147,"lat":48.402211600247604,"elevation":[]}]}],"tooSloped":false},{"duration":1904,"startTime":1522700213000,"endTime":1522702117000,"walkTime":1221,"transitTime":681,"waitingTime":2,"walkDistance":1562.0963082618578,"walkLimitExceeded":false,"elevationLost":0.0,"elevationGained":0.0,"transfers":0,"legs":[{"startTime":1522700213000,"endTime":1522700738000,"departureDelay":0,"arrivalDelay":0,"realTime":false,"distance":669.761,"pathway":false,"mode":"WALK","route":"","agencyTimeZoneOffset":-14400000,"interlineWithPreviousLeg":false,"from":{"name":"Origin","lon":-71.028828,"lat":48.426054,"departure":1522700213000,"orig":"","vertexType":"NORMAL"},"to":{"name":"Normandie / Terrasse","stopId":"1:1531","stopCode":"1531","lon":-71.02299,"lat":48.426196,"arrival":1522700738000,"departure":1522700739000,"zoneId":"NA","stopIndex":19,"stopSequence":20,"vertexType":"TRANSIT"},"legGeometry":{"points":"seqfH~zopLwC^HWJsBLmH@mCHk@F}@b@S`@Op@mAO`AGQGUGa@H}@RsGBsAY]QM","length":20},"rentedBike":false,"transitLeg":false,"duration":525.0,"steps":[{"distance":85.584,"relativeDirection":"DEPART","streetName":"Rue de la Chute","absoluteDirection":"NORTH","stayOn":false,"area":false,"bogusName":false,"lon":-71.02911401016972,"lat":48.42602706232555,"elevation":[]},{"distance":218.477,"relativeDirection":"HARD_RIGHT","streetName":"Rue Saint-Thimothée","absoluteDirection":"SOUTHEAST","stayOn":false,"area":false,"bogusName":false,"lon":-71.02927700000001,"lat":48.4267891,"elevation":[]},{"distance":121.248,"relativeDirection":"SLIGHTLY_RIGHT","streetName":"bike path","absoluteDirection":"EAST","stayOn":false,"area":false,"bogusName":true,"lon":-71.0263515,"lat":48.4265923,"elevation":[]},{"distance":214.682,"relativeDirection":"HARD_RIGHT","streetName":"Rue de la Terrasse","absoluteDirection":"WEST","stayOn":false,"area":false,"bogusName":false,"lon":-71.0252517,"lat":48.425902900000004,"elevation":[]},{"distance":29.770000000000003,"relativeDirection":"LEFT","streetName":"Rue de Normandie","absoluteDirection":"NORTHEAST","stayOn":false,"area":false,"bogusName":false,"lon":-71.0231006,"lat":48.4259314,"elevation":[]}]},{"startTime":1522700739000,"endTime":1522701420000,"departureDelay":0,"arrivalDelay":0,"realTime":false,"distance":4052.977816000293,"pathway":false,"mode":"BUS","route":"12","agencyName":"Société de Transport du Saguenay","agencyUrl":"http://ville.saguenay.ca/fr/services-aux-citoyens/transport-sts","agencyTimeZoneOffset":-14400000,"routeColor":"556B2F","routeType":3,"routeId":"1:12","routeTextColor":"FFFFFF","interlineWithPreviousLeg":false,"tripBlockId":"28","headsign":"Terminus UQAC","agencyId":"0","tripId":"1:218045","serviceDate":"20180402","from":{"name":"Normandie / Terrasse","stopId":"1:1531","stopCode":"1531","lon":-71.02299,"lat":48.426196,"arrival":1522700738000,"departure":1522700739000,"zoneId":"NA","stopIndex":19,"stopSequence":20,"vertexType":"TRANSIT"},"to":{"name":"Place du Royaume (Champs-Élysées)","stopId":"1:193","stopCode":"193","lon":-71.052659,"lat":48.407065,"arrival":1522701420000,"departure":1522701421000,"zoneId":"NA","stopIndex":28,"stopSequence":29,"vertexType":"TRANSIT"},"legGeometry":{"points":"ufqfHttnpLnOdIdGlGjL|BzBiLv@}L`b@fNvVvrCdRvMcAjK","length":10},"routeShortName":"12","routeLongName":"Rivière du Moulin","rentedBike":false,"transitLeg":true,"duration":681.0,"steps":[]},{"startTime":1522701421000,"endTime":1522702117000,"departureDelay":0,"arrivalDelay":0,"realTime":false,"distance":892.062,"pathway":false,"mode":"WALK","route":"","agencyTimeZoneOffset":-14400000,"interlineWithPreviousLeg":false,"from":{"name":"Place du Royaume (Champs-Élysées)","stopId":"1:193","stopCode":"193","lon":-71.052659,"lat":48.407065,"arrival":1522701420000,"departure":1522701421000,"zoneId":"NA","stopIndex":28,"stopSequence":29,"vertexType":"TRANSIT"},"to":{"name":"Destination","lon":-71.060087,"lat":48.402927,"arrival":1522702117000,"orig":"","vertexType":"NORMAL"},"legGeometry":{"points":"unmfH|ntpLQTOb@aA~Cs@pB^\\~EnEm@|B|DpDLJhE~DhFvEjBdBVVMZEH","length":16},"rentedBike":false,"transitLeg":false,"duration":696.0,"steps":[{"distance":149.249,"relativeDirection":"DEPART","streetName":"Rue des Champs-Élysées","absoluteDirection":"NORTHWEST","stayOn":false,"area":false,"bogusName":false,"lon":-71.0527883359973,"lat":48.40699779220329,"elevation":[]},{"distance":167.27,"relativeDirection":"LEFT","streetName":"parking aisle","absoluteDirection":"SOUTHWEST","stayOn":false,"area":false,"bogusName":true,"lon":-71.0544462,"lat":48.407755200000004,"elevation":[]},{"distance":53.12,"relativeDirection":"RIGHT","streetName":"service road","absoluteDirection":"NORTHWEST","stayOn":true,"area":false,"bogusName":true,"lon":-71.0556352,"lat":48.4064746,"elevation":[]},{"distance":505.121,"relativeDirection":"LEFT","streetName":"Boulevard Talbot","absoluteDirection":"SOUTHWEST","stayOn":false,"area":false,"bogusName":false,"lon":-71.0562666,"lat":48.4067038,"elevation":[]},{"distance":17.302,"relativeDirection":"RIGHT","streetName":"Rue des Saguenéens","absoluteDirection":"NORTHWEST","stayOn":false,"area":false,"bogusName":false,"lon":-71.0598825,"lat":48.402847200000004,"elevation":[]}]}],"tooSloped":false}]},"debugOutput":{"precalculationTime":33,"pathCalculationTime":26,"pathTimes":[17,4,5],"renderingTime":1,"totalTime":60,"timedOut":false},"elevationMetadata":{"ellipsoidToGeoidDifference":-28.885904201182168,"geoidElevation":false}}