{"requestParameters":{"date":"2018/04/02","walkSpeed":"1.33","walkReluctance":"2.0","fromPlace":"48.392809,-71.079737","maxWalkDistance":"3000","waitReluctance":"1.0","carSpeed":"33","numItineraries":"3","waitAtBeginningFactor":"0.4","mode":"TRANSIT,WALK","ignoreRealtimeUpdates":"false","stairsReluctance":"2.0","toPlace":"48.403952,-71.054642","time":"17:30:00"},"plan":{"date":1522704600000,"from":{"name":"Origin","lon":-71.079737,"lat":48.392809,"orig":"","vertexType":"NORMAL"},"to":{"name":"Destination","lon":-71.054642,"lat":48.403952,"orig":"","vertexType":"NORMAL"},"itineraries":[{"duration":996,"startTime":1522705465000,"endTime":1522706461000,"walkTime":634,"transitTime":360,"waitingTime":2,"walkDistance":805.8677744309347,"walkLimitExceeded":false,"elevationLost":0.0,"elevationGained":0.0,"transfers":0,"legs":[{"startTime":1522705465000,"endTime":1522705739000,"departureDelay":0,"arrivalDelay":0,"realTime":false,"distance":359.072,"pathway":false,"mode":"WALK","route":"","agencyTimeZoneOffset":-14400000,"interlineWithPreviousLeg":false,"from":{"name":"Origin","lon":-71.079737,"lat":48.392809,"departure":1522705465000,"orig":"","vertexType":"NORMAL"},"to":{"name":"nouveau","stopId":"1:2202","stopCode":"2202","lon":-71.075664,"lat":48.391099,"arrival":1522705739000,"departure":1522705740000,"zoneId":"NA","stopIndex":5,"stopSequence":6,"vertexType":"TRANSIT"},"legGeometry":{"points":"qvjfHpvypL`@m@LuBPuA\\mBp@sB^eAjB}EZ_A","length":9},"rentedBike":false,"transitLeg":false,"duration":274.0,"steps":[{"distance":359.072,"relativeDirection":"DEPART","streetName":"Rue du Sauvignon","absoluteDirection":"SOUTHEAST","stayOn":false,"area":false,"bogusName":false,"lon":-71.07960552098503,"lat":48.392890657163406,"elevation":[]}]},{"startTime":1522705740000,"endTime":1522706100000,"departureDelay":0,"arrivalDelay":0,"realTime":false,"distance":2196.795562074263,"pathway":false,"mode":"BUS","route":"175","agencyName":"Société de Transport du Saguenay","agencyUrl":"http://ville.saguenay.ca/fr/services-aux-citoyens/transport-sts","agencyTimeZoneOffset":-14400000,"routeColor":"FF00FF","routeType":3,"routeId":"1:175","routeTextColor":"FFFFFF","interlineWithPreviousLeg":false,"tripBlockId":"9","headsign":"Terminus Chicoutimi","agencyId":"0","tripId":"1:217414","serviceDate":"20180402","from":{"name":"nouveau","stopId":"1:2202","stopCode":"2202","lon":-71.075664,"lat":48.391099,"arrival":1522705739000,"departure":1522705740000,"zoneId":"NA","stopIndex":5,"stopSequence":6,"vertexType":"TRANSIT"},"to":{"name":"Place Royaume","stopId":"1:1801","stopCode":"1801","lon":-71.057017,"lat":48.405588,"arrival":1522706100000,"departure":1522706101000,"zoneId":"NA","stopIndex":10,"stopSequence":11,"vertexType":"TRANSIT"},"legGeometry":{"points":"{kjfHn_ypL}@q@|C}Iw@}@aO_QkEsEiAoAgEsFkFsHqJ_N}FkImPkOuO{N","length":13},"routeShortName":"175","routeLongName":"Term. Chic / Costco","rentedBike":false,"transitLeg":true,"duration":360.0,"steps":[]},{"startTime":1522706101000,"endTime":1522706461000,"departureDelay":0,"arrivalDelay":0,"realTime":false,"distance":446.63599999999997,"pathway":false,"mode":"WALK","route":"","agencyTimeZoneOffset":-14400000,"interlineWithPreviousLeg":false,"from":{"name":"Place Royaume","stopId":"1:1801","stopCode":"1801","lon":-71.057017,"lat":48.405588,"arrival":1522706100000,"departure":1522706101000,"zoneId":"NA","stopIndex":10,"stopSequence":11,"vertexType":"TRANSIT"},"to":{"name":"Destination","lon":-71.054642,"lat":48.403952,"arrival":1522706461000,"orig":"","vertexType":"NORMAL"},"legGeometry":{"points":"memfHriupL`@{Ap@uBXVZX\\XXTBBTBFFXVlBuGj@wDQBWp@OWKQ","length":17},"rentedBike":false,"transitLeg":false,"duration":360.0,"steps":[{"distance":90.318,"relativeDirection":"DEPART","streetName":"parking aisle","absoluteDirection":"SOUTHEAST","stayOn":false,"area":false,"bogusName":true,"lon":-71.0570537,"lat":48.405519700000006,"elevation":[]},{"distance":109.13300000000001,"relativeDirection":"RIGHT","streetName":"service road","absoluteDirection":"SOUTHWEST","stayOn":true,"area":false,"bogusName":true,"lon":-71.05600720000001,"lat":48.4050992,"elevation":[]},{"distance":191.916,"relativeDirection":"LEFT","streetName":"path","absoluteDirection":"SOUTHEAST","stayOn":true,"area":false,"bogusName":true,"lon":-71.0566984,"lat":48.4042426,"elevation":[]},{"distance":55.269,"relativeDirection":"HARD_LEFT","streetName":"parking aisle","absoluteDirection":"NORTHWEST","stayOn":true,"area":false,"bogusName":true,"lon":-71.0543818,"lat":48.403475,"elevation":[]}]}],"tooSloped":false},{"duration":1633,"startTime":1522706279000,"endTime":1522707912000,"walkTime":1151,"transitTime":480,"waitingTime":2,"walkDistance":1459.163060141533,"walkLimitExceeded":false,"elevationLost":0.0,"elevationGained":0.0,"transfers":0,"legs":[{"startTime":1522706279000,"endTime":1522707059000,"departureDelay":0,"arrivalDelay":0,"realTime":false,"distance":1015.517,"pathway":false,"mode":"WALK","route":"","agencyTimeZoneOffset":-14400000,"interlineWithPreviousLeg":false,"from":{"name":"Origin","lon":-71.079737,"lat":48.392809,"departure":1522706279000,"orig":"","vertexType":"NORMAL"},"to":{"name":"Roitelets / Sapins","stopId":"1:1543","stopCode":"1543","lon":-71.069553,"lat":48.393375,"arrival":1522707059000,"departure":1522707060000,"zoneId":"NA","stopIndex":0,"stopSequence":1,"vertexType":"TRANSIT"},"legGeometry":{"points":"qvjfHpvypL`@m@LuBPuA\\mBp@sB^eAjB}EZ_Af@{A`AiCJ[N_@cAkAkGkHmAyAsEkFKMBALIlA{C?A","length":22},"rentedBike":false,"transitLeg":false,"duration":780.0,"steps":[{"distance":489.112,"relativeDirection":"DEPART","streetName":"Rue du Sauvignon","absoluteDirection":"SOUTHEAST","stayOn":false,"area":false,"bogusName":false,"lon":-71.07960552098503,"lat":48.392890657163406,"elevation":[]},{"distance":442.39099999999996,"relativeDirection":"LEFT","streetName":"Boulevard Talbot","absoluteDirection":"NORTHEAST","stayOn":false,"area":false,"bogusName":false,"lon":-71.0739954,"lat":48.3906549,"elevation":[]},{"distance":84.014,"relativeDirection":"HARD_RIGHT","streetName":"bike path","absoluteDirection":"SOUTHEAST","stayOn":false,"area":false,"bogusName":true,"lon":-71.07041720000001,"lat":48.393846,"elevation":[]}]},{"startTime":1522707060000,"endTime":1522707540000,"departureDelay":0,"arrivalDelay":0,"realTime":false,"distance":3143.6310185151533,"pathway":false,"mode":"BUS","route":"15","agencyName":"Société de Transport du Saguenay","agencyUrl":"http://ville.saguenay.ca/fr/services-aux-citoyens/transport-sts","agencyTimeZoneOffset":-14400000,"routeColor":"FF00FF","routeType":3,"routeId":"1:15","routeTextColor":"FFFFFF","interlineWithPreviousLeg":false,"tripBlockId":"30","headsign":"Terminus Chicoutimi","agencyId":"0","tripId":"1:218110","serviceDate":"20180402","from":{"name":"Roitelets / Sapins","stopId":"1:1543","stopCode":"1543","lon":-71.069553,"lat":48.393375,"arrival":1522707059000,"departure":1522707060000,"zoneId":"NA","stopIndex":0,"stopSequence":1,"vertexType":"TRANSIT"},"to":{"name":"Place du Royaume (Saguenéens)","stopId":"1:1294","stopCode":"1294","lon":-71.057691,"lat":48.402355,"arrival":1522707540000,"departure":1522707541000,"zoneId":"NA","stopIndex":11,"stopSequence":12,"vertexType":"TRANSIT"},"legGeometry":{"points":"_zjfHfwwpLx@}BHa@NaADq@@y@Cy@I{@Ka@O[Sg@c@mAWwAMyA?EC]?wABuABmFB{@BmDFuH@i@F[FsC@c@TuGEGVsHPuDLuBXsFDoA?W@]Cu@GcAKu@Q_ASo@a@y@a@o@MOUUeCqBiDsDqE{EiAcAcB_AqBgA_AQaBSaBG_@Bu@FG?h@fNKnDpCfBkAzDgA}@y@q@sDy@GAeGT~@~KKrKyAnL[hB","length":69},"routeShortName":"15","routeLongName":"Term. Chic / Costco","rentedBike":false,"transitLeg":true,"duration":480.0,"steps":[]},{"startTime":1522707541000,"endTime":1522707912000,"departureDelay":0,"arrivalDelay":0,"realTime":false,"distance":443.37199999999996,"pathway":false,"mode":"WALK","route":"","agencyTimeZoneOffset":-14400000,"interlineWithPreviousLeg":false,"from":{"name":"Place du Royaume (Saguenéens)","stopId":"1:1294","stopCode":"1294","lon":-71.057691,"lat":48.402355,"arrival":1522707540000,"departure":1522707541000,"zoneId":"NA","stopIndex":11,"stopSequence":12,"vertexType":"TRANSIT"},"to":{"name":"Destination","lon":-71.054642,"lat":48.403952,"arrival":1522707912000,"orig":"","vertexType":"NORMAL"},"legGeometry":{"points":"iqlfHxmupLj@wDSi@CME[KKn@eECMGs@]IICWGGCYGECYGQGKKWYUSAEGIUXc@UQBWp@OWKQ","length":28},"rentedBike":false,"transitLeg":false,"duration":371.0,"steps":[{"distance":72.296,"relativeDirection":"DEPART","streetName":"Rue des Saguenéens","absoluteDirection":"EAST","stayOn":false,"area":false,"bogusName":false,"lon":-71.05772328170832,"lat":48.402297506554895,"elevation":[]},{"distance":44.199000000000005,"relativeDirection":"LEFT","streetName":"service road","absoluteDirection":"NORTHEAST","stayOn":false,"area":false,"bogusName":true,"lon":-71.0568056,"lat":48.4020704,"elevation":[]},{"distance":102.75299999999999,"relativeDirection":"RIGHT","streetName":"parking aisle","absoluteDirection":"EAST","stayOn":true,"area":false,"bogusName":true,"lon":-71.0563248,"lat":48.4022894,"elevation":[]},{"distance":131.326,"relativeDirection":"LEFT","streetName":"service road","absoluteDirection":"NORTH","stayOn":true,"area":false,"bogusName":true,"lon":-71.0550072,"lat":48.402104300000005,"elevation":[]},{"distance":37.529,"relativeDirection":"LEFT","streetName":"parking aisle","absoluteDirection":"NORTHWEST","stayOn":true,"area":false,"bogusName":true,"lon":-71.0543643,"lat":48.403182300000005,"elevation":[]},{"distance":55.269,"relativeDirection":"LEFT","streetName":"parking aisle","absoluteDirection":"NORTHWEST","stayOn":true,"area":false,"bogusName":true,"lon":-71.0543818,"lat":48.403475,"elevation":[]}]}],"tooSloped":false},{"duration":996,"startTime":1522707265000,"endTime":1522708261000,"walkTime":634,"transitTime":360,"waitingTime":2,"walkDistance":805.8677744309347,"walkLimitExceeded":false,"elevationLost":0.0,"elevationGained":0.0,"transfers":0,"legs":[{"startTime":1522707265000,"endTime":1522707539000,"departureDelay":0,"arrivalDelay":0,"realTime":false,"distance":359.072,"pathway":false,"mode":"WALK","route":"","agencyTimeZoneOffset":-14400000,"interlineWithPreviousLeg":false,"from":{"name":"Origin","lon":-71.079737,"lat":48.392809,"departure":1522707265000,"orig":"","vertexType":"NORMAL"},"to":{"name":"nouveau","stopId":"1:2202","stopCode":"2202","lon":-71.075664,"lat":48.391099,"arrival":1522707539000,"departure":1522707540000,"zoneId":"NA","stopIndex":5,"stopSequence":6,"vertexType":"TRANSIT"},"legGeometry":{"points":"qvjfHpvypL`@m@LuBPuA\\mBp@sB^eAjB}EZ_A","length":9},"rentedBike":false,"transitLeg":false,"duration":274.0,"steps":[{"distance":359.072,"relativeDirection":"DEPART","streetName":"Rue du Sauvignon","absoluteDirection":"SOUTHEAST","stayOn":false,"area":false,"bogusName":false,"lon":-71.07960552098503,"lat":48.392890657163406,"elevation":[]}]},{"startTime":1522707540000,"endTime":1522707900000,"departureDelay":0,"arrivalDelay":0,"realTime":false,"distance":2196.795562074263,"pathway":false,"mode":"BUS","route":"175","agencyName":"Société de Transport du Saguenay","agencyUrl":"http://ville.saguenay.ca/fr/services-aux-citoyens/transport-sts","agencyTimeZoneOffset":-14400000,"routeColor":"FF00FF","routeType":3,"routeId":"1:175","routeTextColor":"FFFFFF","interlineWithPreviousLeg":false,"tripBlockId":"11","headsign":"Terminus Chicoutimi","agencyId":"0","tripId":"1:217485","serviceDate":"20180402","from":{"name":"nouveau","stopId":"1:2202","stopCode":"2202","lon":-71.075664,"lat":48.391099,"arrival":1522707539000,"departure":1522707540000,"zoneId":"NA","stopIndex":5,"stopSequence":6,"vertexType":"TRANSIT"},"to":{"name":"Place Royaume","stopId":"1:1801","stopCode":"1801","lon":-71.057017,"lat":48.405588,"arrival":1522707900000,"departure":1522707901000,"zoneId":"NA","stopIndex":10,"stopSequence":11,"vertexType":"TRANSIT"},"legGeometry":{"points":"{kjfHn_ypL}@q@|C}Iw@}@aO_QkEsEiAoAgEsFkFsHqJ_N}FkImPkOuO{N","length":13},"routeShortName":"175","routeLongName":"Term. Chic / Costco","rentedBike":false,"transitLeg":true,"duration":360.0,"steps":[]},{"startTime":1522707901000,"endTime":1522708261000,"departureDelay":0,"arrivalDelay":0,"realTime":false,"distance":446.63599999999997,"pathway":false,"mode":"WALK","route":"","agencyTimeZoneOffset":-14400000,"interlineWithPreviousLeg":false,"from":{"name":"Place Royaume","stopId":"1:1801","stopCode":"1801","lon":-71.057017,"lat":48.405588,"arrival":1522707900000,"departure":1522707901000,"zoneId":"NA","stopIndex":10,"stopSequence":11,"vertexType":"TRANSIT"},"to":{"name":"Destination","lon":-71.054642,"lat":48.403952,"arrival":1522708261000,"orig":"","vertexType":"NORMAL"},"legGeometry":{"points":"memfHriupL`@{Ap@uBXVZX\\XXTBBTBFFXVlBuGj@wDQBWp@OWKQ","length":17},"rentedBike":false,"transitLeg":false,"duration":360.0,"steps":[{"distance":90.318,"relativeDirection":"DEPART","streetName":"parking aisle","absoluteDirection":"SOUTHEAST","stayOn":false,"area":false,"bogusName":true,"lon":-71.0570537,"lat":48.405519700000006,"elevation":[]},{"distance":109.13300000000001,"relativeDirection":"RIGHT","streetName":"service road","absoluteDirection":"SOUTHWEST","stayOn":true,"area":false,"bogusName":true,"lon":-71.05600720000001,"lat":48.4050992,"elevation":[]},{"distance":191.916,"relativeDirection":"LEFT","streetName":"path","absoluteDirection":"SOUTHEAST","stayOn":true,"area":false,"bogusName":true,"lon":-71.0566984,"lat":48.4042426,"elevation":[]},{"distance":55.269,"relativeDirection":"HARD_LEFT","streetName":"parking aisle","absoluteDirection":"NORTHWEST","stayOn":true,"area":false,"bogusName":true,"lon":-71.0543818,"lat":48.403475,"elevation":[]}]}],"tooSloped":false}]},"debugOutput":{"precalculationTime":29,"pathCalculationTime":19,"pathTimes":[10,4,5],"renderingTime":0,"totalTime":48,"timedOut":false},"elevationMetadata":{"ellipsoidToGeoidDifference":-28.885904201182168,"geoidElevation":false}}