{"requestParameters":{"date":"2018/04/02","walkSpeed":"1.33","walkReluctance":"2.0","fromPlace":"48.376191,-71.089822","maxWalkDistance":"3000","waitReluctance":"1.0","carSpeed":"33","numItineraries":"3","waitAtBeginningFactor":"0.4","mode":"TRANSIT,WALK","ignoreRealtimeUpdates":"false","stairsReluctance":"2.0","toPlace":"48.40513,-71.06202999","time":"10:0:00"},"plan":{"date":1522677600000,"from":{"name":"Origin","lon":-71.089822,"lat":48.376191,"orig":"","vertexType":"NORMAL"},"to":{"name":"Destination","lon":-71.06202999,"lat":48.40513,"orig":"","vertexType":"NORMAL"},"itineraries":[{"duration":1995,"startTime":1522677784000,"endTime":1522679779000,"walkTime":1112,"transitTime":881,"waitingTime":2,"walkDistance":1425.1637819480216,"walkLimitExceeded":false,"elevationLost":0.0,"elevationGained":0.0,"transfers":0,"legs":[{"startTime":1522677784000,"endTime":1522678218000,"departureDelay":0,"arrivalDelay":0,"realTime":false,"distance":569.056,"pathway":false,"mode":"WALK","route":"","agencyTimeZoneOffset":-14400000,"interlineWithPreviousLeg":false,"from":{"name":"Origin","lon":-71.089822,"lat":48.376191,"departure":1522677784000,"orig":"","vertexType":"NORMAL"},"to":{"name":"nouveau","stopId":"1:2280","stopCode":"2280","lon":-71.091199,"lat":48.383276,"arrival":1522678218000,"departure":1522678219000,"zoneId":"NA","stopIndex":27,"stopSequence":28,"vertexType":"TRANSIT"},"legGeometry":{"points":"qjhfH~uzpLYt@M`@MVqBlFq@bBi@vAyCzHS`@_AxBsA`EMl@","length":12},"rentedBike":false,"transitLeg":false,"duration":434.0,"steps":[{"distance":24.189,"relativeDirection":"DEPART","streetName":"Boulevard du Royaume Est","absoluteDirection":"NORTHWEST","stayOn":false,"area":false,"bogusName":false,"lon":-71.08463939490974,"lat":48.38073227895695,"elevation":[]},{"distance":544.867,"relativeDirection":"CONTINUE","streetName":"Boulevard du Royaume Ouest","absoluteDirection":"NORTHWEST","stayOn":false,"area":false,"bogusName":false,"lon":-71.08490040000001,"lat":48.380863700000006,"elevation":[]}]},{"startTime":1522678219000,"endTime":1522678260000,"departureDelay":0,"arrivalDelay":0,"realTime":false,"distance":414.63255884647657,"pathway":false,"mode":"BUS","route":"2","agencyName":"Société de Transport du Saguenay","agencyUrl":"http://ville.saguenay.ca/fr/services-aux-citoyens/transport-sts","agencyTimeZoneOffset":-14400000,"routeColor":"FF0000","routeType":3,"routeId":"1:2","routeTextColor":"FFFFFF","interlineWithPreviousLeg":false,"tripBlockId":"9","headsign":"Costco","agencyId":"0","tripId":"1:217398","serviceDate":"20180402","from":{"name":"nouveau","stopId":"1:2280","stopCode":"2280","lon":-71.091199,"lat":48.383276,"arrival":1522678218000,"departure":1522678219000,"zoneId":"NA","stopIndex":27,"stopSequence":28,"vertexType":"TRANSIT"},"to":{"name":"COSTCO","stopId":"1:1710","stopCode":"1710","lon":-71.085767,"lat":48.382333,"arrival":1522678260000,"departure":1522678500000,"zoneId":"NA","stopIndex":28,"stopSequence":29,"vertexType":"TRANSIT"},"legGeometry":{"points":"w|hfHh}{pLz@yDtI}UaCcC","length":4},"routeShortName":"2","routeLongName":"Chic/Jonq via Boul. Royaume","rentedBike":false,"transitLeg":true,"duration":41.0,"steps":[]},{"startTime":1522678500000,"endTime":1522679100000,"departureDelay":0,"arrivalDelay":0,"realTime":false,"distance":3532.3490999365067,"pathway":false,"mode":"BUS","route":"175","agencyName":"Société de Transport du Saguenay","agencyUrl":"http://ville.saguenay.ca/fr/services-aux-citoyens/transport-sts","agencyTimeZoneOffset":-14400000,"routeColor":"FF00FF","routeType":3,"routeId":"1:175","routeTextColor":"FFFFFF","interlineWithPreviousLeg":true,"tripBlockId":"9","headsign":"Terminus Chicoutimi","agencyId":"0","tripId":"1:217399","serviceDate":"20180402","from":{"name":"COSTCO","stopId":"1:1710","stopCode":"1710","lon":-71.085767,"lat":48.382333,"arrival":1522678260000,"departure":1522678500000,"zoneId":"NA","stopIndex":0,"stopSequence":1,"vertexType":"TRANSIT"},"to":{"name":"Place Royaume","stopId":"1:1801","stopCode":"1801","lon":-71.057017,"lat":48.405588,"arrival":1522679100000,"departure":1522679101000,"zoneId":"NA","stopIndex":10,"stopSequence":11,"vertexType":"TRANSIT"},"legGeometry":{"points":"euhfHt|zpL_BiBsCoDwCqDrCsGN_@uEoFoEiFUWSUqCwC]a@{ByC{@cAkJuKoAwA_CeCeExJ~AlB`@mAu@k@}@q@|C}Iw@}@aO_QkEsEiAoAgEsFkFsHqJ_N}FkImPkOuO{N","length":33},"routeShortName":"175","routeLongName":"Term. Chic / Costco","rentedBike":false,"transitLeg":true,"duration":600.0,"steps":[]},{"startTime":1522679101000,"endTime":1522679779000,"departureDelay":0,"arrivalDelay":0,"realTime":false,"distance":855.895,"pathway":false,"mode":"WALK","route":"","agencyTimeZoneOffset":-14400000,"interlineWithPreviousLeg":false,"from":{"name":"Place Royaume","stopId":"1:1801","stopCode":"1801","lon":-71.057017,"lat":48.405588,"arrival":1522679100000,"departure":1522679101000,"zoneId":"NA","stopIndex":10,"stopSequence":11,"vertexType":"TRANSIT"},"to":{"name":"Destination","lon":-71.06202999,"lat":48.40513,"arrival":1522679779000,"orig":"","vertexType":"NORMAL"},"legGeometry":{"points":"memfHriupLZXXZXV\\ZXXVV`@wAZXu@`ChFvEjBdBADKVyBvFgAnC}EuEO`@}@`C","length":19},"rentedBike":false,"transitLeg":false,"duration":678.0,"steps":[{"distance":218.012,"relativeDirection":"DEPART","streetName":"parking aisle","absoluteDirection":"SOUTHWEST","stayOn":false,"area":false,"bogusName":true,"lon":-71.0570537,"lat":48.405519700000006,"elevation":[]},{"distance":223.313,"relativeDirection":"LEFT","streetName":"Boulevard Talbot","absoluteDirection":"SOUTHWEST","stayOn":false,"area":false,"bogusName":false,"lon":-71.0581722,"lat":48.4046724,"elevation":[]},{"distance":193.94,"relativeDirection":"RIGHT","streetName":"Rue des Saguenéens","absoluteDirection":"NORTHWEST","stayOn":false,"area":false,"bogusName":false,"lon":-71.0597697,"lat":48.402967000000004,"elevation":[]},{"distance":146.751,"relativeDirection":"RIGHT","streetName":"Rue Bach","absoluteDirection":"NORTHEAST","stayOn":false,"area":false,"bogusName":false,"lon":-71.06187870000001,"lat":48.404006700000004,"elevation":[]},{"distance":73.87899999999999,"relativeDirection":"LEFT","streetName":"Rue Des Maristes","absoluteDirection":"NORTHWEST","stayOn":false,"area":false,"bogusName":false,"lon":-71.06080990000001,"lat":48.405119500000005,"elevation":[]}]}],"tooSloped":false},{"duration":1995,"startTime":1522679584000,"endTime":1522681579000,"walkTime":1112,"transitTime":881,"waitingTime":2,"walkDistance":1425.1637819480216,"walkLimitExceeded":false,"elevationLost":0.0,"elevationGained":0.0,"transfers":0,"legs":[{"startTime":1522679584000,"endTime":1522680018000,"departureDelay":0,"arrivalDelay":0,"realTime":false,"distance":569.056,"pathway":false,"mode":"WALK","route":"","agencyTimeZoneOffset":-14400000,"interlineWithPreviousLeg":false,"from":{"name":"Origin","lon":-71.089822,"lat":48.376191,"departure":1522679584000,"orig":"","vertexType":"NORMAL"},"to":{"name":"nouveau","stopId":"1:2280","stopCode":"2280","lon":-71.091199,"lat":48.383276,"arrival":1522680018000,"departure":1522680019000,"zoneId":"NA","stopIndex":27,"stopSequence":28,"vertexType":"TRANSIT"},"legGeometry":{"points":"qjhfH~uzpLYt@M`@MVqBlFq@bBi@vAyCzHS`@_AxBsA`EMl@","length":12},"rentedBike":false,"transitLeg":false,"duration":434.0,"steps":[{"distance":24.189,"relativeDirection":"DEPART","streetName":"Boulevard du Royaume Est","absoluteDirection":"NORTHWEST","stayOn":false,"area":false,"bogusName":false,"lon":-71.08463939490974,"lat":48.38073227895695,"elevation":[]},{"distance":544.867,"relativeDirection":"CONTINUE","streetName":"Boulevard du Royaume Ouest","absoluteDirection":"NORTHWEST","stayOn":false,"area":false,"bogusName":false,"lon":-71.08490040000001,"lat":48.380863700000006,"elevation":[]}]},{"startTime":1522680019000,"endTime":1522680060000,"departureDelay":0,"arrivalDelay":0,"realTime":false,"distance":414.63255884647657,"pathway":false,"mode":"BUS","route":"2","agencyName":"Société de Transport du Saguenay","agencyUrl":"http://ville.saguenay.ca/fr/services-aux-citoyens/transport-sts","agencyTimeZoneOffset":-14400000,"routeColor":"FF0000","routeType":3,"routeId":"1:2","routeTextColor":"FFFFFF","interlineWithPreviousLeg":false,"tripBlockId":"11","headsign":"Costco","agencyId":"0","tripId":"1:217469","serviceDate":"20180402","from":{"name":"nouveau","stopId":"1:2280","stopCode":"2280","lon":-71.091199,"lat":48.383276,"arrival":1522680018000,"departure":1522680019000,"zoneId":"NA","stopIndex":27,"stopSequence":28,"vertexType":"TRANSIT"},"to":{"name":"COSTCO","stopId":"1:1710","stopCode":"1710","lon":-71.085767,"lat":48.382333,"arrival":1522680060000,"departure":1522680300000,"zoneId":"NA","stopIndex":28,"stopSequence":29,"vertexType":"TRANSIT"},"legGeometry":{"points":"w|hfHh}{pLz@yDtI}UaCcC","length":4},"routeShortName":"2","routeLongName":"Chic/Jonq via Boul. Royaume","rentedBike":false,"transitLeg":true,"duration":41.0,"steps":[]},{"startTime":1522680300000,"endTime":1522680900000,"departureDelay":0,"arrivalDelay":0,"realTime":false,"distance":3532.3490999365067,"pathway":false,"mode":"BUS","route":"175","agencyName":"Société de Transport du Saguenay","agencyUrl":"http://ville.saguenay.ca/fr/services-aux-citoyens/transport-sts","agencyTimeZoneOffset":-14400000,"routeColor":"FF00FF","routeType":3,"routeId":"1:175","routeTextColor":"FFFFFF","interlineWithPreviousLeg":true,"tripBlockId":"11","headsign":"Terminus Chicoutimi","agencyId":"0","tripId":"1:217470","serviceDate":"20180402","from":{"name":"COSTCO","stopId":"1:1710","stopCode":"1710","lon":-71.085767,"lat":48.382333,"arrival":1522680060000,"departure":1522680300000,"zoneId":"NA","stopIndex":0,"stopSequence":1,"vertexType":"TRANSIT"},"to":{"name":"Place Royaume","stopId":"1:1801","stopCode":"1801","lon":-71.057017,"lat":48.405588,"arrival":1522680900000,"departure":1522680901000,"zoneId":"NA","stopIndex":10,"stopSequence":11,"vertexType":"TRANSIT"},"legGeometry":{"points":"euhfHt|zpL_BiBsCoDwCqDrCsGN_@uEoFoEiFUWSUqCwC]a@{ByC{@cAkJuKoAwA_CeCeExJ~AlB`@mAu@k@}@q@|C}Iw@}@aO_QkEsEiAoAgEsFkFsHqJ_N}FkImPkOuO{N","length":33},"routeShortName":"175","routeLongName":"Term. Chic / Costco","rentedBike":false,"transitLeg":true,"duration":600.0,"steps":[]},{"startTime":1522680901000,"endTime":1522681579000,"departureDelay":0,"arrivalDelay":0,"realTime":false,"distance":855.895,"pathway":false,"mode":"WALK","route":"","agencyTimeZoneOffset":-14400000,"interlineWithPreviousLeg":false,"from":{"name":"Place Royaume","stopId":"1:1801","stopCode":"1801","lon":-71.057017,"lat":48.405588,"arrival":1522680900000,"departure":1522680901000,"zoneId":"NA","stopIndex":10,"stopSequence":11,"vertexType":"TRANSIT"},"to":{"name":"Destination","lon":-71.06202999,"lat":48.40513,"arrival":1522681579000,"orig":"","vertexType":"NORMAL"},"legGeometry":{"points":"memfHriupLZXXZXV\\ZXXVV`@wAZXu@`ChFvEjBdBADKVyBvFgAnC}EuEO`@}@`C","length":19},"rentedBike":false,"transitLeg":false,"duration":678.0,"steps":[{"distance":218.012,"relativeDirection":"DEPART","streetName":"parking aisle","absoluteDirection":"SOUTHWEST","stayOn":false,"area":false,"bogusName":true,"lon":-71.0570537,"lat":48.405519700000006,"elevation":[]},{"distance":223.313,"relativeDirection":"LEFT","streetName":"Boulevard Talbot","absoluteDirection":"SOUTHWEST","stayOn":false,"area":false,"bogusName":false,"lon":-71.0581722,"lat":48.4046724,"elevation":[]},{"distance":193.94,"relativeDirection":"RIGHT","streetName":"Rue des Saguenéens","absoluteDirection":"NORTHWEST","stayOn":false,"area":false,"bogusName":false,"lon":-71.0597697,"lat":48.402967000000004,"elevation":[]},{"distance":146.751,"relativeDirection":"RIGHT","streetName":"Rue Bach","absoluteDirection":"NORTHEAST","stayOn":false,"area":false,"bogusName":false,"lon":-71.06187870000001,"lat":48.404006700000004,"elevation":[]},{"distance":73.87899999999999,"relativeDirection":"LEFT","streetName":"Rue Des Maristes","absoluteDirection":"NORTHWEST","stayOn":false,"area":false,"bogusName":false,"lon":-71.06080990000001,"lat":48.405119500000005,"elevation":[]}]}],"tooSloped":false},{"duration":1995,"startTime":1522681384000,"endTime":1522683379000,"walkTime":1112,"transitTime":881,"waitingTime":2,"walkDistance":1425.1637819480216,"walkLimitExceeded":false,"elevationLost":0.0,"elevationGained":0.0,"transfers":0,"legs":[{"startTime":1522681384000,"endTime":1522681818000,"departureDelay":0,"arrivalDelay":0,"realTime":false,"distance":569.056,"pathway":false,"mode":"WALK","route":"","agencyTimeZoneOffset":-14400000,"interlineWithPreviousLeg":false,"from":{"name":"Origin","lon":-71.089822,"lat":48.376191,"departure":1522681384000,"orig":"","vertexType":"NORMAL"},"to":{"name":"nouveau","stopId":"1:2280","stopCode":"2280","lon":-71.091199,"lat":48.383276,"arrival":1522681818000,"departure":1522681819000,"zoneId":"NA","stopIndex":27,"stopSequence":28,"vertexType":"TRANSIT"},"legGeometry":{"points":"qjhfH~uzpLYt@M`@MVqBlFq@bBi@vAyCzHS`@_AxBsA`EMl@","length":12},"rentedBike":false,"transitLeg":false,"duration":434.0,"steps":[{"distance":24.189,"relativeDirection":"DEPART","streetName":"Boulevard du Royaume Est","absoluteDirection":"NORTHWEST","stayOn":false,"area":false,"bogusName":false,"lon":-71.08463939490974,"lat":48.38073227895695,"elevation":[]},{"distance":544.867,"relativeDirection":"CONTINUE","streetName":"Boulevard du Royaume Ouest","absoluteDirection":"NORTHWEST","stayOn":false,"area":false,"bogusName":false,"lon":-71.08490040000001,"lat":48.380863700000006,"elevation":[]}]},{"startTime":1522681819000,"endTime":1522681860000,"departureDelay":0,"arrivalDelay":0,"realTime":false,"distance":414.63255884647657,"pathway":false,"mode":"BUS","route":"2","agencyName":"Société de Transport du Saguenay","agencyUrl":"http://ville.saguenay.ca/fr/services-aux-citoyens/transport-sts","agencyTimeZoneOffset":-14400000,"routeColor":"FF0000","routeType":3,"routeId":"1:2","routeTextColor":"FFFFFF","interlineWithPreviousLeg":false,"tripBlockId":"10","headsign":"Costco","agencyId":"0","tripId":"1:217435","serviceDate":"20180402","from":{"name":"nouveau","stopId":"1:2280","stopCode":"2280","lon":-71.091199,"lat":48.383276,"arrival":1522681818000,"departure":1522681819000,"zoneId":"NA","stopIndex":27,"stopSequence":28,"vertexType":"TRANSIT"},"to":{"name":"COSTCO","stopId":"1:1710","stopCode":"1710","lon":-71.085767,"lat":48.382333,"arrival":1522681860000,"departure":1522682100000,"zoneId":"NA","stopIndex":28,"stopSequence":29,"vertexType":"TRANSIT"},"legGeometry":{"points":"w|hfHh}{pLz@yDtI}UaCcC","length":4},"routeShortName":"2","routeLongName":"Chic/Jonq via Boul. Royaume","rentedBike":false,"transitLeg":true,"duration":41.0,"steps":[]},{"startTime":1522682100000,"endTime":1522682700000,"departureDelay":0,"arrivalDelay":0,"realTime":false,"distance":3532.3490999365067,"pathway":false,"mode":"BUS","route":"175","agencyName":"Société de Transport du Saguenay","agencyUrl":"http://ville.saguenay.ca/fr/services-aux-citoyens/transport-sts","agencyTimeZoneOffset":-14400000,"routeColor":"FF00FF","routeType":3,"routeId":"1:175","routeTextColor":"FFFFFF","interlineWithPreviousLeg":true,"tripBlockId":"10","headsign":"Terminus Chicoutimi","agencyId":"0","tripId":"1:217436","serviceDate":"20180402","from":{"name":"COSTCO","stopId":"1:1710","stopCode":"1710","lon":-71.085767,"lat":48.382333,"arrival":1522681860000,"departure":1522682100000,"zoneId":"NA","stopIndex":0,"stopSequence":1,"vertexType":"TRANSIT"},"to":{"name":"Place Royaume","stopId":"1:1801","stopCode":"1801","lon":-71.057017,"lat":48.405588,"arrival":1522682700000,"departure":1522682701000,"zoneId":"NA","stopIndex":10,"stopSequence":11,"vertexType":"TRANSIT"},"legGeometry":{"points":"euhfHt|zpL_BiBsCoDwCqDrCsGN_@uEoFoEiFUWSUqCwC]a@{ByC{@cAkJuKoAwA_CeCeExJ~AlB`@mAu@k@}@q@|C}Iw@}@aO_QkEsEiAoAgEsFkFsHqJ_N}FkImPkOuO{N","length":33},"routeShortName":"175","routeLongName":"Term. Chic / Costco","rentedBike":false,"transitLeg":true,"duration":600.0,"steps":[]},{"startTime":1522682701000,"endTime":1522683379000,"departureDelay":0,"arrivalDelay":0,"realTime":false,"distance":855.895,"pathway":false,"mode":"WALK","route":"","agencyTimeZoneOffset":-14400000,"interlineWithPreviousLeg":false,"from":{"name":"Place Royaume","stopId":"1:1801","stopCode":"1801","lon":-71.057017,"lat":48.405588,"arrival":1522682700000,"departure":1522682701000,"zoneId":"NA","stopIndex":10,"stopSequence":11,"vertexType":"TRANSIT"},"to":{"name":"Destination","lon":-71.06202999,"lat":48.40513,"arrival":1522683379000,"orig":"","vertexType":"NORMAL"},"legGeometry":{"points":"memfHriupLZXXZXV\\ZXXVV`@wAZXu@`ChFvEjBdBADKVyBvFgAnC}EuEO`@}@`C","length":19},"rentedBike":false,"transitLeg":false,"duration":678.0,"steps":[{"distance":218.012,"relativeDirection":"DEPART","streetName":"parking aisle","absoluteDirection":"SOUTHWEST","stayOn":false,"area":false,"bogusName":true,"lon":-71.0570537,"lat":48.405519700000006,"elevation":[]},{"distance":223.313,"relativeDirection":"LEFT","streetName":"Boulevard Talbot","absoluteDirection":"SOUTHWEST","stayOn":false,"area":false,"bogusName":false,"lon":-71.0581722,"lat":48.4046724,"elevation":[]},{"distance":193.94,"relativeDirection":"RIGHT","streetName":"Rue des Saguenéens","absoluteDirection":"NORTHWEST","stayOn":false,"area":false,"bogusName":false,"lon":-71.0597697,"lat":48.402967000000004,"elevation":[]},{"distance":146.751,"relativeDirection":"RIGHT","streetName":"Rue Bach","absoluteDirection":"NORTHEAST","stayOn":false,"area":false,"bogusName":false,"lon":-71.06187870000001,"lat":48.404006700000004,"elevation":[]},{"distance":73.87899999999999,"relativeDirection":"LEFT","streetName":"Rue Des Maristes","absoluteDirection":"NORTHWEST","stayOn":false,"area":false,"bogusName":false,"lon":-71.06080990000001,"lat":48.405119500000005,"elevation":[]}]}],"tooSloped":false}]},"debugOutput":{"precalculationTime":25,"pathCalculationTime":16,"pathTimes":[5,10,1],"renderingTime":0,"totalTime":41,"timedOut":false},"elevationMetadata":{"ellipsoidToGeoidDifference":-28.885904201182168,"geoidElevation":false}}