{"requestParameters":{"date":"2018/04/02","walkSpeed":"1.33","walkReluctance":"2.0","fromPlace":"48.411753,-71.073616","maxWalkDistance":"3000","waitReluctance":"1.0","carSpeed":"33","numItineraries":"3","waitAtBeginningFactor":"0.4","mode":"TRANSIT,WALK","ignoreRealtimeUpdates":"false","stairsReluctance":"2.0","toPlace":"48.404451,-71.079312","time":"16:45:00"},"plan":{"date":1522701900000,"from":{"name":"Origin","lon":-71.073616,"lat":48.411753,"orig":"","vertexType":"NORMAL"},"to":{"name":"Destination","lon":-71.079312,"lat":48.404451,"orig":"","vertexType":"NORMAL"},"itineraries":[{"duration":1057,"startTime":1522701900000,"endTime":1522702957000,"walkTime":1057,"transitTime":0,"waitingTime":0,"walkDistance":1382.0459548845733,"walkLimitExceeded":false,"elevationLost":0.0,"elevationGained":0.0,"transfers":0,"legs":[{"startTime":1522701900000,"endTime":1522702957000,"departureDelay":0,"arrivalDelay":0,"realTime":false,"distance":1381.964,"pathway":false,"mode":"WALK","route":"","agencyTimeZoneOffset":-14400000,"interlineWithPreviousLeg":false,"from":{"name":"Origin","lon":-71.073616,"lat":48.411753,"departure":1522701900000,"orig":"","vertexType":"NORMAL"},"to":{"name":"Destination","lon":-71.079312,"lat":48.404451,"arrival":1522702957000,"orig":"","vertexType":"NORMAL"},"legGeometry":{"points":"annfHrqxpLPjC`@rFPxBjBjBh@f@dCxBTT@@pEjEnAjBBD^j@VPxE|CLBHBrCr@v@t@VpA^dDNbAt@Y|@c@v@?j@OdAqAXaBs@aGf@aB","length":30},"rentedBike":false,"transitLeg":false,"duration":1057.0,"steps":[{"distance":1026.949,"relativeDirection":"DEPART","streetName":"Rue Jolliet","absoluteDirection":"WEST","stayOn":false,"area":false,"bogusName":false,"lon":-71.0736976571186,"lat":48.412015756724095,"elevation":[]},{"distance":355.015,"relativeDirection":"LEFT","streetName":"Rue Émile-Nelligan","absoluteDirection":"SOUTH","stayOn":false,"area":false,"bogusName":false,"lon":-71.08253140000001,"lat":48.405786400000004,"elevation":[]}]}],"tooSloped":false},{"duration":1184,"startTime":1522702123000,"endTime":1522703307000,"walkTime":958,"transitTime":224,"waitingTime":2,"walkDistance":1231.695774429321,"walkLimitExceeded":false,"elevationLost":0.0,"elevationGained":0.0,"transfers":0,"legs":[{"startTime":1522702123000,"endTime":1522702619000,"departureDelay":0,"arrivalDelay":0,"realTime":false,"distance":642.03,"pathway":false,"mode":"WALK","route":"","agencyTimeZoneOffset":-14400000,"interlineWithPreviousLeg":false,"from":{"name":"Origin","lon":-71.073616,"lat":48.411753,"departure":1522702123000,"orig":"","vertexType":"NORMAL"},"to":{"name":"École secondaire de l'Odyssé Dominique-Racine","stopId":"1:580","stopCode":"580","lon":-71.067703,"lat":48.412977,"arrival":1522702619000,"departure":1522702620000,"zoneId":"NA","stopIndex":12,"stopSequence":13,"vertexType":"TRANSIT"},"legGeometry":{"points":"annfHrqxpLM_BASkEoIuBeE{BuEb@kAh@yA|AiEHQTHz@t@","length":12},"rentedBike":false,"transitLeg":false,"duration":496.0,"steps":[{"distance":414.906,"relativeDirection":"DEPART","streetName":"Rue Jolliet","absoluteDirection":"EAST","stayOn":false,"area":false,"bogusName":false,"lon":-71.0736976571186,"lat":48.412015756724095,"elevation":[]},{"distance":174.902,"relativeDirection":"RIGHT","streetName":"Rue Des Oblats Est","absoluteDirection":"SOUTHEAST","stayOn":false,"area":false,"bogusName":false,"lon":-71.0693767,"lat":48.414325600000005,"elevation":[]},{"distance":52.222,"relativeDirection":"RIGHT","streetName":"Rue Bégin","absoluteDirection":"SOUTH","stayOn":false,"area":false,"bogusName":false,"lon":-71.06744280000001,"lat":48.413416500000004,"elevation":[]}]},{"startTime":1522702620000,"endTime":1522702844000,"departureDelay":0,"arrivalDelay":0,"realTime":false,"distance":1040.5580901662402,"pathway":false,"mode":"BUS","route":"15","agencyName":"Société de Transport du Saguenay","agencyUrl":"http://ville.saguenay.ca/fr/services-aux-citoyens/transport-sts","agencyTimeZoneOffset":-14400000,"routeColor":"FF00FF","routeType":3,"routeId":"1:15","routeTextColor":"FFFFFF","interlineWithPreviousLeg":false,"tripBlockId":"31","headsign":"Talbot / Barrette","agencyId":"0","tripId":"1:218142","serviceDate":"20180402","from":{"name":"École secondaire de l'Odyssé Dominique-Racine","stopId":"1:580","stopCode":"580","lon":-71.067703,"lat":48.412977,"arrival":1522702619000,"departure":1522702620000,"zoneId":"NA","stopIndex":12,"stopSequence":13,"vertexType":"TRANSIT"},"to":{"name":"Angoulême / Bégin","stopId":"1:536","stopCode":"536","lon":-71.073862,"lat":48.405153,"arrival":1522702844000,"departure":1522702845000,"zoneId":"NA","stopIndex":18,"stopSequence":19,"vertexType":"TRANSIT"},"legGeometry":{"points":"ctnfHhlwpLdAfALzDNzDrAdBrEKvBEbCv@d@TvFlC|DlBpMlG","length":12},"routeShortName":"15","routeLongName":"Term. Chic / Costco","rentedBike":false,"transitLeg":true,"duration":224.0,"steps":[]},{"startTime":1522702845000,"endTime":1522703307000,"departureDelay":0,"arrivalDelay":0,"realTime":false,"distance":589.456,"pathway":false,"mode":"WALK","route":"","agencyTimeZoneOffset":-14400000,"interlineWithPreviousLeg":false,"from":{"name":"Angoulême / Bégin","stopId":"1:536","stopCode":"536","lon":-71.073862,"lat":48.405153,"arrival":1522702844000,"departure":1522702845000,"zoneId":"NA","stopIndex":18,"stopSequence":19,"vertexType":"TRANSIT"},"to":{"name":"Destination","lon":-71.079312,"lat":48.404451,"arrival":1522703307000,"orig":"","vertexType":"NORMAL"},"legGeometry":{"points":"gcmfH|qxpLs@HFnGXdAVX~@XUpC??Gf@WbAW`Ah@`@rDtCd@j@kA~D","length":15},"rentedBike":false,"transitLeg":false,"duration":462.0,"steps":[{"distance":29.535,"relativeDirection":"DEPART","streetName":"Rue d'Angoulème","absoluteDirection":"NORTH","stayOn":false,"area":false,"bogusName":false,"lon":-71.07374850893203,"lat":48.405161276828096,"elevation":[]},{"distance":183.368,"relativeDirection":"LEFT","streetName":"Rue Garon","absoluteDirection":"WEST","stayOn":false,"area":false,"bogusName":false,"lon":-71.0737922,"lat":48.405425300000005,"elevation":[]},{"distance":126.671,"relativeDirection":"RIGHT","streetName":"Rue Ballantyne","absoluteDirection":"WEST","stayOn":false,"area":false,"bogusName":false,"lon":-71.0757641,"lat":48.404816700000005,"elevation":[]},{"distance":167.284,"relativeDirection":"LEFT","streetName":"Rue Félix-Leclerc","absoluteDirection":"SOUTHWEST","stayOn":false,"area":false,"bogusName":false,"lon":-71.0773621,"lat":48.4052018,"elevation":[]},{"distance":82.598,"relativeDirection":"RIGHT","streetName":"Rue Émile-Nelligan","absoluteDirection":"NORTHWEST","stayOn":false,"area":false,"bogusName":false,"lon":-71.0785013,"lat":48.403903400000004,"elevation":[]}]}],"tooSloped":false},{"duration":723,"startTime":1522702690000,"endTime":1522703413000,"walkTime":556,"transitTime":165,"waitingTime":2,"walkDistance":714.874766913848,"walkLimitExceeded":false,"elevationLost":0.0,"elevationGained":0.0,"transfers":0,"legs":[{"startTime":1522702690000,"endTime":1522702994000,"departureDelay":0,"arrivalDelay":0,"realTime":false,"distance":393.51599999999996,"pathway":false,"mode":"WALK","route":"","agencyTimeZoneOffset":-14400000,"interlineWithPreviousLeg":false,"from":{"name":"Origin","lon":-71.073616,"lat":48.411753,"departure":1522702690000,"orig":"","vertexType":"NORMAL"},"to":{"name":"Jolliet / Garnier","stopId":"1:4292","stopCode":"4292","lon":-71.077836,"lat":48.410186,"arrival":1522702994000,"departure":1522702995000,"zoneId":"NA","stopIndex":16,"stopSequence":17,"vertexType":"TRANSIT"},"legGeometry":{"points":"annfHrqxpLPjC`@rFPxBjBjBh@f@dCxBTT@@","length":9},"rentedBike":false,"transitLeg":false,"duration":304.0,"steps":[{"distance":393.51599999999996,"relativeDirection":"DEPART","streetName":"Rue Jolliet","absoluteDirection":"WEST","stayOn":false,"area":false,"bogusName":false,"lon":-71.0736976571186,"lat":48.412015756724095,"elevation":[]}]},{"startTime":1522702995000,"endTime":1522703160000,"departureDelay":0,"arrivalDelay":0,"realTime":false,"distance":824.8654970655195,"pathway":false,"mode":"BUS","route":"14","agencyName":"Société de Transport du Saguenay","agencyUrl":"http://ville.saguenay.ca/fr/services-aux-citoyens/transport-sts","agencyTimeZoneOffset":-14400000,"routeColor":"C0C000","routeType":3,"routeId":"1:14","routeTextColor":"000000","interlineWithPreviousLeg":false,"tripBlockId":"30","headsign":"Talbot / Barrette","agencyId":"0","tripId":"1:218107","serviceDate":"20180402","from":{"name":"Jolliet / Garnier","stopId":"1:4292","stopCode":"4292","lon":-71.077836,"lat":48.410186,"arrival":1522702994000,"departure":1522702995000,"zoneId":"NA","stopIndex":16,"stopSequence":17,"vertexType":"TRANSIT"},"to":{"name":"Ballantyne / Garon","stopId":"1:539","stopCode":"539","lon":-71.076506,"lat":48.404894,"arrival":1522703160000,"departure":1522703161000,"zoneId":"NA","stopIndex":20,"stopSequence":21,"vertexType":"TRANSIT"},"legGeometry":{"points":"gbnfHtjypLlElEtAnB`@l@pFrD@?fDr@XgAjFuR\\yADm@","length":11},"routeShortName":"14","routeLongName":"Coopérative","rentedBike":false,"transitLeg":true,"duration":165.0,"steps":[]},{"startTime":1522703161000,"endTime":1522703413000,"departureDelay":0,"arrivalDelay":0,"realTime":false,"distance":321.252,"pathway":false,"mode":"WALK","route":"","agencyTimeZoneOffset":-14400000,"interlineWithPreviousLeg":false,"from":{"name":"Ballantyne / Garon","stopId":"1:539","stopCode":"539","lon":-71.076506,"lat":48.404894,"arrival":1522703160000,"departure":1522703161000,"zoneId":"NA","stopIndex":20,"stopSequence":21,"vertexType":"TRANSIT"},"to":{"name":"Destination","lon":-71.079312,"lat":48.404451,"arrival":1522703413000,"orig":"","vertexType":"NORMAL"},"legGeometry":{"points":"wamfHbcypLGf@WbAW`Ah@`@rDtCd@j@kA~D","length":8},"rentedBike":false,"transitLeg":false,"duration":252.0,"steps":[{"distance":71.37,"relativeDirection":"DEPART","streetName":"Rue Ballantyne","absoluteDirection":"WEST","stayOn":false,"area":false,"bogusName":false,"lon":-71.07649387874903,"lat":48.40492879914754,"elevation":[]},{"distance":167.284,"relativeDirection":"LEFT","streetName":"Rue Félix-Leclerc","absoluteDirection":"SOUTHWEST","stayOn":false,"area":false,"bogusName":false,"lon":-71.0773621,"lat":48.4052018,"elevation":[]},{"distance":82.598,"relativeDirection":"RIGHT","streetName":"Rue Émile-Nelligan","absoluteDirection":"NORTHWEST","stayOn":false,"area":false,"bogusName":false,"lon":-71.0785013,"lat":48.403903400000004,"elevation":[]}]}],"tooSloped":false}]},"debugOutput":{"precalculationTime":49,"pathCalculationTime":19,"pathTimes":[12,3,4],"renderingTime":0,"totalTime":68,"timedOut":false},"elevationMetadata":{"ellipsoidToGeoidDifference":-28.885904201182168,"geoidElevation":false}}