{"requestParameters":{"date":"2018/04/02","walkSpeed":"1.33","walkReluctance":"2.0","fromPlace":"48.409814,-71.05987299","maxWalkDistance":"3000","waitReluctance":"1.0","carSpeed":"33","numItineraries":"3","waitAtBeginningFactor":"0.4","mode":"TRANSIT,WALK","ignoreRealtimeUpdates":"false","stairsReluctance":"2.0","toPlace":"48.418826,-71.098038","time":"16:30:00"},"plan":{"date":1522701000000,"from":{"name":"Origin","lon":-71.05987299,"lat":48.409814,"orig":"","vertexType":"NORMAL"},"to":{"name":"Destination","lon":-71.098038,"lat":48.418826,"orig":"","vertexType":"NORMAL"},"itineraries":[{"duration":2796,"startTime":1522701984000,"endTime":1522704780000,"walkTime":248,"transitTime":2306,"waitingTime":242,"walkDistance":314.9371879674987,"walkLimitExceeded":false,"elevationLost":0.0,"elevationGained":0.0,"transfers":1,"legs":[{"startTime":1522701984000,"endTime":1522702053000,"departureDelay":0,"arrivalDelay":0,"realTime":false,"distance":83.6,"pathway":false,"mode":"WALK","route":"","agencyTimeZoneOffset":-14400000,"interlineWithPreviousLeg":false,"from":{"name":"Origin","lon":-71.05987299,"lat":48.409814,"departure":1522701984000,"orig":"","vertexType":"NORMAL"},"to":{"name":"Champs-Élysées / Chopin","stopId":"1:570","stopCode":"570","lon":-71.058565,"lat":48.409684,"arrival":1522702053000,"departure":1522702054000,"zoneId":"NA","stopIndex":11,"stopSequence":12,"vertexType":"TRANSIT"},"legGeometry":{"points":"k_nfH|vupLAA}@i@n@}A","length":4},"rentedBike":false,"transitLeg":false,"duration":69.0,"steps":[{"distance":39.567,"relativeDirection":"DEPART","streetName":"Rue Bizet","absoluteDirection":"NORTHEAST","stayOn":false,"area":false,"bogusName":false,"lon":-71.05918428769453,"lat":48.40966614723325,"elevation":[]},{"distance":44.033,"relativeDirection":"RIGHT","streetName":"Rue des Champs-Élysées","absoluteDirection":"SOUTHEAST","stayOn":false,"area":false,"bogusName":false,"lon":-71.0589618,"lat":48.409989800000005,"elevation":[]}]},{"startTime":1522702054000,"endTime":1522703460000,"departureDelay":0,"arrivalDelay":0,"realTime":false,"distance":8746.6297172976,"pathway":false,"mode":"BUS","route":"12","agencyName":"Société de Transport du Saguenay","agencyUrl":"http://ville.saguenay.ca/fr/services-aux-citoyens/transport-sts","agencyTimeZoneOffset":-14400000,"routeColor":"556B2F","routeType":3,"routeId":"1:12","routeTextColor":"FFFFFF","interlineWithPreviousLeg":false,"tripBlockId":"29","headsign":"Terminus Chicoutimi","agencyId":"0","tripId":"1:218072","serviceDate":"20180402","from":{"name":"Champs-Élysées / Chopin","stopId":"1:570","stopCode":"570","lon":-71.058565,"lat":48.409684,"arrival":1522702053000,"departure":1522702054000,"zoneId":"NA","stopIndex":11,"stopSequence":12,"vertexType":"TRANSIT"},"to":{"name":"Terminus Chicoutimi","stopId":"1:1289","stopCode":"1289","lon":-71.066163,"lat":48.428677,"arrival":1522703460000,"departure":1522703700000,"zoneId":"NA","stopIndex":33,"stopSequence":34,"vertexType":"TRANSIT"},"legGeometry":{"points":"o_nfH`supLrGcPxFoNlCyGa@yFYkD}CyA}KmFgD_BgAgBn@kFD_NoIgrAmD_WcAaLaDHoDJi`@wVoAbDbA|AnBU|B|AfBlAyLtKoGxFcFqDkJaHgEoDmDwC_TqQsBeB{HjWfAvAfM|O|FlHmB`IgA|Cy@`UYzHZvMR~Hr@~ZPvHsCrMFxf@|ApJj@nDDl]BvZdCXJhC","length":51},"routeShortName":"12","routeLongName":"Rivière du Moulin","rentedBike":false,"transitLeg":true,"duration":1406.0,"steps":[]},{"startTime":1522703700000,"endTime":1522704600000,"departureDelay":0,"arrivalDelay":0,"realTime":false,"distance":4868.175502348126,"pathway":false,"mode":"BUS","route":"16","agencyName":"Société de Transport du Saguenay","agencyUrl":"http://ville.saguenay.ca/fr/services-aux-citoyens/transport-sts","agencyTimeZoneOffset":-14400000,"routeColor":"00FF00","routeType":3,"routeId":"1:16","routeTextColor":"000000","interlineWithPreviousLeg":false,"tripBlockId":"37","headsign":"Faubourg Sagamie","agencyId":"0","tripId":"1:218324","serviceDate":"20180402","from":{"name":"Terminus Chicoutimi","stopId":"1:1289","stopCode":"1289","lon":-71.066163,"lat":48.428677,"arrival":1522703460000,"departure":1522703700000,"zoneId":"NA","stopIndex":0,"stopSequence":1,"vertexType":"TRANSIT"},"to":{"name":"Stade / ch. de la Réserve","stopId":"1:617","stopCode":"617","lon":-71.100622,"lat":48.419268,"arrival":1522704600000,"departure":1522704601000,"zoneId":"NA","stopIndex":25,"stopSequence":26,"vertexType":"TRANSIT"},"legGeometry":{"points":"evqfHzcwpLg@?AXCnAO~GxDVhCP~M~@jDTOrHKdGE^E~BQnIMhGAxCD~@Df@DVDZd@zBBLDJJNHHHDJBn@HCxAHdAFX@DFj@@b@Ab@SvAe@p@{EnEEB{@w@m@o@aDeDIKCMCM?SL}A?A@WCYi@mDOu@Wm@EIMSSWaAcAuAcBq@f@URa@d@u@`A}BzCV`DX~C@HFT^v@bA|AZ^`Av@\\`@Zf@pAvCtD`JJTrAtCpAjC@BvA|CvA~Ci@zAqD`KyDrKyF|Og@tAr@r@h@^jA\\\\Nt@\\PHf@RVDXEROR[p@iBr@uBJQLIDCNEr@lERbBFzA@LFbFN`A^r@bB|AlC`BDBz@t@eAjD|@x@~AxAxB`BbAiDjCzB|ApAvAZbAo@|@cD","length":124},"routeShortName":"16","routeLongName":"Côte de la Réserve","rentedBike":false,"transitLeg":true,"duration":900.0,"steps":[]},{"startTime":1522704601000,"endTime":1522704780000,"departureDelay":0,"arrivalDelay":0,"realTime":false,"distance":231.262,"pathway":false,"mode":"WALK","route":"","agencyTimeZoneOffset":-14400000,"interlineWithPreviousLeg":false,"from":{"name":"Stade / ch. de la Réserve","stopId":"1:617","stopCode":"617","lon":-71.100622,"lat":48.419268,"arrival":1522704600000,"departure":1522704601000,"zoneId":"NA","stopIndex":25,"stopSequence":26,"vertexType":"TRANSIT"},"to":{"name":"Destination","lon":-71.098038,"lat":48.418826,"arrival":1522704780000,"orig":"","vertexType":"NORMAL"},"legGeometry":{"points":"s{ofHvy}pLb@{A`CkImAcA","length":4},"rentedBike":false,"transitLeg":false,"duration":179.0,"steps":[{"distance":39.367,"relativeDirection":"DEPART","streetName":"Rue du Stade","absoluteDirection":"SOUTHEAST","stayOn":false,"area":false,"bogusName":false,"lon":-71.10059069024184,"lat":48.41930332111794,"elevation":[]},{"distance":142.185,"relativeDirection":"CONTINUE","streetName":"Rue Gosselin","absoluteDirection":"SOUTHEAST","stayOn":false,"area":false,"bogusName":false,"lon":-71.10013090000001,"lat":48.4191238,"elevation":[]},{"distance":49.71,"relativeDirection":"LEFT","streetName":"Rue Ringuette","absoluteDirection":"NORTHEAST","stayOn":false,"area":false,"bogusName":false,"lon":-71.09847020000001,"lat":48.4184755,"elevation":[]}]}],"tooSloped":false},{"duration":2596,"startTime":1522703984000,"endTime":1522706580000,"walkTime":1835,"transitTime":759,"waitingTime":2,"walkDistance":2361.182503752897,"walkLimitExceeded":false,"elevationLost":0.0,"elevationGained":0.0,"transfers":0,"legs":[{"startTime":1522703984000,"endTime":1522705640000,"departureDelay":0,"arrivalDelay":0,"realTime":false,"distance":2129.719,"pathway":false,"mode":"WALK","route":"","agencyTimeZoneOffset":-14400000,"interlineWithPreviousLeg":false,"from":{"name":"Origin","lon":-71.05987299,"lat":48.409814,"departure":1522703984000,"orig":"","vertexType":"NORMAL"},"to":{"name":"Sainte-Anne / Lévesque","stopId":"1:518","stopCode":"518","lon":-71.068972,"lat":48.424968,"arrival":1522705640000,"departure":1522705641000,"zoneId":"NA","stopIndex":2,"stopSequence":3,"vertexType":"TRANSIT"},"legGeometry":{"points":"k_nfH|vupLAA}@i@a@`@wC^iALC?}Fr@C@M@yCb@_ANcAp@_@d@Y`@iAbD??e@pAoAnDcA|FOh@GP??k@jBn@l@kAdDGReAvCu@xBeAT]x@o@nBe@nBYx@o@L_@J]DGBy@VYJ{@@e@BiBO]DSCgCQkBOMAQASAs@Eu@EyAGe@C{BOm@Eg@ESAYCkCO[CC?","length":62},"rentedBike":false,"transitLeg":false,"duration":1656.0,"steps":[{"distance":39.567,"relativeDirection":"DEPART","streetName":"Rue Bizet","absoluteDirection":"NORTHEAST","stayOn":false,"area":false,"bogusName":false,"lon":-71.05918428769453,"lat":48.40966614723325,"elevation":[]},{"distance":872.99,"relativeDirection":"LEFT","streetName":"Rue des Champs-Élysées","absoluteDirection":"NORTHWEST","stayOn":false,"area":false,"bogusName":false,"lon":-71.0589618,"lat":48.409989800000005,"elevation":[]},{"distance":30.953,"relativeDirection":"LEFT","streetName":"Rue Bégin","absoluteDirection":"SOUTHWEST","stayOn":false,"area":false,"bogusName":false,"lon":-71.0647342,"lat":48.416021,"elevation":[]},{"distance":205.419,"relativeDirection":"RIGHT","streetName":"Rue Dubé","absoluteDirection":"NORTHWEST","stayOn":false,"area":false,"bogusName":false,"lon":-71.06496530000001,"lat":48.4157887,"elevation":[]},{"distance":188.869,"relativeDirection":"RIGHT","streetName":"path","absoluteDirection":"NORTH","stayOn":false,"area":false,"bogusName":true,"lon":-71.0672681,"lat":48.416826400000005,"elevation":[]},{"distance":100.197,"relativeDirection":"RIGHT","streetName":"Rue Jolliet","absoluteDirection":"NORTH","stayOn":false,"area":false,"bogusName":false,"lon":-71.069079,"lat":48.417887500000006,"elevation":[]},{"distance":691.724,"relativeDirection":"CONTINUE","streetName":"Rue Sainte-Anne","absoluteDirection":"NORTH","stayOn":false,"area":false,"bogusName":false,"lon":-71.0693796,"lat":48.418765,"elevation":[]}]},{"startTime":1522705641000,"endTime":1522706400000,"departureDelay":0,"arrivalDelay":0,"realTime":false,"distance":4366.38574794562,"pathway":false,"mode":"BUS","route":"16","agencyName":"Société de Transport du Saguenay","agencyUrl":"http://ville.saguenay.ca/fr/services-aux-citoyens/transport-sts","agencyTimeZoneOffset":-14400000,"routeColor":"00FF00","routeType":3,"routeId":"1:16","routeTextColor":"000000","interlineWithPreviousLeg":false,"tripBlockId":"34","headsign":"Faubourg Sagamie","agencyId":"0","tripId":"1:218229","serviceDate":"20180402","from":{"name":"Sainte-Anne / Lévesque","stopId":"1:518","stopCode":"518","lon":-71.068972,"lat":48.424968,"arrival":1522705640000,"departure":1522705641000,"zoneId":"NA","stopIndex":2,"stopSequence":3,"vertexType":"TRANSIT"},"to":{"name":"Stade / ch. de la Réserve","stopId":"1:617","stopCode":"617","lon":-71.100622,"lat":48.419268,"arrival":1522706400000,"departure":1522706401000,"zoneId":"NA","stopIndex":25,"stopSequence":26,"vertexType":"TRANSIT"},"legGeometry":{"points":"__qfHnswpLjDTOrHKdGE^E~BQnIMhGAxCD~@Df@DVDZd@zBBLDJJNHHHDJBn@HCxAHdAFX@DFj@@b@Ab@SvAe@p@{EnEEB{@w@m@o@aDeDIKCMCM?SL}A?A@WCYi@mDOu@Wm@EIMSSWaAcAuAcBq@f@URa@d@u@`A}BzCV`DX~C@HFT^v@bA|AZ^`Av@\\`@Zf@pAvCtD`JJTrAtCpAjC@BvA|CvA~Ci@zAqD`KyDrKyF|Og@tAr@r@h@^jA\\\\Nt@\\PHf@RVDXEROR[p@iBr@uBJQLIDCNEr@lERbBFzA@LFbFN`A^r@bB|AlC`BDBz@t@eAjD|@x@~AxAxB`BbAiDjCzB|ApAvAZbAo@|@cD","length":117},"routeShortName":"16","routeLongName":"Côte de la Réserve","rentedBike":false,"transitLeg":true,"duration":759.0,"steps":[]},{"startTime":1522706401000,"endTime":1522706580000,"departureDelay":0,"arrivalDelay":0,"realTime":false,"distance":231.262,"pathway":false,"mode":"WALK","route":"","agencyTimeZoneOffset":-14400000,"interlineWithPreviousLeg":false,"from":{"name":"Stade / ch. de la Réserve","stopId":"1:617","stopCode":"617","lon":-71.100622,"lat":48.419268,"arrival":1522706400000,"departure":1522706401000,"zoneId":"NA","stopIndex":25,"stopSequence":26,"vertexType":"TRANSIT"},"to":{"name":"Destination","lon":-71.098038,"lat":48.418826,"arrival":1522706580000,"orig":"","vertexType":"NORMAL"},"legGeometry":{"points":"s{ofHvy}pLb@{A`CkImAcA","length":4},"rentedBike":false,"transitLeg":false,"duration":179.0,"steps":[{"distance":39.367,"relativeDirection":"DEPART","streetName":"Rue du Stade","absoluteDirection":"SOUTHEAST","stayOn":false,"area":false,"bogusName":false,"lon":-71.10059069024184,"lat":48.41930332111794,"elevation":[]},{"distance":142.185,"relativeDirection":"CONTINUE","streetName":"Rue Gosselin","absoluteDirection":"SOUTHEAST","stayOn":false,"area":false,"bogusName":false,"lon":-71.10013090000001,"lat":48.4191238,"elevation":[]},{"distance":49.71,"relativeDirection":"LEFT","streetName":"Rue Ringuette","absoluteDirection":"NORTHEAST","stayOn":false,"area":false,"bogusName":false,"lon":-71.09847020000001,"lat":48.4184755,"elevation":[]}]}],"tooSloped":false},{"duration":2596,"startTime":1522705784000,"endTime":1522708380000,"walkTime":1835,"transitTime":759,"waitingTime":2,"walkDistance":2361.182503752897,"walkLimitExceeded":false,"elevationLost":0.0,"elevationGained":0.0,"transfers":0,"legs":[{"startTime":1522705784000,"endTime":1522707440000,"departureDelay":0,"arrivalDelay":0,"realTime":false,"distance":2129.719,"pathway":false,"mode":"WALK","route":"","agencyTimeZoneOffset":-14400000,"interlineWithPreviousLeg":false,"from":{"name":"Origin","lon":-71.05987299,"lat":48.409814,"departure":1522705784000,"orig":"","vertexType":"NORMAL"},"to":{"name":"Sainte-Anne / Lévesque","stopId":"1:518","stopCode":"518","lon":-71.068972,"lat":48.424968,"arrival":1522707440000,"departure":1522707441000,"zoneId":"NA","stopIndex":2,"stopSequence":3,"vertexType":"TRANSIT"},"legGeometry":{"points":"k_nfH|vupLAA}@i@a@`@wC^iALC?}Fr@C@M@yCb@_ANcAp@_@d@Y`@iAbD??e@pAoAnDcA|FOh@GP??k@jBn@l@kAdDGReAvCu@xBeAT]x@o@nBe@nBYx@o@L_@J]DGBy@VYJ{@@e@BiBO]DSCgCQkBOMAQASAs@Eu@EyAGe@C{BOm@Eg@ESAYCkCO[CC?","length":62},"rentedBike":false,"transitLeg":false,"duration":1656.0,"steps":[{"distance":39.567,"relativeDirection":"DEPART","streetName":"Rue Bizet","absoluteDirection":"NORTHEAST","stayOn":false,"area":false,"bogusName":false,"lon":-71.05918428769453,"lat":48.40966614723325,"elevation":[]},{"distance":872.99,"relativeDirection":"LEFT","streetName":"Rue des Champs-Élysées","absoluteDirection":"NORTHWEST","stayOn":false,"area":false,"bogusName":false,"lon":-71.0589618,"lat":48.409989800000005,"elevation":[]},{"distance":30.953,"relativeDirection":"LEFT","streetName":"Rue Bégin","absoluteDirection":"SOUTHWEST","stayOn":false,"area":false,"bogusName":false,"lon":-71.0647342,"lat":48.416021,"elevation":[]},{"distance":205.419,"relativeDirection":"RIGHT","streetName":"Rue Dubé","absoluteDirection":"NORTHWEST","stayOn":false,"area":false,"bogusName":false,"lon":-71.06496530000001,"lat":48.4157887,"elevation":[]},{"distance":188.869,"relativeDirection":"RIGHT","streetName":"path","absoluteDirection":"NORTH","stayOn":false,"area":false,"bogusName":true,"lon":-71.0672681,"lat":48.416826400000005,"elevation":[]},{"distance":100.197,"relativeDirection":"RIGHT","streetName":"Rue Jolliet","absoluteDirection":"NORTH","stayOn":false,"area":false,"bogusName":false,"lon":-71.069079,"lat":48.417887500000006,"elevation":[]},{"distance":691.724,"relativeDirection":"CONTINUE","streetName":"Rue Sainte-Anne","absoluteDirection":"NORTH","stayOn":false,"area":false,"bogusName":false,"lon":-71.0693796,"lat":48.418765,"elevation":[]}]},{"startTime":1522707441000,"endTime":1522708200000,"departureDelay":0,"arrivalDelay":0,"realTime":false,"distance":4366.38574794562,"pathway":false,"mode":"BUS","route":"16","agencyName":"Société de Transport du Saguenay","agencyUrl":"http://ville.saguenay.ca/fr/services-aux-citoyens/transport-sts","agencyTimeZoneOffset":-14400000,"routeColor":"00FF00","routeType":3,"routeId":"1:16","routeTextColor":"000000","interlineWithPreviousLeg":false,"tripBlockId":"36","headsign":"Faubourg Sagamie","agencyId":"0","tripId":"1:218300","serviceDate":"20180402","from":{"name":"Sainte-Anne / Lévesque","stopId":"1:518","stopCode":"518","lon":-71.068972,"lat":48.424968,"arrival":1522707440000,"departure":1522707441000,"zoneId":"NA","stopIndex":2,"stopSequence":3,"vertexType":"TRANSIT"},"to":{"name":"Stade / ch. de la Réserve","stopId":"1:617","stopCode":"617","lon":-71.100622,"lat":48.419268,"arrival":1522708200000,"departure":1522708201000,"zoneId":"NA","stopIndex":25,"stopSequence":26,"vertexType":"TRANSIT"},"legGeometry":{"points":"__qfHnswpLjDTOrHKdGE^E~BQnIMhGAxCD~@Df@DVDZd@zBBLDJJNHHHDJBn@HCxAHdAFX@DFj@@b@Ab@SvAe@p@{EnEEB{@w@m@o@aDeDIKCMCM?SL}A?A@WCYi@mDOu@Wm@EIMSSWaAcAuAcBq@f@URa@d@u@`A}BzCV`DX~C@HFT^v@bA|AZ^`Av@\\`@Zf@pAvCtD`JJTrAtCpAjC@BvA|CvA~Ci@zAqD`KyDrKyF|Og@tAr@r@h@^jA\\\\Nt@\\PHf@RVDXEROR[p@iBr@uBJQLIDCNEr@lERbBFzA@LFbFN`A^r@bB|AlC`BDBz@t@eAjD|@x@~AxAxB`BbAiDjCzB|ApAvAZbAo@|@cD","length":117},"routeShortName":"16","routeLongName":"Côte de la Réserve","rentedBike":false,"transitLeg":true,"duration":759.0,"steps":[]},{"startTime":1522708201000,"endTime":1522708380000,"departureDelay":0,"arrivalDelay":0,"realTime":false,"distance":231.262,"pathway":false,"mode":"WALK","route":"","agencyTimeZoneOffset":-14400000,"interlineWithPreviousLeg":false,"from":{"name":"Stade / ch. de la Réserve","stopId":"1:617","stopCode":"617","lon":-71.100622,"lat":48.419268,"arrival":1522708200000,"departure":1522708201000,"zoneId":"NA","stopIndex":25,"stopSequence":26,"vertexType":"TRANSIT"},"to":{"name":"Destination","lon":-71.098038,"lat":48.418826,"arrival":1522708380000,"orig":"","vertexType":"NORMAL"},"legGeometry":{"points":"s{ofHvy}pLb@{A`CkImAcA","length":4},"rentedBike":false,"transitLeg":false,"duration":179.0,"steps":[{"distance":39.367,"relativeDirection":"DEPART","streetName":"Rue du Stade","absoluteDirection":"SOUTHEAST","stayOn":false,"area":false,"bogusName":false,"lon":-71.10059069024184,"lat":48.41930332111794,"elevation":[]},{"distance":142.185,"relativeDirection":"CONTINUE","streetName":"Rue Gosselin","absoluteDirection":"SOUTHEAST","stayOn":false,"area":false,"bogusName":false,"lon":-71.10013090000001,"lat":48.4191238,"elevation":[]},{"distance":49.71,"relativeDirection":"LEFT","streetName":"Rue Ringuette","absoluteDirection":"NORTHEAST","stayOn":false,"area":false,"bogusName":false,"lon":-71.09847020000001,"lat":48.4184755,"elevation":[]}]}],"tooSloped":false}]},"debugOutput":{"precalculationTime":39,"pathCalculationTime":98,"pathTimes":[36,32,30],"renderingTime":1,"totalTime":138,"timedOut":false},"elevationMetadata":{"ellipsoidToGeoidDifference":-28.885904201182168,"geoidElevation":false}}