{"requestParameters":{"date":"2018/04/02","walkSpeed":"1.33","walkReluctance":"2.0","fromPlace":"48.309498,-71.11380099","maxWalkDistance":"3000","waitReluctance":"1.0","carSpeed":"33","numItineraries":"3","waitAtBeginningFactor":"0.4","mode":"TRANSIT,WALK","ignoreRealtimeUpdates":"false","stairsReluctance":"2.0","toPlace":"48.326565,-71.135102","time":"15:30:00"},"plan":{"date":1522697400000,"from":{"name":"Origin","lon":-71.11380099,"lat":48.309498,"orig":"","vertexType":"NORMAL"},"to":{"name":"Destination","lon":-71.135102,"lat":48.326565,"orig":"","vertexType":"NORMAL"},"itineraries":[{"duration":2237,"startTime":1522697400000,"endTime":1522699637000,"walkTime":2237,"transitTime":0,"waitingTime":0,"walkDistance":2935.8007142813353,"walkLimitExceeded":false,"elevationLost":0.0,"elevationGained":0.0,"transfers":0,"legs":[{"startTime":1522697400000,"endTime":1522699637000,"departureDelay":0,"arrivalDelay":0,"realTime":false,"distance":2935.665,"pathway":false,"mode":"WALK","route":"","agencyTimeZoneOffset":-14400000,"interlineWithPreviousLeg":false,"from":{"name":"Origin","lon":-71.11380099,"lat":48.309498,"departure":1522697400000,"orig":"","vertexType":"NORMAL"},"to":{"name":"Destination","lon":-71.135102,"lat":48.326565,"arrival":1522699637000,"orig":"","vertexType":"NORMAL"},"legGeometry":{"points":"aozeHfn`qLXp@wB|CaBpEvBpBg@xAmHtSGPqBtF{ElNABcDhJ?B}JnY?@aDfJ}@bC]p@qAtDmAlD_BpEkBjFoFuFkNwAiF]IAoKj@u@F","length":28},"rentedBike":false,"transitLeg":false,"duration":2237.0,"steps":[{"distance":22.583,"relativeDirection":"DEPART","streetName":"rue de la Moisson","absoluteDirection":"SOUTHWEST","stayOn":false,"area":false,"bogusName":false,"lon":-71.1141189653664,"lat":48.30977355347037,"elevation":[]},{"distance":183.303,"relativeDirection":"RIGHT","streetName":"Rue de la Moisson","absoluteDirection":"NORTHWEST","stayOn":false,"area":false,"bogusName":false,"lon":-71.1143612,"lat":48.309649900000004,"elevation":[]},{"distance":79.487,"relativeDirection":"LEFT","streetName":"Rue de la culture","absoluteDirection":"SOUTHWEST","stayOn":false,"area":false,"bogusName":false,"lon":-71.1162046,"lat":48.3107362,"elevation":[]},{"distance":1824.4360000000001,"relativeDirection":"RIGHT","streetName":"Rue du Boulevard","absoluteDirection":"NORTHWEST","stayOn":false,"area":false,"bogusName":false,"lon":-71.11677710000001,"lat":48.3101312,"elevation":[]},{"distance":825.856,"relativeDirection":"RIGHT","streetName":"Rang Saint-Pierre","absoluteDirection":"NORTHEAST","stayOn":false,"area":false,"bogusName":false,"lon":-71.1371469,"lat":48.3193853,"elevation":[]}]}],"tooSloped":false},{"duration":1995,"startTime":1522698297000,"endTime":1522700292000,"walkTime":1900,"transitTime":93,"waitingTime":2,"walkDistance":2486.506872175648,"walkLimitExceeded":false,"elevationLost":0.0,"elevationGained":0.0,"transfers":0,"legs":[{"startTime":1522698297000,"endTime":1522700039000,"departureDelay":0,"arrivalDelay":0,"realTime":false,"distance":2278.945,"pathway":false,"mode":"WALK","route":"","agencyTimeZoneOffset":-14400000,"interlineWithPreviousLeg":false,"from":{"name":"Origin","lon":-71.11380099,"lat":48.309498,"departure":1522698297000,"orig":"","vertexType":"NORMAL"},"to":{"name":"ch. Portage Roches N / Caravanes","stopId":"1:1779","stopCode":"1779","lon":-71.138324,"lat":48.31808,"arrival":1522700039000,"departure":1522700040000,"zoneId":"NA","stopIndex":12,"stopSequence":13,"vertexType":"TRANSIT"},"legGeometry":{"points":"aozeHfn`qLXp@wB|CaBpEvBpBg@xAmHtSGPqBtF{ElNABcDhJ?B}JnY?@aDfJ}@bC]p@qAtDmAlD_BpEkBjFhDdDrApA@@","length":25},"rentedBike":false,"transitLeg":false,"duration":1742.0,"steps":[{"distance":22.583,"relativeDirection":"DEPART","streetName":"rue de la Moisson","absoluteDirection":"SOUTHWEST","stayOn":false,"area":false,"bogusName":false,"lon":-71.1141189653664,"lat":48.30977355347037,"elevation":[]},{"distance":183.303,"relativeDirection":"RIGHT","streetName":"Rue de la Moisson","absoluteDirection":"NORTHWEST","stayOn":false,"area":false,"bogusName":false,"lon":-71.1143612,"lat":48.309649900000004,"elevation":[]},{"distance":79.487,"relativeDirection":"LEFT","streetName":"Rue de la culture","absoluteDirection":"SOUTHWEST","stayOn":false,"area":false,"bogusName":false,"lon":-71.1162046,"lat":48.3107362,"elevation":[]},{"distance":1824.4360000000001,"relativeDirection":"RIGHT","streetName":"Rue du Boulevard","absoluteDirection":"NORTHWEST","stayOn":false,"area":false,"bogusName":false,"lon":-71.11677710000001,"lat":48.3101312,"elevation":[]},{"distance":169.136,"relativeDirection":"LEFT","streetName":"Chemin du Portage-des-Roches Nord","absoluteDirection":"SOUTHWEST","stayOn":false,"area":false,"bogusName":false,"lon":-71.1371469,"lat":48.3193853,"elevation":[]}]},{"startTime":1522700040000,"endTime":1522700133000,"departureDelay":0,"arrivalDelay":0,"realTime":false,"distance":1179.2205777895742,"pathway":false,"mode":"BUS","route":"60","agencyName":"Société de Transport du Saguenay","agencyUrl":"http://ville.saguenay.ca/fr/services-aux-citoyens/transport-sts","agencyTimeZoneOffset":-14400000,"routeColor":"00FFFF","routeType":3,"routeId":"1:60","routeTextColor":"000000","interlineWithPreviousLeg":false,"tripBlockId":"95","headsign":"Costco","agencyId":"0","tripId":"1:218717","serviceDate":"20180402","from":{"name":"ch. Portage Roches N / Caravanes","stopId":"1:1779","stopCode":"1779","lon":-71.138324,"lat":48.31808,"arrival":1522700039000,"departure":1522700040000,"zoneId":"NA","stopIndex":12,"stopSequence":13,"vertexType":"TRANSIT"},"to":{"name":"ch. St-Pierre / Peupliers","stopId":"1:409","stopCode":"409","lon":-71.136508,"lat":48.328279,"arrival":1522700133000,"departure":1522700134000,"zoneId":"NA","stopIndex":14,"stopSequence":15,"vertexType":"TRANSIT"},"legGeometry":{"points":"cc|eH|eeqLcD{Cw@{@]]i@i@w@gA_@e@e@UmAc@sHmAaIiA_BAM?cADsJn@gAPkAZODcAl@}@j@w@x@","length":21},"routeShortName":"60","routeLongName":"Portage des Roches Nord","rentedBike":false,"transitLeg":true,"duration":93.0,"steps":[]},{"startTime":1522700134000,"endTime":1522700292000,"departureDelay":0,"arrivalDelay":0,"realTime":false,"distance":207.413,"pathway":false,"mode":"WALK","route":"","agencyTimeZoneOffset":-14400000,"interlineWithPreviousLeg":false,"from":{"name":"ch. St-Pierre / Peupliers","stopId":"1:409","stopCode":"409","lon":-71.136508,"lat":48.328279,"arrival":1522700133000,"departure":1522700134000,"zoneId":"NA","stopIndex":14,"stopSequence":15,"vertexType":"TRANSIT"},"to":{"name":"Destination","lon":-71.135102,"lat":48.326565,"arrival":1522700292000,"orig":"","vertexType":"NORMAL"},"legGeometry":{"points":"qb~eHpzdqLx@w@~@m@jAs@p@QbAUZC","length":7},"rentedBike":false,"transitLeg":false,"duration":158.0,"steps":[{"distance":207.413,"relativeDirection":"DEPART","streetName":"Rang Saint-Pierre","absoluteDirection":"SOUTHEAST","stayOn":false,"area":false,"bogusName":false,"lon":-71.13656143963804,"lat":48.32825685809407,"elevation":[]}]}],"tooSloped":false},{"duration":1419,"startTime":1522698956000,"endTime":1522700375000,"walkTime":1344,"transitTime":73,"waitingTime":2,"walkDistance":1756.27196240166,"walkLimitExceeded":false,"elevationLost":0.0,"elevationGained":0.0,"transfers":0,"legs":[{"startTime":1522698956000,"endTime":1522699212000,"departureDelay":0,"arrivalDelay":0,"realTime":false,"distance":325.23,"pathway":false,"mode":"WALK","route":"","agencyTimeZoneOffset":-14400000,"interlineWithPreviousLeg":false,"from":{"name":"Origin","lon":-71.11380099,"lat":48.309498,"departure":1522698956000,"orig":"","vertexType":"NORMAL"},"to":{"name":"Boulevard / Culture","stopId":"1:319","stopCode":"319","lon":-71.117175,"lat":48.310379,"arrival":1522699212000,"departure":1522699213000,"zoneId":"NA","stopIndex":17,"stopSequence":18,"vertexType":"TRANSIT"},"legGeometry":{"points":"aozeHfn`qLXp@wB|CaBpEvBpBg@xA","length":6},"rentedBike":false,"transitLeg":false,"duration":256.0,"steps":[{"distance":22.583,"relativeDirection":"DEPART","streetName":"rue de la Moisson","absoluteDirection":"SOUTHWEST","stayOn":false,"area":false,"bogusName":false,"lon":-71.1141189653664,"lat":48.30977355347037,"elevation":[]},{"distance":183.303,"relativeDirection":"RIGHT","streetName":"Rue de la Moisson","absoluteDirection":"NORTHWEST","stayOn":false,"area":false,"bogusName":false,"lon":-71.1143612,"lat":48.309649900000004,"elevation":[]},{"distance":79.487,"relativeDirection":"LEFT","streetName":"Rue de la culture","absoluteDirection":"SOUTHWEST","stayOn":false,"area":false,"bogusName":false,"lon":-71.1162046,"lat":48.3107362,"elevation":[]},{"distance":39.857,"relativeDirection":"RIGHT","streetName":"Rue du Boulevard","absoluteDirection":"NORTHWEST","stayOn":false,"area":false,"bogusName":false,"lon":-71.11677710000001,"lat":48.3101312,"elevation":[]}]},{"startTime":1522699213000,"endTime":1522699286000,"departureDelay":0,"arrivalDelay":0,"realTime":false,"distance":1179.597802074107,"pathway":false,"mode":"BUS","route":"62","agencyName":"Société de Transport du Saguenay","agencyUrl":"http://ville.saguenay.ca/fr/services-aux-citoyens/transport-sts","agencyTimeZoneOffset":-14400000,"routeColor":"00FFFF","routeType":3,"routeId":"1:62","routeTextColor":"000000","interlineWithPreviousLeg":false,"tripBlockId":"107","headsign":"Barrage Port. Roches","agencyId":"0","tripId":"1:218821","serviceDate":"20180402","from":{"name":"Boulevard / Culture","stopId":"1:319","stopCode":"319","lon":-71.117175,"lat":48.310379,"arrival":1522699212000,"departure":1522699213000,"zoneId":"NA","stopIndex":17,"stopSequence":18,"vertexType":"TRANSIT"},"to":{"name":"Boulevard (no. 1557)","stopId":"1:1727","stopCode":"1727","lon":-71.130354,"lat":48.316355,"arrival":1522699286000,"departure":1522699287000,"zoneId":"NA","stopIndex":21,"stopSequence":22,"vertexType":"TRANSIT"},"legGeometry":{"points":"irzeH|aaqLkHvSwIrVgDpJ_KjY","length":5},"routeShortName":"62","routeLongName":"Portage des Roches Sud","rentedBike":false,"transitLeg":true,"duration":73.0,"steps":[]},{"startTime":1522699287000,"endTime":1522700375000,"departureDelay":0,"arrivalDelay":0,"realTime":false,"distance":1430.907,"pathway":false,"mode":"WALK","route":"","agencyTimeZoneOffset":-14400000,"interlineWithPreviousLeg":false,"from":{"name":"Boulevard (no. 1557)","stopId":"1:1727","stopCode":"1727","lon":-71.130354,"lat":48.316355,"arrival":1522699286000,"departure":1522699287000,"zoneId":"NA","stopIndex":21,"stopSequence":22,"vertexType":"TRANSIT"},"to":{"name":"Destination","lon":-71.135102,"lat":48.326565,"arrival":1522700375000,"orig":"","vertexType":"NORMAL"},"legGeometry":{"points":"yw{eHbtcqL?@aDfJ}@bC]p@qAtDmAlD_BpEkBjFoFuFkNwAiF]IAoKj@u@F","length":15},"rentedBike":false,"transitLeg":false,"duration":1088.0,"steps":[{"distance":605.051,"relativeDirection":"DEPART","streetName":"Rue du Boulevard","absoluteDirection":"NORTHWEST","stayOn":false,"area":false,"bogusName":false,"lon":-71.13041854024458,"lat":48.31629135907617,"elevation":[]},{"distance":825.856,"relativeDirection":"RIGHT","streetName":"Rang Saint-Pierre","absoluteDirection":"NORTHEAST","stayOn":false,"area":false,"bogusName":false,"lon":-71.1371469,"lat":48.3193853,"elevation":[]}]}],"tooSloped":false}]},"debugOutput":{"precalculationTime":2,"pathCalculationTime":13,"pathTimes":[5,5,3],"renderingTime":0,"totalTime":15,"timedOut":false},"elevationMetadata":{"ellipsoidToGeoidDifference":-28.885904201182168,"geoidElevation":false}}