{"requestParameters":{"date":"2018/04/02","walkSpeed":"1.33","walkReluctance":"2.0","fromPlace":"48.403952,-71.054642","maxWalkDistance":"3000","waitReluctance":"1.0","carSpeed":"33","numItineraries":"3","waitAtBeginningFactor":"0.4","mode":"TRANSIT,WALK","ignoreRealtimeUpdates":"false","stairsReluctance":"2.0","toPlace":"48.418826,-71.098038","time":"12:30:00"},"plan":{"date":1522686600000,"from":{"name":"Origin","lon":-71.054642,"lat":48.403952,"orig":"","vertexType":"NORMAL"},"to":{"name":"Destination","lon":-71.098038,"lat":48.418826,"orig":"","vertexType":"NORMAL"},"itineraries":[{"duration":3518,"startTime":1522686649000,"endTime":1522690167000,"walkTime":2423,"transitTime":1093,"waitingTime":2,"walkDistance":3096.4337067529545,"walkLimitExceeded":false,"elevationLost":0.0,"elevationGained":0.0,"transfers":0,"legs":[{"startTime":1522686649000,"endTime":1522687019000,"departureDelay":0,"arrivalDelay":0,"realTime":false,"distance":443.3719999999999,"pathway":false,"mode":"WALK","route":"","agencyTimeZoneOffset":-14400000,"interlineWithPreviousLeg":false,"from":{"name":"Origin","lon":-71.054642,"lat":48.403952,"departure":1522686649000,"orig":"","vertexType":"NORMAL"},"to":{"name":"Place du Royaume (Saguenéens)","stopId":"1:1294","stopCode":"1294","lon":-71.057691,"lat":48.402355,"arrival":1522687019000,"departure":1522687020000,"zoneId":"NA","stopIndex":24,"stopSequence":25,"vertexType":"TRANSIT"},"legGeometry":{"points":"{zlfHhytpLJPNVVq@PCb@TTYFH@DTRVXJJPFXFDBXFFBVFHB\\HFr@BLo@dEJJDZBLRh@k@vD","length":28},"rentedBike":false,"transitLeg":false,"duration":370.0,"steps":[{"distance":55.269,"relativeDirection":"DEPART","streetName":"parking aisle","absoluteDirection":"SOUTHWEST","stayOn":false,"area":false,"bogusName":false,"lon":-71.05444515294332,"lat":48.40382759190054,"elevation":[]},{"distance":37.529,"relativeDirection":"RIGHT","streetName":"parking aisle","absoluteDirection":"SOUTHWEST","stayOn":true,"area":false,"bogusName":true,"lon":-71.0543818,"lat":48.403475,"elevation":[]},{"distance":131.32600000000002,"relativeDirection":"RIGHT","streetName":"service road","absoluteDirection":"SOUTHWEST","stayOn":true,"area":false,"bogusName":true,"lon":-71.0543643,"lat":48.403182300000005,"elevation":[]},{"distance":102.75299999999999,"relativeDirection":"RIGHT","streetName":"parking aisle","absoluteDirection":"WEST","stayOn":true,"area":false,"bogusName":true,"lon":-71.0550072,"lat":48.402104300000005,"elevation":[]},{"distance":44.199,"relativeDirection":"LEFT","streetName":"service road","absoluteDirection":"SOUTHWEST","stayOn":true,"area":false,"bogusName":true,"lon":-71.0563248,"lat":48.4022894,"elevation":[]},{"distance":72.296,"relativeDirection":"RIGHT","streetName":"Rue des Saguenéens","absoluteDirection":"WEST","stayOn":false,"area":false,"bogusName":false,"lon":-71.0568056,"lat":48.4020704,"elevation":[]}]},{"startTime":1522687020000,"endTime":1522687320000,"departureDelay":0,"arrivalDelay":0,"realTime":false,"distance":3143.631018514618,"pathway":false,"mode":"BUS","route":"15","agencyName":"Société de Transport du Saguenay","agencyUrl":"http://ville.saguenay.ca/fr/services-aux-citoyens/transport-sts","agencyTimeZoneOffset":-14400000,"routeColor":"FF00FF","routeType":3,"routeId":"1:15","routeTextColor":"FFFFFF","interlineWithPreviousLeg":false,"tripBlockId":"33","headsign":"Talbot / Barrette","agencyId":"0","tripId":"1:218183","serviceDate":"20180402","from":{"name":"Place du Royaume (Saguenéens)","stopId":"1:1294","stopCode":"1294","lon":-71.057691,"lat":48.402355,"arrival":1522687019000,"departure":1522687020000,"zoneId":"NA","stopIndex":24,"stopSequence":25,"vertexType":"TRANSIT"},"to":{"name":"Roitelets / Sapins","stopId":"1:1543","stopCode":"1543","lon":-71.069553,"lat":48.393375,"arrival":1522687320000,"departure":1522687320000,"zoneId":"NA","stopIndex":35,"stopSequence":36,"vertexType":"TRANSIT"},"legGeometry":{"points":"_rlfHjmupLbCaO?qLa@uJzF`ApF~@~@PzAgEeDcBf@qAWcKUqEx@Ef@ExDVjDxAFBrBvAfGjG@BjCzC~DxC@@zA~Cb@fCJlC?BsBre@?DWbOAn@?nEGnM@H\\hCzA~ELvAAlAi@jDo@nB","length":40},"routeShortName":"15","routeLongName":"Term. Chic / Costco","rentedBike":false,"transitLeg":true,"duration":300.0,"steps":[]},{"startTime":1522687320000,"endTime":1522688113000,"departureDelay":0,"arrivalDelay":0,"realTime":false,"distance":6401.5413726287925,"pathway":false,"mode":"BUS","route":"14","agencyName":"Société de Transport du Saguenay","agencyUrl":"http://ville.saguenay.ca/fr/services-aux-citoyens/transport-sts","agencyTimeZoneOffset":-14400000,"routeColor":"C0C000","routeType":3,"routeId":"1:14","routeTextColor":"000000","interlineWithPreviousLeg":true,"tripBlockId":"33","headsign":"Terminus Chicoutimi","agencyId":"0","tripId":"1:218184","serviceDate":"20180402","from":{"name":"Roitelets / Sapins","stopId":"1:1513","stopCode":"1513","lon":-71.069396,"lat":48.393523,"arrival":1522687320000,"departure":1522687320000,"zoneId":"NA","stopIndex":0,"stopSequence":1,"vertexType":"TRANSIT"},"to":{"name":"Jolliet / Audet","stopId":"1:522","stopCode":"522","lon":-71.07278,"lat":48.420244,"arrival":1522688113000,"departure":1522688114000,"zoneId":"NA","stopIndex":27,"stopSequence":28,"vertexType":"TRANSIT"},"legGeometry":{"points":"azjfHfwwpLiEfLuBzFsAnDgGzSWfAcD`Mi@dCgChLmCzMwGd\\aDxOdFtFhCtCdDY|F_On@aB`B_GNoBvAyT|@sNuAyAuF}F}AaB_BkAC@qC\\gAWiBwBiKgMiCwEgEyHCGy@uB}@rAa@nAc@lFEf@mGvUYfAqCs@ICMCqFmDc@s@mAkBuEoESUgAhDiAfD}@zDyAcA_@Um@U{AWgB_Au@s@EEsBkCqFgF{IiI][aBhE}@}@oBmBwE{EwE{Ej@mB","length":68},"routeShortName":"14","routeLongName":"Coopérative","rentedBike":false,"transitLeg":true,"duration":793.0,"steps":[]},{"startTime":1522688114000,"endTime":1522690167000,"departureDelay":0,"arrivalDelay":0,"realTime":false,"distance":2652.6289999999995,"pathway":false,"mode":"WALK","route":"","agencyTimeZoneOffset":-14400000,"interlineWithPreviousLeg":false,"from":{"name":"Jolliet / Audet","stopId":"1:522","stopCode":"522","lon":-71.07278,"lat":48.420244,"arrival":1522688113000,"departure":1522688114000,"zoneId":"NA","stopIndex":27,"stopSequence":28,"vertexType":"TRANSIT"},"to":{"name":"Destination","lon":-71.098038,"lat":48.418826,"arrival":1522690167000,"orig":"","vertexType":"NORMAL"},"legGeometry":{"points":"cbpfHfkxpLa@lAOb@gA~BDR?LAJAHCFEBGBGDQ`@Yp@g@|Ay@tBCHOZEHcAjCwAtDa@pAOt@OdAEZSfAIb@g@fAM`@Wd@GJ_BpBqBpBs@t@Y`@Yl@aAxCi@zAyAfEjBrD~@hBBFf@dAbAzBz@bC~AhDZt@Tf@??JPXjBZv@Rd@JT`AzBDHLTr@|AJRJRFNZp@Zr@pA`H@HBLVxADhAAj@IvA?NAlA?FHz@LbAd@jDt@pERf@b@dA@DNb@\\r@dC`CH[n@yB|@wCLWVDLHTR","length":90},"rentedBike":false,"transitLeg":false,"duration":2053.0,"steps":[{"distance":112.061,"relativeDirection":"DEPART","streetName":"Rue Jolliet","absoluteDirection":"NORTHWEST","stayOn":false,"area":false,"bogusName":false,"lon":-71.07267835560184,"lat":48.420345859294756,"elevation":[]},{"distance":78.343,"relativeDirection":"LEFT","streetName":"path","absoluteDirection":"WEST","stayOn":false,"area":false,"bogusName":true,"lon":-71.07388590000001,"lat":48.420954200000004,"elevation":[]},{"distance":658.8380000000001,"relativeDirection":"CONTINUE","streetName":"Rue Dubuc","absoluteDirection":"NORTHWEST","stayOn":false,"area":false,"bogusName":false,"lon":-71.07469880000001,"lat":48.4212916,"elevation":[]},{"distance":238.88,"relativeDirection":"CONTINUE","streetName":"Côte Saint-Ange","absoluteDirection":"NORTHWEST","stayOn":false,"area":false,"bogusName":false,"lon":-71.0815067,"lat":48.424949000000005,"elevation":[]},{"distance":1385.92,"relativeDirection":"LEFT","streetName":"Chemin de la Réserve","absoluteDirection":"SOUTHWEST","stayOn":false,"area":false,"bogusName":false,"lon":-71.0841347,"lat":48.426195400000005,"elevation":[]},{"distance":164.167,"relativeDirection":"LEFT","streetName":"Rue Cloutier","absoluteDirection":"SOUTHEAST","stayOn":false,"area":false,"bogusName":false,"lon":-71.0995867,"lat":48.4198388,"elevation":[]},{"distance":14.42,"relativeDirection":"CONTINUE","streetName":"Rue Ringuette","absoluteDirection":"SOUTHWEST","stayOn":false,"area":false,"bogusName":false,"lon":-71.0980347,"lat":48.418974600000006,"elevation":[]}]}],"tooSloped":false},{"duration":3011,"startTime":1522687369000,"endTime":1522690380000,"walkTime":552,"transitTime":1901,"waitingTime":558,"walkDistance":675.0854436016836,"walkLimitExceeded":false,"elevationLost":0.0,"elevationGained":0.0,"transfers":1,"legs":[{"startTime":1522687369000,"endTime":1522687739000,"departureDelay":0,"arrivalDelay":0,"realTime":false,"distance":443.3719999999999,"pathway":false,"mode":"WALK","route":"","agencyTimeZoneOffset":-14400000,"interlineWithPreviousLeg":false,"from":{"name":"Origin","lon":-71.054642,"lat":48.403952,"departure":1522687369000,"orig":"","vertexType":"NORMAL"},"to":{"name":"Place du Royaume (Saguenéens)","stopId":"1:1294","stopCode":"1294","lon":-71.057691,"lat":48.402355,"arrival":1522687739000,"departure":1522687740000,"zoneId":"NA","stopIndex":11,"stopSequence":12,"vertexType":"TRANSIT"},"legGeometry":{"points":"{zlfHhytpLJPNVVq@PCb@TTYFH@DTRVXJJPFXFDBXFFBVFHB\\HFr@BLo@dEJJDZBLRh@k@vD","length":28},"rentedBike":false,"transitLeg":false,"duration":370.0,"steps":[{"distance":55.269,"relativeDirection":"DEPART","streetName":"parking aisle","absoluteDirection":"SOUTHWEST","stayOn":false,"area":false,"bogusName":false,"lon":-71.05444515294332,"lat":48.40382759190054,"elevation":[]},{"distance":37.529,"relativeDirection":"RIGHT","streetName":"parking aisle","absoluteDirection":"SOUTHWEST","stayOn":true,"area":false,"bogusName":true,"lon":-71.0543818,"lat":48.403475,"elevation":[]},{"distance":131.32600000000002,"relativeDirection":"RIGHT","streetName":"service road","absoluteDirection":"SOUTHWEST","stayOn":true,"area":false,"bogusName":true,"lon":-71.0543643,"lat":48.403182300000005,"elevation":[]},{"distance":102.75299999999999,"relativeDirection":"RIGHT","streetName":"parking aisle","absoluteDirection":"WEST","stayOn":true,"area":false,"bogusName":true,"lon":-71.0550072,"lat":48.402104300000005,"elevation":[]},{"distance":44.199,"relativeDirection":"LEFT","streetName":"service road","absoluteDirection":"SOUTHWEST","stayOn":true,"area":false,"bogusName":true,"lon":-71.0563248,"lat":48.4022894,"elevation":[]},{"distance":72.296,"relativeDirection":"RIGHT","streetName":"Rue des Saguenéens","absoluteDirection":"WEST","stayOn":false,"area":false,"bogusName":false,"lon":-71.0568056,"lat":48.4020704,"elevation":[]}]},{"startTime":1522687740000,"endTime":1522688820000,"departureDelay":0,"arrivalDelay":0,"realTime":false,"distance":5806.411506174393,"pathway":false,"mode":"BUS","route":"15","agencyName":"Société de Transport du Saguenay","agencyUrl":"http://ville.saguenay.ca/fr/services-aux-citoyens/transport-sts","agencyTimeZoneOffset":-14400000,"routeColor":"FF00FF","routeType":3,"routeId":"1:15","routeTextColor":"FFFFFF","interlineWithPreviousLeg":false,"tripBlockId":"32","headsign":"Terminus Chicoutimi","agencyId":"0","tripId":"1:218159","serviceDate":"20180402","from":{"name":"Place du Royaume (Saguenéens)","stopId":"1:1294","stopCode":"1294","lon":-71.057691,"lat":48.402355,"arrival":1522687739000,"departure":1522687740000,"zoneId":"NA","stopIndex":11,"stopSequence":12,"vertexType":"TRANSIT"},"to":{"name":"Sainte-Anne / Racine","stopId":"1:558","stopCode":"558","lon":-71.068444,"lat":48.427369,"arrival":1522688820000,"departure":1522688820000,"zoneId":"NA","stopIndex":38,"stopSequence":39,"vertexType":"TRANSIT"},"legGeometry":{"points":"eqlfHzmupLUxAm@nCcAlDeCvGmA|CUr@}@~A_@\\_DvCEZcA|@UP_@d@Yl@oBdFeCxG_CfGYVQXS\\dK|HlFZbC\\p@zA\\rB@hBiArG{BNw@FiG}@iDwAECcCcBo@y@sEeGe@o@qAa@m@MoB?C@}BZwAc@oA_Bs@gDCKZ{Di@QECc@_@sAkAoBwB_EcE{A_BoAmAk@o@cCaCkIkIaJaJUUwBaCj@wCjAsCzGoG_CoHL{D_@kAqD{CQr@iAcAy@w@L{@wAuA_B_B_EpLDh@NbBVvCIxBg@`Am@l@Sb@a@rAqDqDmEkE]a@kAqAU|@WnKG|DGxDOdPKvJU|F?XQlJC~@ChAIzEcCO","length":100},"routeShortName":"15","routeLongName":"Term. Chic / Costco","rentedBike":false,"transitLeg":true,"duration":1080.0,"steps":[]},{"startTime":1522688820000,"endTime":1522688823000,"departureDelay":0,"arrivalDelay":0,"realTime":false,"distance":0.224,"pathway":false,"mode":"WALK","route":"","agencyTimeZoneOffset":-14400000,"interlineWithPreviousLeg":false,"from":{"name":"Sainte-Anne / Racine","stopId":"1:558","stopCode":"558","lon":-71.068444,"lat":48.427369,"arrival":1522688820000,"departure":1522688820000,"zoneId":"NA","stopIndex":38,"stopSequence":39,"vertexType":"TRANSIT"},"to":{"name":"Sainte-Anne / Jacques-Cartier","stopId":"1:413","stopCode":"413","lon":-71.068639,"lat":48.427373,"arrival":1522688823000,"departure":1522689379000,"zoneId":"NA","stopIndex":1,"stopSequence":2,"vertexType":"TRANSIT"},"legGeometry":{"points":"anqfHhqwpL@?","length":2},"rentedBike":false,"transitLeg":false,"duration":3.0,"steps":[{"distance":0.224,"relativeDirection":"DEPART","streetName":"Rue Sainte-Anne","absoluteDirection":"SOUTH","stayOn":false,"area":false,"bogusName":false,"lon":-71.06852127104082,"lat":48.427371387668245,"elevation":[]}]},{"startTime":1522689379000,"endTime":1522690200000,"departureDelay":0,"arrivalDelay":0,"realTime":false,"distance":4634.936405881656,"pathway":false,"mode":"BUS","route":"16","agencyName":"Société de Transport du Saguenay","agencyUrl":"http://ville.saguenay.ca/fr/services-aux-citoyens/transport-sts","agencyTimeZoneOffset":-14400000,"routeColor":"00FF00","routeType":3,"routeId":"1:16","routeTextColor":"000000","interlineWithPreviousLeg":false,"tripBlockId":"37","headsign":"Faubourg Sagamie","agencyId":"0","tripId":"1:218316","serviceDate":"20180402","from":{"name":"Sainte-Anne / Jacques-Cartier","stopId":"1:413","stopCode":"413","lon":-71.068639,"lat":48.427373,"arrival":1522688823000,"departure":1522689379000,"zoneId":"NA","stopIndex":1,"stopSequence":2,"vertexType":"TRANSIT"},"to":{"name":"Stade / ch. de la Réserve","stopId":"1:617","stopCode":"617","lon":-71.100622,"lat":48.419268,"arrival":1522690200000,"departure":1522690201000,"zoneId":"NA","stopIndex":25,"stopSequence":26,"vertexType":"TRANSIT"},"legGeometry":{"points":"_nqfHnqwpL~M~@jDTOrHKdGE^E~BQnIMhGAxCD~@Df@DVDZd@zBBLDJJNHHHDJBn@HCxAHdAFX@DFj@@b@Ab@SvAe@p@{EnEEB{@w@m@o@aDeDIKCMCM?SL}A?A@WCYi@mDOu@Wm@EIMSSWaAcAuAcBq@f@URa@d@u@`A}BzCV`DX~C@HFT^v@bA|AZ^`Av@\\`@Zf@pAvCtD`JJTrAtCpAjC@BvA|CvA~Ci@zAqD`KyDrKyF|Og@tAr@r@h@^jA\\\\Nt@\\PHf@RVDXEROR[p@iBr@uBJQLIDCNEr@lERbBFzA@LFbFN`A^r@bB|AlC`BDBz@t@eAjD|@x@~AxAxB`BbAiDjCzB|ApAvAZbAo@|@cD","length":118},"routeShortName":"16","routeLongName":"Côte de la Réserve","rentedBike":false,"transitLeg":true,"duration":821.0,"steps":[]},{"startTime":1522690201000,"endTime":1522690380000,"departureDelay":0,"arrivalDelay":0,"realTime":false,"distance":231.262,"pathway":false,"mode":"WALK","route":"","agencyTimeZoneOffset":-14400000,"interlineWithPreviousLeg":false,"from":{"name":"Stade / ch. de la Réserve","stopId":"1:617","stopCode":"617","lon":-71.100622,"lat":48.419268,"arrival":1522690200000,"departure":1522690201000,"zoneId":"NA","stopIndex":25,"stopSequence":26,"vertexType":"TRANSIT"},"to":{"name":"Destination","lon":-71.098038,"lat":48.418826,"arrival":1522690380000,"orig":"","vertexType":"NORMAL"},"legGeometry":{"points":"s{ofHvy}pLb@{A`CkImAcA","length":4},"rentedBike":false,"transitLeg":false,"duration":179.0,"steps":[{"distance":39.367,"relativeDirection":"DEPART","streetName":"Rue du Stade","absoluteDirection":"SOUTHEAST","stayOn":false,"area":false,"bogusName":false,"lon":-71.10059069024184,"lat":48.41930332111794,"elevation":[]},{"distance":142.185,"relativeDirection":"CONTINUE","streetName":"Rue Gosselin","absoluteDirection":"SOUTHEAST","stayOn":false,"area":false,"bogusName":false,"lon":-71.10013090000001,"lat":48.4191238,"elevation":[]},{"distance":49.71,"relativeDirection":"LEFT","streetName":"Rue Ringuette","absoluteDirection":"NORTHEAST","stayOn":false,"area":false,"bogusName":false,"lon":-71.09847020000001,"lat":48.4184755,"elevation":[]}]}],"tooSloped":false},{"duration":3011,"startTime":1522689169000,"endTime":1522692180000,"walkTime":552,"transitTime":1901,"waitingTime":558,"walkDistance":675.0854436016836,"walkLimitExceeded":false,"elevationLost":0.0,"elevationGained":0.0,"transfers":1,"legs":[{"startTime":1522689169000,"endTime":1522689539000,"departureDelay":0,"arrivalDelay":0,"realTime":false,"distance":443.3719999999999,"pathway":false,"mode":"WALK","route":"","agencyTimeZoneOffset":-14400000,"interlineWithPreviousLeg":false,"from":{"name":"Origin","lon":-71.054642,"lat":48.403952,"departure":1522689169000,"orig":"","vertexType":"NORMAL"},"to":{"name":"Place du Royaume (Saguenéens)","stopId":"1:1294","stopCode":"1294","lon":-71.057691,"lat":48.402355,"arrival":1522689539000,"departure":1522689540000,"zoneId":"NA","stopIndex":11,"stopSequence":12,"vertexType":"TRANSIT"},"legGeometry":{"points":"{zlfHhytpLJPNVVq@PCb@TTYFH@DTRVXJJPFXFDBXFFBVFHB\\HFr@BLo@dEJJDZBLRh@k@vD","length":28},"rentedBike":false,"transitLeg":false,"duration":370.0,"steps":[{"distance":55.269,"relativeDirection":"DEPART","streetName":"parking aisle","absoluteDirection":"SOUTHWEST","stayOn":false,"area":false,"bogusName":false,"lon":-71.05444515294332,"lat":48.40382759190054,"elevation":[]},{"distance":37.529,"relativeDirection":"RIGHT","streetName":"parking aisle","absoluteDirection":"SOUTHWEST","stayOn":true,"area":false,"bogusName":true,"lon":-71.0543818,"lat":48.403475,"elevation":[]},{"distance":131.32600000000002,"relativeDirection":"RIGHT","streetName":"service road","absoluteDirection":"SOUTHWEST","stayOn":true,"area":false,"bogusName":true,"lon":-71.0543643,"lat":48.403182300000005,"elevation":[]},{"distance":102.75299999999999,"relativeDirection":"RIGHT","streetName":"parking aisle","absoluteDirection":"WEST","stayOn":true,"area":false,"bogusName":true,"lon":-71.0550072,"lat":48.402104300000005,"elevation":[]},{"distance":44.199,"relativeDirection":"LEFT","streetName":"service road","absoluteDirection":"SOUTHWEST","stayOn":true,"area":false,"bogusName":true,"lon":-71.0563248,"lat":48.4022894,"elevation":[]},{"distance":72.296,"relativeDirection":"RIGHT","streetName":"Rue des Saguenéens","absoluteDirection":"WEST","stayOn":false,"area":false,"bogusName":false,"lon":-71.0568056,"lat":48.4020704,"elevation":[]}]},{"startTime":1522689540000,"endTime":1522690620000,"departureDelay":0,"arrivalDelay":0,"realTime":false,"distance":5806.411506174393,"pathway":false,"mode":"BUS","route":"15","agencyName":"Société de Transport du Saguenay","agencyUrl":"http://ville.saguenay.ca/fr/services-aux-citoyens/transport-sts","agencyTimeZoneOffset":-14400000,"routeColor":"FF00FF","routeType":3,"routeId":"1:15","routeTextColor":"FFFFFF","interlineWithPreviousLeg":false,"tripBlockId":"30","headsign":"Terminus Chicoutimi","agencyId":"0","tripId":"1:218100","serviceDate":"20180402","from":{"name":"Place du Royaume (Saguenéens)","stopId":"1:1294","stopCode":"1294","lon":-71.057691,"lat":48.402355,"arrival":1522689539000,"departure":1522689540000,"zoneId":"NA","stopIndex":11,"stopSequence":12,"vertexType":"TRANSIT"},"to":{"name":"Sainte-Anne / Racine","stopId":"1:558","stopCode":"558","lon":-71.068444,"lat":48.427369,"arrival":1522690620000,"departure":1522690620000,"zoneId":"NA","stopIndex":38,"stopSequence":39,"vertexType":"TRANSIT"},"legGeometry":{"points":"eqlfHzmupLUxAm@nCcAlDeCvGmA|CUr@}@~A_@\\_DvCEZcA|@UP_@d@Yl@oBdFeCxG_CfGYVQXS\\dK|HlFZbC\\p@zA\\rB@hBiArG{BNw@FiG}@iDwAECcCcBo@y@sEeGe@o@qAa@m@MoB?C@}BZwAc@oA_Bs@gDCKZ{Di@QECc@_@sAkAoBwB_EcE{A_BoAmAk@o@cCaCkIkIaJaJUUwBaCj@wCjAsCzGoG_CoHL{D_@kAqD{CQr@iAcAy@w@L{@wAuA_B_B_EpLDh@NbBVvCIxBg@`Am@l@Sb@a@rAqDqDmEkE]a@kAqAU|@WnKG|DGxDOdPKvJU|F?XQlJC~@ChAIzEcCO","length":100},"routeShortName":"15","routeLongName":"Term. Chic / Costco","rentedBike":false,"transitLeg":true,"duration":1080.0,"steps":[]},{"startTime":1522690620000,"endTime":1522690623000,"departureDelay":0,"arrivalDelay":0,"realTime":false,"distance":0.224,"pathway":false,"mode":"WALK","route":"","agencyTimeZoneOffset":-14400000,"interlineWithPreviousLeg":false,"from":{"name":"Sainte-Anne / Racine","stopId":"1:558","stopCode":"558","lon":-71.068444,"lat":48.427369,"arrival":1522690620000,"departure":1522690620000,"zoneId":"NA","stopIndex":38,"stopSequence":39,"vertexType":"TRANSIT"},"to":{"name":"Sainte-Anne / Jacques-Cartier","stopId":"1:413","stopCode":"413","lon":-71.068639,"lat":48.427373,"arrival":1522690623000,"departure":1522691179000,"zoneId":"NA","stopIndex":1,"stopSequence":2,"vertexType":"TRANSIT"},"legGeometry":{"points":"anqfHhqwpL@?","length":2},"rentedBike":false,"transitLeg":false,"duration":3.0,"steps":[{"distance":0.224,"relativeDirection":"DEPART","streetName":"Rue Sainte-Anne","absoluteDirection":"SOUTH","stayOn":false,"area":false,"bogusName":false,"lon":-71.06852127104082,"lat":48.427371387668245,"elevation":[]}]},{"startTime":1522691179000,"endTime":1522692000000,"departureDelay":0,"arrivalDelay":0,"realTime":false,"distance":4634.936405881656,"pathway":false,"mode":"BUS","route":"16","agencyName":"Société de Transport du Saguenay","agencyUrl":"http://ville.saguenay.ca/fr/services-aux-citoyens/transport-sts","agencyTimeZoneOffset":-14400000,"routeColor":"00FF00","routeType":3,"routeId":"1:16","routeTextColor":"000000","interlineWithPreviousLeg":false,"tripBlockId":"34","headsign":"Faubourg Sagamie","agencyId":"0","tripId":"1:218221","serviceDate":"20180402","from":{"name":"Sainte-Anne / Jacques-Cartier","stopId":"1:413","stopCode":"413","lon":-71.068639,"lat":48.427373,"arrival":1522690623000,"departure":1522691179000,"zoneId":"NA","stopIndex":1,"stopSequence":2,"vertexType":"TRANSIT"},"to":{"name":"Stade / ch. de la Réserve","stopId":"1:617","stopCode":"617","lon":-71.100622,"lat":48.419268,"arrival":1522692000000,"departure":1522692001000,"zoneId":"NA","stopIndex":25,"stopSequence":26,"vertexType":"TRANSIT"},"legGeometry":{"points":"_nqfHnqwpL~M~@jDTOrHKdGE^E~BQnIMhGAxCD~@Df@DVDZd@zBBLDJJNHHHDJBn@HCxAHdAFX@DFj@@b@Ab@SvAe@p@{EnEEB{@w@m@o@aDeDIKCMCM?SL}A?A@WCYi@mDOu@Wm@EIMSSWaAcAuAcBq@f@URa@d@u@`A}BzCV`DX~C@HFT^v@bA|AZ^`Av@\\`@Zf@pAvCtD`JJTrAtCpAjC@BvA|CvA~Ci@zAqD`KyDrKyF|Og@tAr@r@h@^jA\\\\Nt@\\PHf@RVDXEROR[p@iBr@uBJQLIDCNEr@lERbBFzA@LFbFN`A^r@bB|AlC`BDBz@t@eAjD|@x@~AxAxB`BbAiDjCzB|ApAvAZbAo@|@cD","length":118},"routeShortName":"16","routeLongName":"Côte de la Réserve","rentedBike":false,"transitLeg":true,"duration":821.0,"steps":[]},{"startTime":1522692001000,"endTime":1522692180000,"departureDelay":0,"arrivalDelay":0,"realTime":false,"distance":231.262,"pathway":false,"mode":"WALK","route":"","agencyTimeZoneOffset":-14400000,"interlineWithPreviousLeg":false,"from":{"name":"Stade / ch. de la Réserve","stopId":"1:617","stopCode":"617","lon":-71.100622,"lat":48.419268,"arrival":1522692000000,"departure":1522692001000,"zoneId":"NA","stopIndex":25,"stopSequence":26,"vertexType":"TRANSIT"},"to":{"name":"Destination","lon":-71.098038,"lat":48.418826,"arrival":1522692180000,"orig":"","vertexType":"NORMAL"},"legGeometry":{"points":"s{ofHvy}pLb@{A`CkImAcA","length":4},"rentedBike":false,"transitLeg":false,"duration":179.0,"steps":[{"distance":39.367,"relativeDirection":"DEPART","streetName":"Rue du Stade","absoluteDirection":"SOUTHEAST","stayOn":false,"area":false,"bogusName":false,"lon":-71.10059069024184,"lat":48.41930332111794,"elevation":[]},{"distance":142.185,"relativeDirection":"CONTINUE","streetName":"Rue Gosselin","absoluteDirection":"SOUTHEAST","stayOn":false,"area":false,"bogusName":false,"lon":-71.10013090000001,"lat":48.4191238,"elevation":[]},{"distance":49.71,"relativeDirection":"LEFT","streetName":"Rue Ringuette","absoluteDirection":"NORTHEAST","stayOn":false,"area":false,"bogusName":false,"lon":-71.09847020000001,"lat":48.4184755,"elevation":[]}]}],"tooSloped":false}]},"debugOutput":{"precalculationTime":24,"pathCalculationTime":71,"pathTimes":[28,21,22],"renderingTime":1,"totalTime":96,"timedOut":false},"elevationMetadata":{"ellipsoidToGeoidDifference":-28.885904201182168,"geoidElevation":false}}