{"requestParameters":{"date":"2018/04/02","walkSpeed":"1.33","walkReluctance":"2.0","fromPlace":"48.397775,-71.047089","maxWalkDistance":"3000","waitReluctance":"1.0","carSpeed":"33","numItineraries":"3","waitAtBeginningFactor":"0.4","mode":"TRANSIT,WALK","ignoreRealtimeUpdates":"false","stairsReluctance":"2.0","toPlace":"48.3942,-71.053226","time":"22:0:00"},"plan":{"date":1522720800000,"from":{"name":"Origin","lon":-71.047089,"lat":48.397775,"orig":"","vertexType":"NORMAL"},"to":{"name":"Destination","lon":-71.053226,"lat":48.3942,"orig":"","vertexType":"NORMAL"},"itineraries":[{"duration":619,"startTime":1522720800000,"endTime":1522721419000,"walkTime":619,"transitTime":0,"waitingTime":0,"walkDistance":805.8662781935114,"walkLimitExceeded":false,"elevationLost":0.0,"elevationGained":0.0,"transfers":0,"legs":[{"startTime":1522720800000,"endTime":1522721419000,"departureDelay":0,"arrivalDelay":0,"realTime":false,"distance":805.805,"pathway":false,"mode":"WALK","route":"","agencyTimeZoneOffset":-14400000,"interlineWithPreviousLeg":false,"from":{"name":"Origin","lon":-71.047089,"lat":48.397775,"departure":1522720800000,"orig":"","vertexType":"NORMAL"},"to":{"name":"Destination","lon":-71.053226,"lat":48.3942,"arrival":1522721419000,"orig":"","vertexType":"NORMAL"},"legGeometry":{"points":"aukfHjkspLbAZb@Tp@b@pAhAvG`HrBrBdB`BpA|@T\\Zp@NZ`@lAb@pBHfDsBCSX","length":17},"rentedBike":false,"transitLeg":false,"duration":619.0,"steps":[{"distance":727.02,"relativeDirection":"DEPART","streetName":"Rue Des Roitelets","absoluteDirection":"SOUTH","stayOn":false,"area":false,"bogusName":false,"lon":-71.04709771901769,"lat":48.39777656690188,"elevation":[]},{"distance":78.785,"relativeDirection":"RIGHT","streetName":"Rue des Hiboux","absoluteDirection":"NORTH","stayOn":false,"area":false,"bogusName":false,"lon":-71.053066,"lat":48.392967600000006,"elevation":[]}]}],"tooSloped":false},{"duration":201,"startTime":1522723087000,"endTime":1522723288000,"walkTime":142,"transitTime":57,"waitingTime":2,"walkDistance":165.65178946994803,"walkLimitExceeded":false,"elevationLost":0.0,"elevationGained":0.0,"transfers":0,"legs":[{"startTime":1522723087000,"endTime":1522723153000,"departureDelay":0,"arrivalDelay":0,"realTime":false,"distance":74.319,"pathway":false,"mode":"WALK","route":"","agencyTimeZoneOffset":-14400000,"interlineWithPreviousLeg":false,"from":{"name":"Origin","lon":-71.047089,"lat":48.397775,"departure":1522723087000,"orig":"","vertexType":"NORMAL"},"to":{"name":"Roitelets (no. 1724)","stopId":"1:1547","stopCode":"1547","lon":-71.047286,"lat":48.397165,"arrival":1522723153000,"departure":1522723154000,"zoneId":"NA","stopIndex":28,"stopSequence":29,"vertexType":"TRANSIT"},"legGeometry":{"points":"aukfHjkspLbAZb@T@MLH","length":5},"rentedBike":false,"transitLeg":false,"duration":66.0,"steps":[{"distance":60.463,"relativeDirection":"DEPART","streetName":"Rue Des Roitelets","absoluteDirection":"SOUTH","stayOn":false,"area":false,"bogusName":false,"lon":-71.04709771901769,"lat":48.39777656690188,"elevation":[]},{"distance":5.473,"relativeDirection":"LEFT","streetName":"path","absoluteDirection":"EAST","stayOn":false,"area":false,"bogusName":true,"lon":-71.04734350000001,"lat":48.3972588,"elevation":[]},{"distance":8.383,"relativeDirection":"RIGHT","streetName":"bike path","absoluteDirection":"SOUTHWEST","stayOn":true,"area":false,"bogusName":true,"lon":-71.0472726,"lat":48.397244400000005,"elevation":[]}]},{"startTime":1522723154000,"endTime":1522723211000,"departureDelay":0,"arrivalDelay":0,"realTime":false,"distance":658.1680140382033,"pathway":false,"mode":"BUS","route":"15","agencyName":"Société de Transport du Saguenay","agencyUrl":"http://ville.saguenay.ca/fr/services-aux-citoyens/transport-sts","agencyTimeZoneOffset":-14400000,"routeColor":"FF00FF","routeType":3,"routeId":"1:15","routeTextColor":"FFFFFF","interlineWithPreviousLeg":false,"tripBlockId":"33","headsign":"Talbot / Barrette","agencyId":"0","tripId":"1:218203","serviceDate":"20180402","from":{"name":"Roitelets (no. 1724)","stopId":"1:1547","stopCode":"1547","lon":-71.047286,"lat":48.397165,"arrival":1522723153000,"departure":1522723154000,"zoneId":"NA","stopIndex":28,"stopSequence":29,"vertexType":"TRANSIT"},"to":{"name":"Roitelets / Faucons","stopId":"1:1545","stopCode":"1545","lon":-71.052988,"lat":48.392905,"arrival":1522723211000,"departure":1522723212000,"zoneId":"NA","stopIndex":31,"stopSequence":32,"vertexType":"TRANSIT"},"legGeometry":{"points":"oqkfHjmspLrBvAfGjG@BjCzC~DxC@@zA~Cb@fCJlC?B","length":11},"routeShortName":"15","routeLongName":"Term. Chic / Costco","rentedBike":false,"transitLeg":true,"duration":57.0,"steps":[]},{"startTime":1522723212000,"endTime":1522723288000,"departureDelay":0,"arrivalDelay":0,"realTime":false,"distance":91.217,"pathway":false,"mode":"WALK","route":"","agencyTimeZoneOffset":-14400000,"interlineWithPreviousLeg":false,"from":{"name":"Roitelets / Faucons","stopId":"1:1545","stopCode":"1545","lon":-71.052988,"lat":48.392905,"arrival":1522723211000,"departure":1522723212000,"zoneId":"NA","stopIndex":31,"stopSequence":32,"vertexType":"TRANSIT"},"to":{"name":"Destination","lon":-71.053226,"lat":48.3942,"arrival":1522723288000,"orig":"","vertexType":"NORMAL"},"legGeometry":{"points":"qvjfHfptpLALK?sBCSX","length":5},"rentedBike":false,"transitLeg":false,"duration":76.0,"steps":[{"distance":5.804,"relativeDirection":"DEPART","streetName":"bike path","absoluteDirection":"WEST","stayOn":false,"area":false,"bogusName":true,"lon":-71.05299114869932,"lat":48.392896082309186,"elevation":[]},{"distance":6.628,"relativeDirection":"RIGHT","streetName":"Rue des Faucons","absoluteDirection":"NORTH","stayOn":false,"area":false,"bogusName":false,"lon":-71.0530677,"lat":48.392908000000006,"elevation":[]},{"distance":78.785,"relativeDirection":"CONTINUE","streetName":"Rue des Hiboux","absoluteDirection":"NORTH","stayOn":false,"area":false,"bogusName":false,"lon":-71.053066,"lat":48.392967600000006,"elevation":[]}]}],"tooSloped":false}]},"debugOutput":{"precalculationTime":30,"pathCalculationTime":17,"pathTimes":[6,7,3],"renderingTime":0,"totalTime":47,"timedOut":false},"elevationMetadata":{"ellipsoidToGeoidDifference":-28.885904201182168,"geoidElevation":false}}