{"requestParameters":{"date":"2018/04/02","walkSpeed":"1.33","walkReluctance":"2.0","fromPlace":"48.383054,-71.08558999","maxWalkDistance":"3000","waitReluctance":"1.0","carSpeed":"33","numItineraries":"3","waitAtBeginningFactor":"0.4","mode":"TRANSIT,WALK","ignoreRealtimeUpdates":"false","stairsReluctance":"2.0","toPlace":"48.422112,-71.02745","time":"12:0:00"},"plan":{"date":1522684800000,"from":{"name":"Origin","lon":-71.08558999,"lat":48.383054,"orig":"","vertexType":"NORMAL"},"to":{"name":"Destination","lon":-71.02745,"lat":48.422112,"orig":"","vertexType":"NORMAL"},"itineraries":[{"duration":2844,"startTime":1522685606000,"endTime":1522688450000,"walkTime":346,"transitTime":2196,"waitingTime":302,"walkDistance":437.6754736797101,"walkLimitExceeded":false,"elevationLost":0.0,"elevationGained":0.0,"transfers":1,"legs":[{"startTime":1522685606000,"endTime":1522685699000,"departureDelay":0,"arrivalDelay":0,"realTime":false,"distance":117.999,"pathway":false,"mode":"WALK","route":"","agencyTimeZoneOffset":-14400000,"interlineWithPreviousLeg":false,"from":{"name":"Origin","lon":-71.08558999,"lat":48.383054,"departure":1522685606000,"orig":"","vertexType":"NORMAL"},"to":{"name":"COSTCO","stopId":"1:1710","stopCode":"1710","lon":-71.085767,"lat":48.382333,"arrival":1522685699000,"departure":1522685700000,"zoneId":"NA","stopIndex":0,"stopSequence":1,"vertexType":"TRANSIT"},"legGeometry":{"points":"qyhfHn{zpLb@mAvBfC","length":3},"rentedBike":false,"transitLeg":false,"duration":93.0,"steps":[{"distance":117.999,"relativeDirection":"DEPART","streetName":"service road","absoluteDirection":"SOUTHEAST","stayOn":false,"area":false,"bogusName":false,"lon":-71.08551123678109,"lat":48.3831304566699,"elevation":[]}]},{"startTime":1522685700000,"endTime":1522687200000,"departureDelay":0,"arrivalDelay":0,"realTime":false,"distance":7720.38554651896,"pathway":false,"mode":"BUS","route":"175","agencyName":"Société de Transport du Saguenay","agencyUrl":"http://ville.saguenay.ca/fr/services-aux-citoyens/transport-sts","agencyTimeZoneOffset":-14400000,"routeColor":"FF00FF","routeType":3,"routeId":"1:175","routeTextColor":"FFFFFF","interlineWithPreviousLeg":false,"tripBlockId":"11","headsign":"Terminus Chicoutimi","agencyId":"0","tripId":"1:217473","serviceDate":"20180402","from":{"name":"COSTCO","stopId":"1:1710","stopCode":"1710","lon":-71.085767,"lat":48.382333,"arrival":1522685699000,"departure":1522685700000,"zoneId":"NA","stopIndex":0,"stopSequence":1,"vertexType":"TRANSIT"},"to":{"name":"Terminus Chicoutimi","stopId":"1:1289","stopCode":"1289","lon":-71.066163,"lat":48.428677,"arrival":1522687200000,"departure":1522687500000,"zoneId":"NA","stopIndex":27,"stopSequence":28,"vertexType":"TRANSIT"},"legGeometry":{"points":"euhfHt|zpL_BiBsCoDwCqDrCsGN_@uEoFoEiFUWSUqCwC]a@{ByC{@cAkJuKoAwA_CeCeExJ~AlB`@mAu@k@}@q@|C}Iw@}@aO_QkEsEiAoAgEsFkFsHqJ_N}FkImPkOuO{N_U_TcNgNcBcB{E`Jc@x@qG~@{BlAk@XgSrQqB_GAeFiEeEOt@gAeA_A_ATm@yAwAgBeBqDnL@nBF`@f@|C[dCuAfB]xAs@OmCmCmEkE]a@g@i@ZiGTmEl@oLaEe@cFk@?pH?tJDvBPjMB~Bo@PQDRbFKdGMhIOvIK|EQpHoCQEdC","length":83},"routeShortName":"175","routeLongName":"Term. Chic / Costco","rentedBike":false,"transitLeg":true,"duration":1500.0,"steps":[]},{"startTime":1522687500000,"endTime":1522688196000,"departureDelay":0,"arrivalDelay":0,"realTime":false,"distance":4663.532063835512,"pathway":false,"mode":"BUS","route":"12","agencyName":"Société de Transport du Saguenay","agencyUrl":"http://ville.saguenay.ca/fr/services-aux-citoyens/transport-sts","agencyTimeZoneOffset":-14400000,"routeColor":"556B2F","routeType":3,"routeId":"1:12","routeTextColor":"FFFFFF","interlineWithPreviousLeg":false,"tripBlockId":"27","headsign":"Terminus UQAC","agencyId":"0","tripId":"1:218012","serviceDate":"20180402","from":{"name":"Terminus Chicoutimi","stopId":"1:1289","stopCode":"1289","lon":-71.066163,"lat":48.428677,"arrival":1522687200000,"departure":1522687500000,"zoneId":"NA","stopIndex":0,"stopSequence":1,"vertexType":"TRANSIT"},"to":{"name":"Normandie / Ferland","stopId":"1:1532","stopCode":"1532","lon":-71.024617,"lat":48.423555,"arrival":1522688196000,"departure":1522688197000,"zoneId":"NA","stopIndex":20,"stopSequence":21,"vertexType":"TRANSIT"},"legGeometry":{"points":"evqfHpbwpLpFcj@IaKmFy^_DaZz@u]SeV}@aNs@gKToKd@gTnCyHkGuLqFqJ_DeFf@iIvGsKlIrH`JlH`EfDnOdI","length":21},"routeShortName":"12","routeLongName":"Rivière du Moulin","rentedBike":false,"transitLeg":true,"duration":696.0,"steps":[]},{"startTime":1522688197000,"endTime":1522688450000,"departureDelay":0,"arrivalDelay":0,"realTime":false,"distance":319.53700000000003,"pathway":false,"mode":"WALK","route":"","agencyTimeZoneOffset":-14400000,"interlineWithPreviousLeg":false,"from":{"name":"Normandie / Ferland","stopId":"1:1532","stopCode":"1532","lon":-71.024617,"lat":48.423555,"arrival":1522688196000,"departure":1522688197000,"zoneId":"NA","stopIndex":20,"stopSequence":21,"vertexType":"TRANSIT"},"to":{"name":"Destination","lon":-71.02745,"lat":48.422112,"arrival":1522688450000,"orig":"","vertexType":"NORMAL"},"legGeometry":{"points":"avpfHj~npLTJk@xAELOf@Qf@f@j@`@`@\\`@BB\\\\BBVZf@h@TTHHTVLLBBVP??JHCXAD","length":24},"rentedBike":false,"transitLeg":false,"duration":253.0,"steps":[{"distance":12.992,"relativeDirection":"DEPART","streetName":"Rue de Normandie","absoluteDirection":"SOUTH","stayOn":false,"area":false,"bogusName":false,"lon":-71.02453142981058,"lat":48.42353257488335,"elevation":[]},{"distance":82.765,"relativeDirection":"RIGHT","streetName":"Rue Ferland","absoluteDirection":"NORTHWEST","stayOn":false,"area":false,"bogusName":false,"lon":-71.02459610000001,"lat":48.4234239,"elevation":[]},{"distance":211.41,"relativeDirection":"LEFT","streetName":"Rue Honoré-Mercier","absoluteDirection":"SOUTHWEST","stayOn":false,"area":false,"bogusName":false,"lon":-71.02551770000001,"lat":48.4238475,"elevation":[]},{"distance":12.37,"relativeDirection":"RIGHT","streetName":"Rue Laberge","absoluteDirection":"WEST","stayOn":false,"area":false,"bogusName":false,"lon":-71.027125,"lat":48.4222763,"elevation":[]}]}],"tooSloped":false},{"duration":2029,"startTime":1522686506000,"endTime":1522688535000,"walkTime":664,"transitTime":1199,"waitingTime":166,"walkDistance":859.7247142829484,"walkLimitExceeded":false,"elevationLost":0.0,"elevationGained":0.0,"transfers":1,"legs":[{"startTime":1522686506000,"endTime":1522686599000,"departureDelay":0,"arrivalDelay":0,"realTime":false,"distance":117.999,"pathway":false,"mode":"WALK","route":"","agencyTimeZoneOffset":-14400000,"interlineWithPreviousLeg":false,"from":{"name":"Origin","lon":-71.08558999,"lat":48.383054,"departure":1522686506000,"orig":"","vertexType":"NORMAL"},"to":{"name":"COSTCO","stopId":"1:1710","stopCode":"1710","lon":-71.085767,"lat":48.382333,"arrival":1522686599000,"departure":1522686600000,"zoneId":"NA","stopIndex":0,"stopSequence":1,"vertexType":"TRANSIT"},"legGeometry":{"points":"qyhfHn{zpLb@mAvBfC","length":3},"rentedBike":false,"transitLeg":false,"duration":93.0,"steps":[{"distance":117.999,"relativeDirection":"DEPART","streetName":"service road","absoluteDirection":"SOUTHEAST","stayOn":false,"area":false,"bogusName":false,"lon":-71.08551123678109,"lat":48.3831304566699,"elevation":[]}]},{"startTime":1522686600000,"endTime":1522687320000,"departureDelay":0,"arrivalDelay":0,"realTime":false,"distance":4320.1052013272,"pathway":false,"mode":"BUS","route":"175","agencyName":"Société de Transport du Saguenay","agencyUrl":"http://ville.saguenay.ca/fr/services-aux-citoyens/transport-sts","agencyTimeZoneOffset":-14400000,"routeColor":"FF00FF","routeType":3,"routeId":"1:175","routeTextColor":"FFFFFF","interlineWithPreviousLeg":false,"tripBlockId":"78","headsign":"Terminus Chicoutimi","agencyId":"0","tripId":"1:218644","serviceDate":"20180402","from":{"name":"COSTCO","stopId":"1:1710","stopCode":"1710","lon":-71.085767,"lat":48.382333,"arrival":1522686599000,"departure":1522686600000,"zoneId":"NA","stopIndex":0,"stopSequence":1,"vertexType":"TRANSIT"},"to":{"name":"missingStopName","stopId":"1:1812","stopCode":"1812","lon":-71.051352,"lat":48.411592,"arrival":1522687320000,"departure":1522687320000,"zoneId":"NA","stopIndex":11,"stopSequence":12,"vertexType":"TRANSIT"},"legGeometry":{"points":"euhfHt|zpL_BiBsCoDwCqDrCsGN_@uEoFoEiFUWSUqCwC]a@{ByC{@cAkJuKoAwA_CeCeExJ~AlB`@mAu@k@}@q@|C}Iw@}@aO_QkEsEiAoAgEsFkFsHqJ_N}FkImPkOuO{N_U_TcNgN","length":35},"routeShortName":"175","routeLongName":"Term. Chic / Costco","rentedBike":false,"transitLeg":true,"duration":720.0,"steps":[]},{"startTime":1522687320000,"endTime":1522687659000,"departureDelay":0,"arrivalDelay":0,"realTime":false,"distance":447.89099999999996,"pathway":false,"mode":"WALK","route":"","agencyTimeZoneOffset":-14400000,"interlineWithPreviousLeg":false,"from":{"name":"missingStopName","stopId":"1:1812","stopCode":"1812","lon":-71.051352,"lat":48.411592,"arrival":1522687320000,"departure":1522687320000,"zoneId":"NA","stopIndex":11,"stopSequence":12,"vertexType":"TRANSIT"},"to":{"name":"Sûreté du Québec (Roitelets / Lorenzo-Genest)","stopId":"1:195","stopCode":"195","lon":-71.048189,"lat":48.4095,"arrival":1522687659000,"departure":1522687823000,"zoneId":"NA","stopIndex":16,"stopSequence":17,"vertexType":"TRANSIT"},"legGeometry":{"points":"wknfHtftpLbDfDvAyDVoAZsBVm@L}@b@{Bt@}DGC","length":10},"rentedBike":false,"transitLeg":false,"duration":339.0,"steps":[{"distance":110.331,"relativeDirection":"DEPART","streetName":"Boulevard Talbot","absoluteDirection":"SOUTHWEST","stayOn":false,"area":false,"bogusName":false,"lon":-71.05146038442705,"lat":48.41164093434771,"elevation":[]},{"distance":183.487,"relativeDirection":"LEFT","streetName":"path","absoluteDirection":"SOUTHEAST","stayOn":false,"area":false,"bogusName":true,"lon":-71.05230110000001,"lat":48.4108205,"elevation":[]},{"distance":149.905,"relativeDirection":"SLIGHTLY_LEFT","streetName":"Rue Lorenzo-Genest","absoluteDirection":"EAST","stayOn":false,"area":false,"bogusName":false,"lon":-71.0501637,"lat":48.4100046,"elevation":[]},{"distance":4.168,"relativeDirection":"LEFT","streetName":"Rue Des Roitelets","absoluteDirection":"NORTH","stayOn":false,"area":false,"bogusName":false,"lon":-71.0482898,"lat":48.409485700000005,"elevation":[]}]},{"startTime":1522687823000,"endTime":1522688302000,"departureDelay":0,"arrivalDelay":0,"realTime":false,"distance":2743.4805472545822,"pathway":false,"mode":"BUS","route":"12","agencyName":"Société de Transport du Saguenay","agencyUrl":"http://ville.saguenay.ca/fr/services-aux-citoyens/transport-sts","agencyTimeZoneOffset":-14400000,"routeColor":"556B2F","routeType":3,"routeId":"1:12","routeTextColor":"FFFFFF","interlineWithPreviousLeg":false,"tripBlockId":"29","headsign":"Terminus Chicoutimi","agencyId":"0","tripId":"1:218064","serviceDate":"20180402","from":{"name":"Sûreté du Québec (Roitelets / Lorenzo-Genest)","stopId":"1:195","stopCode":"195","lon":-71.048189,"lat":48.4095,"arrival":1522687659000,"departure":1522687823000,"zoneId":"NA","stopIndex":16,"stopSequence":17,"vertexType":"TRANSIT"},"to":{"name":"nouveau","stopId":"1:2299","stopCode":"2299","lon":-71.026429,"lat":48.420216,"arrival":1522688302000,"departure":1522688303000,"zoneId":"NA","stopIndex":19,"stopSequence":20,"vertexType":"TRANSIT"},"legGeometry":{"points":"k~mfHdrspLgD_BgAgBn@kFD_NoIgrAmD_WcAaLaDHoDJi`@wVoAbDbA|AnBU|B|AfBlAyLtK","length":17},"routeShortName":"12","routeLongName":"Rivière du Moulin","rentedBike":false,"transitLeg":true,"duration":479.0,"steps":[]},{"startTime":1522688303000,"endTime":1522688535000,"departureDelay":0,"arrivalDelay":0,"realTime":false,"distance":293.749,"pathway":false,"mode":"WALK","route":"","agencyTimeZoneOffset":-14400000,"interlineWithPreviousLeg":false,"from":{"name":"nouveau","stopId":"1:2299","stopCode":"2299","lon":-71.026429,"lat":48.420216,"arrival":1522688302000,"departure":1522688303000,"zoneId":"NA","stopIndex":19,"stopSequence":20,"vertexType":"TRANSIT"},"to":{"name":"Destination","lon":-71.02745,"lat":48.422112,"arrival":1522688535000,"orig":"","vertexType":"NORMAL"},"legGeometry":{"points":"{`pfHrjopLCDCJWj@IXSl@ABM`@EJCFOJ_@KICOE]MIAYGi@Oi@Oa@KICWGE@SBSPCXAD","length":27},"rentedBike":false,"transitLeg":false,"duration":232.0,"steps":[{"distance":96.089,"relativeDirection":"DEPART","streetName":"Rue Desbiens","absoluteDirection":"NORTHWEST","stayOn":false,"area":false,"bogusName":false,"lon":-71.02649344265734,"lat":48.42014958233219,"elevation":[]},{"distance":185.29,"relativeDirection":"SLIGHTLY_RIGHT","streetName":"Rue Honoré-Mercier","absoluteDirection":"NORTH","stayOn":false,"area":false,"bogusName":false,"lon":-71.0275115,"lat":48.4206681,"elevation":[]},{"distance":12.37,"relativeDirection":"LEFT","streetName":"Rue Laberge","absoluteDirection":"WEST","stayOn":false,"area":false,"bogusName":false,"lon":-71.027125,"lat":48.4222763,"elevation":[]}]}],"tooSloped":false},{"duration":2844,"startTime":1522687406000,"endTime":1522690250000,"walkTime":346,"transitTime":2196,"waitingTime":302,"walkDistance":437.6754736797101,"walkLimitExceeded":false,"elevationLost":0.0,"elevationGained":0.0,"transfers":1,"legs":[{"startTime":1522687406000,"endTime":1522687499000,"departureDelay":0,"arrivalDelay":0,"realTime":false,"distance":117.999,"pathway":false,"mode":"WALK","route":"","agencyTimeZoneOffset":-14400000,"interlineWithPreviousLeg":false,"from":{"name":"Origin","lon":-71.08558999,"lat":48.383054,"departure":1522687406000,"orig":"","vertexType":"NORMAL"},"to":{"name":"COSTCO","stopId":"1:1710","stopCode":"1710","lon":-71.085767,"lat":48.382333,"arrival":1522687499000,"departure":1522687500000,"zoneId":"NA","stopIndex":0,"stopSequence":1,"vertexType":"TRANSIT"},"legGeometry":{"points":"qyhfHn{zpLb@mAvBfC","length":3},"rentedBike":false,"transitLeg":false,"duration":93.0,"steps":[{"distance":117.999,"relativeDirection":"DEPART","streetName":"service road","absoluteDirection":"SOUTHEAST","stayOn":false,"area":false,"bogusName":false,"lon":-71.08551123678109,"lat":48.3831304566699,"elevation":[]}]},{"startTime":1522687500000,"endTime":1522689000000,"departureDelay":0,"arrivalDelay":0,"realTime":false,"distance":7720.38554651896,"pathway":false,"mode":"BUS","route":"175","agencyName":"Société de Transport du Saguenay","agencyUrl":"http://ville.saguenay.ca/fr/services-aux-citoyens/transport-sts","agencyTimeZoneOffset":-14400000,"routeColor":"FF00FF","routeType":3,"routeId":"1:175","routeTextColor":"FFFFFF","interlineWithPreviousLeg":false,"tripBlockId":"10","headsign":"Terminus Chicoutimi","agencyId":"0","tripId":"1:217439","serviceDate":"20180402","from":{"name":"COSTCO","stopId":"1:1710","stopCode":"1710","lon":-71.085767,"lat":48.382333,"arrival":1522687499000,"departure":1522687500000,"zoneId":"NA","stopIndex":0,"stopSequence":1,"vertexType":"TRANSIT"},"to":{"name":"Terminus Chicoutimi","stopId":"1:1289","stopCode":"1289","lon":-71.066163,"lat":48.428677,"arrival":1522689000000,"departure":1522689300000,"zoneId":"NA","stopIndex":27,"stopSequence":28,"vertexType":"TRANSIT"},"legGeometry":{"points":"euhfHt|zpL_BiBsCoDwCqDrCsGN_@uEoFoEiFUWSUqCwC]a@{ByC{@cAkJuKoAwA_CeCeExJ~AlB`@mAu@k@}@q@|C}Iw@}@aO_QkEsEiAoAgEsFkFsHqJ_N}FkImPkOuO{N_U_TcNgNcBcB{E`Jc@x@qG~@{BlAk@XgSrQqB_GAeFiEeEOt@gAeA_A_ATm@yAwAgBeBqDnL@nBF`@f@|C[dCuAfB]xAs@OmCmCmEkE]a@g@i@ZiGTmEl@oLaEe@cFk@?pH?tJDvBPjMB~Bo@PQDRbFKdGMhIOvIK|EQpHoCQEdC","length":83},"routeShortName":"175","routeLongName":"Term. Chic / Costco","rentedBike":false,"transitLeg":true,"duration":1500.0,"steps":[]},{"startTime":1522689300000,"endTime":1522689996000,"departureDelay":0,"arrivalDelay":0,"realTime":false,"distance":4663.532063835512,"pathway":false,"mode":"BUS","route":"12","agencyName":"Société de Transport du Saguenay","agencyUrl":"http://ville.saguenay.ca/fr/services-aux-citoyens/transport-sts","agencyTimeZoneOffset":-14400000,"routeColor":"556B2F","routeType":3,"routeId":"1:12","routeTextColor":"FFFFFF","interlineWithPreviousLeg":false,"tripBlockId":"28","headsign":"Terminus UQAC","agencyId":"0","tripId":"1:218039","serviceDate":"20180402","from":{"name":"Terminus Chicoutimi","stopId":"1:1289","stopCode":"1289","lon":-71.066163,"lat":48.428677,"arrival":1522689000000,"departure":1522689300000,"zoneId":"NA","stopIndex":0,"stopSequence":1,"vertexType":"TRANSIT"},"to":{"name":"Normandie / Ferland","stopId":"1:1532","stopCode":"1532","lon":-71.024617,"lat":48.423555,"arrival":1522689996000,"departure":1522689997000,"zoneId":"NA","stopIndex":20,"stopSequence":21,"vertexType":"TRANSIT"},"legGeometry":{"points":"evqfHpbwpLpFcj@IaKmFy^_DaZz@u]SeV}@aNs@gKToKd@gTnCyHkGuLqFqJ_DeFf@iIvGsKlIrH`JlH`EfDnOdI","length":21},"routeShortName":"12","routeLongName":"Rivière du Moulin","rentedBike":false,"transitLeg":true,"duration":696.0,"steps":[]},{"startTime":1522689997000,"endTime":1522690250000,"departureDelay":0,"arrivalDelay":0,"realTime":false,"distance":319.53700000000003,"pathway":false,"mode":"WALK","route":"","agencyTimeZoneOffset":-14400000,"interlineWithPreviousLeg":false,"from":{"name":"Normandie / Ferland","stopId":"1:1532","stopCode":"1532","lon":-71.024617,"lat":48.423555,"arrival":1522689996000,"departure":1522689997000,"zoneId":"NA","stopIndex":20,"stopSequence":21,"vertexType":"TRANSIT"},"to":{"name":"Destination","lon":-71.02745,"lat":48.422112,"arrival":1522690250000,"orig":"","vertexType":"NORMAL"},"legGeometry":{"points":"avpfHj~npLTJk@xAELOf@Qf@f@j@`@`@\\`@BB\\\\BBVZf@h@TTHHTVLLBBVP??JHCXAD","length":24},"rentedBike":false,"transitLeg":false,"duration":253.0,"steps":[{"distance":12.992,"relativeDirection":"DEPART","streetName":"Rue de Normandie","absoluteDirection":"SOUTH","stayOn":false,"area":false,"bogusName":false,"lon":-71.02453142981058,"lat":48.42353257488335,"elevation":[]},{"distance":82.765,"relativeDirection":"RIGHT","streetName":"Rue Ferland","absoluteDirection":"NORTHWEST","stayOn":false,"area":false,"bogusName":false,"lon":-71.02459610000001,"lat":48.4234239,"elevation":[]},{"distance":211.41,"relativeDirection":"LEFT","streetName":"Rue Honoré-Mercier","absoluteDirection":"SOUTHWEST","stayOn":false,"area":false,"bogusName":false,"lon":-71.02551770000001,"lat":48.4238475,"elevation":[]},{"distance":12.37,"relativeDirection":"RIGHT","streetName":"Rue Laberge","absoluteDirection":"WEST","stayOn":false,"area":false,"bogusName":false,"lon":-71.027125,"lat":48.4222763,"elevation":[]}]}],"tooSloped":false}]},"debugOutput":{"precalculationTime":5,"pathCalculationTime":16,"pathTimes":[10,4,2],"renderingTime":1,"totalTime":22,"timedOut":false},"elevationMetadata":{"ellipsoidToGeoidDifference":-28.885904201182168,"geoidElevation":false}}