{"requestParameters":{"date":"2018/04/02","walkSpeed":"1.33","walkReluctance":"2.0","fromPlace":"48.44911,-71.08157599","maxWalkDistance":"3000","waitReluctance":"1.0","carSpeed":"33","numItineraries":"3","waitAtBeginningFactor":"0.4","mode":"TRANSIT,WALK","ignoreRealtimeUpdates":"false","stairsReluctance":"2.0","toPlace":"48.421277,-71.102312","time":"12:0:00"},"plan":{"date":1522684800000,"from":{"name":"Origin","lon":-71.08157599,"lat":48.44911,"orig":"","vertexType":"NORMAL"},"to":{"name":"Destination","lon":-71.102312,"lat":48.421277,"orig":"","vertexType":"NORMAL"},"itineraries":[{"duration":2358,"startTime":1522686047000,"endTime":1522688405000,"walkTime":256,"transitTime":1500,"waitingTime":602,"walkDistance":322.2432706748115,"walkLimitExceeded":false,"elevationLost":0.0,"elevationGained":0.0,"transfers":1,"legs":[{"startTime":1522686047000,"endTime":1522686119000,"departureDelay":0,"arrivalDelay":0,"realTime":false,"distance":84.896,"pathway":false,"mode":"WALK","route":"","agencyTimeZoneOffset":-14400000,"interlineWithPreviousLeg":false,"from":{"name":"Origin","lon":-71.08157599,"lat":48.44911,"departure":1522686047000,"orig":"","vertexType":"NORMAL"},"to":{"name":"École Secondaire Charles-Gravel (St-Gérard)","stopId":"1:728","stopCode":"728","lon":-71.08106,"lat":48.449225,"arrival":1522686119000,"departure":1522686120000,"zoneId":"NA","stopIndex":5,"stopSequence":6,"vertexType":"TRANSIT"},"legGeometry":{"points":"wuufHpczpLo@TE{A?g@BU","length":5},"rentedBike":false,"transitLeg":false,"duration":72.0,"steps":[{"distance":27.586,"relativeDirection":"DEPART","streetName":"path","absoluteDirection":"NORTH","stayOn":false,"area":false,"bogusName":false,"lon":-71.0816896317806,"lat":48.449087594991916,"elevation":[]},{"distance":57.31,"relativeDirection":"RIGHT","streetName":"Rue Saint-Gérard","absoluteDirection":"EAST","stayOn":false,"area":false,"bogusName":false,"lon":-71.0817962,"lat":48.449325400000006,"elevation":[]}]},{"startTime":1522686120000,"endTime":1522686900000,"departureDelay":0,"arrivalDelay":0,"realTime":false,"distance":5498.063021457336,"pathway":false,"mode":"BUS","route":"23","agencyName":"Société de Transport du Saguenay","agencyUrl":"http://ville.saguenay.ca/fr/services-aux-citoyens/transport-sts","agencyTimeZoneOffset":-14400000,"routeColor":"FF00FF","routeType":3,"routeId":"1:23","routeTextColor":"FFFFFF","interlineWithPreviousLeg":false,"tripBlockId":"4","headsign":"Terminus Chicoutimi","agencyId":"0","tripId":"1:217234","serviceDate":"20180402","from":{"name":"École Secondaire Charles-Gravel (St-Gérard)","stopId":"1:728","stopCode":"728","lon":-71.08106,"lat":48.449225,"arrival":1522686119000,"departure":1522686120000,"zoneId":"NA","stopIndex":5,"stopSequence":6,"vertexType":"TRANSIT"},"to":{"name":"Terminus Chicoutimi","stopId":"1:1289","stopCode":"1289","lon":-71.066163,"lat":48.428677,"arrival":1522686900000,"departure":1522687500000,"zoneId":"NA","stopIndex":26,"stopSequence":27,"vertexType":"TRANSIT"},"legGeometry":{"points":"kwufHh_zpLRoBFe@No@`@gAbCyFNe@Ha@He@Fg@Du@Dg@Hc@Pa@RW\\S`@QZEm@eHM}B?GGi@Is@Ou@Qw@Mo@Kw@ImAGoBAk@aALa@?YEUKc@Yc@_@KOIUGUEWAW?YBqAH_AXeC@IdB_Mh@_EJk@d@kDhAqI`AgHz@oGBU?UAWCWUwAWD]B]AUEoAc@kE}AOIq@g@g@u@]w@b@s@T[~CkFf@s@\\e@x@}@jAeAXQZStBaAh@]`@]`@i@l@kDF_@R{AFWFMPIPC`@BT@V?TAVKLENCLCJ@J@xAb@x@Zz@\\CP?R@N@NFLFF`GtBx@Xw@pG@l@B\\DXL\\RZDFXPf@N@v@Bp@Dr@l@~HNlAH\\@HLd@\\z@Xd@X\\RTXRr@Zn@PfExAvDpALnBJt@Pp@|@`DHZPn@`@rBNnAFr@DbA?bB@jABzA?p@A???A???A?A???A@??A?A@??A@?@A??@A@???@A@?@?@A@?@?@?@?@???@?@?@?@?@?@@@?@?@@@?@@@?@@@?@@?@@??@@@?E`@Kr@]rACVEl@I|AAr@JbAWJe@FUAM?a@Ke@YYWWa@v@}@RQPMz@k@tAe@REZG^Af@@X@VF`@Jn@XbClAr@Xt\\`PrAb@pA^hBTjAFj@Pb@JPHLLJNJRFXDT?X?ZEVEVKTMNMHMFOB}DWSGOSYcAN}FFkAF}DJyDd@wPV_HjAN~ALI`C","length":263},"routeShortName":"23","routeLongName":"Côte Verdun via Aréna du Plateau","rentedBike":false,"transitLeg":true,"duration":780.0,"steps":[]},{"startTime":1522687500000,"endTime":1522688220000,"departureDelay":0,"arrivalDelay":0,"realTime":false,"distance":4440.510942259597,"pathway":false,"mode":"BUS","route":"16","agencyName":"Société de Transport du Saguenay","agencyUrl":"http://ville.saguenay.ca/fr/services-aux-citoyens/transport-sts","agencyTimeZoneOffset":-14400000,"routeColor":"00FF00","routeType":3,"routeId":"1:16","routeTextColor":"000000","interlineWithPreviousLeg":false,"tripBlockId":"35","headsign":"Faubourg Sagamie","agencyId":"0","tripId":"1:218254","serviceDate":"20180402","from":{"name":"Terminus Chicoutimi","stopId":"1:1289","stopCode":"1289","lon":-71.066163,"lat":48.428677,"arrival":1522686900000,"departure":1522687500000,"zoneId":"NA","stopIndex":0,"stopSequence":1,"vertexType":"TRANSIT"},"to":{"name":"Rioux / Desgagné","stopId":"1:609","stopCode":"609","lon":-71.100439,"lat":48.42301,"arrival":1522688220000,"departure":1522688221000,"zoneId":"NA","stopIndex":23,"stopSequence":24,"vertexType":"TRANSIT"},"legGeometry":{"points":"evqfHzcwpLg@?AXCnAO~GxDVhCP~M~@jDTOrHKdGE^E~BQnIMhGAxCD~@Df@DVDZd@zBBLDJJNHHHDJBn@HCxAHdAFX@DFj@@b@Ab@SvAe@p@{EnEEB{@w@m@o@aDeDIKCMCM?SL}A?A@WCYi@mDOu@Wm@EIMSSWaAcAuAcBq@f@URa@d@u@`A}BzCV`DX~C@HFT^v@bA|AZ^`Av@\\`@Zf@pAvCtD`JJTrAtCpAjC@BvA|CvA~Ci@zAqD`KyDrKyF|Og@tAr@r@h@^jA\\\\Nt@\\PHf@RVDXEROR[p@iBr@uBJQLIDCNEr@lERbBFzA@LFbFN`A^r@bB|AlC`BDBz@t@eAjD|@x@","length":116},"routeShortName":"16","routeLongName":"Côte de la Réserve","rentedBike":false,"transitLeg":true,"duration":720.0,"steps":[]},{"startTime":1522688221000,"endTime":1522688405000,"departureDelay":0,"arrivalDelay":0,"realTime":false,"distance":237.28900000000002,"pathway":false,"mode":"WALK","route":"","agencyTimeZoneOffset":-14400000,"interlineWithPreviousLeg":false,"from":{"name":"Rioux / Desgagné","stopId":"1:609","stopCode":"609","lon":-71.100439,"lat":48.42301,"arrival":1522688220000,"departure":1522688221000,"zoneId":"NA","stopIndex":23,"stopSequence":24,"vertexType":"TRANSIT"},"to":{"name":"Destination","lon":-71.102312,"lat":48.421277,"arrival":1522688405000,"orig":"","vertexType":"NORMAL"},"legGeometry":{"points":"qrpfHdx}pLvClCz@t@|AxAl@l@HH","length":6},"rentedBike":false,"transitLeg":false,"duration":184.0,"steps":[{"distance":237.28900000000002,"relativeDirection":"DEPART","streetName":"Rue Rioux","absoluteDirection":"SOUTHWEST","stayOn":false,"area":false,"bogusName":false,"lon":-71.10034784478613,"lat":48.42297248541416,"elevation":[]}]}],"tooSloped":false},{"duration":2983,"startTime":1522686577000,"endTime":1522689560000,"walkTime":2162,"transitTime":519,"waitingTime":302,"walkDistance":2801.6362556293448,"walkLimitExceeded":false,"elevationLost":0.0,"elevationGained":0.0,"transfers":1,"legs":[{"startTime":1522686577000,"endTime":1522686861000,"departureDelay":0,"arrivalDelay":0,"realTime":false,"distance":364.0899999999999,"pathway":false,"mode":"WALK","route":"","agencyTimeZoneOffset":-14400000,"interlineWithPreviousLeg":false,"from":{"name":"Origin","lon":-71.08157599,"lat":48.44911,"departure":1522686577000,"orig":"","vertexType":"NORMAL"},"to":{"name":"boul. Ste-Geneviève / Ste-Marie","stopId":"1:731","stopCode":"731","lon":-71.085744,"lat":48.448746,"arrival":1522686861000,"departure":1522686862000,"zoneId":"NA","stopIndex":29,"stopSequence":30,"vertexType":"TRANSIT"},"legGeometry":{"points":"wuufHpczpLo@TNpCLpCDl@Fn@H^JV\\|@FPJTv@lBN\\oAvA","length":14},"rentedBike":false,"transitLeg":false,"duration":284.0,"steps":[{"distance":27.586,"relativeDirection":"DEPART","streetName":"path","absoluteDirection":"NORTH","stayOn":false,"area":false,"bogusName":false,"lon":-71.0816896317806,"lat":48.449087594991916,"elevation":[]},{"distance":280.95,"relativeDirection":"LEFT","streetName":"Rue Saint-Gérard","absoluteDirection":"WEST","stayOn":false,"area":false,"bogusName":false,"lon":-71.0817962,"lat":48.449325400000006,"elevation":[]},{"distance":55.554,"relativeDirection":"RIGHT","streetName":"Boulevard Sainte-Geneviève","absoluteDirection":"NORTHWEST","stayOn":false,"area":false,"bogusName":false,"lon":-71.08521470000001,"lat":48.448382800000005,"elevation":[]}]},{"startTime":1522686862000,"endTime":1522687200000,"departureDelay":0,"arrivalDelay":0,"realTime":false,"distance":2834.1349452765576,"pathway":false,"mode":"BUS","route":"21","agencyName":"Société de Transport du Saguenay","agencyUrl":"http://ville.saguenay.ca/fr/services-aux-citoyens/transport-sts","agencyTimeZoneOffset":-14400000,"routeColor":"556B2F","routeType":3,"routeId":"1:21","routeTextColor":"FFFFFF","interlineWithPreviousLeg":false,"tripBlockId":"2","headsign":"Terminus Chicoutimi","agencyId":"0","tripId":"1:217167","serviceDate":"20180402","from":{"name":"boul. Ste-Geneviève / Ste-Marie","stopId":"1:731","stopCode":"731","lon":-71.085744,"lat":48.448746,"arrival":1522686861000,"departure":1522686862000,"zoneId":"NA","stopIndex":29,"stopSequence":30,"vertexType":"TRANSIT"},"to":{"name":"Terminus Chicoutimi","stopId":"1:1289","stopCode":"1289","lon":-71.066163,"lat":48.428677,"arrival":1522687200000,"departure":1522687500000,"zoneId":"NA","stopIndex":34,"stopSequence":35,"vertexType":"TRANSIT"},"legGeometry":{"points":"}sufHh|zpLrFkG`FgGdBwBt@cAbAmBx@eBj@eB`CoHpCyJbAmCtAuCZg@|@gBxAsCrCmFhHqN~@eBr@cAt@_Av@}@RQPMz@k@tAe@REZG^Af@@X@VF`@Jn@XbClAr@Xt\\`PrAb@pA^hBTjAFj@Pb@JPHLLJNJRFXDT?X?ZEVEVKTMNMHMFOB}DWSGOSYcAN}FFkAF}DJyDPwGvAHVyL","length":68},"routeShortName":"21","routeLongName":"Boul. Ste-Geneviève/Élie","rentedBike":false,"transitLeg":true,"duration":338.0,"steps":[]},{"startTime":1522687500000,"endTime":1522687681000,"departureDelay":0,"arrivalDelay":0,"realTime":false,"distance":1960.480925293295,"pathway":false,"mode":"BUS","route":"3","agencyName":"Société de Transport du Saguenay","agencyUrl":"http://ville.saguenay.ca/fr/services-aux-citoyens/transport-sts","agencyTimeZoneOffset":-14400000,"routeColor":"FF0000","routeType":3,"routeId":"1:3","routeTextColor":"FFFFFF","interlineWithPreviousLeg":false,"tripBlockId":"11","headsign":"Terminus Jonquière","agencyId":"0","tripId":"1:217474","serviceDate":"20180402","from":{"name":"Terminus Chicoutimi","stopId":"1:1289","stopCode":"1289","lon":-71.066163,"lat":48.428677,"arrival":1522687200000,"departure":1522687500000,"zoneId":"NA","stopIndex":0,"stopSequence":1,"vertexType":"TRANSIT"},"to":{"name":"boul. Saguenay (no. 760)","stopId":"1:162","stopCode":"162","lon":-71.091291,"lat":48.434375,"arrival":1522687681000,"departure":1522687682000,"zoneId":"NA","stopIndex":2,"stopSequence":3,"vertexType":"TRANSIT"},"legGeometry":{"points":"evqfHzcwpLi@?UhKoBKcBts@OjC]fCg@~BsId[{DrNqB|HSl@YnAMfAOnAo@nMCp@","length":17},"routeShortName":"3","routeLongName":"Chic/Jonq via Boul. Saguenay","rentedBike":false,"transitLeg":true,"duration":181.0,"steps":[]},{"startTime":1522687682000,"endTime":1522689560000,"departureDelay":0,"arrivalDelay":0,"realTime":false,"distance":2437.244,"pathway":false,"mode":"WALK","route":"","agencyTimeZoneOffset":-14400000,"interlineWithPreviousLeg":false,"from":{"name":"boul. Saguenay (no. 760)","stopId":"1:162","stopCode":"162","lon":-71.091291,"lat":48.434375,"arrival":1522687681000,"departure":1522687682000,"zoneId":"NA","stopIndex":2,"stopSequence":3,"vertexType":"TRANSIT"},"to":{"name":"Destination","lon":-71.102312,"lat":48.421277,"arrival":1522689560000,"orig":"","vertexType":"NORMAL"},"legGeometry":{"points":"myrfHt_|pLNqFH?|Bd@NaDHsB@i@Vm@\\Y`@Cb@GL_@pAf@`AXnALz@DnBEl@?jGCdBD`C\\pBj@|@J~Bt@`@X`CrARP??vEhFsA|DITi@rBMzBF|AR~Ah@lER`BBvAHbGZ~@bGzEPNp@l@aAjDv@r@vClCz@t@|AxAl@l@HH","length":50},"rentedBike":false,"transitLeg":false,"duration":1878.0,"steps":[{"distance":89.072,"relativeDirection":"DEPART","streetName":"Boulevard du Saguenay Ouest","absoluteDirection":"EAST","stayOn":false,"area":false,"bogusName":false,"lon":-71.09130000382352,"lat":48.43431445509596,"elevation":[]},{"distance":77.349,"relativeDirection":"RIGHT","streetName":"Rue Albert","absoluteDirection":"SOUTH","stayOn":false,"area":false,"bogusName":false,"lon":-71.09009850000001,"lat":48.4342358,"elevation":[]},{"distance":213.519,"relativeDirection":"LEFT","streetName":"Rue Rodolphe","absoluteDirection":"EAST","stayOn":false,"area":false,"bogusName":false,"lon":-71.09028950000001,"lat":48.433552600000006,"elevation":[]},{"distance":965.422,"relativeDirection":"RIGHT","streetName":"Rue J.-R.-Théberge","absoluteDirection":"SOUTH","stayOn":false,"area":false,"bogusName":false,"lon":-71.0881025,"lat":48.432726300000006,"elevation":[]},{"distance":744.5219999999999,"relativeDirection":"RIGHT","streetName":"Rue du Stade","absoluteDirection":"NORTHWEST","stayOn":false,"area":false,"bogusName":false,"lon":-71.09102750000001,"lat":48.4244793,"elevation":[]},{"distance":73.185,"relativeDirection":"RIGHT","streetName":"Rue Desgagné","absoluteDirection":"NORTHWEST","stayOn":false,"area":false,"bogusName":false,"lon":-71.09922230000001,"lat":48.422929,"elevation":[]},{"distance":274.175,"relativeDirection":"LEFT","streetName":"Rue Rioux","absoluteDirection":"SOUTHWEST","stayOn":false,"area":false,"bogusName":false,"lon":-71.1000844,"lat":48.423254400000005,"elevation":[]}]}],"tooSloped":false},{"duration":3053,"startTime":1522687152000,"endTime":1522690205000,"walkTime":468,"transitTime":1336,"waitingTime":1249,"walkDistance":601.4455413512362,"walkLimitExceeded":false,"elevationLost":0.0,"elevationGained":0.0,"transfers":1,"legs":[{"startTime":1522687152000,"endTime":1522687436000,"departureDelay":0,"arrivalDelay":0,"realTime":false,"distance":364.0899999999999,"pathway":false,"mode":"WALK","route":"","agencyTimeZoneOffset":-14400000,"interlineWithPreviousLeg":false,"from":{"name":"Origin","lon":-71.08157599,"lat":48.44911,"departure":1522687152000,"orig":"","vertexType":"NORMAL"},"to":{"name":"boul. Ste-Geneviève / Ste-Marie","stopId":"1:731","stopCode":"731","lon":-71.085744,"lat":48.448746,"arrival":1522687436000,"departure":1522687437000,"zoneId":"NA","stopIndex":8,"stopSequence":9,"vertexType":"TRANSIT"},"legGeometry":{"points":"wuufHpczpLo@TNpCLpCDl@Fn@H^JV\\|@FPJTv@lBN\\oAvA","length":14},"rentedBike":false,"transitLeg":false,"duration":284.0,"steps":[{"distance":27.586,"relativeDirection":"DEPART","streetName":"path","absoluteDirection":"NORTH","stayOn":false,"area":false,"bogusName":false,"lon":-71.0816896317806,"lat":48.449087594991916,"elevation":[]},{"distance":280.95,"relativeDirection":"LEFT","streetName":"Rue Saint-Gérard","absoluteDirection":"WEST","stayOn":false,"area":false,"bogusName":false,"lon":-71.0817962,"lat":48.449325400000006,"elevation":[]},{"distance":55.554,"relativeDirection":"RIGHT","streetName":"Boulevard Sainte-Geneviève","absoluteDirection":"NORTHWEST","stayOn":false,"area":false,"bogusName":false,"lon":-71.08521470000001,"lat":48.448382800000005,"elevation":[]}]},{"startTime":1522687437000,"endTime":1522687702000,"departureDelay":0,"arrivalDelay":0,"realTime":false,"distance":3180.1739211743234,"pathway":false,"mode":"BUS","route":"27","agencyName":"Société de Transport du Saguenay","agencyUrl":"http://ville.saguenay.ca/fr/services-aux-citoyens/transport-sts","agencyTimeZoneOffset":-14400000,"routeColor":"00FFFF","routeType":3,"routeId":"1:27","routeTextColor":"000000","interlineWithPreviousLeg":false,"tripBlockId":"98","headsign":"Place du Royaume","agencyId":"0","tripId":"1:218746","serviceDate":"20180402","from":{"name":"boul. Ste-Geneviève / Ste-Marie","stopId":"1:731","stopCode":"731","lon":-71.085744,"lat":48.448746,"arrival":1522687436000,"departure":1522687437000,"zoneId":"NA","stopIndex":8,"stopSequence":9,"vertexType":"TRANSIT"},"to":{"name":"Price / Lemieux","stopId":"1:1897","stopCode":"1897","lon":-71.067472,"lat":48.425313,"arrival":1522687702000,"departure":1522688949000,"zoneId":"NA","stopIndex":13,"stopSequence":14,"vertexType":"TRANSIT"},"legGeometry":{"points":"}sufHh|zpLDGdGoHhE}EBEzB{CpB}CtAsDJYlDsLtB{GzEmJzKsTlB{Dn@gAfD_FfDwB|Cc@tEzAfLxFtQzI`EvA~F\\nGHjH}@RcL?ANcHFgE","length":29},"routeShortName":"27","routeLongName":"St-Honoré","rentedBike":false,"transitLeg":true,"duration":265.0,"steps":[]},{"startTime":1522688949000,"endTime":1522689060000,"departureDelay":0,"arrivalDelay":0,"realTime":false,"distance":386.32886776834977,"pathway":false,"mode":"BUS","route":"11","agencyName":"Société de Transport du Saguenay","agencyUrl":"http://ville.saguenay.ca/fr/services-aux-citoyens/transport-sts","agencyTimeZoneOffset":-14400000,"routeColor":"FF0000","routeType":3,"routeId":"1:11","routeTextColor":"FFFFFF","interlineWithPreviousLeg":false,"tripBlockId":"37","headsign":"Terminus Chicoutimi","agencyId":"0","tripId":"1:218315","serviceDate":"20180402","from":{"name":"Price / Lemieux","stopId":"1:1897","stopCode":"1897","lon":-71.067472,"lat":48.425313,"arrival":1522687702000,"departure":1522688949000,"zoneId":"NA","stopIndex":29,"stopSequence":30,"vertexType":"TRANSIT"},"to":{"name":"Terminus Chicoutimi","stopId":"1:1289","stopCode":"1289","lon":-71.066163,"lat":48.428677,"arrival":1522689060000,"departure":1522689300000,"zoneId":"NA","stopIndex":30,"stopSequence":31,"vertexType":"TRANSIT"},"legGeometry":{"points":"kaqfHtjwpLLgHmKm@}BW{AMCn@o@G??","length":8},"routeShortName":"11","routeLongName":"Chic/Faubourg via St-Paul","rentedBike":false,"transitLeg":true,"duration":111.0,"steps":[]},{"startTime":1522689300000,"endTime":1522690020000,"departureDelay":0,"arrivalDelay":0,"realTime":false,"distance":4440.510942259597,"pathway":false,"mode":"BUS","route":"16","agencyName":"Société de Transport du Saguenay","agencyUrl":"http://ville.saguenay.ca/fr/services-aux-citoyens/transport-sts","agencyTimeZoneOffset":-14400000,"routeColor":"00FF00","routeType":3,"routeId":"1:16","routeTextColor":"000000","interlineWithPreviousLeg":true,"tripBlockId":"37","headsign":"Faubourg Sagamie","agencyId":"0","tripId":"1:218316","serviceDate":"20180402","from":{"name":"Terminus Chicoutimi","stopId":"1:1289","stopCode":"1289","lon":-71.066163,"lat":48.428677,"arrival":1522689060000,"departure":1522689300000,"zoneId":"NA","stopIndex":0,"stopSequence":1,"vertexType":"TRANSIT"},"to":{"name":"Rioux / Desgagné","stopId":"1:609","stopCode":"609","lon":-71.100439,"lat":48.42301,"arrival":1522690020000,"departure":1522690021000,"zoneId":"NA","stopIndex":23,"stopSequence":24,"vertexType":"TRANSIT"},"legGeometry":{"points":"evqfHzcwpLg@?AXCnAO~GxDVhCP~M~@jDTOrHKdGE^E~BQnIMhGAxCD~@Df@DVDZd@zBBLDJJNHHHDJBn@HCxAHdAFX@DFj@@b@Ab@SvAe@p@{EnEEB{@w@m@o@aDeDIKCMCM?SL}A?A@WCYi@mDOu@Wm@EIMSSWaAcAuAcBq@f@URa@d@u@`A}BzCV`DX~C@HFT^v@bA|AZ^`Av@\\`@Zf@pAvCtD`JJTrAtCpAjC@BvA|CvA~Ci@zAqD`KyDrKyF|Og@tAr@r@h@^jA\\\\Nt@\\PHf@RVDXEROR[p@iBr@uBJQLIDCNEr@lERbBFzA@LFbFN`A^r@bB|AlC`BDBz@t@eAjD|@x@","length":116},"routeShortName":"16","routeLongName":"Côte de la Réserve","rentedBike":false,"transitLeg":true,"duration":720.0,"steps":[]},{"startTime":1522690021000,"endTime":1522690205000,"departureDelay":0,"arrivalDelay":0,"realTime":false,"distance":237.28900000000002,"pathway":false,"mode":"WALK","route":"","agencyTimeZoneOffset":-14400000,"interlineWithPreviousLeg":false,"from":{"name":"Rioux / Desgagné","stopId":"1:609","stopCode":"609","lon":-71.100439,"lat":48.42301,"arrival":1522690020000,"departure":1522690021000,"zoneId":"NA","stopIndex":23,"stopSequence":24,"vertexType":"TRANSIT"},"to":{"name":"Destination","lon":-71.102312,"lat":48.421277,"arrival":1522690205000,"orig":"","vertexType":"NORMAL"},"legGeometry":{"points":"qrpfHdx}pLvClCz@t@|AxAl@l@HH","length":6},"rentedBike":false,"transitLeg":false,"duration":184.0,"steps":[{"distance":237.28900000000002,"relativeDirection":"DEPART","streetName":"Rue Rioux","absoluteDirection":"SOUTHWEST","stayOn":false,"area":false,"bogusName":false,"lon":-71.10034784478613,"lat":48.42297248541416,"elevation":[]}]}],"tooSloped":false}]},"debugOutput":{"precalculationTime":12,"pathCalculationTime":33,"pathTimes":[16,7,10],"renderingTime":1,"totalTime":46,"timedOut":false},"elevationMetadata":{"ellipsoidToGeoidDifference":-28.885904201182168,"geoidElevation":false}}