{"requestParameters":{"date":"2018/04/02","walkSpeed":"1.33","walkReluctance":"2.0","fromPlace":"48.457944,-71.10299","maxWalkDistance":"3000","waitReluctance":"1.0","carSpeed":"33","numItineraries":"3","waitAtBeginningFactor":"0.4","mode":"TRANSIT,WALK","ignoreRealtimeUpdates":"false","stairsReluctance":"2.0","toPlace":"48.458536,-71.099399","time":"15:30:00"},"plan":{"date":1522697400000,"from":{"name":"Origin","lon":-71.10299,"lat":48.457944,"orig":"","vertexType":"NORMAL"},"to":{"name":"Destination","lon":-71.099399,"lat":48.458536,"orig":"","vertexType":"NORMAL"},"itineraries":[{"duration":232,"startTime":1522697400000,"endTime":1522697632000,"walkTime":232,"transitTime":0,"waitingTime":0,"walkDistance":293.23195488457355,"walkLimitExceeded":false,"elevationLost":0.0,"elevationGained":0.0,"transfers":0,"legs":[{"startTime":1522697400000,"endTime":1522697632000,"departureDelay":0,"arrivalDelay":0,"realTime":false,"distance":293.15000000000003,"pathway":false,"mode":"WALK","route":"","agencyTimeZoneOffset":-14400000,"interlineWithPreviousLeg":false,"from":{"name":"Origin","lon":-71.10299,"lat":48.457944,"departure":1522697400000,"orig":"","vertexType":"NORMAL"},"to":{"name":"Destination","lon":-71.099399,"lat":48.458536,"arrival":1522697632000,"orig":"","vertexType":"NORMAL"},"legGeometry":{"points":"mowfHbf~pLX{BdBkA_AmDk@aDCMOeB","length":7},"rentedBike":false,"transitLeg":false,"duration":232.0,"steps":[{"distance":47.92,"relativeDirection":"DEPART","streetName":"service road","absoluteDirection":"EAST","stayOn":false,"area":false,"bogusName":false,"lon":-71.102574,"lat":48.45831,"elevation":[]},{"distance":63.203,"relativeDirection":"RIGHT","streetName":"Rue des Fougères","absoluteDirection":"SOUTHEAST","stayOn":false,"area":false,"bogusName":false,"lon":-71.10195200000001,"lat":48.4581852,"elevation":[]},{"distance":182.027,"relativeDirection":"LEFT","streetName":"Rue des Épervières","absoluteDirection":"NORTHEAST","stayOn":false,"area":false,"bogusName":false,"lon":-71.1015776,"lat":48.4576739,"elevation":[]}]}],"tooSloped":false}]},"debugOutput":{"precalculationTime":5,"pathCalculationTime":12,"pathTimes":[0,7,5],"renderingTime":1,"totalTime":18,"timedOut":false},"elevationMetadata":{"ellipsoidToGeoidDifference":-28.885904201182168,"geoidElevation":false}}