{"requestParameters":{"date":"2018/04/02","walkSpeed":"1.33","walkReluctance":"2.0","fromPlace":"48.424575,-71.08593299","maxWalkDistance":"3000","waitReluctance":"1.0","carSpeed":"33","numItineraries":"3","waitAtBeginningFactor":"0.4","mode":"TRANSIT,WALK","ignoreRealtimeUpdates":"false","stairsReluctance":"2.0","toPlace":"48.41905,-71.099975","time":"11:20:00"},"plan":{"date":1522682400000,"from":{"name":"Origin","lon":-71.08593299,"lat":48.424575,"orig":"","vertexType":"NORMAL"},"to":{"name":"Destination","lon":-71.099975,"lat":48.41905,"orig":"","vertexType":"NORMAL"},"itineraries":[{"duration":443,"startTime":1522682599000,"endTime":1522683042000,"walkTime":95,"transitTime":346,"waitingTime":2,"walkDistance":124.83699999999999,"walkLimitExceeded":false,"elevationLost":0.0,"elevationGained":0.0,"transfers":0,"legs":[{"startTime":1522682599000,"endTime":1522682653000,"departureDelay":0,"arrivalDelay":0,"realTime":false,"distance":71.393,"pathway":false,"mode":"WALK","route":"","agencyTimeZoneOffset":-14400000,"interlineWithPreviousLeg":false,"from":{"name":"Origin","lon":-71.08593299,"lat":48.424575,"departure":1522682599000,"orig":"","vertexType":"NORMAL"},"to":{"name":"ch. de la Réserve / Ste-Cécile","stopId":"1:600","stopCode":"600","lon":-71.085713,"lat":48.425401,"arrival":1522682653000,"departure":1522682654000,"zoneId":"NA","stopIndex":14,"stopSequence":15,"vertexType":"TRANSIT"},"legGeometry":{"points":"s~pfHt`{pLi@mAg@eA","length":3},"rentedBike":false,"transitLeg":false,"duration":54.0,"steps":[{"distance":71.393,"relativeDirection":"DEPART","streetName":"Chemin de la Réserve","absoluteDirection":"NORTHEAST","stayOn":false,"area":false,"bogusName":false,"lon":-71.08634376798462,"lat":48.42490114336906,"elevation":[]}]},{"startTime":1522682654000,"endTime":1522683000000,"departureDelay":0,"arrivalDelay":0,"realTime":false,"distance":2061.5702527206104,"pathway":false,"mode":"BUS","route":"16","agencyName":"Société de Transport du Saguenay","agencyUrl":"http://ville.saguenay.ca/fr/services-aux-citoyens/transport-sts","agencyTimeZoneOffset":-14400000,"routeColor":"00FF00","routeType":3,"routeId":"1:16","routeTextColor":"000000","interlineWithPreviousLeg":false,"tripBlockId":"37","headsign":"Faubourg Sagamie","agencyId":"0","tripId":"1:218312","serviceDate":"20180402","from":{"name":"ch. de la Réserve / Ste-Cécile","stopId":"1:600","stopCode":"600","lon":-71.085713,"lat":48.425401,"arrival":1522682653000,"departure":1522682654000,"zoneId":"NA","stopIndex":14,"stopSequence":15,"vertexType":"TRANSIT"},"to":{"name":"Stade / ch. de la Réserve","stopId":"1:617","stopCode":"617","lon":-71.100622,"lat":48.419268,"arrival":1522683000000,"departure":1522683001000,"zoneId":"NA","stopIndex":25,"stopSequence":26,"vertexType":"TRANSIT"},"legGeometry":{"points":"kaqfHh|zpLvA|CvA~Ci@zAqD`KyDrKyF|Og@tAr@r@h@^jA\\\\Nt@\\PHf@RVDXEROR[p@iBr@uBJQLIDCNEr@lERbBFzA@LFbFN`A^r@bB|AlC`BDBz@t@eAjD|@x@~AxAxB`BbAiDjCzB|ApAvAZbAo@|@cD","length":46},"routeShortName":"16","routeLongName":"Côte de la Réserve","rentedBike":false,"transitLeg":true,"duration":346.0,"steps":[]},{"startTime":1522683001000,"endTime":1522683042000,"departureDelay":0,"arrivalDelay":0,"realTime":false,"distance":53.443999999999996,"pathway":false,"mode":"WALK","route":"","agencyTimeZoneOffset":-14400000,"interlineWithPreviousLeg":false,"from":{"name":"Stade / ch. de la Réserve","stopId":"1:617","stopCode":"617","lon":-71.100622,"lat":48.419268,"arrival":1522683000000,"departure":1522683001000,"zoneId":"NA","stopIndex":25,"stopSequence":26,"vertexType":"TRANSIT"},"to":{"name":"Destination","lon":-71.099975,"lat":48.41905,"arrival":1522683042000,"orig":"","vertexType":"NORMAL"},"legGeometry":{"points":"s{ofHvy}pLb@{ALa@","length":3},"rentedBike":false,"transitLeg":false,"duration":41.0,"steps":[{"distance":39.367,"relativeDirection":"DEPART","streetName":"Rue du Stade","absoluteDirection":"SOUTHEAST","stayOn":false,"area":false,"bogusName":false,"lon":-71.10059069024184,"lat":48.41930332111794,"elevation":[]},{"distance":14.077,"relativeDirection":"CONTINUE","streetName":"Rue Gosselin","absoluteDirection":"SOUTHEAST","stayOn":false,"area":false,"bogusName":false,"lon":-71.10013090000001,"lat":48.4191238,"elevation":[]}]}],"tooSloped":false},{"duration":974,"startTime":1522682400000,"endTime":1522683374000,"walkTime":974,"transitTime":0,"waitingTime":0,"walkDistance":1271.6539248097738,"walkLimitExceeded":false,"elevationLost":0.0,"elevationGained":0.0,"transfers":0,"legs":[{"startTime":1522682400000,"endTime":1522683374000,"departureDelay":0,"arrivalDelay":0,"realTime":false,"distance":1271.584,"pathway":false,"mode":"WALK","route":"","agencyTimeZoneOffset":-14400000,"interlineWithPreviousLeg":false,"from":{"name":"Origin","lon":-71.08593299,"lat":48.424575,"departure":1522682400000,"orig":"","vertexType":"NORMAL"},"to":{"name":"Destination","lon":-71.099975,"lat":48.41905,"arrival":1522683374000,"orig":"","vertexType":"NORMAL"},"legGeometry":{"points":"s~pfHt`{pLXl@z@bC~AhDZt@Tf@??JPXjBZv@Rd@JT`AzBDHLTr@|AJRJRFNZp@Zr@pA`H@HBLVxADhAAj@IvA?NAlA?FHz@LbAd@jDt@pERf@b@dA@DNb@\\r@dC`ClClBLa@","length":43},"rentedBike":false,"transitLeg":false,"duration":974.0,"steps":[{"distance":1257.507,"relativeDirection":"DEPART","streetName":"Chemin de la Réserve","absoluteDirection":"SOUTHWEST","stayOn":false,"area":false,"bogusName":false,"lon":-71.08634376798462,"lat":48.42490114336906,"elevation":[]},{"distance":14.077,"relativeDirection":"LEFT","streetName":"Rue Gosselin","absoluteDirection":"SOUTHEAST","stayOn":false,"area":false,"bogusName":false,"lon":-71.10013090000001,"lat":48.4191238,"elevation":[]}]}],"tooSloped":false},{"duration":443,"startTime":1522684399000,"endTime":1522684842000,"walkTime":95,"transitTime":346,"waitingTime":2,"walkDistance":124.83699999999999,"walkLimitExceeded":false,"elevationLost":0.0,"elevationGained":0.0,"transfers":0,"legs":[{"startTime":1522684399000,"endTime":1522684453000,"departureDelay":0,"arrivalDelay":0,"realTime":false,"distance":71.393,"pathway":false,"mode":"WALK","route":"","agencyTimeZoneOffset":-14400000,"interlineWithPreviousLeg":false,"from":{"name":"Origin","lon":-71.08593299,"lat":48.424575,"departure":1522684399000,"orig":"","vertexType":"NORMAL"},"to":{"name":"ch. de la Réserve / Ste-Cécile","stopId":"1:600","stopCode":"600","lon":-71.085713,"lat":48.425401,"arrival":1522684453000,"departure":1522684454000,"zoneId":"NA","stopIndex":14,"stopSequence":15,"vertexType":"TRANSIT"},"legGeometry":{"points":"s~pfHt`{pLi@mAg@eA","length":3},"rentedBike":false,"transitLeg":false,"duration":54.0,"steps":[{"distance":71.393,"relativeDirection":"DEPART","streetName":"Chemin de la Réserve","absoluteDirection":"NORTHEAST","stayOn":false,"area":false,"bogusName":false,"lon":-71.08634376798462,"lat":48.42490114336906,"elevation":[]}]},{"startTime":1522684454000,"endTime":1522684800000,"departureDelay":0,"arrivalDelay":0,"realTime":false,"distance":2061.5702527206104,"pathway":false,"mode":"BUS","route":"16","agencyName":"Société de Transport du Saguenay","agencyUrl":"http://ville.saguenay.ca/fr/services-aux-citoyens/transport-sts","agencyTimeZoneOffset":-14400000,"routeColor":"00FF00","routeType":3,"routeId":"1:16","routeTextColor":"000000","interlineWithPreviousLeg":false,"tripBlockId":"34","headsign":"Faubourg Sagamie","agencyId":"0","tripId":"1:218217","serviceDate":"20180402","from":{"name":"ch. de la Réserve / Ste-Cécile","stopId":"1:600","stopCode":"600","lon":-71.085713,"lat":48.425401,"arrival":1522684453000,"departure":1522684454000,"zoneId":"NA","stopIndex":14,"stopSequence":15,"vertexType":"TRANSIT"},"to":{"name":"Stade / ch. de la Réserve","stopId":"1:617","stopCode":"617","lon":-71.100622,"lat":48.419268,"arrival":1522684800000,"departure":1522684801000,"zoneId":"NA","stopIndex":25,"stopSequence":26,"vertexType":"TRANSIT"},"legGeometry":{"points":"kaqfHh|zpLvA|CvA~Ci@zAqD`KyDrKyF|Og@tAr@r@h@^jA\\\\Nt@\\PHf@RVDXEROR[p@iBr@uBJQLIDCNEr@lERbBFzA@LFbFN`A^r@bB|AlC`BDBz@t@eAjD|@x@~AxAxB`BbAiDjCzB|ApAvAZbAo@|@cD","length":46},"routeShortName":"16","routeLongName":"Côte de la Réserve","rentedBike":false,"transitLeg":true,"duration":346.0,"steps":[]},{"startTime":1522684801000,"endTime":1522684842000,"departureDelay":0,"arrivalDelay":0,"realTime":false,"distance":53.443999999999996,"pathway":false,"mode":"WALK","route":"","agencyTimeZoneOffset":-14400000,"interlineWithPreviousLeg":false,"from":{"name":"Stade / ch. de la Réserve","stopId":"1:617","stopCode":"617","lon":-71.100622,"lat":48.419268,"arrival":1522684800000,"departure":1522684801000,"zoneId":"NA","stopIndex":25,"stopSequence":26,"vertexType":"TRANSIT"},"to":{"name":"Destination","lon":-71.099975,"lat":48.41905,"arrival":1522684842000,"orig":"","vertexType":"NORMAL"},"legGeometry":{"points":"s{ofHvy}pLb@{ALa@","length":3},"rentedBike":false,"transitLeg":false,"duration":41.0,"steps":[{"distance":39.367,"relativeDirection":"DEPART","streetName":"Rue du Stade","absoluteDirection":"SOUTHEAST","stayOn":false,"area":false,"bogusName":false,"lon":-71.10059069024184,"lat":48.41930332111794,"elevation":[]},{"distance":14.077,"relativeDirection":"CONTINUE","streetName":"Rue Gosselin","absoluteDirection":"SOUTHEAST","stayOn":false,"area":false,"bogusName":false,"lon":-71.10013090000001,"lat":48.4191238,"elevation":[]}]}],"tooSloped":false}]},"debugOutput":{"precalculationTime":19,"pathCalculationTime":17,"pathTimes":[6,8,3],"renderingTime":0,"totalTime":36,"timedOut":false},"elevationMetadata":{"ellipsoidToGeoidDifference":-28.885904201182168,"geoidElevation":false}}