{"requestParameters":{"date":"2018/04/02","walkSpeed":"1.33","walkReluctance":"2.0","fromPlace":"48.40924,-71.05257199","maxWalkDistance":"3000","waitReluctance":"1.0","carSpeed":"33","numItineraries":"3","waitAtBeginningFactor":"0.4","mode":"TRANSIT,WALK","ignoreRealtimeUpdates":"false","stairsReluctance":"2.0","toPlace":"48.418729,-71.053021","time":"9:20:00"},"plan":{"date":1522675200000,"from":{"name":"Origin","lon":-71.05257199,"lat":48.40924,"orig":"","vertexType":"NORMAL"},"to":{"name":"Destination","lon":-71.053021,"lat":48.418729,"orig":"","vertexType":"NORMAL"},"itineraries":[{"duration":695,"startTime":1522675339000,"endTime":1522676034000,"walkTime":604,"transitTime":89,"waitingTime":2,"walkDistance":765.9238496179343,"walkLimitExceeded":false,"elevationLost":0.0,"elevationGained":0.0,"transfers":0,"legs":[{"startTime":1522675339000,"endTime":1522675619000,"departureDelay":0,"arrivalDelay":0,"realTime":false,"distance":358.97400000000005,"pathway":false,"mode":"WALK","route":"","agencyTimeZoneOffset":-14400000,"interlineWithPreviousLeg":false,"from":{"name":"Origin","lon":-71.05257199,"lat":48.40924,"departure":1522675339000,"orig":"","vertexType":"NORMAL"},"to":{"name":"missingStopName","stopId":"1:1812","stopCode":"1812","lon":-71.051352,"lat":48.411592,"arrival":1522675619000,"departure":1522675620000,"zoneId":"NA","stopIndex":11,"stopSequence":12,"vertexType":"TRANSIT"},"legGeometry":{"points":"i|mfHvltpL{@{@ADu@rBc@hAEJkDmDcDgD","length":8},"rentedBike":false,"transitLeg":false,"duration":280.0,"steps":[{"distance":133.45100000000002,"relativeDirection":"DEPART","streetName":"service road","absoluteDirection":"NORTHEAST","stayOn":false,"area":false,"bogusName":false,"lon":-71.05243235337889,"lat":48.40917865676581,"elevation":[]},{"distance":225.523,"relativeDirection":"RIGHT","streetName":"Boulevard Talbot","absoluteDirection":"NORTHEAST","stayOn":false,"area":false,"bogusName":false,"lon":-71.0531788,"lat":48.4099639,"elevation":[]}]},{"startTime":1522675620000,"endTime":1522675709000,"departureDelay":0,"arrivalDelay":0,"realTime":false,"distance":466.1401674400437,"pathway":false,"mode":"BUS","route":"175","agencyName":"Société de Transport du Saguenay","agencyUrl":"http://ville.saguenay.ca/fr/services-aux-citoyens/transport-sts","agencyTimeZoneOffset":-14400000,"routeColor":"FF00FF","routeType":3,"routeId":"1:175","routeTextColor":"FFFFFF","interlineWithPreviousLeg":false,"tripBlockId":"11","headsign":"Terminus Chicoutimi","agencyId":"0","tripId":"1:217467","serviceDate":"20180402","from":{"name":"missingStopName","stopId":"1:1812","stopCode":"1812","lon":-71.051352,"lat":48.411592,"arrival":1522675619000,"departure":1522675620000,"zoneId":"NA","stopIndex":11,"stopSequence":12,"vertexType":"TRANSIT"},"to":{"name":"Polyclinique du Saguenay (boul. Université)","stopId":"1:61","stopCode":"61","lon":-71.053728,"lat":48.415424,"arrival":1522675709000,"departure":1522675710000,"zoneId":"NA","stopIndex":13,"stopSequence":14,"vertexType":"TRANSIT"},"legGeometry":{"points":"wknfHxftpLcBcB{E`Jc@x@qG~@{BlA","length":6},"routeShortName":"175","routeLongName":"Term. Chic / Costco","rentedBike":false,"transitLeg":true,"duration":89.0,"steps":[]},{"startTime":1522675710000,"endTime":1522676034000,"departureDelay":0,"arrivalDelay":0,"realTime":false,"distance":406.76,"pathway":false,"mode":"WALK","route":"","agencyTimeZoneOffset":-14400000,"interlineWithPreviousLeg":false,"from":{"name":"Polyclinique du Saguenay (boul. Université)","stopId":"1:61","stopCode":"61","lon":-71.053728,"lat":48.415424,"arrival":1522675709000,"departure":1522675710000,"zoneId":"NA","stopIndex":13,"stopSequence":14,"vertexType":"TRANSIT"},"to":{"name":"Destination","lon":-71.053021,"lat":48.418729,"arrival":1522676034000,"orig":"","vertexType":"NORMAL"},"legGeometry":{"points":"gcofHbutpLaBvAKHAAGM{@M_@BQ@mD_AIREEs@q@aCeCEFe@g@","length":15},"rentedBike":false,"transitLeg":false,"duration":324.0,"steps":[{"distance":71.131,"relativeDirection":"DEPART","streetName":"Boulevard de l'Université","absoluteDirection":"NORTHWEST","stayOn":false,"area":false,"bogusName":false,"lon":-71.05377815383544,"lat":48.415404134793874,"elevation":[]},{"distance":169.707,"relativeDirection":"RIGHT","streetName":"path","absoluteDirection":"NORTHEAST","stayOn":false,"area":false,"bogusName":true,"lon":-71.0542688,"lat":48.4159547,"elevation":[]},{"distance":9.06,"relativeDirection":"LEFT","streetName":"Rue des Étudiants","absoluteDirection":"NORTHWEST","stayOn":false,"area":false,"bogusName":false,"lon":-71.05382350000001,"lat":48.417425900000005,"elevation":[]},{"distance":126.639,"relativeDirection":"RIGHT","streetName":"Rue de la Fondation","absoluteDirection":"NORTHEAST","stayOn":false,"area":false,"bogusName":false,"lon":-71.05392400000001,"lat":48.417472700000005,"elevation":[]},{"distance":30.223,"relativeDirection":"CONTINUE","streetName":"path","absoluteDirection":"NORTHEAST","stayOn":false,"area":false,"bogusName":false,"lon":-71.05297080000001,"lat":48.4184196,"elevation":[]}]}],"tooSloped":false},{"duration":996,"startTime":1522675200000,"endTime":1522676196000,"walkTime":996,"transitTime":0,"waitingTime":0,"walkDistance":1275.7650977366454,"walkLimitExceeded":false,"elevationLost":0.0,"elevationGained":0.0,"transfers":0,"legs":[{"startTime":1522675200000,"endTime":1522676196000,"departureDelay":0,"arrivalDelay":0,"realTime":false,"distance":1275.5259999999998,"pathway":false,"mode":"WALK","route":"","agencyTimeZoneOffset":-14400000,"interlineWithPreviousLeg":false,"from":{"name":"Origin","lon":-71.05257199,"lat":48.40924,"departure":1522675200000,"orig":"","vertexType":"NORMAL"},"to":{"name":"Destination","lon":-71.053021,"lat":48.418729,"arrival":1522676196000,"orig":"","vertexType":"NORMAL"},"legGeometry":{"points":"i|mfHvltpL{@{@ADu@rBc@hAEJK^OOmAiAmGoGo@s@UWqAlDELiA`C_@\\_@Zw@TiDJaAXuAv@e@`@aBvAKHAAGM{@M_@BQ@mD_AIREEs@q@aCeCEFe@g@","length":36},"rentedBike":false,"transitLeg":false,"duration":996.0,"steps":[{"distance":146.74300000000002,"relativeDirection":"DEPART","streetName":"service road","absoluteDirection":"NORTHEAST","stayOn":false,"area":false,"bogusName":false,"lon":-71.05243235337889,"lat":48.40917865676581,"elevation":[]},{"distance":290.959,"relativeDirection":"RIGHT","streetName":"Boulevard Talbot","absoluteDirection":"NORTHEAST","stayOn":false,"area":false,"bogusName":false,"lon":-71.05333350000001,"lat":48.410025100000006,"elevation":[]},{"distance":502.19500000000005,"relativeDirection":"LEFT","streetName":"Boulevard de l'Université","absoluteDirection":"NORTHWEST","stayOn":false,"area":false,"bogusName":false,"lon":-71.05114060000001,"lat":48.412199,"elevation":[]},{"distance":169.707,"relativeDirection":"RIGHT","streetName":"path","absoluteDirection":"NORTHEAST","stayOn":false,"area":false,"bogusName":true,"lon":-71.0542688,"lat":48.4159547,"elevation":[]},{"distance":9.06,"relativeDirection":"LEFT","streetName":"Rue des Étudiants","absoluteDirection":"NORTHWEST","stayOn":false,"area":false,"bogusName":false,"lon":-71.05382350000001,"lat":48.417425900000005,"elevation":[]},{"distance":126.639,"relativeDirection":"RIGHT","streetName":"Rue de la Fondation","absoluteDirection":"NORTHEAST","stayOn":false,"area":false,"bogusName":false,"lon":-71.05392400000001,"lat":48.417472700000005,"elevation":[]},{"distance":30.223,"relativeDirection":"CONTINUE","streetName":"path","absoluteDirection":"NORTHEAST","stayOn":false,"area":false,"bogusName":false,"lon":-71.05297080000001,"lat":48.4184196,"elevation":[]}]}],"tooSloped":false},{"duration":724,"startTime":1522675478000,"endTime":1522676202000,"walkTime":514,"transitTime":208,"waitingTime":2,"walkDistance":660.1412556357982,"walkLimitExceeded":false,"elevationLost":0.0,"elevationGained":0.0,"transfers":0,"legs":[{"startTime":1522675478000,"endTime":1522675875000,"departureDelay":0,"arrivalDelay":0,"realTime":false,"distance":506.83500000000004,"pathway":false,"mode":"WALK","route":"","agencyTimeZoneOffset":-14400000,"interlineWithPreviousLeg":false,"from":{"name":"Origin","lon":-71.05257199,"lat":48.40924,"departure":1522675478000,"orig":"","vertexType":"NORMAL"},"to":{"name":"boul. Université / Murdock","stopId":"1:59","stopCode":"59","lon":-71.049971,"lat":48.411755,"arrival":1522675875000,"departure":1522675876000,"zoneId":"NA","stopIndex":21,"stopSequence":22,"vertexType":"TRANSIT"},"legGeometry":{"points":"i|mfHvltpL{@{@ADu@rBc@hAEJkDmDcDgDy@}@MKUYDMnAiD","length":13},"rentedBike":false,"transitLeg":false,"duration":397.0,"steps":[{"distance":133.45100000000002,"relativeDirection":"DEPART","streetName":"service road","absoluteDirection":"NORTHEAST","stayOn":false,"area":false,"bogusName":false,"lon":-71.05243235337889,"lat":48.40917865676581,"elevation":[]},{"distance":289.967,"relativeDirection":"RIGHT","streetName":"Boulevard Talbot","absoluteDirection":"NORTHEAST","stayOn":false,"area":false,"bogusName":false,"lon":-71.0531788,"lat":48.4099639,"elevation":[]},{"distance":83.417,"relativeDirection":"RIGHT","streetName":"Boulevard de l'Université","absoluteDirection":"SOUTHEAST","stayOn":false,"area":false,"bogusName":false,"lon":-71.05096660000001,"lat":48.4121189,"elevation":[]}]},{"startTime":1522675876000,"endTime":1522676084000,"departureDelay":0,"arrivalDelay":0,"realTime":false,"distance":933.8203493542701,"pathway":false,"mode":"BUS","route":"10","agencyName":"Société de Transport du Saguenay","agencyUrl":"http://ville.saguenay.ca/fr/services-aux-citoyens/transport-sts","agencyTimeZoneOffset":-14400000,"routeColor":"0000FF","routeType":3,"routeId":"1:10","routeTextColor":"FFFFFF","interlineWithPreviousLeg":false,"tripBlockId":"29","headsign":"Terminus UQAC","agencyId":"0","tripId":"1:218057","serviceDate":"20180402","from":{"name":"boul. Université / Murdock","stopId":"1:59","stopCode":"59","lon":-71.049971,"lat":48.411755,"arrival":1522675875000,"departure":1522675876000,"zoneId":"NA","stopIndex":21,"stopSequence":22,"vertexType":"TRANSIT"},"to":{"name":"Fondation / Étudiants","stopId":"1:261","stopCode":"261","lon":-71.053953,"lat":48.417524,"arrival":1522676084000,"departure":1522676085000,"zoneId":"NA","stopIndex":23,"stopSequence":24,"vertexType":"TRANSIT"},"legGeometry":{"points":"sknfHh~spLuA~C}VeWaEpLeIrU|D~E","length":6},"routeShortName":"10","routeLongName":"Notre-Dame du Saguenay","rentedBike":false,"transitLeg":true,"duration":208.0,"steps":[]},{"startTime":1522676085000,"endTime":1522676202000,"departureDelay":0,"arrivalDelay":0,"realTime":false,"distance":153.204,"pathway":false,"mode":"WALK","route":"","agencyTimeZoneOffset":-14400000,"interlineWithPreviousLeg":false,"from":{"name":"Fondation / Étudiants","stopId":"1:261","stopCode":"261","lon":-71.053953,"lat":48.417524,"arrival":1522676084000,"departure":1522676085000,"zoneId":"NA","stopIndex":23,"stopSequence":24,"vertexType":"TRANSIT"},"to":{"name":"Destination","lon":-71.053021,"lat":48.418729,"arrival":1522676202000,"orig":"","vertexType":"NORMAL"},"legGeometry":{"points":"kpofHzutpLs@q@aCeCEFe@g@","length":5},"rentedBike":false,"transitLeg":false,"duration":117.0,"steps":[{"distance":122.981,"relativeDirection":"DEPART","streetName":"Rue de la Fondation","absoluteDirection":"NORTHEAST","stayOn":false,"area":false,"bogusName":false,"lon":-71.05389734227215,"lat":48.41750043741361,"elevation":[]},{"distance":30.223,"relativeDirection":"CONTINUE","streetName":"path","absoluteDirection":"NORTHEAST","stayOn":false,"area":false,"bogusName":false,"lon":-71.05297080000001,"lat":48.4184196,"elevation":[]}]}],"tooSloped":false}]},"debugOutput":{"precalculationTime":67,"pathCalculationTime":32,"pathTimes":[19,7,6],"renderingTime":0,"totalTime":99,"timedOut":false},"elevationMetadata":{"ellipsoidToGeoidDifference":-28.885904201182168,"geoidElevation":false}}