{"requestParameters":{"date":"2018/04/02","walkSpeed":"1.33","walkReluctance":"2.0","fromPlace":"48.409091,-71.05609099","maxWalkDistance":"3000","waitReluctance":"1.0","carSpeed":"33","numItineraries":"3","waitAtBeginningFactor":"0.4","mode":"TRANSIT,WALK","ignoreRealtimeUpdates":"false","stairsReluctance":"2.0","toPlace":"48.400532,-71.051268","time":"18:10:00"},"plan":{"date":1522707000000,"from":{"name":"Origin","lon":-71.05609099,"lat":48.409091,"orig":"","vertexType":"NORMAL"},"to":{"name":"Destination","lon":-71.051268,"lat":48.400532,"orig":"","vertexType":"NORMAL"},"itineraries":[{"duration":896,"startTime":1522707000000,"endTime":1522707896000,"walkTime":896,"transitTime":0,"waitingTime":0,"walkDistance":1156.5267142829487,"walkLimitExceeded":false,"elevationLost":0.0,"elevationGained":0.0,"transfers":0,"legs":[{"startTime":1522707000000,"endTime":1522707896000,"departureDelay":0,"arrivalDelay":0,"realTime":false,"distance":1156.441,"pathway":false,"mode":"WALK","route":"","agencyTimeZoneOffset":-14400000,"interlineWithPreviousLeg":false,"from":{"name":"Origin","lon":-71.05609099,"lat":48.409091,"departure":1522707000000,"orig":"","vertexType":"NORMAL"},"to":{"name":"Destination","lon":-71.051268,"lat":48.400532,"arrival":1522707896000,"orig":"","vertexType":"NORMAL"},"legGeometry":{"points":"o|mfHbeupLbAjAd@aAL]Na@\\}@l@}AFQNa@HSj@_Br@qB`A_DNc@PUfAuAbAaAt@]l@Qp@E|@B|@LtAJfA?^Ed@MNGrBm@jEiA^KTGp@U|AOf@D|@D@?N@","length":37},"rentedBike":false,"transitLeg":false,"duration":896.0,"steps":[{"distance":47.295,"relativeDirection":"DEPART","streetName":"Rue Mozart","absoluteDirection":"SOUTHWEST","stayOn":false,"area":false,"bogusName":false,"lon":-71.05633402257699,"lat":48.40920880561187,"elevation":[]},{"distance":947.7260000000001,"relativeDirection":"LEFT","streetName":"Rue des Champs-Élysées","absoluteDirection":"SOUTHEAST","stayOn":false,"area":false,"bogusName":false,"lon":-71.05671190000001,"lat":48.4088653,"elevation":[]},{"distance":161.42000000000002,"relativeDirection":"CONTINUE","streetName":"Rue des Engoulevents","absoluteDirection":"SOUTH","stayOn":false,"area":false,"bogusName":false,"lon":-71.0511074,"lat":48.401948700000005,"elevation":[]}]}],"tooSloped":false},{"duration":767,"startTime":1522707388000,"endTime":1522708155000,"walkTime":695,"transitTime":70,"waitingTime":2,"walkDistance":895.5724661626236,"walkLimitExceeded":false,"elevationLost":0.0,"elevationGained":0.0,"transfers":0,"legs":[{"startTime":1522707388000,"endTime":1522707498000,"departureDelay":0,"arrivalDelay":0,"realTime":false,"distance":136.915,"pathway":false,"mode":"WALK","route":"","agencyTimeZoneOffset":-14400000,"interlineWithPreviousLeg":false,"from":{"name":"Origin","lon":-71.05609099,"lat":48.409091,"departure":1522707388000,"orig":"","vertexType":"NORMAL"},"to":{"name":"Place du Saguenay (Champs-Élysées)","stopId":"1:571","stopCode":"571","lon":-71.055824,"lat":48.408307,"arrival":1522707498000,"departure":1522707499000,"zoneId":"NA","stopIndex":12,"stopSequence":13,"vertexType":"TRANSIT"},"legGeometry":{"points":"o|mfHbeupLbAjAd@aAL]Na@\\}@","length":6},"rentedBike":false,"transitLeg":false,"duration":110.0,"steps":[{"distance":47.295,"relativeDirection":"DEPART","streetName":"Rue Mozart","absoluteDirection":"SOUTHWEST","stayOn":false,"area":false,"bogusName":false,"lon":-71.05633402257699,"lat":48.40920880561187,"elevation":[]},{"distance":89.62,"relativeDirection":"LEFT","streetName":"Rue des Champs-Élysées","absoluteDirection":"SOUTHEAST","stayOn":false,"area":false,"bogusName":false,"lon":-71.05671190000001,"lat":48.4088653,"elevation":[]}]},{"startTime":1522707499000,"endTime":1522707569000,"departureDelay":0,"arrivalDelay":0,"realTime":false,"distance":431.43484422170206,"pathway":false,"mode":"BUS","route":"12","agencyName":"Société de Transport du Saguenay","agencyUrl":"http://ville.saguenay.ca/fr/services-aux-citoyens/transport-sts","agencyTimeZoneOffset":-14400000,"routeColor":"556B2F","routeType":3,"routeId":"1:12","routeTextColor":"FFFFFF","interlineWithPreviousLeg":false,"tripBlockId":"26","headsign":"Terminus Chicoutimi","agencyId":"0","tripId":"1:217987","serviceDate":"20180402","from":{"name":"Place du Saguenay (Champs-Élysées)","stopId":"1:571","stopCode":"571","lon":-71.055824,"lat":48.408307,"arrival":1522707498000,"departure":1522707499000,"zoneId":"NA","stopIndex":12,"stopSequence":13,"vertexType":"TRANSIT"},"to":{"name":"Émile-Girardin / Roitelets","stopId":"1:268","stopCode":"268","lon":-71.050698,"lat":48.406546,"arrival":1522707569000,"departure":1522707570000,"zoneId":"NA","stopIndex":14,"stopSequence":15,"vertexType":"TRANSIT"},"legGeometry":{"points":"{vmfH|aupLxFoNlCyGa@yF","length":4},"routeShortName":"12","routeLongName":"Rivière du Moulin","rentedBike":false,"transitLeg":true,"duration":70.0,"steps":[]},{"startTime":1522707570000,"endTime":1522708155000,"departureDelay":0,"arrivalDelay":0,"realTime":false,"distance":758.571,"pathway":false,"mode":"WALK","route":"","agencyTimeZoneOffset":-14400000,"interlineWithPreviousLeg":false,"from":{"name":"Émile-Girardin / Roitelets","stopId":"1:268","stopCode":"268","lon":-71.050698,"lat":48.406546,"arrival":1522707569000,"departure":1522707570000,"zoneId":"NA","stopIndex":14,"stopSequence":15,"vertexType":"TRANSIT"},"to":{"name":"Destination","lon":-71.051268,"lat":48.400532,"arrival":1522708155000,"orig":"","vertexType":"NORMAL"},"legGeometry":{"points":"mlmfHbbtpLFn@z@pEt@]l@Qp@E|@B|@LtAJfA?^Ed@MNGrBm@jEiA^KTGp@U|AOf@D|@D@?N@","length":23},"rentedBike":false,"transitLeg":false,"duration":585.0,"steps":[{"distance":102.818,"relativeDirection":"DEPART","streetName":"Rue Émile-Girardin","absoluteDirection":"WEST","stayOn":false,"area":false,"bogusName":false,"lon":-71.05073193352945,"lat":48.4066347754418,"elevation":[]},{"distance":494.333,"relativeDirection":"LEFT","streetName":"Rue des Champs-Élysées","absoluteDirection":"SOUTH","stayOn":false,"area":false,"bogusName":false,"lon":-71.05202630000001,"lat":48.4062974,"elevation":[]},{"distance":161.42000000000002,"relativeDirection":"CONTINUE","streetName":"Rue des Engoulevents","absoluteDirection":"SOUTH","stayOn":false,"area":false,"bogusName":false,"lon":-71.0511074,"lat":48.401948700000005,"elevation":[]}]}],"tooSloped":false},{"duration":691,"startTime":1522707709000,"endTime":1522708400000,"walkTime":619,"transitTime":70,"waitingTime":2,"walkDistance":790.4810827040861,"walkLimitExceeded":false,"elevationLost":0.0,"elevationGained":0.0,"transfers":0,"legs":[{"startTime":1522707709000,"endTime":1522708188000,"departureDelay":0,"arrivalDelay":0,"realTime":false,"distance":610.7860000000001,"pathway":false,"mode":"WALK","route":"","agencyTimeZoneOffset":-14400000,"interlineWithPreviousLeg":false,"from":{"name":"Origin","lon":-71.05609099,"lat":48.409091,"departure":1522707709000,"orig":"","vertexType":"NORMAL"},"to":{"name":"Émile Girardin / Roitelets","stopId":"1:253","stopCode":"253","lon":-71.050677,"lat":48.406726,"arrival":1522708188000,"departure":1522708189000,"zoneId":"NA","stopIndex":17,"stopSequence":18,"vertexType":"TRANSIT"},"legGeometry":{"points":"o|mfHbeupLbAjAd@aAL]Na@\\}@l@}AFQNa@HSj@_Br@qB`A_DNc@PUfAuAbAaA{@qEGo@AGAK","length":21},"rentedBike":false,"transitLeg":false,"duration":479.0,"steps":[{"distance":47.295,"relativeDirection":"DEPART","streetName":"Rue Mozart","absoluteDirection":"SOUTHWEST","stayOn":false,"area":false,"bogusName":false,"lon":-71.05633402257699,"lat":48.40920880561187,"elevation":[]},{"distance":453.39300000000003,"relativeDirection":"LEFT","streetName":"Rue des Champs-Élysées","absoluteDirection":"SOUTHEAST","stayOn":false,"area":false,"bogusName":false,"lon":-71.05671190000001,"lat":48.4088653,"elevation":[]},{"distance":110.09799999999998,"relativeDirection":"LEFT","streetName":"Rue Émile-Girardin","absoluteDirection":"NORTHEAST","stayOn":false,"area":false,"bogusName":false,"lon":-71.05202630000001,"lat":48.4062974,"elevation":[]}]},{"startTime":1522708189000,"endTime":1522708259000,"departureDelay":0,"arrivalDelay":0,"realTime":false,"distance":534.3353906916097,"pathway":false,"mode":"BUS","route":"175","agencyName":"Société de Transport du Saguenay","agencyUrl":"http://ville.saguenay.ca/fr/services-aux-citoyens/transport-sts","agencyTimeZoneOffset":-14400000,"routeColor":"FF00FF","routeType":3,"routeId":"1:175","routeTextColor":"FFFFFF","interlineWithPreviousLeg":false,"tripBlockId":"8","headsign":"Costco","agencyId":"0","tripId":"1:217380","serviceDate":"20180402","from":{"name":"Émile Girardin / Roitelets","stopId":"1:253","stopCode":"253","lon":-71.050677,"lat":48.406726,"arrival":1522708188000,"departure":1522708189000,"zoneId":"NA","stopIndex":17,"stopSequence":18,"vertexType":"TRANSIT"},"to":{"name":"Champs-Élysées / Saguenéens","stopId":"1:84","stopCode":"84","lon":-71.05132,"lat":48.402083,"arrival":1522708259000,"departure":1522708260000,"zoneId":"NA","stopIndex":19,"stopSequence":20,"vertexType":"TRANSIT"},"legGeometry":{"points":"_lmfHhatpLr@~Gx@]PEr@ObACn@FrBb@|@Ch@Kx@U~HsB","length":12},"routeShortName":"175","routeLongName":"Term. Chic / Costco","rentedBike":false,"transitLeg":true,"duration":70.0,"steps":[]},{"startTime":1522708260000,"endTime":1522708400000,"departureDelay":0,"arrivalDelay":0,"realTime":false,"distance":179.612,"pathway":false,"mode":"WALK","route":"","agencyTimeZoneOffset":-14400000,"interlineWithPreviousLeg":false,"from":{"name":"Champs-Élysées / Saguenéens","stopId":"1:84","stopCode":"84","lon":-71.05132,"lat":48.402083,"arrival":1522708259000,"departure":1522708260000,"zoneId":"NA","stopIndex":19,"stopSequence":20,"vertexType":"TRANSIT"},"to":{"name":"Destination","lon":-71.051268,"lat":48.400532,"arrival":1522708400000,"orig":"","vertexType":"NORMAL"},"legGeometry":{"points":"cplfHxdtpL^KTGp@U|AOf@D|@D@?N@","length":9},"rentedBike":false,"transitLeg":false,"duration":140.0,"steps":[{"distance":18.192,"relativeDirection":"DEPART","streetName":"Rue des Champs-Élysées","absoluteDirection":"SOUTH","stayOn":false,"area":false,"bogusName":false,"lon":-71.05116509910528,"lat":48.402107765696,"elevation":[]},{"distance":161.42000000000002,"relativeDirection":"CONTINUE","streetName":"Rue des Engoulevents","absoluteDirection":"SOUTH","stayOn":false,"area":false,"bogusName":false,"lon":-71.0511074,"lat":48.401948700000005,"elevation":[]}]}],"tooSloped":false}]},"debugOutput":{"precalculationTime":50,"pathCalculationTime":34,"pathTimes":[16,9,8],"renderingTime":0,"totalTime":84,"timedOut":false},"elevationMetadata":{"ellipsoidToGeoidDifference":-28.885904201182168,"geoidElevation":false}}