{"requestParameters":{"date":"2018/04/02","walkSpeed":"1.33","walkReluctance":"2.0","fromPlace":"48.380278,-71.084128","maxWalkDistance":"3000","waitReluctance":"1.0","carSpeed":"33","numItineraries":"3","waitAtBeginningFactor":"0.4","mode":"TRANSIT,WALK","ignoreRealtimeUpdates":"false","stairsReluctance":"2.0","toPlace":"48.400532,-71.051268","time":"15:30:00"},"plan":{"date":1522697400000,"from":{"name":"Origin","lon":-71.084128,"lat":48.380278,"orig":"","vertexType":"NORMAL"},"to":{"name":"Destination","lon":-71.051268,"lat":48.400532,"orig":"","vertexType":"NORMAL"},"itineraries":[{"duration":1827,"startTime":1522697761000,"endTime":1522699588000,"walkTime":1225,"transitTime":600,"waitingTime":2,"walkDistance":1562.7913984878705,"walkLimitExceeded":false,"elevationLost":0.0,"elevationGained":0.0,"transfers":0,"legs":[{"startTime":1522697761000,"endTime":1522698299000,"departureDelay":0,"arrivalDelay":0,"realTime":false,"distance":688.744,"pathway":false,"mode":"WALK","route":"","agencyTimeZoneOffset":-14400000,"interlineWithPreviousLeg":false,"from":{"name":"Origin","lon":-71.084128,"lat":48.380278,"departure":1522697761000,"orig":"","vertexType":"NORMAL"},"to":{"name":"COSTCO","stopId":"1:1710","stopCode":"1710","lon":-71.085767,"lat":48.382333,"arrival":1522698299000,"departure":1522698300000,"zoneId":"NA","stopIndex":0,"stopSequence":1,"vertexType":"TRANSIT"},"legGeometry":{"points":"ohhfH|qzpL~@}BpA_DZcAPu@s@rA{@jBs@`B}BdGINUh@mCbHuBaC","length":13},"rentedBike":false,"transitLeg":false,"duration":538.0,"steps":[{"distance":473.421,"relativeDirection":"DEPART","streetName":"Boulevard du Royaume Est","absoluteDirection":"SOUTHEAST","stayOn":false,"area":false,"bogusName":false,"lon":-71.08398536646352,"lat":48.38040296315507,"elevation":[]},{"distance":134.097,"relativeDirection":"CONTINUE","streetName":"Boulevard du Royaume Ouest","absoluteDirection":"NORTHWEST","stayOn":false,"area":false,"bogusName":false,"lon":-71.0849956,"lat":48.381051600000006,"elevation":[]},{"distance":81.226,"relativeDirection":"RIGHT","streetName":"service road","absoluteDirection":"NORTHEAST","stayOn":false,"area":false,"bogusName":true,"lon":-71.0864598,"lat":48.381764800000006,"elevation":[]}]},{"startTime":1522698300000,"endTime":1522698900000,"departureDelay":0,"arrivalDelay":0,"realTime":false,"distance":3532.3490999365067,"pathway":false,"mode":"BUS","route":"175","agencyName":"Société de Transport du Saguenay","agencyUrl":"http://ville.saguenay.ca/fr/services-aux-citoyens/transport-sts","agencyTimeZoneOffset":-14400000,"routeColor":"FF00FF","routeType":3,"routeId":"1:175","routeTextColor":"FFFFFF","interlineWithPreviousLeg":false,"tripBlockId":"10","headsign":"Terminus Chicoutimi","agencyId":"0","tripId":"1:217445","serviceDate":"20180402","from":{"name":"COSTCO","stopId":"1:1710","stopCode":"1710","lon":-71.085767,"lat":48.382333,"arrival":1522698299000,"departure":1522698300000,"zoneId":"NA","stopIndex":0,"stopSequence":1,"vertexType":"TRANSIT"},"to":{"name":"Place Royaume","stopId":"1:1801","stopCode":"1801","lon":-71.057017,"lat":48.405588,"arrival":1522698900000,"departure":1522698901000,"zoneId":"NA","stopIndex":10,"stopSequence":11,"vertexType":"TRANSIT"},"legGeometry":{"points":"euhfHt|zpL_BiBsCoDwCqDrCsGN_@uEoFoEiFUWSUqCwC]a@{ByC{@cAkJuKoAwA_CeCeExJ~AlB`@mAu@k@}@q@|C}Iw@}@aO_QkEsEiAoAgEsFkFsHqJ_N}FkImPkOuO{N","length":33},"routeShortName":"175","routeLongName":"Term. Chic / Costco","rentedBike":false,"transitLeg":true,"duration":600.0,"steps":[]},{"startTime":1522698901000,"endTime":1522699588000,"departureDelay":0,"arrivalDelay":0,"realTime":false,"distance":873.788,"pathway":false,"mode":"WALK","route":"","agencyTimeZoneOffset":-14400000,"interlineWithPreviousLeg":false,"from":{"name":"Place Royaume","stopId":"1:1801","stopCode":"1801","lon":-71.057017,"lat":48.405588,"arrival":1522698900000,"departure":1522698901000,"zoneId":"NA","stopIndex":10,"stopSequence":11,"vertexType":"TRANSIT"},"to":{"name":"Destination","lon":-71.051268,"lat":48.400532,"arrival":1522699588000,"orig":"","vertexType":"NORMAL"},"legGeometry":{"points":"memfHriupL`@{Ap@uBYUb@_B?q@O]WWzCgKp@{BRH\\EA{Ad@MNGrBm@jEiA^KTGp@U|AOf@D|@D@?N@","length":25},"rentedBike":false,"transitLeg":false,"duration":687.0,"steps":[{"distance":90.318,"relativeDirection":"DEPART","streetName":"parking aisle","absoluteDirection":"SOUTHEAST","stayOn":false,"area":false,"bogusName":true,"lon":-71.0570537,"lat":48.405519700000006,"elevation":[]},{"distance":105.386,"relativeDirection":"LEFT","streetName":"service road","absoluteDirection":"NORTHEAST","stayOn":true,"area":false,"bogusName":true,"lon":-71.05600720000001,"lat":48.4050992,"elevation":[]},{"distance":284.657,"relativeDirection":"RIGHT","streetName":"path","absoluteDirection":"SOUTHEAST","stayOn":true,"area":false,"bogusName":true,"lon":-71.054893,"lat":48.4052475,"elevation":[]},{"distance":232.007,"relativeDirection":"RIGHT","streetName":"Rue des Champs-Élysées","absoluteDirection":"SOUTH","stayOn":false,"area":false,"bogusName":false,"lon":-71.0518792,"lat":48.4039711,"elevation":[]},{"distance":161.42000000000002,"relativeDirection":"CONTINUE","streetName":"Rue des Engoulevents","absoluteDirection":"SOUTH","stayOn":false,"area":false,"bogusName":false,"lon":-71.0511074,"lat":48.401948700000005,"elevation":[]}]}],"tooSloped":false},{"duration":1827,"startTime":1522698661000,"endTime":1522700488000,"walkTime":1225,"transitTime":600,"waitingTime":2,"walkDistance":1562.7913984878705,"walkLimitExceeded":false,"elevationLost":0.0,"elevationGained":0.0,"transfers":0,"legs":[{"startTime":1522698661000,"endTime":1522699199000,"departureDelay":0,"arrivalDelay":0,"realTime":false,"distance":688.744,"pathway":false,"mode":"WALK","route":"","agencyTimeZoneOffset":-14400000,"interlineWithPreviousLeg":false,"from":{"name":"Origin","lon":-71.084128,"lat":48.380278,"departure":1522698661000,"orig":"","vertexType":"NORMAL"},"to":{"name":"COSTCO","stopId":"1:1710","stopCode":"1710","lon":-71.085767,"lat":48.382333,"arrival":1522699199000,"departure":1522699200000,"zoneId":"NA","stopIndex":0,"stopSequence":1,"vertexType":"TRANSIT"},"legGeometry":{"points":"ohhfH|qzpL~@}BpA_DZcAPu@s@rA{@jBs@`B}BdGINUh@mCbHuBaC","length":13},"rentedBike":false,"transitLeg":false,"duration":538.0,"steps":[{"distance":473.421,"relativeDirection":"DEPART","streetName":"Boulevard du Royaume Est","absoluteDirection":"SOUTHEAST","stayOn":false,"area":false,"bogusName":false,"lon":-71.08398536646352,"lat":48.38040296315507,"elevation":[]},{"distance":134.097,"relativeDirection":"CONTINUE","streetName":"Boulevard du Royaume Ouest","absoluteDirection":"NORTHWEST","stayOn":false,"area":false,"bogusName":false,"lon":-71.0849956,"lat":48.381051600000006,"elevation":[]},{"distance":81.226,"relativeDirection":"RIGHT","streetName":"service road","absoluteDirection":"NORTHEAST","stayOn":false,"area":false,"bogusName":true,"lon":-71.0864598,"lat":48.381764800000006,"elevation":[]}]},{"startTime":1522699200000,"endTime":1522699800000,"departureDelay":0,"arrivalDelay":0,"realTime":false,"distance":3532.3490999365067,"pathway":false,"mode":"BUS","route":"175","agencyName":"Société de Transport du Saguenay","agencyUrl":"http://ville.saguenay.ca/fr/services-aux-citoyens/transport-sts","agencyTimeZoneOffset":-14400000,"routeColor":"FF00FF","routeType":3,"routeId":"1:175","routeTextColor":"FFFFFF","interlineWithPreviousLeg":false,"tripBlockId":"77","headsign":"Terminus Chicoutimi","agencyId":"0","tripId":"1:218636","serviceDate":"20180402","from":{"name":"COSTCO","stopId":"1:1710","stopCode":"1710","lon":-71.085767,"lat":48.382333,"arrival":1522699199000,"departure":1522699200000,"zoneId":"NA","stopIndex":0,"stopSequence":1,"vertexType":"TRANSIT"},"to":{"name":"Place Royaume","stopId":"1:1801","stopCode":"1801","lon":-71.057017,"lat":48.405588,"arrival":1522699800000,"departure":1522699801000,"zoneId":"NA","stopIndex":10,"stopSequence":11,"vertexType":"TRANSIT"},"legGeometry":{"points":"euhfHt|zpL_BiBsCoDwCqDrCsGN_@uEoFoEiFUWSUqCwC]a@{ByC{@cAkJuKoAwA_CeCeExJ~AlB`@mAu@k@}@q@|C}Iw@}@aO_QkEsEiAoAgEsFkFsHqJ_N}FkImPkOuO{N","length":33},"routeShortName":"175","routeLongName":"Term. Chic / Costco","rentedBike":false,"transitLeg":true,"duration":600.0,"steps":[]},{"startTime":1522699801000,"endTime":1522700488000,"departureDelay":0,"arrivalDelay":0,"realTime":false,"distance":873.788,"pathway":false,"mode":"WALK","route":"","agencyTimeZoneOffset":-14400000,"interlineWithPreviousLeg":false,"from":{"name":"Place Royaume","stopId":"1:1801","stopCode":"1801","lon":-71.057017,"lat":48.405588,"arrival":1522699800000,"departure":1522699801000,"zoneId":"NA","stopIndex":10,"stopSequence":11,"vertexType":"TRANSIT"},"to":{"name":"Destination","lon":-71.051268,"lat":48.400532,"arrival":1522700488000,"orig":"","vertexType":"NORMAL"},"legGeometry":{"points":"memfHriupL`@{Ap@uBYUb@_B?q@O]WWzCgKp@{BRH\\EA{Ad@MNGrBm@jEiA^KTGp@U|AOf@D|@D@?N@","length":25},"rentedBike":false,"transitLeg":false,"duration":687.0,"steps":[{"distance":90.318,"relativeDirection":"DEPART","streetName":"parking aisle","absoluteDirection":"SOUTHEAST","stayOn":false,"area":false,"bogusName":true,"lon":-71.0570537,"lat":48.405519700000006,"elevation":[]},{"distance":105.386,"relativeDirection":"LEFT","streetName":"service road","absoluteDirection":"NORTHEAST","stayOn":true,"area":false,"bogusName":true,"lon":-71.05600720000001,"lat":48.4050992,"elevation":[]},{"distance":284.657,"relativeDirection":"RIGHT","streetName":"path","absoluteDirection":"SOUTHEAST","stayOn":true,"area":false,"bogusName":true,"lon":-71.054893,"lat":48.4052475,"elevation":[]},{"distance":232.007,"relativeDirection":"RIGHT","streetName":"Rue des Champs-Élysées","absoluteDirection":"SOUTH","stayOn":false,"area":false,"bogusName":false,"lon":-71.0518792,"lat":48.4039711,"elevation":[]},{"distance":161.42000000000002,"relativeDirection":"CONTINUE","streetName":"Rue des Engoulevents","absoluteDirection":"SOUTH","stayOn":false,"area":false,"bogusName":false,"lon":-71.0511074,"lat":48.401948700000005,"elevation":[]}]}],"tooSloped":false},{"duration":1827,"startTime":1522699561000,"endTime":1522701388000,"walkTime":1225,"transitTime":600,"waitingTime":2,"walkDistance":1562.7913984878705,"walkLimitExceeded":false,"elevationLost":0.0,"elevationGained":0.0,"transfers":0,"legs":[{"startTime":1522699561000,"endTime":1522700099000,"departureDelay":0,"arrivalDelay":0,"realTime":false,"distance":688.744,"pathway":false,"mode":"WALK","route":"","agencyTimeZoneOffset":-14400000,"interlineWithPreviousLeg":false,"from":{"name":"Origin","lon":-71.084128,"lat":48.380278,"departure":1522699561000,"orig":"","vertexType":"NORMAL"},"to":{"name":"COSTCO","stopId":"1:1710","stopCode":"1710","lon":-71.085767,"lat":48.382333,"arrival":1522700099000,"departure":1522700100000,"zoneId":"NA","stopIndex":0,"stopSequence":1,"vertexType":"TRANSIT"},"legGeometry":{"points":"ohhfH|qzpL~@}BpA_DZcAPu@s@rA{@jBs@`B}BdGINUh@mCbHuBaC","length":13},"rentedBike":false,"transitLeg":false,"duration":538.0,"steps":[{"distance":473.421,"relativeDirection":"DEPART","streetName":"Boulevard du Royaume Est","absoluteDirection":"SOUTHEAST","stayOn":false,"area":false,"bogusName":false,"lon":-71.08398536646352,"lat":48.38040296315507,"elevation":[]},{"distance":134.097,"relativeDirection":"CONTINUE","streetName":"Boulevard du Royaume Ouest","absoluteDirection":"NORTHWEST","stayOn":false,"area":false,"bogusName":false,"lon":-71.0849956,"lat":48.381051600000006,"elevation":[]},{"distance":81.226,"relativeDirection":"RIGHT","streetName":"service road","absoluteDirection":"NORTHEAST","stayOn":false,"area":false,"bogusName":true,"lon":-71.0864598,"lat":48.381764800000006,"elevation":[]}]},{"startTime":1522700100000,"endTime":1522700700000,"departureDelay":0,"arrivalDelay":0,"realTime":false,"distance":3532.3490999365067,"pathway":false,"mode":"BUS","route":"175","agencyName":"Société de Transport du Saguenay","agencyUrl":"http://ville.saguenay.ca/fr/services-aux-citoyens/transport-sts","agencyTimeZoneOffset":-14400000,"routeColor":"FF00FF","routeType":3,"routeId":"1:175","routeTextColor":"FFFFFF","interlineWithPreviousLeg":false,"tripBlockId":"9","headsign":"Terminus Chicoutimi","agencyId":"0","tripId":"1:217411","serviceDate":"20180402","from":{"name":"COSTCO","stopId":"1:1710","stopCode":"1710","lon":-71.085767,"lat":48.382333,"arrival":1522700099000,"departure":1522700100000,"zoneId":"NA","stopIndex":0,"stopSequence":1,"vertexType":"TRANSIT"},"to":{"name":"Place Royaume","stopId":"1:1801","stopCode":"1801","lon":-71.057017,"lat":48.405588,"arrival":1522700700000,"departure":1522700701000,"zoneId":"NA","stopIndex":10,"stopSequence":11,"vertexType":"TRANSIT"},"legGeometry":{"points":"euhfHt|zpL_BiBsCoDwCqDrCsGN_@uEoFoEiFUWSUqCwC]a@{ByC{@cAkJuKoAwA_CeCeExJ~AlB`@mAu@k@}@q@|C}Iw@}@aO_QkEsEiAoAgEsFkFsHqJ_N}FkImPkOuO{N","length":33},"routeShortName":"175","routeLongName":"Term. Chic / Costco","rentedBike":false,"transitLeg":true,"duration":600.0,"steps":[]},{"startTime":1522700701000,"endTime":1522701388000,"departureDelay":0,"arrivalDelay":0,"realTime":false,"distance":873.788,"pathway":false,"mode":"WALK","route":"","agencyTimeZoneOffset":-14400000,"interlineWithPreviousLeg":false,"from":{"name":"Place Royaume","stopId":"1:1801","stopCode":"1801","lon":-71.057017,"lat":48.405588,"arrival":1522700700000,"departure":1522700701000,"zoneId":"NA","stopIndex":10,"stopSequence":11,"vertexType":"TRANSIT"},"to":{"name":"Destination","lon":-71.051268,"lat":48.400532,"arrival":1522701388000,"orig":"","vertexType":"NORMAL"},"legGeometry":{"points":"memfHriupL`@{Ap@uBYUb@_B?q@O]WWzCgKp@{BRH\\EA{Ad@MNGrBm@jEiA^KTGp@U|AOf@D|@D@?N@","length":25},"rentedBike":false,"transitLeg":false,"duration":687.0,"steps":[{"distance":90.318,"relativeDirection":"DEPART","streetName":"parking aisle","absoluteDirection":"SOUTHEAST","stayOn":false,"area":false,"bogusName":true,"lon":-71.0570537,"lat":48.405519700000006,"elevation":[]},{"distance":105.386,"relativeDirection":"LEFT","streetName":"service road","absoluteDirection":"NORTHEAST","stayOn":true,"area":false,"bogusName":true,"lon":-71.05600720000001,"lat":48.4050992,"elevation":[]},{"distance":284.657,"relativeDirection":"RIGHT","streetName":"path","absoluteDirection":"SOUTHEAST","stayOn":true,"area":false,"bogusName":true,"lon":-71.054893,"lat":48.4052475,"elevation":[]},{"distance":232.007,"relativeDirection":"RIGHT","streetName":"Rue des Champs-Élysées","absoluteDirection":"SOUTH","stayOn":false,"area":false,"bogusName":false,"lon":-71.0518792,"lat":48.4039711,"elevation":[]},{"distance":161.42000000000002,"relativeDirection":"CONTINUE","streetName":"Rue des Engoulevents","absoluteDirection":"SOUTH","stayOn":false,"area":false,"bogusName":false,"lon":-71.0511074,"lat":48.401948700000005,"elevation":[]}]}],"tooSloped":false}]},"debugOutput":{"precalculationTime":21,"pathCalculationTime":14,"pathTimes":[5,8,1],"renderingTime":1,"totalTime":36,"timedOut":false},"elevationMetadata":{"ellipsoidToGeoidDifference":-28.885904201182168,"geoidElevation":false}}