{"requestParameters":{"date":"2018/04/02","walkSpeed":"1.33","walkReluctance":"2.0","fromPlace":"48.418729,-71.053021","maxWalkDistance":"3000","waitReluctance":"1.0","carSpeed":"33","numItineraries":"3","waitAtBeginningFactor":"0.4","mode":"TRANSIT,WALK","ignoreRealtimeUpdates":"false","stairsReluctance":"2.0","toPlace":"48.444119,-71.080494","time":"11:0:00"},"plan":{"date":1522681200000,"from":{"name":"Origin","lon":-71.053021,"lat":48.418729,"orig":"","vertexType":"NORMAL"},"to":{"name":"Destination","lon":-71.080494,"lat":48.444119,"orig":"","vertexType":"NORMAL"},"itineraries":[{"duration":1601,"startTime":1522682781000,"endTime":1522684382000,"walkTime":440,"transitTime":739,"waitingTime":422,"walkDistance":551.9674661610101,"walkLimitExceeded":false,"elevationLost":0.0,"elevationGained":0.0,"transfers":1,"legs":[{"startTime":1522682781000,"endTime":1522683059000,"departureDelay":0,"arrivalDelay":0,"realTime":false,"distance":348.519,"pathway":false,"mode":"WALK","route":"","agencyTimeZoneOffset":-14400000,"interlineWithPreviousLeg":false,"from":{"name":"Origin","lon":-71.053021,"lat":48.418729,"departure":1522682781000,"orig":"","vertexType":"NORMAL"},"to":{"name":"Terminus UQAC","stopId":"1:1670","stopCode":"1670","lon":-71.053369,"lat":48.420903,"arrival":1522683059000,"departure":1522683060000,"zoneId":"NA","stopIndex":29,"stopSequence":30,"vertexType":"TRANSIT"},"legGeometry":{"points":"mwofHbotpLwBuBCA_AaAq@XYz@Ur@e@vAg@vAUp@cAaA","length":11},"rentedBike":false,"transitLeg":false,"duration":278.0,"steps":[{"distance":281.082,"relativeDirection":"DEPART","streetName":"path","absoluteDirection":"NORTHEAST","stayOn":false,"area":false,"bogusName":false,"lon":-71.05281450938897,"lat":48.41863935175929,"elevation":[]},{"distance":67.437,"relativeDirection":"CONTINUE","streetName":"service road","absoluteDirection":"NORTHWEST","stayOn":false,"area":false,"bogusName":true,"lon":-71.05345460000001,"lat":48.4204518,"elevation":[]}]},{"startTime":1522683060000,"endTime":1522683480000,"departureDelay":0,"arrivalDelay":0,"realTime":false,"distance":1693.0482748587774,"pathway":false,"mode":"BUS","route":"14","agencyName":"Société de Transport du Saguenay","agencyUrl":"http://ville.saguenay.ca/fr/services-aux-citoyens/transport-sts","agencyTimeZoneOffset":-14400000,"routeColor":"C0C000","routeType":3,"routeId":"1:14","routeTextColor":"000000","interlineWithPreviousLeg":false,"tripBlockId":"31","headsign":"Terminus Chicoutimi","agencyId":"0","tripId":"1:218131","serviceDate":"20180402","from":{"name":"Terminus UQAC","stopId":"1:1670","stopCode":"1670","lon":-71.053369,"lat":48.420903,"arrival":1522683059000,"departure":1522683060000,"zoneId":"NA","stopIndex":29,"stopSequence":30,"vertexType":"TRANSIT"},"to":{"name":"Terminus Chicoutimi","stopId":"1:1289","stopCode":"1289","lon":-71.066163,"lat":48.428677,"arrival":1522683480000,"departure":1522683900000,"zoneId":"NA","stopIndex":37,"stopSequence":38,"vertexType":"TRANSIT"},"legGeometry":{"points":"_epfH`qtpLGIoCkCgBgBsDpLHzBBT`@~COnBQf@gAjAg@bBuDmDmFgFa@_@w@s@CfAOrBEtAGbA?jBQtC?|@ExKMdIG~EUnLEhC}CKkBOkCOYbC","length":32},"routeShortName":"14","routeLongName":"Coopérative","rentedBike":false,"transitLeg":true,"duration":420.0,"steps":[]},{"startTime":1522683900000,"endTime":1522684219000,"departureDelay":0,"arrivalDelay":0,"realTime":false,"distance":2130.322985965611,"pathway":false,"mode":"BUS","route":"23","agencyName":"Société de Transport du Saguenay","agencyUrl":"http://ville.saguenay.ca/fr/services-aux-citoyens/transport-sts","agencyTimeZoneOffset":-14400000,"routeColor":"FF00FF","routeType":3,"routeId":"1:23","routeTextColor":"FFFFFF","interlineWithPreviousLeg":false,"tripBlockId":"5","headsign":"Terminus Chicoutimi","agencyId":"0","tripId":"1:217260","serviceDate":"20180402","from":{"name":"Terminus Chicoutimi","stopId":"1:1289","stopCode":"1289","lon":-71.066163,"lat":48.428677,"arrival":1522683480000,"departure":1522683900000,"zoneId":"NA","stopIndex":0,"stopSequence":1,"vertexType":"TRANSIT"},"to":{"name":"Place de la Colline (boul. Ste-Geneviève)","stopId":"1:706","stopCode":"706","lon":-71.080094,"lat":48.44485,"arrival":1522684219000,"departure":1522684220000,"zoneId":"NA","stopIndex":2,"stopSequence":3,"vertexType":"TRANSIT"},"legGeometry":{"points":"kwqfHjbwpLF_CkAOYCm@rRO\\WjGOfGCRK^KJMHQB_AMg@Gw`@eR}@g@u@Su@Ia@Ck@Dm@HwAf@c@VeAx@iAlAU^[d@eLtTsAvB_CvEuAnCmBlE}@|B_BvFoC`J","length":36},"routeShortName":"23","routeLongName":"Côte Verdun via Aréna du Plateau","rentedBike":false,"transitLeg":true,"duration":319.0,"steps":[]},{"startTime":1522684220000,"endTime":1522684382000,"departureDelay":0,"arrivalDelay":0,"realTime":false,"distance":203.312,"pathway":false,"mode":"WALK","route":"","agencyTimeZoneOffset":-14400000,"interlineWithPreviousLeg":false,"from":{"name":"Place de la Colline (boul. Ste-Geneviève)","stopId":"1:706","stopCode":"706","lon":-71.080094,"lat":48.44485,"arrival":1522684219000,"departure":1522684220000,"zoneId":"NA","stopIndex":2,"stopSequence":3,"vertexType":"TRANSIT"},"to":{"name":"Destination","lon":-71.080494,"lat":48.444119,"arrival":1522684382000,"orig":"","vertexType":"NORMAL"},"legGeometry":{"points":"a{tfHxyypLdBkFPRmAhE","length":4},"rentedBike":false,"transitLeg":false,"duration":162.0,"steps":[{"distance":103.974,"relativeDirection":"DEPART","streetName":"Boulevard Sainte-Geneviève","absoluteDirection":"SOUTHEAST","stayOn":false,"area":false,"bogusName":false,"lon":-71.08012797466124,"lat":48.44481509343017,"elevation":[]},{"distance":99.338,"relativeDirection":"UTURN_RIGHT","streetName":"Boulevard Sainte-Geneviève","absoluteDirection":"NORTHWEST","stayOn":true,"area":false,"bogusName":false,"lon":-71.0790497,"lat":48.4442132,"elevation":[]}]}],"tooSloped":false},{"duration":1620,"startTime":1522682781000,"endTime":1522684401000,"walkTime":440,"transitTime":758,"waitingTime":422,"walkDistance":551.9674661610101,"walkLimitExceeded":false,"elevationLost":0.0,"elevationGained":0.0,"transfers":1,"legs":[{"startTime":1522682781000,"endTime":1522683059000,"departureDelay":0,"arrivalDelay":0,"realTime":false,"distance":348.519,"pathway":false,"mode":"WALK","route":"","agencyTimeZoneOffset":-14400000,"interlineWithPreviousLeg":false,"from":{"name":"Origin","lon":-71.053021,"lat":48.418729,"departure":1522682781000,"orig":"","vertexType":"NORMAL"},"to":{"name":"Terminus UQAC","stopId":"1:1670","stopCode":"1670","lon":-71.053369,"lat":48.420903,"arrival":1522683059000,"departure":1522683060000,"zoneId":"NA","stopIndex":29,"stopSequence":30,"vertexType":"TRANSIT"},"legGeometry":{"points":"mwofHbotpLwBuBCA_AaAq@XYz@Ur@e@vAg@vAUp@cAaA","length":11},"rentedBike":false,"transitLeg":false,"duration":278.0,"steps":[{"distance":281.082,"relativeDirection":"DEPART","streetName":"path","absoluteDirection":"NORTHEAST","stayOn":false,"area":false,"bogusName":false,"lon":-71.05281450938897,"lat":48.41863935175929,"elevation":[]},{"distance":67.437,"relativeDirection":"CONTINUE","streetName":"service road","absoluteDirection":"NORTHWEST","stayOn":false,"area":false,"bogusName":true,"lon":-71.05345460000001,"lat":48.4204518,"elevation":[]}]},{"startTime":1522683060000,"endTime":1522683480000,"departureDelay":0,"arrivalDelay":0,"realTime":false,"distance":1953.854830020236,"pathway":false,"mode":"BUS","route":"15","agencyName":"Société de Transport du Saguenay","agencyUrl":"http://ville.saguenay.ca/fr/services-aux-citoyens/transport-sts","agencyTimeZoneOffset":-14400000,"routeColor":"FF00FF","routeType":3,"routeId":"1:15","routeTextColor":"FFFFFF","interlineWithPreviousLeg":false,"tripBlockId":"30","headsign":"Terminus Chicoutimi","agencyId":"0","tripId":"1:218096","serviceDate":"20180402","from":{"name":"Terminus UQAC","stopId":"1:1670","stopCode":"1670","lon":-71.053369,"lat":48.420903,"arrival":1522683059000,"departure":1522683060000,"zoneId":"NA","stopIndex":29,"stopSequence":30,"vertexType":"TRANSIT"},"to":{"name":"Terminus Chicoutimi","stopId":"1:1289","stopCode":"1289","lon":-71.066163,"lat":48.428677,"arrival":1522683480000,"departure":1522683900000,"zoneId":"NA","stopIndex":39,"stopSequence":40,"vertexType":"TRANSIT"},"legGeometry":{"points":"sepfHprtpLy@w@L{@wAuA_B_B_EpLDh@NbBVvCIxBg@`Am@l@Sb@a@rAqDqDmEkE]a@kAqAU|@WnKG|DGxDOdPKvJU|F?XQlJC~@ChAIzEcCOaIi@VwL","length":33},"routeShortName":"15","routeLongName":"Term. Chic / Costco","rentedBike":false,"transitLeg":true,"duration":420.0,"steps":[]},{"startTime":1522683900000,"endTime":1522684238000,"departureDelay":0,"arrivalDelay":0,"realTime":false,"distance":2130.322985965611,"pathway":false,"mode":"BUS","route":"21","agencyName":"Société de Transport du Saguenay","agencyUrl":"http://ville.saguenay.ca/fr/services-aux-citoyens/transport-sts","agencyTimeZoneOffset":-14400000,"routeColor":"556B2F","routeType":3,"routeId":"1:21","routeTextColor":"FFFFFF","interlineWithPreviousLeg":false,"tripBlockId":"2","headsign":"Terminus Chicoutimi","agencyId":"0","tripId":"1:217166","serviceDate":"20180402","from":{"name":"Terminus Chicoutimi","stopId":"1:1289","stopCode":"1289","lon":-71.066163,"lat":48.428677,"arrival":1522683480000,"departure":1522683900000,"zoneId":"NA","stopIndex":0,"stopSequence":1,"vertexType":"TRANSIT"},"to":{"name":"Place de la Colline (boul. Ste-Geneviève)","stopId":"1:706","stopCode":"706","lon":-71.080094,"lat":48.44485,"arrival":1522684238000,"departure":1522684239000,"zoneId":"NA","stopIndex":2,"stopSequence":3,"vertexType":"TRANSIT"},"legGeometry":{"points":"kwqfHjbwpLF_CeBSm@rRO\\WjGOfGCRK^KJMHQB_AMg@Gw`@eR}@g@u@Su@Ia@Ck@Dm@HwAf@c@VeAx@iAlAU^[d@eLtTsAvB_CvEuAnCmBlE}@|B_BvFoC`J","length":35},"routeShortName":"21","routeLongName":"Boul. Ste-Geneviève/Élie","rentedBike":false,"transitLeg":true,"duration":338.0,"steps":[]},{"startTime":1522684239000,"endTime":1522684401000,"departureDelay":0,"arrivalDelay":0,"realTime":false,"distance":203.312,"pathway":false,"mode":"WALK","route":"","agencyTimeZoneOffset":-14400000,"interlineWithPreviousLeg":false,"from":{"name":"Place de la Colline (boul. Ste-Geneviève)","stopId":"1:706","stopCode":"706","lon":-71.080094,"lat":48.44485,"arrival":1522684238000,"departure":1522684239000,"zoneId":"NA","stopIndex":2,"stopSequence":3,"vertexType":"TRANSIT"},"to":{"name":"Destination","lon":-71.080494,"lat":48.444119,"arrival":1522684401000,"orig":"","vertexType":"NORMAL"},"legGeometry":{"points":"a{tfHxyypLdBkFPRmAhE","length":4},"rentedBike":false,"transitLeg":false,"duration":162.0,"steps":[{"distance":103.974,"relativeDirection":"DEPART","streetName":"Boulevard Sainte-Geneviève","absoluteDirection":"SOUTHEAST","stayOn":false,"area":false,"bogusName":false,"lon":-71.08012797466124,"lat":48.44481509343017,"elevation":[]},{"distance":99.338,"relativeDirection":"UTURN_RIGHT","streetName":"Boulevard Sainte-Geneviève","absoluteDirection":"NORTHWEST","stayOn":true,"area":false,"bogusName":false,"lon":-71.0790497,"lat":48.4442132,"elevation":[]}]}],"tooSloped":false},{"duration":983,"startTime":1522684854000,"endTime":1522685837000,"walkTime":287,"transitTime":694,"waitingTime":2,"walkDistance":353.19090976914714,"walkLimitExceeded":false,"elevationLost":0.0,"elevationGained":0.0,"transfers":0,"legs":[{"startTime":1522684854000,"endTime":1522684979000,"departureDelay":0,"arrivalDelay":0,"realTime":false,"distance":149.715,"pathway":false,"mode":"WALK","route":"","agencyTimeZoneOffset":-14400000,"interlineWithPreviousLeg":false,"from":{"name":"Origin","lon":-71.053021,"lat":48.418729,"departure":1522684854000,"orig":"","vertexType":"NORMAL"},"to":{"name":"Université du Québec à Chicoutimi","stopId":"1:63","stopCode":"63","lon":-71.051623,"lat":48.419503,"arrival":1522684979000,"departure":1522684980000,"zoneId":"NA","stopIndex":0,"stopSequence":1,"vertexType":"TRANSIT"},"legGeometry":{"points":"mwofHbotpLwBuBCA_AaATIQQ","length":6},"rentedBike":false,"transitLeg":false,"duration":125.0,"steps":[{"distance":137.92600000000002,"relativeDirection":"DEPART","streetName":"path","absoluteDirection":"NORTHEAST","stayOn":false,"area":false,"bogusName":false,"lon":-71.05281450938897,"lat":48.41863935175929,"elevation":[]},{"distance":11.789,"relativeDirection":"HARD_LEFT","streetName":"Rue de la Fondation","absoluteDirection":"NORTHEAST","stayOn":false,"area":false,"bogusName":false,"lon":-71.0518321,"lat":48.419468900000005,"elevation":[]}]},{"startTime":1522684980000,"endTime":1522685674000,"departureDelay":0,"arrivalDelay":0,"realTime":false,"distance":3948.525943204283,"pathway":false,"mode":"BUS","route":"65","agencyName":"Société de Transport du Saguenay","agencyUrl":"http://ville.saguenay.ca/fr/services-aux-citoyens/transport-sts","agencyTimeZoneOffset":-14400000,"routeColor":"00FFFF","routeType":3,"routeId":"1:65","routeTextColor":"000000","interlineWithPreviousLeg":false,"tripBlockId":"75","headsign":"Épicerie culinaire","agencyId":"0","tripId":"1:218626","serviceDate":"20180402","from":{"name":"Université du Québec à Chicoutimi","stopId":"1:63","stopCode":"63","lon":-71.051623,"lat":48.419503,"arrival":1522684979000,"departure":1522684980000,"zoneId":"NA","stopIndex":0,"stopSequence":1,"vertexType":"TRANSIT"},"to":{"name":"Place de la Colline (boul. Ste-Geneviève)","stopId":"1:706","stopCode":"706","lon":-71.080094,"lat":48.44485,"arrival":1522685674000,"departure":1522685675000,"zoneId":"NA","stopIndex":10,"stopSequence":11,"vertexType":"TRANSIT"},"legGeometry":{"points":"e}ofHjhtpLmCkCI@GHuCrIyA{AaBeBg@vAsClJAh@Bf@Hp@Hp@HdA@fA?h@O|@Ul@u@bAm@~AuDqDmEkE]a@kAqAU|@WnKG|DGxDOdPKvJU|F?XGbDgCO}BYkCSCn@m@EEnAWxLoBKCp@O\\WjGOfGCRK^KJMHQB_AMg@Gw`@eR}@g@u@Su@Ia@Ck@Dm@HwAf@c@VeAx@iAlAU^[d@eLtTsAvB_CvEuAnCmBlE}@|B_BvFoC`J","length":73},"routeShortName":"65","routeLongName":"Term. Chic / Shipshaw","rentedBike":false,"transitLeg":true,"duration":694.0,"steps":[]},{"startTime":1522685675000,"endTime":1522685837000,"departureDelay":0,"arrivalDelay":0,"realTime":false,"distance":203.312,"pathway":false,"mode":"WALK","route":"","agencyTimeZoneOffset":-14400000,"interlineWithPreviousLeg":false,"from":{"name":"Place de la Colline (boul. Ste-Geneviève)","stopId":"1:706","stopCode":"706","lon":-71.080094,"lat":48.44485,"arrival":1522685674000,"departure":1522685675000,"zoneId":"NA","stopIndex":10,"stopSequence":11,"vertexType":"TRANSIT"},"to":{"name":"Destination","lon":-71.080494,"lat":48.444119,"arrival":1522685837000,"orig":"","vertexType":"NORMAL"},"legGeometry":{"points":"a{tfHxyypLdBkFPRmAhE","length":4},"rentedBike":false,"transitLeg":false,"duration":162.0,"steps":[{"distance":103.974,"relativeDirection":"DEPART","streetName":"Boulevard Sainte-Geneviève","absoluteDirection":"SOUTHEAST","stayOn":false,"area":false,"bogusName":false,"lon":-71.08012797466124,"lat":48.44481509343017,"elevation":[]},{"distance":99.338,"relativeDirection":"UTURN_RIGHT","streetName":"Boulevard Sainte-Geneviève","absoluteDirection":"NORTHWEST","stayOn":true,"area":false,"bogusName":false,"lon":-71.0790497,"lat":48.4442132,"elevation":[]}]}],"tooSloped":false}]},"debugOutput":{"precalculationTime":38,"pathCalculationTime":66,"pathTimes":[27,19,20],"renderingTime":0,"totalTime":104,"timedOut":false},"elevationMetadata":{"ellipsoidToGeoidDifference":-28.885904201182168,"geoidElevation":false}}