{"requestParameters":{"date":"2018/04/02","walkSpeed":"1.33","walkReluctance":"2.0","fromPlace":"48.427696,-71.06017","maxWalkDistance":"3000","waitReluctance":"1.0","carSpeed":"33","numItineraries":"3","waitAtBeginningFactor":"0.4","mode":"TRANSIT,WALK","ignoreRealtimeUpdates":"false","stairsReluctance":"2.0","toPlace":"48.427726,-71.056876","time":"15:45:00"},"plan":{"date":1522698300000,"from":{"name":"Origin","lon":-71.06017,"lat":48.427696,"orig":"","vertexType":"NORMAL"},"to":{"name":"Destination","lon":-71.056876,"lat":48.427726,"orig":"","vertexType":"NORMAL"},"itineraries":[{"duration":106,"startTime":1522698321000,"endTime":1522698427000,"walkTime":86,"transitTime":18,"waitingTime":2,"walkDistance":107.22151127804993,"walkLimitExceeded":false,"elevationLost":0.0,"elevationGained":0.0,"transfers":0,"legs":[{"startTime":1522698321000,"endTime":1522698376000,"departureDelay":0,"arrivalDelay":0,"realTime":false,"distance":68.474,"pathway":false,"mode":"WALK","route":"","agencyTimeZoneOffset":-14400000,"interlineWithPreviousLeg":false,"from":{"name":"Origin","lon":-71.06017,"lat":48.427696,"departure":1522698321000,"orig":"","vertexType":"NORMAL"},"to":{"name":"Racine / Havre","stopId":"1:1639","stopCode":"1639","lon":-71.059267,"lat":48.427469,"arrival":1522698376000,"departure":1522698377000,"zoneId":"NA","stopIndex":1,"stopSequence":2,"vertexType":"TRANSIT"},"legGeometry":{"points":"woqfHb}upL@a@DuAB_A","length":4},"rentedBike":false,"transitLeg":false,"duration":55.0,"steps":[{"distance":68.474,"relativeDirection":"DEPART","streetName":"Rue Racine Est","absoluteDirection":"EAST","stayOn":false,"area":false,"bogusName":false,"lon":-71.06017613692545,"lat":48.42764062990341,"elevation":[]}]},{"startTime":1522698377000,"endTime":1522698395000,"departureDelay":0,"arrivalDelay":0,"realTime":false,"distance":142.7811177237652,"pathway":false,"mode":"BUS","route":"12","agencyName":"Société de Transport du Saguenay","agencyUrl":"http://ville.saguenay.ca/fr/services-aux-citoyens/transport-sts","agencyTimeZoneOffset":-14400000,"routeColor":"556B2F","routeType":3,"routeId":"1:12","routeTextColor":"FFFFFF","interlineWithPreviousLeg":false,"tripBlockId":"27","headsign":"Terminus UQAC","agencyId":"0","tripId":"1:218018","serviceDate":"20180402","from":{"name":"Racine / Havre","stopId":"1:1639","stopCode":"1639","lon":-71.059267,"lat":48.427469,"arrival":1522698376000,"departure":1522698377000,"zoneId":"NA","stopIndex":1,"stopSequence":2,"vertexType":"TRANSIT"},"to":{"name":"Racine / Labrecque","stopId":"1:515","stopCode":"515","lon":-71.057333,"lat":48.427512,"arrival":1522698395000,"departure":1522698396000,"zoneId":"NA","stopIndex":2,"stopSequence":3,"vertexType":"TRANSIT"},"legGeometry":{"points":"snqfHlwupLIaK","length":2},"routeShortName":"12","routeLongName":"Rivière du Moulin","rentedBike":false,"transitLeg":true,"duration":18.0,"steps":[]},{"startTime":1522698396000,"endTime":1522698427000,"departureDelay":0,"arrivalDelay":0,"realTime":false,"distance":38.743,"pathway":false,"mode":"WALK","route":"","agencyTimeZoneOffset":-14400000,"interlineWithPreviousLeg":false,"from":{"name":"Racine / Labrecque","stopId":"1:515","stopCode":"515","lon":-71.057333,"lat":48.427512,"arrival":1522698395000,"departure":1522698396000,"zoneId":"NA","stopIndex":2,"stopSequence":3,"vertexType":"TRANSIT"},"to":{"name":"Destination","lon":-71.056876,"lat":48.427726,"arrival":1522698427000,"orig":"","vertexType":"NORMAL"},"legGeometry":{"points":"soqfHrkupLGk@Os@","length":3},"rentedBike":false,"transitLeg":false,"duration":31.0,"steps":[{"distance":38.743,"relativeDirection":"DEPART","streetName":"Rue Racine Est","absoluteDirection":"EAST","stayOn":false,"area":false,"bogusName":false,"lon":-71.05737919931526,"lat":48.42762116546726,"elevation":[]}]}],"tooSloped":false},{"duration":119,"startTime":1522698366000,"endTime":1522698485000,"walkTime":86,"transitTime":31,"waitingTime":2,"walkDistance":107.22151127804993,"walkLimitExceeded":false,"elevationLost":0.0,"elevationGained":0.0,"transfers":0,"legs":[{"startTime":1522698366000,"endTime":1522698421000,"departureDelay":0,"arrivalDelay":0,"realTime":false,"distance":68.474,"pathway":false,"mode":"WALK","route":"","agencyTimeZoneOffset":-14400000,"interlineWithPreviousLeg":false,"from":{"name":"Origin","lon":-71.06017,"lat":48.427696,"departure":1522698366000,"orig":"","vertexType":"NORMAL"},"to":{"name":"Racine / Havre","stopId":"1:1639","stopCode":"1639","lon":-71.059267,"lat":48.427469,"arrival":1522698421000,"departure":1522698422000,"zoneId":"NA","stopIndex":1,"stopSequence":2,"vertexType":"TRANSIT"},"legGeometry":{"points":"woqfHb}upL@a@DuAB_A","length":4},"rentedBike":false,"transitLeg":false,"duration":55.0,"steps":[{"distance":68.474,"relativeDirection":"DEPART","streetName":"Rue Racine Est","absoluteDirection":"EAST","stayOn":false,"area":false,"bogusName":false,"lon":-71.06017613692545,"lat":48.42764062990341,"elevation":[]}]},{"startTime":1522698422000,"endTime":1522698453000,"departureDelay":0,"arrivalDelay":0,"realTime":false,"distance":142.7811177237652,"pathway":false,"mode":"BUS","route":"175","agencyName":"Société de Transport du Saguenay","agencyUrl":"http://ville.saguenay.ca/fr/services-aux-citoyens/transport-sts","agencyTimeZoneOffset":-14400000,"routeColor":"FF00FF","routeType":3,"routeId":"1:175","routeTextColor":"FFFFFF","interlineWithPreviousLeg":false,"tripBlockId":"6","headsign":"Costco","agencyId":"0","tripId":"1:217303","serviceDate":"20180402","from":{"name":"Racine / Havre","stopId":"1:1639","stopCode":"1639","lon":-71.059267,"lat":48.427469,"arrival":1522698421000,"departure":1522698422000,"zoneId":"NA","stopIndex":1,"stopSequence":2,"vertexType":"TRANSIT"},"to":{"name":"Racine / Labrecque","stopId":"1:515","stopCode":"515","lon":-71.057333,"lat":48.427512,"arrival":1522698453000,"departure":1522698454000,"zoneId":"NA","stopIndex":2,"stopSequence":3,"vertexType":"TRANSIT"},"legGeometry":{"points":"_oqfHlwupLBkAOsH","length":3},"routeShortName":"175","routeLongName":"Term. Chic / Costco","rentedBike":false,"transitLeg":true,"duration":31.0,"steps":[]},{"startTime":1522698454000,"endTime":1522698485000,"departureDelay":0,"arrivalDelay":0,"realTime":false,"distance":38.743,"pathway":false,"mode":"WALK","route":"","agencyTimeZoneOffset":-14400000,"interlineWithPreviousLeg":false,"from":{"name":"Racine / Labrecque","stopId":"1:515","stopCode":"515","lon":-71.057333,"lat":48.427512,"arrival":1522698453000,"departure":1522698454000,"zoneId":"NA","stopIndex":2,"stopSequence":3,"vertexType":"TRANSIT"},"to":{"name":"Destination","lon":-71.056876,"lat":48.427726,"arrival":1522698485000,"orig":"","vertexType":"NORMAL"},"legGeometry":{"points":"soqfHrkupLGk@Os@","length":3},"rentedBike":false,"transitLeg":false,"duration":31.0,"steps":[{"distance":38.743,"relativeDirection":"DEPART","streetName":"Rue Racine Est","absoluteDirection":"EAST","stayOn":false,"area":false,"bogusName":false,"lon":-71.05737919931526,"lat":48.42762116546726,"elevation":[]}]}],"tooSloped":false},{"duration":193,"startTime":1522698300000,"endTime":1522698493000,"walkTime":193,"transitTime":0,"waitingTime":0,"walkDistance":246.53640601463727,"walkLimitExceeded":false,"elevationLost":0.0,"elevationGained":0.0,"transfers":0,"legs":[{"startTime":1522698300000,"endTime":1522698493000,"departureDelay":0,"arrivalDelay":0,"realTime":false,"distance":246.524,"pathway":false,"mode":"WALK","route":"","agencyTimeZoneOffset":-14400000,"interlineWithPreviousLeg":false,"from":{"name":"Origin","lon":-71.06017,"lat":48.427696,"departure":1522698300000,"orig":"","vertexType":"NORMAL"},"to":{"name":"Destination","lon":-71.056876,"lat":48.427726,"arrival":1522698493000,"orig":"","vertexType":"NORMAL"},"legGeometry":{"points":"woqfHb}upL@a@DuAB_A@_ABsB?K?mBMiAGk@Os@","length":11},"rentedBike":false,"transitLeg":false,"duration":193.0,"steps":[{"distance":246.524,"relativeDirection":"DEPART","streetName":"Rue Racine Est","absoluteDirection":"EAST","stayOn":false,"area":false,"bogusName":false,"lon":-71.06017613692545,"lat":48.42764062990341,"elevation":[]}]}],"tooSloped":false}]},"debugOutput":{"precalculationTime":49,"pathCalculationTime":14,"pathTimes":[4,8,2],"renderingTime":0,"totalTime":63,"timedOut":false},"elevationMetadata":{"ellipsoidToGeoidDifference":-28.885904201182168,"geoidElevation":false}}