{"requestParameters":{"date":"2018/04/02","walkSpeed":"1.33","walkReluctance":"2.0","fromPlace":"48.428762,-71.053601","maxWalkDistance":"3000","waitReluctance":"1.0","carSpeed":"33","numItineraries":"3","waitAtBeginningFactor":"0.4","mode":"TRANSIT,WALK","ignoreRealtimeUpdates":"false","stairsReluctance":"2.0","toPlace":"48.416382,-71.071111","time":"22:0:00"},"plan":{"date":1522720800000,"from":{"name":"Origin","lon":-71.053601,"lat":48.428762,"orig":"","vertexType":"NORMAL"},"to":{"name":"Destination","lon":-71.071111,"lat":48.416382,"orig":"","vertexType":"NORMAL"},"itineraries":[{"duration":1468,"startTime":1522720904000,"endTime":1522722372000,"walkTime":1307,"transitTime":159,"waitingTime":2,"walkDistance":1669.8751052569587,"walkLimitExceeded":false,"elevationLost":0.0,"elevationGained":0.0,"transfers":0,"legs":[{"startTime":1522720904000,"endTime":1522721540000,"departureDelay":0,"arrivalDelay":0,"realTime":false,"distance":805.6529999999999,"pathway":false,"mode":"WALK","route":"","agencyTimeZoneOffset":-14400000,"interlineWithPreviousLeg":false,"from":{"name":"Origin","lon":-71.053601,"lat":48.428762,"departure":1522720904000,"orig":"","vertexType":"NORMAL"},"to":{"name":"Bégin / Saint-Thomas","stopId":"1:1998","stopCode":"1998","lon":-71.058439,"lat":48.422491,"arrival":1522721540000,"departure":1522721541000,"zoneId":"NA","stopIndex":3,"stopSequence":4,"vertexType":"TRANSIT"},"legGeometry":{"points":"cvqfHzstpLAIjAGvBKd@CJBxAtABB`A|@h@`@ZVz@r@p@p@`@`@b@b@Z\\d@r@LR\\Rh@r@~@x@pBlBXVDDJHHHVVRN`AbAhAfAVX","length":31},"rentedBike":false,"transitLeg":false,"duration":636.0,"steps":[{"distance":3.263,"relativeDirection":"DEPART","streetName":"Rue Racine Est","absoluteDirection":"EAST","stayOn":false,"area":false,"bogusName":false,"lon":-71.05357306409608,"lat":48.42866943755885,"elevation":[]},{"distance":802.3899999999999,"relativeDirection":"RIGHT","streetName":"Rue Bégin","absoluteDirection":"SOUTH","stayOn":false,"area":false,"bogusName":false,"lon":-71.0535297,"lat":48.4286752,"elevation":[]}]},{"startTime":1522721541000,"endTime":1522721700000,"departureDelay":0,"arrivalDelay":0,"realTime":false,"distance":878.8371327207562,"pathway":false,"mode":"BUS","route":"12","agencyName":"Société de Transport du Saguenay","agencyUrl":"http://ville.saguenay.ca/fr/services-aux-citoyens/transport-sts","agencyTimeZoneOffset":-14400000,"routeColor":"556B2F","routeType":3,"routeId":"1:12","routeTextColor":"FFFFFF","interlineWithPreviousLeg":false,"tripBlockId":"26","headsign":"Terminus Chicoutimi","agencyId":"0","tripId":"1:217995","serviceDate":"20180402","from":{"name":"Bégin / Saint-Thomas","stopId":"1:1998","stopCode":"1998","lon":-71.058439,"lat":48.422491,"arrival":1522721540000,"departure":1522721541000,"zoneId":"NA","stopIndex":3,"stopSequence":4,"vertexType":"TRANSIT"},"to":{"name":"Champs-Élysées / Bégin","stopId":"1:566","stopCode":"566","lon":-71.064237,"lat":48.415762,"arrival":1522721700000,"departure":1522721701000,"zoneId":"NA","stopIndex":7,"stopSequence":8,"vertexType":"TRANSIT"},"legGeometry":{"points":"copfHjqupL~MfNjJnJ~GbHnCpCv@iB","length":6},"routeShortName":"12","routeLongName":"Rivière du Moulin","rentedBike":false,"transitLeg":true,"duration":159.0,"steps":[]},{"startTime":1522721701000,"endTime":1522722372000,"departureDelay":0,"arrivalDelay":0,"realTime":false,"distance":864.03,"pathway":false,"mode":"WALK","route":"","agencyTimeZoneOffset":-14400000,"interlineWithPreviousLeg":false,"from":{"name":"Champs-Élysées / Bégin","stopId":"1:566","stopCode":"566","lon":-71.064237,"lat":48.415762,"arrival":1522721700000,"departure":1522721701000,"zoneId":"NA","stopIndex":7,"stopSequence":8,"vertexType":"TRANSIT"},"to":{"name":"Destination","lon":-71.071111,"lat":48.416382,"arrival":1522722372000,"orig":"","vertexType":"NORMAL"},"legGeometry":{"points":"weofHfvvpLk@jBn@l@LNrCpCFFBBv@v@rCpC~AvBIP}AhEi@xAc@jAeEU{CzIYt@","length":17},"rentedBike":false,"transitLeg":false,"duration":671.0,"steps":[{"distance":46.285,"relativeDirection":"DEPART","streetName":"Rue des Champs-Élysées","absoluteDirection":"NORTHWEST","stayOn":false,"area":false,"bogusName":false,"lon":-71.06419656014225,"lat":48.415806692432525,"elevation":[]},{"distance":352.20399999999995,"relativeDirection":"LEFT","streetName":"Rue Bégin","absoluteDirection":"SOUTHWEST","stayOn":false,"area":false,"bogusName":false,"lon":-71.0647342,"lat":48.416021,"elevation":[]},{"distance":174.902,"relativeDirection":"RIGHT","streetName":"Rue Des Oblats Est","absoluteDirection":"NORTHWEST","stayOn":false,"area":false,"bogusName":false,"lon":-71.06744280000001,"lat":48.413416500000004,"elevation":[]},{"distance":110.753,"relativeDirection":"RIGHT","streetName":"Rue Jolliet","absoluteDirection":"NORTH","stayOn":false,"area":false,"bogusName":false,"lon":-71.0693767,"lat":48.414325600000005,"elevation":[]},{"distance":179.88600000000002,"relativeDirection":"LEFT","streetName":"Rue Jauffret","absoluteDirection":"NORTHWEST","stayOn":false,"area":false,"bogusName":false,"lon":-71.0692636,"lat":48.4153188,"elevation":[]}]}],"tooSloped":false},{"duration":1227,"startTime":1522721597000,"endTime":1522722824000,"walkTime":740,"transitTime":485,"waitingTime":2,"walkDistance":939.1228120244346,"walkLimitExceeded":false,"elevationLost":0.0,"elevationGained":0.0,"transfers":0,"legs":[{"startTime":1522721597000,"endTime":1522721934000,"departureDelay":0,"arrivalDelay":0,"realTime":false,"distance":421.18500000000006,"pathway":false,"mode":"WALK","route":"","agencyTimeZoneOffset":-14400000,"interlineWithPreviousLeg":false,"from":{"name":"Origin","lon":-71.053601,"lat":48.428762,"departure":1522721597000,"orig":"","vertexType":"NORMAL"},"to":{"name":"Bégin / Jacques-Cartier","stopId":"1:67","stopCode":"67","lon":-71.055431,"lat":48.425501,"arrival":1522721934000,"departure":1522721935000,"zoneId":"NA","stopIndex":4,"stopSequence":5,"vertexType":"TRANSIT"},"legGeometry":{"points":"cvqfHzstpLAIjAGvBKd@CJBxAtABB`A|@h@`@ZVz@r@p@p@`@`@b@b@KZ","length":16},"rentedBike":false,"transitLeg":false,"duration":337.0,"steps":[{"distance":3.263,"relativeDirection":"DEPART","streetName":"Rue Racine Est","absoluteDirection":"EAST","stayOn":false,"area":false,"bogusName":false,"lon":-71.05357306409608,"lat":48.42866943755885,"elevation":[]},{"distance":405.877,"relativeDirection":"RIGHT","streetName":"Rue Bégin","absoluteDirection":"SOUTH","stayOn":false,"area":false,"bogusName":false,"lon":-71.0535297,"lat":48.4286752,"elevation":[]},{"distance":12.045,"relativeDirection":"RIGHT","streetName":"Rue Gaudreault","absoluteDirection":"NORTHWEST","stayOn":false,"area":false,"bogusName":false,"lon":-71.0553392,"lat":48.4253936,"elevation":[]}]},{"startTime":1522721935000,"endTime":1522722420000,"departureDelay":0,"arrivalDelay":0,"realTime":false,"distance":2157.0277173973413,"pathway":false,"mode":"BUS","route":"15","agencyName":"Société de Transport du Saguenay","agencyUrl":"http://ville.saguenay.ca/fr/services-aux-citoyens/transport-sts","agencyTimeZoneOffset":-14400000,"routeColor":"FF00FF","routeType":3,"routeId":"1:15","routeTextColor":"FFFFFF","interlineWithPreviousLeg":false,"tripBlockId":"33","headsign":"Talbot / Barrette","agencyId":"0","tripId":"1:218203","serviceDate":"20180402","from":{"name":"Bégin / Jacques-Cartier","stopId":"1:67","stopCode":"67","lon":-71.055431,"lat":48.425501,"arrival":1522721934000,"departure":1522721935000,"zoneId":"NA","stopIndex":4,"stopSequence":5,"vertexType":"TRANSIT"},"to":{"name":"École secondaire de l'Odyssé Dominique-Racine","stopId":"1:580","stopCode":"580","lon":-71.067703,"lat":48.412977,"arrival":1522722420000,"departure":1522722421000,"zoneId":"NA","stopIndex":12,"stopSequence":13,"vertexType":"TRANSIT"},"legGeometry":{"points":"_bqfHt~tpLvIpIr@r@\\mBfAaA`@gBOkB_@uF|DyL|DpDQ|@|@z@bA`ATw@dD~Ch@fA@`E~AjGuH`Iy@bBi@dCbEdEjJlJ`HbHlJpJ|J~J","length":26},"routeShortName":"15","routeLongName":"Term. Chic / Costco","rentedBike":false,"transitLeg":true,"duration":485.0,"steps":[]},{"startTime":1522722421000,"endTime":1522722824000,"departureDelay":0,"arrivalDelay":0,"realTime":false,"distance":517.763,"pathway":false,"mode":"WALK","route":"","agencyTimeZoneOffset":-14400000,"interlineWithPreviousLeg":false,"from":{"name":"École secondaire de l'Odyssé Dominique-Racine","stopId":"1:580","stopCode":"580","lon":-71.067703,"lat":48.412977,"arrival":1522722420000,"departure":1522722421000,"zoneId":"NA","stopIndex":12,"stopSequence":13,"vertexType":"TRANSIT"},"to":{"name":"Destination","lon":-71.071111,"lat":48.416382,"arrival":1522722824000,"orig":"","vertexType":"NORMAL"},"legGeometry":{"points":"gtnfHplwpL{@u@UIIP}AhEi@xAc@jAeEU{CzIYt@","length":10},"rentedBike":false,"transitLeg":false,"duration":403.0,"steps":[{"distance":52.222,"relativeDirection":"DEPART","streetName":"Rue Bégin","absoluteDirection":"NORTHEAST","stayOn":false,"area":false,"bogusName":false,"lon":-71.06776357747735,"lat":48.41300064951352,"elevation":[]},{"distance":174.902,"relativeDirection":"LEFT","streetName":"Rue Des Oblats Est","absoluteDirection":"NORTHWEST","stayOn":false,"area":false,"bogusName":false,"lon":-71.06744280000001,"lat":48.413416500000004,"elevation":[]},{"distance":110.753,"relativeDirection":"RIGHT","streetName":"Rue Jolliet","absoluteDirection":"NORTH","stayOn":false,"area":false,"bogusName":false,"lon":-71.0693767,"lat":48.414325600000005,"elevation":[]},{"distance":179.88600000000002,"relativeDirection":"LEFT","streetName":"Rue Jauffret","absoluteDirection":"NORTHWEST","stayOn":false,"area":false,"bogusName":false,"lon":-71.0692636,"lat":48.4153188,"elevation":[]}]}],"tooSloped":false},{"duration":1366,"startTime":1522723399000,"endTime":1522724765000,"walkTime":722,"transitTime":642,"waitingTime":2,"walkDistance":909.8828721740342,"walkLimitExceeded":false,"elevationLost":0.0,"elevationGained":0.0,"transfers":0,"legs":[{"startTime":1522723399000,"endTime":1522723736000,"departureDelay":0,"arrivalDelay":0,"realTime":false,"distance":421.18500000000006,"pathway":false,"mode":"WALK","route":"","agencyTimeZoneOffset":-14400000,"interlineWithPreviousLeg":false,"from":{"name":"Origin","lon":-71.053601,"lat":48.428762,"departure":1522723399000,"orig":"","vertexType":"NORMAL"},"to":{"name":"Bégin / Jacques-Cartier","stopId":"1:67","stopCode":"67","lon":-71.055431,"lat":48.425501,"arrival":1522723736000,"departure":1522723737000,"zoneId":"NA","stopIndex":4,"stopSequence":5,"vertexType":"TRANSIT"},"legGeometry":{"points":"cvqfHzstpLAIjAGvBKd@CJBxAtABB`A|@h@`@ZVz@r@p@p@`@`@b@b@KZ","length":16},"rentedBike":false,"transitLeg":false,"duration":337.0,"steps":[{"distance":3.263,"relativeDirection":"DEPART","streetName":"Rue Racine Est","absoluteDirection":"EAST","stayOn":false,"area":false,"bogusName":false,"lon":-71.05357306409608,"lat":48.42866943755885,"elevation":[]},{"distance":405.877,"relativeDirection":"RIGHT","streetName":"Rue Bégin","absoluteDirection":"SOUTH","stayOn":false,"area":false,"bogusName":false,"lon":-71.0535297,"lat":48.4286752,"elevation":[]},{"distance":12.045,"relativeDirection":"RIGHT","streetName":"Rue Gaudreault","absoluteDirection":"NORTHWEST","stayOn":false,"area":false,"bogusName":false,"lon":-71.0553392,"lat":48.4253936,"elevation":[]}]},{"startTime":1522723737000,"endTime":1522724379000,"departureDelay":0,"arrivalDelay":0,"realTime":false,"distance":2641.4680032313663,"pathway":false,"mode":"BUS","route":"14","agencyName":"Société de Transport du Saguenay","agencyUrl":"http://ville.saguenay.ca/fr/services-aux-citoyens/transport-sts","agencyTimeZoneOffset":-14400000,"routeColor":"C0C000","routeType":3,"routeId":"1:14","routeTextColor":"000000","interlineWithPreviousLeg":false,"tripBlockId":"30","headsign":"Talbot / Barrette","agencyId":"0","tripId":"1:218119","serviceDate":"20180402","from":{"name":"Bégin / Jacques-Cartier","stopId":"1:67","stopCode":"67","lon":-71.055431,"lat":48.425501,"arrival":1522723736000,"departure":1522723737000,"zoneId":"NA","stopIndex":4,"stopSequence":5,"vertexType":"TRANSIT"},"to":{"name":"Carrefour 216","stopId":"1:524","stopCode":"524","lon":-71.076345,"lat":48.417612,"arrival":1522724379000,"departure":1522724380000,"zoneId":"NA","stopIndex":12,"stopSequence":13,"vertexType":"TRANSIT"},"legGeometry":{"points":"_bqfHr~tpLvIrIn@n@\\iATg@v@_ATg@LmABg@Is@c@iEAm@bAcDTcAtA{DJI|AxAvAvAQv@~@z@dA`ATq@`E~DL`@E`Ex@hDd@`B}FtFaAzAm@xAe@jCa@nDiAbm@SpKM`H]vBhDVzCTcAvCO^bEbEzK`L","length":42},"routeShortName":"14","routeLongName":"Coopérative","rentedBike":false,"transitLeg":true,"duration":642.0,"steps":[]},{"startTime":1522724380000,"endTime":1522724765000,"departureDelay":0,"arrivalDelay":0,"realTime":false,"distance":488.499,"pathway":false,"mode":"WALK","route":"","agencyTimeZoneOffset":-14400000,"interlineWithPreviousLeg":false,"from":{"name":"Carrefour 216","stopId":"1:524","stopCode":"524","lon":-71.076345,"lat":48.417612,"arrival":1522724379000,"departure":1522724380000,"zoneId":"NA","stopIndex":12,"stopSequence":13,"vertexType":"TRANSIT"},"to":{"name":"Destination","lon":-71.071111,"lat":48.416382,"arrival":1522724765000,"orig":"","vertexType":"NORMAL"},"legGeometry":{"points":"ypofHtaypLBBz@sBh@uAd@qAhCoHPa@oCqCpBiF","length":9},"rentedBike":false,"transitLeg":false,"duration":385.0,"steps":[{"distance":3.197,"relativeDirection":"DEPART","streetName":"Rue Caron","absoluteDirection":"SOUTHWEST","stayOn":false,"area":false,"bogusName":false,"lon":-71.07626391976946,"lat":48.41757688506955,"elevation":[]},{"distance":282.769,"relativeDirection":"LEFT","streetName":"Rue Des Oblats Est","absoluteDirection":"SOUTHEAST","stayOn":false,"area":false,"bogusName":false,"lon":-71.0762876,"lat":48.4175528,"elevation":[]},{"distance":96.069,"relativeDirection":"LEFT","streetName":"Rue McLaren","absoluteDirection":"NORTHEAST","stayOn":false,"area":false,"bogusName":false,"lon":-71.0731719,"lat":48.416073700000005,"elevation":[]},{"distance":106.464,"relativeDirection":"RIGHT","streetName":"Rue Jauffret","absoluteDirection":"SOUTHEAST","stayOn":false,"area":false,"bogusName":false,"lon":-71.07244630000001,"lat":48.416791,"elevation":[]}]}],"tooSloped":false}]},"debugOutput":{"precalculationTime":50,"pathCalculationTime":42,"pathTimes":[21,9,12],"renderingTime":0,"totalTime":92,"timedOut":false},"elevationMetadata":{"ellipsoidToGeoidDifference":-28.885904201182168,"geoidElevation":false}}