{"requestParameters":{"date":"2018/04/02","walkSpeed":"1.33","walkReluctance":"2.0","fromPlace":"48.418896,-71.097973","maxWalkDistance":"3000","waitReluctance":"1.0","carSpeed":"33","numItineraries":"3","waitAtBeginningFactor":"0.4","mode":"TRANSIT,WALK","ignoreRealtimeUpdates":"false","stairsReluctance":"2.0","toPlace":"48.402126,-71.09779","time":"15:0:00"},"plan":{"date":1522695600000,"from":{"name":"Origin","lon":-71.097973,"lat":48.418896,"orig":"","vertexType":"NORMAL"},"to":{"name":"Destination","lon":-71.09779,"lat":48.402126,"orig":"","vertexType":"NORMAL"},"itineraries":[{"duration":2074,"startTime":1522695600000,"endTime":1522697674000,"walkTime":2074,"transitTime":0,"waitingTime":0,"walkDistance":2704.182330819571,"walkLimitExceeded":false,"elevationLost":0.0,"elevationGained":0.0,"transfers":0,"legs":[{"startTime":1522695600000,"endTime":1522697674000,"departureDelay":0,"arrivalDelay":0,"realTime":false,"distance":2703.9500000000007,"pathway":false,"mode":"WALK","route":"","agencyTimeZoneOffset":-14400000,"interlineWithPreviousLeg":false,"from":{"name":"Origin","lon":-71.097973,"lat":48.418896,"departure":1522695600000,"orig":"","vertexType":"NORMAL"},"to":{"name":"Destination","lon":-71.09779,"lat":48.402126,"arrival":1522697674000,"orig":"","vertexType":"NORMAL"},"legGeometry":{"points":"gyofHbi}pLIRbBvAaCjIvA`@`Bf@rALrANnBxAd@f@^Vd@`@`@d@xBnCrB~B@@lBxB~@rAr@tBVlBJbBJp@BZx@pH|As@`FwBvDcBdF{BnGoCrCoBhCkD|AgDn@sCLi@p@kCjCoJt@iBr@mBhB{EpA~AbAjAf@h@z@dAZ\\","length":44},"rentedBike":false,"transitLeg":false,"duration":2074.0,"steps":[{"distance":8.828,"relativeDirection":"DEPART","streetName":"Rue Cloutier","absoluteDirection":"NORTHWEST","stayOn":false,"area":false,"bogusName":false,"lon":-71.0979380375037,"lat":48.41892782387878,"elevation":[]},{"distance":64.131,"relativeDirection":"LEFT","streetName":"Rue Ringuette","absoluteDirection":"SOUTHWEST","stayOn":false,"area":false,"bogusName":false,"lon":-71.0980347,"lat":48.418974600000006,"elevation":[]},{"distance":142.185,"relativeDirection":"RIGHT","streetName":"Rue Gosselin","absoluteDirection":"NORTHWEST","stayOn":false,"area":false,"bogusName":false,"lon":-71.09847020000001,"lat":48.4184755,"elevation":[]},{"distance":936.043,"relativeDirection":"LEFT","streetName":"Chemin de la Réserve","absoluteDirection":"SOUTH","stayOn":false,"area":false,"bogusName":false,"lon":-71.10013090000001,"lat":48.4191238,"elevation":[]},{"distance":1359.7250000000001,"relativeDirection":"LEFT","streetName":"Boulevard Barrette","absoluteDirection":"SOUTH","stayOn":false,"area":false,"bogusName":false,"lon":-71.1077458,"lat":48.413203300000006,"elevation":[]},{"distance":193.03799999999998,"relativeDirection":"RIGHT","streetName":"Boulevard Saint-Paul","absoluteDirection":"SOUTHWEST","stayOn":false,"area":false,"bogusName":false,"lon":-71.0971116,"lat":48.4039529,"elevation":[]}]}],"tooSloped":false},{"duration":1921,"startTime":1522697246000,"endTime":1522699167000,"walkTime":260,"transitTime":1659,"waitingTime":2,"walkDistance":325.1861503723856,"walkLimitExceeded":false,"elevationLost":0.0,"elevationGained":0.0,"transfers":0,"legs":[{"startTime":1522697246000,"endTime":1522697459000,"departureDelay":0,"arrivalDelay":0,"realTime":false,"distance":265.052,"pathway":false,"mode":"WALK","route":"","agencyTimeZoneOffset":-14400000,"interlineWithPreviousLeg":false,"from":{"name":"Origin","lon":-71.097973,"lat":48.418896,"departure":1522697246000,"orig":"","vertexType":"NORMAL"},"to":{"name":"nouveau","stopId":"1:2307","stopCode":"2307","lon":-71.099825,"lat":48.418606,"arrival":1522697459000,"departure":1522697460000,"zoneId":"NA","stopIndex":23,"stopSequence":24,"vertexType":"TRANSIT"},"legGeometry":{"points":"gyofHbi}pLIRbBvAaCjIvA`@","length":5},"rentedBike":false,"transitLeg":false,"duration":213.0,"steps":[{"distance":8.828,"relativeDirection":"DEPART","streetName":"Rue Cloutier","absoluteDirection":"NORTHWEST","stayOn":false,"area":false,"bogusName":false,"lon":-71.0979380375037,"lat":48.41892782387878,"elevation":[]},{"distance":64.131,"relativeDirection":"LEFT","streetName":"Rue Ringuette","absoluteDirection":"SOUTHWEST","stayOn":false,"area":false,"bogusName":false,"lon":-71.0980347,"lat":48.418974600000006,"elevation":[]},{"distance":142.185,"relativeDirection":"RIGHT","streetName":"Rue Gosselin","absoluteDirection":"NORTHWEST","stayOn":false,"area":false,"bogusName":false,"lon":-71.09847020000001,"lat":48.4184755,"elevation":[]},{"distance":49.908,"relativeDirection":"LEFT","streetName":"Chemin de la Réserve","absoluteDirection":"SOUTH","stayOn":false,"area":false,"bogusName":false,"lon":-71.10013090000001,"lat":48.4191238,"elevation":[]}]},{"startTime":1522697460000,"endTime":1522698060000,"departureDelay":0,"arrivalDelay":0,"realTime":false,"distance":3235.1198449957556,"pathway":false,"mode":"BUS","route":"16","agencyName":"Société de Transport du Saguenay","agencyUrl":"http://ville.saguenay.ca/fr/services-aux-citoyens/transport-sts","agencyTimeZoneOffset":-14400000,"routeColor":"00FF00","routeType":3,"routeId":"1:16","routeTextColor":"000000","interlineWithPreviousLeg":false,"tripBlockId":"35","headsign":"Terminus Chicoutimi","agencyId":"0","tripId":"1:218259","serviceDate":"20180402","from":{"name":"nouveau","stopId":"1:2307","stopCode":"2307","lon":-71.099825,"lat":48.418606,"arrival":1522697459000,"departure":1522697460000,"zoneId":"NA","stopIndex":23,"stopSequence":24,"vertexType":"TRANSIT"},"to":{"name":"Terminus Chicoutimi","stopId":"1:1289","stopCode":"1289","lon":-71.066163,"lat":48.428677,"arrival":1522698060000,"departure":1522698300000,"zoneId":"NA","stopIndex":35,"stopSequence":36,"vertexType":"TRANSIT"},"legGeometry":{"points":"wwofHxw}pLaAY_IsGYo@}@mBqAkKg@aE@wFS}AiAaIgA{B}CiGiBeFqBsFQ_@wA_DyAaD_AoBQ[sAuC{@sBeCcGqAwC[g@]a@aAw@[_@cA}A_@w@GU[iDWaDzByCv@cA`@e@TSp@g@nAo@nBm@ZSf@c@PMb@[b@_@b@e@PYP]N_@La@P{@NcB@IBcAG_A{@sEEg@oAP}@DiBDFeBMa@iBCq@FmBPFcEDoBNiHyDWN_HBoA@Y@m@","length":72},"routeShortName":"16","routeLongName":"Côte de la Réserve","rentedBike":false,"transitLeg":true,"duration":600.0,"steps":[]},{"startTime":1522698300000,"endTime":1522699119000,"departureDelay":0,"arrivalDelay":0,"realTime":false,"distance":4123.89641559421,"pathway":false,"mode":"BUS","route":"11","agencyName":"Société de Transport du Saguenay","agencyUrl":"http://ville.saguenay.ca/fr/services-aux-citoyens/transport-sts","agencyTimeZoneOffset":-14400000,"routeColor":"FF0000","routeType":3,"routeId":"1:11","routeTextColor":"FFFFFF","interlineWithPreviousLeg":true,"tripBlockId":"35","headsign":"Boul.Royaume/St-Pierre","agencyId":"0","tripId":"1:218260","serviceDate":"20180402","from":{"name":"Terminus Chicoutimi","stopId":"1:1289","stopCode":"1289","lon":-71.066163,"lat":48.428677,"arrival":1522698060000,"departure":1522698300000,"zoneId":"NA","stopIndex":0,"stopSequence":1,"vertexType":"TRANSIT"},"to":{"name":"boul. St-Paul (no. 1600)","stopId":"1:1932","stopCode":"1932","lon":-71.09929,"lat":48.402192,"arrival":1522699119000,"departure":1522699120000,"zoneId":"NA","stopIndex":16,"stopSequence":17,"vertexType":"TRANSIT"},"legGeometry":{"points":"evqfHzcwpLk@?UhKfIh@dKp@GnDIfDOtEE~@Ff@x@rEF~@CbAALO~ADRNJXBr@DfGRPBPJLN@@FPFTBX?TE`BhBR@?J@NELKFOlAiDL[bA`AfIjIbGdGzDzD`A~An@`ApApBpClEvJrOR\\bAfBLa@t@]LjAVvAVbAVv@^bAXj@b@t@xEtGh@r@n@x@FDjA|AlBpCnJ|NNTX`@V`@eCtHpFjH{FhPcB|Ft@|CEAdCnEdHKrBz@lGiQ|CyI~IrJ","length":79},"routeShortName":"11","routeLongName":"Chic/Faubourg via St-Paul","rentedBike":false,"transitLeg":true,"duration":819.0,"steps":[]},{"startTime":1522699120000,"endTime":1522699167000,"departureDelay":0,"arrivalDelay":0,"realTime":false,"distance":60.024,"pathway":false,"mode":"WALK","route":"","agencyTimeZoneOffset":-14400000,"interlineWithPreviousLeg":false,"from":{"name":"boul. St-Paul (no. 1600)","stopId":"1:1932","stopCode":"1932","lon":-71.09929,"lat":48.402192,"arrival":1522699119000,"departure":1522699120000,"zoneId":"NA","stopIndex":16,"stopSequence":17,"vertexType":"TRANSIT"},"to":{"name":"Destination","lon":-71.09779,"lat":48.402126,"arrival":1522699167000,"orig":"","vertexType":"NORMAL"},"legGeometry":{"points":"iplfHxp}pLIKg@k@c@g@","length":4},"rentedBike":false,"transitLeg":false,"duration":47.0,"steps":[{"distance":60.024,"relativeDirection":"DEPART","streetName":"Boulevard Saint-Paul","absoluteDirection":"NORTHEAST","stayOn":false,"area":false,"bogusName":false,"lon":-71.09916942737614,"lat":48.40213288118003,"elevation":[]}]}],"tooSloped":false},{"duration":1921,"startTime":1522699046000,"endTime":1522700967000,"walkTime":260,"transitTime":1659,"waitingTime":2,"walkDistance":325.1861503723856,"walkLimitExceeded":false,"elevationLost":0.0,"elevationGained":0.0,"transfers":0,"legs":[{"startTime":1522699046000,"endTime":1522699259000,"departureDelay":0,"arrivalDelay":0,"realTime":false,"distance":265.052,"pathway":false,"mode":"WALK","route":"","agencyTimeZoneOffset":-14400000,"interlineWithPreviousLeg":false,"from":{"name":"Origin","lon":-71.097973,"lat":48.418896,"departure":1522699046000,"orig":"","vertexType":"NORMAL"},"to":{"name":"nouveau","stopId":"1:2307","stopCode":"2307","lon":-71.099825,"lat":48.418606,"arrival":1522699259000,"departure":1522699260000,"zoneId":"NA","stopIndex":23,"stopSequence":24,"vertexType":"TRANSIT"},"legGeometry":{"points":"gyofHbi}pLIRbBvAaCjIvA`@","length":5},"rentedBike":false,"transitLeg":false,"duration":213.0,"steps":[{"distance":8.828,"relativeDirection":"DEPART","streetName":"Rue Cloutier","absoluteDirection":"NORTHWEST","stayOn":false,"area":false,"bogusName":false,"lon":-71.0979380375037,"lat":48.41892782387878,"elevation":[]},{"distance":64.131,"relativeDirection":"LEFT","streetName":"Rue Ringuette","absoluteDirection":"SOUTHWEST","stayOn":false,"area":false,"bogusName":false,"lon":-71.0980347,"lat":48.418974600000006,"elevation":[]},{"distance":142.185,"relativeDirection":"RIGHT","streetName":"Rue Gosselin","absoluteDirection":"NORTHWEST","stayOn":false,"area":false,"bogusName":false,"lon":-71.09847020000001,"lat":48.4184755,"elevation":[]},{"distance":49.908,"relativeDirection":"LEFT","streetName":"Chemin de la Réserve","absoluteDirection":"SOUTH","stayOn":false,"area":false,"bogusName":false,"lon":-71.10013090000001,"lat":48.4191238,"elevation":[]}]},{"startTime":1522699260000,"endTime":1522699860000,"departureDelay":0,"arrivalDelay":0,"realTime":false,"distance":3235.1198449957556,"pathway":false,"mode":"BUS","route":"16","agencyName":"Société de Transport du Saguenay","agencyUrl":"http://ville.saguenay.ca/fr/services-aux-citoyens/transport-sts","agencyTimeZoneOffset":-14400000,"routeColor":"00FF00","routeType":3,"routeId":"1:16","routeTextColor":"000000","interlineWithPreviousLeg":false,"tripBlockId":"37","headsign":"Terminus Chicoutimi","agencyId":"0","tripId":"1:218321","serviceDate":"20180402","from":{"name":"nouveau","stopId":"1:2307","stopCode":"2307","lon":-71.099825,"lat":48.418606,"arrival":1522699259000,"departure":1522699260000,"zoneId":"NA","stopIndex":23,"stopSequence":24,"vertexType":"TRANSIT"},"to":{"name":"Terminus Chicoutimi","stopId":"1:1289","stopCode":"1289","lon":-71.066163,"lat":48.428677,"arrival":1522699860000,"departure":1522700100000,"zoneId":"NA","stopIndex":35,"stopSequence":36,"vertexType":"TRANSIT"},"legGeometry":{"points":"wwofHxw}pLaAY_IsGYo@}@mBqAkKg@aE@wFS}AiAaIgA{B}CiGiBeFqBsFQ_@wA_DyAaD_AoBQ[sAuC{@sBeCcGqAwC[g@]a@aAw@[_@cA}A_@w@GU[iDWaDzByCv@cA`@e@TSp@g@nAo@nBm@ZSf@c@PMb@[b@_@b@e@PYP]N_@La@P{@NcB@IBcAG_A{@sEEg@oAP}@DiBDFeBMa@iBCq@FmBPFcEDoBNiHyDWN_HBoA@Y@m@","length":72},"routeShortName":"16","routeLongName":"Côte de la Réserve","rentedBike":false,"transitLeg":true,"duration":600.0,"steps":[]},{"startTime":1522700100000,"endTime":1522700919000,"departureDelay":0,"arrivalDelay":0,"realTime":false,"distance":4123.89641559421,"pathway":false,"mode":"BUS","route":"11","agencyName":"Société de Transport du Saguenay","agencyUrl":"http://ville.saguenay.ca/fr/services-aux-citoyens/transport-sts","agencyTimeZoneOffset":-14400000,"routeColor":"FF0000","routeType":3,"routeId":"1:11","routeTextColor":"FFFFFF","interlineWithPreviousLeg":true,"tripBlockId":"37","headsign":"Boul.Royaume/St-Pierre","agencyId":"0","tripId":"1:218322","serviceDate":"20180402","from":{"name":"Terminus Chicoutimi","stopId":"1:1289","stopCode":"1289","lon":-71.066163,"lat":48.428677,"arrival":1522699860000,"departure":1522700100000,"zoneId":"NA","stopIndex":0,"stopSequence":1,"vertexType":"TRANSIT"},"to":{"name":"boul. St-Paul (no. 1600)","stopId":"1:1932","stopCode":"1932","lon":-71.09929,"lat":48.402192,"arrival":1522700919000,"departure":1522700920000,"zoneId":"NA","stopIndex":16,"stopSequence":17,"vertexType":"TRANSIT"},"legGeometry":{"points":"evqfHzcwpLk@?UhKfIh@dKp@GnDIfDOtEE~@Ff@x@rEF~@CbAALO~ADRNJXBr@DfGRPBPJLN@@FPFTBX?TE`BhBR@?J@NELKFOlAiDL[bA`AfIjIbGdGzDzD`A~An@`ApApBpClEvJrOR\\bAfBLa@t@]LjAVvAVbAVv@^bAXj@b@t@xEtGh@r@n@x@FDjA|AlBpCnJ|NNTX`@V`@eCtHpFjH{FhPcB|Ft@|CEAdCnEdHKrBz@lGiQ|CyI~IrJ","length":79},"routeShortName":"11","routeLongName":"Chic/Faubourg via St-Paul","rentedBike":false,"transitLeg":true,"duration":819.0,"steps":[]},{"startTime":1522700920000,"endTime":1522700967000,"departureDelay":0,"arrivalDelay":0,"realTime":false,"distance":60.024,"pathway":false,"mode":"WALK","route":"","agencyTimeZoneOffset":-14400000,"interlineWithPreviousLeg":false,"from":{"name":"boul. St-Paul (no. 1600)","stopId":"1:1932","stopCode":"1932","lon":-71.09929,"lat":48.402192,"arrival":1522700919000,"departure":1522700920000,"zoneId":"NA","stopIndex":16,"stopSequence":17,"vertexType":"TRANSIT"},"to":{"name":"Destination","lon":-71.09779,"lat":48.402126,"arrival":1522700967000,"orig":"","vertexType":"NORMAL"},"legGeometry":{"points":"iplfHxp}pLIKg@k@c@g@","length":4},"rentedBike":false,"transitLeg":false,"duration":47.0,"steps":[{"distance":60.024,"relativeDirection":"DEPART","streetName":"Boulevard Saint-Paul","absoluteDirection":"NORTHEAST","stayOn":false,"area":false,"bogusName":false,"lon":-71.09916942737614,"lat":48.40213288118003,"elevation":[]}]}],"tooSloped":false}]},"debugOutput":{"precalculationTime":11,"pathCalculationTime":19,"pathTimes":[12,4,3],"renderingTime":0,"totalTime":30,"timedOut":false},"elevationMetadata":{"ellipsoidToGeoidDifference":-28.885904201182168,"geoidElevation":false}}