{"requestParameters":{"date":"2018/04/02","walkSpeed":"1.33","walkReluctance":"2.0","fromPlace":"48.447287,-71.072929","maxWalkDistance":"3000","waitReluctance":"1.0","carSpeed":"33","numItineraries":"3","waitAtBeginningFactor":"0.4","mode":"TRANSIT,WALK","ignoreRealtimeUpdates":"false","stairsReluctance":"2.0","toPlace":"48.410047,-71.049983","time":"16:0:00"},"plan":{"date":1522699200000,"from":{"name":"Origin","lon":-71.072929,"lat":48.447287,"orig":"","vertexType":"NORMAL"},"to":{"name":"Destination","lon":-71.049983,"lat":48.410047,"orig":"","vertexType":"NORMAL"},"itineraries":[{"duration":2406,"startTime":1522700471000,"endTime":1522702877000,"walkTime":265,"transitTime":1539,"waitingTime":602,"walkDistance":330.99312781628583,"walkLimitExceeded":false,"elevationLost":0.0,"elevationGained":0.0,"transfers":1,"legs":[{"startTime":1522700471000,"endTime":1522700600000,"departureDelay":0,"arrivalDelay":0,"realTime":false,"distance":160.955,"pathway":false,"mode":"WALK","route":"","agencyTimeZoneOffset":-14400000,"interlineWithPreviousLeg":false,"from":{"name":"Origin","lon":-71.072929,"lat":48.447287,"departure":1522700471000,"orig":"","vertexType":"NORMAL"},"to":{"name":"Aréna / Cabot","stopId":"1:126","stopCode":"126","lon":-71.071852,"lat":48.448027,"arrival":1522700600000,"departure":1522700601000,"zoneId":"NA","stopIndex":7,"stopSequence":8,"vertexType":"TRANSIT"},"legGeometry":{"points":"oiufH~jxpLISMa@IWESISK_@Q]SQWE[ASBS@?j@","length":14},"alerts":[{"alertHeaderText":"Unpaved surface"}],"rentedBike":false,"transitLeg":false,"duration":129.0,"steps":[{"distance":144.965,"relativeDirection":"DEPART","streetName":"Rue Cabot","absoluteDirection":"NORTHEAST","stayOn":false,"area":false,"bogusName":false,"lon":-71.072633,"lat":48.447125,"elevation":[],"alerts":[{"alertHeaderText":"Unpaved surface"}]},{"distance":15.99,"relativeDirection":"LEFT","streetName":"Rue de l'Aréna","absoluteDirection":"WEST","stayOn":false,"area":false,"bogusName":false,"lon":-71.0716385,"lat":48.448087900000004,"elevation":[]}]},{"startTime":1522700601000,"endTime":1522701300000,"departureDelay":0,"arrivalDelay":0,"realTime":false,"distance":4775.75594617937,"pathway":false,"mode":"BUS","route":"23","agencyName":"Société de Transport du Saguenay","agencyUrl":"http://ville.saguenay.ca/fr/services-aux-citoyens/transport-sts","agencyTimeZoneOffset":-14400000,"routeColor":"FF00FF","routeType":3,"routeId":"1:23","routeTextColor":"FFFFFF","interlineWithPreviousLeg":false,"tripBlockId":"4","headsign":"Terminus Chicoutimi","agencyId":"0","tripId":"1:217242","serviceDate":"20180402","from":{"name":"Aréna / Cabot","stopId":"1:126","stopCode":"126","lon":-71.071852,"lat":48.448027,"arrival":1522700600000,"departure":1522700601000,"zoneId":"NA","stopIndex":7,"stopSequence":8,"vertexType":"TRANSIT"},"to":{"name":"Terminus Chicoutimi","stopId":"1:1289","stopCode":"1289","lon":-71.066163,"lat":48.428677,"arrival":1522701300000,"departure":1522701900000,"zoneId":"NA","stopIndex":26,"stopSequence":27,"vertexType":"TRANSIT"},"legGeometry":{"points":"qoufHdfxpLAk@aALa@?YEUKc@Yc@_@KOIUGUEWAW?YBqAH_AXeC@IdB_Mh@_EJk@d@kDhAqI`AgHz@oGBU?UAWCWUwAWD]B]AUEoAc@kE}AOIq@g@g@u@]w@b@s@T[~CkFf@s@\\e@x@}@jAeAXQZStBaAh@]`@]`@i@l@kDF_@R{AFWFMPIPC`@BT@V?TAVKLENCLCJ@J@xAb@x@Zz@\\CP?R@N@NFLFF`GtBx@Xw@pG@l@B\\DXL\\RZDFXPf@N@v@Bp@Dr@l@~HNlAH\\@HLd@\\z@Xd@X\\RTXRr@Zn@PfExAvDpALnBJt@Pp@|@`DHZPn@`@rBNnAFr@DbA?bB@jABzA?p@A???A???A?A???A@??A?A@??A@?@A??@A@???@A@?@?@A@?@?@?@?@???@?@?@?@?@?@@@?@?@@@?@@@?@@@?@@?@@??@@@?E`@Kr@]rACVEl@I|AAr@JbAWJe@FUAM?a@Ke@YYWWa@v@}@RQPMz@k@tAe@REZG^Af@@X@VF`@Jn@XbClAr@Xt\\`PrAb@pA^hBTjAFj@Pb@JPHLLJNJRFXDT?X?ZEVEVKTMNMHMFOB}DWSGOSYcAN}FFkAF}DJyDd@wPV_HjAN~ALI`C","length":235},"routeShortName":"23","routeLongName":"Côte Verdun via Aréna du Plateau","rentedBike":false,"transitLeg":true,"duration":699.0,"steps":[]},{"startTime":1522701900000,"endTime":1522702740000,"departureDelay":0,"arrivalDelay":0,"realTime":false,"distance":3774.047834260278,"pathway":false,"mode":"BUS","route":"175","agencyName":"Société de Transport du Saguenay","agencyUrl":"http://ville.saguenay.ca/fr/services-aux-citoyens/transport-sts","agencyTimeZoneOffset":-14400000,"routeColor":"FF00FF","routeType":3,"routeId":"1:175","routeTextColor":"FFFFFF","interlineWithPreviousLeg":false,"tripBlockId":"8","headsign":"Costco","agencyId":"0","tripId":"1:217377","serviceDate":"20180402","from":{"name":"Terminus Chicoutimi","stopId":"1:1289","stopCode":"1289","lon":-71.066163,"lat":48.428677,"arrival":1522701300000,"departure":1522701900000,"zoneId":"NA","stopIndex":0,"stopSequence":1,"vertexType":"TRANSIT"},"to":{"name":"Sûreté du Québec (Roitelets / Lorenzo-Genest)","stopId":"1:58","stopCode":"58","lon":-71.048311,"lat":48.40979,"arrival":1522702740000,"departure":1522702741000,"zoneId":"NA","stopIndex":15,"stopSequence":16,"vertexType":"TRANSIT"},"legGeometry":{"points":"kvqfH~awpL~CgBbAqa@FwCBkAOsHAg@bAYUwMKoE@mB@kJ@iFbEf@xEj@iCtYp@r@z@`ABBvHtHXRx@l@VwAvAgB\\qBIuAC]g@yEzDuLbBbBvAxAMx@|@v@`A~@Xw@~D~DPxFZtA~ApE`N{LpFmEb@[ROl@[vDQXKfA[|@q@fAsBlEmMr@sBhCsKz@dAjB|@","length":54},"routeShortName":"175","routeLongName":"Term. Chic / Costco","rentedBike":false,"transitLeg":true,"duration":840.0,"steps":[]},{"startTime":1522702741000,"endTime":1522702877000,"departureDelay":0,"arrivalDelay":0,"realTime":false,"distance":169.937,"pathway":false,"mode":"WALK","route":"","agencyTimeZoneOffset":-14400000,"interlineWithPreviousLeg":false,"from":{"name":"Sûreté du Québec (Roitelets / Lorenzo-Genest)","stopId":"1:58","stopCode":"58","lon":-71.048311,"lat":48.40979,"arrival":1522702740000,"departure":1522702741000,"zoneId":"NA","stopIndex":15,"stopSequence":16,"vertexType":"TRANSIT"},"to":{"name":"Destination","lon":-71.049983,"lat":48.410047,"arrival":1522702877000,"orig":"","vertexType":"NORMAL"},"legGeometry":{"points":"{_nfHzqspLj@XFBu@|Dc@zBG`@","length":6},"rentedBike":false,"transitLeg":false,"duration":136.0,"steps":[{"distance":30.991,"relativeDirection":"DEPART","streetName":"Rue Des Roitelets","absoluteDirection":"SOUTH","stayOn":false,"area":false,"bogusName":false,"lon":-71.04813827023435,"lat":48.409745631017636,"elevation":[]},{"distance":138.946,"relativeDirection":"RIGHT","streetName":"Rue Lorenzo-Genest","absoluteDirection":"NORTHWEST","stayOn":false,"area":false,"bogusName":false,"lon":-71.0482898,"lat":48.409485700000005,"elevation":[]}]}],"tooSloped":false},{"duration":2435,"startTime":1522700838000,"endTime":1522703273000,"walkTime":448,"transitTime":1685,"waitingTime":302,"walkDistance":580.9232481187116,"walkLimitExceeded":false,"elevationLost":0.0,"elevationGained":0.0,"transfers":1,"legs":[{"startTime":1522700838000,"endTime":1522701150000,"departureDelay":0,"arrivalDelay":0,"realTime":false,"distance":410.937,"pathway":false,"mode":"WALK","route":"","agencyTimeZoneOffset":-14400000,"interlineWithPreviousLeg":false,"from":{"name":"Origin","lon":-71.072929,"lat":48.447287,"departure":1522700838000,"orig":"","vertexType":"NORMAL"},"to":{"name":"Boischatel / Cabot","stopId":"1:763","stopCode":"763","lon":-71.070142,"lat":48.449792,"arrival":1522701150000,"departure":1522701151000,"zoneId":"NA","stopIndex":27,"stopSequence":28,"vertexType":"TRANSIT"},"legGeometry":{"points":"oiufH~jxpLISMa@IWESISK_@Q]SQWE[ASBS@y@Ja@B_@Ce@Q]Ua@g@GIQ]GWCQAq@@e@@e@@Iq@GYICA","length":30},"alerts":[{"alertHeaderText":"Unpaved surface"}],"rentedBike":false,"transitLeg":false,"duration":312.0,"steps":[{"distance":366.31100000000004,"relativeDirection":"DEPART","streetName":"Rue Cabot","absoluteDirection":"NORTHEAST","stayOn":false,"area":false,"bogusName":false,"lon":-71.072633,"lat":48.447125,"elevation":[],"alerts":[{"alertHeaderText":"Unpaved surface"}]},{"distance":44.626,"relativeDirection":"LEFT","streetName":"Rue de Boischatel","absoluteDirection":"NORTH","stayOn":false,"area":false,"bogusName":false,"lon":-71.0702047,"lat":48.449388000000006,"elevation":[]}]},{"startTime":1522701151000,"endTime":1522701600000,"departureDelay":0,"arrivalDelay":0,"realTime":false,"distance":2905.737028886756,"pathway":false,"mode":"BUS","route":"22","agencyName":"Société de Transport du Saguenay","agencyUrl":"http://ville.saguenay.ca/fr/services-aux-citoyens/transport-sts","agencyTimeZoneOffset":-14400000,"routeColor":"C0C000","routeType":3,"routeId":"1:22","routeTextColor":"000000","interlineWithPreviousLeg":false,"tripBlockId":"3","headsign":"Terminus Chicoutimi","agencyId":"0","tripId":"1:217206","serviceDate":"20180402","from":{"name":"Boischatel / Cabot","stopId":"1:763","stopCode":"763","lon":-71.070142,"lat":48.449792,"arrival":1522701150000,"departure":1522701151000,"zoneId":"NA","stopIndex":27,"stopSequence":28,"vertexType":"TRANSIT"},"to":{"name":"Terminus Chicoutimi","stopId":"1:1289","stopCode":"1289","lon":-71.066163,"lat":48.428677,"arrival":1522701600000,"departure":1522701900000,"zoneId":"NA","stopIndex":35,"stopSequence":36,"vertexType":"TRANSIT"},"legGeometry":{"points":"czufHb{wpLLFbAVH_AXeC@IdB_Mh@_EJk@x@x@bA`A|BrBnDrCl@f@|BlBrAbAj@d@ZTXNd@@lA[ZxDN|Ad@fAz@tB~AzDZ|@Zv@x@vBP\\h@~@PVrCmFhHqN~@eBr@cAt@_Av@}@RQPMz@k@tAe@REZG^Af@@X@VF`@Jn@XbClAr@Xt\\`PrAb@pA^hBTjAFj@Pb@JPHLLJNJRFXDT?X?ZEVEVKTMNMHMFOB}DWSGOSYcAN}FFkAF}DJyDd@wPV_HjAN~ALIzBQb@e@@","length":89},"routeShortName":"22","routeLongName":"Vanier","rentedBike":false,"transitLeg":true,"duration":449.0,"steps":[]},{"startTime":1522701900000,"endTime":1522703136000,"departureDelay":0,"arrivalDelay":0,"realTime":false,"distance":7865.316412981642,"pathway":false,"mode":"BUS","route":"12","agencyName":"Société de Transport du Saguenay","agencyUrl":"http://ville.saguenay.ca/fr/services-aux-citoyens/transport-sts","agencyTimeZoneOffset":-14400000,"routeColor":"556B2F","routeType":3,"routeId":"1:12","routeTextColor":"FFFFFF","interlineWithPreviousLeg":false,"tripBlockId":"27","headsign":"Terminus UQAC","agencyId":"0","tripId":"1:218020","serviceDate":"20180402","from":{"name":"Terminus Chicoutimi","stopId":"1:1289","stopCode":"1289","lon":-71.066163,"lat":48.428677,"arrival":1522701600000,"departure":1522701900000,"zoneId":"NA","stopIndex":0,"stopSequence":1,"vertexType":"TRANSIT"},"to":{"name":"Sûreté du Québec (Roitelets / Lorenzo-Genest)","stopId":"1:58","stopCode":"58","lon":-71.048311,"lat":48.40979,"arrival":1522703136000,"departure":1522703137000,"zoneId":"NA","stopIndex":26,"stopSequence":27,"vertexType":"TRANSIT"},"legGeometry":{"points":"evqfHpbwpLpFcj@IaKmFy^_DaZz@u]SeV}@aNs@gKToKd@gTnCyHkGuLqFqJ_DeFf@iIvGsKlIrH`JlH`EfDnOdIdGlGjL|BzBiLv@}L`b@fNvVvrC","length":27},"routeShortName":"12","routeLongName":"Rivière du Moulin","rentedBike":false,"transitLeg":true,"duration":1236.0,"steps":[]},{"startTime":1522703137000,"endTime":1522703273000,"departureDelay":0,"arrivalDelay":0,"realTime":false,"distance":169.937,"pathway":false,"mode":"WALK","route":"","agencyTimeZoneOffset":-14400000,"interlineWithPreviousLeg":false,"from":{"name":"Sûreté du Québec (Roitelets / Lorenzo-Genest)","stopId":"1:58","stopCode":"58","lon":-71.048311,"lat":48.40979,"arrival":1522703136000,"departure":1522703137000,"zoneId":"NA","stopIndex":26,"stopSequence":27,"vertexType":"TRANSIT"},"to":{"name":"Destination","lon":-71.049983,"lat":48.410047,"arrival":1522703273000,"orig":"","vertexType":"NORMAL"},"legGeometry":{"points":"{_nfHzqspLj@XFBu@|Dc@zBG`@","length":6},"rentedBike":false,"transitLeg":false,"duration":136.0,"steps":[{"distance":30.991,"relativeDirection":"DEPART","streetName":"Rue Des Roitelets","absoluteDirection":"SOUTH","stayOn":false,"area":false,"bogusName":false,"lon":-71.04813827023435,"lat":48.409745631017636,"elevation":[]},{"distance":138.946,"relativeDirection":"RIGHT","streetName":"Rue Lorenzo-Genest","absoluteDirection":"NORTHWEST","stayOn":false,"area":false,"bogusName":false,"lon":-71.0482898,"lat":48.409485700000005,"elevation":[]}]}],"tooSloped":false},{"duration":2035,"startTime":1522702271000,"endTime":1522704306000,"walkTime":474,"transitTime":1259,"waitingTime":302,"walkDistance":605.7219699203602,"walkLimitExceeded":false,"elevationLost":0.0,"elevationGained":0.0,"transfers":1,"legs":[{"startTime":1522702271000,"endTime":1522702400000,"departureDelay":0,"arrivalDelay":0,"realTime":false,"distance":160.955,"pathway":false,"mode":"WALK","route":"","agencyTimeZoneOffset":-14400000,"interlineWithPreviousLeg":false,"from":{"name":"Origin","lon":-71.072929,"lat":48.447287,"departure":1522702271000,"orig":"","vertexType":"NORMAL"},"to":{"name":"Aréna / Cabot","stopId":"1:126","stopCode":"126","lon":-71.071852,"lat":48.448027,"arrival":1522702400000,"departure":1522702401000,"zoneId":"NA","stopIndex":7,"stopSequence":8,"vertexType":"TRANSIT"},"legGeometry":{"points":"oiufH~jxpLISMa@IWESISK_@Q]SQWE[ASBS@?j@","length":14},"alerts":[{"alertHeaderText":"Unpaved surface"}],"rentedBike":false,"transitLeg":false,"duration":129.0,"steps":[{"distance":144.965,"relativeDirection":"DEPART","streetName":"Rue Cabot","absoluteDirection":"NORTHEAST","stayOn":false,"area":false,"bogusName":false,"lon":-71.072633,"lat":48.447125,"elevation":[],"alerts":[{"alertHeaderText":"Unpaved surface"}]},{"distance":15.99,"relativeDirection":"LEFT","streetName":"Rue de l'Aréna","absoluteDirection":"WEST","stayOn":false,"area":false,"bogusName":false,"lon":-71.0716385,"lat":48.448087900000004,"elevation":[]}]},{"startTime":1522702401000,"endTime":1522703100000,"departureDelay":0,"arrivalDelay":0,"realTime":false,"distance":4775.75594617937,"pathway":false,"mode":"BUS","route":"23","agencyName":"Société de Transport du Saguenay","agencyUrl":"http://ville.saguenay.ca/fr/services-aux-citoyens/transport-sts","agencyTimeZoneOffset":-14400000,"routeColor":"FF00FF","routeType":3,"routeId":"1:23","routeTextColor":"FFFFFF","interlineWithPreviousLeg":false,"tripBlockId":"5","headsign":"Terminus Chicoutimi","agencyId":"0","tripId":"1:217270","serviceDate":"20180402","from":{"name":"Aréna / Cabot","stopId":"1:126","stopCode":"126","lon":-71.071852,"lat":48.448027,"arrival":1522702400000,"departure":1522702401000,"zoneId":"NA","stopIndex":7,"stopSequence":8,"vertexType":"TRANSIT"},"to":{"name":"Terminus Chicoutimi","stopId":"1:1289","stopCode":"1289","lon":-71.066163,"lat":48.428677,"arrival":1522703100000,"departure":1522703400000,"zoneId":"NA","stopIndex":26,"stopSequence":27,"vertexType":"TRANSIT"},"legGeometry":{"points":"qoufHdfxpLAk@aALa@?YEUKc@Yc@_@KOIUGUEWAW?YBqAH_AXeC@IdB_Mh@_EJk@d@kDhAqI`AgHz@oGBU?UAWCWUwAWD]B]AUEoAc@kE}AOIq@g@g@u@]w@b@s@T[~CkFf@s@\\e@x@}@jAeAXQZStBaAh@]`@]`@i@l@kDF_@R{AFWFMPIPC`@BT@V?TAVKLENCLCJ@J@xAb@x@Zz@\\CP?R@N@NFLFF`GtBx@Xw@pG@l@B\\DXL\\RZDFXPf@N@v@Bp@Dr@l@~HNlAH\\@HLd@\\z@Xd@X\\RTXRr@Zn@PfExAvDpALnBJt@Pp@|@`DHZPn@`@rBNnAFr@DbA?bB@jABzA?p@A???A???A?A???A@??A?A@??A@?@A??@A@???@A@?@?@A@?@?@?@?@???@?@?@?@?@?@@@?@?@@@?@@@?@@@?@@?@@??@@@?E`@Kr@]rACVEl@I|AAr@JbAWJe@FUAM?a@Ke@YYWWa@v@}@RQPMz@k@tAe@REZG^Af@@X@VF`@Jn@XbClAr@Xt\\`PrAb@pA^hBTjAFj@Pb@JPHLLJNJRFXDT?X?ZEVEVKTMNMHMFOB}DWSGOSYcAN}FFkAF}DJyDd@wPV_HjAN~ALI`C","length":235},"routeShortName":"23","routeLongName":"Côte Verdun via Aréna du Plateau","rentedBike":false,"transitLeg":true,"duration":699.0,"steps":[]},{"startTime":1522703400000,"endTime":1522703960000,"departureDelay":0,"arrivalDelay":0,"realTime":false,"distance":2797.2586867015984,"pathway":false,"mode":"BUS","route":"21S","agencyName":"Société de Transport du Saguenay","agencyUrl":"http://ville.saguenay.ca/fr/services-aux-citoyens/transport-sts","agencyTimeZoneOffset":-14400000,"routeColor":"8B0000","routeType":3,"routeId":"1:21S","routeTextColor":"FFFFFF","interlineWithPreviousLeg":false,"tripBlockId":"53","headsign":"Costco","agencyId":"0","tripId":"1:218475","serviceDate":"20180402","from":{"name":"Terminus Chicoutimi","stopId":"1:1289","stopCode":"1289","lon":-71.066163,"lat":48.428677,"arrival":1522703100000,"departure":1522703400000,"zoneId":"NA","stopIndex":0,"stopSequence":1,"vertexType":"TRANSIT"},"to":{"name":"boul. Université / Murdock","stopId":"1:80","stopCode":"80","lon":-71.050111,"lat":48.411498,"arrival":1522703960000,"departure":1522703961000,"zoneId":"NA","stopIndex":11,"stopSequence":12,"vertexType":"TRANSIT"},"legGeometry":{"points":"_vqfH``wpLt@F@o@|AL|BVfCNF}D@YRcFJgLNuNDkCHkFVoKT}@fBnB@BbK|Jl@_Bt@cATm@N}@?i@AgAAIG{@ScBCg@@i@rCmJf@wA`BbBxA|AtCsIFIHAtErE~B~BVRPl@hDhD|@|@JJt@nAP^ZPLb@dHiGRQHG^Q\\Mb@I~CILCHAXKXMXQRQPQT[\\s@^aAtAaERc@zAkE","length":67},"routeShortName":"21S","routeLongName":"Term. Chic -> Cégep / UQAC -> Costco","rentedBike":false,"transitLeg":true,"duration":560.0,"steps":[]},{"startTime":1522703961000,"endTime":1522704306000,"departureDelay":0,"arrivalDelay":0,"realTime":false,"distance":444.629,"pathway":false,"mode":"WALK","route":"","agencyTimeZoneOffset":-14400000,"interlineWithPreviousLeg":false,"from":{"name":"boul. Université / Murdock","stopId":"1:80","stopCode":"80","lon":-71.050111,"lat":48.411498,"arrival":1522703960000,"departure":1522703961000,"zoneId":"NA","stopIndex":11,"stopSequence":12,"vertexType":"TRANSIT"},"to":{"name":"Destination","lon":-71.049983,"lat":48.410047,"arrival":1522704306000,"orig":"","vertexType":"NORMAL"},"legGeometry":{"points":"aknfH|}spL}AlELJx@|@bDfDvAyDVoAZsBVm@D[","length":10},"rentedBike":false,"transitLeg":false,"duration":345.0,"steps":[{"distance":91.298,"relativeDirection":"DEPART","streetName":"Boulevard de l'Université","absoluteDirection":"NORTHWEST","stayOn":false,"area":false,"bogusName":false,"lon":-71.05006857152243,"lat":48.41153928216614,"elevation":[]},{"distance":158.887,"relativeDirection":"LEFT","streetName":"Boulevard Talbot","absoluteDirection":"SOUTHWEST","stayOn":false,"area":false,"bogusName":false,"lon":-71.0510904,"lat":48.412002,"elevation":[]},{"distance":183.487,"relativeDirection":"LEFT","streetName":"path","absoluteDirection":"SOUTHEAST","stayOn":false,"area":false,"bogusName":true,"lon":-71.05230110000001,"lat":48.4108205,"elevation":[]},{"distance":10.957,"relativeDirection":"SLIGHTLY_LEFT","streetName":"Rue Lorenzo-Genest","absoluteDirection":"EAST","stayOn":false,"area":false,"bogusName":false,"lon":-71.0501637,"lat":48.4100046,"elevation":[]}]}],"tooSloped":false}]},"debugOutput":{"precalculationTime":39,"pathCalculationTime":32,"pathTimes":[19,6,7],"renderingTime":0,"totalTime":71,"timedOut":false},"elevationMetadata":{"ellipsoidToGeoidDifference":-28.885904201182168,"geoidElevation":false}}