{"requestParameters":{"date":"2018/04/02","walkSpeed":"1.33","walkReluctance":"2.0","fromPlace":"48.426433,-71.06748899","maxWalkDistance":"3000","waitReluctance":"1.0","carSpeed":"33","numItineraries":"3","waitAtBeginningFactor":"0.4","mode":"TRANSIT,WALK","ignoreRealtimeUpdates":"false","stairsReluctance":"2.0","toPlace":"48.405035,-71.048278","time":"17:0:00"},"plan":{"date":1522702800000,"from":{"name":"Origin","lon":-71.06748899,"lat":48.426433,"orig":"","vertexType":"NORMAL"},"to":{"name":"Destination","lon":-71.048278,"lat":48.405035,"orig":"","vertexType":"NORMAL"},"itineraries":[{"duration":1389,"startTime":1522703301000,"endTime":1522704690000,"walkTime":884,"transitTime":503,"waitingTime":2,"walkDistance":1133.6970375902729,"walkLimitExceeded":false,"elevationLost":0.0,"elevationGained":0.0,"transfers":0,"legs":[{"startTime":1522703301000,"endTime":1522703456000,"departureDelay":0,"arrivalDelay":0,"realTime":false,"distance":199.959,"pathway":false,"mode":"WALK","route":"","agencyTimeZoneOffset":-14400000,"interlineWithPreviousLeg":false,"from":{"name":"Origin","lon":-71.06748899,"lat":48.426433,"departure":1522703301000,"orig":"","vertexType":"NORMAL"},"to":{"name":"Jacques-Cartier / Morin","stopId":"1:70","stopCode":"70","lon":-71.064766,"lat":48.426469,"arrival":1522703456000,"departure":1522703457000,"zoneId":"NA","stopIndex":1,"stopSequence":2,"vertexType":"TRANSIT"},"legGeometry":{"points":"uiqfHtjwpLBiABaAJeEDwC@s@","length":6},"rentedBike":false,"transitLeg":false,"duration":155.0,"steps":[{"distance":199.959,"relativeDirection":"DEPART","streetName":"Rue Jacques-Cartier Est","absoluteDirection":"EAST","stayOn":false,"area":false,"bogusName":false,"lon":-71.06746203668236,"lat":48.42667034866264,"elevation":[]}]},{"startTime":1522703457000,"endTime":1522703960000,"departureDelay":0,"arrivalDelay":0,"realTime":false,"distance":2530.97957469101,"pathway":false,"mode":"BUS","route":"21S","agencyName":"Société de Transport du Saguenay","agencyUrl":"http://ville.saguenay.ca/fr/services-aux-citoyens/transport-sts","agencyTimeZoneOffset":-14400000,"routeColor":"8B0000","routeType":3,"routeId":"1:21S","routeTextColor":"FFFFFF","interlineWithPreviousLeg":false,"tripBlockId":"53","headsign":"Costco","agencyId":"0","tripId":"1:218475","serviceDate":"20180402","from":{"name":"Jacques-Cartier / Morin","stopId":"1:70","stopCode":"70","lon":-71.064766,"lat":48.426469,"arrival":1522703456000,"departure":1522703457000,"zoneId":"NA","stopIndex":1,"stopSequence":2,"vertexType":"TRANSIT"},"to":{"name":"boul. Université / Murdock","stopId":"1:80","stopCode":"80","lon":-71.050111,"lat":48.411498,"arrival":1522703960000,"departure":1522703961000,"zoneId":"NA","stopIndex":11,"stopSequence":12,"vertexType":"TRANSIT"},"legGeometry":{"points":"yhqfHvyvpLRcFJgLNuNDkCHkFVoKT}@fBnB@BbK|Jl@_Bt@cATm@N}@?i@AgAAIG{@ScBCg@@i@rCmJf@wA`BbBxA|AtCsIFIHAtErE~B~BVRPl@hDhD|@|@JJt@nAP^ZPLb@dHiGRQHG^Q\\Mb@I~CILCHAXKXMXQRQPQT[\\s@^aAtAaERc@zAkE","length":60},"routeShortName":"21S","routeLongName":"Term. Chic -> Cégep / UQAC -> Costco","rentedBike":false,"transitLeg":true,"duration":503.0,"steps":[]},{"startTime":1522703961000,"endTime":1522704690000,"departureDelay":0,"arrivalDelay":0,"realTime":false,"distance":933.623,"pathway":false,"mode":"WALK","route":"","agencyTimeZoneOffset":-14400000,"interlineWithPreviousLeg":false,"from":{"name":"boul. Université / Murdock","stopId":"1:80","stopCode":"80","lon":-71.050111,"lat":48.411498,"arrival":1522703960000,"departure":1522703961000,"zoneId":"NA","stopIndex":11,"stopSequence":12,"vertexType":"TRANSIT"},"to":{"name":"Destination","lon":-71.048278,"lat":48.405035,"arrival":1522704690000,"orig":"","vertexType":"NORMAL"},"legGeometry":{"points":"aknfH|}spLTo@xBeHF_@`@o@XMd@KJD~Av@j@XFBpAp@pG|Cl@V@@lB|@j@FL?j@GbCk@GcACc@Lu@jAkDbAH","length":25},"rentedBike":false,"transitLeg":false,"duration":729.0,"steps":[{"distance":162.51,"relativeDirection":"DEPART","streetName":"Boulevard de l'Université","absoluteDirection":"SOUTHEAST","stayOn":false,"area":false,"bogusName":false,"lon":-71.05006857152243,"lat":48.41153928216614,"elevation":[]},{"distance":62.949,"relativeDirection":"SLIGHTLY_RIGHT","streetName":"link","absoluteDirection":"SOUTHEAST","stayOn":false,"area":false,"bogusName":true,"lon":-71.04819570000001,"lat":48.410774100000005,"elevation":[]},{"distance":533.5,"relativeDirection":"SLIGHTLY_RIGHT","streetName":"Rue Des Roitelets","absoluteDirection":"SOUTH","stayOn":false,"area":false,"bogusName":false,"lon":-71.0478246,"lat":48.4102837,"elevation":[]},{"distance":136.063,"relativeDirection":"LEFT","streetName":"Rue Alfred-Rouleau","absoluteDirection":"EAST","stayOn":false,"area":false,"bogusName":false,"lon":-71.0495416,"lat":48.405743300000005,"elevation":[]},{"distance":38.601,"relativeDirection":"RIGHT","streetName":"Rue Cyrille-Vaillancourt","absoluteDirection":"SOUTH","stayOn":false,"area":false,"bogusName":false,"lon":-71.0478951,"lat":48.4053594,"elevation":[]}]}],"tooSloped":false},{"duration":1438,"startTime":1522703422000,"endTime":1522704860000,"walkTime":547,"transitTime":889,"waitingTime":2,"walkDistance":686.8924586406968,"walkLimitExceeded":false,"elevationLost":0.0,"elevationGained":0.0,"transfers":0,"legs":[{"startTime":1522703422000,"endTime":1522703699000,"departureDelay":0,"arrivalDelay":0,"realTime":false,"distance":354.447,"pathway":false,"mode":"WALK","route":"","agencyTimeZoneOffset":-14400000,"interlineWithPreviousLeg":false,"from":{"name":"Origin","lon":-71.06748899,"lat":48.426433,"departure":1522703422000,"orig":"","vertexType":"NORMAL"},"to":{"name":"Terminus Chicoutimi","stopId":"1:1289","stopCode":"1289","lon":-71.066163,"lat":48.428677,"arrival":1522703699000,"departure":1522703700000,"zoneId":"NA","stopIndex":0,"stopSequence":1,"vertexType":"TRANSIT"},"legGeometry":{"points":"uiqfHtjwpLBiABaAJeEkCQQAsBIc@MKESAcAK","length":11},"rentedBike":false,"transitLeg":false,"duration":277.0,"steps":[{"distance":124.734,"relativeDirection":"DEPART","streetName":"Rue Jacques-Cartier Est","absoluteDirection":"EAST","stayOn":false,"area":false,"bogusName":false,"lon":-71.06746203668236,"lat":48.42667034866264,"elevation":[]},{"distance":229.713,"relativeDirection":"LEFT","streetName":"Rue Morin","absoluteDirection":"NORTH","stayOn":false,"area":false,"bogusName":false,"lon":-71.0657774,"lat":48.426577300000005,"elevation":[]}]},{"startTime":1522703700000,"endTime":1522704589000,"departureDelay":0,"arrivalDelay":0,"realTime":false,"distance":4161.798962757783,"pathway":false,"mode":"BUS","route":"175","agencyName":"Société de Transport du Saguenay","agencyUrl":"http://ville.saguenay.ca/fr/services-aux-citoyens/transport-sts","agencyTimeZoneOffset":-14400000,"routeColor":"FF00FF","routeType":3,"routeId":"1:175","routeTextColor":"FFFFFF","interlineWithPreviousLeg":false,"tripBlockId":"6","headsign":"Costco","agencyId":"0","tripId":"1:217306","serviceDate":"20180402","from":{"name":"Terminus Chicoutimi","stopId":"1:1289","stopCode":"1289","lon":-71.066163,"lat":48.428677,"arrival":1522703699000,"departure":1522703700000,"zoneId":"NA","stopIndex":0,"stopSequence":1,"vertexType":"TRANSIT"},"to":{"name":"Émile Girardin / Roitelets","stopId":"1:253","stopCode":"253","lon":-71.050677,"lat":48.406726,"arrival":1522704589000,"departure":1522704590000,"zoneId":"NA","stopIndex":17,"stopSequence":18,"vertexType":"TRANSIT"},"legGeometry":{"points":"kvqfH~awpL~CgBbAqa@FwCBkAOsHAg@bAYUwMKoE@mB@kJ@iFbEf@xEj@iCtYp@r@z@`ABBvHtHXRx@l@VwAvAgB\\qBIuAC]g@yEzDuLbBbBvAxAMx@|@v@`A~@Xw@~D~DPxFZtA~ApE`N{LpFmEb@[ROl@[vDQXKfA[|@q@fAsBlEmMr@sBhCsKz@dAjB|@dM`GzCvAXrC","length":57},"routeShortName":"175","routeLongName":"Term. Chic / Costco","rentedBike":false,"transitLeg":true,"duration":889.0,"steps":[]},{"startTime":1522704590000,"endTime":1522704860000,"departureDelay":0,"arrivalDelay":0,"realTime":false,"distance":332.262,"pathway":false,"mode":"WALK","route":"","agencyTimeZoneOffset":-14400000,"interlineWithPreviousLeg":false,"from":{"name":"Émile Girardin / Roitelets","stopId":"1:253","stopCode":"253","lon":-71.050677,"lat":48.406726,"arrival":1522704589000,"departure":1522704590000,"zoneId":"NA","stopIndex":17,"stopSequence":18,"vertexType":"TRANSIT"},"to":{"name":"Destination","lon":-71.048278,"lat":48.405035,"arrival":1522704860000,"orig":"","vertexType":"NORMAL"},"legGeometry":{"points":"qlmfHnatpL@JBc@?gALa@LUNUbCk@GcACc@Lu@jAkDbAH","length":13},"rentedBike":false,"transitLeg":false,"duration":270.0,"steps":[{"distance":44.018,"relativeDirection":"DEPART","streetName":"Rue Émile-Girardin","absoluteDirection":"WEST","stayOn":false,"area":false,"bogusName":false,"lon":-71.05063801296859,"lat":48.406654574894674,"elevation":[]},{"distance":38.282,"relativeDirection":"SLIGHTLY_RIGHT","streetName":"link","absoluteDirection":"SOUTHEAST","stayOn":false,"area":false,"bogusName":true,"lon":-71.0501581,"lat":48.406621400000006,"elevation":[]},{"distance":75.298,"relativeDirection":"SLIGHTLY_RIGHT","streetName":"Rue Des Roitelets","absoluteDirection":"SOUTH","stayOn":false,"area":false,"bogusName":false,"lon":-71.0497612,"lat":48.4064046,"elevation":[]},{"distance":136.063,"relativeDirection":"LEFT","streetName":"Rue Alfred-Rouleau","absoluteDirection":"EAST","stayOn":false,"area":false,"bogusName":false,"lon":-71.0495416,"lat":48.405743300000005,"elevation":[]},{"distance":38.601,"relativeDirection":"RIGHT","streetName":"Rue Cyrille-Vaillancourt","absoluteDirection":"SOUTH","stayOn":false,"area":false,"bogusName":false,"lon":-71.0478951,"lat":48.4053594,"elevation":[]}]}],"tooSloped":false},{"duration":1438,"startTime":1522704322000,"endTime":1522705760000,"walkTime":547,"transitTime":889,"waitingTime":2,"walkDistance":686.8924586406968,"walkLimitExceeded":false,"elevationLost":0.0,"elevationGained":0.0,"transfers":0,"legs":[{"startTime":1522704322000,"endTime":1522704599000,"departureDelay":0,"arrivalDelay":0,"realTime":false,"distance":354.447,"pathway":false,"mode":"WALK","route":"","agencyTimeZoneOffset":-14400000,"interlineWithPreviousLeg":false,"from":{"name":"Origin","lon":-71.06748899,"lat":48.426433,"departure":1522704322000,"orig":"","vertexType":"NORMAL"},"to":{"name":"Terminus Chicoutimi","stopId":"1:1289","stopCode":"1289","lon":-71.066163,"lat":48.428677,"arrival":1522704599000,"departure":1522704600000,"zoneId":"NA","stopIndex":0,"stopSequence":1,"vertexType":"TRANSIT"},"legGeometry":{"points":"uiqfHtjwpLBiABaAJeEkCQQAsBIc@MKESAcAK","length":11},"rentedBike":false,"transitLeg":false,"duration":277.0,"steps":[{"distance":124.734,"relativeDirection":"DEPART","streetName":"Rue Jacques-Cartier Est","absoluteDirection":"EAST","stayOn":false,"area":false,"bogusName":false,"lon":-71.06746203668236,"lat":48.42667034866264,"elevation":[]},{"distance":229.713,"relativeDirection":"LEFT","streetName":"Rue Morin","absoluteDirection":"NORTH","stayOn":false,"area":false,"bogusName":false,"lon":-71.0657774,"lat":48.426577300000005,"elevation":[]}]},{"startTime":1522704600000,"endTime":1522705489000,"departureDelay":0,"arrivalDelay":0,"realTime":false,"distance":4161.798962757783,"pathway":false,"mode":"BUS","route":"175","agencyName":"Société de Transport du Saguenay","agencyUrl":"http://ville.saguenay.ca/fr/services-aux-citoyens/transport-sts","agencyTimeZoneOffset":-14400000,"routeColor":"FF00FF","routeType":3,"routeId":"1:175","routeTextColor":"FFFFFF","interlineWithPreviousLeg":false,"tripBlockId":"77","headsign":"Costco","agencyId":"0","tripId":"1:218639","serviceDate":"20180402","from":{"name":"Terminus Chicoutimi","stopId":"1:1289","stopCode":"1289","lon":-71.066163,"lat":48.428677,"arrival":1522704599000,"departure":1522704600000,"zoneId":"NA","stopIndex":0,"stopSequence":1,"vertexType":"TRANSIT"},"to":{"name":"Émile Girardin / Roitelets","stopId":"1:253","stopCode":"253","lon":-71.050677,"lat":48.406726,"arrival":1522705489000,"departure":1522705490000,"zoneId":"NA","stopIndex":17,"stopSequence":18,"vertexType":"TRANSIT"},"legGeometry":{"points":"kvqfH~awpL~CgBbAqa@FwCBkAOsHAg@bAYUwMKoE@mB@kJ@iFbEf@xEj@iCtYp@r@z@`ABBvHtHXRx@l@VwAvAgB\\qBIuAC]g@yEzDuLbBbBvAxAMx@|@v@`A~@Xw@~D~DPxFZtA~ApE`N{LpFmEb@[ROl@[vDQXKfA[|@q@fAsBlEmMr@sBhCsKz@dAjB|@dM`GzCvAXrC","length":57},"routeShortName":"175","routeLongName":"Term. Chic / Costco","rentedBike":false,"transitLeg":true,"duration":889.0,"steps":[]},{"startTime":1522705490000,"endTime":1522705760000,"departureDelay":0,"arrivalDelay":0,"realTime":false,"distance":332.262,"pathway":false,"mode":"WALK","route":"","agencyTimeZoneOffset":-14400000,"interlineWithPreviousLeg":false,"from":{"name":"Émile Girardin / Roitelets","stopId":"1:253","stopCode":"253","lon":-71.050677,"lat":48.406726,"arrival":1522705489000,"departure":1522705490000,"zoneId":"NA","stopIndex":17,"stopSequence":18,"vertexType":"TRANSIT"},"to":{"name":"Destination","lon":-71.048278,"lat":48.405035,"arrival":1522705760000,"orig":"","vertexType":"NORMAL"},"legGeometry":{"points":"qlmfHnatpL@JBc@?gALa@LUNUbCk@GcACc@Lu@jAkDbAH","length":13},"rentedBike":false,"transitLeg":false,"duration":270.0,"steps":[{"distance":44.018,"relativeDirection":"DEPART","streetName":"Rue Émile-Girardin","absoluteDirection":"WEST","stayOn":false,"area":false,"bogusName":false,"lon":-71.05063801296859,"lat":48.406654574894674,"elevation":[]},{"distance":38.282,"relativeDirection":"SLIGHTLY_RIGHT","streetName":"link","absoluteDirection":"SOUTHEAST","stayOn":false,"area":false,"bogusName":true,"lon":-71.0501581,"lat":48.406621400000006,"elevation":[]},{"distance":75.298,"relativeDirection":"SLIGHTLY_RIGHT","streetName":"Rue Des Roitelets","absoluteDirection":"SOUTH","stayOn":false,"area":false,"bogusName":false,"lon":-71.0497612,"lat":48.4064046,"elevation":[]},{"distance":136.063,"relativeDirection":"LEFT","streetName":"Rue Alfred-Rouleau","absoluteDirection":"EAST","stayOn":false,"area":false,"bogusName":false,"lon":-71.0495416,"lat":48.405743300000005,"elevation":[]},{"distance":38.601,"relativeDirection":"RIGHT","streetName":"Rue Cyrille-Vaillancourt","absoluteDirection":"SOUTH","stayOn":false,"area":false,"bogusName":false,"lon":-71.0478951,"lat":48.4053594,"elevation":[]}]}],"tooSloped":false}]},"debugOutput":{"precalculationTime":45,"pathCalculationTime":36,"pathTimes":[17,10,9],"renderingTime":1,"totalTime":82,"timedOut":false},"elevationMetadata":{"ellipsoidToGeoidDifference":-28.885904201182168,"geoidElevation":false}}