{"requestParameters":{"date":"2018/04/02","walkSpeed":"1.33","walkReluctance":"2.0","fromPlace":"48.405035,-71.048278","maxWalkDistance":"3000","waitReluctance":"1.0","carSpeed":"33","numItineraries":"3","waitAtBeginningFactor":"0.4","mode":"TRANSIT,WALK","ignoreRealtimeUpdates":"false","stairsReluctance":"2.0","toPlace":"48.426433,-71.06748899","time":"13:0:00"},"plan":{"date":1522688400000,"from":{"name":"Origin","lon":-71.048278,"lat":48.405035,"orig":"","vertexType":"NORMAL"},"to":{"name":"Destination","lon":-71.06748899,"lat":48.426433,"orig":"","vertexType":"NORMAL"},"itineraries":[{"duration":1488,"startTime":1522688521000,"endTime":1522690009000,"walkTime":1227,"transitTime":259,"waitingTime":2,"walkDistance":1559.61197743422,"walkLimitExceeded":false,"elevationLost":0.0,"elevationGained":0.0,"transfers":0,"legs":[{"startTime":1522688521000,"endTime":1522688791000,"departureDelay":0,"arrivalDelay":0,"realTime":false,"distance":332.26199999999994,"pathway":false,"mode":"WALK","route":"","agencyTimeZoneOffset":-14400000,"interlineWithPreviousLeg":false,"from":{"name":"Origin","lon":-71.048278,"lat":48.405035,"departure":1522688521000,"orig":"","vertexType":"NORMAL"},"to":{"name":"Émile Girardin / Roitelets","stopId":"1:253","stopCode":"253","lon":-71.050677,"lat":48.406726,"arrival":1522688791000,"departure":1522688792000,"zoneId":"NA","stopIndex":27,"stopSequence":28,"vertexType":"TRANSIT"},"legGeometry":{"points":"ibmfHtpspLcAIkAjDMt@Bb@FbAcCj@OTMTM`@?fACb@AK","length":13},"rentedBike":false,"transitLeg":false,"duration":270.0,"steps":[{"distance":38.601,"relativeDirection":"DEPART","streetName":"Rue Cyrille-Vaillancourt","absoluteDirection":"NORTH","stayOn":false,"area":false,"bogusName":false,"lon":-71.04794493847979,"lat":48.4050138306427,"elevation":[]},{"distance":136.063,"relativeDirection":"LEFT","streetName":"Rue Alfred-Rouleau","absoluteDirection":"NORTHWEST","stayOn":false,"area":false,"bogusName":false,"lon":-71.0478951,"lat":48.4053594,"elevation":[]},{"distance":75.298,"relativeDirection":"RIGHT","streetName":"Rue Des Roitelets","absoluteDirection":"NORTH","stayOn":false,"area":false,"bogusName":false,"lon":-71.0495416,"lat":48.405743300000005,"elevation":[]},{"distance":38.282,"relativeDirection":"SLIGHTLY_LEFT","streetName":"link","absoluteDirection":"NORTHWEST","stayOn":false,"area":false,"bogusName":true,"lon":-71.0497612,"lat":48.4064046,"elevation":[]},{"distance":44.018,"relativeDirection":"SLIGHTLY_LEFT","streetName":"Rue Émile-Girardin","absoluteDirection":"WEST","stayOn":false,"area":false,"bogusName":false,"lon":-71.0501581,"lat":48.406621400000006,"elevation":[]}]},{"startTime":1522688792000,"endTime":1522689051000,"departureDelay":0,"arrivalDelay":0,"realTime":false,"distance":2037.0181973472952,"pathway":false,"mode":"BUS","route":"12","agencyName":"Société de Transport du Saguenay","agencyUrl":"http://ville.saguenay.ca/fr/services-aux-citoyens/transport-sts","agencyTimeZoneOffset":-14400000,"routeColor":"556B2F","routeType":3,"routeId":"1:12","routeTextColor":"FFFFFF","interlineWithPreviousLeg":false,"tripBlockId":"27","headsign":"Terminus UQAC","agencyId":"0","tripId":"1:218012","serviceDate":"20180402","from":{"name":"Émile Girardin / Roitelets","stopId":"1:253","stopCode":"253","lon":-71.050677,"lat":48.406726,"arrival":1522688791000,"departure":1522688792000,"zoneId":"NA","stopIndex":27,"stopSequence":28,"vertexType":"TRANSIT"},"to":{"name":"Centre George Vézina (Bégin)","stopId":"1:583","stopCode":"583","lon":-71.0606,"lat":48.4201,"arrival":1522689051000,"departure":1522689052000,"zoneId":"NA","stopIndex":35,"stopSequence":36,"vertexType":"TRANSIT"},"legGeometry":{"points":"_mmfHvatpLcAjKcP~b@iHhDaGz@uSl[uCYmIeIeJ_J","length":9},"routeShortName":"12","routeLongName":"Rivière du Moulin","rentedBike":false,"transitLeg":true,"duration":259.0,"steps":[]},{"startTime":1522689052000,"endTime":1522690009000,"departureDelay":0,"arrivalDelay":0,"realTime":false,"distance":1227.0589999999997,"pathway":false,"mode":"WALK","route":"","agencyTimeZoneOffset":-14400000,"interlineWithPreviousLeg":false,"from":{"name":"Centre George Vézina (Bégin)","stopId":"1:583","stopCode":"583","lon":-71.0606,"lat":48.4201,"arrival":1522689051000,"departure":1522689052000,"zoneId":"NA","stopIndex":35,"stopSequence":36,"vertexType":"TRANSIT"},"to":{"name":"Destination","lon":-71.06748899,"lat":48.426433,"arrival":1522690009000,"orig":"","vertexType":"NORMAL"},"legGeometry":{"points":"y`pfHf`vpLSSKVQHq@?i@AMAm@hQAb@An@EtBCj@QfHMAM?qBCs@?O?}@EcAIw@EuAKs@CgDS}AKQG_@C{BUsAGKdEC`AChA","length":32},"rentedBike":false,"transitLeg":false,"duration":957.0,"steps":[{"distance":13.986,"relativeDirection":"DEPART","streetName":"Rue Bégin","absoluteDirection":"NORTHEAST","stayOn":false,"area":false,"bogusName":false,"lon":-71.06067782404135,"lat":48.420134620151806,"elevation":[]},{"distance":80.85,"relativeDirection":"LEFT","streetName":"Rue LaFontaine","absoluteDirection":"NORTHWEST","stayOn":false,"area":false,"bogusName":false,"lon":-71.0605723,"lat":48.4202391,"elevation":[]},{"distance":418.618,"relativeDirection":"LEFT","streetName":"Boulevard de l'Université","absoluteDirection":"WEST","stayOn":false,"area":false,"bogusName":false,"lon":-71.0607224,"lat":48.420917700000004,"elevation":[]},{"distance":588.8710000000001,"relativeDirection":"RIGHT","streetName":"Rue Morin","absoluteDirection":"NORTH","stayOn":false,"area":false,"bogusName":false,"lon":-71.06636540000001,"lat":48.4213,"elevation":[]},{"distance":124.734,"relativeDirection":"LEFT","streetName":"Rue Jacques-Cartier Est","absoluteDirection":"WEST","stayOn":false,"area":false,"bogusName":false,"lon":-71.0657774,"lat":48.426577300000005,"elevation":[]}]}],"tooSloped":false},{"duration":1700,"startTime":1522688899000,"endTime":1522690599000,"walkTime":552,"transitTime":1146,"waitingTime":2,"walkDistance":712.2407819528615,"walkLimitExceeded":false,"elevationLost":0.0,"elevationGained":0.0,"transfers":0,"legs":[{"startTime":1522688899000,"endTime":1522689446000,"departureDelay":0,"arrivalDelay":0,"realTime":false,"distance":706.556,"pathway":false,"mode":"WALK","route":"","agencyTimeZoneOffset":-14400000,"interlineWithPreviousLeg":false,"from":{"name":"Origin","lon":-71.048278,"lat":48.405035,"departure":1522688899000,"orig":"","vertexType":"NORMAL"},"to":{"name":"Engoulevents / Sternes","stopId":"1:1568","stopCode":"1568","lon":-71.050864,"lat":48.400594,"arrival":1522689446000,"departure":1522689447000,"zoneId":"NA","stopIndex":10,"stopSequence":11,"vertexType":"TRANSIT"},"legGeometry":{"points":"ibmfHtpspLJ@z@AzA[h@Mb@OtE_Bj@bEBRRVf@pDl@jEXzCp@U|AOf@D|@D@?","length":18},"rentedBike":false,"transitLeg":false,"duration":547.0,"steps":[{"distance":261.053,"relativeDirection":"DEPART","streetName":"Rue Cyrille-Vaillancourt","absoluteDirection":"SOUTH","stayOn":false,"area":false,"bogusName":false,"lon":-71.04794493847979,"lat":48.4050138306427,"elevation":[]},{"distance":306.187,"relativeDirection":"RIGHT","streetName":"Rue des Saguenéens","absoluteDirection":"WEST","stayOn":false,"area":false,"bogusName":false,"lon":-71.04717790000001,"lat":48.4027347,"elevation":[]},{"distance":139.316,"relativeDirection":"LEFT","streetName":"Rue des Engoulevents","absoluteDirection":"SOUTH","stayOn":false,"area":false,"bogusName":false,"lon":-71.0510608,"lat":48.401836200000005,"elevation":[]}]},{"startTime":1522689447000,"endTime":1522690593000,"departureDelay":0,"arrivalDelay":0,"realTime":false,"distance":6249.676148646763,"pathway":false,"mode":"BUS","route":"15","agencyName":"Société de Transport du Saguenay","agencyUrl":"http://ville.saguenay.ca/fr/services-aux-citoyens/transport-sts","agencyTimeZoneOffset":-14400000,"routeColor":"FF00FF","routeType":3,"routeId":"1:15","routeTextColor":"FFFFFF","interlineWithPreviousLeg":false,"tripBlockId":"30","headsign":"Terminus Chicoutimi","agencyId":"0","tripId":"1:218100","serviceDate":"20180402","from":{"name":"Engoulevents / Sternes","stopId":"1:1568","stopCode":"1568","lon":-71.050864,"lat":48.400594,"arrival":1522689446000,"departure":1522689447000,"zoneId":"NA","stopIndex":10,"stopSequence":11,"vertexType":"TRANSIT"},"to":{"name":"Jacques-Cartier / Tessier","stopId":"1:62","stopCode":"62","lon":-71.067531,"lat":48.426736,"arrival":1522690593000,"departure":1522690594000,"zoneId":"NA","stopIndex":37,"stopSequence":38,"vertexType":"TRANSIT"},"legGeometry":{"points":"uflfHxbtpLGAeGT~@~KKrKyAnL[hBUxAm@nCcAlDeCvGmA|CUr@}@~A_@\\_DvCEZcA|@UP_@d@Yl@oBdFeCxG_CfGYVQXS\\dK|HlFZbC\\p@zA\\rB@hBiArG{BNw@FiG}@iDwAECcCcBo@y@sEeGe@o@qAa@m@MoB?C@}BZwAc@oA_Bs@gDCKZ{Di@QECc@_@sAkAoBwB_EcE{A_BoAmAk@o@cCaCkIkIaJaJUUwBaCj@wCjAsCzGoG_CoHL{D_@kAqD{CQr@iAcAy@w@L{@wAuA_B_B_EpLDh@NbBVvCIxBg@`Am@l@Sb@a@rAqDqDmEkE]a@kAqAU|@WnKG|DGxDOdPKvJU|F?XQlJC~@ChA","length":104},"routeShortName":"15","routeLongName":"Term. Chic / Costco","rentedBike":false,"transitLeg":true,"duration":1146.0,"steps":[]},{"startTime":1522690594000,"endTime":1522690599000,"departureDelay":0,"arrivalDelay":0,"realTime":false,"distance":5.622,"pathway":false,"mode":"WALK","route":"","agencyTimeZoneOffset":-14400000,"interlineWithPreviousLeg":false,"from":{"name":"Jacques-Cartier / Tessier","stopId":"1:62","stopCode":"62","lon":-71.067531,"lat":48.426736,"arrival":1522690593000,"departure":1522690594000,"zoneId":"NA","stopIndex":37,"stopSequence":38,"vertexType":"TRANSIT"},"to":{"name":"Destination","lon":-71.06748899,"lat":48.426433,"arrival":1522690599000,"orig":"","vertexType":"NORMAL"},"legGeometry":{"points":"uiqfHbkwpL?M","length":2},"rentedBike":false,"transitLeg":false,"duration":5.0,"steps":[{"distance":5.622,"relativeDirection":"DEPART","streetName":"Rue Jacques-Cartier Est","absoluteDirection":"EAST","stayOn":false,"area":false,"bogusName":false,"lon":-71.0675380239516,"lat":48.42667414840684,"elevation":[]}]}],"tooSloped":false},{"duration":1833,"startTime":1522689305000,"endTime":1522691138000,"walkTime":540,"transitTime":1291,"waitingTime":2,"walkDistance":685.4479323268603,"walkLimitExceeded":false,"elevationLost":0.0,"elevationGained":0.0,"transfers":0,"legs":[{"startTime":1522689305000,"endTime":1522689568000,"departureDelay":0,"arrivalDelay":0,"realTime":false,"distance":330.87799999999993,"pathway":false,"mode":"WALK","route":"","agencyTimeZoneOffset":-14400000,"interlineWithPreviousLeg":false,"from":{"name":"Origin","lon":-71.048278,"lat":48.405035,"departure":1522689305000,"orig":"","vertexType":"NORMAL"},"to":{"name":"Émile-Girardin / Roitelets","stopId":"1:268","stopCode":"268","lon":-71.050698,"lat":48.406546,"arrival":1522689568000,"departure":1522689569000,"zoneId":"NA","stopIndex":14,"stopSequence":15,"vertexType":"TRANSIT"},"legGeometry":{"points":"ibmfHtpspLcAIkAjDMt@Bb@FbAcCj@OTMTM`@?fACb@@F","length":13},"rentedBike":false,"transitLeg":false,"duration":263.0,"steps":[{"distance":38.601,"relativeDirection":"DEPART","streetName":"Rue Cyrille-Vaillancourt","absoluteDirection":"NORTH","stayOn":false,"area":false,"bogusName":false,"lon":-71.04794493847979,"lat":48.4050138306427,"elevation":[]},{"distance":136.063,"relativeDirection":"LEFT","streetName":"Rue Alfred-Rouleau","absoluteDirection":"NORTHWEST","stayOn":false,"area":false,"bogusName":false,"lon":-71.0478951,"lat":48.4053594,"elevation":[]},{"distance":75.298,"relativeDirection":"RIGHT","streetName":"Rue Des Roitelets","absoluteDirection":"NORTH","stayOn":false,"area":false,"bogusName":false,"lon":-71.0495416,"lat":48.405743300000005,"elevation":[]},{"distance":38.282,"relativeDirection":"SLIGHTLY_LEFT","streetName":"link","absoluteDirection":"NORTHWEST","stayOn":false,"area":false,"bogusName":true,"lon":-71.0497612,"lat":48.4064046,"elevation":[]},{"distance":42.634,"relativeDirection":"SLIGHTLY_LEFT","streetName":"Rue Émile-Girardin","absoluteDirection":"WEST","stayOn":false,"area":false,"bogusName":false,"lon":-71.0501581,"lat":48.406621400000006,"elevation":[]}]},{"startTime":1522689569000,"endTime":1522690860000,"departureDelay":0,"arrivalDelay":0,"realTime":false,"distance":8061.467510349102,"pathway":false,"mode":"BUS","route":"12","agencyName":"Société de Transport du Saguenay","agencyUrl":"http://ville.saguenay.ca/fr/services-aux-citoyens/transport-sts","agencyTimeZoneOffset":-14400000,"routeColor":"556B2F","routeType":3,"routeId":"1:12","routeTextColor":"FFFFFF","interlineWithPreviousLeg":false,"tripBlockId":"26","headsign":"Terminus Chicoutimi","agencyId":"0","tripId":"1:217977","serviceDate":"20180402","from":{"name":"Émile-Girardin / Roitelets","stopId":"1:268","stopCode":"268","lon":-71.050698,"lat":48.406546,"arrival":1522689568000,"departure":1522689569000,"zoneId":"NA","stopIndex":14,"stopSequence":15,"vertexType":"TRANSIT"},"to":{"name":"Terminus Chicoutimi","stopId":"1:1289","stopCode":"1289","lon":-71.066163,"lat":48.428677,"arrival":1522690860000,"departure":1522690861000,"zoneId":"NA","stopIndex":33,"stopSequence":34,"vertexType":"TRANSIT"},"legGeometry":{"points":"ukmfHxatpLYkD}CyA}KmFgD_BgAgBn@kFD_NoIgrAmD_WcAaLaDHoDJi`@wVoAbDbA|AnBU|B|AfBlAyLtKoGxFcFqDkJaHgEoDmDwC_TqQsBeB{HjWfAvAfM|O|FlHmB`IgA|Cy@`UYzHZvMR~Hr@~ZPvHsCrMFxf@|ApJj@nDDl]BvZdCXJhC","length":47},"routeShortName":"12","routeLongName":"Rivière du Moulin","rentedBike":false,"transitLeg":true,"duration":1291.0,"steps":[]},{"startTime":1522690861000,"endTime":1522691138000,"departureDelay":0,"arrivalDelay":0,"realTime":false,"distance":354.447,"pathway":false,"mode":"WALK","route":"","agencyTimeZoneOffset":-14400000,"interlineWithPreviousLeg":false,"from":{"name":"Terminus Chicoutimi","stopId":"1:1289","stopCode":"1289","lon":-71.066163,"lat":48.428677,"arrival":1522690860000,"departure":1522690861000,"zoneId":"NA","stopIndex":33,"stopSequence":34,"vertexType":"TRANSIT"},"to":{"name":"Destination","lon":-71.06748899,"lat":48.426433,"arrival":1522691138000,"orig":"","vertexType":"NORMAL"},"legGeometry":{"points":"{uqfHb~vpLbAJR@JDb@LrBHP@jCPKdEC`AChA","length":11},"rentedBike":false,"transitLeg":false,"duration":277.0,"steps":[{"distance":229.71300000000002,"relativeDirection":"DEPART","streetName":"Rue Morin","absoluteDirection":"SOUTH","stayOn":false,"area":false,"bogusName":false,"lon":-71.0654590096484,"lat":48.428628638946556,"elevation":[]},{"distance":124.734,"relativeDirection":"RIGHT","streetName":"Rue Jacques-Cartier Est","absoluteDirection":"WEST","stayOn":false,"area":false,"bogusName":false,"lon":-71.0657774,"lat":48.426577300000005,"elevation":[]}]}],"tooSloped":false}]},"debugOutput":{"precalculationTime":44,"pathCalculationTime":42,"pathTimes":[23,9,10],"renderingTime":0,"totalTime":86,"timedOut":false},"elevationMetadata":{"ellipsoidToGeoidDifference":-28.885904201182168,"geoidElevation":false}}