{"requestParameters":{"date":"2018/04/02","walkSpeed":"1.33","walkReluctance":"2.0","fromPlace":"48.418729,-71.053021","maxWalkDistance":"3000","waitReluctance":"1.0","carSpeed":"33","numItineraries":"3","waitAtBeginningFactor":"0.4","mode":"TRANSIT,WALK","ignoreRealtimeUpdates":"false","stairsReluctance":"2.0","toPlace":"48.423469,-71.045152","time":"11:30:00"},"plan":{"date":1522683000000,"from":{"name":"Origin","lon":-71.053021,"lat":48.418729,"orig":"","vertexType":"NORMAL"},"to":{"name":"Destination","lon":-71.045152,"lat":48.423469,"orig":"","vertexType":"NORMAL"},"itineraries":[{"duration":852,"startTime":1522683000000,"endTime":1522683852000,"walkTime":852,"transitTime":0,"waitingTime":0,"walkDistance":1051.316834574081,"walkLimitExceeded":false,"elevationLost":0.0,"elevationGained":0.0,"transfers":0,"legs":[{"startTime":1522683000000,"endTime":1522683852000,"departureDelay":0,"arrivalDelay":0,"realTime":false,"distance":1050.933,"pathway":false,"mode":"WALK","route":"","agencyTimeZoneOffset":-14400000,"interlineWithPreviousLeg":false,"from":{"name":"Origin","lon":-71.053021,"lat":48.418729,"departure":1522683000000,"orig":"","vertexType":"NORMAL"},"to":{"name":"Destination","lon":-71.045152,"lat":48.423469,"arrival":1522683852000,"orig":"","vertexType":"NORMAL"},"legGeometry":{"points":"mwofHbotpLwBuBCA_AaATIQQSSCCw@w@u@u@UU_A{@Po@Lg@Tu@[]Ne@Jg@_@i@QMMGKOGOESCUAK@KCIBMEIBGIGBGIMBIQUIQGSCBC?E?EACCCEAGCQEUUS]_@}CcD_A_AKGKEPaBBKLqAaD{@","length":57},"alerts":[{"alertHeaderText":"Unpaved surface"}],"rentedBike":false,"transitLeg":false,"duration":852.0,"steps":[{"distance":137.92600000000002,"relativeDirection":"DEPART","streetName":"path","absoluteDirection":"NORTHEAST","stayOn":false,"area":false,"bogusName":false,"lon":-71.05281450938897,"lat":48.41863935175929,"elevation":[]},{"distance":115.507,"relativeDirection":"HARD_LEFT","streetName":"Rue de la Fondation","absoluteDirection":"NORTHEAST","stayOn":false,"area":false,"bogusName":false,"lon":-71.0518321,"lat":48.419468900000005,"elevation":[]},{"distance":120.789,"relativeDirection":"CONTINUE","streetName":"service road","absoluteDirection":"NORTHEAST","stayOn":false,"area":false,"bogusName":true,"lon":-71.0509657,"lat":48.420334000000004,"elevation":[]},{"distance":32.842,"relativeDirection":"RIGHT","streetName":"service road","absoluteDirection":"SOUTHEAST","stayOn":true,"area":false,"bogusName":true,"lon":-71.049807,"lat":48.420520200000006,"elevation":[]},{"distance":243.322,"relativeDirection":"LEFT","streetName":"path","absoluteDirection":"NORTHEAST","stayOn":true,"area":false,"bogusName":true,"lon":-71.0494152,"lat":48.4203801,"elevation":[],"alerts":[{"alertHeaderText":"Unpaved surface"}]},{"distance":234.38799999999998,"relativeDirection":"LEFT","streetName":"Rue Bécard","absoluteDirection":"NORTH","stayOn":false,"area":false,"bogusName":false,"lon":-71.04789620000001,"lat":48.421103300000006,"elevation":[]},{"distance":73.176,"relativeDirection":"RIGHT","streetName":"Rue du Cénacle","absoluteDirection":"EAST","stayOn":false,"area":false,"bogusName":false,"lon":-71.04614020000001,"lat":48.4227902,"elevation":[]},{"distance":92.983,"relativeDirection":"LEFT","streetName":"Rue de Tilly","absoluteDirection":"NORTH","stayOn":false,"area":false,"bogusName":false,"lon":-71.045185,"lat":48.4226134,"elevation":[]}]}],"tooSloped":false},{"duration":1043,"startTime":1522683681000,"endTime":1522684724000,"walkTime":801,"transitTime":240,"waitingTime":2,"walkDistance":1012.5986390911089,"walkLimitExceeded":false,"elevationLost":0.0,"elevationGained":0.0,"transfers":0,"legs":[{"startTime":1522683681000,"endTime":1522683959000,"departureDelay":0,"arrivalDelay":0,"realTime":false,"distance":348.519,"pathway":false,"mode":"WALK","route":"","agencyTimeZoneOffset":-14400000,"interlineWithPreviousLeg":false,"from":{"name":"Origin","lon":-71.053021,"lat":48.418729,"departure":1522683681000,"orig":"","vertexType":"NORMAL"},"to":{"name":"Terminus UQAC","stopId":"1:1670","stopCode":"1670","lon":-71.053369,"lat":48.420903,"arrival":1522683959000,"departure":1522683960000,"zoneId":"NA","stopIndex":14,"stopSequence":15,"vertexType":"TRANSIT"},"legGeometry":{"points":"mwofHbotpLwBuBCA_AaAq@XYz@Ur@e@vAg@vAUp@cAaA","length":11},"rentedBike":false,"transitLeg":false,"duration":278.0,"steps":[{"distance":281.082,"relativeDirection":"DEPART","streetName":"path","absoluteDirection":"NORTHEAST","stayOn":false,"area":false,"bogusName":false,"lon":-71.05281450938897,"lat":48.41863935175929,"elevation":[]},{"distance":67.437,"relativeDirection":"CONTINUE","streetName":"service road","absoluteDirection":"NORTHWEST","stayOn":false,"area":false,"bogusName":true,"lon":-71.05345460000001,"lat":48.4204518,"elevation":[]}]},{"startTime":1522683960000,"endTime":1522684200000,"departureDelay":0,"arrivalDelay":0,"realTime":false,"distance":1088.3328314536743,"pathway":false,"mode":"BUS","route":"175","agencyName":"Société de Transport du Saguenay","agencyUrl":"http://ville.saguenay.ca/fr/services-aux-citoyens/transport-sts","agencyTimeZoneOffset":-14400000,"routeColor":"FF00FF","routeType":3,"routeId":"1:175","routeTextColor":"FFFFFF","interlineWithPreviousLeg":false,"tripBlockId":"78","headsign":"Terminus Chicoutimi","agencyId":"0","tripId":"1:218642","serviceDate":"20180402","from":{"name":"Terminus UQAC","stopId":"1:1670","stopCode":"1670","lon":-71.053369,"lat":48.420903,"arrival":1522683959000,"departure":1522683960000,"zoneId":"NA","stopIndex":14,"stopSequence":15,"vertexType":"TRANSIT"},"to":{"name":"Hôpital de Chicoutimi (Saint-Vallier)","stopId":"1:410","stopCode":"410","lon":-71.050193,"lat":48.426282,"arrival":1522684200000,"departure":1522684201000,"zoneId":"NA","stopIndex":20,"stopSequence":21,"vertexType":"TRANSIT"},"legGeometry":{"points":"sepfHprtpL_A_ATm@yAwAgBeBqDnL@nBF`@f@|C[dCuAfB]xAs@OmCmCmEkE]a@g@i@ZiGTmEl@oLaEe@","length":21},"routeShortName":"175","routeLongName":"Term. Chic / Costco","rentedBike":false,"transitLeg":true,"duration":240.0,"steps":[]},{"startTime":1522684201000,"endTime":1522684724000,"departureDelay":0,"arrivalDelay":0,"realTime":false,"distance":663.8740000000001,"pathway":false,"mode":"WALK","route":"","agencyTimeZoneOffset":-14400000,"interlineWithPreviousLeg":false,"from":{"name":"Hôpital de Chicoutimi (Saint-Vallier)","stopId":"1:410","stopCode":"410","lon":-71.050193,"lat":48.426282,"arrival":1522684200000,"departure":1522684201000,"zoneId":"NA","stopIndex":20,"stopSequence":21,"vertexType":"TRANSIT"},"to":{"name":"Destination","lon":-71.045152,"lat":48.423469,"arrival":1522684724000,"orig":"","vertexType":"NORMAL"},"legGeometry":{"points":"egqfHd~spL^DhBZP?FOBg@BoADy@b@DXwCB_@BWNuB@G~@gLXwCHw@jEjA","length":18},"rentedBike":false,"transitLeg":false,"duration":523.0,"steps":[{"distance":94.97,"relativeDirection":"DEPART","streetName":"service road","absoluteDirection":"SOUTH","stayOn":false,"area":false,"bogusName":true,"lon":-71.05010794672428,"lat":48.426274963568915,"elevation":[]},{"distance":66.589,"relativeDirection":"LEFT","streetName":"service road","absoluteDirection":"EAST","stayOn":true,"area":false,"bogusName":true,"lon":-71.05019700000001,"lat":48.425456700000005,"elevation":[]},{"distance":19.537,"relativeDirection":"RIGHT","streetName":"path","absoluteDirection":"SOUTH","stayOn":true,"area":false,"bogusName":true,"lon":-71.0493017,"lat":48.4253823,"elevation":[]},{"distance":366.275,"relativeDirection":"LEFT","streetName":"Rue Jacques-Cartier Est","absoluteDirection":"EAST","stayOn":false,"area":false,"bogusName":false,"lon":-71.04933630000001,"lat":48.425208100000006,"elevation":[]},{"distance":116.503,"relativeDirection":"RIGHT","streetName":"Rue de Tilly","absoluteDirection":"SOUTH","stayOn":false,"area":false,"bogusName":false,"lon":-71.04450920000001,"lat":48.424443200000006,"elevation":[]}]}],"tooSloped":false}]},"debugOutput":{"precalculationTime":58,"pathCalculationTime":35,"pathTimes":[17,8,10],"renderingTime":0,"totalTime":93,"timedOut":false},"elevationMetadata":{"ellipsoidToGeoidDifference":-28.885904201182168,"geoidElevation":false}}