{"requestParameters":{"date":"2018/04/02","walkSpeed":"1.33","walkReluctance":"2.0","fromPlace":"48.394631,-71.073569","maxWalkDistance":"3000","waitReluctance":"1.0","carSpeed":"33","numItineraries":"3","waitAtBeginningFactor":"0.4","mode":"TRANSIT,WALK","ignoreRealtimeUpdates":"false","stairsReluctance":"2.0","toPlace":"48.307656,-71.110802","time":"13:45:00"},"plan":{"date":1522691100000,"from":{"name":"Origin","lon":-71.073569,"lat":48.394631,"orig":"","vertexType":"NORMAL"},"to":{"name":"Destination","lon":-71.110802,"lat":48.307656,"orig":"","vertexType":"NORMAL"},"itineraries":[{"duration":2500,"startTime":1522697089000,"endTime":1522699589000,"walkTime":681,"transitTime":1817,"waitingTime":2,"walkDistance":884.9657669138481,"walkLimitExceeded":false,"elevationLost":0.0,"elevationGained":0.0,"transfers":0,"legs":[{"startTime":1522697089000,"endTime":1522697382000,"departureDelay":0,"arrivalDelay":0,"realTime":false,"distance":382.22999999999996,"pathway":false,"mode":"WALK","route":"","agencyTimeZoneOffset":-14400000,"interlineWithPreviousLeg":false,"from":{"name":"Origin","lon":-71.073569,"lat":48.394631,"departure":1522697089000,"orig":"","vertexType":"NORMAL"},"to":{"name":"boul. Talbot (no. 1870)","stopId":"1:1556","stopCode":"1556","lon":-71.069429,"lat":48.3951,"arrival":1522697382000,"departure":1522697383000,"zoneId":"NA","stopIndex":5,"stopSequence":6,"vertexType":"TRANSIT"},"legGeometry":{"points":"cdkfHbnxpLNc@z@cCtCwH?Q?IOOOQ_EyE","length":9},"rentedBike":false,"transitLeg":false,"duration":293.0,"steps":[{"distance":226.96099999999998,"relativeDirection":"DEPART","streetName":"bike path","absoluteDirection":"SOUTHEAST","stayOn":false,"area":false,"bogusName":false,"lon":-71.07313078418363,"lat":48.395062296987234,"elevation":[]},{"distance":155.26899999999998,"relativeDirection":"LEFT","streetName":"Boulevard Talbot","absoluteDirection":"NORTHEAST","stayOn":false,"area":false,"bogusName":false,"lon":-71.0705975,"lat":48.3939363,"elevation":[]}]},{"startTime":1522697383000,"endTime":1522697700000,"departureDelay":0,"arrivalDelay":0,"realTime":false,"distance":1877.985976899591,"pathway":false,"mode":"BUS","route":"208S","agencyName":"Société de Transport du Saguenay","agencyUrl":"http://ville.saguenay.ca/fr/services-aux-citoyens/transport-sts","agencyTimeZoneOffset":-14400000,"routeColor":"8B0000","routeType":3,"routeId":"1:208S","routeTextColor":"FFFFFF","interlineWithPreviousLeg":false,"tripBlockId":"107","headsign":"Costco","agencyId":"0","tripId":"1:218820","serviceDate":"20180402","from":{"name":"boul. Talbot (no. 1870)","stopId":"1:1556","stopCode":"1556","lon":-71.069429,"lat":48.3951,"arrival":1522697382000,"departure":1522697383000,"zoneId":"NA","stopIndex":5,"stopSequence":6,"vertexType":"TRANSIT"},"to":{"name":"COSTCO","stopId":"1:1710","stopCode":"1710","lon":-71.085767,"lat":48.382333,"arrival":1522697700000,"departure":1522698000000,"zoneId":"NA","stopIndex":10,"stopSequence":11,"vertexType":"TRANSIT"},"legGeometry":{"points":"_dkfHhvwpLlXv[j@n@dEfErFvGjDdEbD|DZb@~DrEbDfDrA~AhD~DfGbHpG|GyCtHwBcC","length":16},"routeShortName":"208S","routeLongName":"Séminaire - Laterrière","rentedBike":false,"transitLeg":true,"duration":317.0,"steps":[]},{"startTime":1522698000000,"endTime":1522699200000,"departureDelay":0,"arrivalDelay":0,"realTime":false,"distance":14587.470779787487,"pathway":false,"mode":"BUS","route":"62","agencyName":"Société de Transport du Saguenay","agencyUrl":"http://ville.saguenay.ca/fr/services-aux-citoyens/transport-sts","agencyTimeZoneOffset":-14400000,"routeColor":"00FFFF","routeType":3,"routeId":"1:62","routeTextColor":"000000","interlineWithPreviousLeg":true,"tripBlockId":"107","headsign":"Barrage Port. Roches","agencyId":"0","tripId":"1:218821","serviceDate":"20180402","from":{"name":"COSTCO","stopId":"1:1710","stopCode":"1710","lon":-71.085767,"lat":48.382333,"arrival":1522697700000,"departure":1522698000000,"zoneId":"NA","stopIndex":0,"stopSequence":1,"vertexType":"TRANSIT"},"to":{"name":"Boulevard (no. 1017)","stopId":"1:1723","stopCode":"1723","lon":-71.115166,"lat":48.309087,"arrival":1522699200000,"departure":1522699201000,"zoneId":"NA","stopIndex":15,"stopSequence":16,"vertexType":"TRANSIT"},"legGeometry":{"points":"uthfHh}zpLoB}Bs@`BjChDZbB`@x@PNlFwMHWbFmMBc@~d@skANe@Jk@H_AD_ABuADs@Hk@Lc@N_@X_@ZYbAq@pA]hDuA~UqLAEjJ_EjRiIrJeEdCmAbAs@rAkAbCyC|@cB|@sBpEkN|cA}`D~@wCz@~@~GjH|^d`@fNxNng@di@dJrJ`aAtcA`@d@RZJVNn@Dr@nAp_@HzAHx@ZxAlDzN|DlPjIn]P~@JbB@b@?b@IdAiA|KObAU`A_HfTCDt_AzaA^h@BFDTBV?VATADwBlGCPCl@Jt@pBnG^pBFd@DlAEdCGhCElAg@pG?nAF~@PnAVxAp@lF^`B^dAxAnC@@pAzAr@lAPp@Lj@Dh@HjB@fAWzFA~BQAOAQGWMk@k@QSM[M_@IY_@_AQWSO_DcBUEYLa@VWLYPyGrNeC`GoAzBw@t@kCvBkBvA","length":131},"routeShortName":"62","routeLongName":"Portage des Roches Sud","rentedBike":false,"transitLeg":true,"duration":1200.0,"steps":[]},{"startTime":1522699201000,"endTime":1522699589000,"departureDelay":0,"arrivalDelay":0,"realTime":false,"distance":502.62899999999996,"pathway":false,"mode":"WALK","route":"","agencyTimeZoneOffset":-14400000,"interlineWithPreviousLeg":false,"from":{"name":"Boulevard (no. 1017)","stopId":"1:1723","stopCode":"1723","lon":-71.115166,"lat":48.309087,"arrival":1522699200000,"departure":1522699201000,"zoneId":"NA","stopIndex":15,"stopSequence":16,"vertexType":"TRANSIT"},"to":{"name":"Destination","lon":-71.110802,"lat":48.307656,"arrival":1522699589000,"orig":"","vertexType":"NORMAL"},"legGeometry":{"points":"qjzeHhu`qLBCjGcFp@y@d@u@jAwC}DsFz@sB","length":8},"rentedBike":false,"transitLeg":false,"duration":388.0,"steps":[{"distance":308.993,"relativeDirection":"DEPART","streetName":"Rue du Boulevard","absoluteDirection":"SOUTHEAST","stayOn":false,"area":false,"bogusName":false,"lon":-71.11524463993662,"lat":48.30905749725426,"elevation":[]},{"distance":139.265,"relativeDirection":"LEFT","streetName":"Rue Lapointe","absoluteDirection":"NORTHEAST","stayOn":false,"area":false,"bogusName":false,"lon":-71.1127642,"lat":48.3068703,"elevation":[]},{"distance":54.371,"relativeDirection":"RIGHT","streetName":"Rue Gauthier","absoluteDirection":"SOUTHEAST","stayOn":false,"area":false,"bogusName":false,"lon":-71.1115403,"lat":48.3078221,"elevation":[]}]}],"tooSloped":false},{"duration":4588,"startTime":1522695666000,"endTime":1522700254000,"walkTime":574,"transitTime":1108,"waitingTime":2906,"walkDistance":746.5325338325364,"walkLimitExceeded":false,"elevationLost":0.0,"elevationGained":0.0,"transfers":2,"legs":[{"startTime":1522695666000,"endTime":1522695959000,"departureDelay":0,"arrivalDelay":0,"realTime":false,"distance":382.22999999999996,"pathway":false,"mode":"WALK","route":"","agencyTimeZoneOffset":-14400000,"interlineWithPreviousLeg":false,"from":{"name":"Origin","lon":-71.073569,"lat":48.394631,"departure":1522695666000,"orig":"","vertexType":"NORMAL"},"to":{"name":"boul. Talbot (no. 1870)","stopId":"1:1556","stopCode":"1556","lon":-71.069429,"lat":48.3951,"arrival":1522695959000,"departure":1522695960000,"zoneId":"NA","stopIndex":24,"stopSequence":25,"vertexType":"TRANSIT"},"legGeometry":{"points":"cdkfHbnxpLNc@z@cCtCwH?Q?IOOOQ_EyE","length":9},"rentedBike":false,"transitLeg":false,"duration":293.0,"steps":[{"distance":226.96099999999998,"relativeDirection":"DEPART","streetName":"bike path","absoluteDirection":"SOUTHEAST","stayOn":false,"area":false,"bogusName":false,"lon":-71.07313078418363,"lat":48.395062296987234,"elevation":[]},{"distance":155.26899999999998,"relativeDirection":"LEFT","streetName":"Boulevard Talbot","absoluteDirection":"NORTHEAST","stayOn":false,"area":false,"bogusName":false,"lon":-71.0705975,"lat":48.3939363,"elevation":[]}]},{"startTime":1522695960000,"endTime":1522696320000,"departureDelay":0,"arrivalDelay":0,"realTime":false,"distance":1955.623156368476,"pathway":false,"mode":"BUS","route":"175","agencyName":"Société de Transport du Saguenay","agencyUrl":"http://ville.saguenay.ca/fr/services-aux-citoyens/transport-sts","agencyTimeZoneOffset":-14400000,"routeColor":"FF00FF","routeType":3,"routeId":"1:175","routeTextColor":"FFFFFF","interlineWithPreviousLeg":false,"tripBlockId":"7","headsign":"Costco","agencyId":"0","tripId":"1:217337","serviceDate":"20180402","from":{"name":"boul. Talbot (no. 1870)","stopId":"1:1556","stopCode":"1556","lon":-71.069429,"lat":48.3951,"arrival":1522695959000,"departure":1522695960000,"zoneId":"NA","stopIndex":24,"stopSequence":25,"vertexType":"TRANSIT"},"to":{"name":"COSTCO","stopId":"1:1710","stopCode":"1710","lon":-71.085767,"lat":48.382333,"arrival":1522696320000,"departure":1522698000000,"zoneId":"NA","stopIndex":30,"stopSequence":31,"vertexType":"TRANSIT"},"legGeometry":{"points":"_dkfHhvwpLlXv[b@f@mCtHv@v@p@r@_@p@uAcBjDoJhAzApBrBrFvGjDdEbD|DZb@~DrEbDfDrA~ApLbNpG|GyCtHwBcC","length":22},"routeShortName":"175","routeLongName":"Term. Chic / Costco","rentedBike":false,"transitLeg":true,"duration":360.0,"steps":[]},{"startTime":1522698000000,"endTime":1522698660000,"departureDelay":0,"arrivalDelay":0,"realTime":false,"distance":11310.942132351696,"pathway":false,"mode":"BUS","route":"60","agencyName":"Société de Transport du Saguenay","agencyUrl":"http://ville.saguenay.ca/fr/services-aux-citoyens/transport-sts","agencyTimeZoneOffset":-14400000,"routeColor":"00FFFF","routeType":3,"routeId":"1:60","routeTextColor":"000000","interlineWithPreviousLeg":false,"tripBlockId":"95","headsign":"chemin Portageurs","agencyId":"0","tripId":"1:218716","serviceDate":"20180402","from":{"name":"COSTCO","stopId":"1:1710","stopCode":"1710","lon":-71.085767,"lat":48.382333,"arrival":1522696320000,"departure":1522698000000,"zoneId":"NA","stopIndex":0,"stopSequence":1,"vertexType":"TRANSIT"},"to":{"name":"Boulevard / boul. Talbot","stopId":"1:1767","stopCode":"1767","lon":-71.134005,"lat":48.318019,"arrival":1522698660000,"departure":1522698660000,"zoneId":"NA","stopIndex":8,"stopSequence":9,"vertexType":"TRANSIT"},"legGeometry":{"points":"uthfHh}zpLoB}Bs@`BjChDZbB`@x@iDvI}@fC_AvC[jAi@`CUbBUxBUdCIlD]to@K`IEt@ElBQlEMrBWvDa@jEq@nFa@rC_AnFi@bCo@pCiAbEyCdJNZPTfApA~DjFxFfFzAdBbA`BlA|Bt@z@z@x@zAhAbBjAfKlGz@~@vApBbApAbDdDdExDLJpIjIvAzBlBdDbAbBfAtAt@|@|@~@tHhHhBlCrCfFx@fAT^bA`AjC~BdI~JpGjHt@bA`AdAvb@xf@`EvEjFjFxAtAd@j@l@z@xC`Fn@v@NNNJ^Xj@Xv@Zz@ZND`@Lx@Rp@LXDrDH|@?p@?VCN?D?VK`@ONIZUVS^]Zc@t@wATs@P}@F_@Jm@JcA@QPsA\\uBXuAdAqDLe@H]zAuHd@kBzAuFXy@NYXg@f@g@|@{@dAy@vC{Br@m@RQRWVa@b@_AdC}Gn@aBl@{Aj@oATe@b@i@\\Y\\Qd@QvDy@r@Ud@Up@i@Z[X]^i@LUL_@^gAxGgUVaAPq@PaAL{@Fq@@eACoBKwFAiCD_AFe@V_AbVqq@Pw@bl@bm@~A|AtE|DnEnDjDdCf`@vVbCdBnAfAjClCsA|D","length":171},"routeShortName":"60","routeLongName":"Portage des Roches Nord","rentedBike":false,"transitLeg":true,"duration":660.0,"steps":[]},{"startTime":1522698660000,"endTime":1522698908000,"departureDelay":0,"arrivalDelay":0,"realTime":false,"distance":327.03,"pathway":false,"mode":"WALK","route":"","agencyTimeZoneOffset":-14400000,"interlineWithPreviousLeg":false,"from":{"name":"Boulevard / boul. Talbot","stopId":"1:1767","stopCode":"1767","lon":-71.134005,"lat":48.318019,"arrival":1522698660000,"departure":1522698660000,"zoneId":"NA","stopIndex":8,"stopSequence":9,"vertexType":"TRANSIT"},"to":{"name":"Boulevard (no. 1557)","stopId":"1:2127","stopCode":"2127","lon":-71.130498,"lat":48.316221,"arrival":1522698908000,"departure":1522700132000,"zoneId":"NA","stopIndex":8,"stopSequence":9,"vertexType":"TRANSIT"},"legGeometry":{"points":"ib|eHxjdqLpAuD\\q@|@cC`DgJ","length":5},"rentedBike":false,"transitLeg":false,"duration":248.0,"steps":[{"distance":327.03,"relativeDirection":"DEPART","streetName":"Rue du Boulevard","absoluteDirection":"SOUTHEAST","stayOn":false,"area":false,"bogusName":false,"lon":-71.13404981163029,"lat":48.317975470719105,"elevation":[]}]},{"startTime":1522700132000,"endTime":1522700220000,"departureDelay":0,"arrivalDelay":0,"realTime":false,"distance":1776.1606211812295,"pathway":false,"mode":"BUS","route":"62","agencyName":"Société de Transport du Saguenay","agencyUrl":"http://ville.saguenay.ca/fr/services-aux-citoyens/transport-sts","agencyTimeZoneOffset":-14400000,"routeColor":"00FFFF","routeType":3,"routeId":"1:62","routeTextColor":"000000","interlineWithPreviousLeg":false,"tripBlockId":"107","headsign":"Costco","agencyId":"0","tripId":"1:218822","serviceDate":"20180402","from":{"name":"Boulevard (no. 1557)","stopId":"1:2127","stopCode":"2127","lon":-71.130498,"lat":48.316221,"arrival":1522698908000,"departure":1522700132000,"zoneId":"NA","stopIndex":8,"stopSequence":9,"vertexType":"TRANSIT"},"to":{"name":"Notre-Dame / Gauthier","stopId":"1:1737","stopCode":"1737","lon":-71.110501,"lat":48.307493,"arrival":1522700220000,"departure":1522700221000,"zoneId":"NA","stopIndex":14,"stopSequence":15,"vertexType":"TRANSIT"},"legGeometry":{"points":"uw{eHhtcqL`KqYbDiJpIeV|IcWv@{Bh@cAf@u@Z]l@e@dBsAjCwBv@u@nA{BdCaGOOqAoBwA{B[i@","length":19},"routeShortName":"62","routeLongName":"Portage des Roches Sud","rentedBike":false,"transitLeg":true,"duration":88.0,"steps":[]},{"startTime":1522700221000,"endTime":1522700254000,"departureDelay":0,"arrivalDelay":0,"realTime":false,"distance":37.209,"pathway":false,"mode":"WALK","route":"","agencyTimeZoneOffset":-14400000,"interlineWithPreviousLeg":false,"from":{"name":"Notre-Dame / Gauthier","stopId":"1:1737","stopCode":"1737","lon":-71.110501,"lat":48.307493,"arrival":1522700220000,"departure":1522700221000,"zoneId":"NA","stopIndex":14,"stopSequence":15,"vertexType":"TRANSIT"},"to":{"name":"Destination","lon":-71.110802,"lat":48.307656,"arrival":1522700254000,"orig":"","vertexType":"NORMAL"},"legGeometry":{"points":"cazeHdx_qLFLNVSd@","length":4},"rentedBike":false,"transitLeg":false,"duration":33.0,"steps":[{"distance":19.652,"relativeDirection":"DEPART","streetName":"Rue Notre-Dame","absoluteDirection":"SOUTHWEST","stayOn":false,"area":false,"bogusName":false,"lon":-71.11058814414332,"lat":48.30754888257977,"elevation":[]},{"distance":17.557,"relativeDirection":"RIGHT","streetName":"Rue Gauthier","absoluteDirection":"NORTHWEST","stayOn":false,"area":false,"bogusName":false,"lon":-71.1107748,"lat":48.3074231,"elevation":[]}]}],"tooSloped":false},{"duration":7957,"startTime":1522692995000,"endTime":1522700952000,"walkTime":1763,"transitTime":6012,"waitingTime":182,"walkDistance":2321.343548869936,"walkLimitExceeded":false,"elevationLost":0.0,"elevationGained":0.0,"transfers":1,"legs":[{"startTime":1522692995000,"endTime":1522693259000,"departureDelay":0,"arrivalDelay":0,"realTime":false,"distance":342.067,"pathway":false,"mode":"WALK","route":"","agencyTimeZoneOffset":-14400000,"interlineWithPreviousLeg":false,"from":{"name":"Origin","lon":-71.073569,"lat":48.394631,"departure":1522692995000,"orig":"","vertexType":"NORMAL"},"to":{"name":"boul. Talbot / boul. Barrette","stopId":"1:49","stopCode":"49","lon":-71.069502,"lat":48.394497,"arrival":1522693259000,"departure":1522693260000,"zoneId":"NA","stopIndex":7,"stopSequence":8,"vertexType":"TRANSIT"},"legGeometry":{"points":"cdkfHbnxpLNc@z@cCtCwH?Q?IPc@OO}BmC","length":9},"rentedBike":false,"transitLeg":false,"duration":264.0,"steps":[{"distance":226.96099999999998,"relativeDirection":"DEPART","streetName":"bike path","absoluteDirection":"SOUTHEAST","stayOn":false,"area":false,"bogusName":false,"lon":-71.07313078418363,"lat":48.395062296987234,"elevation":[]},{"distance":16.674,"relativeDirection":"SLIGHTLY_RIGHT","streetName":"Boulevard Barrette","absoluteDirection":"SOUTHEAST","stayOn":false,"area":false,"bogusName":false,"lon":-71.0705975,"lat":48.3939363,"elevation":[]},{"distance":98.432,"relativeDirection":"LEFT","streetName":"Boulevard Talbot","absoluteDirection":"NORTHEAST","stayOn":false,"area":false,"bogusName":false,"lon":-71.07041720000001,"lat":48.393846,"elevation":[]}]},{"startTime":1522693260000,"endTime":1522694400000,"departureDelay":0,"arrivalDelay":0,"realTime":false,"distance":5729.910101969139,"pathway":false,"mode":"BUS","route":"175","agencyName":"Société de Transport du Saguenay","agencyUrl":"http://ville.saguenay.ca/fr/services-aux-citoyens/transport-sts","agencyTimeZoneOffset":-14400000,"routeColor":"FF00FF","routeType":3,"routeId":"1:175","routeTextColor":"FFFFFF","interlineWithPreviousLeg":false,"tripBlockId":"10","headsign":"Terminus Chicoutimi","agencyId":"0","tripId":"1:217442","serviceDate":"20180402","from":{"name":"boul. Talbot / boul. Barrette","stopId":"1:49","stopCode":"49","lon":-71.069502,"lat":48.394497,"arrival":1522693259000,"departure":1522693260000,"zoneId":"NA","stopIndex":7,"stopSequence":8,"vertexType":"TRANSIT"},"to":{"name":"Terminus Chicoutimi","stopId":"1:1289","stopCode":"1289","lon":-71.066163,"lat":48.428677,"arrival":1522694400000,"departure":1522694700000,"zoneId":"NA","stopIndex":27,"stopSequence":28,"vertexType":"TRANSIT"},"legGeometry":{"points":"aakfHlxwpLiAoAgEsFkFsHqJ_N}FkImPkOuO{N_U_TcNgNcBcB{E`Jc@x@qG~@{BlAk@XgSrQqB_GAeFiEeEOt@gAeA_A_ATm@yAwAgBeBqDnL@nBF`@f@|C[dCuAfB]xAs@OmCmCmEkE]a@g@i@ZiGTmEl@oLaEe@cFk@?pH?tJDvBPjMB~Bo@PQDRbFKdGMhIOvIK|EQpHoCQEdC","length":58},"routeShortName":"175","routeLongName":"Term. Chic / Costco","rentedBike":false,"transitLeg":true,"duration":1140.0,"steps":[]},{"startTime":1522694700000,"endTime":1522695372000,"departureDelay":0,"arrivalDelay":0,"realTime":false,"distance":8888.492212222136,"pathway":false,"mode":"BUS","route":"3","agencyName":"Société de Transport du Saguenay","agencyUrl":"http://ville.saguenay.ca/fr/services-aux-citoyens/transport-sts","agencyTimeZoneOffset":-14400000,"routeColor":"FF0000","routeType":3,"routeId":"1:3","routeTextColor":"FFFFFF","interlineWithPreviousLeg":true,"tripBlockId":"10","headsign":"Terminus Jonquière","agencyId":"0","tripId":"1:217443","serviceDate":"20180402","from":{"name":"Terminus Chicoutimi","stopId":"1:1289","stopCode":"1289","lon":-71.066163,"lat":48.428677,"arrival":1522694400000,"departure":1522694700000,"zoneId":"NA","stopIndex":0,"stopSequence":1,"vertexType":"TRANSIT"},"to":{"name":"boul. Saguenay / Joule","stopId":"1:175","stopCode":"175","lon":-71.183161,"lat":48.432866,"arrival":1522695372000,"departure":1522695372000,"zoneId":"NA","stopIndex":14,"stopSequence":15,"vertexType":"TRANSIT"},"legGeometry":{"points":"evqfHzcwpLi@?UhKoBKcBts@OjC]fCg@~BsId[{DrNqB|HSl@YnAMfAOnAo@nMCp@YtKIzBADEhCkAzPEx@?R?zBAbCg@zJC\\MtDi@xa@ElAItAO`AIr@ANwAvNOdCG`BGdAArC?j@?jBIvPEjBIpAI`BEp@a@dE{ArLa@vD??_@hDkAlH[lCEb@MxAg@hI_@fIItACr@EjBCrA?h@@t@Bp@Fn@Jp@\\fBZxArH~VVx@|@lDxAtENf@Rt@Pn@ZlBT~CD`E?pFC`G?x@Ell@DbHN`ELrCH`CZbGNnCBz@hBp^LbDNzC?BVxCTdFbA`RDr@t@lOJnDTNbAt@p@f@mB|BQDd@nNFzB@j@Ab@CX??A@?@??A@?@???@A@?@?B?@?@A@?@?B?@@@?@?B?@?@@@?@@@?@@@???@@@???@@???@@@@@bAAfP","length":148},"routeShortName":"3","routeLongName":"Chic/Jonq via Boul. Saguenay","rentedBike":false,"transitLeg":true,"duration":672.0,"steps":[]},{"startTime":1522695372000,"endTime":1522695420000,"departureDelay":0,"arrivalDelay":0,"realTime":false,"distance":60.888000000000005,"pathway":false,"mode":"WALK","route":"","agencyTimeZoneOffset":-14400000,"interlineWithPreviousLeg":false,"from":{"name":"boul. Saguenay / Joule","stopId":"1:175","stopCode":"175","lon":-71.183161,"lat":48.432866,"arrival":1522695372000,"departure":1522695372000,"zoneId":"NA","stopIndex":14,"stopSequence":15,"vertexType":"TRANSIT"},"to":{"name":"École secondaire Riverside","stopId":"1:1900","stopCode":"1900","lon":-71.183399,"lat":48.433267,"arrival":1522695420000,"departure":1522695600000,"zoneId":"NA","stopIndex":0,"stopSequence":1,"vertexType":"TRANSIT"},"legGeometry":{"points":"aprfHx}mqL?ZyA?","length":3},"rentedBike":false,"transitLeg":false,"duration":48.0,"steps":[{"distance":10.362,"relativeDirection":"DEPART","streetName":"Boulevard du Saguenay","absoluteDirection":"WEST","stayOn":false,"area":false,"bogusName":false,"lon":-71.18316164770339,"lat":48.43281186028038,"elevation":[]},{"distance":50.526,"relativeDirection":"RIGHT","streetName":"Rue Joule","absoluteDirection":"NORTH","stayOn":false,"area":false,"bogusName":false,"lon":-71.1833021,"lat":48.432812600000005,"elevation":[]}]},{"startTime":1522695600000,"endTime":1522699500000,"departureDelay":0,"arrivalDelay":0,"realTime":false,"distance":14455.107968173932,"pathway":false,"mode":"BUS","route":"11R","agencyName":"Société de Transport du Saguenay","agencyUrl":"http://ville.saguenay.ca/fr/services-aux-citoyens/transport-sts","agencyTimeZoneOffset":-14400000,"routeColor":"FFFF00","routeType":3,"routeId":"1:11R","routeTextColor":"000000","interlineWithPreviousLeg":false,"headsign":"Église / St-Isidore","agencyId":"0","tripId":"1:218672","serviceDate":"20180402","from":{"name":"École secondaire Riverside","stopId":"1:1900","stopCode":"1900","lon":-71.183399,"lat":48.433267,"arrival":1522695420000,"departure":1522695600000,"zoneId":"NA","stopIndex":0,"stopSequence":1,"vertexType":"TRANSIT"},"to":{"name":"Église / St-Isidore","stopId":"1:357","stopCode":"357","lon":-71.091499,"lat":48.318493,"arrival":1522699500000,"departure":1522699501000,"zoneId":"NA","stopIndex":1,"stopSequence":2,"vertexType":"TRANSIT"},"legGeometry":{"points":"{rrfHx~mqLmAEptU{oPgC{L","length":4},"routeShortName":"11R","routeLongName":"Riveside Jaune (Laterrière)","rentedBike":false,"transitLeg":true,"duration":3900.0,"steps":[]},{"startTime":1522699501000,"endTime":1522700952000,"departureDelay":0,"arrivalDelay":0,"realTime":false,"distance":1918.3190000000002,"pathway":false,"mode":"WALK","route":"","agencyTimeZoneOffset":-14400000,"interlineWithPreviousLeg":false,"from":{"name":"Église / St-Isidore","stopId":"1:357","stopCode":"357","lon":-71.091499,"lat":48.318493,"arrival":1522699500000,"departure":1522699501000,"zoneId":"NA","stopIndex":1,"stopSequence":2,"vertexType":"TRANSIT"},"to":{"name":"Destination","lon":-71.110802,"lat":48.307656,"arrival":1522700952000,"orig":"","vertexType":"NORMAL"},"legGeometry":{"points":"ce|eHp`|pLNl@~FdU`@`Bt@|AxRbb@rH`Pb@fAbGdGhClCtAvBxBjGv@|AtBhDx@pAFLNVSd@","length":18},"rentedBike":false,"transitLeg":false,"duration":1451.0,"steps":[{"distance":1900.7620000000002,"relativeDirection":"DEPART","streetName":"Rue Notre-Dame","absoluteDirection":"SOUTHWEST","stayOn":false,"area":false,"bogusName":false,"lon":-71.09144671011805,"lat":48.31842126922282,"elevation":[]},{"distance":17.557,"relativeDirection":"RIGHT","streetName":"Rue Gauthier","absoluteDirection":"NORTHWEST","stayOn":false,"area":false,"bogusName":false,"lon":-71.1107748,"lat":48.3074231,"elevation":[]}]}],"tooSloped":false}]},"debugOutput":{"precalculationTime":17,"pathCalculationTime":93,"pathTimes":[27,29,37],"renderingTime":0,"totalTime":110,"timedOut":false},"elevationMetadata":{"ellipsoidToGeoidDifference":-28.885904201182168,"geoidElevation":false}}