{"requestParameters":{"date":"2018/04/02","walkSpeed":"1.33","walkReluctance":"2.0","fromPlace":"48.394631,-71.073569","maxWalkDistance":"3000","waitReluctance":"1.0","carSpeed":"33","numItineraries":"3","waitAtBeginningFactor":"0.4","mode":"TRANSIT,WALK","ignoreRealtimeUpdates":"false","stairsReluctance":"2.0","toPlace":"48.389711,-71.070396","time":"12:50:00"},"plan":{"date":1522687800000,"from":{"name":"Origin","lon":-71.073569,"lat":48.394631,"orig":"","vertexType":"NORMAL"},"to":{"name":"Destination","lon":-71.070396,"lat":48.389711,"orig":"","vertexType":"NORMAL"},"itineraries":[{"duration":747,"startTime":1522687800000,"endTime":1522688547000,"walkTime":747,"transitTime":0,"waitingTime":0,"walkDistance":971.6478796959608,"walkLimitExceeded":false,"elevationLost":0.0,"elevationGained":0.0,"transfers":0,"legs":[{"startTime":1522687800000,"endTime":1522688547000,"departureDelay":0,"arrivalDelay":0,"realTime":false,"distance":971.546,"pathway":false,"mode":"WALK","route":"","agencyTimeZoneOffset":-14400000,"interlineWithPreviousLeg":false,"from":{"name":"Origin","lon":-71.073569,"lat":48.394631,"departure":1522687800000,"orig":"","vertexType":"NORMAL"},"to":{"name":"Destination","lon":-71.070396,"lat":48.389711,"arrival":1522688547000,"orig":"","vertexType":"NORMAL"},"legGeometry":{"points":"cdkfHbnxpLNc@z@cCtCwH?Q?IPc@JLrEjFlAxAjGjHbAjAJYtEuLiBuB","length":15},"rentedBike":false,"transitLeg":false,"duration":747.0,"steps":[{"distance":226.96099999999998,"relativeDirection":"DEPART","streetName":"bike path","absoluteDirection":"SOUTHEAST","stayOn":false,"area":false,"bogusName":false,"lon":-71.07313078418363,"lat":48.395062296987234,"elevation":[]},{"distance":16.674,"relativeDirection":"SLIGHTLY_RIGHT","streetName":"Boulevard Barrette","absoluteDirection":"SOUTHEAST","stayOn":false,"area":false,"bogusName":false,"lon":-71.0705975,"lat":48.3939363,"elevation":[]},{"distance":442.39099999999996,"relativeDirection":"RIGHT","streetName":"Boulevard Talbot","absoluteDirection":"SOUTHWEST","stayOn":false,"area":false,"bogusName":false,"lon":-71.07041720000001,"lat":48.393846,"elevation":[]},{"distance":212.195,"relativeDirection":"LEFT","streetName":"Rue du Sauvignon","absoluteDirection":"SOUTHEAST","stayOn":false,"area":false,"bogusName":false,"lon":-71.0739954,"lat":48.3906549,"elevation":[]},{"distance":73.325,"relativeDirection":"LEFT","streetName":"Rue de la Fonderie","absoluteDirection":"NORTHEAST","stayOn":false,"area":false,"bogusName":false,"lon":-71.071678,"lat":48.3895264,"elevation":[]}]}],"tooSloped":false},{"duration":643,"startTime":1522688466000,"endTime":1522689109000,"walkTime":553,"transitTime":88,"waitingTime":2,"walkDistance":713.9997518764483,"walkLimitExceeded":false,"elevationLost":0.0,"elevationGained":0.0,"transfers":0,"legs":[{"startTime":1522688466000,"endTime":1522688759000,"departureDelay":0,"arrivalDelay":0,"realTime":false,"distance":382.22999999999996,"pathway":false,"mode":"WALK","route":"","agencyTimeZoneOffset":-14400000,"interlineWithPreviousLeg":false,"from":{"name":"Origin","lon":-71.073569,"lat":48.394631,"departure":1522688466000,"orig":"","vertexType":"NORMAL"},"to":{"name":"boul. Talbot (no. 1870)","stopId":"1:1556","stopCode":"1556","lon":-71.069429,"lat":48.3951,"arrival":1522688759000,"departure":1522688760000,"zoneId":"NA","stopIndex":24,"stopSequence":25,"vertexType":"TRANSIT"},"legGeometry":{"points":"cdkfHbnxpLNc@z@cCtCwH?Q?IOOOQ_EyE","length":9},"rentedBike":false,"transitLeg":false,"duration":293.0,"steps":[{"distance":226.96099999999998,"relativeDirection":"DEPART","streetName":"bike path","absoluteDirection":"SOUTHEAST","stayOn":false,"area":false,"bogusName":false,"lon":-71.07313078418363,"lat":48.395062296987234,"elevation":[]},{"distance":155.26899999999998,"relativeDirection":"LEFT","streetName":"Boulevard Talbot","absoluteDirection":"NORTHEAST","stayOn":false,"area":false,"bogusName":false,"lon":-71.0705975,"lat":48.3939363,"elevation":[]}]},{"startTime":1522688760000,"endTime":1522688848000,"departureDelay":0,"arrivalDelay":0,"realTime":false,"distance":566.2888708661153,"pathway":false,"mode":"BUS","route":"175","agencyName":"Société de Transport du Saguenay","agencyUrl":"http://ville.saguenay.ca/fr/services-aux-citoyens/transport-sts","agencyTimeZoneOffset":-14400000,"routeColor":"FF00FF","routeType":3,"routeId":"1:175","routeTextColor":"FFFFFF","interlineWithPreviousLeg":false,"tripBlockId":"6","headsign":"Costco","agencyId":"0","tripId":"1:217297","serviceDate":"20180402","from":{"name":"boul. Talbot (no. 1870)","stopId":"1:1556","stopCode":"1556","lon":-71.069429,"lat":48.3951,"arrival":1522688759000,"departure":1522688760000,"zoneId":"NA","stopIndex":24,"stopSequence":25,"vertexType":"TRANSIT"},"to":{"name":"boul. Talbot / Soeurs (Canac Marquis)","stopId":"1:71","stopCode":"71","lon":-71.074009,"lat":48.391015,"arrival":1522688848000,"departure":1522688849000,"zoneId":"NA","stopIndex":25,"stopSequence":26,"vertexType":"TRANSIT"},"legGeometry":{"points":"_dkfHhvwpLlXv[","length":2},"routeShortName":"175","routeLongName":"Term. Chic / Costco","rentedBike":false,"transitLeg":true,"duration":88.0,"steps":[]},{"startTime":1522688849000,"endTime":1522689109000,"departureDelay":0,"arrivalDelay":0,"realTime":false,"distance":331.669,"pathway":false,"mode":"WALK","route":"","agencyTimeZoneOffset":-14400000,"interlineWithPreviousLeg":false,"from":{"name":"boul. Talbot / Soeurs (Canac Marquis)","stopId":"1:71","stopCode":"71","lon":-71.074009,"lat":48.391015,"arrival":1522688848000,"departure":1522688849000,"zoneId":"NA","stopIndex":25,"stopSequence":26,"vertexType":"TRANSIT"},"to":{"name":"Destination","lon":-71.070396,"lat":48.389711,"arrival":1522689109000,"orig":"","vertexType":"NORMAL"},"legGeometry":{"points":"ojjfHzrxpLl@r@N_@JYtEuLiBuB","length":6},"rentedBike":false,"transitLeg":false,"duration":260.0,"steps":[{"distance":31.82,"relativeDirection":"DEPART","streetName":"Boulevard Talbot","absoluteDirection":"SOUTHWEST","stayOn":false,"area":false,"bogusName":false,"lon":-71.07389765515089,"lat":48.39096061304423,"elevation":[]},{"distance":226.524,"relativeDirection":"LEFT","streetName":"Rue du Sauvignon","absoluteDirection":"SOUTHEAST","stayOn":false,"area":false,"bogusName":false,"lon":-71.07415300000001,"lat":48.390730100000006,"elevation":[]},{"distance":73.325,"relativeDirection":"LEFT","streetName":"Rue de la Fonderie","absoluteDirection":"NORTHEAST","stayOn":false,"area":false,"bogusName":false,"lon":-71.071678,"lat":48.3895264,"elevation":[]}]}],"tooSloped":false},{"duration":661,"startTime":1522689026000,"endTime":1522689687000,"walkTime":638,"transitTime":21,"waitingTime":2,"walkDistance":827.5771278162857,"walkLimitExceeded":false,"elevationLost":0.0,"elevationGained":0.0,"transfers":0,"legs":[{"startTime":1522689026000,"endTime":1522689038000,"departureDelay":0,"arrivalDelay":0,"realTime":false,"distance":15.551,"pathway":false,"mode":"WALK","route":"","agencyTimeZoneOffset":-14400000,"interlineWithPreviousLeg":false,"from":{"name":"Origin","lon":-71.073569,"lat":48.394631,"departure":1522689026000,"orig":"","vertexType":"NORMAL"},"to":{"name":"Maxi - boulevard Barrette","stopId":"1:88","stopCode":"88","lon":-71.07294,"lat":48.395,"arrival":1522689038000,"departure":1522689039000,"zoneId":"NA","stopIndex":34,"stopSequence":35,"vertexType":"TRANSIT"},"legGeometry":{"points":"cdkfHbnxpLNc@","length":2},"rentedBike":false,"transitLeg":false,"duration":12.0,"steps":[{"distance":15.551,"relativeDirection":"DEPART","streetName":"bike path","absoluteDirection":"SOUTHEAST","stayOn":false,"area":false,"bogusName":false,"lon":-71.07313078418363,"lat":48.395062296987234,"elevation":[]}]},{"startTime":1522689039000,"endTime":1522689060000,"departureDelay":0,"arrivalDelay":0,"realTime":false,"distance":308.52410100423333,"pathway":false,"mode":"BUS","route":"14","agencyName":"Société de Transport du Saguenay","agencyUrl":"http://ville.saguenay.ca/fr/services-aux-citoyens/transport-sts","agencyTimeZoneOffset":-14400000,"routeColor":"C0C000","routeType":3,"routeId":"1:14","routeTextColor":"000000","interlineWithPreviousLeg":false,"tripBlockId":"30","headsign":"Talbot / Barrette","agencyId":"0","tripId":"1:218099","serviceDate":"20180402","from":{"name":"Maxi - boulevard Barrette","stopId":"1:88","stopCode":"88","lon":-71.07294,"lat":48.395,"arrival":1522689038000,"departure":1522689039000,"zoneId":"NA","stopIndex":34,"stopSequence":35,"vertexType":"TRANSIT"},"to":{"name":"Roitelets / Sapins","stopId":"1:1543","stopCode":"1543","lon":-71.069553,"lat":48.393375,"arrival":1522689060000,"departure":1522689061000,"zoneId":"NA","stopIndex":35,"stopSequence":36,"vertexType":"TRANSIT"},"legGeometry":{"points":"_dkfHplxpLvH_SLa@","length":3},"routeShortName":"14","routeLongName":"Coopérative","rentedBike":false,"transitLeg":true,"duration":21.0,"steps":[]},{"startTime":1522689061000,"endTime":1522689687000,"departureDelay":0,"arrivalDelay":0,"realTime":false,"distance":811.925,"pathway":false,"mode":"WALK","route":"","agencyTimeZoneOffset":-14400000,"interlineWithPreviousLeg":false,"from":{"name":"Roitelets / Sapins","stopId":"1:1543","stopCode":"1543","lon":-71.069553,"lat":48.393375,"arrival":1522689060000,"departure":1522689061000,"zoneId":"NA","stopIndex":35,"stopSequence":36,"vertexType":"TRANSIT"},"to":{"name":"Destination","lon":-71.070396,"lat":48.389711,"arrival":1522689687000,"orig":"","vertexType":"NORMAL"},"legGeometry":{"points":"oyjfHxwwpL?@mAzCMHC@JLrEjFlAxAjGjHbAjAJYtEuLiBuB","length":13},"rentedBike":false,"transitLeg":false,"duration":626.0,"steps":[{"distance":84.014,"relativeDirection":"DEPART","streetName":"bike path","absoluteDirection":"NORTHWEST","stayOn":false,"area":false,"bogusName":true,"lon":-71.0695674967601,"lat":48.39336056343373,"elevation":[]},{"distance":442.39099999999996,"relativeDirection":"HARD_LEFT","streetName":"Boulevard Talbot","absoluteDirection":"SOUTHWEST","stayOn":false,"area":false,"bogusName":false,"lon":-71.07041720000001,"lat":48.393846,"elevation":[]},{"distance":212.195,"relativeDirection":"LEFT","streetName":"Rue du Sauvignon","absoluteDirection":"SOUTHEAST","stayOn":false,"area":false,"bogusName":false,"lon":-71.0739954,"lat":48.3906549,"elevation":[]},{"distance":73.325,"relativeDirection":"LEFT","streetName":"Rue de la Fonderie","absoluteDirection":"NORTHEAST","stayOn":false,"area":false,"bogusName":false,"lon":-71.071678,"lat":48.3895264,"elevation":[]}]}],"tooSloped":false}]},"debugOutput":{"precalculationTime":29,"pathCalculationTime":21,"pathTimes":[13,4,4],"renderingTime":0,"totalTime":50,"timedOut":false},"elevationMetadata":{"ellipsoidToGeoidDifference":-28.885904201182168,"geoidElevation":false}}