{"requestParameters":{"date":"2018/04/02","walkSpeed":"1.33","walkReluctance":"2.0","fromPlace":"48.443416,-71.07852499","maxWalkDistance":"3000","waitReluctance":"1.0","carSpeed":"33","numItineraries":"3","waitAtBeginningFactor":"0.4","mode":"TRANSIT,WALK","ignoreRealtimeUpdates":"false","stairsReluctance":"2.0","toPlace":"48.44652,-71.039504","time":"17:15:00"},"plan":{"date":1522703700000,"from":{"name":"Origin","lon":-71.07852499,"lat":48.443416,"orig":"","vertexType":"NORMAL"},"to":{"name":"Destination","lon":-71.039504,"lat":48.44652,"orig":"","vertexType":"NORMAL"},"itineraries":[{"duration":2399,"startTime":1522703863000,"endTime":1522706262000,"walkTime":348,"transitTime":2049,"waitingTime":2,"walkDistance":439.370789469948,"walkLimitExceeded":false,"elevationLost":0.0,"elevationGained":0.0,"transfers":0,"legs":[{"startTime":1522703863000,"endTime":1522704018000,"departureDelay":0,"arrivalDelay":0,"realTime":false,"distance":193.902,"pathway":false,"mode":"WALK","route":"","agencyTimeZoneOffset":-14400000,"interlineWithPreviousLeg":false,"from":{"name":"Origin","lon":-71.07852499,"lat":48.443416,"departure":1522703863000,"orig":"","vertexType":"NORMAL"},"to":{"name":"Place de la Colline (boul. Ste-Geneviève)","stopId":"1:706","stopCode":"706","lon":-71.080094,"lat":48.44485,"arrival":1522704018000,"departure":1522704019000,"zoneId":"NA","stopIndex":2,"stopSequence":3,"vertexType":"TRANSIT"},"legGeometry":{"points":"eutfHjmypLcAtDQSeBjF","length":4},"rentedBike":false,"transitLeg":false,"duration":155.0,"steps":[{"distance":193.902,"relativeDirection":"DEPART","streetName":"Boulevard Sainte-Geneviève","absoluteDirection":"NORTHWEST","stayOn":false,"area":false,"bogusName":false,"lon":-71.0781387826346,"lat":48.44387841675082,"elevation":[]}]},{"startTime":1522704019000,"endTime":1522704900000,"departureDelay":0,"arrivalDelay":0,"realTime":false,"distance":6283.290942558002,"pathway":false,"mode":"BUS","route":"23","agencyName":"Société de Transport du Saguenay","agencyUrl":"http://ville.saguenay.ca/fr/services-aux-citoyens/transport-sts","agencyTimeZoneOffset":-14400000,"routeColor":"FF00FF","routeType":3,"routeId":"1:23","routeTextColor":"FFFFFF","interlineWithPreviousLeg":false,"tripBlockId":"4","headsign":"Terminus Chicoutimi","agencyId":"0","tripId":"1:217244","serviceDate":"20180402","from":{"name":"Place de la Colline (boul. Ste-Geneviève)","stopId":"1:706","stopCode":"706","lon":-71.080094,"lat":48.44485,"arrival":1522704018000,"departure":1522704019000,"zoneId":"NA","stopIndex":2,"stopSequence":3,"vertexType":"TRANSIT"},"to":{"name":"Terminus Chicoutimi","stopId":"1:1289","stopCode":"1289","lon":-71.066163,"lat":48.428677,"arrival":1522704900000,"departure":1522705500000,"zoneId":"NA","stopIndex":26,"stopSequence":27,"vertexType":"TRANSIT"},"legGeometry":{"points":"{ztfH~yypLCD}@hCo@~Aq@pAs@fA{BlCqH|Iq@Bq@Im@UGCUi@Wm@ScA_@gGSaE@_@@_@@ERoBFe@No@`@gAbCyFNe@Ha@He@Fg@Du@Dg@Hc@Pa@RW\\S`@QZEm@eHM}B?GGi@Is@Ou@Qw@Mo@Kw@ImAGoBAk@aALa@?YEUKc@Yc@_@KOIUGUEWAW?YBqAH_AXeC@IdB_Mh@_EJk@d@kDhAqI`AgHz@oGBU?UAWCWUwAWD]B]AUEoAc@kE}AOIq@g@g@u@]w@b@s@T[~CkFf@s@\\e@x@}@jAeAXQZStBaAh@]`@]`@i@l@kDF_@R{AFWFMPIPC`@BT@V?TAVKLENCLCJ@J@xAb@x@Zz@\\CP?R@N@NFLFF`GtBx@Xw@pG@l@B\\DXL\\RZDFXPf@N@v@Bp@Dr@l@~HNlAH\\@HLd@\\z@Xd@X\\RTXRr@Zn@PfExAvDpALnBJt@Pp@|@`DHZPn@`@rBNnAFr@DbA?bB@jABzA?p@A???A???A?A???A@??A?A@??A@?@A??@A@???@A@?@?@A@?@?@?@?@???@?@?@?@?@?@@@?@?@@@?@@@?@@@?@@?@@??@@@?E`@Kr@]rACVEl@I|AAr@JbAWJe@FUAM?a@Ke@YYWWa@v@}@RQPMz@k@tAe@REZG^Af@@X@VF`@Jn@XbClAr@Xt\\`PrAb@pA^hBTjAFj@Pb@JPHLLJNJRFXDT?X?ZEVEVKTMNMHMFOB}DWSGOSYcAN}FFkAF}DJyDd@wPV_HjAN~ALI`C","length":282},"routeShortName":"23","routeLongName":"Côte Verdun via Aréna du Plateau","rentedBike":false,"transitLeg":true,"duration":881.0,"steps":[]},{"startTime":1522705500000,"endTime":1522706068000,"departureDelay":0,"arrivalDelay":0,"realTime":false,"distance":3453.8411754787335,"pathway":false,"mode":"BUS","route":"24","agencyName":"Société de Transport du Saguenay","agencyUrl":"http://ville.saguenay.ca/fr/services-aux-citoyens/transport-sts","agencyTimeZoneOffset":-14400000,"routeColor":"00FF00","routeType":3,"routeId":"1:24","routeTextColor":"000000","interlineWithPreviousLeg":true,"tripBlockId":"4","headsign":"Terminus Chicoutimi","agencyId":"0","tripId":"1:217245","serviceDate":"20180402","from":{"name":"Terminus Chicoutimi","stopId":"1:1289","stopCode":"1289","lon":-71.066163,"lat":48.428677,"arrival":1522704900000,"departure":1522705500000,"zoneId":"NA","stopIndex":0,"stopSequence":1,"vertexType":"TRANSIT"},"to":{"name":"Thibeault / Diamant","stopId":"1:815","stopCode":"815","lon":-71.042731,"lat":48.446755,"arrival":1522706068000,"departure":1522706069000,"zoneId":"NA","stopIndex":11,"stopSequence":12,"vertexType":"TRANSIT"},"legGeometry":{"points":"evqfHzcwpLg@?EhBO~GoBKCp@O\\WjGOfGCRK^KJMHQB_AMg@Gm\\wO]i@wAyA_@WUKMEwEm@Js@Da@??@@??@?@???@???@?@??A@???@A@??A@??A@A??@A?A??@A?A?A?A@A?A???A?A?A???A?A?A?A???A?AAA?A???AAA?A??AA?AA??AA??A??AA??A??AA?A???A????q@C{AAaB?mAEcAGs@OoAa@sB[kAYcASq@Ok@Qq@Ku@MoBKmAa@eHi@FKC_@I??iE}Ah@}DH}@?c@Ea@[_BA?My@Cm@?Y@g@Hu@b@sD\\_DBSyHsC_@MBQA}@IwAUoAcAkCWo@qDgJg@cBk@uBi@sC]aCWwCiKuDwQuGDWbAoGV{AxG~B","length":145},"routeShortName":"24","routeLongName":"Saint-Luc","rentedBike":false,"transitLeg":true,"duration":568.0,"steps":[]},{"startTime":1522706069000,"endTime":1522706262000,"departureDelay":0,"arrivalDelay":0,"realTime":false,"distance":245.353,"pathway":false,"mode":"WALK","route":"","agencyTimeZoneOffset":-14400000,"interlineWithPreviousLeg":false,"from":{"name":"Thibeault / Diamant","stopId":"1:815","stopCode":"815","lon":-71.042731,"lat":48.446755,"arrival":1522706068000,"departure":1522706069000,"zoneId":"NA","stopIndex":11,"stopSequence":12,"vertexType":"TRANSIT"},"to":{"name":"Destination","lon":-71.039504,"lat":48.44652,"arrival":1522706262000,"orig":"","vertexType":"NORMAL"},"legGeometry":{"points":"agufHrorpLLD`@_DBYAa@M}CMwCEq@Cc@?K","length":10},"rentedBike":false,"transitLeg":false,"duration":193.0,"steps":[{"distance":9.031,"relativeDirection":"DEPART","streetName":"Rue Thibeault","absoluteDirection":"SOUTH","stayOn":false,"area":false,"bogusName":false,"lon":-71.04265067831268,"lat":48.446737444504414,"elevation":[]},{"distance":236.322,"relativeDirection":"LEFT","streetName":"Rue du Diamant","absoluteDirection":"EAST","stayOn":false,"area":false,"bogusName":false,"lon":-71.04268900000001,"lat":48.446660300000005,"elevation":[]}]}],"tooSloped":false},{"duration":1650,"startTime":1522704761000,"endTime":1522706411000,"walkTime":604,"transitTime":744,"waitingTime":302,"walkDistance":760.3965488650961,"walkLimitExceeded":false,"elevationLost":0.0,"elevationGained":0.0,"transfers":1,"legs":[{"startTime":1522704761000,"endTime":1522704914000,"departureDelay":0,"arrivalDelay":0,"realTime":false,"distance":201.454,"pathway":false,"mode":"WALK","route":"","agencyTimeZoneOffset":-14400000,"interlineWithPreviousLeg":false,"from":{"name":"Origin","lon":-71.07852499,"lat":48.443416,"departure":1522704761000,"orig":"","vertexType":"NORMAL"},"to":{"name":"Place de la Colline (boul. Ste-Geneviève)","stopId":"1:2009","stopCode":"2009","lon":-71.080522,"lat":48.444768,"arrival":1522704914000,"departure":1522704915000,"zoneId":"NA","stopIndex":31,"stopSequence":32,"vertexType":"TRANSIT"},"legGeometry":{"points":"eutfHjmypLcAtDsAvEa@fA","length":4},"rentedBike":false,"transitLeg":false,"duration":153.0,"steps":[{"distance":201.454,"relativeDirection":"DEPART","streetName":"Boulevard Sainte-Geneviève","absoluteDirection":"NORTHWEST","stayOn":false,"area":false,"bogusName":false,"lon":-71.0781387826346,"lat":48.44387841675082,"elevation":[]}]},{"startTime":1522704915000,"endTime":1522705200000,"departureDelay":0,"arrivalDelay":0,"realTime":false,"distance":2246.0175870948647,"pathway":false,"mode":"BUS","route":"21","agencyName":"Société de Transport du Saguenay","agencyUrl":"http://ville.saguenay.ca/fr/services-aux-citoyens/transport-sts","agencyTimeZoneOffset":-14400000,"routeColor":"556B2F","routeType":3,"routeId":"1:21","routeTextColor":"FFFFFF","interlineWithPreviousLeg":false,"tripBlockId":"2","headsign":"Terminus Chicoutimi","agencyId":"0","tripId":"1:217177","serviceDate":"20180402","from":{"name":"Place de la Colline (boul. Ste-Geneviève)","stopId":"1:2009","stopCode":"2009","lon":-71.080522,"lat":48.444768,"arrival":1522704914000,"departure":1522704915000,"zoneId":"NA","stopIndex":31,"stopSequence":32,"vertexType":"TRANSIT"},"to":{"name":"Terminus Chicoutimi","stopId":"1:1289","stopCode":"1289","lon":-71.066163,"lat":48.428677,"arrival":1522705200000,"departure":1522705500000,"zoneId":"NA","stopIndex":34,"stopSequence":35,"vertexType":"TRANSIT"},"legGeometry":{"points":"a{tfH~{ypL`CoHpCyJbAmCtAuCZg@|@gBxAsCrCmFhHqN~@eBr@cAt@_Av@}@RQPMz@k@tAe@REZG^Af@@X@VF`@Jn@XbClAr@Xt\\`PrAb@pA^hBTjAFj@Pb@JPHLLJNJRFXDT?X?ZEVEVKTMNMHMFOB}DWSGOSYcAN}FFkAF}DJyDPwGvAHVyL","length":61},"routeShortName":"21","routeLongName":"Boul. Ste-Geneviève/Élie","rentedBike":false,"transitLeg":true,"duration":285.0,"steps":[]},{"startTime":1522705500000,"endTime":1522705959000,"departureDelay":0,"arrivalDelay":0,"realTime":false,"distance":3469.985591496221,"pathway":false,"mode":"BUS","route":"26","agencyName":"Société de Transport du Saguenay","agencyUrl":"http://ville.saguenay.ca/fr/services-aux-citoyens/transport-sts","agencyTimeZoneOffset":-14400000,"routeColor":"00FFFF","routeType":3,"routeId":"1:26","routeTextColor":"000000","interlineWithPreviousLeg":false,"tripBlockId":"107","headsign":"Terminus Chicoutimi","agencyId":"0","tripId":"1:218825","serviceDate":"20180402","from":{"name":"Terminus Chicoutimi","stopId":"1:1289","stopCode":"1289","lon":-71.066163,"lat":48.428677,"arrival":1522705200000,"departure":1522705500000,"zoneId":"NA","stopIndex":0,"stopSequence":1,"vertexType":"TRANSIT"},"to":{"name":"boul. Tadoussac (no. 1189)","stopId":"1:818","stopCode":"818","lon":-71.03515,"lat":48.444092,"arrival":1522705959000,"departure":1522705960000,"zoneId":"NA","stopIndex":7,"stopSequence":8,"vertexType":"TRANSIT"},"legGeometry":{"points":"avqfH``wpLc@E@o@kAOYCm@rRO\\WjGOfGCRK^KJMHQB_AMg@Gm\\wO]i@wAyA_@WUKMEwEm@Js@Da@??@@??@?@???@???@?@??A@???@A@??A@??A@A??@A?A??@A?A?A?A@A?A???A?A?A???A?A?A?A???A?AAA?A???AAA?A??AA?AA??AA??A??AA??A??AA?A???A????q@C{AAaB?mAEcAGs@OoAa@sB[kAYcASq@Ok@Qq@Ku@MoBiC}@yBu@AAyBu@o@Qs@[YSSUY]Ye@]{@Me@Kg@K{@CQm@_IEs@Cq@Aw@Do@LyAJ_ADYBUf@wDRaBHqABQA}@IwAUoAcAkCWo@qDgJg@cBk@uBi@sC]aCWwCs@}Mq@_NQoDg@eKG{A?_@?m@?i@LeCJkAd@yG","length":154},"routeShortName":"26","routeLongName":"St-Fulgence","rentedBike":false,"transitLeg":true,"duration":459.0,"steps":[]},{"startTime":1522705960000,"endTime":1522706411000,"departureDelay":0,"arrivalDelay":0,"realTime":false,"distance":558.723,"pathway":false,"mode":"WALK","route":"","agencyTimeZoneOffset":-14400000,"interlineWithPreviousLeg":false,"from":{"name":"boul. Tadoussac (no. 1189)","stopId":"1:818","stopCode":"818","lon":-71.03515,"lat":48.444092,"arrival":1522705959000,"departure":1522705960000,"zoneId":"NA","stopIndex":7,"stopSequence":8,"vertexType":"TRANSIT"},"to":{"name":"Destination","lon":-71.039504,"lat":48.44652,"arrival":1522706411000,"orig":"","vertexType":"NORMAL"},"legGeometry":{"points":"cwtfHp`qpLEr@YG_@EW`Dc@I_@@c@`D]EWRBN?JAVCZEdAAT?Py@Km@G]IWIK?GFEXa@vBE^Kr@ERCTAF?J?N@L@N@R","length":35},"rentedBike":false,"transitLeg":false,"duration":451.0,"steps":[{"distance":19.846,"relativeDirection":"DEPART","streetName":"Boulevard de Tadoussac","absoluteDirection":"WEST","stayOn":false,"area":false,"bogusName":false,"lon":-71.03512301599895,"lat":48.44418020282193,"elevation":[]},{"distance":227.49900000000002,"relativeDirection":"RIGHT","streetName":"road","absoluteDirection":"NORTH","stayOn":false,"area":false,"bogusName":true,"lon":-71.0353867,"lat":48.4442157,"elevation":[]},{"distance":70.781,"relativeDirection":"LEFT","streetName":"Rue René-Bergeron","absoluteDirection":"WEST","stayOn":false,"area":false,"bogusName":false,"lon":-71.0369625,"lat":48.445415800000006,"elevation":[]},{"distance":240.597,"relativeDirection":"RIGHT","streetName":"Rue du Diamant","absoluteDirection":"NORTH","stayOn":false,"area":false,"bogusName":false,"lon":-71.0379106,"lat":48.445462400000004,"elevation":[]}]}],"tooSloped":false},{"duration":1611,"startTime":1522705663000,"endTime":1522707274000,"walkTime":1198,"transitTime":411,"waitingTime":2,"walkDistance":1532.7574436000702,"walkLimitExceeded":false,"elevationLost":0.0,"elevationGained":0.0,"transfers":0,"legs":[{"startTime":1522705663000,"endTime":1522705818000,"departureDelay":0,"arrivalDelay":0,"realTime":false,"distance":193.902,"pathway":false,"mode":"WALK","route":"","agencyTimeZoneOffset":-14400000,"interlineWithPreviousLeg":false,"from":{"name":"Origin","lon":-71.07852499,"lat":48.443416,"departure":1522705663000,"orig":"","vertexType":"NORMAL"},"to":{"name":"Place de la Colline (boul. Ste-Geneviève)","stopId":"1:706","stopCode":"706","lon":-71.080094,"lat":48.44485,"arrival":1522705818000,"departure":1522705819000,"zoneId":"NA","stopIndex":2,"stopSequence":3,"vertexType":"TRANSIT"},"legGeometry":{"points":"eutfHjmypLcAtDQSeBjF","length":4},"rentedBike":false,"transitLeg":false,"duration":155.0,"steps":[{"distance":193.902,"relativeDirection":"DEPART","streetName":"Boulevard Sainte-Geneviève","absoluteDirection":"NORTHWEST","stayOn":false,"area":false,"bogusName":false,"lon":-71.0781387826346,"lat":48.44387841675082,"elevation":[]}]},{"startTime":1522705819000,"endTime":1522706230000,"departureDelay":0,"arrivalDelay":0,"realTime":false,"distance":3228.521113856758,"pathway":false,"mode":"BUS","route":"23","agencyName":"Société de Transport du Saguenay","agencyUrl":"http://ville.saguenay.ca/fr/services-aux-citoyens/transport-sts","agencyTimeZoneOffset":-14400000,"routeColor":"FF00FF","routeType":3,"routeId":"1:23","routeTextColor":"FFFFFF","interlineWithPreviousLeg":false,"tripBlockId":"5","headsign":"Terminus Chicoutimi","agencyId":"0","tripId":"1:217272","serviceDate":"20180402","from":{"name":"Place de la Colline (boul. Ste-Geneviève)","stopId":"1:706","stopCode":"706","lon":-71.080094,"lat":48.44485,"arrival":1522705818000,"departure":1522705819000,"zoneId":"NA","stopIndex":2,"stopSequence":3,"vertexType":"TRANSIT"},"to":{"name":"Verdun / St-Éloi","stopId":"1:794","stopCode":"794","lon":-71.053519,"lat":48.446152,"arrival":1522706230000,"departure":1522706231000,"zoneId":"NA","stopIndex":16,"stopSequence":17,"vertexType":"TRANSIT"},"legGeometry":{"points":"{ztfH~yypLCD}@hCo@~Aq@pAs@fA{BlCqH|Iq@Bq@Im@UGCUi@Wm@ScA_@gGSaE@_@@_@@ERoBFe@No@`@gAbCyFNe@Ha@He@Fg@Du@Dg@Hc@Pa@RW\\S`@QZEm@eHM}B?GGi@Is@Ou@Qw@Mo@Kw@ImAGoBAk@aALa@?YEUKc@Yc@_@KOIUGUEWAW?YBqAH_AXeC@IdB_Mh@_EJk@d@kDhAqI`AgHz@oGBU?UAWCWUwAWD]B]AUEoAc@kE}AOIq@g@g@u@]w@b@s@T[~CkFf@s@\\e@x@}@jAeAXQZStBaAh@]`@]`@i@l@kD","length":101},"routeShortName":"23","routeLongName":"Côte Verdun via Aréna du Plateau","rentedBike":false,"transitLeg":true,"duration":411.0,"steps":[]},{"startTime":1522706231000,"endTime":1522707274000,"departureDelay":0,"arrivalDelay":0,"realTime":false,"distance":1338.5780000000002,"pathway":false,"mode":"WALK","route":"","agencyTimeZoneOffset":-14400000,"interlineWithPreviousLeg":false,"from":{"name":"Verdun / St-Éloi","stopId":"1:794","stopCode":"794","lon":-71.053519,"lat":48.446152,"arrival":1522706230000,"departure":1522706231000,"zoneId":"NA","stopIndex":16,"stopSequence":17,"vertexType":"TRANSIT"},"to":{"name":"Destination","lon":-71.039504,"lat":48.44652,"arrival":1522707274000,"orig":"","vertexType":"NORMAL"},"legGeometry":{"points":"wcufHhstpLDYBYFg@D_@BUDKDCCk@`@cEwBiEFKBMAOEIzAeBz@S\\]l@e@NQFODO@[y@}HEYAYAc@@e@DYh@aEToBXiBBWBc@Be@Bk@@Q?KAIGs@Gw@g@La@Di@@i@Cm@O}B}@EC`@_DBYAa@M}CMwCEq@Cc@?K","length":56},"rentedBike":false,"transitLeg":false,"duration":1043.0,"steps":[{"distance":65.60900000000001,"relativeDirection":"DEPART","streetName":"Rue de Verdun","absoluteDirection":"EAST","stayOn":false,"area":false,"bogusName":false,"lon":-71.05348776384805,"lat":48.4462094810194,"elevation":[]},{"distance":191.388,"relativeDirection":"SLIGHTLY_LEFT","streetName":"path","absoluteDirection":"EAST","stayOn":false,"area":false,"bogusName":true,"lon":-71.05267160000001,"lat":48.446006600000004,"elevation":[]},{"distance":121.54599999999999,"relativeDirection":"UTURN_RIGHT","streetName":"path","absoluteDirection":"SOUTHEAST","stayOn":true,"area":false,"bogusName":true,"lon":-71.05020520000001,"lat":48.4464394,"elevation":[]},{"distance":19.53,"relativeDirection":"SLIGHTLY_LEFT","streetName":"Rue Daudet","absoluteDirection":"SOUTHEAST","stayOn":false,"area":false,"bogusName":false,"lon":-71.04959480000001,"lat":48.4456745,"elevation":[]},{"distance":319.334,"relativeDirection":"CONTINUE","streetName":"Rue de Saint-Malo","absoluteDirection":"SOUTHEAST","stayOn":false,"area":false,"bogusName":false,"lon":-71.0494456,"lat":48.445529400000005,"elevation":[]},{"distance":193.145,"relativeDirection":"CONTINUE","streetName":"Rue René-Bergeron","absoluteDirection":"EAST","stayOn":false,"area":false,"bogusName":false,"lon":-71.0455409,"lat":48.4452234,"elevation":[]},{"distance":191.704,"relativeDirection":"LEFT","streetName":"Rue Thibeault","absoluteDirection":"NORTH","stayOn":false,"area":false,"bogusName":false,"lon":-71.0430066,"lat":48.4449836,"elevation":[]},{"distance":236.322,"relativeDirection":"RIGHT","streetName":"Rue du Diamant","absoluteDirection":"EAST","stayOn":false,"area":false,"bogusName":false,"lon":-71.04268900000001,"lat":48.446660300000005,"elevation":[]}]}],"tooSloped":false}]},"debugOutput":{"precalculationTime":16,"pathCalculationTime":30,"pathTimes":[17,6,7],"renderingTime":0,"totalTime":46,"timedOut":false},"elevationMetadata":{"ellipsoidToGeoidDifference":-28.885904201182168,"geoidElevation":false}}