{"requestParameters":{"date":"2018/04/02","walkSpeed":"1.33","walkReluctance":"2.0","fromPlace":"48.426905,-71.048929","maxWalkDistance":"3000","waitReluctance":"1.0","carSpeed":"33","numItineraries":"3","waitAtBeginningFactor":"0.4","mode":"TRANSIT,WALK","ignoreRealtimeUpdates":"false","stairsReluctance":"2.0","toPlace":"48.428686,-71.041078","time":"12:30:00"},"plan":{"date":1522686600000,"from":{"name":"Origin","lon":-71.048929,"lat":48.426905,"orig":"","vertexType":"NORMAL"},"to":{"name":"Destination","lon":-71.041078,"lat":48.428686,"orig":"","vertexType":"NORMAL"},"itineraries":[{"duration":936,"startTime":1522686600000,"endTime":1522687536000,"walkTime":936,"transitTime":0,"waitingTime":0,"walkDistance":1184.7926165317826,"walkLimitExceeded":false,"elevationLost":0.0,"elevationGained":0.0,"transfers":0,"legs":[{"startTime":1522686600000,"endTime":1522687536000,"departureDelay":0,"arrivalDelay":0,"realTime":false,"distance":1184.496,"pathway":false,"mode":"WALK","route":"","agencyTimeZoneOffset":-14400000,"interlineWithPreviousLeg":false,"from":{"name":"Origin","lon":-71.048929,"lat":48.426905,"departure":1522686600000,"orig":"","vertexType":"NORMAL"},"to":{"name":"Destination","lon":-71.041078,"lat":48.428686,"arrival":1522687536000,"orig":"","vertexType":"NORMAL"},"legGeometry":{"points":"wkqfHn~spLB?pBTF?J_@F?^DhBZP?FOBg@BoADy@D{@AWAUm@kBEOC[Ga@FEh@kAgAk@ICN{CK}@_A{@d@qG@YKi@U]a@c@YOq@GgA?i@H]AKGSKc@Sy@e@M?iBH?yD@yBAqC","length":46},"rentedBike":false,"transitLeg":false,"duration":936.0,"steps":[{"distance":70.68700000000001,"relativeDirection":"DEPART","streetName":"Rue Saint-Vallier","absoluteDirection":"SOUTH","stayOn":false,"area":false,"bogusName":false,"lon":-71.05015383380092,"lat":48.4270029418696,"elevation":[]},{"distance":13.926,"relativeDirection":"LEFT","streetName":"path","absoluteDirection":"SOUTHEAST","stayOn":false,"area":false,"bogusName":true,"lon":-71.05026840000001,"lat":48.426371800000005,"elevation":[]},{"distance":99.413,"relativeDirection":"RIGHT","streetName":"service road","absoluteDirection":"SOUTH","stayOn":true,"area":false,"bogusName":true,"lon":-71.0501005,"lat":48.426314600000005,"elevation":[]},{"distance":273.061,"relativeDirection":"LEFT","streetName":"service road","absoluteDirection":"EAST","stayOn":true,"area":false,"bogusName":true,"lon":-71.05019700000001,"lat":48.425456700000005,"elevation":[]},{"distance":418.005,"relativeDirection":"RIGHT","streetName":"path","absoluteDirection":"EAST","stayOn":true,"area":false,"bogusName":true,"lon":-71.0471993,"lat":48.4258536,"elevation":[]},{"distance":141.779,"relativeDirection":"SLIGHTLY_RIGHT","streetName":"Rue du Bon-Conseil","absoluteDirection":"NORTH","stayOn":false,"area":false,"bogusName":false,"lon":-71.0436803,"lat":48.427398100000005,"elevation":[]},{"distance":167.625,"relativeDirection":"RIGHT","streetName":"Rue Léonidas-Bélanger","absoluteDirection":"EAST","stayOn":false,"area":false,"bogusName":false,"lon":-71.04334750000001,"lat":48.428622000000004,"elevation":[]}]}],"tooSloped":false},{"duration":578,"startTime":1522687381000,"endTime":1522687959000,"walkTime":482,"transitTime":94,"waitingTime":2,"walkDistance":608.3216766862222,"walkLimitExceeded":false,"elevationLost":0.0,"elevationGained":0.0,"transfers":0,"legs":[{"startTime":1522687381000,"endTime":1522687647000,"departureDelay":0,"arrivalDelay":0,"realTime":false,"distance":334.388,"pathway":false,"mode":"WALK","route":"","agencyTimeZoneOffset":-14400000,"interlineWithPreviousLeg":false,"from":{"name":"Origin","lon":-71.048929,"lat":48.426905,"departure":1522687381000,"orig":"","vertexType":"NORMAL"},"to":{"name":"Racine / Séminaire","stopId":"1:1523","stopCode":"1523","lon":-71.052243,"lat":48.428706,"arrival":1522687647000,"departure":1522687648000,"zoneId":"NA","stopIndex":3,"stopSequence":4,"vertexType":"TRANSIT"},"legGeometry":{"points":"wkqfHn~spLmAMIBCJAvEArA_@Lc@Fq@LeBVWDUDBn@","length":13},"rentedBike":false,"transitLeg":false,"duration":266.0,"steps":[{"distance":49.551,"relativeDirection":"DEPART","streetName":"Rue Saint-Vallier","absoluteDirection":"NORTH","stayOn":false,"area":false,"bogusName":false,"lon":-71.05015383380092,"lat":48.4270029418696,"elevation":[]},{"distance":116.096,"relativeDirection":"LEFT","streetName":"Rue de l'Hôtel-Dieu","absoluteDirection":"WEST","stayOn":false,"area":false,"bogusName":false,"lon":-71.0501002,"lat":48.4274445,"elevation":[]},{"distance":151.044,"relativeDirection":"RIGHT","streetName":"Rue du Séminaire","absoluteDirection":"NORTH","stayOn":false,"area":false,"bogusName":false,"lon":-71.05166870000001,"lat":48.42748,"elevation":[]},{"distance":17.697,"relativeDirection":"LEFT","streetName":"Rue Racine Est","absoluteDirection":"WEST","stayOn":false,"area":false,"bogusName":false,"lon":-71.0520228,"lat":48.4288171,"elevation":[]}]},{"startTime":1522687648000,"endTime":1522687742000,"departureDelay":0,"arrivalDelay":0,"realTime":false,"distance":695.4820203125792,"pathway":false,"mode":"BUS","route":"12","agencyName":"Société de Transport du Saguenay","agencyUrl":"http://ville.saguenay.ca/fr/services-aux-citoyens/transport-sts","agencyTimeZoneOffset":-14400000,"routeColor":"556B2F","routeType":3,"routeId":"1:12","routeTextColor":"FFFFFF","interlineWithPreviousLeg":false,"tripBlockId":"27","headsign":"Terminus UQAC","agencyId":"0","tripId":"1:218012","serviceDate":"20180402","from":{"name":"Racine / Séminaire","stopId":"1:1523","stopCode":"1523","lon":-71.052243,"lat":48.428706,"arrival":1522687647000,"departure":1522687648000,"zoneId":"NA","stopIndex":3,"stopSequence":4,"vertexType":"TRANSIT"},"to":{"name":"boul. Saguenay / Bon-Conseil","stopId":"1:491","stopCode":"491","lon":-71.043,"lat":48.4292,"arrival":1522687742000,"departure":1522687743000,"zoneId":"NA","stopIndex":5,"stopSequence":6,"vertexType":"TRANSIT"},"legGeometry":{"points":"kvqfHpktpL_DaZz@u]","length":3},"routeShortName":"12","routeLongName":"Rivière du Moulin","rentedBike":false,"transitLeg":true,"duration":94.0,"steps":[]},{"startTime":1522687743000,"endTime":1522687959000,"departureDelay":0,"arrivalDelay":0,"realTime":false,"distance":273.76300000000003,"pathway":false,"mode":"WALK","route":"","agencyTimeZoneOffset":-14400000,"interlineWithPreviousLeg":false,"from":{"name":"boul. Saguenay / Bon-Conseil","stopId":"1:491","stopCode":"491","lon":-71.043,"lat":48.4292,"arrival":1522687742000,"departure":1522687743000,"zoneId":"NA","stopIndex":5,"stopSequence":6,"vertexType":"TRANSIT"},"to":{"name":"Destination","lon":-71.041078,"lat":48.428686,"arrival":1522687959000,"orig":"","vertexType":"NORMAL"},"legGeometry":{"points":"azqfHvqrpL?@ALA|@hCG?yD@yBAqC","length":8},"rentedBike":false,"transitLeg":false,"duration":216.0,"steps":[{"distance":29.076,"relativeDirection":"DEPART","streetName":"Boulevard du Saguenay Est","absoluteDirection":"WEST","stayOn":false,"area":false,"bogusName":false,"lon":-71.04299134123569,"lat":48.42929662012274,"elevation":[]},{"distance":77.062,"relativeDirection":"LEFT","streetName":"Rue du Bon-Conseil","absoluteDirection":"SOUTH","stayOn":false,"area":false,"bogusName":false,"lon":-71.0433845,"lat":48.429314600000005,"elevation":[]},{"distance":167.625,"relativeDirection":"LEFT","streetName":"Rue Léonidas-Bélanger","absoluteDirection":"EAST","stayOn":false,"area":false,"bogusName":false,"lon":-71.04334750000001,"lat":48.428622000000004,"elevation":[]}]}],"tooSloped":false}]},"debugOutput":{"precalculationTime":34,"pathCalculationTime":27,"pathTimes":[16,5,6],"renderingTime":0,"totalTime":61,"timedOut":false},"elevationMetadata":{"ellipsoidToGeoidDifference":-28.885904201182168,"geoidElevation":false}}