{"requestParameters":{"date":"2018/04/02","walkSpeed":"1.33","walkReluctance":"2.0","fromPlace":"48.425987,-71.095975","maxWalkDistance":"3000","waitReluctance":"1.0","carSpeed":"33","numItineraries":"3","waitAtBeginningFactor":"0.4","mode":"TRANSIT,WALK","ignoreRealtimeUpdates":"false","stairsReluctance":"2.0","toPlace":"48.405199,-71.09699","time":"12:15:00"},"plan":{"date":1522685700000,"from":{"name":"Origin","lon":-71.095975,"lat":48.425987,"orig":"","vertexType":"NORMAL"},"to":{"name":"Destination","lon":-71.09699,"lat":48.405199,"orig":"","vertexType":"NORMAL"},"itineraries":[{"duration":1557,"startTime":1522686296000,"endTime":1522687853000,"walkTime":1189,"transitTime":366,"waitingTime":2,"walkDistance":1557.6086165382355,"walkLimitExceeded":false,"elevationLost":0.0,"elevationGained":0.0,"transfers":0,"legs":[{"startTime":1522686296000,"endTime":1522686344000,"departureDelay":0,"arrivalDelay":0,"realTime":false,"distance":62.856,"pathway":false,"mode":"WALK","route":"","agencyTimeZoneOffset":-14400000,"interlineWithPreviousLeg":false,"from":{"name":"Origin","lon":-71.095975,"lat":48.425987,"departure":1522686296000,"orig":"","vertexType":"NORMAL"},"to":{"name":"Marguerite-Bourgeois / Casgrain","stopId":"1:605","stopCode":"605","lon":-71.095729,"lat":48.426606,"arrival":1522686344000,"departure":1522686345000,"zoneId":"NA","stopIndex":19,"stopSequence":20,"vertexType":"TRANSIT"},"legGeometry":{"points":"ueqfHpz|pLA?u@PUCa@E","length":5},"rentedBike":false,"transitLeg":false,"duration":48.0,"steps":[{"distance":62.856,"relativeDirection":"DEPART","streetName":"Rue Marguerite-Bourgeoys","absoluteDirection":"NORTH","stayOn":false,"area":false,"bogusName":false,"lon":-71.09560761121074,"lat":48.42603755587439,"elevation":[]}]},{"startTime":1522686345000,"endTime":1522686711000,"departureDelay":0,"arrivalDelay":0,"realTime":false,"distance":2185.2993651569036,"pathway":false,"mode":"BUS","route":"16","agencyName":"Société de Transport du Saguenay","agencyUrl":"http://ville.saguenay.ca/fr/services-aux-citoyens/transport-sts","agencyTimeZoneOffset":-14400000,"routeColor":"00FF00","routeType":3,"routeId":"1:16","routeTextColor":"000000","interlineWithPreviousLeg":false,"tripBlockId":"36","headsign":"Faubourg Sagamie","agencyId":"0","tripId":"1:218288","serviceDate":"20180402","from":{"name":"Marguerite-Bourgeois / Casgrain","stopId":"1:605","stopCode":"605","lon":-71.095729,"lat":48.426606,"arrival":1522686344000,"departure":1522686345000,"zoneId":"NA","stopIndex":19,"stopSequence":20,"vertexType":"TRANSIT"},"to":{"name":"Sentier Panoramique","stopId":"1:466","stopCode":"466","lon":-71.109918,"lat":48.412835,"arrival":1522686711000,"departure":1522686712000,"zoneId":"NA","stopIndex":27,"stopSequence":28,"vertexType":"TRANSIT"},"legGeometry":{"points":"ciqfHvz|pLf@RVDXEROR[p@iBr@uBJQLIDCNEr@lERbBFzA@LFbFN`A^r@bB|AlC`BDBz@t@eAjD|@x@~AxAxB`BbAiDjCzB|ApAvAZbAo@|@cDf@gB~DbA~Cr@fNtNZ\\nCbDl@jBZrB\\`Dx@tIbB|K","length":44},"routeShortName":"16","routeLongName":"Côte de la Réserve","rentedBike":false,"transitLeg":true,"duration":366.0,"steps":[]},{"startTime":1522686712000,"endTime":1522687853000,"departureDelay":0,"arrivalDelay":0,"realTime":false,"distance":1494.656,"pathway":false,"mode":"WALK","route":"","agencyTimeZoneOffset":-14400000,"interlineWithPreviousLeg":false,"from":{"name":"Sentier Panoramique","stopId":"1:466","stopCode":"466","lon":-71.109918,"lat":48.412835,"arrival":1522686711000,"departure":1522686712000,"zoneId":"NA","stopIndex":27,"stopSequence":28,"vertexType":"TRANSIT"},"to":{"name":"Destination","lon":-71.09699,"lat":48.405199,"arrival":1522687853000,"orig":"","vertexType":"NORMAL"},"legGeometry":{"points":"urnfHxs_qLIs@Ii@s@}FQoA|As@`FwBvDcBdF{BnGoCrCoBhCkD|AgDn@sCLi@p@kCjCoJt@iByAoBk@s@a@g@","length":21},"rentedBike":false,"transitLeg":false,"duration":1141.0,"steps":[{"distance":165.518,"relativeDirection":"DEPART","streetName":"Chemin de la Réserve","absoluteDirection":"EAST","stayOn":false,"area":false,"bogusName":false,"lon":-71.10988596599562,"lat":48.412758944454424,"elevation":[]},{"distance":1209.339,"relativeDirection":"RIGHT","streetName":"Boulevard Barrette","absoluteDirection":"SOUTH","stayOn":false,"area":false,"bogusName":false,"lon":-71.1077458,"lat":48.413203300000006,"elevation":[]},{"distance":119.79899999999999,"relativeDirection":"LEFT","streetName":"Rue de l'Estacade","absoluteDirection":"NORTHEAST","stayOn":false,"area":false,"bogusName":false,"lon":-71.0987621,"lat":48.40474570000001,"elevation":[]}]}],"tooSloped":false},{"duration":2159,"startTime":1522686240000,"endTime":1522688399000,"walkTime":659,"transitTime":1498,"waitingTime":2,"walkDistance":837.0849398439469,"walkLimitExceeded":false,"elevationLost":0.0,"elevationGained":0.0,"transfers":0,"legs":[{"startTime":1522686240000,"endTime":1522686784000,"departureDelay":0,"arrivalDelay":0,"realTime":false,"distance":693.622,"pathway":false,"mode":"WALK","route":"","agencyTimeZoneOffset":-14400000,"interlineWithPreviousLeg":false,"from":{"name":"Origin","lon":-71.095975,"lat":48.425987,"departure":1522686240000,"orig":"","vertexType":"NORMAL"},"to":{"name":"ch. de la Réserve / Albanel","stopId":"1:623","stopCode":"623","lon":-71.0885,"lat":48.4237,"arrival":1522686784000,"departure":1522686785000,"zoneId":"NA","stopIndex":28,"stopSequence":29,"vertexType":"TRANSIT"},"legGeometry":{"points":"ueqfHpz|pL@?b@s@Nc@`@kAb@aB^ITGJDS_BG}AL{Bh@sBHUrA}DnAuDoAoAfA_DRi@^eATf@??","length":22},"rentedBike":false,"transitLeg":false,"duration":544.0,"steps":[{"distance":157.761,"relativeDirection":"DEPART","streetName":"Rue Marguerite-Bourgeoys","absoluteDirection":"SOUTHEAST","stayOn":false,"area":false,"bogusName":false,"lon":-71.09560761121074,"lat":48.42603755587439,"elevation":[]},{"distance":342.46000000000004,"relativeDirection":"LEFT","streetName":"Rue du Stade","absoluteDirection":"EAST","stayOn":false,"area":false,"bogusName":false,"lon":-71.0942373,"lat":48.425086300000004,"elevation":[]},{"distance":52.592,"relativeDirection":"LEFT","streetName":"Rue Émile Grouard","absoluteDirection":"NORTHEAST","stayOn":false,"area":false,"bogusName":false,"lon":-71.0901108,"lat":48.4240755,"elevation":[]},{"distance":121.227,"relativeDirection":"RIGHT","streetName":"Rue Albanel","absoluteDirection":"SOUTHEAST","stayOn":false,"area":false,"bogusName":false,"lon":-71.089719,"lat":48.42447060000001,"elevation":[]},{"distance":19.582,"relativeDirection":"RIGHT","streetName":"Chemin de la Réserve","absoluteDirection":"SOUTHWEST","stayOn":false,"area":false,"bogusName":false,"lon":-71.0883591,"lat":48.423858900000006,"elevation":[]}]},{"startTime":1522686785000,"endTime":1522687260000,"departureDelay":0,"arrivalDelay":0,"realTime":false,"distance":2160.2166227334155,"pathway":false,"mode":"BUS","route":"16","agencyName":"Société de Transport du Saguenay","agencyUrl":"http://ville.saguenay.ca/fr/services-aux-citoyens/transport-sts","agencyTimeZoneOffset":-14400000,"routeColor":"00FF00","routeType":3,"routeId":"1:16","routeTextColor":"000000","interlineWithPreviousLeg":false,"tripBlockId":"34","headsign":"Terminus Chicoutimi","agencyId":"0","tripId":"1:218218","serviceDate":"20180402","from":{"name":"ch. de la Réserve / Albanel","stopId":"1:623","stopCode":"623","lon":-71.0885,"lat":48.4237,"arrival":1522686784000,"departure":1522686785000,"zoneId":"NA","stopIndex":28,"stopSequence":29,"vertexType":"TRANSIT"},"to":{"name":"Terminus Chicoutimi","stopId":"1:1289","stopCode":"1289","lon":-71.066163,"lat":48.428677,"arrival":1522687260000,"departure":1522687500000,"zoneId":"NA","stopIndex":35,"stopSequence":36,"vertexType":"TRANSIT"},"legGeometry":{"points":"wwpfHzn{pLqBsFQ_@wA_DyAaD_AoBQ[sAuC{@sBeCcGqAwC[g@]a@aAw@[_@cA}A_@w@GU[iDWaDzByCv@cA`@e@TSp@g@nAo@nBm@ZSf@c@PMb@[b@_@b@e@PYP]N_@La@P{@NcB@IBcAG_A{@sEEg@oAP}@DiBDFeBMa@iBCq@FmBPFcEDoBNiHyDWN_HBoA@Y@m@","length":60},"routeShortName":"16","routeLongName":"Côte de la Réserve","rentedBike":false,"transitLeg":true,"duration":475.0,"steps":[]},{"startTime":1522687500000,"endTime":1522688283000,"departureDelay":0,"arrivalDelay":0,"realTime":false,"distance":3835.2324963508963,"pathway":false,"mode":"BUS","route":"11","agencyName":"Société de Transport du Saguenay","agencyUrl":"http://ville.saguenay.ca/fr/services-aux-citoyens/transport-sts","agencyTimeZoneOffset":-14400000,"routeColor":"FF0000","routeType":3,"routeId":"1:11","routeTextColor":"FFFFFF","interlineWithPreviousLeg":true,"tripBlockId":"34","headsign":"Boul.Royaume/St-Pierre","agencyId":"0","tripId":"1:218219","serviceDate":"20180402","from":{"name":"Terminus Chicoutimi","stopId":"1:1289","stopCode":"1289","lon":-71.066163,"lat":48.428677,"arrival":1522687260000,"departure":1522687500000,"zoneId":"NA","stopIndex":0,"stopSequence":1,"vertexType":"TRANSIT"},"to":{"name":"boul. Barrette / Estacade","stopId":"1:465","stopCode":"465","lon":-71.098983,"lat":48.40478,"arrival":1522688283000,"departure":1522688284000,"zoneId":"NA","stopIndex":15,"stopSequence":16,"vertexType":"TRANSIT"},"legGeometry":{"points":"evqfHzcwpLk@?UhKfIh@dKp@GnDIfDOtEE~@Ff@x@rEF~@CbAALO~ADRNJXBr@DfGRPBPJLN@@FPFTBX?TE`BhBR@?J@NELKFOlAiDL[bA`AfIjIbGdGzDzD`A~An@`ApApBpClEvJrOR\\bAfBLa@t@]LjAVvAVbAVv@^bAXj@b@t@xEtGh@r@n@x@FDjA|AlBpCnJ|NNTX`@V`@eCtHpFjH{FhPcB|Ft@|CEAdCnEdHKrBz@lGiQ","length":77},"routeShortName":"11","routeLongName":"Chic/Faubourg via St-Paul","rentedBike":false,"transitLeg":true,"duration":783.0,"steps":[]},{"startTime":1522688284000,"endTime":1522688399000,"departureDelay":0,"arrivalDelay":0,"realTime":false,"distance":143.287,"pathway":false,"mode":"WALK","route":"","agencyTimeZoneOffset":-14400000,"interlineWithPreviousLeg":false,"from":{"name":"boul. Barrette / Estacade","stopId":"1:465","stopCode":"465","lon":-71.098983,"lat":48.40478,"arrival":1522688283000,"departure":1522688284000,"zoneId":"NA","stopIndex":15,"stopSequence":16,"vertexType":"TRANSIT"},"to":{"name":"Destination","lon":-71.09699,"lat":48.405199,"arrival":1522688399000,"orig":"","vertexType":"NORMAL"},"legGeometry":{"points":"u`mfHzo}pLL]KSyAoBk@s@a@g@","length":6},"rentedBike":false,"transitLeg":false,"duration":115.0,"steps":[{"distance":13.41,"relativeDirection":"DEPART","streetName":"bike path","absoluteDirection":"SOUTHEAST","stayOn":false,"area":false,"bogusName":true,"lon":-71.09901282754062,"lat":48.40475012061133,"elevation":[]},{"distance":10.078,"relativeDirection":"LEFT","streetName":"path","absoluteDirection":"NORTHEAST","stayOn":true,"area":false,"bogusName":true,"lon":-71.0988614,"lat":48.404683500000004,"elevation":[]},{"distance":119.79899999999999,"relativeDirection":"CONTINUE","streetName":"Rue de l'Estacade","absoluteDirection":"NORTHEAST","stayOn":false,"area":false,"bogusName":false,"lon":-71.0987621,"lat":48.40474570000001,"elevation":[]}]}],"tooSloped":false},{"duration":1557,"startTime":1522688096000,"endTime":1522689653000,"walkTime":1189,"transitTime":366,"waitingTime":2,"walkDistance":1557.6086165382355,"walkLimitExceeded":false,"elevationLost":0.0,"elevationGained":0.0,"transfers":0,"legs":[{"startTime":1522688096000,"endTime":1522688144000,"departureDelay":0,"arrivalDelay":0,"realTime":false,"distance":62.856,"pathway":false,"mode":"WALK","route":"","agencyTimeZoneOffset":-14400000,"interlineWithPreviousLeg":false,"from":{"name":"Origin","lon":-71.095975,"lat":48.425987,"departure":1522688096000,"orig":"","vertexType":"NORMAL"},"to":{"name":"Marguerite-Bourgeois / Casgrain","stopId":"1:605","stopCode":"605","lon":-71.095729,"lat":48.426606,"arrival":1522688144000,"departure":1522688145000,"zoneId":"NA","stopIndex":19,"stopSequence":20,"vertexType":"TRANSIT"},"legGeometry":{"points":"ueqfHpz|pLA?u@PUCa@E","length":5},"rentedBike":false,"transitLeg":false,"duration":48.0,"steps":[{"distance":62.856,"relativeDirection":"DEPART","streetName":"Rue Marguerite-Bourgeoys","absoluteDirection":"NORTH","stayOn":false,"area":false,"bogusName":false,"lon":-71.09560761121074,"lat":48.42603755587439,"elevation":[]}]},{"startTime":1522688145000,"endTime":1522688511000,"departureDelay":0,"arrivalDelay":0,"realTime":false,"distance":2185.2993651569036,"pathway":false,"mode":"BUS","route":"16","agencyName":"Société de Transport du Saguenay","agencyUrl":"http://ville.saguenay.ca/fr/services-aux-citoyens/transport-sts","agencyTimeZoneOffset":-14400000,"routeColor":"00FF00","routeType":3,"routeId":"1:16","routeTextColor":"000000","interlineWithPreviousLeg":false,"tripBlockId":"35","headsign":"Faubourg Sagamie","agencyId":"0","tripId":"1:218254","serviceDate":"20180402","from":{"name":"Marguerite-Bourgeois / Casgrain","stopId":"1:605","stopCode":"605","lon":-71.095729,"lat":48.426606,"arrival":1522688144000,"departure":1522688145000,"zoneId":"NA","stopIndex":19,"stopSequence":20,"vertexType":"TRANSIT"},"to":{"name":"Sentier Panoramique","stopId":"1:466","stopCode":"466","lon":-71.109918,"lat":48.412835,"arrival":1522688511000,"departure":1522688512000,"zoneId":"NA","stopIndex":27,"stopSequence":28,"vertexType":"TRANSIT"},"legGeometry":{"points":"ciqfHvz|pLf@RVDXEROR[p@iBr@uBJQLIDCNEr@lERbBFzA@LFbFN`A^r@bB|AlC`BDBz@t@eAjD|@x@~AxAxB`BbAiDjCzB|ApAvAZbAo@|@cDf@gB~DbA~Cr@fNtNZ\\nCbDl@jBZrB\\`Dx@tIbB|K","length":44},"routeShortName":"16","routeLongName":"Côte de la Réserve","rentedBike":false,"transitLeg":true,"duration":366.0,"steps":[]},{"startTime":1522688512000,"endTime":1522689653000,"departureDelay":0,"arrivalDelay":0,"realTime":false,"distance":1494.656,"pathway":false,"mode":"WALK","route":"","agencyTimeZoneOffset":-14400000,"interlineWithPreviousLeg":false,"from":{"name":"Sentier Panoramique","stopId":"1:466","stopCode":"466","lon":-71.109918,"lat":48.412835,"arrival":1522688511000,"departure":1522688512000,"zoneId":"NA","stopIndex":27,"stopSequence":28,"vertexType":"TRANSIT"},"to":{"name":"Destination","lon":-71.09699,"lat":48.405199,"arrival":1522689653000,"orig":"","vertexType":"NORMAL"},"legGeometry":{"points":"urnfHxs_qLIs@Ii@s@}FQoA|As@`FwBvDcBdF{BnGoCrCoBhCkD|AgDn@sCLi@p@kCjCoJt@iByAoBk@s@a@g@","length":21},"rentedBike":false,"transitLeg":false,"duration":1141.0,"steps":[{"distance":165.518,"relativeDirection":"DEPART","streetName":"Chemin de la Réserve","absoluteDirection":"EAST","stayOn":false,"area":false,"bogusName":false,"lon":-71.10988596599562,"lat":48.412758944454424,"elevation":[]},{"distance":1209.339,"relativeDirection":"RIGHT","streetName":"Boulevard Barrette","absoluteDirection":"SOUTH","stayOn":false,"area":false,"bogusName":false,"lon":-71.1077458,"lat":48.413203300000006,"elevation":[]},{"distance":119.79899999999999,"relativeDirection":"LEFT","streetName":"Rue de l'Estacade","absoluteDirection":"NORTHEAST","stayOn":false,"area":false,"bogusName":false,"lon":-71.0987621,"lat":48.40474570000001,"elevation":[]}]}],"tooSloped":false}]},"debugOutput":{"precalculationTime":13,"pathCalculationTime":21,"pathTimes":[14,3,4],"renderingTime":0,"totalTime":34,"timedOut":false},"elevationMetadata":{"ellipsoidToGeoidDifference":-28.885904201182168,"geoidElevation":false}}