{"requestParameters":{"date":"2018/04/02","walkSpeed":"1.33","walkReluctance":"2.0","fromPlace":"48.431636,-71.025656","maxWalkDistance":"3000","waitReluctance":"1.0","carSpeed":"33","numItineraries":"3","waitAtBeginningFactor":"0.4","mode":"TRANSIT,WALK","ignoreRealtimeUpdates":"false","stairsReluctance":"2.0","toPlace":"48.416289,-71.05181899","time":"7:45:00"},"plan":{"date":1522669500000,"from":{"name":"Origin","lon":-71.025656,"lat":48.431636,"orig":"","vertexType":"NORMAL"},"to":{"name":"Destination","lon":-71.05181899,"lat":48.416289,"orig":"","vertexType":"NORMAL"},"itineraries":[{"duration":1904,"startTime":1522669811000,"endTime":1522671715000,"walkTime":676,"transitTime":1226,"waitingTime":2,"walkDistance":854.6641804455719,"walkLimitExceeded":false,"elevationLost":0.0,"elevationGained":0.0,"transfers":0,"legs":[{"startTime":1522669811000,"endTime":1522669953000,"departureDelay":0,"arrivalDelay":0,"realTime":false,"distance":176.323,"pathway":false,"mode":"WALK","route":"","agencyTimeZoneOffset":-14400000,"interlineWithPreviousLeg":false,"from":{"name":"Origin","lon":-71.025656,"lat":48.431636,"departure":1522669811000,"orig":"","vertexType":"NORMAL"},"to":{"name":"Arthur-Hamel / Bretagne","stopId":"1:1526","stopCode":"1526","lon":-71.023915,"lat":48.431403,"arrival":1522669953000,"departure":1522669954000,"zoneId":"NA","stopIndex":13,"stopSequence":14,"vertexType":"TRANSIT"},"legGeometry":{"points":"iirfHxfopLo@o@lAiEf@wBIM","length":5},"rentedBike":false,"transitLeg":false,"duration":142.0,"steps":[{"distance":32.642,"relativeDirection":"DEPART","streetName":"Boulevard Renaud","absoluteDirection":"NORTHEAST","stayOn":false,"area":false,"bogusName":false,"lon":-71.02588317051901,"lat":48.431730420059395,"elevation":[]},{"distance":135.93,"relativeDirection":"RIGHT","streetName":"Rue Théodore-Côté","absoluteDirection":"SOUTHEAST","stayOn":false,"area":false,"bogusName":false,"lon":-71.0256483,"lat":48.4319792,"elevation":[]},{"distance":7.751,"relativeDirection":"LEFT","streetName":"Rue Arthur-Hamel","absoluteDirection":"NORTHEAST","stayOn":false,"area":false,"bogusName":false,"lon":-71.0240383,"lat":48.431385600000006,"elevation":[]}]},{"startTime":1522669954000,"endTime":1522671180000,"departureDelay":0,"arrivalDelay":0,"realTime":false,"distance":7842.9020813033785,"pathway":false,"mode":"BUS","route":"12","agencyName":"Société de Transport du Saguenay","agencyUrl":"http://ville.saguenay.ca/fr/services-aux-citoyens/transport-sts","agencyTimeZoneOffset":-14400000,"routeColor":"556B2F","routeType":3,"routeId":"1:12","routeTextColor":"FFFFFF","interlineWithPreviousLeg":false,"tripBlockId":"27","headsign":"Terminus UQAC","agencyId":"0","tripId":"1:218002","serviceDate":"20180402","from":{"name":"Arthur-Hamel / Bretagne","stopId":"1:1526","stopCode":"1526","lon":-71.023915,"lat":48.431403,"arrival":1522669953000,"departure":1522669954000,"zoneId":"NA","stopIndex":13,"stopSequence":14,"vertexType":"TRANSIT"},"to":{"name":"Terminus UQAC","stopId":"1:1670","stopCode":"1670","lon":-71.053369,"lat":48.420903,"arrival":1522671180000,"departure":1522671181000,"zoneId":"NA","stopIndex":39,"stopSequence":40,"vertexType":"TRANSIT"},"legGeometry":{"points":"ggrfHnznpL_DeFf@iIvGsKlIrH`JlH`EfDnOdIdGlGjL|BzBiLv@}L`b@fNvVvrCdRvMcAjKcP~b@iHhDaGz@uSl[uCYmIeIeJ_J{J{JwCiThFaQhC`E","length":27},"routeShortName":"12","routeLongName":"Rivière du Moulin","rentedBike":false,"transitLeg":true,"duration":1226.0,"steps":[]},{"startTime":1522671181000,"endTime":1522671715000,"departureDelay":0,"arrivalDelay":0,"realTime":false,"distance":678.1690000000001,"pathway":false,"mode":"WALK","route":"","agencyTimeZoneOffset":-14400000,"interlineWithPreviousLeg":false,"from":{"name":"Terminus UQAC","stopId":"1:1670","stopCode":"1670","lon":-71.053369,"lat":48.420903,"arrival":1522671180000,"departure":1522671181000,"zoneId":"NA","stopIndex":39,"stopSequence":40,"vertexType":"TRANSIT"},"to":{"name":"Destination","lon":-71.05181899,"lat":48.416289,"arrival":1522671715000,"orig":"","vertexType":"NORMAL"},"legGeometry":{"points":"sepfHrrtpLbA`ATq@f@wAd@wATs@X{@p@YTI`AbAxAxAh@j@ZNtDrDdA_CNSlAaB?UIe@Ik@","length":20},"rentedBike":false,"transitLeg":false,"duration":534.0,"steps":[{"distance":236.573,"relativeDirection":"DEPART","streetName":"service road","absoluteDirection":"SOUTHWEST","stayOn":false,"area":false,"bogusName":true,"lon":-71.0533724395415,"lat":48.420904465432976,"elevation":[]},{"distance":271.004,"relativeDirection":"RIGHT","streetName":"Rue de la Fondation","absoluteDirection":"SOUTHWEST","stayOn":false,"area":false,"bogusName":false,"lon":-71.0518321,"lat":48.419468900000005,"elevation":[]},{"distance":129.546,"relativeDirection":"LEFT","streetName":"Rue des Étudiants","absoluteDirection":"SOUTHEAST","stayOn":false,"area":false,"bogusName":false,"lon":-71.05382350000001,"lat":48.417425900000005,"elevation":[]},{"distance":41.046,"relativeDirection":"LEFT","streetName":"Rue des Étudiants","absoluteDirection":"EAST","stayOn":true,"area":false,"bogusName":false,"lon":-71.05259620000001,"lat":48.416600700000004,"elevation":[]}]}],"tooSloped":false},{"duration":2273,"startTime":1522670360000,"endTime":1522672633000,"walkTime":383,"transitTime":1888,"waitingTime":2,"walkDistance":481.4777819512481,"walkLimitExceeded":false,"elevationLost":0.0,"elevationGained":0.0,"transfers":0,"legs":[{"startTime":1522670360000,"endTime":1522670595000,"departureDelay":0,"arrivalDelay":0,"realTime":false,"distance":298.055,"pathway":false,"mode":"WALK","route":"","agencyTimeZoneOffset":-14400000,"interlineWithPreviousLeg":false,"from":{"name":"Origin","lon":-71.025656,"lat":48.431636,"departure":1522670360000,"orig":"","vertexType":"NORMAL"},"to":{"name":"nouveau","stopId":"1:2303","stopCode":"2303","lon":-71.02291,"lat":48.432276,"arrival":1522670595000,"departure":1522670596000,"zoneId":"NA","stopIndex":24,"stopSequence":25,"vertexType":"TRANSIT"},"legGeometry":{"points":"iirfHxfopLo@o@lAiEf@wBIMsAyBkAeB","length":7},"rentedBike":false,"transitLeg":false,"duration":235.0,"steps":[{"distance":32.642,"relativeDirection":"DEPART","streetName":"Boulevard Renaud","absoluteDirection":"NORTHEAST","stayOn":false,"area":false,"bogusName":false,"lon":-71.02588317051901,"lat":48.431730420059395,"elevation":[]},{"distance":135.93,"relativeDirection":"RIGHT","streetName":"Rue Théodore-Côté","absoluteDirection":"SOUTHEAST","stayOn":false,"area":false,"bogusName":false,"lon":-71.0256483,"lat":48.4319792,"elevation":[]},{"distance":129.483,"relativeDirection":"LEFT","streetName":"Rue Arthur-Hamel","absoluteDirection":"NORTHEAST","stayOn":false,"area":false,"bogusName":false,"lon":-71.0240383,"lat":48.431385600000006,"elevation":[]}]},{"startTime":1522670596000,"endTime":1522671060000,"departureDelay":0,"arrivalDelay":0,"realTime":false,"distance":3308.741766648229,"pathway":false,"mode":"BUS","route":"12","agencyName":"Société de Transport du Saguenay","agencyUrl":"http://ville.saguenay.ca/fr/services-aux-citoyens/transport-sts","agencyTimeZoneOffset":-14400000,"routeColor":"556B2F","routeType":3,"routeId":"1:12","routeTextColor":"FFFFFF","interlineWithPreviousLeg":false,"tripBlockId":"29","headsign":"Terminus Chicoutimi","agencyId":"0","tripId":"1:218054","serviceDate":"20180402","from":{"name":"nouveau","stopId":"1:2303","stopCode":"2303","lon":-71.02291,"lat":48.432276,"arrival":1522670595000,"departure":1522670596000,"zoneId":"NA","stopIndex":24,"stopSequence":25,"vertexType":"TRANSIT"},"to":{"name":"Terminus Chicoutimi","stopId":"1:1289","stopCode":"1289","lon":-71.066163,"lat":48.428677,"arrival":1522671060000,"departure":1522671300000,"zoneId":"NA","stopIndex":33,"stopSequence":34,"vertexType":"TRANSIT"},"legGeometry":{"points":"qlrfH|snpLfM|O|FlHmB`IgA|Cy@`UYzHZvMR~Hr@~ZPvHsCrMFxf@|ApJj@nDDl]BvZdCXJhC","length":19},"routeShortName":"12","routeLongName":"Rivière du Moulin","rentedBike":false,"transitLeg":true,"duration":464.0,"steps":[]},{"startTime":1522671300000,"endTime":1522672484000,"departureDelay":0,"arrivalDelay":0,"realTime":false,"distance":5752.157201916642,"pathway":false,"mode":"BUS","route":"10","agencyName":"Société de Transport du Saguenay","agencyUrl":"http://ville.saguenay.ca/fr/services-aux-citoyens/transport-sts","agencyTimeZoneOffset":-14400000,"routeColor":"0000FF","routeType":3,"routeId":"1:10","routeTextColor":"FFFFFF","interlineWithPreviousLeg":true,"tripBlockId":"29","headsign":"Terminus UQAC","agencyId":"0","tripId":"1:218055","serviceDate":"20180402","from":{"name":"Terminus Chicoutimi","stopId":"1:1289","stopCode":"1289","lon":-71.066163,"lat":48.428677,"arrival":1522671060000,"departure":1522671300000,"zoneId":"NA","stopIndex":0,"stopSequence":1,"vertexType":"TRANSIT"},"to":{"name":"Fondation / Étudiants","stopId":"1:261","stopCode":"261","lon":-71.053953,"lat":48.417524,"arrival":1522672484000,"departure":1522672485000,"zoneId":"NA","stopIndex":23,"stopSequence":24,"vertexType":"TRANSIT"},"legGeometry":{"points":"svqfHnbwpLDmCdDZ\\kO`@mQBuCD}DQ_ECk@^Cd@QWkL?m@IuF@gA?eH?cAEuEDO^AjD`@B@rEf@T_FjBXpDd@hCObDaCfCaHbFqN`CwG_J_CwMiDGe@T}C\\yELaCJeAJcAXw@Fk@M_@xBwVr@^LJ|@z@HdAlBbD`Av@b@\\v@d@`@BpBAzAXl@t@XZt@lCl@tAnBpB~@~@lDjDr@r@zDrDnAlAjBrBl@pBPlBCj@KrAAHSpAe@jB_A|Bz@xAvA~BvB|BdN|Nc@bAuA~C}VeWaEpLeIrU|D~E","length":83},"routeShortName":"10","routeLongName":"Notre-Dame du Saguenay","rentedBike":false,"transitLeg":true,"duration":1184.0,"steps":[]},{"startTime":1522672485000,"endTime":1522672633000,"departureDelay":0,"arrivalDelay":0,"realTime":false,"distance":183.31,"pathway":false,"mode":"WALK","route":"","agencyTimeZoneOffset":-14400000,"interlineWithPreviousLeg":false,"from":{"name":"Fondation / Étudiants","stopId":"1:261","stopCode":"261","lon":-71.053953,"lat":48.417524,"arrival":1522672484000,"departure":1522672485000,"zoneId":"NA","stopIndex":23,"stopSequence":24,"vertexType":"TRANSIT"},"to":{"name":"Destination","lon":-71.05181899,"lat":48.416289,"arrival":1522672633000,"orig":"","vertexType":"NORMAL"},"legGeometry":{"points":"kpofHzutpLDDHSdA_CNSlAaB?UIe@Ik@","length":9},"rentedBike":false,"transitLeg":false,"duration":148.0,"steps":[{"distance":3.658,"relativeDirection":"DEPART","streetName":"Rue de la Fondation","absoluteDirection":"SOUTHWEST","stayOn":false,"area":false,"bogusName":false,"lon":-71.05389734227215,"lat":48.41750043741361,"elevation":[]},{"distance":138.606,"relativeDirection":"LEFT","streetName":"Rue des Étudiants","absoluteDirection":"SOUTHEAST","stayOn":false,"area":false,"bogusName":false,"lon":-71.05392400000001,"lat":48.417472700000005,"elevation":[]},{"distance":41.046,"relativeDirection":"LEFT","streetName":"Rue des Étudiants","absoluteDirection":"EAST","stayOn":true,"area":false,"bogusName":false,"lon":-71.05259620000001,"lat":48.416600700000004,"elevation":[]}]}],"tooSloped":false},{"duration":1904,"startTime":1522671611000,"endTime":1522673515000,"walkTime":676,"transitTime":1226,"waitingTime":2,"walkDistance":854.6641804455719,"walkLimitExceeded":false,"elevationLost":0.0,"elevationGained":0.0,"transfers":0,"legs":[{"startTime":1522671611000,"endTime":1522671753000,"departureDelay":0,"arrivalDelay":0,"realTime":false,"distance":176.323,"pathway":false,"mode":"WALK","route":"","agencyTimeZoneOffset":-14400000,"interlineWithPreviousLeg":false,"from":{"name":"Origin","lon":-71.025656,"lat":48.431636,"departure":1522671611000,"orig":"","vertexType":"NORMAL"},"to":{"name":"Arthur-Hamel / Bretagne","stopId":"1:1526","stopCode":"1526","lon":-71.023915,"lat":48.431403,"arrival":1522671753000,"departure":1522671754000,"zoneId":"NA","stopIndex":13,"stopSequence":14,"vertexType":"TRANSIT"},"legGeometry":{"points":"iirfHxfopLo@o@lAiEf@wBIM","length":5},"rentedBike":false,"transitLeg":false,"duration":142.0,"steps":[{"distance":32.642,"relativeDirection":"DEPART","streetName":"Boulevard Renaud","absoluteDirection":"NORTHEAST","stayOn":false,"area":false,"bogusName":false,"lon":-71.02588317051901,"lat":48.431730420059395,"elevation":[]},{"distance":135.93,"relativeDirection":"RIGHT","streetName":"Rue Théodore-Côté","absoluteDirection":"SOUTHEAST","stayOn":false,"area":false,"bogusName":false,"lon":-71.0256483,"lat":48.4319792,"elevation":[]},{"distance":7.751,"relativeDirection":"LEFT","streetName":"Rue Arthur-Hamel","absoluteDirection":"NORTHEAST","stayOn":false,"area":false,"bogusName":false,"lon":-71.0240383,"lat":48.431385600000006,"elevation":[]}]},{"startTime":1522671754000,"endTime":1522672980000,"departureDelay":0,"arrivalDelay":0,"realTime":false,"distance":7842.9020813033785,"pathway":false,"mode":"BUS","route":"12","agencyName":"Société de Transport du Saguenay","agencyUrl":"http://ville.saguenay.ca/fr/services-aux-citoyens/transport-sts","agencyTimeZoneOffset":-14400000,"routeColor":"556B2F","routeType":3,"routeId":"1:12","routeTextColor":"FFFFFF","interlineWithPreviousLeg":false,"tripBlockId":"28","headsign":"Terminus UQAC","agencyId":"0","tripId":"1:218029","serviceDate":"20180402","from":{"name":"Arthur-Hamel / Bretagne","stopId":"1:1526","stopCode":"1526","lon":-71.023915,"lat":48.431403,"arrival":1522671753000,"departure":1522671754000,"zoneId":"NA","stopIndex":13,"stopSequence":14,"vertexType":"TRANSIT"},"to":{"name":"Terminus UQAC","stopId":"1:1670","stopCode":"1670","lon":-71.053369,"lat":48.420903,"arrival":1522672980000,"departure":1522672981000,"zoneId":"NA","stopIndex":39,"stopSequence":40,"vertexType":"TRANSIT"},"legGeometry":{"points":"ggrfHnznpL_DeFf@iIvGsKlIrH`JlH`EfDnOdIdGlGjL|BzBiLv@}L`b@fNvVvrCdRvMcAjKcP~b@iHhDaGz@uSl[uCYmIeIeJ_J{J{JwCiThFaQhC`E","length":27},"routeShortName":"12","routeLongName":"Rivière du Moulin","rentedBike":false,"transitLeg":true,"duration":1226.0,"steps":[]},{"startTime":1522672981000,"endTime":1522673515000,"departureDelay":0,"arrivalDelay":0,"realTime":false,"distance":678.1690000000001,"pathway":false,"mode":"WALK","route":"","agencyTimeZoneOffset":-14400000,"interlineWithPreviousLeg":false,"from":{"name":"Terminus UQAC","stopId":"1:1670","stopCode":"1670","lon":-71.053369,"lat":48.420903,"arrival":1522672980000,"departure":1522672981000,"zoneId":"NA","stopIndex":39,"stopSequence":40,"vertexType":"TRANSIT"},"to":{"name":"Destination","lon":-71.05181899,"lat":48.416289,"arrival":1522673515000,"orig":"","vertexType":"NORMAL"},"legGeometry":{"points":"sepfHrrtpLbA`ATq@f@wAd@wATs@X{@p@YTI`AbAxAxAh@j@ZNtDrDdA_CNSlAaB?UIe@Ik@","length":20},"rentedBike":false,"transitLeg":false,"duration":534.0,"steps":[{"distance":236.573,"relativeDirection":"DEPART","streetName":"service road","absoluteDirection":"SOUTHWEST","stayOn":false,"area":false,"bogusName":true,"lon":-71.0533724395415,"lat":48.420904465432976,"elevation":[]},{"distance":271.004,"relativeDirection":"RIGHT","streetName":"Rue de la Fondation","absoluteDirection":"SOUTHWEST","stayOn":false,"area":false,"bogusName":false,"lon":-71.0518321,"lat":48.419468900000005,"elevation":[]},{"distance":129.546,"relativeDirection":"LEFT","streetName":"Rue des Étudiants","absoluteDirection":"SOUTHEAST","stayOn":false,"area":false,"bogusName":false,"lon":-71.05382350000001,"lat":48.417425900000005,"elevation":[]},{"distance":41.046,"relativeDirection":"LEFT","streetName":"Rue des Étudiants","absoluteDirection":"EAST","stayOn":true,"area":false,"bogusName":false,"lon":-71.05259620000001,"lat":48.416600700000004,"elevation":[]}]}],"tooSloped":false}]},"debugOutput":{"precalculationTime":35,"pathCalculationTime":23,"pathTimes":[15,4,4],"renderingTime":0,"totalTime":58,"timedOut":false},"elevationMetadata":{"ellipsoidToGeoidDifference":-28.885904201182168,"geoidElevation":false}}