{"requestParameters":{"date":"2018/04/02","walkSpeed":"1.33","walkReluctance":"2.0","fromPlace":"48.430184,-71.050477","maxWalkDistance":"3000","waitReluctance":"1.0","carSpeed":"33","numItineraries":"3","waitAtBeginningFactor":"0.4","mode":"TRANSIT,WALK","ignoreRealtimeUpdates":"false","stairsReluctance":"2.0","toPlace":"48.431636,-71.025656","time":"17:0:00"},"plan":{"date":1522702800000,"from":{"name":"Origin","lon":-71.050477,"lat":48.430184,"orig":"","vertexType":"NORMAL"},"to":{"name":"Destination","lon":-71.025656,"lat":48.431636,"orig":"","vertexType":"NORMAL"},"itineraries":[{"duration":808,"startTime":1522703490000,"endTime":1522704298000,"walkTime":500,"transitTime":306,"waitingTime":2,"walkDistance":631.5114586423101,"walkLimitExceeded":false,"elevationLost":0.0,"elevationGained":0.0,"transfers":0,"legs":[{"startTime":1522703490000,"endTime":1522703847000,"departureDelay":0,"arrivalDelay":0,"realTime":false,"distance":455.05499999999995,"pathway":false,"mode":"WALK","route":"","agencyTimeZoneOffset":-14400000,"interlineWithPreviousLeg":false,"from":{"name":"Origin","lon":-71.050477,"lat":48.430184,"departure":1522703490000,"orig":"","vertexType":"NORMAL"},"to":{"name":"Racine / Séminaire","stopId":"1:1523","stopCode":"1523","lon":-71.052243,"lat":48.428706,"arrival":1522703847000,"departure":1522703848000,"zoneId":"NA","stopIndex":3,"stopSequence":4,"vertexType":"TRANSIT"},"legGeometry":{"points":"m_rfHn`tpL@lA@pB@v@HzGFxADAfB[zC]Ck@AWKgC","length":12},"rentedBike":false,"transitLeg":false,"duration":357.0,"steps":[{"distance":229.555,"relativeDirection":"DEPART","streetName":"Boulevard du Saguenay Est","absoluteDirection":"WEST","stayOn":false,"area":false,"bogusName":false,"lon":-71.05047551288685,"lat":48.43015090030644,"elevation":[]},{"distance":149.33100000000002,"relativeDirection":"LEFT","streetName":"Rue Salaberry","absoluteDirection":"SOUTH","stayOn":false,"area":false,"bogusName":false,"lon":-71.0535809,"lat":48.4300371,"elevation":[]},{"distance":76.169,"relativeDirection":"LEFT","streetName":"Rue Racine Est","absoluteDirection":"EAST","stayOn":false,"area":false,"bogusName":false,"lon":-71.0532845,"lat":48.428708900000004,"elevation":[]}]},{"startTime":1522703848000,"endTime":1522704154000,"departureDelay":0,"arrivalDelay":0,"realTime":false,"distance":2249.08550665964,"pathway":false,"mode":"BUS","route":"12","agencyName":"Société de Transport du Saguenay","agencyUrl":"http://ville.saguenay.ca/fr/services-aux-citoyens/transport-sts","agencyTimeZoneOffset":-14400000,"routeColor":"556B2F","routeType":3,"routeId":"1:12","routeTextColor":"FFFFFF","interlineWithPreviousLeg":false,"tripBlockId":"28","headsign":"Terminus UQAC","agencyId":"0","tripId":"1:218047","serviceDate":"20180402","from":{"name":"Racine / Séminaire","stopId":"1:1523","stopCode":"1523","lon":-71.052243,"lat":48.428706,"arrival":1522703847000,"departure":1522703848000,"zoneId":"NA","stopIndex":3,"stopSequence":4,"vertexType":"TRANSIT"},"to":{"name":"Arthur-Hamel / Bretagne","stopId":"1:1526","stopCode":"1526","lon":-71.023915,"lat":48.431403,"arrival":1522704154000,"departure":1522704155000,"zoneId":"NA","stopIndex":13,"stopSequence":14,"vertexType":"TRANSIT"},"legGeometry":{"points":"kvqfHpktpL_DaZz@u]SeV}@aNs@gKToKd@gTnCyHkGuLqFqJ","length":11},"routeShortName":"12","routeLongName":"Rivière du Moulin","rentedBike":false,"transitLeg":true,"duration":306.0,"steps":[]},{"startTime":1522704155000,"endTime":1522704298000,"departureDelay":0,"arrivalDelay":0,"realTime":false,"distance":176.32299999999998,"pathway":false,"mode":"WALK","route":"","agencyTimeZoneOffset":-14400000,"interlineWithPreviousLeg":false,"from":{"name":"Arthur-Hamel / Bretagne","stopId":"1:1526","stopCode":"1526","lon":-71.023915,"lat":48.431403,"arrival":1522704154000,"departure":1522704155000,"zoneId":"NA","stopIndex":13,"stopSequence":14,"vertexType":"TRANSIT"},"to":{"name":"Destination","lon":-71.025656,"lat":48.431636,"arrival":1522704298000,"orig":"","vertexType":"NORMAL"},"legGeometry":{"points":"mgrfHxznpLHLg@vBmAhEn@n@","length":5},"rentedBike":false,"transitLeg":false,"duration":143.0,"steps":[{"distance":7.751,"relativeDirection":"DEPART","streetName":"Rue Arthur-Hamel","absoluteDirection":"SOUTHWEST","stayOn":false,"area":false,"bogusName":false,"lon":-71.02396472807098,"lat":48.43143536577987,"elevation":[]},{"distance":135.93,"relativeDirection":"RIGHT","streetName":"Rue Théodore-Côté","absoluteDirection":"NORTHWEST","stayOn":false,"area":false,"bogusName":false,"lon":-71.0240383,"lat":48.431385600000006,"elevation":[]},{"distance":32.642,"relativeDirection":"LEFT","streetName":"Boulevard Renaud","absoluteDirection":"SOUTHWEST","stayOn":false,"area":false,"bogusName":false,"lon":-71.0256483,"lat":48.4319792,"elevation":[]}]}],"tooSloped":false},{"duration":1502,"startTime":1522702800000,"endTime":1522704302000,"walkTime":1502,"transitTime":0,"waitingTime":0,"walkDistance":1961.7237744341614,"walkLimitExceeded":false,"elevationLost":0.0,"elevationGained":0.0,"transfers":0,"legs":[{"startTime":1522702800000,"endTime":1522704302000,"departureDelay":0,"arrivalDelay":0,"realTime":false,"distance":1961.6639999999998,"pathway":false,"mode":"WALK","route":"","agencyTimeZoneOffset":-14400000,"interlineWithPreviousLeg":false,"from":{"name":"Origin","lon":-71.050477,"lat":48.430184,"departure":1522702800000,"orig":"","vertexType":"NORMAL"},"to":{"name":"Destination","lon":-71.025656,"lat":48.431636,"arrival":1522704302000,"orig":"","vertexType":"NORMAL"},"legGeometry":{"points":"m_rfHn`tpLImPAq@Bu@B[@S`@uB`AgFReALu@Jw@T_C@q@@}@@M?ADqCA{JMuDCYGy@MiBKyAIqAM_BEq@?AKkAe@{HGgAAwADg@@S@YLgC?A@W@SF_AHqD@e@DkBFeB@kB@y@@c@]Qy@IgAKO]q@oBo@}Dm@gCS_Ag@sAe@c@","length":56},"rentedBike":false,"transitLeg":false,"duration":1502.0,"steps":[{"distance":1586.8639999999998,"relativeDirection":"DEPART","streetName":"Boulevard du Saguenay Est","absoluteDirection":"EAST","stayOn":false,"area":false,"bogusName":false,"lon":-71.05047551288685,"lat":48.43015090030644,"elevation":[]},{"distance":374.8,"relativeDirection":"LEFT","streetName":"Boulevard Renaud","absoluteDirection":"NORTH","stayOn":false,"area":false,"bogusName":false,"lon":-71.02934660000001,"lat":48.4296457,"elevation":[]}]}],"tooSloped":false},{"duration":808,"startTime":1522705290000,"endTime":1522706098000,"walkTime":500,"transitTime":306,"waitingTime":2,"walkDistance":631.5114586423101,"walkLimitExceeded":false,"elevationLost":0.0,"elevationGained":0.0,"transfers":0,"legs":[{"startTime":1522705290000,"endTime":1522705647000,"departureDelay":0,"arrivalDelay":0,"realTime":false,"distance":455.05499999999995,"pathway":false,"mode":"WALK","route":"","agencyTimeZoneOffset":-14400000,"interlineWithPreviousLeg":false,"from":{"name":"Origin","lon":-71.050477,"lat":48.430184,"departure":1522705290000,"orig":"","vertexType":"NORMAL"},"to":{"name":"Racine / Séminaire","stopId":"1:1523","stopCode":"1523","lon":-71.052243,"lat":48.428706,"arrival":1522705647000,"departure":1522705648000,"zoneId":"NA","stopIndex":3,"stopSequence":4,"vertexType":"TRANSIT"},"legGeometry":{"points":"m_rfHn`tpL@lA@pB@v@HzGFxADAfB[zC]Ck@AWKgC","length":12},"rentedBike":false,"transitLeg":false,"duration":357.0,"steps":[{"distance":229.555,"relativeDirection":"DEPART","streetName":"Boulevard du Saguenay Est","absoluteDirection":"WEST","stayOn":false,"area":false,"bogusName":false,"lon":-71.05047551288685,"lat":48.43015090030644,"elevation":[]},{"distance":149.33100000000002,"relativeDirection":"LEFT","streetName":"Rue Salaberry","absoluteDirection":"SOUTH","stayOn":false,"area":false,"bogusName":false,"lon":-71.0535809,"lat":48.4300371,"elevation":[]},{"distance":76.169,"relativeDirection":"LEFT","streetName":"Rue Racine Est","absoluteDirection":"EAST","stayOn":false,"area":false,"bogusName":false,"lon":-71.0532845,"lat":48.428708900000004,"elevation":[]}]},{"startTime":1522705648000,"endTime":1522705954000,"departureDelay":0,"arrivalDelay":0,"realTime":false,"distance":2249.08550665964,"pathway":false,"mode":"BUS","route":"12","agencyName":"Société de Transport du Saguenay","agencyUrl":"http://ville.saguenay.ca/fr/services-aux-citoyens/transport-sts","agencyTimeZoneOffset":-14400000,"routeColor":"556B2F","routeType":3,"routeId":"1:12","routeTextColor":"FFFFFF","interlineWithPreviousLeg":false,"tripBlockId":"27","headsign":"Terminus UQAC","agencyId":"0","tripId":"1:218022","serviceDate":"20180402","from":{"name":"Racine / Séminaire","stopId":"1:1523","stopCode":"1523","lon":-71.052243,"lat":48.428706,"arrival":1522705647000,"departure":1522705648000,"zoneId":"NA","stopIndex":3,"stopSequence":4,"vertexType":"TRANSIT"},"to":{"name":"Arthur-Hamel / Bretagne","stopId":"1:1526","stopCode":"1526","lon":-71.023915,"lat":48.431403,"arrival":1522705954000,"departure":1522705955000,"zoneId":"NA","stopIndex":13,"stopSequence":14,"vertexType":"TRANSIT"},"legGeometry":{"points":"kvqfHpktpL_DaZz@u]SeV}@aNs@gKToKd@gTnCyHkGuLqFqJ","length":11},"routeShortName":"12","routeLongName":"Rivière du Moulin","rentedBike":false,"transitLeg":true,"duration":306.0,"steps":[]},{"startTime":1522705955000,"endTime":1522706098000,"departureDelay":0,"arrivalDelay":0,"realTime":false,"distance":176.32299999999998,"pathway":false,"mode":"WALK","route":"","agencyTimeZoneOffset":-14400000,"interlineWithPreviousLeg":false,"from":{"name":"Arthur-Hamel / Bretagne","stopId":"1:1526","stopCode":"1526","lon":-71.023915,"lat":48.431403,"arrival":1522705954000,"departure":1522705955000,"zoneId":"NA","stopIndex":13,"stopSequence":14,"vertexType":"TRANSIT"},"to":{"name":"Destination","lon":-71.025656,"lat":48.431636,"arrival":1522706098000,"orig":"","vertexType":"NORMAL"},"legGeometry":{"points":"mgrfHxznpLHLg@vBmAhEn@n@","length":5},"rentedBike":false,"transitLeg":false,"duration":143.0,"steps":[{"distance":7.751,"relativeDirection":"DEPART","streetName":"Rue Arthur-Hamel","absoluteDirection":"SOUTHWEST","stayOn":false,"area":false,"bogusName":false,"lon":-71.02396472807098,"lat":48.43143536577987,"elevation":[]},{"distance":135.93,"relativeDirection":"RIGHT","streetName":"Rue Théodore-Côté","absoluteDirection":"NORTHWEST","stayOn":false,"area":false,"bogusName":false,"lon":-71.0240383,"lat":48.431385600000006,"elevation":[]},{"distance":32.642,"relativeDirection":"LEFT","streetName":"Boulevard Renaud","absoluteDirection":"SOUTHWEST","stayOn":false,"area":false,"bogusName":false,"lon":-71.0256483,"lat":48.4319792,"elevation":[]}]}],"tooSloped":false}]},"debugOutput":{"precalculationTime":28,"pathCalculationTime":29,"pathTimes":[17,6,6],"renderingTime":0,"totalTime":57,"timedOut":false},"elevationMetadata":{"ellipsoidToGeoidDifference":-28.885904201182168,"geoidElevation":false}}