{"requestParameters":{"date":"2018/04/02","walkSpeed":"1.33","walkReluctance":"2.0","fromPlace":"48.416289,-71.05181899","maxWalkDistance":"3000","waitReluctance":"1.0","carSpeed":"33","numItineraries":"3","waitAtBeginningFactor":"0.4","mode":"TRANSIT,WALK","ignoreRealtimeUpdates":"false","stairsReluctance":"2.0","toPlace":"48.431636,-71.025656","time":"16:0:00"},"plan":{"date":1522699200000,"from":{"name":"Origin","lon":-71.05181899,"lat":48.416289,"orig":"","vertexType":"NORMAL"},"to":{"name":"Destination","lon":-71.025656,"lat":48.431636,"orig":"","vertexType":"NORMAL"},"itineraries":[{"duration":2099,"startTime":1522699334000,"endTime":1522701433000,"walkTime":385,"transitTime":1712,"waitingTime":2,"walkDistance":481.50597743906,"walkLimitExceeded":false,"elevationLost":0.0,"elevationGained":0.0,"transfers":0,"legs":[{"startTime":1522699334000,"endTime":1522699483000,"departureDelay":0,"arrivalDelay":0,"realTime":false,"distance":183.30999999999997,"pathway":false,"mode":"WALK","route":"","agencyTimeZoneOffset":-14400000,"interlineWithPreviousLeg":false,"from":{"name":"Origin","lon":-71.05181899,"lat":48.416289,"departure":1522699334000,"orig":"","vertexType":"NORMAL"},"to":{"name":"Fondation / Étudiants","stopId":"1:261","stopCode":"261","lon":-71.053953,"lat":48.417524,"arrival":1522699483000,"departure":1522699484000,"zoneId":"NA","stopIndex":23,"stopSequence":24,"vertexType":"TRANSIT"},"legGeometry":{"points":"kkofHnjtpLHj@Hd@?TmA`BOReA~BIREE","length":9},"rentedBike":false,"transitLeg":false,"duration":149.0,"steps":[{"distance":41.046,"relativeDirection":"DEPART","streetName":"Rue des Étudiants","absoluteDirection":"WEST","stayOn":false,"area":false,"bogusName":false,"lon":-71.0520710562562,"lat":48.416709362498366,"elevation":[]},{"distance":138.606,"relativeDirection":"RIGHT","streetName":"Rue des Étudiants","absoluteDirection":"NORTHWEST","stayOn":true,"area":false,"bogusName":false,"lon":-71.05259620000001,"lat":48.416600700000004,"elevation":[]},{"distance":3.658,"relativeDirection":"RIGHT","streetName":"Rue de la Fondation","absoluteDirection":"NORTHEAST","stayOn":false,"area":false,"bogusName":false,"lon":-71.05392400000001,"lat":48.417472700000005,"elevation":[]}]},{"startTime":1522699484000,"endTime":1522699620000,"departureDelay":0,"arrivalDelay":0,"realTime":false,"distance":378.1919200530851,"pathway":false,"mode":"BUS","route":"10","agencyName":"Société de Transport du Saguenay","agencyUrl":"http://ville.saguenay.ca/fr/services-aux-citoyens/transport-sts","agencyTimeZoneOffset":-14400000,"routeColor":"0000FF","routeType":3,"routeId":"1:10","routeTextColor":"FFFFFF","interlineWithPreviousLeg":false,"tripBlockId":"26","headsign":"Terminus UQAC","agencyId":"0","tripId":"1:217982","serviceDate":"20180402","from":{"name":"Fondation / Étudiants","stopId":"1:261","stopCode":"261","lon":-71.053953,"lat":48.417524,"arrival":1522699483000,"departure":1522699484000,"zoneId":"NA","stopIndex":23,"stopSequence":24,"vertexType":"TRANSIT"},"to":{"name":"Terminus UQAC","stopId":"1:1670","stopCode":"1670","lon":-71.053369,"lat":48.420903,"arrival":1522699620000,"departure":1522699800000,"zoneId":"NA","stopIndex":24,"stopSequence":25,"vertexType":"TRANSIT"},"legGeometry":{"points":"qpofHhvtpLfDdEwLpKeBgGAsE]gAoD}CUt@a@_@USMM","length":11},"routeShortName":"10","routeLongName":"Notre-Dame du Saguenay","rentedBike":false,"transitLeg":true,"duration":136.0,"steps":[]},{"startTime":1522699800000,"endTime":1522701196000,"departureDelay":0,"arrivalDelay":0,"realTime":false,"distance":7785.4205410505865,"pathway":false,"mode":"BUS","route":"12","agencyName":"Société de Transport du Saguenay","agencyUrl":"http://ville.saguenay.ca/fr/services-aux-citoyens/transport-sts","agencyTimeZoneOffset":-14400000,"routeColor":"556B2F","routeType":3,"routeId":"1:12","routeTextColor":"FFFFFF","interlineWithPreviousLeg":true,"tripBlockId":"26","headsign":"Terminus Chicoutimi","agencyId":"0","tripId":"1:217983","serviceDate":"20180402","from":{"name":"Terminus UQAC","stopId":"1:1670","stopCode":"1670","lon":-71.053369,"lat":48.420903,"arrival":1522699620000,"departure":1522699800000,"zoneId":"NA","stopIndex":0,"stopSequence":1,"vertexType":"TRANSIT"},"to":{"name":"nouveau","stopId":"1:2303","stopCode":"2303","lon":-71.02291,"lat":48.432276,"arrival":1522701196000,"departure":1522701197000,"zoneId":"NA","stopIndex":24,"stopSequence":25,"vertexType":"TRANSIT"},"legGeometry":{"points":"sepfHprtpL}@y@Pw@wAsAaB{A}DrL?jCv@fCa@nDaC`D~E`F~MfNjJnJ~GbHnCpCv@iBlAgIdCmFbAqDtBeCjFm@`Gs@hFo@xAmBrGcPxFoNlCyGa@yFYkD}CyA}KmFgD_BgAgBn@kFD_NoIgrAmD_WcAaLaDHoDJi`@wVoAbDbA|AnBU|B|AfBlAyLtKoGxFcFqDkJaHgEoDmDwC_TqQsBeB{HjWfAvA","length":56},"routeShortName":"12","routeLongName":"Rivière du Moulin","rentedBike":false,"transitLeg":true,"duration":1396.0,"steps":[]},{"startTime":1522701197000,"endTime":1522701433000,"departureDelay":0,"arrivalDelay":0,"realTime":false,"distance":298.055,"pathway":false,"mode":"WALK","route":"","agencyTimeZoneOffset":-14400000,"interlineWithPreviousLeg":false,"from":{"name":"nouveau","stopId":"1:2303","stopCode":"2303","lon":-71.02291,"lat":48.432276,"arrival":1522701196000,"departure":1522701197000,"zoneId":"NA","stopIndex":24,"stopSequence":25,"vertexType":"TRANSIT"},"to":{"name":"Destination","lon":-71.025656,"lat":48.431636,"arrival":1522701433000,"orig":"","vertexType":"NORMAL"},"legGeometry":{"points":"mlrfHxsnpLjAdBrAxBHLg@vBmAhEn@n@","length":7},"rentedBike":false,"transitLeg":false,"duration":236.0,"steps":[{"distance":129.483,"relativeDirection":"DEPART","streetName":"Rue Arthur-Hamel","absoluteDirection":"SOUTHWEST","stayOn":false,"area":false,"bogusName":false,"lon":-71.02284512319854,"lat":48.43223878297246,"elevation":[]},{"distance":135.93,"relativeDirection":"RIGHT","streetName":"Rue Théodore-Côté","absoluteDirection":"NORTHWEST","stayOn":false,"area":false,"bogusName":false,"lon":-71.0240383,"lat":48.431385600000006,"elevation":[]},{"distance":32.642,"relativeDirection":"LEFT","streetName":"Boulevard Renaud","absoluteDirection":"SOUTHWEST","stayOn":false,"area":false,"bogusName":false,"lon":-71.0256483,"lat":48.4319792,"elevation":[]}]}],"tooSloped":false},{"duration":2287,"startTime":1522700211000,"endTime":1522702498000,"walkTime":648,"transitTime":1637,"waitingTime":2,"walkDistance":829.4220451089731,"walkLimitExceeded":false,"elevationLost":0.0,"elevationGained":0.0,"transfers":0,"legs":[{"startTime":1522700211000,"endTime":1522700716000,"departureDelay":0,"arrivalDelay":0,"realTime":false,"distance":652.981,"pathway":false,"mode":"WALK","route":"","agencyTimeZoneOffset":-14400000,"interlineWithPreviousLeg":false,"from":{"name":"Origin","lon":-71.05181899,"lat":48.416289,"departure":1522700211000,"orig":"","vertexType":"NORMAL"},"to":{"name":"Murdock / Chabanel","stopId":"1:355","stopCode":"355","lon":-71.045842,"lat":48.414882,"arrival":1522700716000,"departure":1522700717000,"zoneId":"NA","stopIndex":2,"stopSequence":3,"vertexType":"TRANSIT"},"legGeometry":{"points":"kkofHnjtpLMs@Uk@kCmCpCiIlAsDvAuDNa@Nc@HW^aA|A{Et@hA","length":13},"rentedBike":false,"transitLeg":false,"duration":505.0,"steps":[{"distance":134.61,"relativeDirection":"DEPART","streetName":"Rue des Étudiants","absoluteDirection":"EAST","stayOn":false,"area":false,"bogusName":false,"lon":-71.0520710562562,"lat":48.416709362498366,"elevation":[]},{"distance":477.48299999999995,"relativeDirection":"RIGHT","streetName":"Rue Chabanel","absoluteDirection":"SOUTHEAST","stayOn":false,"area":false,"bogusName":false,"lon":-71.0508843,"lat":48.4175886,"elevation":[]},{"distance":40.888,"relativeDirection":"RIGHT","streetName":"Rue Murdock","absoluteDirection":"SOUTHWEST","stayOn":false,"area":false,"bogusName":false,"lon":-71.0455232,"lat":48.4151863,"elevation":[]}]},{"startTime":1522700717000,"endTime":1522701600000,"departureDelay":0,"arrivalDelay":0,"realTime":false,"distance":4257.201022063818,"pathway":false,"mode":"BUS","route":"10","agencyName":"Société de Transport du Saguenay","agencyUrl":"http://ville.saguenay.ca/fr/services-aux-citoyens/transport-sts","agencyTimeZoneOffset":-14400000,"routeColor":"0000FF","routeType":3,"routeId":"1:10","routeTextColor":"FFFFFF","interlineWithPreviousLeg":false,"tripBlockId":"27","headsign":"Terminus Chicoutimi","agencyId":"0","tripId":"1:218019","serviceDate":"20180402","from":{"name":"Murdock / Chabanel","stopId":"1:355","stopCode":"355","lon":-71.045842,"lat":48.414882,"arrival":1522700716000,"departure":1522700717000,"zoneId":"NA","stopIndex":2,"stopSequence":3,"vertexType":"TRANSIT"},"to":{"name":"Terminus Chicoutimi","stopId":"1:1289","stopCode":"1289","lon":-71.066163,"lat":48.428677,"arrival":1522701600000,"departure":1522701900000,"zoneId":"NA","stopIndex":21,"stopSequence":22,"vertexType":"TRANSIT"},"legGeometry":{"points":"g`ofH|cspLu@oAXu@hAoDP_BP{AQmCg@mB_BiBeBaBqFeFmCgC{A_BmBoBk@iAw@}CU[o@y@k@Io@MqC@}@k@_@[aAw@_BoCMOKcAQUu@s@AAu@[k@xGg@pFc@~EO`@KHCVDP?hAa@nEKdAi@pGAr@GXMRG^Bb@`CV~IxB~ElAhChAsBtFaEvK_BhE}AfD{BdByBh@iC]oDq@YbF_Ea@AAuEg@MDENF|GAjJDzBDdDLdHFbCo@RUFRbFG|FApAMvFa@tPOnHqBOIjDc@Q","length":82},"routeShortName":"10","routeLongName":"Notre-Dame du Saguenay","rentedBike":false,"transitLeg":true,"duration":883.0,"steps":[]},{"startTime":1522701900000,"endTime":1522702354000,"departureDelay":0,"arrivalDelay":0,"realTime":false,"distance":3316.456854754971,"pathway":false,"mode":"BUS","route":"12","agencyName":"Société de Transport du Saguenay","agencyUrl":"http://ville.saguenay.ca/fr/services-aux-citoyens/transport-sts","agencyTimeZoneOffset":-14400000,"routeColor":"556B2F","routeType":3,"routeId":"1:12","routeTextColor":"FFFFFF","interlineWithPreviousLeg":true,"tripBlockId":"27","headsign":"Terminus UQAC","agencyId":"0","tripId":"1:218020","serviceDate":"20180402","from":{"name":"Terminus Chicoutimi","stopId":"1:1289","stopCode":"1289","lon":-71.066163,"lat":48.428677,"arrival":1522701600000,"departure":1522701900000,"zoneId":"NA","stopIndex":0,"stopSequence":1,"vertexType":"TRANSIT"},"to":{"name":"Arthur-Hamel / Bretagne","stopId":"1:1526","stopCode":"1526","lon":-71.023915,"lat":48.431403,"arrival":1522702354000,"departure":1522702355000,"zoneId":"NA","stopIndex":13,"stopSequence":14,"vertexType":"TRANSIT"},"legGeometry":{"points":"evqfHpbwpLpFcj@IaKmFy^_DaZz@u]SeV}@aNs@gKToKd@gTnCyHkGuLqFqJ","length":14},"routeShortName":"12","routeLongName":"Rivière du Moulin","rentedBike":false,"transitLeg":true,"duration":454.0,"steps":[]},{"startTime":1522702355000,"endTime":1522702498000,"departureDelay":0,"arrivalDelay":0,"realTime":false,"distance":176.32299999999998,"pathway":false,"mode":"WALK","route":"","agencyTimeZoneOffset":-14400000,"interlineWithPreviousLeg":false,"from":{"name":"Arthur-Hamel / Bretagne","stopId":"1:1526","stopCode":"1526","lon":-71.023915,"lat":48.431403,"arrival":1522702354000,"departure":1522702355000,"zoneId":"NA","stopIndex":13,"stopSequence":14,"vertexType":"TRANSIT"},"to":{"name":"Destination","lon":-71.025656,"lat":48.431636,"arrival":1522702498000,"orig":"","vertexType":"NORMAL"},"legGeometry":{"points":"mgrfHxznpLHLg@vBmAhEn@n@","length":5},"rentedBike":false,"transitLeg":false,"duration":143.0,"steps":[{"distance":7.751,"relativeDirection":"DEPART","streetName":"Rue Arthur-Hamel","absoluteDirection":"SOUTHWEST","stayOn":false,"area":false,"bogusName":false,"lon":-71.02396472807098,"lat":48.43143536577987,"elevation":[]},{"distance":135.93,"relativeDirection":"RIGHT","streetName":"Rue Théodore-Côté","absoluteDirection":"NORTHWEST","stayOn":false,"area":false,"bogusName":false,"lon":-71.0240383,"lat":48.431385600000006,"elevation":[]},{"distance":32.642,"relativeDirection":"LEFT","streetName":"Boulevard Renaud","absoluteDirection":"SOUTHWEST","stayOn":false,"area":false,"bogusName":false,"lon":-71.0256483,"lat":48.4319792,"elevation":[]}]}],"tooSloped":false},{"duration":2099,"startTime":1522701134000,"endTime":1522703233000,"walkTime":385,"transitTime":1712,"waitingTime":2,"walkDistance":481.50597743906,"walkLimitExceeded":false,"elevationLost":0.0,"elevationGained":0.0,"transfers":0,"legs":[{"startTime":1522701134000,"endTime":1522701283000,"departureDelay":0,"arrivalDelay":0,"realTime":false,"distance":183.30999999999997,"pathway":false,"mode":"WALK","route":"","agencyTimeZoneOffset":-14400000,"interlineWithPreviousLeg":false,"from":{"name":"Origin","lon":-71.05181899,"lat":48.416289,"departure":1522701134000,"orig":"","vertexType":"NORMAL"},"to":{"name":"Fondation / Étudiants","stopId":"1:261","stopCode":"261","lon":-71.053953,"lat":48.417524,"arrival":1522701283000,"departure":1522701284000,"zoneId":"NA","stopIndex":23,"stopSequence":24,"vertexType":"TRANSIT"},"legGeometry":{"points":"kkofHnjtpLHj@Hd@?TmA`BOReA~BIREE","length":9},"rentedBike":false,"transitLeg":false,"duration":149.0,"steps":[{"distance":41.046,"relativeDirection":"DEPART","streetName":"Rue des Étudiants","absoluteDirection":"WEST","stayOn":false,"area":false,"bogusName":false,"lon":-71.0520710562562,"lat":48.416709362498366,"elevation":[]},{"distance":138.606,"relativeDirection":"RIGHT","streetName":"Rue des Étudiants","absoluteDirection":"NORTHWEST","stayOn":true,"area":false,"bogusName":false,"lon":-71.05259620000001,"lat":48.416600700000004,"elevation":[]},{"distance":3.658,"relativeDirection":"RIGHT","streetName":"Rue de la Fondation","absoluteDirection":"NORTHEAST","stayOn":false,"area":false,"bogusName":false,"lon":-71.05392400000001,"lat":48.417472700000005,"elevation":[]}]},{"startTime":1522701284000,"endTime":1522701420000,"departureDelay":0,"arrivalDelay":0,"realTime":false,"distance":378.1919200530851,"pathway":false,"mode":"BUS","route":"10","agencyName":"Société de Transport du Saguenay","agencyUrl":"http://ville.saguenay.ca/fr/services-aux-citoyens/transport-sts","agencyTimeZoneOffset":-14400000,"routeColor":"0000FF","routeType":3,"routeId":"1:10","routeTextColor":"FFFFFF","interlineWithPreviousLeg":false,"tripBlockId":"29","headsign":"Terminus UQAC","agencyId":"0","tripId":"1:218071","serviceDate":"20180402","from":{"name":"Fondation / Étudiants","stopId":"1:261","stopCode":"261","lon":-71.053953,"lat":48.417524,"arrival":1522701283000,"departure":1522701284000,"zoneId":"NA","stopIndex":23,"stopSequence":24,"vertexType":"TRANSIT"},"to":{"name":"Terminus UQAC","stopId":"1:1670","stopCode":"1670","lon":-71.053369,"lat":48.420903,"arrival":1522701420000,"departure":1522701600000,"zoneId":"NA","stopIndex":24,"stopSequence":25,"vertexType":"TRANSIT"},"legGeometry":{"points":"qpofHhvtpLfDdEwLpKeBgGAsE]gAoD}CUt@a@_@USMM","length":11},"routeShortName":"10","routeLongName":"Notre-Dame du Saguenay","rentedBike":false,"transitLeg":true,"duration":136.0,"steps":[]},{"startTime":1522701600000,"endTime":1522702996000,"departureDelay":0,"arrivalDelay":0,"realTime":false,"distance":7785.4205410505865,"pathway":false,"mode":"BUS","route":"12","agencyName":"Société de Transport du Saguenay","agencyUrl":"http://ville.saguenay.ca/fr/services-aux-citoyens/transport-sts","agencyTimeZoneOffset":-14400000,"routeColor":"556B2F","routeType":3,"routeId":"1:12","routeTextColor":"FFFFFF","interlineWithPreviousLeg":true,"tripBlockId":"29","headsign":"Terminus Chicoutimi","agencyId":"0","tripId":"1:218072","serviceDate":"20180402","from":{"name":"Terminus UQAC","stopId":"1:1670","stopCode":"1670","lon":-71.053369,"lat":48.420903,"arrival":1522701420000,"departure":1522701600000,"zoneId":"NA","stopIndex":0,"stopSequence":1,"vertexType":"TRANSIT"},"to":{"name":"nouveau","stopId":"1:2303","stopCode":"2303","lon":-71.02291,"lat":48.432276,"arrival":1522702996000,"departure":1522702997000,"zoneId":"NA","stopIndex":24,"stopSequence":25,"vertexType":"TRANSIT"},"legGeometry":{"points":"sepfHprtpL}@y@Pw@wAsAaB{A}DrL?jCv@fCa@nDaC`D~E`F~MfNjJnJ~GbHnCpCv@iBlAgIdCmFbAqDtBeCjFm@`Gs@hFo@xAmBrGcPxFoNlCyGa@yFYkD}CyA}KmFgD_BgAgBn@kFD_NoIgrAmD_WcAaLaDHoDJi`@wVoAbDbA|AnBU|B|AfBlAyLtKoGxFcFqDkJaHgEoDmDwC_TqQsBeB{HjWfAvA","length":56},"routeShortName":"12","routeLongName":"Rivière du Moulin","rentedBike":false,"transitLeg":true,"duration":1396.0,"steps":[]},{"startTime":1522702997000,"endTime":1522703233000,"departureDelay":0,"arrivalDelay":0,"realTime":false,"distance":298.055,"pathway":false,"mode":"WALK","route":"","agencyTimeZoneOffset":-14400000,"interlineWithPreviousLeg":false,"from":{"name":"nouveau","stopId":"1:2303","stopCode":"2303","lon":-71.02291,"lat":48.432276,"arrival":1522702996000,"departure":1522702997000,"zoneId":"NA","stopIndex":24,"stopSequence":25,"vertexType":"TRANSIT"},"to":{"name":"Destination","lon":-71.025656,"lat":48.431636,"arrival":1522703233000,"orig":"","vertexType":"NORMAL"},"legGeometry":{"points":"mlrfHxsnpLjAdBrAxBHLg@vBmAhEn@n@","length":7},"rentedBike":false,"transitLeg":false,"duration":236.0,"steps":[{"distance":129.483,"relativeDirection":"DEPART","streetName":"Rue Arthur-Hamel","absoluteDirection":"SOUTHWEST","stayOn":false,"area":false,"bogusName":false,"lon":-71.02284512319854,"lat":48.43223878297246,"elevation":[]},{"distance":135.93,"relativeDirection":"RIGHT","streetName":"Rue Théodore-Côté","absoluteDirection":"NORTHWEST","stayOn":false,"area":false,"bogusName":false,"lon":-71.0240383,"lat":48.431385600000006,"elevation":[]},{"distance":32.642,"relativeDirection":"LEFT","streetName":"Boulevard Renaud","absoluteDirection":"SOUTHWEST","stayOn":false,"area":false,"bogusName":false,"lon":-71.0256483,"lat":48.4319792,"elevation":[]}]}],"tooSloped":false}]},"debugOutput":{"precalculationTime":35,"pathCalculationTime":64,"pathTimes":[25,19,20],"renderingTime":0,"totalTime":99,"timedOut":false},"elevationMetadata":{"ellipsoidToGeoidDifference":-28.885904201182168,"geoidElevation":false}}