{"requestParameters":{"date":"2018/04/02","walkSpeed":"1.33","walkReluctance":"2.0","fromPlace":"48.431784,-71.022887","maxWalkDistance":"3000","waitReluctance":"1.0","carSpeed":"33","numItineraries":"3","waitAtBeginningFactor":"0.4","mode":"TRANSIT,WALK","ignoreRealtimeUpdates":"false","stairsReluctance":"2.0","toPlace":"48.433347,-71.023325","time":"8:0:00"},"plan":{"date":1522670400000,"from":{"name":"Origin","lon":-71.022887,"lat":48.431784,"orig":"","vertexType":"NORMAL"},"to":{"name":"Destination","lon":-71.023325,"lat":48.433347,"orig":"","vertexType":"NORMAL"},"itineraries":[{"duration":212,"startTime":1522670400000,"endTime":1522670612000,"walkTime":212,"transitTime":0,"waitingTime":0,"walkDistance":261.4080225528731,"walkLimitExceeded":false,"elevationLost":0.0,"elevationGained":0.0,"transfers":0,"legs":[{"startTime":1522670400000,"endTime":1522670612000,"departureDelay":0,"arrivalDelay":0,"realTime":false,"distance":261.299,"pathway":false,"mode":"WALK","route":"","agencyTimeZoneOffset":-14400000,"interlineWithPreviousLeg":false,"from":{"name":"Origin","lon":-71.022887,"lat":48.431784,"departure":1522670400000,"orig":"","vertexType":"NORMAL"},"to":{"name":"Destination","lon":-71.023325,"lat":48.433347,"arrival":1522670612000,"orig":"","vertexType":"NORMAL"},"legGeometry":{"points":"{hrfHhunpLe@t@kAeBA?eA{Aa@jA]v@y@tAMi@","length":9},"rentedBike":false,"transitLeg":false,"duration":212.0,"steps":[{"distance":28.87,"relativeDirection":"DEPART","streetName":"Rue de Bretagne","absoluteDirection":"NORTHWEST","stayOn":false,"area":false,"bogusName":false,"lon":-71.02308304070795,"lat":48.431661259493616,"elevation":[]},{"distance":109.083,"relativeDirection":"RIGHT","streetName":"Rue Arthur-Hamel","absoluteDirection":"NORTHEAST","stayOn":false,"area":false,"bogusName":false,"lon":-71.0233516,"lat":48.431850100000005,"elevation":[]},{"distance":105.887,"relativeDirection":"LEFT","streetName":"Rue du Perche","absoluteDirection":"NORTHWEST","stayOn":false,"area":false,"bogusName":false,"lon":-71.02238460000001,"lat":48.4325922,"elevation":[]},{"distance":17.459,"relativeDirection":"RIGHT","streetName":"Boulevard Renaud","absoluteDirection":"NORTHEAST","stayOn":false,"area":false,"bogusName":false,"lon":-71.0234782,"lat":48.433204200000006,"elevation":[]}]}],"tooSloped":false}]},"debugOutput":{"precalculationTime":11,"pathCalculationTime":14,"pathTimes":[1,7,6],"renderingTime":0,"totalTime":25,"timedOut":false},"elevationMetadata":{"ellipsoidToGeoidDifference":-28.885904201182168,"geoidElevation":false}}