{"requestParameters":{"date":"2018/04/02","walkSpeed":"1.33","walkReluctance":"2.0","fromPlace":"48.403188,-71.06165199","maxWalkDistance":"3000","waitReluctance":"1.0","carSpeed":"33","numItineraries":"3","waitAtBeginningFactor":"0.4","mode":"TRANSIT,WALK","ignoreRealtimeUpdates":"false","stairsReluctance":"2.0","toPlace":"48.412323,-71.0536","time":"14:30:00"},"plan":{"date":1522693800000,"from":{"name":"Origin","lon":-71.06165199,"lat":48.403188,"orig":"","vertexType":"NORMAL"},"to":{"name":"Destination","lon":-71.0536,"lat":48.412323,"orig":"","vertexType":"NORMAL"},"itineraries":[{"duration":1231,"startTime":1522693800000,"endTime":1522695031000,"walkTime":1231,"transitTime":0,"waitingTime":0,"walkDistance":1603.8839774390601,"walkLimitExceeded":false,"elevationLost":0.0,"elevationGained":0.0,"transfers":0,"legs":[{"startTime":1522693800000,"endTime":1522695031000,"departureDelay":0,"arrivalDelay":0,"realTime":false,"distance":1603.743,"pathway":false,"mode":"WALK","route":"","agencyTimeZoneOffset":-14400000,"interlineWithPreviousLeg":false,"from":{"name":"Origin","lon":-71.06165199,"lat":48.403188,"departure":1522693800000,"orig":"","vertexType":"NORMAL"},"to":{"name":"Destination","lon":-71.0536,"lat":48.412323,"arrival":1522695031000,"orig":"","vertexType":"NORMAL"},"legGeometry":{"points":"eylfHxcvpLp@gB~@sBLWWUQQkF_FuEkEuAmAKIqD}CaA_AkE{DOOeEaEiDaDOOmAiAmGoGo@s@K\\gA|CHHpAjALpA?tDeAA","length":27},"rentedBike":false,"transitLeg":false,"duration":1231.0,"steps":[{"distance":115.061,"relativeDirection":"DEPART","streetName":"Rue des Saguenéens","absoluteDirection":"SOUTHEAST","stayOn":false,"area":false,"bogusName":false,"lon":-71.06124637807851,"lat":48.403557352505906,"elevation":[]},{"distance":1207.208,"relativeDirection":"LEFT","streetName":"Boulevard Talbot","absoluteDirection":"NORTHEAST","stayOn":false,"area":false,"bogusName":false,"lon":-71.0600254,"lat":48.4029151,"elevation":[]},{"distance":84.041,"relativeDirection":"LEFT","streetName":"Boulevard de l'Université","absoluteDirection":"NORTHWEST","stayOn":false,"area":false,"bogusName":false,"lon":-71.051266,"lat":48.412081,"elevation":[]},{"distance":158.358,"relativeDirection":"LEFT","streetName":"Rue Thérèse-Casgrain","absoluteDirection":"SOUTHWEST","stayOn":false,"area":false,"bogusName":false,"lon":-71.0522085,"lat":48.412505100000004,"elevation":[]},{"distance":39.075,"relativeDirection":"RIGHT","streetName":"Rue Marguerite-Tellier","absoluteDirection":"NORTH","stayOn":false,"area":false,"bogusName":false,"lon":-71.05395460000001,"lat":48.411977500000006,"elevation":[]}]}],"tooSloped":false},{"duration":869,"startTime":1522694833000,"endTime":1522695702000,"walkTime":704,"transitTime":163,"waitingTime":2,"walkDistance":884.9203533756711,"walkLimitExceeded":false,"elevationLost":0.0,"elevationGained":0.0,"transfers":0,"legs":[{"startTime":1522694833000,"endTime":1522695299000,"departureDelay":0,"arrivalDelay":0,"realTime":false,"distance":586.489,"pathway":false,"mode":"WALK","route":"","agencyTimeZoneOffset":-14400000,"interlineWithPreviousLeg":false,"from":{"name":"Origin","lon":-71.06165199,"lat":48.403188,"departure":1522694833000,"orig":"","vertexType":"NORMAL"},"to":{"name":"Place Royaume","stopId":"1:1801","stopCode":"1801","lon":-71.057017,"lat":48.405588,"arrival":1522695299000,"departure":1522695300000,"zoneId":"NA","stopIndex":10,"stopSequence":11,"vertexType":"TRANSIT"},"legGeometry":{"points":"eylfHxcvpLp@gB~@sBLWL[WWkBeBiFwEt@aC[YUU][Y[[YY[[[a@zA","length":17},"rentedBike":false,"transitLeg":false,"duration":466.0,"steps":[{"distance":128.03300000000002,"relativeDirection":"DEPART","streetName":"Rue des Saguenéens","absoluteDirection":"SOUTHEAST","stayOn":false,"area":false,"bogusName":false,"lon":-71.06124637807851,"lat":48.403557352505906,"elevation":[]},{"distance":239.022,"relativeDirection":"LEFT","streetName":"Boulevard Talbot","absoluteDirection":"NORTHEAST","stayOn":false,"area":false,"bogusName":false,"lon":-71.0598825,"lat":48.402847200000004,"elevation":[]},{"distance":219.43400000000003,"relativeDirection":"RIGHT","streetName":"parking aisle","absoluteDirection":"SOUTHEAST","stayOn":false,"area":false,"bogusName":true,"lon":-71.0581722,"lat":48.4046724,"elevation":[]}]},{"startTime":1522695300000,"endTime":1522695463000,"departureDelay":0,"arrivalDelay":0,"realTime":false,"distance":995.5036659423915,"pathway":false,"mode":"BUS","route":"175","agencyName":"Société de Transport du Saguenay","agencyUrl":"http://ville.saguenay.ca/fr/services-aux-citoyens/transport-sts","agencyTimeZoneOffset":-14400000,"routeColor":"FF00FF","routeType":3,"routeId":"1:175","routeTextColor":"FFFFFF","interlineWithPreviousLeg":false,"tripBlockId":"9","headsign":"Terminus Chicoutimi","agencyId":"0","tripId":"1:217408","serviceDate":"20180402","from":{"name":"Place Royaume","stopId":"1:1801","stopCode":"1801","lon":-71.057017,"lat":48.405588,"arrival":1522695299000,"departure":1522695300000,"zoneId":"NA","stopIndex":10,"stopSequence":11,"vertexType":"TRANSIT"},"to":{"name":"boul. Université / Alma","stopId":"1:60","stopCode":"60","lon":-71.052847,"lat":48.413175,"arrival":1522695463000,"departure":1522695464000,"zoneId":"NA","stopIndex":12,"stopSequence":13,"vertexType":"TRANSIT"},"legGeometry":{"points":"sfmfH`kupL_U_TcNgNcBcB{E`J","length":5},"routeShortName":"175","routeLongName":"Term. Chic / Costco","rentedBike":false,"transitLeg":true,"duration":163.0,"steps":[]},{"startTime":1522695464000,"endTime":1522695702000,"departureDelay":0,"arrivalDelay":0,"realTime":false,"distance":298.19,"pathway":false,"mode":"WALK","route":"","agencyTimeZoneOffset":-14400000,"interlineWithPreviousLeg":false,"from":{"name":"boul. Université / Alma","stopId":"1:60","stopCode":"60","lon":-71.052847,"lat":48.413175,"arrival":1522695463000,"departure":1522695464000,"zoneId":"NA","stopIndex":12,"stopSequence":13,"vertexType":"TRANSIT"},"to":{"name":"Destination","lon":-71.0536,"lat":48.412323,"arrival":1522695702000,"orig":"","vertexType":"NORMAL"},"legGeometry":{"points":"gunfHpotpL^]hAaCXVHHpAjALpA?tDeAA","length":9},"rentedBike":false,"transitLeg":false,"duration":238.0,"steps":[{"distance":83.772,"relativeDirection":"DEPART","streetName":"Boulevard de l'Université","absoluteDirection":"SOUTHEAST","stayOn":false,"area":false,"bogusName":false,"lon":-71.05288001080534,"lat":48.41316151165065,"elevation":[]},{"distance":16.985,"relativeDirection":"RIGHT","streetName":"Rue d'Alma","absoluteDirection":"SOUTHWEST","stayOn":false,"area":false,"bogusName":false,"lon":-71.0520843,"lat":48.4126337,"elevation":[]},{"distance":158.358,"relativeDirection":"CONTINUE","streetName":"Rue Thérèse-Casgrain","absoluteDirection":"SOUTHWEST","stayOn":false,"area":false,"bogusName":false,"lon":-71.0522085,"lat":48.412505100000004,"elevation":[]},{"distance":39.075,"relativeDirection":"RIGHT","streetName":"Rue Marguerite-Tellier","absoluteDirection":"NORTH","stayOn":false,"area":false,"bogusName":false,"lon":-71.05395460000001,"lat":48.411977500000006,"elevation":[]}]}],"tooSloped":false},{"duration":869,"startTime":1522696633000,"endTime":1522697502000,"walkTime":704,"transitTime":163,"waitingTime":2,"walkDistance":884.9203533756711,"walkLimitExceeded":false,"elevationLost":0.0,"elevationGained":0.0,"transfers":0,"legs":[{"startTime":1522696633000,"endTime":1522697099000,"departureDelay":0,"arrivalDelay":0,"realTime":false,"distance":586.489,"pathway":false,"mode":"WALK","route":"","agencyTimeZoneOffset":-14400000,"interlineWithPreviousLeg":false,"from":{"name":"Origin","lon":-71.06165199,"lat":48.403188,"departure":1522696633000,"orig":"","vertexType":"NORMAL"},"to":{"name":"Place Royaume","stopId":"1:1801","stopCode":"1801","lon":-71.057017,"lat":48.405588,"arrival":1522697099000,"departure":1522697100000,"zoneId":"NA","stopIndex":10,"stopSequence":11,"vertexType":"TRANSIT"},"legGeometry":{"points":"eylfHxcvpLp@gB~@sBLWL[WWkBeBiFwEt@aC[YUU][Y[[YY[[[a@zA","length":17},"rentedBike":false,"transitLeg":false,"duration":466.0,"steps":[{"distance":128.03300000000002,"relativeDirection":"DEPART","streetName":"Rue des Saguenéens","absoluteDirection":"SOUTHEAST","stayOn":false,"area":false,"bogusName":false,"lon":-71.06124637807851,"lat":48.403557352505906,"elevation":[]},{"distance":239.022,"relativeDirection":"LEFT","streetName":"Boulevard Talbot","absoluteDirection":"NORTHEAST","stayOn":false,"area":false,"bogusName":false,"lon":-71.0598825,"lat":48.402847200000004,"elevation":[]},{"distance":219.43400000000003,"relativeDirection":"RIGHT","streetName":"parking aisle","absoluteDirection":"SOUTHEAST","stayOn":false,"area":false,"bogusName":true,"lon":-71.0581722,"lat":48.4046724,"elevation":[]}]},{"startTime":1522697100000,"endTime":1522697263000,"departureDelay":0,"arrivalDelay":0,"realTime":false,"distance":995.5036659423915,"pathway":false,"mode":"BUS","route":"175","agencyName":"Société de Transport du Saguenay","agencyUrl":"http://ville.saguenay.ca/fr/services-aux-citoyens/transport-sts","agencyTimeZoneOffset":-14400000,"routeColor":"FF00FF","routeType":3,"routeId":"1:175","routeTextColor":"FFFFFF","interlineWithPreviousLeg":false,"tripBlockId":"11","headsign":"Terminus Chicoutimi","agencyId":"0","tripId":"1:217479","serviceDate":"20180402","from":{"name":"Place Royaume","stopId":"1:1801","stopCode":"1801","lon":-71.057017,"lat":48.405588,"arrival":1522697099000,"departure":1522697100000,"zoneId":"NA","stopIndex":10,"stopSequence":11,"vertexType":"TRANSIT"},"to":{"name":"boul. Université / Alma","stopId":"1:60","stopCode":"60","lon":-71.052847,"lat":48.413175,"arrival":1522697263000,"departure":1522697264000,"zoneId":"NA","stopIndex":12,"stopSequence":13,"vertexType":"TRANSIT"},"legGeometry":{"points":"sfmfH`kupL_U_TcNgNcBcB{E`J","length":5},"routeShortName":"175","routeLongName":"Term. Chic / Costco","rentedBike":false,"transitLeg":true,"duration":163.0,"steps":[]},{"startTime":1522697264000,"endTime":1522697502000,"departureDelay":0,"arrivalDelay":0,"realTime":false,"distance":298.19,"pathway":false,"mode":"WALK","route":"","agencyTimeZoneOffset":-14400000,"interlineWithPreviousLeg":false,"from":{"name":"boul. Université / Alma","stopId":"1:60","stopCode":"60","lon":-71.052847,"lat":48.413175,"arrival":1522697263000,"departure":1522697264000,"zoneId":"NA","stopIndex":12,"stopSequence":13,"vertexType":"TRANSIT"},"to":{"name":"Destination","lon":-71.0536,"lat":48.412323,"arrival":1522697502000,"orig":"","vertexType":"NORMAL"},"legGeometry":{"points":"gunfHpotpL^]hAaCXVHHpAjALpA?tDeAA","length":9},"rentedBike":false,"transitLeg":false,"duration":238.0,"steps":[{"distance":83.772,"relativeDirection":"DEPART","streetName":"Boulevard de l'Université","absoluteDirection":"SOUTHEAST","stayOn":false,"area":false,"bogusName":false,"lon":-71.05288001080534,"lat":48.41316151165065,"elevation":[]},{"distance":16.985,"relativeDirection":"RIGHT","streetName":"Rue d'Alma","absoluteDirection":"SOUTHWEST","stayOn":false,"area":false,"bogusName":false,"lon":-71.0520843,"lat":48.4126337,"elevation":[]},{"distance":158.358,"relativeDirection":"CONTINUE","streetName":"Rue Thérèse-Casgrain","absoluteDirection":"SOUTHWEST","stayOn":false,"area":false,"bogusName":false,"lon":-71.0522085,"lat":48.412505100000004,"elevation":[]},{"distance":39.075,"relativeDirection":"RIGHT","streetName":"Rue Marguerite-Tellier","absoluteDirection":"NORTH","stayOn":false,"area":false,"bogusName":false,"lon":-71.05395460000001,"lat":48.411977500000006,"elevation":[]}]}],"tooSloped":false}]},"debugOutput":{"precalculationTime":48,"pathCalculationTime":41,"pathTimes":[20,9,12],"renderingTime":0,"totalTime":89,"timedOut":false},"elevationMetadata":{"ellipsoidToGeoidDifference":-28.885904201182168,"geoidElevation":false}}