{"requestParameters":{"date":"2018/04/02","walkSpeed":"1.33","walkReluctance":"2.0","fromPlace":"48.431784,-71.022887","maxWalkDistance":"3000","waitReluctance":"1.0","carSpeed":"33","numItineraries":"3","waitAtBeginningFactor":"0.4","mode":"TRANSIT,WALK","ignoreRealtimeUpdates":"false","stairsReluctance":"2.0","toPlace":"48.412273,-71.06569","time":"8:10:00"},"plan":{"date":1522671000000,"from":{"name":"Origin","lon":-71.022887,"lat":48.431784,"orig":"","vertexType":"NORMAL"},"to":{"name":"Destination","lon":-71.06569,"lat":48.412273,"orig":"","vertexType":"NORMAL"},"itineraries":[{"duration":1502,"startTime":1522671705000,"endTime":1522673207000,"walkTime":494,"transitTime":1006,"waitingTime":2,"walkDistance":633.642593982136,"walkLimitExceeded":false,"elevationLost":0.0,"elevationGained":0.0,"transfers":0,"legs":[{"startTime":1522671705000,"endTime":1522671775000,"departureDelay":0,"arrivalDelay":0,"realTime":false,"distance":86.365,"pathway":false,"mode":"WALK","route":"","agencyTimeZoneOffset":-14400000,"interlineWithPreviousLeg":false,"from":{"name":"Origin","lon":-71.022887,"lat":48.431784,"departure":1522671705000,"orig":"","vertexType":"NORMAL"},"to":{"name":"Arthur-Hamel / Perche","stopId":"1:1527","stopCode":"1527","lon":-71.02277,"lat":48.4322,"arrival":1522671775000,"departure":1522671776000,"zoneId":"NA","stopIndex":14,"stopSequence":15,"vertexType":"TRANSIT"},"legGeometry":{"points":"{hrfHhunpLe@t@kAeBA?","length":4},"rentedBike":false,"transitLeg":false,"duration":70.0,"steps":[{"distance":28.87,"relativeDirection":"DEPART","streetName":"Rue de Bretagne","absoluteDirection":"NORTHWEST","stayOn":false,"area":false,"bogusName":false,"lon":-71.02308304070795,"lat":48.431661259493616,"elevation":[]},{"distance":57.495000000000005,"relativeDirection":"RIGHT","streetName":"Rue Arthur-Hamel","absoluteDirection":"NORTHEAST","stayOn":false,"area":false,"bogusName":false,"lon":-71.0233516,"lat":48.431850100000005,"elevation":[]}]},{"startTime":1522671776000,"endTime":1522672782000,"departureDelay":0,"arrivalDelay":0,"realTime":false,"distance":6303.6842632736625,"pathway":false,"mode":"BUS","route":"12","agencyName":"Société de Transport du Saguenay","agencyUrl":"http://ville.saguenay.ca/fr/services-aux-citoyens/transport-sts","agencyTimeZoneOffset":-14400000,"routeColor":"556B2F","routeType":3,"routeId":"1:12","routeTextColor":"FFFFFF","interlineWithPreviousLeg":false,"tripBlockId":"28","headsign":"Terminus UQAC","agencyId":"0","tripId":"1:218029","serviceDate":"20180402","from":{"name":"Arthur-Hamel / Perche","stopId":"1:1527","stopCode":"1527","lon":-71.02277,"lat":48.4322,"arrival":1522671775000,"departure":1522671776000,"zoneId":"NA","stopIndex":14,"stopSequence":15,"vertexType":"TRANSIT"},"to":{"name":"Champs-Élysées / Bégin","stopId":"1:587","stopCode":"587","lon":-71.064119,"lat":48.41589,"arrival":1522672782000,"departure":1522672783000,"zoneId":"NA","stopIndex":32,"stopSequence":33,"vertexType":"TRANSIT"},"legGeometry":{"points":"glrfHhsnpLf@iIvGsKlIrH`JlH`EfDnOdIdGlGjL|BzBiLv@}L`b@fNvVvrCdRvMcAjKcP~b@iHhDaGz@uSl[","length":19},"routeShortName":"12","routeLongName":"Rivière du Moulin","rentedBike":false,"transitLeg":true,"duration":1006.0,"steps":[]},{"startTime":1522672783000,"endTime":1522673207000,"departureDelay":0,"arrivalDelay":0,"realTime":false,"distance":547.19,"pathway":false,"mode":"WALK","route":"","agencyTimeZoneOffset":-14400000,"interlineWithPreviousLeg":false,"from":{"name":"Champs-Élysées / Bégin","stopId":"1:587","stopCode":"587","lon":-71.064119,"lat":48.41589,"arrival":1522672782000,"departure":1522672783000,"zoneId":"NA","stopIndex":32,"stopSequence":33,"vertexType":"TRANSIT"},"to":{"name":"Destination","lon":-71.06569,"lat":48.412273,"arrival":1522673207000,"orig":"","vertexType":"NORMAL"},"legGeometry":{"points":"weofHfvvpLFQNi@bA}FhCbC~B|B|@z@`@`@rAHnARbCfC","length":11},"rentedBike":false,"transitLeg":false,"duration":424.0,"steps":[{"distance":127.196,"relativeDirection":"DEPART","streetName":"Rue des Champs-Élysées","absoluteDirection":"SOUTHEAST","stayOn":false,"area":false,"bogusName":false,"lon":-71.06419495868175,"lat":48.41580605407751,"elevation":[]},{"distance":239.182,"relativeDirection":"RIGHT","streetName":"Rue Georges-Vanier","absoluteDirection":"SOUTHWEST","stayOn":false,"area":false,"bogusName":false,"lon":-71.0626228,"lat":48.4153431,"elevation":[]},{"distance":46.958,"relativeDirection":"SLIGHTLY_LEFT","streetName":"Rue Georges-Vanier","absoluteDirection":"SOUTH","stayOn":true,"area":false,"bogusName":false,"lon":-71.064383,"lat":48.413537100000006,"elevation":[]},{"distance":44.858,"relativeDirection":"CONTINUE","streetName":"bike path","absoluteDirection":"SOUTH","stayOn":false,"area":false,"bogusName":true,"lon":-71.0644384,"lat":48.4131164,"elevation":[]},{"distance":88.996,"relativeDirection":"SLIGHTLY_RIGHT","streetName":"Rue Georges-Vanier","absoluteDirection":"SOUTHWEST","stayOn":false,"area":false,"bogusName":false,"lon":-71.06453590000001,"lat":48.4127182,"elevation":[]}]}],"tooSloped":false},{"duration":1745,"startTime":1522672326000,"endTime":1522674071000,"walkTime":319,"transitTime":1184,"waitingTime":242,"walkDistance":405.65025563579826,"walkLimitExceeded":false,"elevationLost":0.0,"elevationGained":0.0,"transfers":1,"legs":[{"startTime":1522672326000,"endTime":1522672395000,"departureDelay":0,"arrivalDelay":0,"realTime":false,"distance":86.003,"pathway":false,"mode":"WALK","route":"","agencyTimeZoneOffset":-14400000,"interlineWithPreviousLeg":false,"from":{"name":"Origin","lon":-71.022887,"lat":48.431784,"departure":1522672326000,"orig":"","vertexType":"NORMAL"},"to":{"name":"nouveau","stopId":"1:2303","stopCode":"2303","lon":-71.02291,"lat":48.432276,"arrival":1522672395000,"departure":1522672396000,"zoneId":"NA","stopIndex":24,"stopSequence":25,"vertexType":"TRANSIT"},"legGeometry":{"points":"{hrfHhunpLe@t@kAeB","length":3},"rentedBike":false,"transitLeg":false,"duration":69.0,"steps":[{"distance":28.87,"relativeDirection":"DEPART","streetName":"Rue de Bretagne","absoluteDirection":"NORTHWEST","stayOn":false,"area":false,"bogusName":false,"lon":-71.02308304070795,"lat":48.431661259493616,"elevation":[]},{"distance":57.133,"relativeDirection":"RIGHT","streetName":"Rue Arthur-Hamel","absoluteDirection":"NORTHEAST","stayOn":false,"area":false,"bogusName":false,"lon":-71.0233516,"lat":48.431850100000005,"elevation":[]}]},{"startTime":1522672396000,"endTime":1522672860000,"departureDelay":0,"arrivalDelay":0,"realTime":false,"distance":3308.741766648229,"pathway":false,"mode":"BUS","route":"12","agencyName":"Société de Transport du Saguenay","agencyUrl":"http://ville.saguenay.ca/fr/services-aux-citoyens/transport-sts","agencyTimeZoneOffset":-14400000,"routeColor":"556B2F","routeType":3,"routeId":"1:12","routeTextColor":"FFFFFF","interlineWithPreviousLeg":false,"tripBlockId":"26","headsign":"Terminus Chicoutimi","agencyId":"0","tripId":"1:217967","serviceDate":"20180402","from":{"name":"nouveau","stopId":"1:2303","stopCode":"2303","lon":-71.02291,"lat":48.432276,"arrival":1522672395000,"departure":1522672396000,"zoneId":"NA","stopIndex":24,"stopSequence":25,"vertexType":"TRANSIT"},"to":{"name":"Terminus Chicoutimi","stopId":"1:1289","stopCode":"1289","lon":-71.066163,"lat":48.428677,"arrival":1522672860000,"departure":1522673100000,"zoneId":"NA","stopIndex":33,"stopSequence":34,"vertexType":"TRANSIT"},"legGeometry":{"points":"qlrfH|snpLfM|O|FlHmB`IgA|Cy@`UYzHZvMR~Hr@~ZPvHsCrMFxf@|ApJj@nDDl]BvZdCXJhC","length":19},"routeShortName":"12","routeLongName":"Rivière du Moulin","rentedBike":false,"transitLeg":true,"duration":464.0,"steps":[]},{"startTime":1522673100000,"endTime":1522673820000,"departureDelay":0,"arrivalDelay":0,"realTime":false,"distance":3126.645492805479,"pathway":false,"mode":"BUS","route":"15","agencyName":"Société de Transport du Saguenay","agencyUrl":"http://ville.saguenay.ca/fr/services-aux-citoyens/transport-sts","agencyTimeZoneOffset":-14400000,"routeColor":"FF00FF","routeType":3,"routeId":"1:15","routeTextColor":"FFFFFF","interlineWithPreviousLeg":false,"tripBlockId":"31","headsign":"Talbot / Barrette","agencyId":"0","tripId":"1:218126","serviceDate":"20180402","from":{"name":"Terminus Chicoutimi","stopId":"1:1289","stopCode":"1289","lon":-71.066163,"lat":48.428677,"arrival":1522672860000,"departure":1522673100000,"zoneId":"NA","stopIndex":0,"stopSequence":1,"vertexType":"TRANSIT"},"to":{"name":"École secondaire de l'Odyssé Dominique-Racine","stopId":"1:580","stopCode":"580","lon":-71.067703,"lat":48.412977,"arrival":1522673820000,"departure":1522673821000,"zoneId":"NA","stopIndex":12,"stopSequence":13,"vertexType":"TRANSIT"},"legGeometry":{"points":"evqfHpbwpLPiCjKx@HiEZkS\\aSN_K^eIrBpBvIpIr@r@\\mBfAaA`@gBOkB_@uF|DyL|DpDQ|@|@z@bA`ATw@dD~Ch@fA@`E~AjGuH`Iy@bBi@dCbEdEjJlJ`HbHlJpJ|J~J","length":34},"routeShortName":"15","routeLongName":"Term. Chic / Costco","rentedBike":false,"transitLeg":true,"duration":720.0,"steps":[]},{"startTime":1522673821000,"endTime":1522674071000,"departureDelay":0,"arrivalDelay":0,"realTime":false,"distance":319.545,"pathway":false,"mode":"WALK","route":"","agencyTimeZoneOffset":-14400000,"interlineWithPreviousLeg":false,"from":{"name":"École secondaire de l'Odyssé Dominique-Racine","stopId":"1:580","stopCode":"580","lon":-71.067703,"lat":48.412977,"arrival":1522673820000,"departure":1522673821000,"zoneId":"NA","stopIndex":12,"stopSequence":13,"vertexType":"TRANSIT"},"to":{"name":"Destination","lon":-71.06569,"lat":48.412273,"arrival":1522674071000,"orig":"","vertexType":"NORMAL"},"legGeometry":{"points":"gtnfHplwpLr@l@LTxAeGBEtByEwA{A","length":7},"rentedBike":false,"transitLeg":false,"duration":250.0,"steps":[{"distance":44.071,"relativeDirection":"DEPART","streetName":"Rue Bégin","absoluteDirection":"SOUTHWEST","stayOn":false,"area":false,"bogusName":false,"lon":-71.06776357747735,"lat":48.41300064951352,"elevation":[]},{"distance":215.69799999999998,"relativeDirection":"LEFT","streetName":"Rue Georges-Vanier","absoluteDirection":"SOUTHEAST","stayOn":false,"area":false,"bogusName":false,"lon":-71.0681022,"lat":48.4126786,"elevation":[]},{"distance":59.776,"relativeDirection":"LEFT","streetName":"Rue Georges-Vanier","absoluteDirection":"NORTHEAST","stayOn":true,"area":false,"bogusName":false,"lon":-71.0656757,"lat":48.4116147,"elevation":[]}]}],"tooSloped":false},{"duration":1502,"startTime":1522673505000,"endTime":1522675007000,"walkTime":494,"transitTime":1006,"waitingTime":2,"walkDistance":633.642593982136,"walkLimitExceeded":false,"elevationLost":0.0,"elevationGained":0.0,"transfers":0,"legs":[{"startTime":1522673505000,"endTime":1522673575000,"departureDelay":0,"arrivalDelay":0,"realTime":false,"distance":86.365,"pathway":false,"mode":"WALK","route":"","agencyTimeZoneOffset":-14400000,"interlineWithPreviousLeg":false,"from":{"name":"Origin","lon":-71.022887,"lat":48.431784,"departure":1522673505000,"orig":"","vertexType":"NORMAL"},"to":{"name":"Arthur-Hamel / Perche","stopId":"1:1527","stopCode":"1527","lon":-71.02277,"lat":48.4322,"arrival":1522673575000,"departure":1522673576000,"zoneId":"NA","stopIndex":14,"stopSequence":15,"vertexType":"TRANSIT"},"legGeometry":{"points":"{hrfHhunpLe@t@kAeBA?","length":4},"rentedBike":false,"transitLeg":false,"duration":70.0,"steps":[{"distance":28.87,"relativeDirection":"DEPART","streetName":"Rue de Bretagne","absoluteDirection":"NORTHWEST","stayOn":false,"area":false,"bogusName":false,"lon":-71.02308304070795,"lat":48.431661259493616,"elevation":[]},{"distance":57.495000000000005,"relativeDirection":"RIGHT","streetName":"Rue Arthur-Hamel","absoluteDirection":"NORTHEAST","stayOn":false,"area":false,"bogusName":false,"lon":-71.0233516,"lat":48.431850100000005,"elevation":[]}]},{"startTime":1522673576000,"endTime":1522674582000,"departureDelay":0,"arrivalDelay":0,"realTime":false,"distance":6303.6842632736625,"pathway":false,"mode":"BUS","route":"12","agencyName":"Société de Transport du Saguenay","agencyUrl":"http://ville.saguenay.ca/fr/services-aux-citoyens/transport-sts","agencyTimeZoneOffset":-14400000,"routeColor":"556B2F","routeType":3,"routeId":"1:12","routeTextColor":"FFFFFF","interlineWithPreviousLeg":false,"tripBlockId":"27","headsign":"Terminus UQAC","agencyId":"0","tripId":"1:218004","serviceDate":"20180402","from":{"name":"Arthur-Hamel / Perche","stopId":"1:1527","stopCode":"1527","lon":-71.02277,"lat":48.4322,"arrival":1522673575000,"departure":1522673576000,"zoneId":"NA","stopIndex":14,"stopSequence":15,"vertexType":"TRANSIT"},"to":{"name":"Champs-Élysées / Bégin","stopId":"1:587","stopCode":"587","lon":-71.064119,"lat":48.41589,"arrival":1522674582000,"departure":1522674583000,"zoneId":"NA","stopIndex":32,"stopSequence":33,"vertexType":"TRANSIT"},"legGeometry":{"points":"glrfHhsnpLf@iIvGsKlIrH`JlH`EfDnOdIdGlGjL|BzBiLv@}L`b@fNvVvrCdRvMcAjKcP~b@iHhDaGz@uSl[","length":19},"routeShortName":"12","routeLongName":"Rivière du Moulin","rentedBike":false,"transitLeg":true,"duration":1006.0,"steps":[]},{"startTime":1522674583000,"endTime":1522675007000,"departureDelay":0,"arrivalDelay":0,"realTime":false,"distance":547.19,"pathway":false,"mode":"WALK","route":"","agencyTimeZoneOffset":-14400000,"interlineWithPreviousLeg":false,"from":{"name":"Champs-Élysées / Bégin","stopId":"1:587","stopCode":"587","lon":-71.064119,"lat":48.41589,"arrival":1522674582000,"departure":1522674583000,"zoneId":"NA","stopIndex":32,"stopSequence":33,"vertexType":"TRANSIT"},"to":{"name":"Destination","lon":-71.06569,"lat":48.412273,"arrival":1522675007000,"orig":"","vertexType":"NORMAL"},"legGeometry":{"points":"weofHfvvpLFQNi@bA}FhCbC~B|B|@z@`@`@rAHnARbCfC","length":11},"rentedBike":false,"transitLeg":false,"duration":424.0,"steps":[{"distance":127.196,"relativeDirection":"DEPART","streetName":"Rue des Champs-Élysées","absoluteDirection":"SOUTHEAST","stayOn":false,"area":false,"bogusName":false,"lon":-71.06419495868175,"lat":48.41580605407751,"elevation":[]},{"distance":239.182,"relativeDirection":"RIGHT","streetName":"Rue Georges-Vanier","absoluteDirection":"SOUTHWEST","stayOn":false,"area":false,"bogusName":false,"lon":-71.0626228,"lat":48.4153431,"elevation":[]},{"distance":46.958,"relativeDirection":"SLIGHTLY_LEFT","streetName":"Rue Georges-Vanier","absoluteDirection":"SOUTH","stayOn":true,"area":false,"bogusName":false,"lon":-71.064383,"lat":48.413537100000006,"elevation":[]},{"distance":44.858,"relativeDirection":"CONTINUE","streetName":"bike path","absoluteDirection":"SOUTH","stayOn":false,"area":false,"bogusName":true,"lon":-71.0644384,"lat":48.4131164,"elevation":[]},{"distance":88.996,"relativeDirection":"SLIGHTLY_RIGHT","streetName":"Rue Georges-Vanier","absoluteDirection":"SOUTHWEST","stayOn":false,"area":false,"bogusName":false,"lon":-71.06453590000001,"lat":48.4127182,"elevation":[]}]}],"tooSloped":false}]},"debugOutput":{"precalculationTime":36,"pathCalculationTime":20,"pathTimes":[15,3,2],"renderingTime":0,"totalTime":56,"timedOut":false},"elevationMetadata":{"ellipsoidToGeoidDifference":-28.885904201182168,"geoidElevation":false}}