{"requestParameters":{"date":"2018/04/02","walkSpeed":"1.33","walkReluctance":"2.0","fromPlace":"48.416167,-71.060316","maxWalkDistance":"3000","waitReluctance":"1.0","carSpeed":"33","numItineraries":"3","waitAtBeginningFactor":"0.4","mode":"TRANSIT,WALK","ignoreRealtimeUpdates":"false","stairsReluctance":"2.0","toPlace":"48.419884,-71.077515","time":"15:25:00"},"plan":{"date":1522697100000,"from":{"name":"Origin","lon":-71.060316,"lat":48.416167,"orig":"","vertexType":"NORMAL"},"to":{"name":"Destination","lon":-71.077515,"lat":48.419884,"orig":"","vertexType":"NORMAL"},"itineraries":[{"duration":1486,"startTime":1522697100000,"endTime":1522698586000,"walkTime":1486,"transitTime":0,"waitingTime":0,"walkDistance":1895.7756390878822,"walkLimitExceeded":false,"elevationLost":0.0,"elevationGained":0.0,"transfers":0,"legs":[{"startTime":1522697100000,"endTime":1522698586000,"departureDelay":0,"arrivalDelay":0,"realTime":false,"distance":1895.4699999999998,"pathway":false,"mode":"WALK","route":"","agencyTimeZoneOffset":-14400000,"interlineWithPreviousLeg":false,"from":{"name":"Origin","lon":-71.060316,"lat":48.416167,"departure":1522697100000,"orig":"","vertexType":"NORMAL"},"to":{"name":"Destination","lon":-71.077515,"lat":48.419884,"arrival":1522698586000,"orig":"","vertexType":"NORMAL"},"legGeometry":{"points":"sfofH`{upLLLt@NtA^pAp@XB??\\BRLiAbD??e@pAoAnDcA|FOh@GP??k@jBn@l@kAdDGReAvCu@xBeAT]x@o@nBe@nBYx@o@L_@J_@X]XGDWZW`@QR[h@gBvEo@|AcAjC[|@a@lAOb@gA~BDR?LAJAHCFEBGBGDQ`@Yp@g@|A|B|BhCjCy@zBfBhB","length":59},"rentedBike":false,"transitLeg":false,"duration":1486.0,"steps":[{"distance":181.56400000000002,"relativeDirection":"DEPART","streetName":"service road","absoluteDirection":"SOUTH","stayOn":false,"area":false,"bogusName":false,"lon":-71.05984291680869,"lat":48.415940476536,"elevation":[]},{"distance":361.804,"relativeDirection":"RIGHT","streetName":"Rue des Champs-Élysées","absoluteDirection":"NORTHWEST","stayOn":false,"area":false,"bogusName":false,"lon":-71.0605199,"lat":48.414386,"elevation":[]},{"distance":30.953,"relativeDirection":"LEFT","streetName":"Rue Bégin","absoluteDirection":"SOUTHWEST","stayOn":false,"area":false,"bogusName":false,"lon":-71.0647342,"lat":48.416021,"elevation":[]},{"distance":205.419,"relativeDirection":"RIGHT","streetName":"Rue Dubé","absoluteDirection":"NORTHWEST","stayOn":false,"area":false,"bogusName":false,"lon":-71.06496530000001,"lat":48.4157887,"elevation":[]},{"distance":188.869,"relativeDirection":"RIGHT","streetName":"path","absoluteDirection":"NORTH","stayOn":false,"area":false,"bogusName":true,"lon":-71.0672681,"lat":48.416826400000005,"elevation":[]},{"distance":505.56299999999993,"relativeDirection":"RIGHT","streetName":"Rue Jolliet","absoluteDirection":"NORTH","stayOn":false,"area":false,"bogusName":false,"lon":-71.069079,"lat":48.417887500000006,"elevation":[]},{"distance":78.343,"relativeDirection":"LEFT","streetName":"path","absoluteDirection":"WEST","stayOn":false,"area":false,"bogusName":true,"lon":-71.07388590000001,"lat":48.420954200000004,"elevation":[]},{"distance":40.771,"relativeDirection":"CONTINUE","streetName":"Rue Dubuc","absoluteDirection":"NORTHWEST","stayOn":false,"area":false,"bogusName":false,"lon":-71.07469880000001,"lat":48.4212916,"elevation":[]},{"distance":176.46800000000002,"relativeDirection":"LEFT","streetName":"Rue Saint-Paul","absoluteDirection":"SOUTHWEST","stayOn":false,"area":false,"bogusName":false,"lon":-71.0751601,"lat":48.4214934,"elevation":[]},{"distance":55.938,"relativeDirection":"RIGHT","streetName":"Rue Fafard","absoluteDirection":"NORTHWEST","stayOn":false,"area":false,"bogusName":false,"lon":-71.0764942,"lat":48.4201763,"elevation":[]},{"distance":69.778,"relativeDirection":"LEFT","streetName":"Rue Lapointe","absoluteDirection":"SOUTHWEST","stayOn":false,"area":false,"bogusName":false,"lon":-71.07711760000001,"lat":48.420462500000006,"elevation":[]}]}],"tooSloped":false},{"duration":1424,"startTime":1522697286000,"endTime":1522698710000,"walkTime":1386,"transitTime":36,"waitingTime":2,"walkDistance":1762.7828872082073,"walkLimitExceeded":false,"elevationLost":0.0,"elevationGained":0.0,"transfers":0,"legs":[{"startTime":1522697286000,"endTime":1522698546000,"departureDelay":0,"arrivalDelay":0,"realTime":false,"distance":1607.8719999999998,"pathway":false,"mode":"WALK","route":"","agencyTimeZoneOffset":-14400000,"interlineWithPreviousLeg":false,"from":{"name":"Origin","lon":-71.060316,"lat":48.416167,"departure":1522697286000,"orig":"","vertexType":"NORMAL"},"to":{"name":"Saint-Paul / Dubuc","stopId":"1:420","stopCode":"420","lon":-71.075186,"lat":48.421664,"arrival":1522698546000,"departure":1522698547000,"zoneId":"NA","stopIndex":7,"stopSequence":8,"vertexType":"TRANSIT"},"legGeometry":{"points":"sfofH`{upLLLt@NtA^pAp@XB??\\BRLiAbD??e@pAoAnDcA|FOh@GP??k@jBn@l@kAdDGReAvCu@xBeAT]x@o@nBe@nBYx@o@L_@J_@X]XGDWZW`@QR[h@gBvEo@|AcAjC[|@a@lAOb@gA~BDR?LAJAHCFEBGBGDQ`@Yp@g@|AUW","length":56},"rentedBike":false,"transitLeg":false,"duration":1260.0,"steps":[{"distance":181.56400000000002,"relativeDirection":"DEPART","streetName":"service road","absoluteDirection":"SOUTH","stayOn":false,"area":false,"bogusName":false,"lon":-71.05984291680869,"lat":48.415940476536,"elevation":[]},{"distance":361.804,"relativeDirection":"RIGHT","streetName":"Rue des Champs-Élysées","absoluteDirection":"NORTHWEST","stayOn":false,"area":false,"bogusName":false,"lon":-71.0605199,"lat":48.414386,"elevation":[]},{"distance":30.953,"relativeDirection":"LEFT","streetName":"Rue Bégin","absoluteDirection":"SOUTHWEST","stayOn":false,"area":false,"bogusName":false,"lon":-71.0647342,"lat":48.416021,"elevation":[]},{"distance":205.419,"relativeDirection":"RIGHT","streetName":"Rue Dubé","absoluteDirection":"NORTHWEST","stayOn":false,"area":false,"bogusName":false,"lon":-71.06496530000001,"lat":48.4157887,"elevation":[]},{"distance":188.869,"relativeDirection":"RIGHT","streetName":"path","absoluteDirection":"NORTH","stayOn":false,"area":false,"bogusName":true,"lon":-71.0672681,"lat":48.416826400000005,"elevation":[]},{"distance":505.56299999999993,"relativeDirection":"RIGHT","streetName":"Rue Jolliet","absoluteDirection":"NORTH","stayOn":false,"area":false,"bogusName":false,"lon":-71.069079,"lat":48.417887500000006,"elevation":[]},{"distance":78.343,"relativeDirection":"LEFT","streetName":"path","absoluteDirection":"WEST","stayOn":false,"area":false,"bogusName":true,"lon":-71.07388590000001,"lat":48.420954200000004,"elevation":[]},{"distance":40.771,"relativeDirection":"CONTINUE","streetName":"Rue Dubuc","absoluteDirection":"NORTHWEST","stayOn":false,"area":false,"bogusName":false,"lon":-71.07469880000001,"lat":48.4212916,"elevation":[]},{"distance":14.586,"relativeDirection":"RIGHT","streetName":"Rue Saint-Paul","absoluteDirection":"NORTHEAST","stayOn":false,"area":false,"bogusName":false,"lon":-71.0751601,"lat":48.4214934,"elevation":[]}]},{"startTime":1522698547000,"endTime":1522698583000,"departureDelay":0,"arrivalDelay":0,"realTime":false,"distance":220.04925121452737,"pathway":false,"mode":"BUS","route":"11","agencyName":"Société de Transport du Saguenay","agencyUrl":"http://ville.saguenay.ca/fr/services-aux-citoyens/transport-sts","agencyTimeZoneOffset":-14400000,"routeColor":"FF0000","routeType":3,"routeId":"1:11","routeTextColor":"FFFFFF","interlineWithPreviousLeg":false,"tripBlockId":"35","headsign":"Boul.Royaume/St-Pierre","agencyId":"0","tripId":"1:218260","serviceDate":"20180402","from":{"name":"Saint-Paul / Dubuc","stopId":"1:420","stopCode":"420","lon":-71.075186,"lat":48.421664,"arrival":1522698546000,"departure":1522698547000,"zoneId":"NA","stopIndex":7,"stopSequence":8,"vertexType":"TRANSIT"},"to":{"name":"Saint-Paul / Fafard","stopId":"1:421","stopCode":"421","lon":-71.0768,"lat":48.42,"arrival":1522698583000,"departure":1522698584000,"zoneId":"NA","stopIndex":8,"stopSequence":9,"vertexType":"TRANSIT"},"legGeometry":{"points":"ajpfHfzxpLfIjI","length":2},"routeShortName":"11","routeLongName":"Chic/Faubourg via St-Paul","rentedBike":false,"transitLeg":true,"duration":36.0,"steps":[]},{"startTime":1522698584000,"endTime":1522698710000,"departureDelay":0,"arrivalDelay":0,"realTime":false,"distance":154.606,"pathway":false,"mode":"WALK","route":"","agencyTimeZoneOffset":-14400000,"interlineWithPreviousLeg":false,"from":{"name":"Saint-Paul / Fafard","stopId":"1:421","stopCode":"421","lon":-71.0768,"lat":48.42,"arrival":1522698583000,"departure":1522698584000,"zoneId":"NA","stopIndex":8,"stopSequence":9,"vertexType":"TRANSIT"},"to":{"name":"Destination","lon":-71.077515,"lat":48.419884,"arrival":1522698710000,"orig":"","vertexType":"NORMAL"},"legGeometry":{"points":"w_pfHndypLi@k@y@zBfBhB","length":4},"rentedBike":false,"transitLeg":false,"duration":126.0,"steps":[{"distance":28.89,"relativeDirection":"DEPART","streetName":"Rue Saint-Paul","absoluteDirection":"NORTHEAST","stayOn":false,"area":false,"bogusName":false,"lon":-71.0767138950223,"lat":48.41996125488845,"elevation":[]},{"distance":55.938,"relativeDirection":"LEFT","streetName":"Rue Fafard","absoluteDirection":"NORTHWEST","stayOn":false,"area":false,"bogusName":false,"lon":-71.0764942,"lat":48.4201763,"elevation":[]},{"distance":69.778,"relativeDirection":"LEFT","streetName":"Rue Lapointe","absoluteDirection":"SOUTHWEST","stayOn":false,"area":false,"bogusName":false,"lon":-71.07711760000001,"lat":48.420462500000006,"elevation":[]}]}],"tooSloped":false},{"duration":1557,"startTime":1522697930000,"endTime":1522699487000,"walkTime":1096,"transitTime":459,"waitingTime":2,"walkDistance":1395.0181353301455,"walkLimitExceeded":false,"elevationLost":0.0,"elevationGained":0.0,"transfers":0,"legs":[{"startTime":1522697930000,"endTime":1522698719000,"departureDelay":0,"arrivalDelay":0,"realTime":false,"distance":1005.996,"pathway":false,"mode":"WALK","route":"","agencyTimeZoneOffset":-14400000,"interlineWithPreviousLeg":false,"from":{"name":"Origin","lon":-71.060316,"lat":48.416167,"departure":1522697930000,"orig":"","vertexType":"NORMAL"},"to":{"name":"Terminus UQAC","stopId":"1:1670","stopCode":"1670","lon":-71.053369,"lat":48.420903,"arrival":1522698719000,"departure":1522698720000,"zoneId":"NA","stopIndex":8,"stopSequence":9,"vertexType":"TRANSIT"},"legGeometry":{"points":"sfofH`{upLCEMg@Eg@a@a@_@Yg@LSVc@jAa@hAE\\B\\BZ?X?\\[_@_AeAMO_@mBEqAAg@Mq@wAsAUc@_@yAa@w@Um@IQMk@GO_@qAS{@e@mBBiA@wBKa@U[sBkB{@y@Up@cAaA","length":41},"rentedBike":false,"transitLeg":false,"duration":789.0,"steps":[{"distance":236.36,"relativeDirection":"DEPART","streetName":"service road","absoluteDirection":"NORTHEAST","stayOn":false,"area":false,"bogusName":false,"lon":-71.05984291680869,"lat":48.415940476536,"elevation":[]},{"distance":353.71999999999997,"relativeDirection":"HARD_RIGHT","streetName":"bike path","absoluteDirection":"NORTHEAST","stayOn":false,"area":false,"bogusName":true,"lon":-71.0607715,"lat":48.417032500000005,"elevation":[]},{"distance":131.239,"relativeDirection":"CONTINUE","streetName":"Rue Newton","absoluteDirection":"NORTHEAST","stayOn":false,"area":false,"bogusName":false,"lon":-71.05712580000001,"lat":48.418870500000004,"elevation":[]},{"distance":27.625,"relativeDirection":"SLIGHTLY_RIGHT","streetName":"Rue Newton","absoluteDirection":"EAST","stayOn":true,"area":false,"bogusName":false,"lon":-71.05556510000001,"lat":48.4194344,"elevation":[]},{"distance":189.615,"relativeDirection":"CONTINUE","streetName":"Chemin Saint Thomas","absoluteDirection":"EAST","stayOn":false,"area":false,"bogusName":false,"lon":-71.0551914,"lat":48.4194198,"elevation":[]},{"distance":67.437,"relativeDirection":"LEFT","streetName":"service road","absoluteDirection":"NORTHWEST","stayOn":false,"area":false,"bogusName":true,"lon":-71.05345460000001,"lat":48.4204518,"elevation":[]}]},{"startTime":1522698720000,"endTime":1522699179000,"departureDelay":0,"arrivalDelay":0,"realTime":false,"distance":1881.4085402557623,"pathway":false,"mode":"BUS","route":"14","agencyName":"Société de Transport du Saguenay","agencyUrl":"http://ville.saguenay.ca/fr/services-aux-citoyens/transport-sts","agencyTimeZoneOffset":-14400000,"routeColor":"C0C000","routeType":3,"routeId":"1:14","routeTextColor":"000000","interlineWithPreviousLeg":false,"tripBlockId":"30","headsign":"Talbot / Barrette","agencyId":"0","tripId":"1:218105","serviceDate":"20180402","from":{"name":"Terminus UQAC","stopId":"1:1670","stopCode":"1670","lon":-71.053369,"lat":48.420903,"arrival":1522698719000,"departure":1522698720000,"zoneId":"NA","stopIndex":8,"stopSequence":9,"vertexType":"TRANSIT"},"to":{"name":"Carrefour 216","stopId":"1:524","stopCode":"524","lon":-71.076345,"lat":48.417612,"arrival":1522699179000,"departure":1522699180000,"zoneId":"NA","stopIndex":12,"stopSequence":13,"vertexType":"TRANSIT"},"legGeometry":{"points":"sepfHrrtpLdA`ATq@`E~DL`@E`Ex@hDd@`B}FtFaAzAm@xAe@jCa@nDiAbm@SpKM`H]vBhDVzCTcAvCO^bEbEzK`L","length":23},"routeShortName":"14","routeLongName":"Coopérative","rentedBike":false,"transitLeg":true,"duration":459.0,"steps":[]},{"startTime":1522699180000,"endTime":1522699487000,"departureDelay":0,"arrivalDelay":0,"realTime":false,"distance":388.76800000000003,"pathway":false,"mode":"WALK","route":"","agencyTimeZoneOffset":-14400000,"interlineWithPreviousLeg":false,"from":{"name":"Carrefour 216","stopId":"1:524","stopCode":"524","lon":-71.076345,"lat":48.417612,"arrival":1522699179000,"departure":1522699180000,"zoneId":"NA","stopIndex":12,"stopSequence":13,"vertexType":"TRANSIT"},"to":{"name":"Destination","lon":-71.077515,"lat":48.419884,"arrival":1522699487000,"orig":"","vertexType":"NORMAL"},"legGeometry":{"points":"ypofHtaypL{@{@SQSQaAnCITy@`Ck@|Aw@xBkCkC","length":10},"rentedBike":false,"transitLeg":false,"duration":307.0,"steps":[{"distance":65.55199999999999,"relativeDirection":"DEPART","streetName":"Rue Caron","absoluteDirection":"NORTHEAST","stayOn":false,"area":false,"bogusName":false,"lon":-71.07626391976946,"lat":48.41757688506955,"elevation":[]},{"distance":229.68,"relativeDirection":"LEFT","streetName":"Rue Saint-Henri","absoluteDirection":"NORTHWEST","stayOn":false,"area":false,"bogusName":false,"lon":-71.0757816,"lat":48.4180719,"elevation":[]},{"distance":93.536,"relativeDirection":"RIGHT","streetName":"Rue Lapointe","absoluteDirection":"NORTHEAST","stayOn":false,"area":false,"bogusName":false,"lon":-71.0783471,"lat":48.4192413,"elevation":[]}]}],"tooSloped":false}]},"debugOutput":{"precalculationTime":58,"pathCalculationTime":63,"pathTimes":[26,18,19],"renderingTime":1,"totalTime":122,"timedOut":false},"elevationMetadata":{"ellipsoidToGeoidDifference":-28.885904201182168,"geoidElevation":false}}