{"requestParameters":{"date":"2018/04/02","walkSpeed":"1.33","walkReluctance":"2.0","fromPlace":"48.398673,-71.063822","maxWalkDistance":"3000","waitReluctance":"1.0","carSpeed":"33","numItineraries":"3","waitAtBeginningFactor":"0.4","mode":"TRANSIT,WALK","ignoreRealtimeUpdates":"false","stairsReluctance":"2.0","toPlace":"48.410134,-71.074081","time":"10:50:00"},"plan":{"date":1522680600000,"from":{"name":"Origin","lon":-71.063822,"lat":48.398673,"orig":"","vertexType":"NORMAL"},"to":{"name":"Destination","lon":-71.074081,"lat":48.410134,"orig":"","vertexType":"NORMAL"},"itineraries":[{"duration":1701,"startTime":1522680600000,"endTime":1522682301000,"walkTime":1701,"transitTime":0,"waitingTime":0,"walkDistance":2192.925233076472,"walkLimitExceeded":false,"elevationLost":0.0,"elevationGained":0.0,"transfers":0,"legs":[{"startTime":1522680600000,"endTime":1522682301000,"departureDelay":0,"arrivalDelay":0,"realTime":false,"distance":2192.7320000000004,"pathway":false,"mode":"WALK","route":"","agencyTimeZoneOffset":-14400000,"interlineWithPreviousLeg":false,"from":{"name":"Origin","lon":-71.063822,"lat":48.398673,"departure":1522680600000,"orig":"","vertexType":"NORMAL"},"to":{"name":"Destination","lon":-71.074081,"lat":48.410134,"arrival":1522682301000,"orig":"","vertexType":"NORMAL"},"legGeometry":{"points":"u{kfHruvpLOQGIW]eB_CoCqDqH_H{DqDMKMZMV_ArBwBxFeA~BaAjAKJkAbA}@v@SDcA~@CB?@gAvA{@dCm@|AGNgBxEGNELQ`@??aD`IKZSO]CGAo@HqBFi@?uBJi@?SAMrCAXAZCfBb@?lA\\j@Nj@v@@@Xb@tA|AiA|CkBdF","length":55},"rentedBike":false,"transitLeg":false,"duration":1701.0,"steps":[{"distance":544.621,"relativeDirection":"DEPART","streetName":"Boulevard Talbot","absoluteDirection":"NORTHEAST","stayOn":false,"area":false,"bogusName":false,"lon":-71.064096,"lat":48.398839,"elevation":[]},{"distance":909.7429999999999,"relativeDirection":"LEFT","streetName":"Rue des Saguenéens","absoluteDirection":"NORTHWEST","stayOn":false,"area":false,"bogusName":false,"lon":-71.0598825,"lat":48.402847200000004,"elevation":[]},{"distance":246.98399999999998,"relativeDirection":"RIGHT","streetName":"Rue Bégin","absoluteDirection":"NORTHEAST","stayOn":false,"area":false,"bogusName":false,"lon":-71.0688714,"lat":48.4082796,"elevation":[]},{"distance":113.584,"relativeDirection":"LEFT","streetName":"path","absoluteDirection":"WEST","stayOn":false,"area":false,"bogusName":true,"lon":-71.0689037,"lat":48.4104819,"elevation":[]},{"distance":202.453,"relativeDirection":"LEFT","streetName":"Rue d'Angoulème","absoluteDirection":"SOUTH","stayOn":false,"area":false,"bogusName":false,"lon":-71.0704312,"lat":48.4105992,"elevation":[]},{"distance":175.347,"relativeDirection":"RIGHT","streetName":"Place des Écorceurs","absoluteDirection":"NORTHWEST","stayOn":false,"area":false,"bogusName":false,"lon":-71.07160610000001,"lat":48.409015700000005,"elevation":[]}]}],"tooSloped":false},{"duration":1018,"startTime":1522681856000,"endTime":1522682874000,"walkTime":719,"transitTime":297,"waitingTime":2,"walkDistance":935.2511879674986,"walkLimitExceeded":false,"elevationLost":0.0,"elevationGained":0.0,"transfers":0,"legs":[{"startTime":1522681856000,"endTime":1522682384000,"departureDelay":0,"arrivalDelay":0,"realTime":false,"distance":687.3139999999999,"pathway":false,"mode":"WALK","route":"","agencyTimeZoneOffset":-14400000,"interlineWithPreviousLeg":false,"from":{"name":"Origin","lon":-71.063822,"lat":48.398673,"departure":1522681856000,"orig":"","vertexType":"NORMAL"},"to":{"name":"Saguenéens  / Bach","stopId":"1:575","stopCode":"575","lon":-71.061104,"lat":48.403689,"arrival":1522682384000,"departure":1522682385000,"zoneId":"NA","stopIndex":12,"stopSequence":13,"vertexType":"TRANSIT"},"legGeometry":{"points":"u{kfHruvpLOQGIW]eB_CoCqDqH_H{DqDMKWWADKVyBvF","length":13},"rentedBike":false,"transitLeg":false,"duration":528.0,"steps":[{"distance":560.3299999999999,"relativeDirection":"DEPART","streetName":"Boulevard Talbot","absoluteDirection":"NORTHEAST","stayOn":false,"area":false,"bogusName":false,"lon":-71.064096,"lat":48.398839,"elevation":[]},{"distance":126.98400000000001,"relativeDirection":"LEFT","streetName":"Rue des Saguenéens","absoluteDirection":"NORTHWEST","stayOn":false,"area":false,"bogusName":false,"lon":-71.0597697,"lat":48.402967000000004,"elevation":[]}]},{"startTime":1522682385000,"endTime":1522682682000,"departureDelay":0,"arrivalDelay":0,"realTime":false,"distance":1662.0018846400262,"pathway":false,"mode":"BUS","route":"15","agencyName":"Société de Transport du Saguenay","agencyUrl":"http://ville.saguenay.ca/fr/services-aux-citoyens/transport-sts","agencyTimeZoneOffset":-14400000,"routeColor":"FF00FF","routeType":3,"routeId":"1:15","routeTextColor":"FFFFFF","interlineWithPreviousLeg":false,"tripBlockId":"30","headsign":"Terminus Chicoutimi","agencyId":"0","tripId":"1:218096","serviceDate":"20180402","from":{"name":"Saguenéens  / Bach","stopId":"1:575","stopCode":"575","lon":-71.061104,"lat":48.403689,"arrival":1522682384000,"departure":1522682385000,"zoneId":"NA","stopIndex":12,"stopSequence":13,"vertexType":"TRANSIT"},"to":{"name":"Centre d'hébergement Mgr Victor Tremblay","stopId":"1:542","stopCode":"542","lon":-71.072091,"lat":48.408437,"arrival":1522682682000,"departure":1522682683000,"zoneId":"NA","stopIndex":20,"stopSequence":21,"vertexType":"TRANSIT"},"legGeometry":{"points":"sylfHjcvpLmA|CUr@}@~A_@\\_DvCEZcA|@UP_@d@Yl@oBdFeCxG_CfGYVQXS\\dK|HlFZbC\\p@zA\\rB@hBiArG{BNw@FiG}@iDwAECcCcBo@y@","length":31},"routeShortName":"15","routeLongName":"Term. Chic / Costco","rentedBike":false,"transitLeg":true,"duration":297.0,"steps":[]},{"startTime":1522682683000,"endTime":1522682874000,"departureDelay":0,"arrivalDelay":0,"realTime":false,"distance":247.86200000000002,"pathway":false,"mode":"WALK","route":"","agencyTimeZoneOffset":-14400000,"interlineWithPreviousLeg":false,"from":{"name":"Centre d'hébergement Mgr Victor Tremblay","stopId":"1:542","stopCode":"542","lon":-71.072091,"lat":48.408437,"arrival":1522682682000,"departure":1522682683000,"zoneId":"NA","stopIndex":20,"stopSequence":21,"vertexType":"TRANSIT"},"to":{"name":"Destination","lon":-71.074081,"lat":48.410134,"arrival":1522682874000,"orig":"","vertexType":"NORMAL"},"legGeometry":{"points":"cxmfHlhxpLeB{BiA|CkBdF","length":4},"rentedBike":false,"transitLeg":false,"duration":191.0,"steps":[{"distance":72.515,"relativeDirection":"DEPART","streetName":"Rue d'Angoulème","absoluteDirection":"NORTHEAST","stayOn":false,"area":false,"bogusName":false,"lon":-71.07222538772793,"lat":48.4085094391393,"elevation":[]},{"distance":175.347,"relativeDirection":"LEFT","streetName":"Place des Écorceurs","absoluteDirection":"NORTHWEST","stayOn":false,"area":false,"bogusName":false,"lon":-71.07160610000001,"lat":48.409015700000005,"elevation":[]}]}],"tooSloped":false},{"duration":1018,"startTime":1522683656000,"endTime":1522684674000,"walkTime":719,"transitTime":297,"waitingTime":2,"walkDistance":935.2511879674986,"walkLimitExceeded":false,"elevationLost":0.0,"elevationGained":0.0,"transfers":0,"legs":[{"startTime":1522683656000,"endTime":1522684184000,"departureDelay":0,"arrivalDelay":0,"realTime":false,"distance":687.3139999999999,"pathway":false,"mode":"WALK","route":"","agencyTimeZoneOffset":-14400000,"interlineWithPreviousLeg":false,"from":{"name":"Origin","lon":-71.063822,"lat":48.398673,"departure":1522683656000,"orig":"","vertexType":"NORMAL"},"to":{"name":"Saguenéens  / Bach","stopId":"1:575","stopCode":"575","lon":-71.061104,"lat":48.403689,"arrival":1522684184000,"departure":1522684185000,"zoneId":"NA","stopIndex":12,"stopSequence":13,"vertexType":"TRANSIT"},"legGeometry":{"points":"u{kfHruvpLOQGIW]eB_CoCqDqH_H{DqDMKWWADKVyBvF","length":13},"rentedBike":false,"transitLeg":false,"duration":528.0,"steps":[{"distance":560.3299999999999,"relativeDirection":"DEPART","streetName":"Boulevard Talbot","absoluteDirection":"NORTHEAST","stayOn":false,"area":false,"bogusName":false,"lon":-71.064096,"lat":48.398839,"elevation":[]},{"distance":126.98400000000001,"relativeDirection":"LEFT","streetName":"Rue des Saguenéens","absoluteDirection":"NORTHWEST","stayOn":false,"area":false,"bogusName":false,"lon":-71.0597697,"lat":48.402967000000004,"elevation":[]}]},{"startTime":1522684185000,"endTime":1522684482000,"departureDelay":0,"arrivalDelay":0,"realTime":false,"distance":1662.0018846400262,"pathway":false,"mode":"BUS","route":"15","agencyName":"Société de Transport du Saguenay","agencyUrl":"http://ville.saguenay.ca/fr/services-aux-citoyens/transport-sts","agencyTimeZoneOffset":-14400000,"routeColor":"FF00FF","routeType":3,"routeId":"1:15","routeTextColor":"FFFFFF","interlineWithPreviousLeg":false,"tripBlockId":"32","headsign":"Terminus Chicoutimi","agencyId":"0","tripId":"1:218157","serviceDate":"20180402","from":{"name":"Saguenéens  / Bach","stopId":"1:575","stopCode":"575","lon":-71.061104,"lat":48.403689,"arrival":1522684184000,"departure":1522684185000,"zoneId":"NA","stopIndex":12,"stopSequence":13,"vertexType":"TRANSIT"},"to":{"name":"Centre d'hébergement Mgr Victor Tremblay","stopId":"1:542","stopCode":"542","lon":-71.072091,"lat":48.408437,"arrival":1522684482000,"departure":1522684483000,"zoneId":"NA","stopIndex":20,"stopSequence":21,"vertexType":"TRANSIT"},"legGeometry":{"points":"sylfHjcvpLmA|CUr@}@~A_@\\_DvCEZcA|@UP_@d@Yl@oBdFeCxG_CfGYVQXS\\dK|HlFZbC\\p@zA\\rB@hBiArG{BNw@FiG}@iDwAECcCcBo@y@","length":31},"routeShortName":"15","routeLongName":"Term. Chic / Costco","rentedBike":false,"transitLeg":true,"duration":297.0,"steps":[]},{"startTime":1522684483000,"endTime":1522684674000,"departureDelay":0,"arrivalDelay":0,"realTime":false,"distance":247.86200000000002,"pathway":false,"mode":"WALK","route":"","agencyTimeZoneOffset":-14400000,"interlineWithPreviousLeg":false,"from":{"name":"Centre d'hébergement Mgr Victor Tremblay","stopId":"1:542","stopCode":"542","lon":-71.072091,"lat":48.408437,"arrival":1522684482000,"departure":1522684483000,"zoneId":"NA","stopIndex":20,"stopSequence":21,"vertexType":"TRANSIT"},"to":{"name":"Destination","lon":-71.074081,"lat":48.410134,"arrival":1522684674000,"orig":"","vertexType":"NORMAL"},"legGeometry":{"points":"cxmfHlhxpLeB{BiA|CkBdF","length":4},"rentedBike":false,"transitLeg":false,"duration":191.0,"steps":[{"distance":72.515,"relativeDirection":"DEPART","streetName":"Rue d'Angoulème","absoluteDirection":"NORTHEAST","stayOn":false,"area":false,"bogusName":false,"lon":-71.07222538772793,"lat":48.4085094391393,"elevation":[]},{"distance":175.347,"relativeDirection":"LEFT","streetName":"Place des Écorceurs","absoluteDirection":"NORTHWEST","stayOn":false,"area":false,"bogusName":false,"lon":-71.07160610000001,"lat":48.409015700000005,"elevation":[]}]}],"tooSloped":false}]},"debugOutput":{"precalculationTime":51,"pathCalculationTime":46,"pathTimes":[23,11,12],"renderingTime":1,"totalTime":98,"timedOut":false},"elevationMetadata":{"ellipsoidToGeoidDifference":-28.885904201182168,"geoidElevation":false}}