{"requestParameters":{"date":"2018/04/02","walkSpeed":"1.33","walkReluctance":"2.0","fromPlace":"48.452691,-71.062218","maxWalkDistance":"3000","waitReluctance":"1.0","carSpeed":"33","numItineraries":"3","waitAtBeginningFactor":"0.4","mode":"TRANSIT,WALK","ignoreRealtimeUpdates":"false","stairsReluctance":"2.0","toPlace":"48.429326,-71.070716","time":"7:27:00"},"plan":{"date":1522668420000,"from":{"name":"Origin","lon":-71.062218,"lat":48.452691,"orig":"","vertexType":"NORMAL"},"to":{"name":"Destination","lon":-71.070716,"lat":48.429326,"orig":"","vertexType":"NORMAL"},"itineraries":[{"duration":954,"startTime":1522668442000,"endTime":1522669396000,"walkTime":328,"transitTime":624,"waitingTime":2,"walkDistance":420.47630074961137,"walkLimitExceeded":false,"elevationLost":0.0,"elevationGained":0.0,"transfers":0,"legs":[{"startTime":1522668442000,"endTime":1522668513000,"departureDelay":0,"arrivalDelay":0,"realTime":false,"distance":93.249,"pathway":false,"mode":"WALK","route":"","agencyTimeZoneOffset":-14400000,"interlineWithPreviousLeg":false,"from":{"name":"Origin","lon":-71.062218,"lat":48.452691,"departure":1522668442000,"orig":"","vertexType":"NORMAL"},"to":{"name":"Delisle / Dupré","stopId":"1:106","stopCode":"106","lon":-71.062068,"lat":48.451776,"arrival":1522668513000,"departure":1522668514000,"zoneId":"NA","stopIndex":23,"stopSequence":24,"vertexType":"TRANSIT"},"legGeometry":{"points":"kkvfHrevpL~ClA","length":2},"rentedBike":false,"transitLeg":false,"duration":71.0,"steps":[{"distance":93.249,"relativeDirection":"DEPART","streetName":"Rue Delisle","absoluteDirection":"SOUTH","stayOn":false,"area":false,"bogusName":false,"lon":-71.06153432745567,"lat":48.45254252853581,"elevation":[]}]},{"startTime":1522668514000,"endTime":1522669138000,"departureDelay":0,"arrivalDelay":0,"realTime":false,"distance":3294.330534075085,"pathway":false,"mode":"BUS","route":"22","agencyName":"Société de Transport du Saguenay","agencyUrl":"http://ville.saguenay.ca/fr/services-aux-citoyens/transport-sts","agencyTimeZoneOffset":-14400000,"routeColor":"C0C000","routeType":3,"routeId":"1:22","routeTextColor":"000000","interlineWithPreviousLeg":false,"tripBlockId":"3","headsign":"Terminus Chicoutimi","agencyId":"0","tripId":"1:217188","serviceDate":"20180402","from":{"name":"Delisle / Dupré","stopId":"1:106","stopCode":"106","lon":-71.062068,"lat":48.451776,"arrival":1522668513000,"departure":1522668514000,"zoneId":"NA","stopIndex":23,"stopSequence":24,"vertexType":"TRANSIT"},"to":{"name":"boul. Saguenay / Ste-Anne","stopId":"1:160","stopCode":"160","lon":-71.069701,"lat":48.429464,"arrival":1522669138000,"departure":1522669139000,"zoneId":"NA","stopIndex":34,"stopSequence":35,"vertexType":"TRANSIT"},"legGeometry":{"points":"mfvfHjhvpLhAb@qAfJSzAMr@Yz@xAhDFNpBdFRp@Hl@Jz@BXXrCHl@Lh@Nf@r@nAr@r@`@PLFbAVH_AXeC@IdB_Mh@_EJk@x@x@bA`A|BrBnDrCl@f@|BlBrAbAj@d@ZTXNd@@lA[ZxDN|Ad@fAz@tB~AzDZ|@Zv@x@vBP\\h@~@PVrCmFhHqN~@eBr@cAt@_Av@}@RQPMz@k@tAe@REZG^Af@@X@VF`@Jn@XbClAr@Xt\\`PrAb@pA^hBTjAFj@Pb@JPHLLJNJRFXDT?X?ZEVEVKTMNMHMFOB}DWSGOSYcAN}FFkAF}DJyD","length":101},"routeShortName":"22","routeLongName":"Vanier","rentedBike":false,"transitLeg":true,"duration":624.0,"steps":[]},{"startTime":1522669139000,"endTime":1522669396000,"departureDelay":0,"arrivalDelay":0,"realTime":false,"distance":327.15700000000004,"pathway":false,"mode":"WALK","route":"","agencyTimeZoneOffset":-14400000,"interlineWithPreviousLeg":false,"from":{"name":"boul. Saguenay / Ste-Anne","stopId":"1:160","stopCode":"160","lon":-71.069701,"lat":48.429464,"arrival":1522669138000,"departure":1522669139000,"zoneId":"NA","stopIndex":34,"stopSequence":35,"vertexType":"TRANSIT"},"to":{"name":"Destination","lon":-71.070716,"lat":48.429326,"arrival":1522669396000,"orig":"","vertexType":"NORMAL"},"legGeometry":{"points":"s{qfHrxwpLJuFB_@R@hAFM`EGbBIhD","length":8},"rentedBike":false,"transitLeg":false,"duration":257.0,"steps":[{"distance":102.431,"relativeDirection":"DEPART","streetName":"Boulevard du Saguenay Ouest","absoluteDirection":"EAST","stayOn":false,"area":false,"bogusName":false,"lon":-71.06969134971845,"lat":48.42954562670822,"elevation":[]},{"distance":52.562,"relativeDirection":"RIGHT","streetName":"Rue Sainte-Anne","absoluteDirection":"SOUTH","stayOn":false,"area":false,"bogusName":false,"lon":-71.06830790000001,"lat":48.429469600000004,"elevation":[]},{"distance":172.16400000000002,"relativeDirection":"RIGHT","streetName":"Rue Smith Ouest","absoluteDirection":"WEST","stayOn":false,"area":false,"bogusName":false,"lon":-71.06835600000001,"lat":48.428998,"elevation":[]}]}],"tooSloped":false},{"duration":1307,"startTime":1522669757000,"endTime":1522671064000,"walkTime":659,"transitTime":646,"waitingTime":2,"walkDistance":846.739533830923,"walkLimitExceeded":false,"elevationLost":0.0,"elevationGained":0.0,"transfers":0,"legs":[{"startTime":1522669757000,"endTime":1522670159000,"departureDelay":0,"arrivalDelay":0,"realTime":false,"distance":519.469,"pathway":false,"mode":"WALK","route":"","agencyTimeZoneOffset":-14400000,"interlineWithPreviousLeg":false,"from":{"name":"Origin","lon":-71.062218,"lat":48.452691,"departure":1522669757000,"orig":"","vertexType":"NORMAL"},"to":{"name":"Verdun / Riviera","stopId":"1:2023","stopCode":"2023","lon":-71.057875,"lat":48.449739,"arrival":1522670159000,"departure":1522670160000,"zoneId":"NA","stopIndex":14,"stopSequence":15,"vertexType":"TRANSIT"},"legGeometry":{"points":"kkvfHrevpL~ClAhAd@VJ\\oBb@mBjAcJn@{C~@sAf@y@","length":10},"rentedBike":false,"transitLeg":false,"duration":402.0,"steps":[{"distance":150.976,"relativeDirection":"DEPART","streetName":"Rue Delisle","absoluteDirection":"SOUTH","stayOn":false,"area":false,"bogusName":false,"lon":-71.06153432745567,"lat":48.45254252853581,"elevation":[]},{"distance":291.353,"relativeDirection":"LEFT","streetName":"path","absoluteDirection":"EAST","stayOn":false,"area":false,"bogusName":true,"lon":-71.0621742,"lat":48.451252800000006,"elevation":[]},{"distance":77.14,"relativeDirection":"SLIGHTLY_RIGHT","streetName":"Rue de Verdun","absoluteDirection":"SOUTHEAST","stayOn":false,"area":false,"bogusName":false,"lon":-71.05850140000001,"lat":48.450301200000006,"elevation":[]}]},{"startTime":1522670160000,"endTime":1522670806000,"departureDelay":0,"arrivalDelay":0,"realTime":false,"distance":3291.60770780013,"pathway":false,"mode":"BUS","route":"23","agencyName":"Société de Transport du Saguenay","agencyUrl":"http://ville.saguenay.ca/fr/services-aux-citoyens/transport-sts","agencyTimeZoneOffset":-14400000,"routeColor":"FF00FF","routeType":3,"routeId":"1:23","routeTextColor":"FFFFFF","interlineWithPreviousLeg":false,"tripBlockId":"5","headsign":"Terminus Chicoutimi","agencyId":"0","tripId":"1:217252","serviceDate":"20180402","from":{"name":"Verdun / Riviera","stopId":"1:2023","stopCode":"2023","lon":-71.057875,"lat":48.449739,"arrival":1522670159000,"departure":1522670160000,"zoneId":"NA","stopIndex":14,"stopSequence":15,"vertexType":"TRANSIT"},"to":{"name":"boul. Saguenay / Ste-Anne","stopId":"1:160","stopCode":"160","lon":-71.069701,"lat":48.429464,"arrival":1522670806000,"departure":1522670807000,"zoneId":"NA","stopIndex":25,"stopSequence":26,"vertexType":"TRANSIT"},"legGeometry":{"points":"czufHhnupLT[~CkFf@s@\\e@x@}@jAeAXQZStBaAh@]`@]`@i@l@kDF_@R{AFWFMPIPC`@BT@V?TAVKLENCLCJ@J@xAb@x@Zz@\\CP?R@N@NFLFF`GtBx@Xw@pG@l@B\\DXL\\RZDFXPf@N@v@Bp@Dr@l@~HNlAH\\@HLd@\\z@Xd@X\\RTXRr@Zn@PfExAvDpALnBJt@Pp@|@`DHZPn@`@rBNnAFr@DbA?bB@jABzA?p@A???A???A?A???A@??A?A@??A@?@A??@A@???@A@?@?@A@?@?@?@?@???@?@?@?@?@?@@@?@?@@@?@@@?@@@?@@?@@??@@@?E`@Kr@]rACVEl@I|AAr@JbAWJe@FUAM?a@Ke@YYWWa@v@}@RQPMz@k@tAe@REZG^Af@@X@VF`@Jn@XbClAr@Xt\\`PrAb@pA^hBTjAFj@Pb@JPHLLJNJRFXDT?X?ZEVEVKTMNMHMFOB}DWSGOSYcAN}FFkAF}DJyD","length":190},"routeShortName":"23","routeLongName":"Côte Verdun via Aréna du Plateau","rentedBike":false,"transitLeg":true,"duration":646.0,"steps":[]},{"startTime":1522670807000,"endTime":1522671064000,"departureDelay":0,"arrivalDelay":0,"realTime":false,"distance":327.15700000000004,"pathway":false,"mode":"WALK","route":"","agencyTimeZoneOffset":-14400000,"interlineWithPreviousLeg":false,"from":{"name":"boul. Saguenay / Ste-Anne","stopId":"1:160","stopCode":"160","lon":-71.069701,"lat":48.429464,"arrival":1522670806000,"departure":1522670807000,"zoneId":"NA","stopIndex":25,"stopSequence":26,"vertexType":"TRANSIT"},"to":{"name":"Destination","lon":-71.070716,"lat":48.429326,"arrival":1522671064000,"orig":"","vertexType":"NORMAL"},"legGeometry":{"points":"s{qfHrxwpLJuFB_@R@hAFM`EGbBIhD","length":8},"rentedBike":false,"transitLeg":false,"duration":257.0,"steps":[{"distance":102.431,"relativeDirection":"DEPART","streetName":"Boulevard du Saguenay Ouest","absoluteDirection":"EAST","stayOn":false,"area":false,"bogusName":false,"lon":-71.06969134971845,"lat":48.42954562670822,"elevation":[]},{"distance":52.562,"relativeDirection":"RIGHT","streetName":"Rue Sainte-Anne","absoluteDirection":"SOUTH","stayOn":false,"area":false,"bogusName":false,"lon":-71.06830790000001,"lat":48.429469600000004,"elevation":[]},{"distance":172.16400000000002,"relativeDirection":"RIGHT","streetName":"Rue Smith Ouest","absoluteDirection":"WEST","stayOn":false,"area":false,"bogusName":false,"lon":-71.06835600000001,"lat":48.428998,"elevation":[]}]}],"tooSloped":false},{"duration":858,"startTime":1522670358000,"endTime":1522671216000,"walkTime":328,"transitTime":528,"waitingTime":2,"walkDistance":420.47630074961137,"walkLimitExceeded":false,"elevationLost":0.0,"elevationGained":0.0,"transfers":0,"legs":[{"startTime":1522670358000,"endTime":1522670429000,"departureDelay":0,"arrivalDelay":0,"realTime":false,"distance":93.249,"pathway":false,"mode":"WALK","route":"","agencyTimeZoneOffset":-14400000,"interlineWithPreviousLeg":false,"from":{"name":"Origin","lon":-71.062218,"lat":48.452691,"departure":1522670358000,"orig":"","vertexType":"NORMAL"},"to":{"name":"Delisle / Dupré","stopId":"1:106","stopCode":"106","lon":-71.062068,"lat":48.451776,"arrival":1522670429000,"departure":1522670430000,"zoneId":"NA","stopIndex":23,"stopSequence":24,"vertexType":"TRANSIT"},"legGeometry":{"points":"kkvfHrevpL~ClA","length":2},"rentedBike":false,"transitLeg":false,"duration":71.0,"steps":[{"distance":93.249,"relativeDirection":"DEPART","streetName":"Rue Delisle","absoluteDirection":"SOUTH","stayOn":false,"area":false,"bogusName":false,"lon":-71.06153432745567,"lat":48.45254252853581,"elevation":[]}]},{"startTime":1522670430000,"endTime":1522670958000,"departureDelay":0,"arrivalDelay":0,"realTime":false,"distance":3294.330534075085,"pathway":false,"mode":"BUS","route":"22","agencyName":"Société de Transport du Saguenay","agencyUrl":"http://ville.saguenay.ca/fr/services-aux-citoyens/transport-sts","agencyTimeZoneOffset":-14400000,"routeColor":"C0C000","routeType":3,"routeId":"1:22","routeTextColor":"000000","interlineWithPreviousLeg":false,"tripBlockId":"1","headsign":"Terminus Chicoutimi","agencyId":"0","tripId":"1:217132","serviceDate":"20180402","from":{"name":"Delisle / Dupré","stopId":"1:106","stopCode":"106","lon":-71.062068,"lat":48.451776,"arrival":1522670429000,"departure":1522670430000,"zoneId":"NA","stopIndex":23,"stopSequence":24,"vertexType":"TRANSIT"},"to":{"name":"boul. Saguenay / Ste-Anne","stopId":"1:160","stopCode":"160","lon":-71.069701,"lat":48.429464,"arrival":1522670958000,"departure":1522670959000,"zoneId":"NA","stopIndex":34,"stopSequence":35,"vertexType":"TRANSIT"},"legGeometry":{"points":"mfvfHjhvpLhAb@qAfJSzAMr@Yz@xAhDFNpBdFRp@Hl@Jz@BXXrCHl@Lh@Nf@r@nAr@r@`@PLFbAVH_AXeC@IdB_Mh@_EJk@x@x@bA`A|BrBnDrCl@f@|BlBrAbAj@d@ZTXNd@@lA[ZxDN|Ad@fAz@tB~AzDZ|@Zv@x@vBP\\h@~@PVrCmFhHqN~@eBr@cAt@_Av@}@RQPMz@k@tAe@REZG^Af@@X@VF`@Jn@XbClAr@Xt\\`PrAb@pA^hBTjAFj@Pb@JPHLLJNJRFXDT?X?ZEVEVKTMNMHMFOB}DWSGOSYcAN}FFkAF}DJyD","length":101},"routeShortName":"22","routeLongName":"Vanier","rentedBike":false,"transitLeg":true,"duration":528.0,"steps":[]},{"startTime":1522670959000,"endTime":1522671216000,"departureDelay":0,"arrivalDelay":0,"realTime":false,"distance":327.15700000000004,"pathway":false,"mode":"WALK","route":"","agencyTimeZoneOffset":-14400000,"interlineWithPreviousLeg":false,"from":{"name":"boul. Saguenay / Ste-Anne","stopId":"1:160","stopCode":"160","lon":-71.069701,"lat":48.429464,"arrival":1522670958000,"departure":1522670959000,"zoneId":"NA","stopIndex":34,"stopSequence":35,"vertexType":"TRANSIT"},"to":{"name":"Destination","lon":-71.070716,"lat":48.429326,"arrival":1522671216000,"orig":"","vertexType":"NORMAL"},"legGeometry":{"points":"s{qfHrxwpLJuFB_@R@hAFM`EGbBIhD","length":8},"rentedBike":false,"transitLeg":false,"duration":257.0,"steps":[{"distance":102.431,"relativeDirection":"DEPART","streetName":"Boulevard du Saguenay Ouest","absoluteDirection":"EAST","stayOn":false,"area":false,"bogusName":false,"lon":-71.06969134971845,"lat":48.42954562670822,"elevation":[]},{"distance":52.562,"relativeDirection":"RIGHT","streetName":"Rue Sainte-Anne","absoluteDirection":"SOUTH","stayOn":false,"area":false,"bogusName":false,"lon":-71.06830790000001,"lat":48.429469600000004,"elevation":[]},{"distance":172.16400000000002,"relativeDirection":"RIGHT","streetName":"Rue Smith Ouest","absoluteDirection":"WEST","stayOn":false,"area":false,"bogusName":false,"lon":-71.06835600000001,"lat":48.428998,"elevation":[]}]}],"tooSloped":false}]},"debugOutput":{"precalculationTime":31,"pathCalculationTime":16,"pathTimes":[8,4,4],"renderingTime":1,"totalTime":48,"timedOut":false},"elevationMetadata":{"ellipsoidToGeoidDifference":-28.885904201182168,"geoidElevation":false}}