{"requestParameters":{"date":"2018/04/02","walkSpeed":"1.33","walkReluctance":"2.0","fromPlace":"48.452699,-71.06197299","maxWalkDistance":"3000","waitReluctance":"1.0","carSpeed":"33","numItineraries":"3","waitAtBeginningFactor":"0.4","mode":"TRANSIT,WALK","ignoreRealtimeUpdates":"false","stairsReluctance":"2.0","toPlace":"48.471136,-71.05467","time":"16:45:00"},"plan":{"date":1522701900000,"from":{"name":"Origin","lon":-71.06197299,"lat":48.452699,"orig":"","vertexType":"NORMAL"},"to":{"name":"Destination","lon":-71.05467,"lat":48.471136,"orig":"","vertexType":"NORMAL"},"itineraries":[{"duration":1904,"startTime":1522701900000,"endTime":1522703804000,"walkTime":1904,"transitTime":0,"waitingTime":0,"walkDistance":2485.718864655334,"walkLimitExceeded":false,"elevationLost":0.0,"elevationGained":0.0,"transfers":0,"legs":[{"startTime":1522701900000,"endTime":1522703804000,"departureDelay":0,"arrivalDelay":0,"realTime":false,"distance":2485.523,"pathway":false,"mode":"WALK","route":"","agencyTimeZoneOffset":-14400000,"interlineWithPreviousLeg":false,"from":{"name":"Origin","lon":-71.06197299,"lat":48.452699,"departure":1522701900000,"orig":"","vertexType":"NORMAL"},"to":{"name":"Destination","lon":-71.05467,"lat":48.471136,"arrival":1522703804000,"orig":"","vertexType":"NORMAL"},"legGeometry":{"points":"ukvfHlevpLuDwAECcAa@}G_C]MUIiA_@eHsBRuBJsAi@EU?QAQEMGMGQKQMOKOKICIEKCIGaDeAaDgAwE{AkAe@MzIuBb@cBvAiArAsBc@CFCFGHIHC@GBG?SEIAGESESKOGECGEOKMOIGGKKIMMGAEAMAMCYAwAAW?OAMCQCGEGAUIUIUKQIQISISGSIKEMC]Gu@IUAI?MBI@KDKDOFMHYPMDG@EBQ@I?G?O?MAGAIASEOEWGUG[OOIuA_A][Qm@CQIe@Gc@CQMu@K{@Uo@EMEIUWe@a@GEECWOSEMGSCSEKC","length":126},"rentedBike":false,"transitLeg":false,"duration":1904.0,"steps":[{"distance":557.262,"relativeDirection":"DEPART","streetName":"Rue Delisle","absoluteDirection":"NORTH","stayOn":false,"area":false,"bogusName":false,"lon":-71.06150703552997,"lat":48.4525978098598,"elevation":[]},{"distance":76.613,"relativeDirection":"RIGHT","streetName":"Rue Boucher","absoluteDirection":"EAST","stayOn":false,"area":false,"bogusName":false,"lon":-71.05937200000001,"lat":48.4574038,"elevation":[]},{"distance":496.231,"relativeDirection":"LEFT","streetName":"Route Madoc","absoluteDirection":"NORTH","stayOn":false,"area":false,"bogusName":false,"lon":-71.0583606,"lat":48.4572483,"elevation":[]},{"distance":378.32899999999995,"relativeDirection":"LEFT","streetName":"path","absoluteDirection":"WEST","stayOn":false,"area":false,"bogusName":true,"lon":-71.0564945,"lat":48.4615184,"elevation":[]},{"distance":12.737,"relativeDirection":"LEFT","streetName":"Rue Madoc","absoluteDirection":"NORTHWEST","stayOn":false,"area":false,"bogusName":false,"lon":-71.0590954,"lat":48.4636274,"elevation":[]},{"distance":964.3510000000001,"relativeDirection":"SLIGHTLY_RIGHT","streetName":"Route Madoc","absoluteDirection":"NORTHWEST","stayOn":false,"area":false,"bogusName":false,"lon":-71.0592213,"lat":48.463703,"elevation":[]}]}],"tooSloped":false},{"duration":1645,"startTime":1522702296000,"endTime":1522703941000,"walkTime":1563,"transitTime":80,"waitingTime":2,"walkDistance":2042.7772857089847,"walkLimitExceeded":false,"elevationLost":0.0,"elevationGained":0.0,"transfers":0,"legs":[{"startTime":1522702296000,"endTime":1522702379000,"departureDelay":0,"arrivalDelay":0,"realTime":false,"distance":109.22399999999999,"pathway":false,"mode":"WALK","route":"","agencyTimeZoneOffset":-14400000,"interlineWithPreviousLeg":false,"from":{"name":"Origin","lon":-71.06197299,"lat":48.452699,"departure":1522702296000,"orig":"","vertexType":"NORMAL"},"to":{"name":"Delisle / Vimy","stopId":"1:2016","stopCode":"2016","lon":-71.060948,"lat":48.45351,"arrival":1522702379000,"departure":1522702380000,"zoneId":"NA","stopIndex":9,"stopSequence":10,"vertexType":"TRANSIT"},"legGeometry":{"points":"ukvfHlevpLuDwAEC","length":3},"rentedBike":false,"transitLeg":false,"duration":83.0,"steps":[{"distance":109.22399999999999,"relativeDirection":"DEPART","streetName":"Rue Delisle","absoluteDirection":"NORTH","stayOn":false,"area":false,"bogusName":false,"lon":-71.06150703552997,"lat":48.4525978098598,"elevation":[]}]},{"startTime":1522702380000,"endTime":1522702460000,"departureDelay":0,"arrivalDelay":0,"realTime":false,"distance":409.4603747878775,"pathway":false,"mode":"BUS","route":"22","agencyName":"Société de Transport du Saguenay","agencyUrl":"http://ville.saguenay.ca/fr/services-aux-citoyens/transport-sts","agencyTimeZoneOffset":-14400000,"routeColor":"C0C000","routeType":3,"routeId":"1:22","routeTextColor":"000000","interlineWithPreviousLeg":false,"tripBlockId":"1","headsign":"Terminus Chicoutimi","agencyId":"0","tripId":"1:217150","serviceDate":"20180402","from":{"name":"Delisle / Vimy","stopId":"1:2016","stopCode":"2016","lon":-71.060948,"lat":48.45351,"arrival":1522702379000,"departure":1522702380000,"zoneId":"NA","stopIndex":9,"stopSequence":10,"vertexType":"TRANSIT"},"to":{"name":"Caroline / Clovis","stopId":"1:747","stopCode":"747","lon":-71.058151,"lat":48.456691,"arrival":1522702460000,"departure":1522702461000,"zoneId":"NA","stopIndex":11,"stopSequence":12,"vertexType":"TRANSIT"},"legGeometry":{"points":"qqvfHtbvpLy@]}I_D\\cDBWwCgAcCy@NoA","length":8},"routeShortName":"22","routeLongName":"Vanier","rentedBike":false,"transitLeg":true,"duration":80.0,"steps":[]},{"startTime":1522702461000,"endTime":1522703941000,"departureDelay":0,"arrivalDelay":0,"realTime":false,"distance":1933.3890000000001,"pathway":false,"mode":"WALK","route":"","agencyTimeZoneOffset":-14400000,"interlineWithPreviousLeg":false,"from":{"name":"Caroline / Clovis","stopId":"1:747","stopCode":"747","lon":-71.058151,"lat":48.456691,"arrival":1522702460000,"departure":1522702461000,"zoneId":"NA","stopIndex":11,"stopSequence":12,"vertexType":"TRANSIT"},"to":{"name":"Destination","lon":-71.05467,"lat":48.471136,"arrival":1522703941000,"orig":"","vertexType":"NORMAL"},"legGeometry":{"points":"uewfHhpupLOvAqAg@i@EU?QAQEMGMGQKQMOKOKICIEKCIGaDeAaDgAwE{AkAe@MzIuBb@cBvAiArAsBc@CFCFGHIHC@GBG?SEIAGESESKOGECGEOKMOIGGKKIMMGAEAMAMCYAwAAW?OAMCQCGEGAUIUIUKQIQISISGSIKEMC]Gu@IUAI?MBI@KDKDOFMHYPMDG@EBQ@I?G?O?MAGAIASEOEWGUG[OOIuA_A][Qm@CQIe@Gc@CQMu@K{@Uo@EMEIUWe@a@GEECWOSEMGSCSEKC","length":118},"alerts":[{"alertHeaderText":"Unpaved surface"}],"rentedBike":false,"transitLeg":false,"duration":1480.0,"steps":[{"distance":33.754,"relativeDirection":"DEPART","streetName":"Rue Caroline","absoluteDirection":"WEST","stayOn":false,"area":false,"bogusName":false,"lon":-71.05812376906464,"lat":48.45675224112756,"elevation":[]},{"distance":47.987,"relativeDirection":"RIGHT","streetName":"Rue Clovis","absoluteDirection":"NORTH","stayOn":false,"area":false,"bogusName":false,"lon":-71.0585628,"lat":48.456838100000006,"elevation":[],"alerts":[{"alertHeaderText":"Unpaved surface"}]},{"distance":496.231,"relativeDirection":"CONTINUE","streetName":"Route Madoc","absoluteDirection":"NORTH","stayOn":false,"area":false,"bogusName":false,"lon":-71.0583606,"lat":48.4572483,"elevation":[]},{"distance":378.32899999999995,"relativeDirection":"LEFT","streetName":"path","absoluteDirection":"WEST","stayOn":false,"area":false,"bogusName":true,"lon":-71.0564945,"lat":48.4615184,"elevation":[]},{"distance":12.737,"relativeDirection":"LEFT","streetName":"Rue Madoc","absoluteDirection":"NORTHWEST","stayOn":false,"area":false,"bogusName":false,"lon":-71.0590954,"lat":48.4636274,"elevation":[]},{"distance":964.3510000000001,"relativeDirection":"SLIGHTLY_RIGHT","streetName":"Route Madoc","absoluteDirection":"NORTHWEST","stayOn":false,"area":false,"bogusName":false,"lon":-71.0592213,"lat":48.463703,"elevation":[]}]}],"tooSloped":false},{"duration":1645,"startTime":1522704096000,"endTime":1522705741000,"walkTime":1563,"transitTime":80,"waitingTime":2,"walkDistance":2042.7772857089847,"walkLimitExceeded":false,"elevationLost":0.0,"elevationGained":0.0,"transfers":0,"legs":[{"startTime":1522704096000,"endTime":1522704179000,"departureDelay":0,"arrivalDelay":0,"realTime":false,"distance":109.22399999999999,"pathway":false,"mode":"WALK","route":"","agencyTimeZoneOffset":-14400000,"interlineWithPreviousLeg":false,"from":{"name":"Origin","lon":-71.06197299,"lat":48.452699,"departure":1522704096000,"orig":"","vertexType":"NORMAL"},"to":{"name":"Delisle / Vimy","stopId":"1:2016","stopCode":"2016","lon":-71.060948,"lat":48.45351,"arrival":1522704179000,"departure":1522704180000,"zoneId":"NA","stopIndex":9,"stopSequence":10,"vertexType":"TRANSIT"},"legGeometry":{"points":"ukvfHlevpLuDwAEC","length":3},"rentedBike":false,"transitLeg":false,"duration":83.0,"steps":[{"distance":109.22399999999999,"relativeDirection":"DEPART","streetName":"Rue Delisle","absoluteDirection":"NORTH","stayOn":false,"area":false,"bogusName":false,"lon":-71.06150703552997,"lat":48.4525978098598,"elevation":[]}]},{"startTime":1522704180000,"endTime":1522704260000,"departureDelay":0,"arrivalDelay":0,"realTime":false,"distance":409.4603747878775,"pathway":false,"mode":"BUS","route":"22","agencyName":"Société de Transport du Saguenay","agencyUrl":"http://ville.saguenay.ca/fr/services-aux-citoyens/transport-sts","agencyTimeZoneOffset":-14400000,"routeColor":"C0C000","routeType":3,"routeId":"1:22","routeTextColor":"000000","interlineWithPreviousLeg":false,"tripBlockId":"3","headsign":"Terminus Chicoutimi","agencyId":"0","tripId":"1:217208","serviceDate":"20180402","from":{"name":"Delisle / Vimy","stopId":"1:2016","stopCode":"2016","lon":-71.060948,"lat":48.45351,"arrival":1522704179000,"departure":1522704180000,"zoneId":"NA","stopIndex":9,"stopSequence":10,"vertexType":"TRANSIT"},"to":{"name":"Caroline / Clovis","stopId":"1:747","stopCode":"747","lon":-71.058151,"lat":48.456691,"arrival":1522704260000,"departure":1522704261000,"zoneId":"NA","stopIndex":11,"stopSequence":12,"vertexType":"TRANSIT"},"legGeometry":{"points":"qqvfHtbvpLy@]}I_D\\cDBWwCgAcCy@NoA","length":8},"routeShortName":"22","routeLongName":"Vanier","rentedBike":false,"transitLeg":true,"duration":80.0,"steps":[]},{"startTime":1522704261000,"endTime":1522705741000,"departureDelay":0,"arrivalDelay":0,"realTime":false,"distance":1933.3890000000001,"pathway":false,"mode":"WALK","route":"","agencyTimeZoneOffset":-14400000,"interlineWithPreviousLeg":false,"from":{"name":"Caroline / Clovis","stopId":"1:747","stopCode":"747","lon":-71.058151,"lat":48.456691,"arrival":1522704260000,"departure":1522704261000,"zoneId":"NA","stopIndex":11,"stopSequence":12,"vertexType":"TRANSIT"},"to":{"name":"Destination","lon":-71.05467,"lat":48.471136,"arrival":1522705741000,"orig":"","vertexType":"NORMAL"},"legGeometry":{"points":"uewfHhpupLOvAqAg@i@EU?QAQEMGMGQKQMOKOKICIEKCIGaDeAaDgAwE{AkAe@MzIuBb@cBvAiArAsBc@CFCFGHIHC@GBG?SEIAGESESKOGECGEOKMOIGGKKIMMGAEAMAMCYAwAAW?OAMCQCGEGAUIUIUKQIQISISGSIKEMC]Gu@IUAI?MBI@KDKDOFMHYPMDG@EBQ@I?G?O?MAGAIASEOEWGUG[OOIuA_A][Qm@CQIe@Gc@CQMu@K{@Uo@EMEIUWe@a@GEECWOSEMGSCSEKC","length":118},"alerts":[{"alertHeaderText":"Unpaved surface"}],"rentedBike":false,"transitLeg":false,"duration":1480.0,"steps":[{"distance":33.754,"relativeDirection":"DEPART","streetName":"Rue Caroline","absoluteDirection":"WEST","stayOn":false,"area":false,"bogusName":false,"lon":-71.05812376906464,"lat":48.45675224112756,"elevation":[]},{"distance":47.987,"relativeDirection":"RIGHT","streetName":"Rue Clovis","absoluteDirection":"NORTH","stayOn":false,"area":false,"bogusName":false,"lon":-71.0585628,"lat":48.456838100000006,"elevation":[],"alerts":[{"alertHeaderText":"Unpaved surface"}]},{"distance":496.231,"relativeDirection":"CONTINUE","streetName":"Route Madoc","absoluteDirection":"NORTH","stayOn":false,"area":false,"bogusName":false,"lon":-71.0583606,"lat":48.4572483,"elevation":[]},{"distance":378.32899999999995,"relativeDirection":"LEFT","streetName":"path","absoluteDirection":"WEST","stayOn":false,"area":false,"bogusName":true,"lon":-71.0564945,"lat":48.4615184,"elevation":[]},{"distance":12.737,"relativeDirection":"LEFT","streetName":"Rue Madoc","absoluteDirection":"NORTHWEST","stayOn":false,"area":false,"bogusName":false,"lon":-71.0590954,"lat":48.4636274,"elevation":[]},{"distance":964.3510000000001,"relativeDirection":"SLIGHTLY_RIGHT","streetName":"Route Madoc","absoluteDirection":"NORTHWEST","stayOn":false,"area":false,"bogusName":false,"lon":-71.0592213,"lat":48.463703,"elevation":[]}]}],"tooSloped":false}]},"debugOutput":{"precalculationTime":9,"pathCalculationTime":28,"pathTimes":[16,6,6],"renderingTime":0,"totalTime":37,"timedOut":false},"elevationMetadata":{"ellipsoidToGeoidDifference":-28.885904201182168,"geoidElevation":false}}