{"requestParameters":{"date":"2018/04/02","walkSpeed":"1.33","walkReluctance":"2.0","fromPlace":"48.437949,-71.06375699","maxWalkDistance":"3000","waitReluctance":"1.0","carSpeed":"33","numItineraries":"3","waitAtBeginningFactor":"0.4","mode":"TRANSIT,WALK","ignoreRealtimeUpdates":"false","stairsReluctance":"2.0","toPlace":"48.444847,-71.081315","time":"18:0:00"},"plan":{"date":1522706400000,"from":{"name":"Origin","lon":-71.06375699,"lat":48.437949,"orig":"","vertexType":"NORMAL"},"to":{"name":"Destination","lon":-71.081315,"lat":48.444847,"orig":"","vertexType":"NORMAL"},"itineraries":[{"duration":1290,"startTime":1522706400000,"endTime":1522707690000,"walkTime":1290,"transitTime":0,"waitingTime":0,"walkDistance":1666.4433684146845,"walkLimitExceeded":false,"elevationLost":0.0,"elevationGained":0.0,"transfers":0,"legs":[{"startTime":1522706400000,"endTime":1522707690000,"departureDelay":0,"arrivalDelay":0,"realTime":false,"distance":1666.2460000000003,"pathway":false,"mode":"WALK","route":"","agencyTimeZoneOffset":-14400000,"interlineWithPreviousLeg":false,"from":{"name":"Origin","lon":-71.06375699,"lat":48.437949,"departure":1522706400000,"orig":"","vertexType":"NORMAL"},"to":{"name":"Destination","lon":-71.081315,"lat":48.444847,"arrival":1522707690000,"orig":"","vertexType":"NORMAL"},"legGeometry":{"points":"{osfH~tvpLr@Ux@fDJpC@xA@R?dACvCE?C@ABCBAD?DK?e@^u@x@wAbCw@tA[l@Yj@Sd@i@z@c@z@wAnC{AvCaIhOoAdC{AvCqAvCw@dB_CdIk@fBPRsAvEa@fAi@~Aj@j@","length":38},"rentedBike":false,"transitLeg":false,"duration":1290.0,"steps":[{"distance":29.947,"relativeDirection":"DEPART","streetName":"Rue de la Victoire","absoluteDirection":"SOUTH","stayOn":false,"area":false,"bogusName":false,"lon":-71.06399258387839,"lat":48.43790629923005,"elevation":[]},{"distance":246.488,"relativeDirection":"RIGHT","streetName":"Rue Roussel","absoluteDirection":"SOUTHWEST","stayOn":false,"area":false,"bogusName":false,"lon":-71.0638856,"lat":48.4376465,"elevation":[]},{"distance":14.306,"relativeDirection":"CIRCLE_COUNTERCLOCKWISE","streetName":"Rue Roussel","absoluteDirection":"NORTHWEST","exit":"1","stayOn":false,"area":false,"bogusName":false,"lon":-71.0671123,"lat":48.437299200000005,"elevation":[]},{"distance":6.516,"relativeDirection":"RIGHT","streetName":"R 172","absoluteDirection":"NORTH","stayOn":false,"area":false,"bogusName":true,"lon":-71.0672278,"lat":48.4373869,"elevation":[]},{"distance":236.639,"relativeDirection":"SLIGHTLY_LEFT","streetName":"R 172","absoluteDirection":"NORTHWEST","stayOn":true,"area":false,"bogusName":true,"lon":-71.0672291,"lat":48.4374455,"elevation":[]},{"distance":1102.2540000000001,"relativeDirection":"CONTINUE","streetName":"Boulevard Sainte-Geneviève","absoluteDirection":"NORTHWEST","stayOn":false,"area":false,"bogusName":false,"lon":-71.0694016,"lat":48.4389935,"elevation":[]},{"distance":30.096,"relativeDirection":"LEFT","streetName":"Rue David","absoluteDirection":"SOUTHWEST","stayOn":false,"area":false,"bogusName":false,"lon":-71.08096180000001,"lat":48.445019,"elevation":[]}]}],"tooSloped":false},{"duration":1118,"startTime":1522706752000,"endTime":1522707870000,"walkTime":290,"transitTime":826,"waitingTime":2,"walkDistance":359.72938345369744,"walkLimitExceeded":false,"elevationLost":0.0,"elevationGained":0.0,"transfers":0,"legs":[{"startTime":1522706752000,"endTime":1522706792000,"departureDelay":0,"arrivalDelay":0,"realTime":false,"distance":45.205,"pathway":false,"mode":"WALK","route":"","agencyTimeZoneOffset":-14400000,"interlineWithPreviousLeg":false,"from":{"name":"Origin","lon":-71.06375699,"lat":48.437949,"departure":1522706752000,"orig":"","vertexType":"NORMAL"},"to":{"name":"Roussel / Victoire","stopId":"1:832","stopCode":"832","lon":-71.063742,"lat":48.43776,"arrival":1522706792000,"departure":1522706793000,"zoneId":"NA","stopIndex":31,"stopSequence":32,"vertexType":"TRANSIT"},"legGeometry":{"points":"{osfH~tvpLr@UMc@","length":3},"rentedBike":false,"transitLeg":false,"duration":40.0,"steps":[{"distance":29.947,"relativeDirection":"DEPART","streetName":"Rue de la Victoire","absoluteDirection":"SOUTH","stayOn":false,"area":false,"bogusName":false,"lon":-71.06399258387839,"lat":48.43790629923005,"elevation":[]},{"distance":15.258,"relativeDirection":"LEFT","streetName":"Rue Roussel","absoluteDirection":"NORTHEAST","stayOn":false,"area":false,"bogusName":false,"lon":-71.0638856,"lat":48.4376465,"elevation":[]}]},{"startTime":1522706793000,"endTime":1522707060000,"departureDelay":0,"arrivalDelay":0,"realTime":false,"distance":1681.8116180401935,"pathway":false,"mode":"BUS","route":"24","agencyName":"Société de Transport du Saguenay","agencyUrl":"http://ville.saguenay.ca/fr/services-aux-citoyens/transport-sts","agencyTimeZoneOffset":-14400000,"routeColor":"00FF00","routeType":3,"routeId":"1:24","routeTextColor":"000000","interlineWithPreviousLeg":false,"tripBlockId":"4","headsign":"Terminus Chicoutimi","agencyId":"0","tripId":"1:217245","serviceDate":"20180402","from":{"name":"Roussel / Victoire","stopId":"1:832","stopCode":"832","lon":-71.063742,"lat":48.43776,"arrival":1522706792000,"departure":1522706793000,"zoneId":"NA","stopIndex":31,"stopSequence":32,"vertexType":"TRANSIT"},"to":{"name":"Terminus Chicoutimi","stopId":"1:1289","stopCode":"1289","lon":-71.066163,"lat":48.428677,"arrival":1522707060000,"departure":1522707300000,"zoneId":"NA","stopIndex":35,"stopSequence":36,"vertexType":"TRANSIT"},"legGeometry":{"points":"qnsfH`svpLPn@`@rBNnAFr@DbA?bB@jABzA?p@A???A???A?A???A@??A?A@??A@?@A??@A@???@A@?@?@A@?@?@?@?@???@?@?@?@?@?@@@?@?@@@?@@@?@@@?@@?@@??@@@?E`@Kr@]rACVEl@I|AAr@JbAWJe@FUAM?a@Ke@YYWWa@v@}@RQPMz@k@tAe@REZG^Af@@X@VF`@Jn@XbClAr@Xt\\`PrAb@pA^hBTjAFj@Pb@JPHLLJNJRFXDT?X?ZEVEVKTMNMHMFOB}DWSGOSYcAN}FFkAF}DJyDPwGvAHN_HDiB@m@","length":124},"routeShortName":"24","routeLongName":"Saint-Luc","rentedBike":false,"transitLeg":true,"duration":267.0,"steps":[]},{"startTime":1522707300000,"endTime":1522707619000,"departureDelay":0,"arrivalDelay":0,"realTime":false,"distance":2130.322985965611,"pathway":false,"mode":"BUS","route":"23","agencyName":"Société de Transport du Saguenay","agencyUrl":"http://ville.saguenay.ca/fr/services-aux-citoyens/transport-sts","agencyTimeZoneOffset":-14400000,"routeColor":"FF00FF","routeType":3,"routeId":"1:23","routeTextColor":"FFFFFF","interlineWithPreviousLeg":true,"tripBlockId":"4","headsign":"Terminus Chicoutimi","agencyId":"0","tripId":"1:217246","serviceDate":"20180402","from":{"name":"Terminus Chicoutimi","stopId":"1:1289","stopCode":"1289","lon":-71.066163,"lat":48.428677,"arrival":1522707060000,"departure":1522707300000,"zoneId":"NA","stopIndex":0,"stopSequence":1,"vertexType":"TRANSIT"},"to":{"name":"Place de la Colline (boul. Ste-Geneviève)","stopId":"1:706","stopCode":"706","lon":-71.080094,"lat":48.44485,"arrival":1522707619000,"departure":1522707620000,"zoneId":"NA","stopIndex":2,"stopSequence":3,"vertexType":"TRANSIT"},"legGeometry":{"points":"kwqfHjbwpLF_CkAOYCm@rRO\\WjGOfGCRK^KJMHQB_AMg@Gw`@eR}@g@u@Su@Ia@Ck@Dm@HwAf@c@VeAx@iAlAU^[d@eLtTsAvB_CvEuAnCmBlE}@|B_BvFoC`J","length":36},"routeShortName":"23","routeLongName":"Côte Verdun via Aréna du Plateau","rentedBike":false,"transitLeg":true,"duration":319.0,"steps":[]},{"startTime":1522707620000,"endTime":1522707870000,"departureDelay":0,"arrivalDelay":0,"realTime":false,"distance":314.37100000000004,"pathway":false,"mode":"WALK","route":"","agencyTimeZoneOffset":-14400000,"interlineWithPreviousLeg":false,"from":{"name":"Place de la Colline (boul. Ste-Geneviève)","stopId":"1:706","stopCode":"706","lon":-71.080094,"lat":48.44485,"arrival":1522707619000,"departure":1522707620000,"zoneId":"NA","stopIndex":2,"stopSequence":3,"vertexType":"TRANSIT"},"to":{"name":"Destination","lon":-71.081315,"lat":48.444847,"arrival":1522707870000,"orig":"","vertexType":"NORMAL"},"legGeometry":{"points":"a{tfHxyypLdBkFPRsAvEa@fAi@~Aj@j@","length":7},"rentedBike":false,"transitLeg":false,"duration":250.0,"steps":[{"distance":103.974,"relativeDirection":"DEPART","streetName":"Boulevard Sainte-Geneviève","absoluteDirection":"SOUTHEAST","stayOn":false,"area":false,"bogusName":false,"lon":-71.08012797466124,"lat":48.44481509343017,"elevation":[]},{"distance":180.301,"relativeDirection":"UTURN_RIGHT","streetName":"Boulevard Sainte-Geneviève","absoluteDirection":"NORTHWEST","stayOn":true,"area":false,"bogusName":false,"lon":-71.0790497,"lat":48.4442132,"elevation":[]},{"distance":30.096,"relativeDirection":"LEFT","streetName":"Rue David","absoluteDirection":"SOUTHWEST","stayOn":false,"area":false,"bogusName":false,"lon":-71.08096180000001,"lat":48.445019,"elevation":[]}]}],"tooSloped":false},{"duration":910,"startTime":1522706990000,"endTime":1522707900000,"walkTime":761,"transitTime":147,"waitingTime":2,"walkDistance":969.1199548813469,"walkLimitExceeded":false,"elevationLost":0.0,"elevationGained":0.0,"transfers":0,"legs":[{"startTime":1522706990000,"endTime":1522707632000,"departureDelay":0,"arrivalDelay":0,"realTime":false,"distance":816.4549999999999,"pathway":false,"mode":"WALK","route":"","agencyTimeZoneOffset":-14400000,"interlineWithPreviousLeg":false,"from":{"name":"Origin","lon":-71.06375699,"lat":48.437949,"departure":1522706990000,"orig":"","vertexType":"NORMAL"},"to":{"name":"Roussel / Carillon","stopId":"1:678","stopCode":"678","lon":-71.074116,"lat":48.437686,"arrival":1522707632000,"departure":1522707633000,"zoneId":"NA","stopIndex":3,"stopSequence":4,"vertexType":"TRANSIT"},"legGeometry":{"points":"{osfH~tvpLr@Ux@fDJpC@xA@R?dACvCE?C@ABCBAD?D?D@F?@@BBBB@Q~Ai@~CGj@Ch@A^@ZFd@F\\HXD\\BLDnAAp@Cr@APKlAEf@A`@@HDn@@p@@v@?L?n@AbAGdB?p@AP","length":48},"rentedBike":false,"transitLeg":false,"duration":642.0,"steps":[{"distance":29.947,"relativeDirection":"DEPART","streetName":"Rue de la Victoire","absoluteDirection":"SOUTH","stayOn":false,"area":false,"bogusName":false,"lon":-71.06399258387839,"lat":48.43790629923005,"elevation":[]},{"distance":786.5079999999999,"relativeDirection":"RIGHT","streetName":"Rue Roussel","absoluteDirection":"SOUTHWEST","stayOn":false,"area":false,"bogusName":false,"lon":-71.0638856,"lat":48.4376465,"elevation":[]}]},{"startTime":1522707633000,"endTime":1522707780000,"departureDelay":0,"arrivalDelay":0,"realTime":false,"distance":934.6178884940118,"pathway":false,"mode":"BUS","route":"20","agencyName":"Société de Transport du Saguenay","agencyUrl":"http://ville.saguenay.ca/fr/services-aux-citoyens/transport-sts","agencyTimeZoneOffset":-14400000,"routeColor":"0000FF","routeType":3,"routeId":"1:20","routeTextColor":"FFFFFF","interlineWithPreviousLeg":false,"tripBlockId":"1","headsign":"Terminus Chicoutimi","agencyId":"0","tripId":"1:217152","serviceDate":"20180402","from":{"name":"Roussel / Carillon","stopId":"1:678","stopCode":"678","lon":-71.074116,"lat":48.437686,"arrival":1522707632000,"departure":1522707633000,"zoneId":"NA","stopIndex":3,"stopSequence":4,"vertexType":"TRANSIT"},"to":{"name":"Sauvé / David","stopId":"1:682","stopCode":"682","lon":-71.0813,"lat":48.4438,"arrival":1522707780000,"departure":1522707781000,"zoneId":"NA","stopIndex":7,"stopSequence":8,"vertexType":"TRANSIT"},"legGeometry":{"points":"gnsfHhtxpLE`AIdBK`AOdAMd@EJKR}B~Bw@`Bs@dB]bAWb@q@jAaB|BkA~A}@nAu@IIAe@Cs@Fy@DWA[EUGyCgAU~@Sx@{A`F","length":29},"routeShortName":"20","routeLongName":"Sainte-Claire","rentedBike":false,"transitLeg":true,"duration":147.0,"steps":[]},{"startTime":1522707781000,"endTime":1522707900000,"departureDelay":0,"arrivalDelay":0,"realTime":false,"distance":152.483,"pathway":false,"mode":"WALK","route":"","agencyTimeZoneOffset":-14400000,"interlineWithPreviousLeg":false,"from":{"name":"Sauvé / David","stopId":"1:682","stopCode":"682","lon":-71.0813,"lat":48.4438,"arrival":1522707780000,"departure":1522707781000,"zoneId":"NA","stopIndex":7,"stopSequence":8,"vertexType":"TRANSIT"},"to":{"name":"Destination","lon":-71.081315,"lat":48.444847,"arrival":1522707900000,"orig":"","vertexType":"NORMAL"},"legGeometry":{"points":"qttfHhazpLq@tByCqC","length":3},"rentedBike":false,"transitLeg":false,"duration":119.0,"steps":[{"distance":51.448,"relativeDirection":"DEPART","streetName":"Rue Sauvé","absoluteDirection":"NORTHWEST","stayOn":false,"area":false,"bogusName":false,"lon":-71.08132392744633,"lat":48.44377496388204,"elevation":[]},{"distance":101.035,"relativeDirection":"RIGHT","streetName":"Rue David","absoluteDirection":"NORTHEAST","stayOn":false,"area":false,"bogusName":false,"lon":-71.081913,"lat":48.444022700000005,"elevation":[]}]}],"tooSloped":false}]},"debugOutput":{"precalculationTime":24,"pathCalculationTime":23,"pathTimes":[16,4,3],"renderingTime":1,"totalTime":48,"timedOut":false},"elevationMetadata":{"ellipsoidToGeoidDifference":-28.885904201182168,"geoidElevation":false}}