{"requestParameters":{"date":"2018/04/02","walkSpeed":"1.33","walkReluctance":"2.0","fromPlace":"48.422229,-71.06058699","maxWalkDistance":"3000","waitReluctance":"1.0","carSpeed":"33","numItineraries":"3","waitAtBeginningFactor":"0.4","mode":"TRANSIT,WALK","ignoreRealtimeUpdates":"false","stairsReluctance":"2.0","toPlace":"48.439521,-71.058719","time":"14:45:00"},"plan":{"date":1522694700000,"from":{"name":"Origin","lon":-71.06058699,"lat":48.422229,"orig":"","vertexType":"NORMAL"},"to":{"name":"Destination","lon":-71.058719,"lat":48.439521,"orig":"","vertexType":"NORMAL"},"itineraries":[{"duration":1289,"startTime":1522695640000,"endTime":1522696929000,"walkTime":951,"transitTime":336,"waitingTime":2,"walkDistance":1226.0381127788862,"walkLimitExceeded":false,"elevationLost":0.0,"elevationGained":0.0,"transfers":0,"legs":[{"startTime":1522695640000,"endTime":1522696499000,"departureDelay":0,"arrivalDelay":0,"realTime":false,"distance":1106.574,"pathway":false,"mode":"WALK","route":"","agencyTimeZoneOffset":-14400000,"interlineWithPreviousLeg":false,"from":{"name":"Origin","lon":-71.06058699,"lat":48.422229,"departure":1522695640000,"orig":"","vertexType":"NORMAL"},"to":{"name":"Terminus Chicoutimi","stopId":"1:1289","stopCode":"1289","lon":-71.066163,"lat":48.428677,"arrival":1522696499000,"departure":1522696500000,"zoneId":"NA","stopIndex":0,"stopSequence":1,"vertexType":"TRANSIT"},"legGeometry":{"points":"{mpfHp_vpLaAIk@Cu@E]Aq@Eq@EK?cDQoAGqG[?\\A|@?TC~C?n@CfBCdAAX?REvBCd@AVA\\CpAAx@A^Ar@EvCkCQQAsBIc@MKESAcAK","length":36},"rentedBike":false,"transitLeg":false,"duration":859.0,"steps":[{"distance":458.951,"relativeDirection":"DEPART","streetName":"Rue La Fontaine","absoluteDirection":"NORTH","stayOn":false,"area":false,"bogusName":false,"lon":-71.06056786410016,"lat":48.42222757589214,"elevation":[]},{"distance":417.91,"relativeDirection":"LEFT","streetName":"Rue Jacques-Cartier Est","absoluteDirection":"WEST","stayOn":false,"area":false,"bogusName":false,"lon":-71.0601266,"lat":48.426344300000004,"elevation":[]},{"distance":229.713,"relativeDirection":"RIGHT","streetName":"Rue Morin","absoluteDirection":"NORTH","stayOn":false,"area":false,"bogusName":false,"lon":-71.0657774,"lat":48.426577300000005,"elevation":[]}]},{"startTime":1522696500000,"endTime":1522696836000,"departureDelay":0,"arrivalDelay":0,"realTime":false,"distance":1655.7582002786908,"pathway":false,"mode":"BUS","route":"24","agencyName":"Société de Transport du Saguenay","agencyUrl":"http://ville.saguenay.ca/fr/services-aux-citoyens/transport-sts","agencyTimeZoneOffset":-14400000,"routeColor":"00FF00","routeType":3,"routeId":"1:24","routeTextColor":"000000","interlineWithPreviousLeg":false,"tripBlockId":"5","headsign":"Terminus Chicoutimi","agencyId":"0","tripId":"1:217267","serviceDate":"20180402","from":{"name":"Terminus Chicoutimi","stopId":"1:1289","stopCode":"1289","lon":-71.066163,"lat":48.428677,"arrival":1522696499000,"departure":1522696500000,"zoneId":"NA","stopIndex":0,"stopSequence":1,"vertexType":"TRANSIT"},"to":{"name":"École le Roseau (Bienville)","stopId":"1:806","stopCode":"806","lon":-71.057164,"lat":48.439798,"arrival":1522696836000,"departure":1522696837000,"zoneId":"NA","stopIndex":4,"stopSequence":5,"vertexType":"TRANSIT"},"legGeometry":{"points":"evqfHzcwpLg@?EhBO~GoBKCp@O\\WjGOfGCRK^KJMHQB_AMg@Gm\\wO]i@wAyA_@WUKMEwEm@Js@Da@??@@??@?@???@???@?@??A@???@A@??A@??A@A??@A?A??@A?A?A?A@A?A???A?A?A???A?A?A?A???A?AAA?A???AAA?A??AA?AA??AA??A??AA??A??AA?A???A????q@C{AAaB?mAEcAGs@OoAa@sB[kAYcASq@Ok@Qq@Ku@MoBKmAa@eHi@FKC_@I??iE}Ah@}DH}@?c@Ea@[_B","length":116},"routeShortName":"24","routeLongName":"Saint-Luc","rentedBike":false,"transitLeg":true,"duration":336.0,"steps":[]},{"startTime":1522696837000,"endTime":1522696929000,"departureDelay":0,"arrivalDelay":0,"realTime":false,"distance":119.369,"pathway":false,"mode":"WALK","route":"","agencyTimeZoneOffset":-14400000,"interlineWithPreviousLeg":false,"from":{"name":"École le Roseau (Bienville)","stopId":"1:806","stopCode":"806","lon":-71.057164,"lat":48.439798,"arrival":1522696836000,"departure":1522696837000,"zoneId":"NA","stopIndex":4,"stopSequence":5,"vertexType":"TRANSIT"},"to":{"name":"Destination","lon":-71.058719,"lat":48.439521,"arrival":1522696929000,"orig":"","vertexType":"NORMAL"},"legGeometry":{"points":"g|sfHxjupLHTJn@Fb@@N@PAN?NANCNALx@X","length":12},"rentedBike":false,"transitLeg":false,"duration":92.0,"steps":[{"distance":84.798,"relativeDirection":"DEPART","streetName":"Rue De Bienville","absoluteDirection":"SOUTHWEST","stayOn":false,"area":false,"bogusName":false,"lon":-71.05724442131621,"lat":48.439881180077734,"elevation":[]},{"distance":34.571,"relativeDirection":"LEFT","streetName":"Rue Richard","absoluteDirection":"SOUTH","stayOn":false,"area":false,"bogusName":false,"lon":-71.05833220000001,"lat":48.4397692,"elevation":[]}]}],"tooSloped":false},{"duration":1986,"startTime":1522695640000,"endTime":1522697626000,"walkTime":1124,"transitTime":860,"waitingTime":2,"walkDistance":1435.8607368358212,"walkLimitExceeded":false,"elevationLost":0.0,"elevationGained":0.0,"transfers":0,"legs":[{"startTime":1522695640000,"endTime":1522696499000,"departureDelay":0,"arrivalDelay":0,"realTime":false,"distance":1106.574,"pathway":false,"mode":"WALK","route":"","agencyTimeZoneOffset":-14400000,"interlineWithPreviousLeg":false,"from":{"name":"Origin","lon":-71.06058699,"lat":48.422229,"departure":1522695640000,"orig":"","vertexType":"NORMAL"},"to":{"name":"Terminus Chicoutimi","stopId":"1:1289","stopCode":"1289","lon":-71.066163,"lat":48.428677,"arrival":1522696499000,"departure":1522696500000,"zoneId":"NA","stopIndex":0,"stopSequence":1,"vertexType":"TRANSIT"},"legGeometry":{"points":"{mpfHp_vpLaAIk@Cu@E]Aq@Eq@EK?cDQoAGqG[?\\A|@?TC~C?n@CfBCdAAX?REvBCd@AVA\\CpAAx@A^Ar@EvCkCQQAsBIc@MKESAcAK","length":36},"rentedBike":false,"transitLeg":false,"duration":859.0,"steps":[{"distance":458.951,"relativeDirection":"DEPART","streetName":"Rue La Fontaine","absoluteDirection":"NORTH","stayOn":false,"area":false,"bogusName":false,"lon":-71.06056786410016,"lat":48.42222757589214,"elevation":[]},{"distance":417.91,"relativeDirection":"LEFT","streetName":"Rue Jacques-Cartier Est","absoluteDirection":"WEST","stayOn":false,"area":false,"bogusName":false,"lon":-71.0601266,"lat":48.426344300000004,"elevation":[]},{"distance":229.713,"relativeDirection":"RIGHT","streetName":"Rue Morin","absoluteDirection":"NORTH","stayOn":false,"area":false,"bogusName":false,"lon":-71.0657774,"lat":48.426577300000005,"elevation":[]}]},{"startTime":1522696500000,"endTime":1522697360000,"departureDelay":0,"arrivalDelay":0,"realTime":false,"distance":6208.286971651185,"pathway":false,"mode":"BUS","route":"23","agencyName":"Société de Transport du Saguenay","agencyUrl":"http://ville.saguenay.ca/fr/services-aux-citoyens/transport-sts","agencyTimeZoneOffset":-14400000,"routeColor":"FF00FF","routeType":3,"routeId":"1:23","routeTextColor":"FFFFFF","interlineWithPreviousLeg":false,"tripBlockId":"4","headsign":"Terminus Chicoutimi","agencyId":"0","tripId":"1:217240","serviceDate":"20180402","from":{"name":"Terminus Chicoutimi","stopId":"1:1289","stopCode":"1289","lon":-71.066163,"lat":48.428677,"arrival":1522696499000,"departure":1522696500000,"zoneId":"NA","stopIndex":0,"stopSequence":1,"vertexType":"TRANSIT"},"to":{"name":"Église St-Luc (boul. Tadoussac)","stopId":"1:830","stopCode":"830","lon":-71.059501,"lat":48.441464,"arrival":1522697360000,"departure":1522697361000,"zoneId":"NA","stopIndex":20,"stopSequence":21,"vertexType":"TRANSIT"},"legGeometry":{"points":"kwqfHjbwpLF_CkAOYCm@rRO\\WjGOfGCRK^KJMHQB_AMg@Gw`@eR}@g@u@Su@Ia@Ck@Dm@HwAf@c@VeAx@iAlAU^[d@eLtTsAvB_CvEuAnCmBlE}@|B_BvFoC`JCD}@hCo@~Aq@pAs@fA{BlCqH|Iq@Bq@Im@UGCUi@Wm@ScA_@gGSaE@_@@_@@ERoBFe@No@`@gAbCyFNe@Ha@He@Fg@Du@Dg@Hc@Pa@RW\\S`@QZEm@eHM}B?GGi@Is@Ou@Qw@Mo@Kw@ImAGoBAk@aALa@?YEUKc@Yc@_@KOIUGUEWAW?YBqAH_AXeC@IdB_Mh@_EJk@d@kDhAqI`AgHz@oGBU?UAWCWUwAWD]B]AUEoAc@kE}AOIq@g@g@u@]w@b@s@T[~CkFf@s@\\e@x@}@jAeAXQZStBaAh@]`@]`@i@l@kDF_@R{AFWFMPIPC`@BT@V?TAVKLENCLCJ@J@xAb@x@Zz@\\CP?R@N@NFLFF`GtBx@Xw@pG@l@B\\DXL\\RZDFXPf@N@v@Bp@Dr@l@~HNlAH\\","length":178},"routeShortName":"23","routeLongName":"Côte Verdun via Aréna du Plateau","rentedBike":false,"transitLeg":true,"duration":860.0,"steps":[]},{"startTime":1522697361000,"endTime":1522697626000,"departureDelay":0,"arrivalDelay":0,"realTime":false,"distance":329.092,"pathway":false,"mode":"WALK","route":"","agencyTimeZoneOffset":-14400000,"interlineWithPreviousLeg":false,"from":{"name":"Église St-Luc (boul. Tadoussac)","stopId":"1:830","stopCode":"830","lon":-71.059501,"lat":48.441464,"arrival":1522697360000,"departure":1522697361000,"zoneId":"NA","stopIndex":20,"stopSequence":21,"vertexType":"TRANSIT"},"to":{"name":"Destination","lon":-71.058719,"lat":48.439521,"arrival":1522697626000,"orig":"","vertexType":"NORMAL"},"legGeometry":{"points":"yetfHrxupLAGCMG]CQRETGHw@ZCbFlBf@}Dx@X","length":12},"rentedBike":false,"transitLeg":false,"duration":265.0,"steps":[{"distance":27.389,"relativeDirection":"DEPART","streetName":"Boulevard de Tadoussac","absoluteDirection":"NORTHEAST","stayOn":false,"area":false,"bogusName":false,"lon":-71.05945543369864,"lat":48.44141337892131,"elevation":[]},{"distance":61.104000000000006,"relativeDirection":"RIGHT","streetName":"path","absoluteDirection":"SOUTH","stayOn":false,"area":false,"bogusName":true,"lon":-71.0591098,"lat":48.4415014,"elevation":[]},{"distance":132.861,"relativeDirection":"SLIGHTLY_RIGHT","streetName":"Rue Napoléon","absoluteDirection":"SOUTH","stayOn":false,"area":false,"bogusName":false,"lon":-71.058738,"lat":48.4411019,"elevation":[]},{"distance":73.167,"relativeDirection":"LEFT","streetName":"Rue De Bienville","absoluteDirection":"EAST","stayOn":false,"area":false,"bogusName":false,"lon":-71.0592803,"lat":48.4399625,"elevation":[]},{"distance":34.571,"relativeDirection":"RIGHT","streetName":"Rue Richard","absoluteDirection":"SOUTH","stayOn":false,"area":false,"bogusName":false,"lon":-71.05833220000001,"lat":48.4397692,"elevation":[]}]}],"tooSloped":false},{"duration":1289,"startTime":1522697440000,"endTime":1522698729000,"walkTime":951,"transitTime":336,"waitingTime":2,"walkDistance":1226.0381127788862,"walkLimitExceeded":false,"elevationLost":0.0,"elevationGained":0.0,"transfers":0,"legs":[{"startTime":1522697440000,"endTime":1522698299000,"departureDelay":0,"arrivalDelay":0,"realTime":false,"distance":1106.574,"pathway":false,"mode":"WALK","route":"","agencyTimeZoneOffset":-14400000,"interlineWithPreviousLeg":false,"from":{"name":"Origin","lon":-71.06058699,"lat":48.422229,"departure":1522697440000,"orig":"","vertexType":"NORMAL"},"to":{"name":"Terminus Chicoutimi","stopId":"1:1289","stopCode":"1289","lon":-71.066163,"lat":48.428677,"arrival":1522698299000,"departure":1522698300000,"zoneId":"NA","stopIndex":0,"stopSequence":1,"vertexType":"TRANSIT"},"legGeometry":{"points":"{mpfHp_vpLaAIk@Cu@E]Aq@Eq@EK?cDQoAGqG[?\\A|@?TC~C?n@CfBCdAAX?REvBCd@AVA\\CpAAx@A^Ar@EvCkCQQAsBIc@MKESAcAK","length":36},"rentedBike":false,"transitLeg":false,"duration":859.0,"steps":[{"distance":458.951,"relativeDirection":"DEPART","streetName":"Rue La Fontaine","absoluteDirection":"NORTH","stayOn":false,"area":false,"bogusName":false,"lon":-71.06056786410016,"lat":48.42222757589214,"elevation":[]},{"distance":417.91,"relativeDirection":"LEFT","streetName":"Rue Jacques-Cartier Est","absoluteDirection":"WEST","stayOn":false,"area":false,"bogusName":false,"lon":-71.0601266,"lat":48.426344300000004,"elevation":[]},{"distance":229.713,"relativeDirection":"RIGHT","streetName":"Rue Morin","absoluteDirection":"NORTH","stayOn":false,"area":false,"bogusName":false,"lon":-71.0657774,"lat":48.426577300000005,"elevation":[]}]},{"startTime":1522698300000,"endTime":1522698636000,"departureDelay":0,"arrivalDelay":0,"realTime":false,"distance":1655.7582002786908,"pathway":false,"mode":"BUS","route":"24","agencyName":"Société de Transport du Saguenay","agencyUrl":"http://ville.saguenay.ca/fr/services-aux-citoyens/transport-sts","agencyTimeZoneOffset":-14400000,"routeColor":"00FF00","routeType":3,"routeId":"1:24","routeTextColor":"000000","interlineWithPreviousLeg":false,"tripBlockId":"4","headsign":"Terminus Chicoutimi","agencyId":"0","tripId":"1:217241","serviceDate":"20180402","from":{"name":"Terminus Chicoutimi","stopId":"1:1289","stopCode":"1289","lon":-71.066163,"lat":48.428677,"arrival":1522698299000,"departure":1522698300000,"zoneId":"NA","stopIndex":0,"stopSequence":1,"vertexType":"TRANSIT"},"to":{"name":"École le Roseau (Bienville)","stopId":"1:806","stopCode":"806","lon":-71.057164,"lat":48.439798,"arrival":1522698636000,"departure":1522698637000,"zoneId":"NA","stopIndex":4,"stopSequence":5,"vertexType":"TRANSIT"},"legGeometry":{"points":"evqfHzcwpLg@?EhBO~GoBKCp@O\\WjGOfGCRK^KJMHQB_AMg@Gm\\wO]i@wAyA_@WUKMEwEm@Js@Da@??@@??@?@???@???@?@??A@???@A@??A@??A@A??@A?A??@A?A?A?A@A?A???A?A?A???A?A?A?A???A?AAA?A???AAA?A??AA?AA??AA??A??AA??A??AA?A???A????q@C{AAaB?mAEcAGs@OoAa@sB[kAYcASq@Ok@Qq@Ku@MoBKmAa@eHi@FKC_@I??iE}Ah@}DH}@?c@Ea@[_B","length":116},"routeShortName":"24","routeLongName":"Saint-Luc","rentedBike":false,"transitLeg":true,"duration":336.0,"steps":[]},{"startTime":1522698637000,"endTime":1522698729000,"departureDelay":0,"arrivalDelay":0,"realTime":false,"distance":119.369,"pathway":false,"mode":"WALK","route":"","agencyTimeZoneOffset":-14400000,"interlineWithPreviousLeg":false,"from":{"name":"École le Roseau (Bienville)","stopId":"1:806","stopCode":"806","lon":-71.057164,"lat":48.439798,"arrival":1522698636000,"departure":1522698637000,"zoneId":"NA","stopIndex":4,"stopSequence":5,"vertexType":"TRANSIT"},"to":{"name":"Destination","lon":-71.058719,"lat":48.439521,"arrival":1522698729000,"orig":"","vertexType":"NORMAL"},"legGeometry":{"points":"g|sfHxjupLHTJn@Fb@@N@PAN?NANCNALx@X","length":12},"rentedBike":false,"transitLeg":false,"duration":92.0,"steps":[{"distance":84.798,"relativeDirection":"DEPART","streetName":"Rue De Bienville","absoluteDirection":"SOUTHWEST","stayOn":false,"area":false,"bogusName":false,"lon":-71.05724442131621,"lat":48.439881180077734,"elevation":[]},{"distance":34.571,"relativeDirection":"LEFT","streetName":"Rue Richard","absoluteDirection":"SOUTH","stayOn":false,"area":false,"bogusName":false,"lon":-71.05833220000001,"lat":48.4397692,"elevation":[]}]}],"tooSloped":false}]},"debugOutput":{"precalculationTime":47,"pathCalculationTime":67,"pathTimes":[26,20,21],"renderingTime":0,"totalTime":114,"timedOut":false},"elevationMetadata":{"ellipsoidToGeoidDifference":-28.885904201182168,"geoidElevation":false}}