{"requestParameters":{"date":"2018/04/02","walkSpeed":"1.33","walkReluctance":"2.0","fromPlace":"48.422638,-71.059381","maxWalkDistance":"3000","waitReluctance":"1.0","carSpeed":"33","numItineraries":"3","waitAtBeginningFactor":"0.4","mode":"TRANSIT,WALK","ignoreRealtimeUpdates":"false","stairsReluctance":"2.0","toPlace":"48.374824,-71.127521","time":"16:30:00"},"plan":{"date":1522701000000,"from":{"name":"Origin","lon":-71.059381,"lat":48.422638,"orig":"","vertexType":"NORMAL"},"to":{"name":"Destination","lon":-71.127521,"lat":48.374824,"orig":"","vertexType":"NORMAL"},"itineraries":[{"duration":3656,"startTime":1522701032000,"endTime":1522704688000,"walkTime":2440,"transitTime":1214,"waitingTime":2,"walkDistance":3165.642624052095,"walkLimitExceeded":false,"elevationLost":0.0,"elevationGained":0.0,"transfers":0,"legs":[{"startTime":1522701032000,"endTime":1522702001000,"departureDelay":0,"arrivalDelay":0,"realTime":false,"distance":1231.916,"pathway":false,"mode":"WALK","route":"","agencyTimeZoneOffset":-14400000,"interlineWithPreviousLeg":false,"from":{"name":"Origin","lon":-71.059381,"lat":48.422638,"departure":1522701032000,"orig":"","vertexType":"NORMAL"},"to":{"name":"Price / Ste-Anne","stopId":"1:414","stopCode":"414","lon":-71.069681,"lat":48.425524,"arrival":1522702001000,"departure":1522702002000,"zoneId":"NA","stopIndex":2,"stopSequence":3,"vertexType":"TRANSIT"},"legGeometry":{"points":"_npfHzrupLe@i@WYiAgAaAcASOWWIIKIOl@EdACd@MLSICAOEk@CG?KACTM\\I\\Ax@Al@g@Zy@\\BdAGzCG~CARE~BIfEEbBAn@GfDS~H@n@Ah@EfBEdBK~FKlEKA","length":43},"rentedBike":false,"transitLeg":false,"duration":969.0,"steps":[{"distance":178.78900000000002,"relativeDirection":"DEPART","streetName":"Rue Bégin","absoluteDirection":"NORTHEAST","stayOn":false,"area":false,"bogusName":false,"lon":-71.05853375745859,"lat":48.42224297166872,"elevation":[]},{"distance":127.559,"relativeDirection":"LEFT","streetName":"alley","absoluteDirection":"NORTHWEST","stayOn":false,"area":false,"bogusName":true,"lon":-71.05719760000001,"lat":48.4235836,"elevation":[]},{"distance":131.454,"relativeDirection":"LEFT","streetName":"path","absoluteDirection":"WEST","stayOn":true,"area":false,"bogusName":true,"lon":-71.0579166,"lat":48.424303900000005,"elevation":[]},{"distance":711.1870000000001,"relativeDirection":"LEFT","streetName":"Rue Price Est","absoluteDirection":"WEST","stayOn":false,"area":false,"bogusName":false,"lon":-71.0591387,"lat":48.424959400000006,"elevation":[]},{"distance":75.968,"relativeDirection":"CONTINUE","streetName":"Rue Price Ouest","absoluteDirection":"WEST","stayOn":false,"area":false,"bogusName":false,"lon":-71.06874640000001,"lat":48.4254073,"elevation":[]},{"distance":6.959,"relativeDirection":"RIGHT","streetName":"Rue Petit","absoluteDirection":"NORTH","stayOn":false,"area":false,"bogusName":false,"lon":-71.0697722,"lat":48.4254655,"elevation":[]}]},{"startTime":1522702002000,"endTime":1522703216000,"departureDelay":0,"arrivalDelay":0,"realTime":false,"distance":8654.478084428676,"pathway":false,"mode":"BUS","route":"11","agencyName":"Société de Transport du Saguenay","agencyUrl":"http://ville.saguenay.ca/fr/services-aux-citoyens/transport-sts","agencyTimeZoneOffset":-14400000,"routeColor":"FF0000","routeType":3,"routeId":"1:11","routeTextColor":"FFFFFF","interlineWithPreviousLeg":false,"tripBlockId":"34","headsign":"Boul.Royaume/St-Pierre","agencyId":"0","tripId":"1:218227","serviceDate":"20180402","from":{"name":"Price / Ste-Anne","stopId":"1:414","stopCode":"414","lon":-71.069681,"lat":48.425524,"arrival":1522702001000,"departure":1522702002000,"zoneId":"NA","stopIndex":2,"stopSequence":3,"vertexType":"TRANSIT"},"to":{"name":"boul. Royaume (no. 1409)","stopId":"1:264","stopCode":"264","lon":-71.118186,"lat":48.388875,"arrival":1522703216000,"departure":1522703217000,"zoneId":"NA","stopIndex":28,"stopSequence":29,"vertexType":"TRANSIT"},"legGeometry":{"points":"abqfHpxwpLIfDOtEE~@Ff@x@rEF~@CbAALO~ADRNJXBr@DfGRPBPJLN@@FPFTBX?TE`BhBR@?J@NELKFOlAiDL[bA`AfIjIbGdGzDzD`A~An@`ApApBpClEvJrOR\\bAfBLa@t@]LjAVvAVbAVv@^bAXj@b@t@xEtGh@r@n@x@FDjA|AlBpCnJ|NNTX`@V`@eCtHpFjH{FhPcB|Ft@|CEAdCnEdHKrBz@lGiQ|CyI~IrJtAzAmKrWsE`LzJjL|P}d@Ri@hCpEpBdCHJzPrR_AhC}Ppd@KZkDxJq@`CyGfZOl@fNzIJ@HAHIDI@CnNco@vE}Sh@kCb@oCXyBTuAFSBMl@iBlHjJxEtGPRbBdBp@r@xDpDrL`LlAtAiBdFOd@oCrH","length":117},"routeShortName":"11","routeLongName":"Chic/Faubourg via St-Paul","rentedBike":false,"transitLeg":true,"duration":1214.0,"steps":[]},{"startTime":1522703217000,"endTime":1522704688000,"departureDelay":0,"arrivalDelay":0,"realTime":false,"distance":1933.4769999999999,"pathway":false,"mode":"WALK","route":"","agencyTimeZoneOffset":-14400000,"interlineWithPreviousLeg":false,"from":{"name":"boul. Royaume (no. 1409)","stopId":"1:264","stopCode":"264","lon":-71.118186,"lat":48.388875,"arrival":1522703216000,"departure":1522703217000,"zoneId":"NA","stopIndex":28,"stopSequence":29,"vertexType":"TRANSIT"},"to":{"name":"Destination","lon":-71.127521,"lat":48.374824,"arrival":1522704688000,"orig":"","vertexType":"NORMAL"},"legGeometry":{"points":"a}ifHbhaqLXy@\\e@xB{FfBkE@EHUJJFF~CfEj@r@~E~ElEpE|@vAHPt@~Aj@d@FDh@\\`BhAJHfAt@~AfAZTZRnD|BhAv@rA~@dBjCHHdDzDrEbENLdCdC|C|CjC`D","length":36},"rentedBike":false,"transitLeg":false,"duration":1471.0,"steps":[{"distance":269.941,"relativeDirection":"DEPART","streetName":"Boulevard du Royaume Ouest","absoluteDirection":"SOUTHEAST","stayOn":false,"area":false,"bogusName":false,"lon":-71.11825025873861,"lat":48.3888149249102,"elevation":[]},{"distance":1663.536,"relativeDirection":"RIGHT","streetName":"Rue Saint-Paul","absoluteDirection":"SOUTHWEST","stayOn":false,"area":false,"bogusName":false,"lon":-71.1153551,"lat":48.3873406,"elevation":[]}]}],"tooSloped":false},{"duration":3243,"startTime":1522702166000,"endTime":1522705409000,"walkTime":1629,"transitTime":1432,"waitingTime":182,"walkDistance":2134.071639095949,"walkLimitExceeded":false,"elevationLost":0.0,"elevationGained":0.0,"transfers":1,"legs":[{"startTime":1522702166000,"endTime":1522702324000,"departureDelay":0,"arrivalDelay":0,"realTime":false,"distance":200.53900000000002,"pathway":false,"mode":"WALK","route":"","agencyTimeZoneOffset":-14400000,"interlineWithPreviousLeg":false,"from":{"name":"Origin","lon":-71.059381,"lat":48.422638,"departure":1522702166000,"orig":"","vertexType":"NORMAL"},"to":{"name":"Bégin / Voie Réservé","stopId":"1:74","stopCode":"74","lon":-71.057125,"lat":48.423785,"arrival":1522702324000,"departure":1522702325000,"zoneId":"NA","stopIndex":8,"stopSequence":9,"vertexType":"TRANSIT"},"legGeometry":{"points":"_npfHzrupLe@i@WYiAgAaAcASOWWIIKIEEYW","length":11},"rentedBike":false,"transitLeg":false,"duration":158.0,"steps":[{"distance":200.53900000000002,"relativeDirection":"DEPART","streetName":"Rue Bégin","absoluteDirection":"NORTHEAST","stayOn":false,"area":false,"bogusName":false,"lon":-71.05853375745859,"lat":48.42224297166872,"elevation":[]}]},{"startTime":1522702325000,"endTime":1522703520000,"departureDelay":0,"arrivalDelay":0,"realTime":false,"distance":6511.535363245112,"pathway":false,"mode":"BUS","route":"175","agencyName":"Société de Transport du Saguenay","agencyUrl":"http://ville.saguenay.ca/fr/services-aux-citoyens/transport-sts","agencyTimeZoneOffset":-14400000,"routeColor":"FF00FF","routeType":3,"routeId":"1:175","routeTextColor":"FFFFFF","interlineWithPreviousLeg":false,"tripBlockId":"8","headsign":"Costco","agencyId":"0","tripId":"1:217377","serviceDate":"20180402","from":{"name":"Bégin / Voie Réservé","stopId":"1:74","stopCode":"74","lon":-71.057125,"lat":48.423785,"arrival":1522702324000,"departure":1522702325000,"zoneId":"NA","stopIndex":8,"stopSequence":9,"vertexType":"TRANSIT"},"to":{"name":"COSTCO","stopId":"1:1710","stopCode":"1710","lon":-71.085767,"lat":48.382333,"arrival":1522703520000,"departure":1522703700000,"zoneId":"NA","stopIndex":30,"stopSequence":31,"vertexType":"TRANSIT"},"legGeometry":{"points":"mwpfHliupLx@l@VwAvAgB\\qBIuAC]g@yEzDuLbBbBvAxAMx@|@v@`A~@Xw@~D~DPxFZtA~ApE`N{LpFmEb@[ROl@[vDQXKfA[|@q@fAsBlEmMr@sBhCsKz@dAjB|@dM`GzCvAXrCr@~Gx@]PEr@ObACn@FrBb@|@Ch@Kx@U~HsB^KZ|DJpII~Fa@rFUzBi@bDUxAm@nCcAlDM^RTfD`DjF`FjCrCrAvAbCfDjIfMdAzAfFpHd@n@nC`DlXv[b@f@mCtHv@v@p@r@_@p@uAcBjDoJhAzApBrBrFvGjDdEbD|DZb@~DrEbDfDrA~ApLbNpG|GyCtHwBcC","length":91},"routeShortName":"175","routeLongName":"Term. Chic / Costco","rentedBike":false,"transitLeg":true,"duration":1195.0,"steps":[]},{"startTime":1522703700000,"endTime":1522703937000,"departureDelay":0,"arrivalDelay":0,"realTime":false,"distance":2543.411661121034,"pathway":false,"mode":"BUS","route":"2","agencyName":"Société de Transport du Saguenay","agencyUrl":"http://ville.saguenay.ca/fr/services-aux-citoyens/transport-sts","agencyTimeZoneOffset":-14400000,"routeColor":"FF0000","routeType":3,"routeId":"1:2","routeTextColor":"FFFFFF","interlineWithPreviousLeg":false,"tripBlockId":"8","headsign":"Terminus Jonquière","agencyId":"0","tripId":"1:217378","serviceDate":"20180402","from":{"name":"COSTCO","stopId":"1:1710","stopCode":"1710","lon":-71.085767,"lat":48.382333,"arrival":1522703520000,"departure":1522703700000,"zoneId":"NA","stopIndex":0,"stopSequence":1,"vertexType":"TRANSIT"},"to":{"name":"boul. Royaume (no. 1409)","stopId":"1:264","stopCode":"264","lon":-71.118186,"lat":48.388875,"arrival":1522703937000,"departure":1522703938000,"zoneId":"NA","stopIndex":4,"stopSequence":5,"vertexType":"TRANSIT"},"legGeometry":{"points":"wthfHn}zpLeLkMxCaIbPzPkL|[eB~GwBlIa@bXIbQO`^aBhTiBlNUfBiI~ZeHzQ","length":15},"routeShortName":"2","routeLongName":"Chic/Jonq via Boul. Royaume","rentedBike":false,"transitLeg":true,"duration":237.0,"steps":[]},{"startTime":1522703938000,"endTime":1522705409000,"departureDelay":0,"arrivalDelay":0,"realTime":false,"distance":1933.4769999999999,"pathway":false,"mode":"WALK","route":"","agencyTimeZoneOffset":-14400000,"interlineWithPreviousLeg":false,"from":{"name":"boul. Royaume (no. 1409)","stopId":"1:264","stopCode":"264","lon":-71.118186,"lat":48.388875,"arrival":1522703937000,"departure":1522703938000,"zoneId":"NA","stopIndex":4,"stopSequence":5,"vertexType":"TRANSIT"},"to":{"name":"Destination","lon":-71.127521,"lat":48.374824,"arrival":1522705409000,"orig":"","vertexType":"NORMAL"},"legGeometry":{"points":"a}ifHbhaqLXy@\\e@xB{FfBkE@EHUJJFF~CfEj@r@~E~ElEpE|@vAHPt@~Aj@d@FDh@\\`BhAJHfAt@~AfAZTZRnD|BhAv@rA~@dBjCHHdDzDrEbENLdCdC|C|CjC`D","length":36},"rentedBike":false,"transitLeg":false,"duration":1471.0,"steps":[{"distance":269.941,"relativeDirection":"DEPART","streetName":"Boulevard du Royaume Ouest","absoluteDirection":"SOUTHEAST","stayOn":false,"area":false,"bogusName":false,"lon":-71.11825025873861,"lat":48.3888149249102,"elevation":[]},{"distance":1663.536,"relativeDirection":"RIGHT","streetName":"Rue Saint-Paul","absoluteDirection":"SOUTHWEST","stayOn":false,"area":false,"bogusName":false,"lon":-71.1153551,"lat":48.3873406,"elevation":[]}]}],"tooSloped":false},{"duration":4581,"startTime":1522703430000,"endTime":1522708011000,"walkTime":1013,"transitTime":3566,"waitingTime":2,"walkDistance":1334.4212932325247,"walkLimitExceeded":false,"elevationLost":0.0,"elevationGained":0.0,"transfers":0,"legs":[{"startTime":1522703430000,"endTime":1522703699000,"departureDelay":0,"arrivalDelay":0,"realTime":false,"distance":348.501,"pathway":false,"mode":"WALK","route":"","agencyTimeZoneOffset":-14400000,"interlineWithPreviousLeg":false,"from":{"name":"Origin","lon":-71.059381,"lat":48.422638,"departure":1522703430000,"orig":"","vertexType":"NORMAL"},"to":{"name":"Cégep de Chicoutimi (voie réservée)","stopId":"1:75","stopCode":"75","lon":-71.055283,"lat":48.422761,"arrival":1522703699000,"departure":1522703700000,"zoneId":"NA","stopIndex":5,"stopSequence":6,"vertexType":"TRANSIT"},"legGeometry":{"points":"_npfHzrupLe@i@WYiAgAaAcASOWWIId@mARc@l@q@NSN_@PsA@c@Iu@","length":16},"rentedBike":false,"transitLeg":false,"duration":269.0,"steps":[{"distance":171.211,"relativeDirection":"DEPART","streetName":"Rue Bégin","absoluteDirection":"NORTHEAST","stayOn":false,"area":false,"bogusName":false,"lon":-71.05853375745859,"lat":48.42224297166872,"elevation":[]},{"distance":177.29,"relativeDirection":"RIGHT","streetName":"Chemin Saint Thomas","absoluteDirection":"SOUTHEAST","stayOn":false,"area":false,"bogusName":false,"lon":-71.0572466,"lat":48.423523700000004,"elevation":[]}]},{"startTime":1522703700000,"endTime":1522706700000,"departureDelay":0,"arrivalDelay":0,"realTime":false,"distance":34776.953262561125,"pathway":false,"mode":"BUS","route":"21S","agencyName":"Société de Transport du Saguenay","agencyUrl":"http://ville.saguenay.ca/fr/services-aux-citoyens/transport-sts","agencyTimeZoneOffset":-14400000,"routeColor":"8B0000","routeType":3,"routeId":"1:21S","routeTextColor":"FFFFFF","interlineWithPreviousLeg":false,"tripBlockId":"53","headsign":"Costco","agencyId":"0","tripId":"1:218475","serviceDate":"20180402","from":{"name":"Cégep de Chicoutimi (voie réservée)","stopId":"1:75","stopCode":"75","lon":-71.055283,"lat":48.422761,"arrival":1522703699000,"departure":1522703700000,"zoneId":"NA","stopIndex":5,"stopSequence":6,"vertexType":"TRANSIT"},"to":{"name":"COSTCO","stopId":"1:1710","stopCode":"1710","lon":-71.085767,"lat":48.382333,"arrival":1522706700000,"departure":1522707000000,"zoneId":"NA","stopIndex":76,"stopSequence":77,"vertexType":"TRANSIT"},"legGeometry":{"points":"wqpfHt~tpLG{@ScBCg@@i@rCmJf@wA`BbBxA|AtCsIFIHAtErE~B~BVRPl@hDhD|@|@JJt@nAP^ZPLb@dHiGRQHG^Q\\Mb@I~CILCHAXKXMXQRQPQT[\\s@^aAtAaERc@zAkEbB}Eh@sBh@qCPcANoAPqBFyAFsA@q@CeBKkDc@cIsF_{@QqBe@cHc@aEeC_Oa@iDk@iIKWvAo@^WXQdDeD|IqJp@u@l@_Ah@{@f@{@FMn@uAt@iBpAgDpQoe@nKwXlGoPlA_DjAsD~@aENy@jCeO\\{ANi@l@cBt@aBr@kAdAuAlEsFtAwBHM`B}CdAmCvEgMrEaMhCeHhJ}VjH{RpBqFzJcXfAwCfAmCfCqGzHeSjJeVhOe`@xI}TvNc_@`ImS`JqU~HkS~Mo]|JiWdKwWpNy^zJcWfPcb@d@{AxBgHnCoJtEgPJ[jA{DpAyDl@uA?AnAcCnQsYxKqQfAoBx@_B`LsWtEsKzLcYzDaJ\\m@^g@b@_@d@[xDyAbFiBvBw@tAc@nDoAiAcJK_Ag@eCEIEKv@CD@FBBBLf@Jh@?FF~@?JABADA@IF[ZhAbJoDnAuAb@l@fFpC|UH`@^dBv@fEn@rDBLXtBd@fEDVlAtL\\`Ft@dLb@zIz@`Rd@~J@XFz@ZrDvBfP|AjLtDbWXxANbAFdBtEl]L`ANdBJrCBhB?lBElBGhAIjAMrAS~AaBfKOvAOvAEpA?\\Ah@?r@@l@Dp@Dv@Ft@RnAP~@Tz@vKb^f@bBz@~CZrAl@xCXdBPz@j@~E|AvObBfQh@fGTbEJfEChE?^KvGIpBSfDIvAg@zFq@dGi@rCc@`B_@lAu@~Ba@fA_@~@eW`l@aPz^wB|E}A|Eg@rCe@jDk@~IcAtSS|CSbCIx@UvB]bCm@rDoAxFi@rByBpGSl@uRvh@eD`JUt@Qr@YjBIbAG|@E~@CpA?xADvArA`Q`BnThCz\\V|HCBCBCDADCBAFAD?DAF?F?D?F?D@D?F@D@DBD@D@BBDBBB@BBB@B@D@B?B@z@lHjAzOH`BB`CEnBQzBa@jCc@~AcXbs@{@lCmcAv_DeFzO}@rB}@bBcCxCsAjAcAr@eClAqJbEoF~BsJdEuJdEAC{TpJmHjCiEhAHz@d@pGE~@I`AKh@Od@_e@rkAUReFdMIXyCtHuBaC","length":345},"routeShortName":"21S","routeLongName":"Term. Chic -> Cégep / UQAC -> Costco","rentedBike":false,"transitLeg":true,"duration":3000.0,"steps":[]},{"startTime":1522707000000,"endTime":1522707266000,"departureDelay":0,"arrivalDelay":0,"realTime":false,"distance":2935.613347917184,"pathway":false,"mode":"BUS","route":"60","agencyName":"Société de Transport du Saguenay","agencyUrl":"http://ville.saguenay.ca/fr/services-aux-citoyens/transport-sts","agencyTimeZoneOffset":-14400000,"routeColor":"00FFFF","routeType":3,"routeId":"1:60","routeTextColor":"000000","interlineWithPreviousLeg":true,"tripBlockId":"53","headsign":"Camping Rocaille","agencyId":"0","tripId":"1:218476","serviceDate":"20180402","from":{"name":"COSTCO","stopId":"1:1710","stopCode":"1710","lon":-71.085767,"lat":48.382333,"arrival":1522706700000,"departure":1522707000000,"zoneId":"NA","stopIndex":0,"stopSequence":1,"vertexType":"TRANSIT"},"to":{"name":"ch. St-Paul (no. 2600)","stopId":"1:1761","stopCode":"1761","lon":-71.120884,"lat":48.38249,"arrival":1522707266000,"departure":1522707267000,"zoneId":"NA","stopIndex":2,"stopSequence":3,"vertexType":"TRANSIT"},"legGeometry":{"points":"uthfHh}zpLoB}Bs@`BjChDZbB`@x@iDvI}@fC_AvC[jAi@`CUbBUxBUdCIlD]to@K`IEt@ElBQlEMrBWvDa@jEq@nFa@rC_AnFi@bCo@pCiAbEyCdJNZPTfApA~DjFxFfFzAdBbA`BlA|Bt@z@z@x@zAhA","length":41},"routeShortName":"60","routeLongName":"Portage des Roches Nord","rentedBike":false,"transitLeg":true,"duration":266.0,"steps":[]},{"startTime":1522707267000,"endTime":1522708011000,"departureDelay":0,"arrivalDelay":0,"realTime":false,"distance":985.903,"pathway":false,"mode":"WALK","route":"","agencyTimeZoneOffset":-14400000,"interlineWithPreviousLeg":false,"from":{"name":"ch. St-Paul (no. 2600)","stopId":"1:1761","stopCode":"1761","lon":-71.120884,"lat":48.38249,"arrival":1522707266000,"departure":1522707267000,"zoneId":"NA","stopIndex":2,"stopSequence":3,"vertexType":"TRANSIT"},"to":{"name":"Destination","lon":-71.127521,"lat":48.374824,"arrival":1522708011000,"orig":"","vertexType":"NORMAL"},"legGeometry":{"points":"cuhfHhwaqLfAt@~AfAZTZRnD|BhAv@rA~@dBjCHHdDzDrEbENLdCdC|C|CjC`D","length":16},"rentedBike":false,"transitLeg":false,"duration":744.0,"steps":[{"distance":985.903,"relativeDirection":"DEPART","streetName":"Rue Saint-Paul","absoluteDirection":"SOUTHWEST","stayOn":false,"area":false,"bogusName":false,"lon":-71.12068418959143,"lat":48.38242365429643,"elevation":[]}]}],"tooSloped":false}]},"debugOutput":{"precalculationTime":30,"pathCalculationTime":94,"pathTimes":[37,29,28],"renderingTime":0,"totalTime":124,"timedOut":false},"elevationMetadata":{"ellipsoidToGeoidDifference":-28.885904201182168,"geoidElevation":false}}