{"requestParameters":{"date":"2018/04/02","walkSpeed":"1.33","walkReluctance":"2.0","fromPlace":"48.403952,-71.054642","maxWalkDistance":"3000","waitReluctance":"1.0","carSpeed":"33","numItineraries":"3","waitAtBeginningFactor":"0.4","mode":"TRANSIT,WALK","ignoreRealtimeUpdates":"false","stairsReluctance":"2.0","toPlace":"48.402377,-71.050661","time":"17:30:00"},"plan":{"date":1522704600000,"from":{"name":"Origin","lon":-71.054642,"lat":48.403952,"orig":"","vertexType":"NORMAL"},"to":{"name":"Destination","lon":-71.050661,"lat":48.402377,"orig":"","vertexType":"NORMAL"},"itineraries":[{"duration":411,"startTime":1522704600000,"endTime":1522705011000,"walkTime":411,"transitTime":0,"waitingTime":0,"walkDistance":511.98774435613495,"walkLimitExceeded":false,"elevationLost":0.0,"elevationGained":0.0,"transfers":0,"legs":[{"startTime":1522704600000,"endTime":1522705011000,"departureDelay":0,"arrivalDelay":0,"realTime":false,"distance":511.84000000000003,"pathway":false,"mode":"WALK","route":"","agencyTimeZoneOffset":-14400000,"interlineWithPreviousLeg":false,"from":{"name":"Origin","lon":-71.054642,"lat":48.403952,"departure":1522704600000,"orig":"","vertexType":"NORMAL"},"to":{"name":"Destination","lon":-71.050661,"lat":48.402377,"arrival":1522705011000,"orig":"","vertexType":"NORMAL"},"legGeometry":{"points":"{zlfHhytpLKMS]U_@S]Yc@Vu@Ng@QSj@eBDM?q@A{Ad@MNGrBm@jEiA^KYuB","length":19},"rentedBike":false,"transitLeg":false,"duration":411.0,"steps":[{"distance":233.988,"relativeDirection":"DEPART","streetName":"parking aisle","absoluteDirection":"NORTHEAST","stayOn":false,"area":false,"bogusName":false,"lon":-71.05444515294332,"lat":48.40382759190054,"elevation":[]},{"distance":232.007,"relativeDirection":"RIGHT","streetName":"Rue des Champs-Élysées","absoluteDirection":"SOUTH","stayOn":false,"area":false,"bogusName":false,"lon":-71.0518792,"lat":48.4039711,"elevation":[]},{"distance":45.845,"relativeDirection":"LEFT","streetName":"Rue des Saguenéens","absoluteDirection":"EAST","stayOn":false,"area":false,"bogusName":false,"lon":-71.0511074,"lat":48.401948700000005,"elevation":[]}]}],"tooSloped":false},{"duration":297,"startTime":1522705316000,"endTime":1522705613000,"walkTime":273,"transitTime":22,"waitingTime":2,"walkDistance":329.27574435613496,"walkLimitExceeded":false,"elevationLost":0.0,"elevationGained":0.0,"transfers":0,"legs":[{"startTime":1522705316000,"endTime":1522705536000,"departureDelay":0,"arrivalDelay":0,"realTime":false,"distance":265.091,"pathway":false,"mode":"WALK","route":"","agencyTimeZoneOffset":-14400000,"interlineWithPreviousLeg":false,"from":{"name":"Origin","lon":-71.054642,"lat":48.403952,"departure":1522705316000,"orig":"","vertexType":"NORMAL"},"to":{"name":"Champs-Élysées (no. 1415)","stopId":"1:1925","stopCode":"1925","lon":-71.051931,"lat":48.403672,"arrival":1522705536000,"departure":1522705537000,"zoneId":"NA","stopIndex":18,"stopSequence":19,"vertexType":"TRANSIT"},"legGeometry":{"points":"{zlfHhytpLKMS]U_@S]Yc@Vu@Ng@QSj@eBDM?q@A{Ad@MNG","length":15},"rentedBike":false,"transitLeg":false,"duration":220.0,"steps":[{"distance":233.988,"relativeDirection":"DEPART","streetName":"parking aisle","absoluteDirection":"NORTHEAST","stayOn":false,"area":false,"bogusName":false,"lon":-71.05444515294332,"lat":48.40382759190054,"elevation":[]},{"distance":31.103,"relativeDirection":"RIGHT","streetName":"Rue des Champs-Élysées","absoluteDirection":"SOUTH","stayOn":false,"area":false,"bogusName":false,"lon":-71.0518792,"lat":48.4039711,"elevation":[]}]},{"startTime":1522705537000,"endTime":1522705559000,"departureDelay":0,"arrivalDelay":0,"realTime":false,"distance":182.35527191761264,"pathway":false,"mode":"BUS","route":"175","agencyName":"Société de Transport du Saguenay","agencyUrl":"http://ville.saguenay.ca/fr/services-aux-citoyens/transport-sts","agencyTimeZoneOffset":-14400000,"routeColor":"FF00FF","routeType":3,"routeId":"1:175","routeTextColor":"FFFFFF","interlineWithPreviousLeg":false,"tripBlockId":"77","headsign":"Costco","agencyId":"0","tripId":"1:218639","serviceDate":"20180402","from":{"name":"Champs-Élysées (no. 1415)","stopId":"1:1925","stopCode":"1925","lon":-71.051931,"lat":48.403672,"arrival":1522705536000,"departure":1522705537000,"zoneId":"NA","stopIndex":18,"stopSequence":19,"vertexType":"TRANSIT"},"to":{"name":"Champs-Élysées / Saguenéens","stopId":"1:84","stopCode":"84","lon":-71.05132,"lat":48.402083,"arrival":1522705559000,"departure":1522705560000,"zoneId":"NA","stopIndex":19,"stopSequence":20,"vertexType":"TRANSIT"},"legGeometry":{"points":"azlfHvhtpL~HsB","length":2},"routeShortName":"175","routeLongName":"Term. Chic / Costco","rentedBike":false,"transitLeg":true,"duration":22.0,"steps":[]},{"startTime":1522705560000,"endTime":1522705613000,"departureDelay":0,"arrivalDelay":0,"realTime":false,"distance":64.037,"pathway":false,"mode":"WALK","route":"","agencyTimeZoneOffset":-14400000,"interlineWithPreviousLeg":false,"from":{"name":"Champs-Élysées / Saguenéens","stopId":"1:84","stopCode":"84","lon":-71.05132,"lat":48.402083,"arrival":1522705559000,"departure":1522705560000,"zoneId":"NA","stopIndex":19,"stopSequence":20,"vertexType":"TRANSIT"},"to":{"name":"Destination","lon":-71.050661,"lat":48.402377,"arrival":1522705613000,"orig":"","vertexType":"NORMAL"},"legGeometry":{"points":"cplfHxdtpL^KYuB","length":3},"rentedBike":false,"transitLeg":false,"duration":53.0,"steps":[{"distance":18.192,"relativeDirection":"DEPART","streetName":"Rue des Champs-Élysées","absoluteDirection":"SOUTH","stayOn":false,"area":false,"bogusName":false,"lon":-71.05116509910528,"lat":48.402107765696,"elevation":[]},{"distance":45.845,"relativeDirection":"LEFT","streetName":"Rue des Saguenéens","absoluteDirection":"EAST","stayOn":false,"area":false,"bogusName":false,"lon":-71.0511074,"lat":48.401948700000005,"elevation":[]}]}],"tooSloped":false}]},"debugOutput":{"precalculationTime":41,"pathCalculationTime":17,"pathTimes":[4,9,4],"renderingTime":0,"totalTime":58,"timedOut":false},"elevationMetadata":{"ellipsoidToGeoidDifference":-28.885904201182168,"geoidElevation":false}}