{"requestParameters":{"date":"2018/04/02","walkSpeed":"1.33","walkReluctance":"2.0","fromPlace":"48.444751,-70.994781","maxWalkDistance":"3000","waitReluctance":"1.0","carSpeed":"33","numItineraries":"3","waitAtBeginningFactor":"0.4","mode":"TRANSIT,WALK","ignoreRealtimeUpdates":"false","stairsReluctance":"2.0","toPlace":"48.387884,-71.0793","time":"7:0:00"},"plan":{"date":1522666800000,"from":{"name":"Origin","lon":-70.994781,"lat":48.444751,"orig":"","vertexType":"NORMAL"},"to":{"name":"Destination","lon":-71.0793,"lat":48.387884,"orig":"","vertexType":"NORMAL"},"itineraries":[{"duration":4197,"startTime":1522667787000,"endTime":1522671984000,"walkTime":2322,"transitTime":1376,"waitingTime":499,"walkDistance":3045.7687593919213,"walkLimitExceeded":false,"elevationLost":0.0,"elevationGained":0.0,"transfers":1,"legs":[{"startTime":1522667787000,"endTime":1522669997000,"departureDelay":0,"arrivalDelay":0,"realTime":false,"distance":2903.2749999999996,"pathway":false,"mode":"WALK","route":"","agencyTimeZoneOffset":-14400000,"interlineWithPreviousLeg":false,"from":{"name":"Origin","lon":-70.994781,"lat":48.444751,"departure":1522667787000,"orig":"","vertexType":"NORMAL"},"to":{"name":"Perche / Aunis","stopId":"1:1528","stopCode":"1528","lon":-71.021111,"lat":48.432004,"arrival":1522669997000,"departure":1522669998000,"zoneId":"NA","stopIndex":15,"stopSequence":16,"vertexType":"TRANSIT"},"legGeometry":{"points":"{ytfHfbipLpDrCXDF?~@hHNn@Tb@BBrEnDtAdB`FxJhBbHn@`E^xEXpEHh@\\lC^xAv@bDm@tA{@lCa@zA{@~CUvA?j@TpBh@|DnAtItBfKj@xBf@tA`BfF|@dCx@vAXVhAbAVDf@Pv@\\\\LJDt@^p@v@r@x@hApAZ\\~@lBp@nAT`@XpAf@e@Rc@pBmGxBbBHU","length":55},"rentedBike":false,"transitLeg":false,"duration":2210.0,"steps":[{"distance":132.371,"relativeDirection":"DEPART","streetName":"Chemin de l'Estran","absoluteDirection":"SOUTHWEST","stayOn":false,"area":false,"bogusName":false,"lon":-70.99443520481975,"lat":48.444625567620655,"elevation":[]},{"distance":1076.74,"relativeDirection":"RIGHT","streetName":"Rang Saint-Martin","absoluteDirection":"WEST","stayOn":false,"area":false,"bogusName":false,"lon":-70.9952056,"lat":48.443562,"elevation":[]},{"distance":1445.9479999999999,"relativeDirection":"RIGHT","streetName":"Boulevard Renaud","absoluteDirection":"NORTHWEST","stayOn":false,"area":false,"bogusName":false,"lon":-71.00717900000001,"lat":48.4387108,"elevation":[]},{"distance":161.902,"relativeDirection":"LEFT","streetName":"Rue du Poitou","absoluteDirection":"SOUTHEAST","stayOn":false,"area":false,"bogusName":false,"lon":-71.02238820000001,"lat":48.433591400000005,"elevation":[]},{"distance":77.065,"relativeDirection":"RIGHT","streetName":"Rue d'Aunis","absoluteDirection":"SOUTHWEST","stayOn":false,"area":false,"bogusName":false,"lon":-71.020663,"lat":48.432720100000004,"elevation":[]},{"distance":9.249,"relativeDirection":"LEFT","streetName":"Rue du Perche","absoluteDirection":"SOUTHEAST","stayOn":false,"area":false,"bogusName":false,"lon":-71.0211608,"lat":48.432110800000004,"elevation":[]}]},{"startTime":1522669998000,"endTime":1522670792000,"departureDelay":0,"arrivalDelay":0,"realTime":false,"distance":4684.9550459288785,"pathway":false,"mode":"BUS","route":"12","agencyName":"Société de Transport du Saguenay","agencyUrl":"http://ville.saguenay.ca/fr/services-aux-citoyens/transport-sts","agencyTimeZoneOffset":-14400000,"routeColor":"556B2F","routeType":3,"routeId":"1:12","routeTextColor":"FFFFFF","interlineWithPreviousLeg":false,"tripBlockId":"27","headsign":"Terminus UQAC","agencyId":"0","tripId":"1:218002","serviceDate":"20180402","from":{"name":"Perche / Aunis","stopId":"1:1528","stopCode":"1528","lon":-71.021111,"lat":48.432004,"arrival":1522669997000,"departure":1522669998000,"zoneId":"NA","stopIndex":15,"stopSequence":16,"vertexType":"TRANSIT"},"to":{"name":"Émile Girardin / Roitelets","stopId":"1:253","stopCode":"253","lon":-71.050677,"lat":48.406726,"arrival":1522670792000,"departure":1522671289000,"zoneId":"NA","stopIndex":27,"stopSequence":28,"vertexType":"TRANSIT"},"legGeometry":{"points":"_krfH~hnpLvGsKlIrH`JlH`EfDnOdIdGlGjL|BzBiLv@}L`b@fNvVvrCdRvM","length":13},"routeShortName":"12","routeLongName":"Rivière du Moulin","rentedBike":false,"transitLeg":true,"duration":794.0,"steps":[]},{"startTime":1522671289000,"endTime":1522671871000,"departureDelay":0,"arrivalDelay":0,"realTime":false,"distance":3346.552694453074,"pathway":false,"mode":"BUS","route":"175","agencyName":"Société de Transport du Saguenay","agencyUrl":"http://ville.saguenay.ca/fr/services-aux-citoyens/transport-sts","agencyTimeZoneOffset":-14400000,"routeColor":"FF00FF","routeType":3,"routeId":"1:175","routeTextColor":"FFFFFF","interlineWithPreviousLeg":false,"tripBlockId":"79","headsign":"Costco","agencyId":"0","tripId":"1:218649","serviceDate":"20180402","from":{"name":"Émile Girardin / Roitelets","stopId":"1:253","stopCode":"253","lon":-71.050677,"lat":48.406726,"arrival":1522670792000,"departure":1522671289000,"zoneId":"NA","stopIndex":17,"stopSequence":18,"vertexType":"TRANSIT"},"to":{"name":"boul. Talbot / Néron","stopId":"1:73","stopCode":"73","lon":-71.077646,"lat":48.387728,"arrival":1522671871000,"departure":1522671872000,"zoneId":"NA","stopIndex":28,"stopSequence":29,"vertexType":"TRANSIT"},"legGeometry":{"points":"_lmfHhatpLr@~Gx@]PEr@ObACn@FrBb@|@Ch@Kx@U~HsB^KZ|DJpII~Fa@rFUzBi@bDUxAm@nCcAlDM^RTfD`DjF`FjCrCrAvAbCfDjIfMdAzAfFpHd@n@nC`DlXv[b@f@mCtHv@v@p@r@_@p@uAcBjDoJhAzApBrBrFvGjDdE","length":46},"routeShortName":"175","routeLongName":"Term. Chic / Costco","rentedBike":false,"transitLeg":true,"duration":582.0,"steps":[]},{"startTime":1522671872000,"endTime":1522671984000,"departureDelay":0,"arrivalDelay":0,"realTime":false,"distance":142.29,"pathway":false,"mode":"WALK","route":"","agencyTimeZoneOffset":-14400000,"interlineWithPreviousLeg":false,"from":{"name":"boul. Talbot / Néron","stopId":"1:73","stopCode":"73","lon":-71.077646,"lat":48.387728,"arrival":1522671871000,"departure":1522671872000,"zoneId":"NA","stopIndex":28,"stopSequence":29,"vertexType":"TRANSIT"},"to":{"name":"Destination","lon":-71.0793,"lat":48.387884,"arrival":1522671984000,"orig":"","vertexType":"NORMAL"},"legGeometry":{"points":"}uifHtiypLHLXZQ`@Uh@wAlD","length":6},"rentedBike":false,"transitLeg":false,"duration":112.0,"steps":[{"distance":25.279,"relativeDirection":"DEPART","streetName":"Boulevard Talbot","absoluteDirection":"SOUTHWEST","stayOn":false,"area":false,"bogusName":false,"lon":-71.077546298919,"lat":48.387678670420215,"elevation":[]},{"distance":117.011,"relativeDirection":"RIGHT","streetName":"Rue Néron","absoluteDirection":"NORTHWEST","stayOn":false,"area":false,"bogusName":false,"lon":-71.0777509,"lat":48.3874964,"elevation":[]}]}],"tooSloped":false},{"duration":2534,"startTime":1522670350000,"endTime":1522672884000,"walkTime":851,"transitTime":1552,"waitingTime":131,"walkDistance":1114.6381954861986,"walkLimitExceeded":false,"elevationLost":0.0,"elevationGained":0.0,"transfers":1,"legs":[{"startTime":1522670350000,"endTime":1522670819000,"departureDelay":0,"arrivalDelay":0,"realTime":false,"distance":616.476,"pathway":false,"mode":"WALK","route":"","agencyTimeZoneOffset":-14400000,"interlineWithPreviousLeg":false,"from":{"name":"Origin","lon":-70.994781,"lat":48.444751,"departure":1522670350000,"orig":"","vertexType":"NORMAL"},"to":{"name":"Chemin des Villas","stopId":"1:258","stopCode":"258","lon":-70.996957,"lat":48.446369,"arrival":1522670819000,"departure":1522670820000,"zoneId":"NA","stopIndex":7,"stopSequence":8,"vertexType":"TRANSIT"},"legGeometry":{"points":"{ytfHfbipL_As@oJaI]pDO`D?z@lBfN","length":7},"rentedBike":false,"transitLeg":false,"duration":469.0,"steps":[{"distance":276.453,"relativeDirection":"DEPART","streetName":"Chemin de l'Estran","absoluteDirection":"NORTHEAST","stayOn":false,"area":false,"bogusName":false,"lon":-70.99443520481975,"lat":48.444625567620655,"elevation":[]},{"distance":340.023,"relativeDirection":"LEFT","streetName":"Chemin des Villas","absoluteDirection":"WEST","stayOn":false,"area":false,"bogusName":false,"lon":-70.99256960000001,"lat":48.446781800000004,"elevation":[]}]},{"startTime":1522670820000,"endTime":1522671684000,"departureDelay":0,"arrivalDelay":0,"realTime":false,"distance":5659.920748199047,"pathway":false,"mode":"BUS","route":"13","agencyName":"Société de Transport du Saguenay","agencyUrl":"http://ville.saguenay.ca/fr/services-aux-citoyens/transport-sts","agencyTimeZoneOffset":-14400000,"routeColor":"00FFFF","routeType":3,"routeId":"1:13","routeTextColor":"000000","interlineWithPreviousLeg":false,"tripBlockId":"38","headsign":"Terminus Chicoutimi","agencyId":"0","tripId":"1:218332","serviceDate":"20180402","from":{"name":"Chemin des Villas","stopId":"1:258","stopCode":"258","lon":-70.996957,"lat":48.446369,"arrival":1522670819000,"departure":1522670820000,"zoneId":"NA","stopIndex":7,"stopSequence":8,"vertexType":"TRANSIT"},"to":{"name":"Murdock / Baillargeon","stopId":"1:356","stopCode":"356","lon":-71.047188,"lat":48.413871,"arrival":1522671684000,"departure":1522671684000,"zoneId":"NA","stopIndex":9,"stopSequence":10,"vertexType":"TRANSIT"},"legGeometry":{"points":"keufHhripLoBiNLgELqARsBbDlC|LzJ\\FnAnI\\n@rEjDpAdB~ErJlBhHr@jE`@fFRxDh@xDxA~FvBpFzCfE~EnFzItIpD|BxDrBtJhC`N~DjFtBjCbB|IpFhKhGtDp@dC\\LqA\\wAn@uA`GyEBCVUlAy@j@a@v@MlAVfAt@tCfGd@nALbAD~AKFCNBXNHLEB[CQMGEaBOcAc@mAyCmGiAu@kAYw@N{A`A{HrGq@tA]vAKrA|Aj@h@Xh@f@LfAWnBdEjCnD|BxFrD`M`IzCTxDi@l@pK|BzNZfBf@vEXfFfBjXhB`X~AtUJtDOpIq@jGStA]lBuB|GiEmEoBmBaDmDCE","length":97},"routeShortName":"13","routeLongName":"Rang St-Martin / St-Jospeh","rentedBike":false,"transitLeg":true,"duration":864.0,"steps":[]},{"startTime":1522671684000,"endTime":1522671954000,"departureDelay":0,"arrivalDelay":0,"realTime":false,"distance":355.794,"pathway":false,"mode":"WALK","route":"","agencyTimeZoneOffset":-14400000,"interlineWithPreviousLeg":false,"from":{"name":"Murdock / Baillargeon","stopId":"1:356","stopCode":"356","lon":-71.047188,"lat":48.413871,"arrival":1522671684000,"departure":1522671684000,"zoneId":"NA","stopIndex":9,"stopSequence":10,"vertexType":"TRANSIT"},"to":{"name":"boul. Université / Murdock","stopId":"1:80","stopCode":"80","lon":-71.050111,"lat":48.411498,"arrival":1522671954000,"departure":1522672083000,"zoneId":"NA","stopIndex":14,"stopSequence":15,"vertexType":"TRANSIT"},"legGeometry":{"points":"}ynfHplspL@Bh@j@PRdBlBdEbEnBrBVPUn@","length":9},"rentedBike":false,"transitLeg":false,"duration":270.0,"steps":[{"distance":334.192,"relativeDirection":"DEPART","streetName":"Rue Murdock","absoluteDirection":"SOUTHWEST","stayOn":false,"area":false,"bogusName":false,"lon":-71.04728970304149,"lat":48.413917899325945,"elevation":[]},{"distance":21.602,"relativeDirection":"RIGHT","streetName":"Boulevard de l'Université","absoluteDirection":"NORTHWEST","stayOn":false,"area":false,"bogusName":false,"lon":-71.0498268,"lat":48.4114298,"elevation":[]}]},{"startTime":1522672083000,"endTime":1522672771000,"departureDelay":0,"arrivalDelay":0,"realTime":false,"distance":3966.0823207651556,"pathway":false,"mode":"BUS","route":"175","agencyName":"Société de Transport du Saguenay","agencyUrl":"http://ville.saguenay.ca/fr/services-aux-citoyens/transport-sts","agencyTimeZoneOffset":-14400000,"routeColor":"FF00FF","routeType":3,"routeId":"1:175","routeTextColor":"FFFFFF","interlineWithPreviousLeg":false,"tripBlockId":"6","headsign":"Costco","agencyId":"0","tripId":"1:217288","serviceDate":"20180402","from":{"name":"boul. Université / Murdock","stopId":"1:80","stopCode":"80","lon":-71.050111,"lat":48.411498,"arrival":1522671954000,"departure":1522672083000,"zoneId":"NA","stopIndex":14,"stopSequence":15,"vertexType":"TRANSIT"},"to":{"name":"boul. Talbot / Néron","stopId":"1:73","stopCode":"73","lon":-71.077646,"lat":48.387728,"arrival":1522672771000,"departure":1522672772000,"zoneId":"NA","stopIndex":28,"stopSequence":29,"vertexType":"TRANSIT"},"legGeometry":{"points":"aknfH~}spLr@sBhCsKz@dAjB|@dM`GzCvAXrCr@~Gx@]PEr@ObACn@FrBb@|@Ch@Kx@U~HsB^KZ|DJpII~Fa@rFUzBi@bDUxAm@nCcAlDM^RTfD`DjF`FjCrCrAvAbCfDjIfMdAzAfFpHd@n@nC`DlXv[b@f@mCtHv@v@p@r@_@p@uAcBjDoJhAzApBrBrFvGjDdE","length":53},"routeShortName":"175","routeLongName":"Term. Chic / Costco","rentedBike":false,"transitLeg":true,"duration":688.0,"steps":[]},{"startTime":1522672772000,"endTime":1522672884000,"departureDelay":0,"arrivalDelay":0,"realTime":false,"distance":142.29,"pathway":false,"mode":"WALK","route":"","agencyTimeZoneOffset":-14400000,"interlineWithPreviousLeg":false,"from":{"name":"boul. Talbot / Néron","stopId":"1:73","stopCode":"73","lon":-71.077646,"lat":48.387728,"arrival":1522672771000,"departure":1522672772000,"zoneId":"NA","stopIndex":28,"stopSequence":29,"vertexType":"TRANSIT"},"to":{"name":"Destination","lon":-71.0793,"lat":48.387884,"arrival":1522672884000,"orig":"","vertexType":"NORMAL"},"legGeometry":{"points":"}uifHtiypLHLXZQ`@Uh@wAlD","length":6},"rentedBike":false,"transitLeg":false,"duration":112.0,"steps":[{"distance":25.279,"relativeDirection":"DEPART","streetName":"Boulevard Talbot","absoluteDirection":"SOUTHWEST","stayOn":false,"area":false,"bogusName":false,"lon":-71.077546298919,"lat":48.387678670420215,"elevation":[]},{"distance":117.011,"relativeDirection":"RIGHT","streetName":"Rue Néron","absoluteDirection":"NORTHWEST","stayOn":false,"area":false,"bogusName":false,"lon":-71.0777509,"lat":48.3874964,"elevation":[]}]}],"tooSloped":false},{"duration":4197,"startTime":1522669587000,"endTime":1522673784000,"walkTime":2322,"transitTime":1376,"waitingTime":499,"walkDistance":3045.7687593919213,"walkLimitExceeded":false,"elevationLost":0.0,"elevationGained":0.0,"transfers":1,"legs":[{"startTime":1522669587000,"endTime":1522671797000,"departureDelay":0,"arrivalDelay":0,"realTime":false,"distance":2903.2749999999996,"pathway":false,"mode":"WALK","route":"","agencyTimeZoneOffset":-14400000,"interlineWithPreviousLeg":false,"from":{"name":"Origin","lon":-70.994781,"lat":48.444751,"departure":1522669587000,"orig":"","vertexType":"NORMAL"},"to":{"name":"Perche / Aunis","stopId":"1:1528","stopCode":"1528","lon":-71.021111,"lat":48.432004,"arrival":1522671797000,"departure":1522671798000,"zoneId":"NA","stopIndex":15,"stopSequence":16,"vertexType":"TRANSIT"},"legGeometry":{"points":"{ytfHfbipLpDrCXDF?~@hHNn@Tb@BBrEnDtAdB`FxJhBbHn@`E^xEXpEHh@\\lC^xAv@bDm@tA{@lCa@zA{@~CUvA?j@TpBh@|DnAtItBfKj@xBf@tA`BfF|@dCx@vAXVhAbAVDf@Pv@\\\\LJDt@^p@v@r@x@hApAZ\\~@lBp@nAT`@XpAf@e@Rc@pBmGxBbBHU","length":55},"rentedBike":false,"transitLeg":false,"duration":2210.0,"steps":[{"distance":132.371,"relativeDirection":"DEPART","streetName":"Chemin de l'Estran","absoluteDirection":"SOUTHWEST","stayOn":false,"area":false,"bogusName":false,"lon":-70.99443520481975,"lat":48.444625567620655,"elevation":[]},{"distance":1076.74,"relativeDirection":"RIGHT","streetName":"Rang Saint-Martin","absoluteDirection":"WEST","stayOn":false,"area":false,"bogusName":false,"lon":-70.9952056,"lat":48.443562,"elevation":[]},{"distance":1445.9479999999999,"relativeDirection":"RIGHT","streetName":"Boulevard Renaud","absoluteDirection":"NORTHWEST","stayOn":false,"area":false,"bogusName":false,"lon":-71.00717900000001,"lat":48.4387108,"elevation":[]},{"distance":161.902,"relativeDirection":"LEFT","streetName":"Rue du Poitou","absoluteDirection":"SOUTHEAST","stayOn":false,"area":false,"bogusName":false,"lon":-71.02238820000001,"lat":48.433591400000005,"elevation":[]},{"distance":77.065,"relativeDirection":"RIGHT","streetName":"Rue d'Aunis","absoluteDirection":"SOUTHWEST","stayOn":false,"area":false,"bogusName":false,"lon":-71.020663,"lat":48.432720100000004,"elevation":[]},{"distance":9.249,"relativeDirection":"LEFT","streetName":"Rue du Perche","absoluteDirection":"SOUTHEAST","stayOn":false,"area":false,"bogusName":false,"lon":-71.0211608,"lat":48.432110800000004,"elevation":[]}]},{"startTime":1522671798000,"endTime":1522672592000,"departureDelay":0,"arrivalDelay":0,"realTime":false,"distance":4684.9550459288785,"pathway":false,"mode":"BUS","route":"12","agencyName":"Société de Transport du Saguenay","agencyUrl":"http://ville.saguenay.ca/fr/services-aux-citoyens/transport-sts","agencyTimeZoneOffset":-14400000,"routeColor":"556B2F","routeType":3,"routeId":"1:12","routeTextColor":"FFFFFF","interlineWithPreviousLeg":false,"tripBlockId":"28","headsign":"Terminus UQAC","agencyId":"0","tripId":"1:218029","serviceDate":"20180402","from":{"name":"Perche / Aunis","stopId":"1:1528","stopCode":"1528","lon":-71.021111,"lat":48.432004,"arrival":1522671797000,"departure":1522671798000,"zoneId":"NA","stopIndex":15,"stopSequence":16,"vertexType":"TRANSIT"},"to":{"name":"Émile Girardin / Roitelets","stopId":"1:253","stopCode":"253","lon":-71.050677,"lat":48.406726,"arrival":1522672592000,"departure":1522673089000,"zoneId":"NA","stopIndex":27,"stopSequence":28,"vertexType":"TRANSIT"},"legGeometry":{"points":"_krfH~hnpLvGsKlIrH`JlH`EfDnOdIdGlGjL|BzBiLv@}L`b@fNvVvrCdRvM","length":13},"routeShortName":"12","routeLongName":"Rivière du Moulin","rentedBike":false,"transitLeg":true,"duration":794.0,"steps":[]},{"startTime":1522673089000,"endTime":1522673671000,"departureDelay":0,"arrivalDelay":0,"realTime":false,"distance":3346.552694453074,"pathway":false,"mode":"BUS","route":"175","agencyName":"Société de Transport du Saguenay","agencyUrl":"http://ville.saguenay.ca/fr/services-aux-citoyens/transport-sts","agencyTimeZoneOffset":-14400000,"routeColor":"FF00FF","routeType":3,"routeId":"1:175","routeTextColor":"FFFFFF","interlineWithPreviousLeg":false,"tripBlockId":"76","headsign":"Costco","agencyId":"0","tripId":"1:218632","serviceDate":"20180402","from":{"name":"Émile Girardin / Roitelets","stopId":"1:253","stopCode":"253","lon":-71.050677,"lat":48.406726,"arrival":1522672592000,"departure":1522673089000,"zoneId":"NA","stopIndex":17,"stopSequence":18,"vertexType":"TRANSIT"},"to":{"name":"boul. Talbot / Néron","stopId":"1:73","stopCode":"73","lon":-71.077646,"lat":48.387728,"arrival":1522673671000,"departure":1522673672000,"zoneId":"NA","stopIndex":28,"stopSequence":29,"vertexType":"TRANSIT"},"legGeometry":{"points":"_lmfHhatpLr@~Gx@]PEr@ObACn@FrBb@|@Ch@Kx@U~HsB^KZ|DJpII~Fa@rFUzBi@bDUxAm@nCcAlDM^RTfD`DjF`FjCrCrAvAbCfDjIfMdAzAfFpHd@n@nC`DlXv[b@f@mCtHv@v@p@r@_@p@uAcBjDoJhAzApBrBrFvGjDdE","length":46},"routeShortName":"175","routeLongName":"Term. Chic / Costco","rentedBike":false,"transitLeg":true,"duration":582.0,"steps":[]},{"startTime":1522673672000,"endTime":1522673784000,"departureDelay":0,"arrivalDelay":0,"realTime":false,"distance":142.29,"pathway":false,"mode":"WALK","route":"","agencyTimeZoneOffset":-14400000,"interlineWithPreviousLeg":false,"from":{"name":"boul. Talbot / Néron","stopId":"1:73","stopCode":"73","lon":-71.077646,"lat":48.387728,"arrival":1522673671000,"departure":1522673672000,"zoneId":"NA","stopIndex":28,"stopSequence":29,"vertexType":"TRANSIT"},"to":{"name":"Destination","lon":-71.0793,"lat":48.387884,"arrival":1522673784000,"orig":"","vertexType":"NORMAL"},"legGeometry":{"points":"}uifHtiypLHLXZQ`@Uh@wAlD","length":6},"rentedBike":false,"transitLeg":false,"duration":112.0,"steps":[{"distance":25.279,"relativeDirection":"DEPART","streetName":"Boulevard Talbot","absoluteDirection":"SOUTHWEST","stayOn":false,"area":false,"bogusName":false,"lon":-71.077546298919,"lat":48.387678670420215,"elevation":[]},{"distance":117.011,"relativeDirection":"RIGHT","streetName":"Rue Néron","absoluteDirection":"NORTHWEST","stayOn":false,"area":false,"bogusName":false,"lon":-71.0777509,"lat":48.3874964,"elevation":[]}]}],"tooSloped":false}]},"debugOutput":{"precalculationTime":11,"pathCalculationTime":13,"pathTimes":[3,5,5],"renderingTime":0,"totalTime":24,"timedOut":false},"elevationMetadata":{"ellipsoidToGeoidDifference":-28.885904201182168,"geoidElevation":false}}