{"requestParameters":{"date":"2018/04/02","walkSpeed":"1.33","walkReluctance":"2.0","fromPlace":"48.406341,-71.06642","maxWalkDistance":"3000","waitReluctance":"1.0","carSpeed":"33","numItineraries":"3","waitAtBeginningFactor":"0.4","mode":"TRANSIT,WALK","ignoreRealtimeUpdates":"false","stairsReluctance":"2.0","toPlace":"48.42282,-71.074954","time":"18:30:00"},"plan":{"date":1522708200000,"from":{"name":"Origin","lon":-71.06642,"lat":48.406341,"orig":"","vertexType":"NORMAL"},"to":{"name":"Destination","lon":-71.074954,"lat":48.42282,"orig":"","vertexType":"NORMAL"},"itineraries":[{"duration":1758,"startTime":1522708284000,"endTime":1522710042000,"walkTime":444,"transitTime":1312,"waitingTime":2,"walkDistance":549.1694736780967,"walkLimitExceeded":false,"elevationLost":0.0,"elevationGained":0.0,"transfers":0,"legs":[{"startTime":1522708284000,"endTime":1522708433000,"departureDelay":0,"arrivalDelay":0,"realTime":false,"distance":184.14499999999998,"pathway":false,"mode":"WALK","route":"","agencyTimeZoneOffset":-14400000,"interlineWithPreviousLeg":false,"from":{"name":"Origin","lon":-71.06642,"lat":48.406341,"departure":1522708284000,"orig":"","vertexType":"NORMAL"},"to":{"name":"Saguenéens (no. 129)","stopId":"1:2000","stopCode":"2000","lon":-71.067064,"lat":48.407463,"arrival":1522708433000,"departure":1522708434000,"zoneId":"NA","stopIndex":19,"stopSequence":20,"vertexType":"TRANSIT"},"legGeometry":{"points":"gjmfHpewpLsArDsBcCELQ`@","length":5},"rentedBike":false,"transitLeg":false,"duration":149.0,"steps":[{"distance":81.287,"relativeDirection":"DEPART","streetName":"Rue Louis-Francoeur","absoluteDirection":"NORTHWEST","stayOn":false,"area":false,"bogusName":false,"lon":-71.0666468,"lat":48.40628,"elevation":[]},{"distance":80.88,"relativeDirection":"RIGHT","streetName":"path","absoluteDirection":"NORTHEAST","stayOn":false,"area":false,"bogusName":true,"lon":-71.0675429,"lat":48.4067049,"elevation":[]},{"distance":21.978,"relativeDirection":"LEFT","streetName":"Rue des Saguenéens","absoluteDirection":"NORTHWEST","stayOn":false,"area":false,"bogusName":false,"lon":-71.0668891,"lat":48.4072886,"elevation":[]}]},{"startTime":1522708434000,"endTime":1522708920000,"departureDelay":0,"arrivalDelay":0,"realTime":false,"distance":4049.867186547347,"pathway":false,"mode":"BUS","route":"15","agencyName":"Société de Transport du Saguenay","agencyUrl":"http://ville.saguenay.ca/fr/services-aux-citoyens/transport-sts","agencyTimeZoneOffset":-14400000,"routeColor":"FF00FF","routeType":3,"routeId":"1:15","routeTextColor":"FFFFFF","interlineWithPreviousLeg":false,"tripBlockId":"33","headsign":"Talbot / Barrette","agencyId":"0","tripId":"1:218195","serviceDate":"20180402","from":{"name":"Saguenéens (no. 129)","stopId":"1:2000","stopCode":"2000","lon":-71.067064,"lat":48.407463,"arrival":1522708433000,"departure":1522708434000,"zoneId":"NA","stopIndex":19,"stopSequence":20,"vertexType":"TRANSIT"},"to":{"name":"Roitelets / Sapins","stopId":"1:1543","stopCode":"1543","lon":-71.069553,"lat":48.393375,"arrival":1522708920000,"departure":1522708920000,"zoneId":"NA","stopIndex":35,"stopSequence":36,"vertexType":"TRANSIT"},"legGeometry":{"points":"{pmfHbiwpLvCaGfEoItDsH~DeItC{FnBoLbCaO?qLa@uJzF`ApF~@~@PzAgEeDcBf@qAWcKUqEx@Ef@ExDVjDxAFBrBvAfGjG@BjCzC~DxC@@zA~Cb@fCJlC?BsBre@?DWbOAn@?nEGnM@H\\hCzA~ELvAAlAi@jDo@nB","length":46},"routeShortName":"15","routeLongName":"Term. Chic / Costco","rentedBike":false,"transitLeg":true,"duration":486.0,"steps":[]},{"startTime":1522708920000,"endTime":1522709746000,"departureDelay":0,"arrivalDelay":0,"realTime":false,"distance":6551.224729218953,"pathway":false,"mode":"BUS","route":"14","agencyName":"Société de Transport du Saguenay","agencyUrl":"http://ville.saguenay.ca/fr/services-aux-citoyens/transport-sts","agencyTimeZoneOffset":-14400000,"routeColor":"C0C000","routeType":3,"routeId":"1:14","routeTextColor":"000000","interlineWithPreviousLeg":true,"tripBlockId":"33","headsign":"Terminus Chicoutimi","agencyId":"0","tripId":"1:218196","serviceDate":"20180402","from":{"name":"Roitelets / Sapins","stopId":"1:1513","stopCode":"1513","lon":-71.069396,"lat":48.393523,"arrival":1522708920000,"departure":1522708920000,"zoneId":"NA","stopIndex":0,"stopSequence":1,"vertexType":"TRANSIT"},"to":{"name":"Audet / boul. Université","stopId":"1:553","stopCode":"553","lon":-71.072005,"lat":48.421488,"arrival":1522709746000,"departure":1522709747000,"zoneId":"NA","stopIndex":28,"stopSequence":29,"vertexType":"TRANSIT"},"legGeometry":{"points":"azjfHfwwpLiEfLuBzFsAnDgGzSWfAcD`Mi@dCgChLmCzMwGd\\aDxOdFtFhCtCdDY|F_On@aB`B_GNoBvAyT|@sNuAyAuF}F}AaB_BkAC@qC\\gAWiBwBiKgMiCwEgEyHCGy@uB}@rAa@nAc@lFEf@mGvUYfAqCs@ICMCqFmDc@s@mAkBuEoESUgAhDiAfD}@zDyAcA_@Um@U{AWgB_Au@s@EEsBkCqFgF{IiI][aBhE}@}@oBmBwE{EwE{Ej@mBZeAa@SyEQ","length":71},"routeShortName":"14","routeLongName":"Coopérative","rentedBike":false,"transitLeg":true,"duration":826.0,"steps":[]},{"startTime":1522709747000,"endTime":1522710042000,"departureDelay":0,"arrivalDelay":0,"realTime":false,"distance":364.835,"pathway":false,"mode":"WALK","route":"","agencyTimeZoneOffset":-14400000,"interlineWithPreviousLeg":false,"from":{"name":"Audet / boul. Université","stopId":"1:553","stopCode":"553","lon":-71.072005,"lat":48.421488,"arrival":1522709746000,"departure":1522709747000,"zoneId":"NA","stopIndex":28,"stopSequence":29,"vertexType":"TRANSIT"},"to":{"name":"Destination","lon":-71.074954,"lat":48.42282,"arrival":1522710042000,"orig":"","vertexType":"NORMAL"},"legGeometry":{"points":"iipfHvgxpLg@CWbAy@dCG`@S[KHe@`@Kt@cBKGnA?j@CLIl@Ov@BVDf@","length":17},"rentedBike":false,"transitLeg":false,"duration":295.0,"steps":[{"distance":23.119,"relativeDirection":"DEPART","streetName":"Rue Audet","absoluteDirection":"NORTH","stayOn":false,"area":false,"bogusName":false,"lon":-71.07211324351135,"lat":48.42149143047572,"elevation":[]},{"distance":100.466,"relativeDirection":"LEFT","streetName":"Boulevard de l'Université","absoluteDirection":"NORTHWEST","stayOn":false,"area":false,"bogusName":false,"lon":-71.07209830000001,"lat":48.421699100000005,"elevation":[]},{"distance":15.283,"relativeDirection":"RIGHT","streetName":"Boulevard Saint-Paul","absoluteDirection":"NORTHEAST","stayOn":false,"area":false,"bogusName":false,"lon":-71.0732783,"lat":48.4221458,"elevation":[]},{"distance":32.267,"relativeDirection":"LEFT","streetName":"path","absoluteDirection":"NORTHWEST","stayOn":false,"area":false,"bogusName":true,"lon":-71.0731375,"lat":48.4222466,"elevation":[]},{"distance":76.89,"relativeDirection":"LEFT","streetName":"Rue Delage","absoluteDirection":"WEST","stayOn":false,"area":false,"bogusName":false,"lon":-71.07335160000001,"lat":48.4224996,"elevation":[]},{"distance":116.81,"relativeDirection":"LEFT","streetName":"Rue Gilbert","absoluteDirection":"WEST","stayOn":false,"area":false,"bogusName":false,"lon":-71.0735622,"lat":48.423054300000004,"elevation":[]}]}],"tooSloped":false},{"duration":1873,"startTime":1522708200000,"endTime":1522710073000,"walkTime":1873,"transitTime":0,"waitingTime":0,"walkDistance":2392.721496229357,"walkLimitExceeded":false,"elevationLost":0.0,"elevationGained":0.0,"transfers":0,"legs":[{"startTime":1522708200000,"endTime":1522710073000,"departureDelay":0,"arrivalDelay":0,"realTime":false,"distance":2392.3729999999996,"pathway":false,"mode":"WALK","route":"","agencyTimeZoneOffset":-14400000,"interlineWithPreviousLeg":false,"from":{"name":"Origin","lon":-71.06642,"lat":48.406341,"departure":1522708200000,"orig":"","vertexType":"NORMAL"},"to":{"name":"Destination","lon":-71.074954,"lat":48.42282,"arrival":1522710073000,"orig":"","vertexType":"NORMAL"},"legGeometry":{"points":"gjmfHpewpLsArDsBcCELQ`@??aD`IKZSO]CGAo@HqBFi@?uBJi@?SAa@UkA{@A?m@e@w@Yw@E{CGK?MUs@m@{@u@UIIP}AhEi@xAc@jAeEUaAEaBE}CKsBIO?c@CW?o@L_@J_@X]XGDWZW`@QR[h@gBvEo@|AcAjCYWaCQSAkAEE?g@CWbAy@dCG`@S[KHe@`@Kt@cBKGnA?j@CLIl@Ov@BVDf@","length":74},"rentedBike":false,"transitLeg":false,"duration":1873.0,"steps":[{"distance":81.287,"relativeDirection":"DEPART","streetName":"Rue Louis-Francoeur","absoluteDirection":"NORTHWEST","stayOn":false,"area":false,"bogusName":false,"lon":-71.0666468,"lat":48.40628,"elevation":[]},{"distance":80.88,"relativeDirection":"RIGHT","streetName":"path","absoluteDirection":"NORTHEAST","stayOn":false,"area":false,"bogusName":true,"lon":-71.0675429,"lat":48.4067049,"elevation":[]},{"distance":183.173,"relativeDirection":"LEFT","streetName":"Rue des Saguenéens","absoluteDirection":"NORTHWEST","stayOn":false,"area":false,"bogusName":false,"lon":-71.0668891,"lat":48.4072886,"elevation":[]},{"distance":503.3069999999999,"relativeDirection":"RIGHT","streetName":"Rue Bégin","absoluteDirection":"NORTHEAST","stayOn":false,"area":false,"bogusName":false,"lon":-71.0688714,"lat":48.4082796,"elevation":[]},{"distance":96.293,"relativeDirection":"RIGHT","streetName":"Rue Bégin","absoluteDirection":"NORTHEAST","stayOn":true,"area":false,"bogusName":false,"lon":-71.0681022,"lat":48.4126786,"elevation":[]},{"distance":174.902,"relativeDirection":"LEFT","streetName":"Rue Des Oblats Est","absoluteDirection":"NORTHWEST","stayOn":false,"area":false,"bogusName":false,"lon":-71.06744280000001,"lat":48.413416500000004,"elevation":[]},{"distance":762.096,"relativeDirection":"RIGHT","streetName":"Rue Jolliet","absoluteDirection":"NORTH","stayOn":false,"area":false,"bogusName":false,"lon":-71.0693767,"lat":48.414325600000005,"elevation":[]},{"distance":168.719,"relativeDirection":"RIGHT","streetName":"Rue Audet","absoluteDirection":"NORTHEAST","stayOn":false,"area":false,"bogusName":false,"lon":-71.07236060000001,"lat":48.4202062,"elevation":[]},{"distance":100.466,"relativeDirection":"LEFT","streetName":"Boulevard de l'Université","absoluteDirection":"NORTHWEST","stayOn":false,"area":false,"bogusName":false,"lon":-71.07209830000001,"lat":48.421699100000005,"elevation":[]},{"distance":15.283,"relativeDirection":"RIGHT","streetName":"Boulevard Saint-Paul","absoluteDirection":"NORTHEAST","stayOn":false,"area":false,"bogusName":false,"lon":-71.0732783,"lat":48.4221458,"elevation":[]},{"distance":32.267,"relativeDirection":"LEFT","streetName":"path","absoluteDirection":"NORTHWEST","stayOn":false,"area":false,"bogusName":true,"lon":-71.0731375,"lat":48.4222466,"elevation":[]},{"distance":76.89,"relativeDirection":"LEFT","streetName":"Rue Delage","absoluteDirection":"WEST","stayOn":false,"area":false,"bogusName":false,"lon":-71.07335160000001,"lat":48.4224996,"elevation":[]},{"distance":116.81,"relativeDirection":"LEFT","streetName":"Rue Gilbert","absoluteDirection":"WEST","stayOn":false,"area":false,"bogusName":false,"lon":-71.0735622,"lat":48.423054300000004,"elevation":[]}]}],"tooSloped":false},{"duration":1758,"startTime":1522711884000,"endTime":1522713642000,"walkTime":444,"transitTime":1312,"waitingTime":2,"walkDistance":549.1694736780967,"walkLimitExceeded":false,"elevationLost":0.0,"elevationGained":0.0,"transfers":0,"legs":[{"startTime":1522711884000,"endTime":1522712033000,"departureDelay":0,"arrivalDelay":0,"realTime":false,"distance":184.14499999999998,"pathway":false,"mode":"WALK","route":"","agencyTimeZoneOffset":-14400000,"interlineWithPreviousLeg":false,"from":{"name":"Origin","lon":-71.06642,"lat":48.406341,"departure":1522711884000,"orig":"","vertexType":"NORMAL"},"to":{"name":"Saguenéens (no. 129)","stopId":"1:2000","stopCode":"2000","lon":-71.067064,"lat":48.407463,"arrival":1522712033000,"departure":1522712034000,"zoneId":"NA","stopIndex":19,"stopSequence":20,"vertexType":"TRANSIT"},"legGeometry":{"points":"gjmfHpewpLsArDsBcCELQ`@","length":5},"rentedBike":false,"transitLeg":false,"duration":149.0,"steps":[{"distance":81.287,"relativeDirection":"DEPART","streetName":"Rue Louis-Francoeur","absoluteDirection":"NORTHWEST","stayOn":false,"area":false,"bogusName":false,"lon":-71.0666468,"lat":48.40628,"elevation":[]},{"distance":80.88,"relativeDirection":"RIGHT","streetName":"path","absoluteDirection":"NORTHEAST","stayOn":false,"area":false,"bogusName":true,"lon":-71.0675429,"lat":48.4067049,"elevation":[]},{"distance":21.978,"relativeDirection":"LEFT","streetName":"Rue des Saguenéens","absoluteDirection":"NORTHWEST","stayOn":false,"area":false,"bogusName":false,"lon":-71.0668891,"lat":48.4072886,"elevation":[]}]},{"startTime":1522712034000,"endTime":1522712520000,"departureDelay":0,"arrivalDelay":0,"realTime":false,"distance":4049.867186547347,"pathway":false,"mode":"BUS","route":"15","agencyName":"Société de Transport du Saguenay","agencyUrl":"http://ville.saguenay.ca/fr/services-aux-citoyens/transport-sts","agencyTimeZoneOffset":-14400000,"routeColor":"FF00FF","routeType":3,"routeId":"1:15","routeTextColor":"FFFFFF","interlineWithPreviousLeg":false,"tripBlockId":"33","headsign":"Talbot / Barrette","agencyId":"0","tripId":"1:218197","serviceDate":"20180402","from":{"name":"Saguenéens (no. 129)","stopId":"1:2000","stopCode":"2000","lon":-71.067064,"lat":48.407463,"arrival":1522712033000,"departure":1522712034000,"zoneId":"NA","stopIndex":19,"stopSequence":20,"vertexType":"TRANSIT"},"to":{"name":"Roitelets / Sapins","stopId":"1:1543","stopCode":"1543","lon":-71.069553,"lat":48.393375,"arrival":1522712520000,"departure":1522712520000,"zoneId":"NA","stopIndex":35,"stopSequence":36,"vertexType":"TRANSIT"},"legGeometry":{"points":"{pmfHbiwpLvCaGfEoItDsH~DeItC{FnBoLbCaO?qLa@uJzF`ApF~@~@PzAgEeDcBf@qAWcKUqEx@Ef@ExDVjDxAFBrBvAfGjG@BjCzC~DxC@@zA~Cb@fCJlC?BsBre@?DWbOAn@?nEGnM@H\\hCzA~ELvAAlAi@jDo@nB","length":46},"routeShortName":"15","routeLongName":"Term. Chic / Costco","rentedBike":false,"transitLeg":true,"duration":486.0,"steps":[]},{"startTime":1522712520000,"endTime":1522713346000,"departureDelay":0,"arrivalDelay":0,"realTime":false,"distance":6551.224729218953,"pathway":false,"mode":"BUS","route":"14","agencyName":"Société de Transport du Saguenay","agencyUrl":"http://ville.saguenay.ca/fr/services-aux-citoyens/transport-sts","agencyTimeZoneOffset":-14400000,"routeColor":"C0C000","routeType":3,"routeId":"1:14","routeTextColor":"000000","interlineWithPreviousLeg":true,"tripBlockId":"33","headsign":"Terminus Chicoutimi","agencyId":"0","tripId":"1:218198","serviceDate":"20180402","from":{"name":"Roitelets / Sapins","stopId":"1:1513","stopCode":"1513","lon":-71.069396,"lat":48.393523,"arrival":1522712520000,"departure":1522712520000,"zoneId":"NA","stopIndex":0,"stopSequence":1,"vertexType":"TRANSIT"},"to":{"name":"Audet / boul. Université","stopId":"1:553","stopCode":"553","lon":-71.072005,"lat":48.421488,"arrival":1522713346000,"departure":1522713347000,"zoneId":"NA","stopIndex":28,"stopSequence":29,"vertexType":"TRANSIT"},"legGeometry":{"points":"azjfHfwwpLiEfLuBzFsAnDgGzSWfAcD`Mi@dCgChLmCzMwGd\\aDxOdFtFhCtCdDY|F_On@aB`B_GNoBvAyT|@sNuAyAuF}F}AaB_BkAC@qC\\gAWiBwBiKgMiCwEgEyHCGy@uB}@rAa@nAc@lFEf@mGvUYfAqCs@ICMCqFmDc@s@mAkBuEoESUgAhDiAfD}@zDyAcA_@Um@U{AWgB_Au@s@EEsBkCqFgF{IiI][aBhE}@}@oBmBwE{EwE{Ej@mBZeAa@SyEQ","length":71},"routeShortName":"14","routeLongName":"Coopérative","rentedBike":false,"transitLeg":true,"duration":826.0,"steps":[]},{"startTime":1522713347000,"endTime":1522713642000,"departureDelay":0,"arrivalDelay":0,"realTime":false,"distance":364.835,"pathway":false,"mode":"WALK","route":"","agencyTimeZoneOffset":-14400000,"interlineWithPreviousLeg":false,"from":{"name":"Audet / boul. Université","stopId":"1:553","stopCode":"553","lon":-71.072005,"lat":48.421488,"arrival":1522713346000,"departure":1522713347000,"zoneId":"NA","stopIndex":28,"stopSequence":29,"vertexType":"TRANSIT"},"to":{"name":"Destination","lon":-71.074954,"lat":48.42282,"arrival":1522713642000,"orig":"","vertexType":"NORMAL"},"legGeometry":{"points":"iipfHvgxpLg@CWbAy@dCG`@S[KHe@`@Kt@cBKGnA?j@CLIl@Ov@BVDf@","length":17},"rentedBike":false,"transitLeg":false,"duration":295.0,"steps":[{"distance":23.119,"relativeDirection":"DEPART","streetName":"Rue Audet","absoluteDirection":"NORTH","stayOn":false,"area":false,"bogusName":false,"lon":-71.07211324351135,"lat":48.42149143047572,"elevation":[]},{"distance":100.466,"relativeDirection":"LEFT","streetName":"Boulevard de l'Université","absoluteDirection":"NORTHWEST","stayOn":false,"area":false,"bogusName":false,"lon":-71.07209830000001,"lat":48.421699100000005,"elevation":[]},{"distance":15.283,"relativeDirection":"RIGHT","streetName":"Boulevard Saint-Paul","absoluteDirection":"NORTHEAST","stayOn":false,"area":false,"bogusName":false,"lon":-71.0732783,"lat":48.4221458,"elevation":[]},{"distance":32.267,"relativeDirection":"LEFT","streetName":"path","absoluteDirection":"NORTHWEST","stayOn":false,"area":false,"bogusName":true,"lon":-71.0731375,"lat":48.4222466,"elevation":[]},{"distance":76.89,"relativeDirection":"LEFT","streetName":"Rue Delage","absoluteDirection":"WEST","stayOn":false,"area":false,"bogusName":false,"lon":-71.07335160000001,"lat":48.4224996,"elevation":[]},{"distance":116.81,"relativeDirection":"LEFT","streetName":"Rue Gilbert","absoluteDirection":"WEST","stayOn":false,"area":false,"bogusName":false,"lon":-71.0735622,"lat":48.423054300000004,"elevation":[]}]}],"tooSloped":false}]},"debugOutput":{"precalculationTime":53,"pathCalculationTime":55,"pathTimes":[22,13,20],"renderingTime":1,"totalTime":109,"timedOut":false},"elevationMetadata":{"ellipsoidToGeoidDifference":-28.885904201182168,"geoidElevation":false}}