{"requestParameters":{"date":"2018/04/02","walkSpeed":"1.33","walkReluctance":"2.0","fromPlace":"48.42394,-71.064576","maxWalkDistance":"3000","waitReluctance":"1.0","carSpeed":"33","numItineraries":"3","waitAtBeginningFactor":"0.4","mode":"TRANSIT,WALK","ignoreRealtimeUpdates":"false","stairsReluctance":"2.0","toPlace":"48.388451,-71.072327","time":"9:0:00"},"plan":{"date":1522674000000,"from":{"name":"Origin","lon":-71.064576,"lat":48.42394,"orig":"","vertexType":"NORMAL"},"to":{"name":"Destination","lon":-71.072327,"lat":48.388451,"orig":"","vertexType":"NORMAL"},"itineraries":[{"duration":1859,"startTime":1522674688000,"endTime":1522676547000,"walkTime":934,"transitTime":923,"waitingTime":2,"walkDistance":1190.7199623984336,"walkLimitExceeded":false,"elevationLost":0.0,"elevationGained":0.0,"transfers":0,"legs":[{"startTime":1522674688000,"endTime":1522675324000,"departureDelay":0,"arrivalDelay":0,"realTime":false,"distance":807.764,"pathway":false,"mode":"WALK","route":"","agencyTimeZoneOffset":-14400000,"interlineWithPreviousLeg":false,"from":{"name":"Origin","lon":-71.064576,"lat":48.42394,"departure":1522674688000,"orig":"","vertexType":"NORMAL"},"to":{"name":"Bégin / Voie Réservé","stopId":"1:74","stopCode":"74","lon":-71.057125,"lat":48.423785,"arrival":1522675324000,"departure":1522675325000,"zoneId":"NA","stopIndex":8,"stopSequence":9,"vertexType":"TRANSIT"},"legGeometry":{"points":"qxpfHfxvpLyFYFgD@o@DcBHgED_C@SF_DF{CCeAx@]f@[@m@@y@H]L]BUJ@F?j@BNDB@RHLMBe@DeANm@EEYW","length":30},"rentedBike":false,"transitLeg":false,"duration":636.0,"steps":[{"distance":138.967,"relativeDirection":"DEPART","streetName":"Rue de la Place-d'Armes","absoluteDirection":"NORTH","stayOn":false,"area":false,"bogusName":false,"lon":-71.06451401160776,"lat":48.42393710935686,"elevation":[]},{"distance":388.034,"relativeDirection":"RIGHT","streetName":"Rue Price Est","absoluteDirection":"EAST","stayOn":false,"area":false,"bogusName":false,"lon":-71.06438200000001,"lat":48.425183800000006,"elevation":[]},{"distance":131.454,"relativeDirection":"RIGHT","streetName":"path","absoluteDirection":"SOUTH","stayOn":false,"area":false,"bogusName":true,"lon":-71.0591387,"lat":48.424959400000006,"elevation":[]},{"distance":127.559,"relativeDirection":"RIGHT","streetName":"alley","absoluteDirection":"SOUTH","stayOn":true,"area":false,"bogusName":true,"lon":-71.0579166,"lat":48.424303900000005,"elevation":[]},{"distance":21.75,"relativeDirection":"LEFT","streetName":"Rue Bégin","absoluteDirection":"NORTHEAST","stayOn":false,"area":false,"bogusName":false,"lon":-71.05719760000001,"lat":48.4235836,"elevation":[]}]},{"startTime":1522675325000,"endTime":1522676248000,"departureDelay":0,"arrivalDelay":0,"realTime":false,"distance":5122.201077742751,"pathway":false,"mode":"BUS","route":"175","agencyName":"Société de Transport du Saguenay","agencyUrl":"http://ville.saguenay.ca/fr/services-aux-citoyens/transport-sts","agencyTimeZoneOffset":-14400000,"routeColor":"FF00FF","routeType":3,"routeId":"1:175","routeTextColor":"FFFFFF","interlineWithPreviousLeg":false,"tripBlockId":"8","headsign":"Costco","agencyId":"0","tripId":"1:217362","serviceDate":"20180402","from":{"name":"Bégin / Voie Réservé","stopId":"1:74","stopCode":"74","lon":-71.057125,"lat":48.423785,"arrival":1522675324000,"departure":1522675325000,"zoneId":"NA","stopIndex":8,"stopSequence":9,"vertexType":"TRANSIT"},"to":{"name":"boul. Talbot / Soeurs (Canac Marquis)","stopId":"1:71","stopCode":"71","lon":-71.074009,"lat":48.391015,"arrival":1522676248000,"departure":1522676249000,"zoneId":"NA","stopIndex":25,"stopSequence":26,"vertexType":"TRANSIT"},"legGeometry":{"points":"mwpfHliupLx@l@VwAvAgB\\qBIuAC]g@yEzDuLbBbBvAxAMx@|@v@`A~@Xw@~D~DPxFZtA~ApE`N{LpFmEb@[ROl@[vDQXKfA[|@q@fAsBlEmMr@sBhCsKz@dAjB|@dM`GzCvAXrCr@~Gx@]PEr@ObACn@FrBb@|@Ch@Kx@U~HsB^KZ|DJpII~Fa@rFUzBi@bDUxAm@nCcAlDM^RTfD`DjF`FjCrCrAvAbCfDjIfMdAzAfFpHd@n@nC`DlXv[","length":71},"routeShortName":"175","routeLongName":"Term. Chic / Costco","rentedBike":false,"transitLeg":true,"duration":923.0,"steps":[]},{"startTime":1522676249000,"endTime":1522676547000,"departureDelay":0,"arrivalDelay":0,"realTime":false,"distance":382.721,"pathway":false,"mode":"WALK","route":"","agencyTimeZoneOffset":-14400000,"interlineWithPreviousLeg":false,"from":{"name":"boul. Talbot / Soeurs (Canac Marquis)","stopId":"1:71","stopCode":"71","lon":-71.074009,"lat":48.391015,"arrival":1522676248000,"departure":1522676249000,"zoneId":"NA","stopIndex":25,"stopSequence":26,"vertexType":"TRANSIT"},"to":{"name":"Destination","lon":-71.072327,"lat":48.388451,"arrival":1522676547000,"orig":"","vertexType":"NORMAL"},"legGeometry":{"points":"ojjfHzrxpLl@r@N_@JYtEuLrBdCl@p@NP","length":8},"rentedBike":false,"transitLeg":false,"duration":298.0,"steps":[{"distance":31.82,"relativeDirection":"DEPART","streetName":"Boulevard Talbot","absoluteDirection":"SOUTHWEST","stayOn":false,"area":false,"bogusName":false,"lon":-71.07389765515089,"lat":48.39096061304423,"elevation":[]},{"distance":226.524,"relativeDirection":"LEFT","streetName":"Rue du Sauvignon","absoluteDirection":"SOUTHEAST","stayOn":false,"area":false,"bogusName":false,"lon":-71.07415300000001,"lat":48.390730100000006,"elevation":[]},{"distance":124.377,"relativeDirection":"RIGHT","streetName":"Rue de la Fonderie","absoluteDirection":"SOUTHWEST","stayOn":false,"area":false,"bogusName":false,"lon":-71.071678,"lat":48.3895264,"elevation":[]}]}],"tooSloped":false},{"duration":2486,"startTime":1522674639000,"endTime":1522677125000,"walkTime":1044,"transitTime":1440,"waitingTime":2,"walkDistance":1347.0822556325716,"walkLimitExceeded":false,"elevationLost":0.0,"elevationGained":0.0,"transfers":0,"legs":[{"startTime":1522674639000,"endTime":1522675019000,"departureDelay":0,"arrivalDelay":0,"realTime":false,"distance":483.903,"pathway":false,"mode":"WALK","route":"","agencyTimeZoneOffset":-14400000,"interlineWithPreviousLeg":false,"from":{"name":"Origin","lon":-71.064576,"lat":48.42394,"departure":1522674639000,"orig":"","vertexType":"NORMAL"},"to":{"name":"Conservatoire (Jacques-Cartier)","stopId":"1:560","stopCode":"560","lon":-71.061503,"lat":48.426285,"arrival":1522675019000,"departure":1522675020000,"zoneId":"NA","stopIndex":2,"stopSequence":3,"vertexType":"TRANSIT"},"legGeometry":{"points":"qxpfHfxvpLyFYFgD@o@DcBeCIG?q@KeAQBeABgB?o@","length":12},"rentedBike":false,"transitLeg":false,"duration":380.0,"steps":[{"distance":138.967,"relativeDirection":"DEPART","streetName":"Rue de la Place-d'Armes","absoluteDirection":"NORTH","stayOn":false,"area":false,"bogusName":false,"lon":-71.06451401160776,"lat":48.42393710935686,"elevation":[]},{"distance":116.919,"relativeDirection":"RIGHT","streetName":"Rue Price Est","absoluteDirection":"EAST","stayOn":false,"area":false,"bogusName":false,"lon":-71.06438200000001,"lat":48.425183800000006,"elevation":[]},{"distance":146.099,"relativeDirection":"LEFT","streetName":"Rue Saint-Sacrement","absoluteDirection":"NORTH","stayOn":false,"area":false,"bogusName":false,"lon":-71.062802,"lat":48.4251045,"elevation":[]},{"distance":81.91799999999999,"relativeDirection":"RIGHT","streetName":"Rue Jacques-Cartier Est","absoluteDirection":"EAST","stayOn":false,"area":false,"bogusName":false,"lon":-71.062607,"lat":48.426410000000004,"elevation":[]}]},{"startTime":1522675020000,"endTime":1522676460000,"departureDelay":0,"arrivalDelay":0,"realTime":false,"distance":8938.10707065052,"pathway":false,"mode":"BUS","route":"14","agencyName":"Société de Transport du Saguenay","agencyUrl":"http://ville.saguenay.ca/fr/services-aux-citoyens/transport-sts","agencyTimeZoneOffset":-14400000,"routeColor":"C0C000","routeType":3,"routeId":"1:14","routeTextColor":"000000","interlineWithPreviousLeg":false,"tripBlockId":"32","headsign":"Talbot / Barrette","agencyId":"0","tripId":"1:218152","serviceDate":"20180402","from":{"name":"Conservatoire (Jacques-Cartier)","stopId":"1:560","stopCode":"560","lon":-71.061503,"lat":48.426285,"arrival":1522675019000,"departure":1522675020000,"zoneId":"NA","stopIndex":2,"stopSequence":3,"vertexType":"TRANSIT"},"to":{"name":"Roitelets / Sapins","stopId":"1:1543","stopCode":"1543","lon":-71.069553,"lat":48.393375,"arrival":1522676460000,"departure":1522676461000,"zoneId":"NA","stopIndex":35,"stopSequence":36,"vertexType":"TRANSIT"},"legGeometry":{"points":"{gqfHjevpLHwFB{I@m@@eBH_AF}A@w@Dq@@i@B}B@Y@e@D]F_@@SHQCKnBnBvIrIn@n@\\iATg@v@_ATg@LmABg@Is@c@iEAm@bAcDTcAtA{DJI|AxAvAvAQv@~@z@dA`ATq@`E~DL`@E`Ex@hDd@`B}FtFaAzAm@xAe@jCa@nDiAbm@SpKM`H]vBhDVzCTcAvCO^bEbEzK`LfBeEtK`KhAdAnCbCvBpCNR~BxAxBf@z@h@vAz@z@{DrCoITTlElEtAnB`@l@pFrD@?fDr@XgAjFuR\\yADm@b@gFd@_B`A}@tEvJBDvC`FtJ|LLNlClC|@^hCYVExCjCb@d@vE`F`BhB?pHaBhRqAbLK~@qBxFqB|FcC~GyC\\aDkDcFsF~CgOtGm[j@oCvEoSl@_CxCmLjAeFpCeKrByHfAqCvH_SLa@","length":121},"routeShortName":"14","routeLongName":"Coopérative","rentedBike":false,"transitLeg":true,"duration":1440.0,"steps":[]},{"startTime":1522676461000,"endTime":1522677125000,"departureDelay":0,"arrivalDelay":0,"realTime":false,"distance":862.9769999999999,"pathway":false,"mode":"WALK","route":"","agencyTimeZoneOffset":-14400000,"interlineWithPreviousLeg":false,"from":{"name":"Roitelets / Sapins","stopId":"1:1543","stopCode":"1543","lon":-71.069553,"lat":48.393375,"arrival":1522676460000,"departure":1522676461000,"zoneId":"NA","stopIndex":35,"stopSequence":36,"vertexType":"TRANSIT"},"to":{"name":"Destination","lon":-71.072327,"lat":48.388451,"arrival":1522677125000,"orig":"","vertexType":"NORMAL"},"legGeometry":{"points":"oyjfHxwwpL?@mAzCMHC@JLrEjFlAxAjGjHbAjAJYtEuLrBdCl@p@NP","length":15},"rentedBike":false,"transitLeg":false,"duration":664.0,"steps":[{"distance":84.014,"relativeDirection":"DEPART","streetName":"bike path","absoluteDirection":"NORTHWEST","stayOn":false,"area":false,"bogusName":true,"lon":-71.0695674967601,"lat":48.39336056343373,"elevation":[]},{"distance":442.39099999999996,"relativeDirection":"HARD_LEFT","streetName":"Boulevard Talbot","absoluteDirection":"SOUTHWEST","stayOn":false,"area":false,"bogusName":false,"lon":-71.07041720000001,"lat":48.393846,"elevation":[]},{"distance":212.195,"relativeDirection":"LEFT","streetName":"Rue du Sauvignon","absoluteDirection":"SOUTHEAST","stayOn":false,"area":false,"bogusName":false,"lon":-71.0739954,"lat":48.3906549,"elevation":[]},{"distance":124.377,"relativeDirection":"RIGHT","streetName":"Rue de la Fonderie","absoluteDirection":"SOUTHWEST","stayOn":false,"area":false,"bogusName":false,"lon":-71.071678,"lat":48.3895264,"elevation":[]}]}],"tooSloped":false},{"duration":1859,"startTime":1522676488000,"endTime":1522678347000,"walkTime":934,"transitTime":923,"waitingTime":2,"walkDistance":1190.7199623984336,"walkLimitExceeded":false,"elevationLost":0.0,"elevationGained":0.0,"transfers":0,"legs":[{"startTime":1522676488000,"endTime":1522677124000,"departureDelay":0,"arrivalDelay":0,"realTime":false,"distance":807.764,"pathway":false,"mode":"WALK","route":"","agencyTimeZoneOffset":-14400000,"interlineWithPreviousLeg":false,"from":{"name":"Origin","lon":-71.064576,"lat":48.42394,"departure":1522676488000,"orig":"","vertexType":"NORMAL"},"to":{"name":"Bégin / Voie Réservé","stopId":"1:74","stopCode":"74","lon":-71.057125,"lat":48.423785,"arrival":1522677124000,"departure":1522677125000,"zoneId":"NA","stopIndex":8,"stopSequence":9,"vertexType":"TRANSIT"},"legGeometry":{"points":"qxpfHfxvpLyFYFgD@o@DcBHgED_C@SF_DF{CCeAx@]f@[@m@@y@H]L]BUJ@F?j@BNDB@RHLMBe@DeANm@EEYW","length":30},"rentedBike":false,"transitLeg":false,"duration":636.0,"steps":[{"distance":138.967,"relativeDirection":"DEPART","streetName":"Rue de la Place-d'Armes","absoluteDirection":"NORTH","stayOn":false,"area":false,"bogusName":false,"lon":-71.06451401160776,"lat":48.42393710935686,"elevation":[]},{"distance":388.034,"relativeDirection":"RIGHT","streetName":"Rue Price Est","absoluteDirection":"EAST","stayOn":false,"area":false,"bogusName":false,"lon":-71.06438200000001,"lat":48.425183800000006,"elevation":[]},{"distance":131.454,"relativeDirection":"RIGHT","streetName":"path","absoluteDirection":"SOUTH","stayOn":false,"area":false,"bogusName":true,"lon":-71.0591387,"lat":48.424959400000006,"elevation":[]},{"distance":127.559,"relativeDirection":"RIGHT","streetName":"alley","absoluteDirection":"SOUTH","stayOn":true,"area":false,"bogusName":true,"lon":-71.0579166,"lat":48.424303900000005,"elevation":[]},{"distance":21.75,"relativeDirection":"LEFT","streetName":"Rue Bégin","absoluteDirection":"NORTHEAST","stayOn":false,"area":false,"bogusName":false,"lon":-71.05719760000001,"lat":48.4235836,"elevation":[]}]},{"startTime":1522677125000,"endTime":1522678048000,"departureDelay":0,"arrivalDelay":0,"realTime":false,"distance":5122.201077742751,"pathway":false,"mode":"BUS","route":"175","agencyName":"Société de Transport du Saguenay","agencyUrl":"http://ville.saguenay.ca/fr/services-aux-citoyens/transport-sts","agencyTimeZoneOffset":-14400000,"routeColor":"FF00FF","routeType":3,"routeId":"1:175","routeTextColor":"FFFFFF","interlineWithPreviousLeg":false,"tripBlockId":"6","headsign":"Costco","agencyId":"0","tripId":"1:217291","serviceDate":"20180402","from":{"name":"Bégin / Voie Réservé","stopId":"1:74","stopCode":"74","lon":-71.057125,"lat":48.423785,"arrival":1522677124000,"departure":1522677125000,"zoneId":"NA","stopIndex":8,"stopSequence":9,"vertexType":"TRANSIT"},"to":{"name":"boul. Talbot / Soeurs (Canac Marquis)","stopId":"1:71","stopCode":"71","lon":-71.074009,"lat":48.391015,"arrival":1522678048000,"departure":1522678049000,"zoneId":"NA","stopIndex":25,"stopSequence":26,"vertexType":"TRANSIT"},"legGeometry":{"points":"mwpfHliupLx@l@VwAvAgB\\qBIuAC]g@yEzDuLbBbBvAxAMx@|@v@`A~@Xw@~D~DPxFZtA~ApE`N{LpFmEb@[ROl@[vDQXKfA[|@q@fAsBlEmMr@sBhCsKz@dAjB|@dM`GzCvAXrCr@~Gx@]PEr@ObACn@FrBb@|@Ch@Kx@U~HsB^KZ|DJpII~Fa@rFUzBi@bDUxAm@nCcAlDM^RTfD`DjF`FjCrCrAvAbCfDjIfMdAzAfFpHd@n@nC`DlXv[","length":71},"routeShortName":"175","routeLongName":"Term. Chic / Costco","rentedBike":false,"transitLeg":true,"duration":923.0,"steps":[]},{"startTime":1522678049000,"endTime":1522678347000,"departureDelay":0,"arrivalDelay":0,"realTime":false,"distance":382.721,"pathway":false,"mode":"WALK","route":"","agencyTimeZoneOffset":-14400000,"interlineWithPreviousLeg":false,"from":{"name":"boul. Talbot / Soeurs (Canac Marquis)","stopId":"1:71","stopCode":"71","lon":-71.074009,"lat":48.391015,"arrival":1522678048000,"departure":1522678049000,"zoneId":"NA","stopIndex":25,"stopSequence":26,"vertexType":"TRANSIT"},"to":{"name":"Destination","lon":-71.072327,"lat":48.388451,"arrival":1522678347000,"orig":"","vertexType":"NORMAL"},"legGeometry":{"points":"ojjfHzrxpLl@r@N_@JYtEuLrBdCl@p@NP","length":8},"rentedBike":false,"transitLeg":false,"duration":298.0,"steps":[{"distance":31.82,"relativeDirection":"DEPART","streetName":"Boulevard Talbot","absoluteDirection":"SOUTHWEST","stayOn":false,"area":false,"bogusName":false,"lon":-71.07389765515089,"lat":48.39096061304423,"elevation":[]},{"distance":226.524,"relativeDirection":"LEFT","streetName":"Rue du Sauvignon","absoluteDirection":"SOUTHEAST","stayOn":false,"area":false,"bogusName":false,"lon":-71.07415300000001,"lat":48.390730100000006,"elevation":[]},{"distance":124.377,"relativeDirection":"RIGHT","streetName":"Rue de la Fonderie","absoluteDirection":"SOUTHWEST","stayOn":false,"area":false,"bogusName":false,"lon":-71.071678,"lat":48.3895264,"elevation":[]}]}],"tooSloped":false}]},"debugOutput":{"precalculationTime":41,"pathCalculationTime":68,"pathTimes":[25,21,22],"renderingTime":0,"totalTime":109,"timedOut":false},"elevationMetadata":{"ellipsoidToGeoidDifference":-28.885904201182168,"geoidElevation":false}}