{"requestParameters":{"date":"2018/04/02","walkSpeed":"1.33","walkReluctance":"2.0","fromPlace":"48.396738,-71.052902","maxWalkDistance":"3000","waitReluctance":"1.0","carSpeed":"33","numItineraries":"3","waitAtBeginningFactor":"0.4","mode":"TRANSIT,WALK","ignoreRealtimeUpdates":"false","stairsReluctance":"2.0","toPlace":"48.412273,-71.06569","time":"7:20:00"},"plan":{"date":1522668000000,"from":{"name":"Origin","lon":-71.052902,"lat":48.396738,"orig":"","vertexType":"NORMAL"},"to":{"name":"Destination","lon":-71.06569,"lat":48.412273,"orig":"","vertexType":"NORMAL"},"itineraries":[{"duration":1552,"startTime":1522668055000,"endTime":1522669607000,"walkTime":1388,"transitTime":162,"waitingTime":2,"walkDistance":1794.42503758866,"walkLimitExceeded":false,"elevationLost":0.0,"elevationGained":0.0,"transfers":0,"legs":[{"startTime":1522668055000,"endTime":1522669019000,"departureDelay":0,"arrivalDelay":0,"realTime":false,"distance":1247.07,"pathway":false,"mode":"WALK","route":"","agencyTimeZoneOffset":-14400000,"interlineWithPreviousLeg":false,"from":{"name":"Origin","lon":-71.052902,"lat":48.396738,"departure":1522668055000,"orig":"","vertexType":"NORMAL"},"to":{"name":"Place du Royaume (Champs-Élysées)","stopId":"1:193","stopCode":"193","lon":-71.052659,"lat":48.407065,"arrival":1522669019000,"departure":1522669020000,"zoneId":"NA","stopIndex":28,"stopSequence":29,"vertexType":"TRANSIT"},"legGeometry":{"points":"iokfHjntpLUA{BwBiAjDMMeBgBmByBm@o@SOCAuA}@}A[s@EA?}@Eg@E}ANq@TUF_@JkEhAsBl@OFe@L_@DgA?uAK}@M}@Cq@Dm@Pu@\\cA`AgAtA","length":34},"rentedBike":false,"transitLeg":false,"duration":964.0,"steps":[{"distance":93.436,"relativeDirection":"DEPART","streetName":"Rue des Roselins","absoluteDirection":"NORTH","stayOn":false,"area":false,"bogusName":false,"lon":-71.052692,"lat":48.396859,"elevation":[]},{"distance":75.506,"relativeDirection":"LEFT","streetName":"Rue des Chardonnerets","absoluteDirection":"NORTHWEST","stayOn":false,"area":false,"bogusName":false,"lon":-71.0520891,"lat":48.3975844,"elevation":[]},{"distance":487.64400000000006,"relativeDirection":"RIGHT","streetName":"Rue des Engoulevents","absoluteDirection":"NORTHEAST","stayOn":false,"area":false,"bogusName":false,"lon":-71.0529455,"lat":48.3979556,"elevation":[]},{"distance":590.4839999999999,"relativeDirection":"CONTINUE","streetName":"Rue des Champs-Élysées","absoluteDirection":"NORTH","stayOn":false,"area":false,"bogusName":false,"lon":-71.0511074,"lat":48.401948700000005,"elevation":[]}]},{"startTime":1522669020000,"endTime":1522669182000,"departureDelay":0,"arrivalDelay":0,"realTime":false,"distance":1343.3249930098123,"pathway":false,"mode":"BUS","route":"12","agencyName":"Société de Transport du Saguenay","agencyUrl":"http://ville.saguenay.ca/fr/services-aux-citoyens/transport-sts","agencyTimeZoneOffset":-14400000,"routeColor":"556B2F","routeType":3,"routeId":"1:12","routeTextColor":"FFFFFF","interlineWithPreviousLeg":false,"tripBlockId":"28","headsign":"Terminus UQAC","agencyId":"0","tripId":"1:218027","serviceDate":"20180402","from":{"name":"Place du Royaume (Champs-Élysées)","stopId":"1:193","stopCode":"193","lon":-71.052659,"lat":48.407065,"arrival":1522669019000,"departure":1522669020000,"zoneId":"NA","stopIndex":28,"stopSequence":29,"vertexType":"TRANSIT"},"to":{"name":"Champs-Élysées / Bégin","stopId":"1:587","stopCode":"587","lon":-71.064119,"lat":48.41589,"arrival":1522669182000,"departure":1522669183000,"zoneId":"NA","stopIndex":32,"stopSequence":33,"vertexType":"TRANSIT"},"legGeometry":{"points":"comfHbntpLcP~b@iHhDaGz@uSl[","length":5},"routeShortName":"12","routeLongName":"Rivière du Moulin","rentedBike":false,"transitLeg":true,"duration":162.0,"steps":[]},{"startTime":1522669183000,"endTime":1522669607000,"departureDelay":0,"arrivalDelay":0,"realTime":false,"distance":547.19,"pathway":false,"mode":"WALK","route":"","agencyTimeZoneOffset":-14400000,"interlineWithPreviousLeg":false,"from":{"name":"Champs-Élysées / Bégin","stopId":"1:587","stopCode":"587","lon":-71.064119,"lat":48.41589,"arrival":1522669182000,"departure":1522669183000,"zoneId":"NA","stopIndex":32,"stopSequence":33,"vertexType":"TRANSIT"},"to":{"name":"Destination","lon":-71.06569,"lat":48.412273,"arrival":1522669607000,"orig":"","vertexType":"NORMAL"},"legGeometry":{"points":"weofHfvvpLFQNi@bA}FhCbC~B|B|@z@`@`@rAHnARbCfC","length":11},"rentedBike":false,"transitLeg":false,"duration":424.0,"steps":[{"distance":127.196,"relativeDirection":"DEPART","streetName":"Rue des Champs-Élysées","absoluteDirection":"SOUTHEAST","stayOn":false,"area":false,"bogusName":false,"lon":-71.06419495868175,"lat":48.41580605407751,"elevation":[]},{"distance":239.182,"relativeDirection":"RIGHT","streetName":"Rue Georges-Vanier","absoluteDirection":"SOUTHWEST","stayOn":false,"area":false,"bogusName":false,"lon":-71.0626228,"lat":48.4153431,"elevation":[]},{"distance":46.958,"relativeDirection":"SLIGHTLY_LEFT","streetName":"Rue Georges-Vanier","absoluteDirection":"SOUTH","stayOn":true,"area":false,"bogusName":false,"lon":-71.064383,"lat":48.413537100000006,"elevation":[]},{"distance":44.858,"relativeDirection":"CONTINUE","streetName":"bike path","absoluteDirection":"SOUTH","stayOn":false,"area":false,"bogusName":true,"lon":-71.0644384,"lat":48.4131164,"elevation":[]},{"distance":88.996,"relativeDirection":"SLIGHTLY_RIGHT","streetName":"Rue Georges-Vanier","absoluteDirection":"SOUTHWEST","stayOn":false,"area":false,"bogusName":false,"lon":-71.06453590000001,"lat":48.4127182,"elevation":[]}]}],"tooSloped":false},{"duration":1099,"startTime":1522669339000,"endTime":1522670438000,"walkTime":537,"transitTime":560,"waitingTime":2,"walkDistance":686.2579548829601,"walkLimitExceeded":false,"elevationLost":0.0,"elevationGained":0.0,"transfers":0,"legs":[{"startTime":1522669339000,"endTime":1522669626000,"departureDelay":0,"arrivalDelay":0,"realTime":false,"distance":366.581,"pathway":false,"mode":"WALK","route":"","agencyTimeZoneOffset":-14400000,"interlineWithPreviousLeg":false,"from":{"name":"Origin","lon":-71.052902,"lat":48.396738,"departure":1522669339000,"orig":"","vertexType":"NORMAL"},"to":{"name":"Engoulevents / Bernaches","stopId":"1:1509","stopCode":"1509","lon":-71.051416,"lat":48.399414,"arrival":1522669626000,"departure":1522669627000,"zoneId":"NA","stopIndex":9,"stopSequence":10,"vertexType":"TRANSIT"},"legGeometry":{"points":"iokfHjntpLUA{BwBiAjDMMeBgBmByBm@o@SO","length":9},"rentedBike":false,"transitLeg":false,"duration":287.0,"steps":[{"distance":93.436,"relativeDirection":"DEPART","streetName":"Rue des Roselins","absoluteDirection":"NORTH","stayOn":false,"area":false,"bogusName":false,"lon":-71.052692,"lat":48.396859,"elevation":[]},{"distance":75.506,"relativeDirection":"LEFT","streetName":"Rue des Chardonnerets","absoluteDirection":"NORTHWEST","stayOn":false,"area":false,"bogusName":false,"lon":-71.0520891,"lat":48.3975844,"elevation":[]},{"distance":197.639,"relativeDirection":"RIGHT","streetName":"Rue des Engoulevents","absoluteDirection":"NORTHEAST","stayOn":false,"area":false,"bogusName":false,"lon":-71.0529455,"lat":48.3979556,"elevation":[]}]},{"startTime":1522669627000,"endTime":1522670187000,"departureDelay":0,"arrivalDelay":0,"realTime":false,"distance":3262.2045866944095,"pathway":false,"mode":"BUS","route":"15","agencyName":"Société de Transport du Saguenay","agencyUrl":"http://ville.saguenay.ca/fr/services-aux-citoyens/transport-sts","agencyTimeZoneOffset":-14400000,"routeColor":"FF00FF","routeType":3,"routeId":"1:15","routeTextColor":"FFFFFF","interlineWithPreviousLeg":false,"tripBlockId":"32","headsign":"Terminus Chicoutimi","agencyId":"0","tripId":"1:218149","serviceDate":"20180402","from":{"name":"Engoulevents / Bernaches","stopId":"1:1509","stopCode":"1509","lon":-71.051416,"lat":48.399414,"arrival":1522669626000,"departure":1522669627000,"zoneId":"NA","stopIndex":9,"stopSequence":10,"vertexType":"TRANSIT"},"to":{"name":"École secondaire de l'Odyssé Dominique-Racine","stopId":"1:580","stopCode":"580","lon":-71.067703,"lat":48.412977,"arrival":1522670187000,"departure":1522670188000,"zoneId":"NA","stopIndex":24,"stopSequence":25,"vertexType":"TRANSIT"},"legGeometry":{"points":"g_lfHdftpLy@q@sDy@GAeGT~@~KKrKyAnL[hBUxAm@nCcAlDeCvGmA|CUr@}@~A_@\\_DvCEZcA|@UP_@d@Yl@oBdFeCxG_CfGYVQXS\\dK|HlFZbC\\p@zA\\rB@hBiArG{BNw@FiG}@iDwAECcCcBo@y@sEeGe@o@qAa@m@MoB?C@}BZwAc@oA_Bs@gDCKZ{Di@QECc@_@","length":58},"routeShortName":"15","routeLongName":"Term. Chic / Costco","rentedBike":false,"transitLeg":true,"duration":560.0,"steps":[]},{"startTime":1522670188000,"endTime":1522670438000,"departureDelay":0,"arrivalDelay":0,"realTime":false,"distance":319.545,"pathway":false,"mode":"WALK","route":"","agencyTimeZoneOffset":-14400000,"interlineWithPreviousLeg":false,"from":{"name":"École secondaire de l'Odyssé Dominique-Racine","stopId":"1:580","stopCode":"580","lon":-71.067703,"lat":48.412977,"arrival":1522670187000,"departure":1522670188000,"zoneId":"NA","stopIndex":24,"stopSequence":25,"vertexType":"TRANSIT"},"to":{"name":"Destination","lon":-71.06569,"lat":48.412273,"arrival":1522670438000,"orig":"","vertexType":"NORMAL"},"legGeometry":{"points":"gtnfHplwpLr@l@LTxAeGBEtByEwA{A","length":7},"rentedBike":false,"transitLeg":false,"duration":250.0,"steps":[{"distance":44.071,"relativeDirection":"DEPART","streetName":"Rue Bégin","absoluteDirection":"SOUTHWEST","stayOn":false,"area":false,"bogusName":false,"lon":-71.06776357747735,"lat":48.41300064951352,"elevation":[]},{"distance":215.69799999999998,"relativeDirection":"LEFT","streetName":"Rue Georges-Vanier","absoluteDirection":"SOUTHEAST","stayOn":false,"area":false,"bogusName":false,"lon":-71.0681022,"lat":48.4126786,"elevation":[]},{"distance":59.776,"relativeDirection":"LEFT","streetName":"Rue Georges-Vanier","absoluteDirection":"NORTHEAST","stayOn":true,"area":false,"bogusName":false,"lon":-71.0656757,"lat":48.4116147,"elevation":[]}]}],"tooSloped":false},{"duration":1099,"startTime":1522671139000,"endTime":1522672238000,"walkTime":537,"transitTime":560,"waitingTime":2,"walkDistance":686.2579548829601,"walkLimitExceeded":false,"elevationLost":0.0,"elevationGained":0.0,"transfers":0,"legs":[{"startTime":1522671139000,"endTime":1522671426000,"departureDelay":0,"arrivalDelay":0,"realTime":false,"distance":366.581,"pathway":false,"mode":"WALK","route":"","agencyTimeZoneOffset":-14400000,"interlineWithPreviousLeg":false,"from":{"name":"Origin","lon":-71.052902,"lat":48.396738,"departure":1522671139000,"orig":"","vertexType":"NORMAL"},"to":{"name":"Engoulevents / Bernaches","stopId":"1:1509","stopCode":"1509","lon":-71.051416,"lat":48.399414,"arrival":1522671426000,"departure":1522671427000,"zoneId":"NA","stopIndex":9,"stopSequence":10,"vertexType":"TRANSIT"},"legGeometry":{"points":"iokfHjntpLUA{BwBiAjDMMeBgBmByBm@o@SO","length":9},"rentedBike":false,"transitLeg":false,"duration":287.0,"steps":[{"distance":93.436,"relativeDirection":"DEPART","streetName":"Rue des Roselins","absoluteDirection":"NORTH","stayOn":false,"area":false,"bogusName":false,"lon":-71.052692,"lat":48.396859,"elevation":[]},{"distance":75.506,"relativeDirection":"LEFT","streetName":"Rue des Chardonnerets","absoluteDirection":"NORTHWEST","stayOn":false,"area":false,"bogusName":false,"lon":-71.0520891,"lat":48.3975844,"elevation":[]},{"distance":197.639,"relativeDirection":"RIGHT","streetName":"Rue des Engoulevents","absoluteDirection":"NORTHEAST","stayOn":false,"area":false,"bogusName":false,"lon":-71.0529455,"lat":48.3979556,"elevation":[]}]},{"startTime":1522671427000,"endTime":1522671987000,"departureDelay":0,"arrivalDelay":0,"realTime":false,"distance":3262.2045866944095,"pathway":false,"mode":"BUS","route":"15","agencyName":"Société de Transport du Saguenay","agencyUrl":"http://ville.saguenay.ca/fr/services-aux-citoyens/transport-sts","agencyTimeZoneOffset":-14400000,"routeColor":"FF00FF","routeType":3,"routeId":"1:15","routeTextColor":"FFFFFF","interlineWithPreviousLeg":false,"tripBlockId":"30","headsign":"Terminus Chicoutimi","agencyId":"0","tripId":"1:218090","serviceDate":"20180402","from":{"name":"Engoulevents / Bernaches","stopId":"1:1509","stopCode":"1509","lon":-71.051416,"lat":48.399414,"arrival":1522671426000,"departure":1522671427000,"zoneId":"NA","stopIndex":9,"stopSequence":10,"vertexType":"TRANSIT"},"to":{"name":"École secondaire de l'Odyssé Dominique-Racine","stopId":"1:580","stopCode":"580","lon":-71.067703,"lat":48.412977,"arrival":1522671987000,"departure":1522671988000,"zoneId":"NA","stopIndex":24,"stopSequence":25,"vertexType":"TRANSIT"},"legGeometry":{"points":"g_lfHdftpLy@q@sDy@GAeGT~@~KKrKyAnL[hBUxAm@nCcAlDeCvGmA|CUr@}@~A_@\\_DvCEZcA|@UP_@d@Yl@oBdFeCxG_CfGYVQXS\\dK|HlFZbC\\p@zA\\rB@hBiArG{BNw@FiG}@iDwAECcCcBo@y@sEeGe@o@qAa@m@MoB?C@}BZwAc@oA_Bs@gDCKZ{Di@QECc@_@","length":58},"routeShortName":"15","routeLongName":"Term. Chic / Costco","rentedBike":false,"transitLeg":true,"duration":560.0,"steps":[]},{"startTime":1522671988000,"endTime":1522672238000,"departureDelay":0,"arrivalDelay":0,"realTime":false,"distance":319.545,"pathway":false,"mode":"WALK","route":"","agencyTimeZoneOffset":-14400000,"interlineWithPreviousLeg":false,"from":{"name":"École secondaire de l'Odyssé Dominique-Racine","stopId":"1:580","stopCode":"580","lon":-71.067703,"lat":48.412977,"arrival":1522671987000,"departure":1522671988000,"zoneId":"NA","stopIndex":24,"stopSequence":25,"vertexType":"TRANSIT"},"to":{"name":"Destination","lon":-71.06569,"lat":48.412273,"arrival":1522672238000,"orig":"","vertexType":"NORMAL"},"legGeometry":{"points":"gtnfHplwpLr@l@LTxAeGBEtByEwA{A","length":7},"rentedBike":false,"transitLeg":false,"duration":250.0,"steps":[{"distance":44.071,"relativeDirection":"DEPART","streetName":"Rue Bégin","absoluteDirection":"SOUTHWEST","stayOn":false,"area":false,"bogusName":false,"lon":-71.06776357747735,"lat":48.41300064951352,"elevation":[]},{"distance":215.69799999999998,"relativeDirection":"LEFT","streetName":"Rue Georges-Vanier","absoluteDirection":"SOUTHEAST","stayOn":false,"area":false,"bogusName":false,"lon":-71.0681022,"lat":48.4126786,"elevation":[]},{"distance":59.776,"relativeDirection":"LEFT","streetName":"Rue Georges-Vanier","absoluteDirection":"NORTHEAST","stayOn":true,"area":false,"bogusName":false,"lon":-71.0656757,"lat":48.4116147,"elevation":[]}]}],"tooSloped":false}]},"debugOutput":{"precalculationTime":52,"pathCalculationTime":45,"pathTimes":[22,11,12],"renderingTime":0,"totalTime":97,"timedOut":false},"elevationMetadata":{"ellipsoidToGeoidDifference":-28.885904201182168,"geoidElevation":false}}