{"requestParameters":{"date":"2018/04/02","walkSpeed":"1.33","walkReluctance":"2.0","fromPlace":"48.421517,-71.074723","maxWalkDistance":"3000","waitReluctance":"1.0","carSpeed":"33","numItineraries":"3","waitAtBeginningFactor":"0.4","mode":"TRANSIT,WALK","ignoreRealtimeUpdates":"false","stairsReluctance":"2.0","toPlace":"48.396738,-71.052902","time":"20:0:00"},"plan":{"date":1522713600000,"from":{"name":"Origin","lon":-71.074723,"lat":48.421517,"orig":"","vertexType":"NORMAL"},"to":{"name":"Destination","lon":-71.052902,"lat":48.396738,"orig":"","vertexType":"NORMAL"},"itineraries":[{"duration":2094,"startTime":1522713647000,"endTime":1522715741000,"walkTime":1797,"transitTime":295,"waitingTime":2,"walkDistance":2307.6861052537324,"walkLimitExceeded":false,"elevationLost":0.0,"elevationGained":0.0,"transfers":0,"legs":[{"startTime":1522713647000,"endTime":1522714473000,"departureDelay":0,"arrivalDelay":0,"realTime":false,"distance":1053.6570000000002,"pathway":false,"mode":"WALK","route":"","agencyTimeZoneOffset":-14400000,"interlineWithPreviousLeg":false,"from":{"name":"Origin","lon":-71.074723,"lat":48.421517,"departure":1522713647000,"orig":"","vertexType":"NORMAL"},"to":{"name":"Bégin (no. 825)","stopId":"1:2005","stopCode":"2005","lon":-71.064205,"lat":48.41684,"arrival":1522714473000,"departure":1522714474000,"zoneId":"NA","stopIndex":6,"stopSequence":7,"vertexType":"TRANSIT"},"legGeometry":{"points":"ohpfH~xxpLLc@Xq@Pa@FEFCDCBG@I@K?MESfA_CNc@`@mAZ}@bAkCn@}AfBwEZi@PSVa@V[FE\\Y^Y^Kn@MXy@d@oBQEK]Mq@C_BQWQKUEP]Jg@?[@gABk@Hy@p@gAlAiBzA_B","length":46},"rentedBike":false,"transitLeg":false,"duration":826.0,"steps":[{"distance":15.285,"relativeDirection":"DEPART","streetName":"Rue Dubuc","absoluteDirection":"SOUTHEAST","stayOn":false,"area":false,"bogusName":false,"lon":-71.0748717381921,"lat":48.4213672534298,"elevation":[]},{"distance":78.343,"relativeDirection":"CONTINUE","streetName":"path","absoluteDirection":"SOUTHEAST","stayOn":false,"area":false,"bogusName":true,"lon":-71.07469880000001,"lat":48.4212916,"elevation":[]},{"distance":505.5630000000001,"relativeDirection":"RIGHT","streetName":"Rue Jolliet","absoluteDirection":"SOUTHEAST","stayOn":false,"area":false,"bogusName":false,"lon":-71.07388590000001,"lat":48.420954200000004,"elevation":[]},{"distance":454.466,"relativeDirection":"LEFT","streetName":"path","absoluteDirection":"SOUTHEAST","stayOn":false,"area":false,"bogusName":true,"lon":-71.069079,"lat":48.417887500000006,"elevation":[]}]},{"startTime":1522714474000,"endTime":1522714769000,"departureDelay":0,"arrivalDelay":0,"realTime":false,"distance":1646.0919005807455,"pathway":false,"mode":"BUS","route":"12","agencyName":"Société de Transport du Saguenay","agencyUrl":"http://ville.saguenay.ca/fr/services-aux-citoyens/transport-sts","agencyTimeZoneOffset":-14400000,"routeColor":"556B2F","routeType":3,"routeId":"1:12","routeTextColor":"FFFFFF","interlineWithPreviousLeg":false,"tripBlockId":"26","headsign":"Terminus Chicoutimi","agencyId":"0","tripId":"1:217991","serviceDate":"20180402","from":{"name":"Bégin (no. 825)","stopId":"1:2005","stopCode":"2005","lon":-71.064205,"lat":48.41684,"arrival":1522714473000,"departure":1522714474000,"zoneId":"NA","stopIndex":6,"stopSequence":7,"vertexType":"TRANSIT"},"to":{"name":"Émile-Girardin / Roitelets","stopId":"1:268","stopCode":"268","lon":-71.050698,"lat":48.406546,"arrival":1522714769000,"departure":1522714770000,"zoneId":"NA","stopIndex":14,"stopSequence":15,"vertexType":"TRANSIT"},"legGeometry":{"points":"wkofHfuvpLnCpCv@iBlAgIdCmFbAqDtBeCjFm@`Gs@hFo@xAmBrGcPxFoNlCyGa@yF","length":15},"routeShortName":"12","routeLongName":"Rivière du Moulin","rentedBike":false,"transitLeg":true,"duration":295.0,"steps":[]},{"startTime":1522714770000,"endTime":1522715741000,"departureDelay":0,"arrivalDelay":0,"realTime":false,"distance":1253.737,"pathway":false,"mode":"WALK","route":"","agencyTimeZoneOffset":-14400000,"interlineWithPreviousLeg":false,"from":{"name":"Émile-Girardin / Roitelets","stopId":"1:268","stopCode":"268","lon":-71.050698,"lat":48.406546,"arrival":1522714769000,"departure":1522714770000,"zoneId":"NA","stopIndex":14,"stopSequence":15,"vertexType":"TRANSIT"},"to":{"name":"Destination","lon":-71.052902,"lat":48.396738,"arrival":1522715741000,"orig":"","vertexType":"NORMAL"},"legGeometry":{"points":"mlmfHbbtpLFn@z@pEt@]l@Qp@E|@B|@LtAJfA?^Ed@MNGrBm@jEiA^KTGp@U|AOf@D|@D@?r@D|AZtA|@B@RNl@n@lBxBdBfBLLhAkDzBvBT@","length":34},"rentedBike":false,"transitLeg":false,"duration":971.0,"steps":[{"distance":102.818,"relativeDirection":"DEPART","streetName":"Rue Émile-Girardin","absoluteDirection":"WEST","stayOn":false,"area":false,"bogusName":false,"lon":-71.05073193352945,"lat":48.4066347754418,"elevation":[]},{"distance":494.333,"relativeDirection":"LEFT","streetName":"Rue des Champs-Élysées","absoluteDirection":"SOUTH","stayOn":false,"area":false,"bogusName":false,"lon":-71.05202630000001,"lat":48.4062974,"elevation":[]},{"distance":487.644,"relativeDirection":"CONTINUE","streetName":"Rue des Engoulevents","absoluteDirection":"SOUTH","stayOn":false,"area":false,"bogusName":false,"lon":-71.0511074,"lat":48.401948700000005,"elevation":[]},{"distance":75.506,"relativeDirection":"LEFT","streetName":"Rue des Chardonnerets","absoluteDirection":"SOUTHEAST","stayOn":false,"area":false,"bogusName":false,"lon":-71.0529455,"lat":48.3979556,"elevation":[]},{"distance":93.436,"relativeDirection":"RIGHT","streetName":"Rue des Roselins","absoluteDirection":"SOUTHWEST","stayOn":false,"area":false,"bogusName":false,"lon":-71.0520891,"lat":48.3975844,"elevation":[]}]}],"tooSloped":false},{"duration":1869,"startTime":1522714308000,"endTime":1522716177000,"walkTime":1114,"transitTime":753,"waitingTime":2,"walkDistance":1420.4770977366459,"walkLimitExceeded":false,"elevationLost":0.0,"elevationGained":0.0,"transfers":0,"legs":[{"startTime":1522714308000,"endTime":1522715134000,"departureDelay":0,"arrivalDelay":0,"realTime":false,"distance":1053.6570000000002,"pathway":false,"mode":"WALK","route":"","agencyTimeZoneOffset":-14400000,"interlineWithPreviousLeg":false,"from":{"name":"Origin","lon":-71.074723,"lat":48.421517,"departure":1522714308000,"orig":"","vertexType":"NORMAL"},"to":{"name":"Bégin (no. 825)","stopId":"1:2005","stopCode":"2005","lon":-71.064205,"lat":48.41684,"arrival":1522715134000,"departure":1522715135000,"zoneId":"NA","stopIndex":10,"stopSequence":11,"vertexType":"TRANSIT"},"legGeometry":{"points":"ohpfH~xxpLLc@Xq@Pa@FEFCDCBG@I@K?MESfA_CNc@`@mAZ}@bAkCn@}AfBwEZi@PSVa@V[FE\\Y^Y^Kn@MXy@d@oBQEK]Mq@C_BQWQKUEP]Jg@?[@gABk@Hy@p@gAlAiBzA_B","length":46},"rentedBike":false,"transitLeg":false,"duration":826.0,"steps":[{"distance":15.285,"relativeDirection":"DEPART","streetName":"Rue Dubuc","absoluteDirection":"SOUTHEAST","stayOn":false,"area":false,"bogusName":false,"lon":-71.0748717381921,"lat":48.4213672534298,"elevation":[]},{"distance":78.343,"relativeDirection":"CONTINUE","streetName":"path","absoluteDirection":"SOUTHEAST","stayOn":false,"area":false,"bogusName":true,"lon":-71.07469880000001,"lat":48.4212916,"elevation":[]},{"distance":505.5630000000001,"relativeDirection":"RIGHT","streetName":"Rue Jolliet","absoluteDirection":"SOUTHEAST","stayOn":false,"area":false,"bogusName":false,"lon":-71.07388590000001,"lat":48.420954200000004,"elevation":[]},{"distance":454.466,"relativeDirection":"LEFT","streetName":"path","absoluteDirection":"SOUTHEAST","stayOn":false,"area":false,"bogusName":true,"lon":-71.069079,"lat":48.417887500000006,"elevation":[]}]},{"startTime":1522715135000,"endTime":1522715888000,"departureDelay":0,"arrivalDelay":0,"realTime":false,"distance":3690.0896562264056,"pathway":false,"mode":"BUS","route":"15","agencyName":"Société de Transport du Saguenay","agencyUrl":"http://ville.saguenay.ca/fr/services-aux-citoyens/transport-sts","agencyTimeZoneOffset":-14400000,"routeColor":"FF00FF","routeType":3,"routeId":"1:15","routeTextColor":"FFFFFF","interlineWithPreviousLeg":false,"tripBlockId":"33","headsign":"Talbot / Barrette","agencyId":"0","tripId":"1:218199","serviceDate":"20180402","from":{"name":"Bégin (no. 825)","stopId":"1:2005","stopCode":"2005","lon":-71.064205,"lat":48.41684,"arrival":1522715134000,"departure":1522715135000,"zoneId":"NA","stopIndex":10,"stopSequence":11,"vertexType":"TRANSIT"},"to":{"name":"Engoulevents / Bernaches","stopId":"1:1509","stopCode":"1509","lon":-71.051416,"lat":48.399414,"arrival":1522715888000,"departure":1522715889000,"zoneId":"NA","stopIndex":26,"stopSequence":27,"vertexType":"TRANSIT"},"legGeometry":{"points":"okofHvtvpLlJpJ|J~JdAfALzDNzDrAdBrEKvBEbCv@d@TvFlC|DlBpMlGrB`AM}@hAwEC{B]oBiBmBsH_@_K{H`EgIvCaGfEoItDsH~DeItC{FnBoLbCaO?qLa@uJzF`ApF~@","length":34},"routeShortName":"15","routeLongName":"Term. Chic / Costco","rentedBike":false,"transitLeg":true,"duration":753.0,"steps":[]},{"startTime":1522715889000,"endTime":1522716177000,"departureDelay":0,"arrivalDelay":0,"realTime":false,"distance":366.581,"pathway":false,"mode":"WALK","route":"","agencyTimeZoneOffset":-14400000,"interlineWithPreviousLeg":false,"from":{"name":"Engoulevents / Bernaches","stopId":"1:1509","stopCode":"1509","lon":-71.051416,"lat":48.399414,"arrival":1522715888000,"departure":1522715889000,"zoneId":"NA","stopIndex":26,"stopSequence":27,"vertexType":"TRANSIT"},"to":{"name":"Destination","lon":-71.052902,"lat":48.396738,"arrival":1522716177000,"orig":"","vertexType":"NORMAL"},"legGeometry":{"points":"i_lfHlftpLRNl@n@lBxBdBfBLLhAkDzBvBT@","length":9},"rentedBike":false,"transitLeg":false,"duration":288.0,"steps":[{"distance":197.639,"relativeDirection":"DEPART","streetName":"Rue des Engoulevents","absoluteDirection":"SOUTHWEST","stayOn":false,"area":false,"bogusName":false,"lon":-71.051428970226,"lat":48.39941817689361,"elevation":[]},{"distance":75.506,"relativeDirection":"LEFT","streetName":"Rue des Chardonnerets","absoluteDirection":"SOUTHEAST","stayOn":false,"area":false,"bogusName":false,"lon":-71.0529455,"lat":48.3979556,"elevation":[]},{"distance":93.436,"relativeDirection":"RIGHT","streetName":"Rue des Roselins","absoluteDirection":"SOUTHWEST","stayOn":false,"area":false,"bogusName":false,"lon":-71.0520891,"lat":48.3975844,"elevation":[]}]}],"tooSloped":false},{"duration":1436,"startTime":1522716955000,"endTime":1522718391000,"walkTime":438,"transitTime":996,"waitingTime":2,"walkDistance":549.4409097707605,"walkLimitExceeded":false,"elevationLost":0.0,"elevationGained":0.0,"transfers":0,"legs":[{"startTime":1522716955000,"endTime":1522717094000,"departureDelay":0,"arrivalDelay":0,"realTime":false,"distance":171.15200000000002,"pathway":false,"mode":"WALK","route":"","agencyTimeZoneOffset":-14400000,"interlineWithPreviousLeg":false,"from":{"name":"Origin","lon":-71.074723,"lat":48.421517,"departure":1522716955000,"orig":"","vertexType":"NORMAL"},"to":{"name":"Jolliet / Caron","stopId":"1:552","stopCode":"552","lon":-71.073027,"lat":48.420559,"arrival":1522717094000,"departure":1522717095000,"zoneId":"NA","stopIndex":10,"stopSequence":11,"vertexType":"TRANSIT"},"legGeometry":{"points":"ohpfH~xxpLLc@Xq@Pa@FEFCDCBG@I@K?MESfA_CNc@","length":14},"rentedBike":false,"transitLeg":false,"duration":139.0,"steps":[{"distance":15.285,"relativeDirection":"DEPART","streetName":"Rue Dubuc","absoluteDirection":"SOUTHEAST","stayOn":false,"area":false,"bogusName":false,"lon":-71.0748717381921,"lat":48.4213672534298,"elevation":[]},{"distance":78.343,"relativeDirection":"CONTINUE","streetName":"path","absoluteDirection":"SOUTHEAST","stayOn":false,"area":false,"bogusName":true,"lon":-71.07469880000001,"lat":48.4212916,"elevation":[]},{"distance":77.524,"relativeDirection":"RIGHT","streetName":"Rue Jolliet","absoluteDirection":"SOUTHEAST","stayOn":false,"area":false,"bogusName":false,"lon":-71.07388590000001,"lat":48.420954200000004,"elevation":[]}]},{"startTime":1522717095000,"endTime":1522717860000,"departureDelay":0,"arrivalDelay":0,"realTime":false,"distance":6245.821937629069,"pathway":false,"mode":"BUS","route":"14","agencyName":"Société de Transport du Saguenay","agencyUrl":"http://ville.saguenay.ca/fr/services-aux-citoyens/transport-sts","agencyTimeZoneOffset":-14400000,"routeColor":"C0C000","routeType":3,"routeId":"1:14","routeTextColor":"000000","interlineWithPreviousLeg":false,"tripBlockId":"30","headsign":"Talbot / Barrette","agencyId":"0","tripId":"1:218115","serviceDate":"20180402","from":{"name":"Jolliet / Caron","stopId":"1:552","stopCode":"552","lon":-71.073027,"lat":48.420559,"arrival":1522717094000,"departure":1522717095000,"zoneId":"NA","stopIndex":10,"stopSequence":11,"vertexType":"TRANSIT"},"to":{"name":"Roitelets / Sapins","stopId":"1:1543","stopCode":"1543","lon":-71.069553,"lat":48.393375,"arrival":1522717860000,"departure":1522717860000,"zoneId":"NA","stopIndex":35,"stopSequence":36,"vertexType":"TRANSIT"},"legGeometry":{"points":"kcpfHpmxpLO^bEbEzK`LfBeEtK`KhAdAnCbCvBpCNR~BxAxBf@z@h@vAz@z@{DrCoITTlElEtAnB`@l@pFrD@?fDr@XgAjFuR\\yADm@b@gFd@_B`A}@tEvJBDvC`FtJ|LLNlClC|@^hCYVExCjCb@d@vE`F`BhB?pHaBhRqAbLK~@qBxFqB|FcC~GyC\\aDkDcFsF~CgOtGm[j@oCvEoSl@_CxCmLjAeFpCeKrByHfAqCvH_SLa@","length":65},"routeShortName":"14","routeLongName":"Coopérative","rentedBike":false,"transitLeg":true,"duration":765.0,"steps":[]},{"startTime":1522717860000,"endTime":1522718091000,"departureDelay":0,"arrivalDelay":0,"realTime":false,"distance":1632.9769100757203,"pathway":false,"mode":"BUS","route":"15","agencyName":"Société de Transport du Saguenay","agencyUrl":"http://ville.saguenay.ca/fr/services-aux-citoyens/transport-sts","agencyTimeZoneOffset":-14400000,"routeColor":"FF00FF","routeType":3,"routeId":"1:15","routeTextColor":"FFFFFF","interlineWithPreviousLeg":true,"tripBlockId":"30","headsign":"Terminus Chicoutimi","agencyId":"0","tripId":"1:218116","serviceDate":"20180402","from":{"name":"Roitelets / Sapins","stopId":"1:1543","stopCode":"1543","lon":-71.069553,"lat":48.393375,"arrival":1522717860000,"departure":1522717860000,"zoneId":"NA","stopIndex":0,"stopSequence":1,"vertexType":"TRANSIT"},"to":{"name":"Roitelets / Chardonnerets","stopId":"1:1977","stopCode":"1977","lon":-71.049126,"lat":48.395249,"arrival":1522718091000,"departure":1522718092000,"zoneId":"NA","stopIndex":6,"stopSequence":7,"vertexType":"TRANSIT"},"legGeometry":{"points":"_zjfHfwwpLx@}BHa@NaADq@@y@Cy@I{@Ka@O[Sg@c@mAWwAMyA?EC]?wABuABmFB{@BmDFuH@i@F[FsC@c@TuGEGVsHPuDLuBXsFDoA?W@]Cu@GcAKu@Q_ASo@a@y@a@o@MOUUeCqBiDsD","length":46},"routeShortName":"15","routeLongName":"Term. Chic / Costco","rentedBike":false,"transitLeg":true,"duration":231.0,"steps":[]},{"startTime":1522718092000,"endTime":1522718391000,"departureDelay":0,"arrivalDelay":0,"realTime":false,"distance":378.17499999999995,"pathway":false,"mode":"WALK","route":"","agencyTimeZoneOffset":-14400000,"interlineWithPreviousLeg":false,"from":{"name":"Roitelets / Chardonnerets","stopId":"1:1977","stopCode":"1977","lon":-71.049126,"lat":48.395249,"arrival":1522718091000,"departure":1522718092000,"zoneId":"NA","stopIndex":6,"stopSequence":7,"vertexType":"TRANSIT"},"to":{"name":"Destination","lon":-71.052902,"lat":48.396738,"arrival":1522718391000,"orig":"","vertexType":"NORMAL"},"legGeometry":{"points":"iekfHdxspLPRERENo@tBc@b@i@V{BtAl@lC?X}ApD[j@","length":12},"rentedBike":false,"transitLeg":false,"duration":299.0,"steps":[{"distance":13.243,"relativeDirection":"DEPART","streetName":"bike path","absoluteDirection":"SOUTHWEST","stayOn":false,"area":false,"bogusName":true,"lon":-71.04914293530794,"lat":48.39525700945871,"elevation":[]},{"distance":8.029,"relativeDirection":"RIGHT","streetName":"path","absoluteDirection":"NORTHWEST","stayOn":true,"area":false,"bogusName":true,"lon":-71.04924700000001,"lat":48.395160000000004,"elevation":[]},{"distance":182.609,"relativeDirection":"CONTINUE","streetName":"Rue des Chardonnerets","absoluteDirection":"NORTHWEST","stayOn":false,"area":false,"bogusName":false,"lon":-71.0493431,"lat":48.3951938,"elevation":[]},{"distance":174.294,"relativeDirection":"LEFT","streetName":"Rue des Roselins","absoluteDirection":"SOUTHWEST","stayOn":false,"area":false,"bogusName":false,"lon":-71.0507475,"lat":48.39647,"elevation":[]}]}],"tooSloped":false}]},"debugOutput":{"precalculationTime":48,"pathCalculationTime":61,"pathTimes":[25,16,20],"renderingTime":1,"totalTime":110,"timedOut":false},"elevationMetadata":{"ellipsoidToGeoidDifference":-28.885904201182168,"geoidElevation":false}}