{"requestParameters":{"date":"2018/04/02","walkSpeed":"1.33","walkReluctance":"2.0","fromPlace":"48.395736,-71.077484","maxWalkDistance":"3000","waitReluctance":"1.0","carSpeed":"33","numItineraries":"3","waitAtBeginningFactor":"0.4","mode":"TRANSIT,WALK","ignoreRealtimeUpdates":"false","stairsReluctance":"2.0","toPlace":"48.393977,-71.067824","time":"13:0:00"},"plan":{"date":1522688400000,"from":{"name":"Origin","lon":-71.077484,"lat":48.395736,"orig":"","vertexType":"NORMAL"},"to":{"name":"Destination","lon":-71.067824,"lat":48.393977,"orig":"","vertexType":"NORMAL"},"itineraries":[{"duration":688,"startTime":1522688400000,"endTime":1522689088000,"walkTime":688,"transitTime":0,"waitingTime":0,"walkDistance":892.0341428536857,"walkLimitExceeded":false,"elevationLost":0.0,"elevationGained":0.0,"transfers":0,"legs":[{"startTime":1522688400000,"endTime":1522689088000,"departureDelay":0,"arrivalDelay":0,"realTime":false,"distance":891.927,"pathway":false,"mode":"WALK","route":"","agencyTimeZoneOffset":-14400000,"interlineWithPreviousLeg":false,"from":{"name":"Origin","lon":-71.077484,"lat":48.395736,"departure":1522688400000,"orig":"","vertexType":"NORMAL"},"to":{"name":"Destination","lon":-71.067824,"lat":48.393977,"arrival":1522689088000,"orig":"","vertexType":"NORMAL"},"legGeometry":{"points":"_ikfHrjypL[a@W[EMCO?M@OeAi@f@kBlAyEnA_Fj@eBz@cCz@cCtCwH?Q?IPc@|A}DDi@eDyE","length":21},"rentedBike":false,"transitLeg":false,"duration":688.0,"steps":[{"distance":61.074,"relativeDirection":"DEPART","streetName":"Rue Jacques-Ferron","absoluteDirection":"NORTHEAST","stayOn":false,"area":false,"bogusName":false,"lon":-71.07769262508911,"lat":48.395842324320505,"elevation":[]},{"distance":41.863,"relativeDirection":"LEFT","streetName":"path","absoluteDirection":"NORTH","stayOn":false,"area":false,"bogusName":true,"lon":-71.0770823,"lat":48.3961436,"elevation":[]},{"distance":546.237,"relativeDirection":"RIGHT","streetName":"bike path","absoluteDirection":"SOUTHEAST","stayOn":true,"area":false,"bogusName":true,"lon":-71.0768749,"lat":48.396494000000004,"elevation":[]},{"distance":16.674,"relativeDirection":"SLIGHTLY_RIGHT","streetName":"Boulevard Barrette","absoluteDirection":"SOUTHEAST","stayOn":false,"area":false,"bogusName":false,"lon":-71.0705975,"lat":48.3939363,"elevation":[]},{"distance":103.83,"relativeDirection":"CONTINUE","streetName":"Rue Des Roitelets","absoluteDirection":"SOUTHEAST","stayOn":false,"area":false,"bogusName":false,"lon":-71.07041720000001,"lat":48.393846,"elevation":[]},{"distance":122.249,"relativeDirection":"LEFT","streetName":"Rue des Sapins","absoluteDirection":"NORTHEAST","stayOn":false,"area":false,"bogusName":false,"lon":-71.0692502,"lat":48.3933437,"elevation":[]}]}],"tooSloped":false},{"duration":349,"startTime":1522688834000,"endTime":1522689183000,"walkTime":312,"transitTime":35,"waitingTime":2,"walkDistance":394.4923834553107,"walkLimitExceeded":false,"elevationLost":0.0,"elevationGained":0.0,"transfers":0,"legs":[{"startTime":1522688834000,"endTime":1522689024000,"departureDelay":0,"arrivalDelay":0,"realTime":false,"distance":239.637,"pathway":false,"mode":"WALK","route":"","agencyTimeZoneOffset":-14400000,"interlineWithPreviousLeg":false,"from":{"name":"Origin","lon":-71.077484,"lat":48.395736,"departure":1522688834000,"orig":"","vertexType":"NORMAL"},"to":{"name":"boul. Barrette / Jacques-Ferron","stopId":"1:271","stopCode":"271","lon":-71.07524,"lat":48.395917,"arrival":1522689024000,"departure":1522689025000,"zoneId":"NA","stopIndex":33,"stopSequence":34,"vertexType":"TRANSIT"},"legGeometry":{"points":"_ikfHrjypL[a@W[EMCO?M@OeAi@f@kBlAyE","length":10},"rentedBike":false,"transitLeg":false,"duration":190.0,"steps":[{"distance":61.074,"relativeDirection":"DEPART","streetName":"Rue Jacques-Ferron","absoluteDirection":"NORTHEAST","stayOn":false,"area":false,"bogusName":false,"lon":-71.07769262508911,"lat":48.395842324320505,"elevation":[]},{"distance":41.863,"relativeDirection":"LEFT","streetName":"path","absoluteDirection":"NORTH","stayOn":false,"area":false,"bogusName":true,"lon":-71.0770823,"lat":48.3961436,"elevation":[]},{"distance":136.7,"relativeDirection":"RIGHT","streetName":"bike path","absoluteDirection":"SOUTHEAST","stayOn":true,"area":false,"bogusName":true,"lon":-71.0768749,"lat":48.396494000000004,"elevation":[]}]},{"startTime":1522689025000,"endTime":1522689060000,"departureDelay":0,"arrivalDelay":0,"realTime":false,"distance":506.59896771254614,"pathway":false,"mode":"BUS","route":"14","agencyName":"Société de Transport du Saguenay","agencyUrl":"http://ville.saguenay.ca/fr/services-aux-citoyens/transport-sts","agencyTimeZoneOffset":-14400000,"routeColor":"C0C000","routeType":3,"routeId":"1:14","routeTextColor":"000000","interlineWithPreviousLeg":false,"tripBlockId":"30","headsign":"Talbot / Barrette","agencyId":"0","tripId":"1:218099","serviceDate":"20180402","from":{"name":"boul. Barrette / Jacques-Ferron","stopId":"1:271","stopCode":"271","lon":-71.07524,"lat":48.395917,"arrival":1522689024000,"departure":1522689025000,"zoneId":"NA","stopIndex":33,"stopSequence":34,"vertexType":"TRANSIT"},"to":{"name":"Roitelets / Sapins","stopId":"1:1543","stopCode":"1543","lon":-71.069553,"lat":48.393375,"arrival":1522689060000,"departure":1522689061000,"zoneId":"NA","stopIndex":35,"stopSequence":36,"vertexType":"TRANSIT"},"legGeometry":{"points":"{ikfH|zxpLrByHfAqCvH_SLa@","length":5},"routeShortName":"14","routeLongName":"Coopérative","rentedBike":false,"transitLeg":true,"duration":35.0,"steps":[]},{"startTime":1522689061000,"endTime":1522689183000,"departureDelay":0,"arrivalDelay":0,"realTime":false,"distance":154.752,"pathway":false,"mode":"WALK","route":"","agencyTimeZoneOffset":-14400000,"interlineWithPreviousLeg":false,"from":{"name":"Roitelets / Sapins","stopId":"1:1543","stopCode":"1543","lon":-71.069553,"lat":48.393375,"arrival":1522689060000,"departure":1522689061000,"zoneId":"NA","stopIndex":35,"stopSequence":36,"vertexType":"TRANSIT"},"to":{"name":"Destination","lon":-71.067824,"lat":48.393977,"arrival":1522689183000,"orig":"","vertexType":"NORMAL"},"legGeometry":{"points":"oyjfHxwwpLTm@QOeDyE","length":4},"rentedBike":false,"transitLeg":false,"duration":122.0,"steps":[{"distance":21.055,"relativeDirection":"DEPART","streetName":"bike path","absoluteDirection":"SOUTHEAST","stayOn":false,"area":false,"bogusName":true,"lon":-71.0695674967601,"lat":48.39336056343373,"elevation":[]},{"distance":11.448,"relativeDirection":"LEFT","streetName":"path","absoluteDirection":"NORTHEAST","stayOn":true,"area":false,"bogusName":true,"lon":-71.06933020000001,"lat":48.3932555,"elevation":[]},{"distance":122.249,"relativeDirection":"CONTINUE","streetName":"Rue des Sapins","absoluteDirection":"NORTHEAST","stayOn":false,"area":false,"bogusName":false,"lon":-71.0692502,"lat":48.3933437,"elevation":[]}]}],"tooSloped":false},{"duration":349,"startTime":1522690634000,"endTime":1522690983000,"walkTime":312,"transitTime":35,"waitingTime":2,"walkDistance":394.4923834553107,"walkLimitExceeded":false,"elevationLost":0.0,"elevationGained":0.0,"transfers":0,"legs":[{"startTime":1522690634000,"endTime":1522690824000,"departureDelay":0,"arrivalDelay":0,"realTime":false,"distance":239.637,"pathway":false,"mode":"WALK","route":"","agencyTimeZoneOffset":-14400000,"interlineWithPreviousLeg":false,"from":{"name":"Origin","lon":-71.077484,"lat":48.395736,"departure":1522690634000,"orig":"","vertexType":"NORMAL"},"to":{"name":"boul. Barrette / Jacques-Ferron","stopId":"1:271","stopCode":"271","lon":-71.07524,"lat":48.395917,"arrival":1522690824000,"departure":1522690825000,"zoneId":"NA","stopIndex":33,"stopSequence":34,"vertexType":"TRANSIT"},"legGeometry":{"points":"_ikfHrjypL[a@W[EMCO?M@OeAi@f@kBlAyE","length":10},"rentedBike":false,"transitLeg":false,"duration":190.0,"steps":[{"distance":61.074,"relativeDirection":"DEPART","streetName":"Rue Jacques-Ferron","absoluteDirection":"NORTHEAST","stayOn":false,"area":false,"bogusName":false,"lon":-71.07769262508911,"lat":48.395842324320505,"elevation":[]},{"distance":41.863,"relativeDirection":"LEFT","streetName":"path","absoluteDirection":"NORTH","stayOn":false,"area":false,"bogusName":true,"lon":-71.0770823,"lat":48.3961436,"elevation":[]},{"distance":136.7,"relativeDirection":"RIGHT","streetName":"bike path","absoluteDirection":"SOUTHEAST","stayOn":true,"area":false,"bogusName":true,"lon":-71.0768749,"lat":48.396494000000004,"elevation":[]}]},{"startTime":1522690825000,"endTime":1522690860000,"departureDelay":0,"arrivalDelay":0,"realTime":false,"distance":506.59896771254614,"pathway":false,"mode":"BUS","route":"14","agencyName":"Société de Transport du Saguenay","agencyUrl":"http://ville.saguenay.ca/fr/services-aux-citoyens/transport-sts","agencyTimeZoneOffset":-14400000,"routeColor":"C0C000","routeType":3,"routeId":"1:14","routeTextColor":"000000","interlineWithPreviousLeg":false,"tripBlockId":"32","headsign":"Talbot / Barrette","agencyId":"0","tripId":"1:218160","serviceDate":"20180402","from":{"name":"boul. Barrette / Jacques-Ferron","stopId":"1:271","stopCode":"271","lon":-71.07524,"lat":48.395917,"arrival":1522690824000,"departure":1522690825000,"zoneId":"NA","stopIndex":33,"stopSequence":34,"vertexType":"TRANSIT"},"to":{"name":"Roitelets / Sapins","stopId":"1:1543","stopCode":"1543","lon":-71.069553,"lat":48.393375,"arrival":1522690860000,"departure":1522690861000,"zoneId":"NA","stopIndex":35,"stopSequence":36,"vertexType":"TRANSIT"},"legGeometry":{"points":"{ikfH|zxpLrByHfAqCvH_SLa@","length":5},"routeShortName":"14","routeLongName":"Coopérative","rentedBike":false,"transitLeg":true,"duration":35.0,"steps":[]},{"startTime":1522690861000,"endTime":1522690983000,"departureDelay":0,"arrivalDelay":0,"realTime":false,"distance":154.752,"pathway":false,"mode":"WALK","route":"","agencyTimeZoneOffset":-14400000,"interlineWithPreviousLeg":false,"from":{"name":"Roitelets / Sapins","stopId":"1:1543","stopCode":"1543","lon":-71.069553,"lat":48.393375,"arrival":1522690860000,"departure":1522690861000,"zoneId":"NA","stopIndex":35,"stopSequence":36,"vertexType":"TRANSIT"},"to":{"name":"Destination","lon":-71.067824,"lat":48.393977,"arrival":1522690983000,"orig":"","vertexType":"NORMAL"},"legGeometry":{"points":"oyjfHxwwpLTm@QOeDyE","length":4},"rentedBike":false,"transitLeg":false,"duration":122.0,"steps":[{"distance":21.055,"relativeDirection":"DEPART","streetName":"bike path","absoluteDirection":"SOUTHEAST","stayOn":false,"area":false,"bogusName":true,"lon":-71.0695674967601,"lat":48.39336056343373,"elevation":[]},{"distance":11.448,"relativeDirection":"LEFT","streetName":"path","absoluteDirection":"NORTHEAST","stayOn":true,"area":false,"bogusName":true,"lon":-71.06933020000001,"lat":48.3932555,"elevation":[]},{"distance":122.249,"relativeDirection":"CONTINUE","streetName":"Rue des Sapins","absoluteDirection":"NORTHEAST","stayOn":false,"area":false,"bogusName":false,"lon":-71.0692502,"lat":48.3933437,"elevation":[]}]}],"tooSloped":false}]},"debugOutput":{"precalculationTime":33,"pathCalculationTime":23,"pathTimes":[15,5,3],"renderingTime":1,"totalTime":57,"timedOut":false},"elevationMetadata":{"ellipsoidToGeoidDifference":-28.885904201182168,"geoidElevation":false}}