{"requestParameters":{"date":"2018/04/02","walkSpeed":"1.33","walkReluctance":"2.0","fromPlace":"48.423148,-71.052406","maxWalkDistance":"3000","waitReluctance":"1.0","carSpeed":"33","numItineraries":"3","waitAtBeginningFactor":"0.4","mode":"TRANSIT,WALK","ignoreRealtimeUpdates":"false","stairsReluctance":"2.0","toPlace":"48.428642,-71.077992","time":"17:15:00"},"plan":{"date":1522703700000,"from":{"name":"Origin","lon":-71.052406,"lat":48.423148,"orig":"","vertexType":"NORMAL"},"to":{"name":"Destination","lon":-71.077992,"lat":48.428642,"orig":"","vertexType":"NORMAL"},"itineraries":[{"duration":1522,"startTime":1522703813000,"endTime":1522705335000,"walkTime":1081,"transitTime":439,"waitingTime":2,"walkDistance":1356.8246766813818,"walkLimitExceeded":false,"elevationLost":0.0,"elevationGained":0.0,"transfers":0,"legs":[{"startTime":1522703813000,"endTime":1522704024000,"departureDelay":0,"arrivalDelay":0,"realTime":false,"distance":256.03600000000006,"pathway":false,"mode":"WALK","route":"","agencyTimeZoneOffset":-14400000,"interlineWithPreviousLeg":false,"from":{"name":"Origin","lon":-71.052406,"lat":48.423148,"departure":1522703813000,"orig":"","vertexType":"NORMAL"},"to":{"name":"Cégep de Chicoutimi (voie réservée)","stopId":"1:75","stopCode":"75","lon":-71.055283,"lat":48.422761,"arrival":1522704024000,"departure":1522704025000,"zoneId":"NA","stopIndex":6,"stopSequence":7,"vertexType":"TRANSIT"},"legGeometry":{"points":"qspfHpltpL?n@CVWrBOpAP`AN`ANnCJAZELAFh@","length":12},"rentedBike":false,"transitLeg":false,"duration":211.0,"steps":[{"distance":239.42900000000003,"relativeDirection":"DEPART","streetName":"service road","absoluteDirection":"WEST","stayOn":false,"area":false,"bogusName":false,"lon":-71.05240568397582,"lat":48.423135724671475,"elevation":[]},{"distance":16.607,"relativeDirection":"RIGHT","streetName":"Chemin Saint Thomas","absoluteDirection":"WEST","stayOn":false,"area":false,"bogusName":false,"lon":-71.0550802,"lat":48.4228351,"elevation":[]}]},{"startTime":1522704025000,"endTime":1522704464000,"departureDelay":0,"arrivalDelay":0,"realTime":false,"distance":1754.862192887203,"pathway":false,"mode":"BUS","route":"14","agencyName":"Société de Transport du Saguenay","agencyUrl":"http://ville.saguenay.ca/fr/services-aux-citoyens/transport-sts","agencyTimeZoneOffset":-14400000,"routeColor":"C0C000","routeType":3,"routeId":"1:14","routeTextColor":"000000","interlineWithPreviousLeg":false,"tripBlockId":"32","headsign":"Talbot / Barrette","agencyId":"0","tripId":"1:218168","serviceDate":"20180402","from":{"name":"Cégep de Chicoutimi (voie réservée)","stopId":"1:75","stopCode":"75","lon":-71.055283,"lat":48.422761,"arrival":1522704024000,"departure":1522704025000,"zoneId":"NA","stopIndex":6,"stopSequence":7,"vertexType":"TRANSIT"},"to":{"name":"Audet / Saint-Charles","stopId":"1:521","stopCode":"521","lon":-71.072343,"lat":48.420999,"arrival":1522704464000,"departure":1522704465000,"zoneId":"NA","stopIndex":9,"stopSequence":10,"vertexType":"TRANSIT"},"legGeometry":{"points":"mqpfHr~tpLc@iEAm@bAcDTcAtA{DJI|AxAvAvAQv@~@z@dA`ATq@`E~DL`@E`Ex@hDd@`B}FtFaAzAm@xAe@jCa@nDiAbm@SpKM`H]vBhDV","length":28},"routeShortName":"14","routeLongName":"Coopérative","rentedBike":false,"transitLeg":true,"duration":439.0,"steps":[]},{"startTime":1522704465000,"endTime":1522705335000,"departureDelay":0,"arrivalDelay":0,"realTime":false,"distance":1100.4679999999998,"pathway":false,"mode":"WALK","route":"","agencyTimeZoneOffset":-14400000,"interlineWithPreviousLeg":false,"from":{"name":"Audet / Saint-Charles","stopId":"1:521","stopCode":"521","lon":-71.072343,"lat":48.420999,"arrival":1522704464000,"departure":1522704465000,"zoneId":"NA","stopIndex":9,"stopSequence":10,"vertexType":"TRANSIT"},"to":{"name":"Destination","lon":-71.077992,"lat":48.428642,"arrival":1522705335000,"orig":"","vertexType":"NORMAL"},"legGeometry":{"points":"yfpfH`ixpL@c@kAEE?g@CWbAy@dCG`@S[KHe@`@Kt@cBKGnA?j@CLIl@Ov@y@][?{CBeCSs@UYrASb@S\\]j@s@r@OJ_@Xe@\\i@\\wD`BWJi@`@o@n@q@|@A@s@~@","length":39},"rentedBike":false,"transitLeg":false,"duration":870.0,"steps":[{"distance":13.889,"relativeDirection":"DEPART","streetName":"Rue Saint-Charles","absoluteDirection":"EAST","stayOn":false,"area":false,"bogusName":false,"lon":-71.07232986265892,"lat":48.4210959841372,"elevation":[]},{"distance":68.384,"relativeDirection":"LEFT","streetName":"Rue Audet","absoluteDirection":"NORTH","stayOn":false,"area":false,"bogusName":false,"lon":-71.0721424,"lat":48.4210848,"elevation":[]},{"distance":100.466,"relativeDirection":"LEFT","streetName":"Boulevard de l'Université","absoluteDirection":"NORTHWEST","stayOn":false,"area":false,"bogusName":false,"lon":-71.07209830000001,"lat":48.421699100000005,"elevation":[]},{"distance":15.283,"relativeDirection":"RIGHT","streetName":"Boulevard Saint-Paul","absoluteDirection":"NORTHEAST","stayOn":false,"area":false,"bogusName":false,"lon":-71.0732783,"lat":48.4221458,"elevation":[]},{"distance":32.267,"relativeDirection":"LEFT","streetName":"path","absoluteDirection":"NORTHWEST","stayOn":false,"area":false,"bogusName":true,"lon":-71.0731375,"lat":48.4222466,"elevation":[]},{"distance":76.89,"relativeDirection":"LEFT","streetName":"Rue Delage","absoluteDirection":"WEST","stayOn":false,"area":false,"bogusName":false,"lon":-71.07335160000001,"lat":48.4224996,"elevation":[]},{"distance":91.933,"relativeDirection":"LEFT","streetName":"Rue Gilbert","absoluteDirection":"WEST","stayOn":false,"area":false,"bogusName":false,"lon":-71.0735622,"lat":48.423054300000004,"elevation":[]},{"distance":240.725,"relativeDirection":"RIGHT","streetName":"Rue Sainte-Marthe","absoluteDirection":"NORTH","stayOn":false,"area":false,"bogusName":false,"lon":-71.0747607,"lat":48.4232457,"elevation":[]},{"distance":460.6309999999999,"relativeDirection":"LEFT","streetName":"Rue Price Ouest","absoluteDirection":"NORTHWEST","stayOn":false,"area":false,"bogusName":false,"lon":-71.07442610000001,"lat":48.425381900000005,"elevation":[]}]}],"tooSloped":false},{"duration":1418,"startTime":1522704563000,"endTime":1522705981000,"walkTime":211,"transitTime":785,"waitingTime":422,"walkDistance":269.0411202991992,"walkLimitExceeded":false,"elevationLost":0.0,"elevationGained":0.0,"transfers":1,"legs":[{"startTime":1522704563000,"endTime":1522704743000,"departureDelay":0,"arrivalDelay":0,"realTime":false,"distance":229.888,"pathway":false,"mode":"WALK","route":"","agencyTimeZoneOffset":-14400000,"interlineWithPreviousLeg":false,"from":{"name":"Origin","lon":-71.052406,"lat":48.423148,"departure":1522704563000,"orig":"","vertexType":"NORMAL"},"to":{"name":"Cégep de Chicoutimi (voie réservée)","stopId":"1:65","stopCode":"65","lon":-71.054799,"lat":48.423007,"arrival":1522704743000,"departure":1522704744000,"zoneId":"NA","stopIndex":31,"stopSequence":32,"vertexType":"TRANSIT"},"legGeometry":{"points":"qspfHpltpL?n@CVWrB~A^_@hAUt@@z@Hn@BR","length":10},"rentedBike":false,"transitLeg":false,"duration":180.0,"steps":[{"distance":71.52,"relativeDirection":"DEPART","streetName":"service road","absoluteDirection":"WEST","stayOn":false,"area":false,"bogusName":false,"lon":-71.05240568397582,"lat":48.423135724671475,"elevation":[]},{"distance":54.189,"relativeDirection":"LEFT","streetName":"path","absoluteDirection":"SOUTH","stayOn":false,"area":false,"bogusName":true,"lon":-71.05334280000001,"lat":48.4232749,"elevation":[]},{"distance":104.179,"relativeDirection":"RIGHT","streetName":"bike path","absoluteDirection":"NORTHWEST","stayOn":true,"area":false,"bogusName":true,"lon":-71.053503,"lat":48.4227993,"elevation":[]}]},{"startTime":1522704744000,"endTime":1522705080000,"departureDelay":0,"arrivalDelay":0,"realTime":false,"distance":1340.0547577821771,"pathway":false,"mode":"BUS","route":"14","agencyName":"Société de Transport du Saguenay","agencyUrl":"http://ville.saguenay.ca/fr/services-aux-citoyens/transport-sts","agencyTimeZoneOffset":-14400000,"routeColor":"C0C000","routeType":3,"routeId":"1:14","routeTextColor":"000000","interlineWithPreviousLeg":false,"tripBlockId":"31","headsign":"Terminus Chicoutimi","agencyId":"0","tripId":"1:218143","serviceDate":"20180402","from":{"name":"Cégep de Chicoutimi (voie réservée)","stopId":"1:65","stopCode":"65","lon":-71.054799,"lat":48.423007,"arrival":1522704743000,"departure":1522704744000,"zoneId":"NA","stopIndex":31,"stopSequence":32,"vertexType":"TRANSIT"},"to":{"name":"Terminus Chicoutimi","stopId":"1:1289","stopCode":"1289","lon":-71.066163,"lat":48.428677,"arrival":1522705080000,"departure":1522705500000,"zoneId":"NA","stopIndex":37,"stopSequence":38,"vertexType":"TRANSIT"},"legGeometry":{"points":"erpfHf{tpL`@~COnBQf@gAjAg@bBuDmDmFgFa@_@w@s@CfAOrBEtAGbA?jBQtC?|@ExKMdIG~EUnLEhC}CKkBOkCOYbC","length":26},"routeShortName":"14","routeLongName":"Coopérative","rentedBike":false,"transitLeg":true,"duration":336.0,"steps":[]},{"startTime":1522705500000,"endTime":1522705949000,"departureDelay":0,"arrivalDelay":0,"realTime":false,"distance":2030.2608444181342,"pathway":false,"mode":"BUS","route":"16","agencyName":"Société de Transport du Saguenay","agencyUrl":"http://ville.saguenay.ca/fr/services-aux-citoyens/transport-sts","agencyTimeZoneOffset":-14400000,"routeColor":"00FF00","routeType":3,"routeId":"1:16","routeTextColor":"000000","interlineWithPreviousLeg":false,"tripBlockId":"34","headsign":"Faubourg Sagamie","agencyId":"0","tripId":"1:218229","serviceDate":"20180402","from":{"name":"Terminus Chicoutimi","stopId":"1:1289","stopCode":"1289","lon":-71.066163,"lat":48.428677,"arrival":1522705080000,"departure":1522705500000,"zoneId":"NA","stopIndex":0,"stopSequence":1,"vertexType":"TRANSIT"},"to":{"name":"Price (no. 277)","stopId":"1:2006","stopCode":"2006","lon":-71.0773,"lat":48.428563,"arrival":1522705949000,"departure":1522705950000,"zoneId":"NA","stopIndex":11,"stopSequence":12,"vertexType":"TRANSIT"},"legGeometry":{"points":"evqfHzcwpLg@?AXCnAO~GxDVhCP~M~@jDTOrHKdGE^E~BQnIMhGAxCD~@Df@DVDZd@zBBLDJJNHHHDJBn@HCxAHdAFX@DFj@@b@Ab@SvAe@p@{EnEEB{@w@m@o@aDeDIKCMCM?SL}A?A@WCYi@mDOu@Wm@EIMSSWaAcAuAcBq@f@URa@d@u@`A","length":62},"routeShortName":"16","routeLongName":"Côte de la Réserve","rentedBike":false,"transitLeg":true,"duration":449.0,"steps":[]},{"startTime":1522705950000,"endTime":1522705981000,"departureDelay":0,"arrivalDelay":0,"realTime":false,"distance":39.105,"pathway":false,"mode":"WALK","route":"","agencyTimeZoneOffset":-14400000,"interlineWithPreviousLeg":false,"from":{"name":"Price (no. 277)","stopId":"1:2006","stopCode":"2006","lon":-71.0773,"lat":48.428563,"arrival":1522705949000,"departure":1522705950000,"zoneId":"NA","stopIndex":11,"stopSequence":12,"vertexType":"TRANSIT"},"to":{"name":"Destination","lon":-71.077992,"lat":48.428642,"arrival":1522705981000,"orig":"","vertexType":"NORMAL"},"legGeometry":{"points":"cuqfHzhypLA@s@~@","length":3},"rentedBike":false,"transitLeg":false,"duration":31.0,"steps":[{"distance":39.105,"relativeDirection":"DEPART","streetName":"Rue Price Ouest","absoluteDirection":"NORTHWEST","stayOn":false,"area":false,"bogusName":false,"lon":-71.07741195623026,"lat":48.428502306386775,"elevation":[]}]}],"tooSloped":false},{"duration":1523,"startTime":1522704553000,"endTime":1522706076000,"walkTime":632,"transitTime":889,"waitingTime":2,"walkDistance":814.6244436049104,"walkLimitExceeded":false,"elevationLost":0.0,"elevationGained":0.0,"transfers":0,"legs":[{"startTime":1522704553000,"endTime":1522704733000,"departureDelay":0,"arrivalDelay":0,"realTime":false,"distance":229.888,"pathway":false,"mode":"WALK","route":"","agencyTimeZoneOffset":-14400000,"interlineWithPreviousLeg":false,"from":{"name":"Origin","lon":-71.052406,"lat":48.423148,"departure":1522704553000,"orig":"","vertexType":"NORMAL"},"to":{"name":"Cégep de Chicoutimi (voie réservée)","stopId":"1:65","stopCode":"65","lon":-71.054799,"lat":48.423007,"arrival":1522704733000,"departure":1522704734000,"zoneId":"NA","stopIndex":16,"stopSequence":17,"vertexType":"TRANSIT"},"legGeometry":{"points":"qspfHpltpL?n@CVWrB~A^_@hAUt@@z@Hn@BR","length":10},"rentedBike":false,"transitLeg":false,"duration":180.0,"steps":[{"distance":71.52,"relativeDirection":"DEPART","streetName":"service road","absoluteDirection":"WEST","stayOn":false,"area":false,"bogusName":false,"lon":-71.05240568397582,"lat":48.423135724671475,"elevation":[]},{"distance":54.189,"relativeDirection":"LEFT","streetName":"path","absoluteDirection":"SOUTH","stayOn":false,"area":false,"bogusName":true,"lon":-71.05334280000001,"lat":48.4232749,"elevation":[]},{"distance":104.179,"relativeDirection":"RIGHT","streetName":"bike path","absoluteDirection":"NORTHWEST","stayOn":true,"area":false,"bogusName":true,"lon":-71.053503,"lat":48.4227993,"elevation":[]}]},{"startTime":1522704734000,"endTime":1522705200000,"departureDelay":0,"arrivalDelay":0,"realTime":false,"distance":1971.3329068811586,"pathway":false,"mode":"BUS","route":"175","agencyName":"Société de Transport du Saguenay","agencyUrl":"http://ville.saguenay.ca/fr/services-aux-citoyens/transport-sts","agencyTimeZoneOffset":-14400000,"routeColor":"FF00FF","routeType":3,"routeId":"1:175","routeTextColor":"FFFFFF","interlineWithPreviousLeg":false,"tripBlockId":"10","headsign":"Terminus Chicoutimi","agencyId":"0","tripId":"1:217448","serviceDate":"20180402","from":{"name":"Cégep de Chicoutimi (voie réservée)","stopId":"1:65","stopCode":"65","lon":-71.054799,"lat":48.423007,"arrival":1522704733000,"departure":1522704734000,"zoneId":"NA","stopIndex":16,"stopSequence":17,"vertexType":"TRANSIT"},"to":{"name":"Terminus Chicoutimi","stopId":"1:1289","stopCode":"1289","lon":-71.066163,"lat":48.428677,"arrival":1522705200000,"departure":1522705500000,"zoneId":"NA","stopIndex":27,"stopSequence":28,"vertexType":"TRANSIT"},"legGeometry":{"points":"grpfHf{tpLf@|C[dCuAfB]xAs@OmCmCmEkE]a@g@i@ZiGTmEl@oLaEe@cFk@?pH?tJDvBPjMB~Bo@PQDRbFKdGMhIOvIK|EQpHoCQEdC","length":30},"routeShortName":"175","routeLongName":"Term. Chic / Costco","rentedBike":false,"transitLeg":true,"duration":466.0,"steps":[]},{"startTime":1522705500000,"endTime":1522705623000,"departureDelay":0,"arrivalDelay":0,"realTime":false,"distance":1318.4445979881887,"pathway":false,"mode":"BUS","route":"3","agencyName":"Société de Transport du Saguenay","agencyUrl":"http://ville.saguenay.ca/fr/services-aux-citoyens/transport-sts","agencyTimeZoneOffset":-14400000,"routeColor":"FF0000","routeType":3,"routeId":"1:3","routeTextColor":"FFFFFF","interlineWithPreviousLeg":true,"tripBlockId":"10","headsign":"Terminus Jonquière","agencyId":"0","tripId":"1:217449","serviceDate":"20180402","from":{"name":"Terminus Chicoutimi","stopId":"1:1289","stopCode":"1289","lon":-71.066163,"lat":48.428677,"arrival":1522705200000,"departure":1522705500000,"zoneId":"NA","stopIndex":0,"stopSequence":1,"vertexType":"TRANSIT"},"to":{"name":"Garage Municipal (boul. Saguenay)","stopId":"1:276","stopCode":"276","lon":-71.083212,"lat":48.432229,"arrival":1522705623000,"departure":1522705624000,"zoneId":"NA","stopIndex":1,"stopSequence":2,"vertexType":"TRANSIT"},"legGeometry":{"points":"evqfHzcwpLi@?UhKoBKcBts@OjC]fCg@~BsId[","length":9},"routeShortName":"3","routeLongName":"Chic/Jonq via Boul. Saguenay","rentedBike":false,"transitLeg":true,"duration":123.0,"steps":[]},{"startTime":1522705624000,"endTime":1522706076000,"departureDelay":0,"arrivalDelay":0,"realTime":false,"distance":584.609,"pathway":false,"mode":"WALK","route":"","agencyTimeZoneOffset":-14400000,"interlineWithPreviousLeg":false,"from":{"name":"Garage Municipal (boul. Saguenay)","stopId":"1:276","stopCode":"276","lon":-71.083212,"lat":48.432229,"arrival":1522705623000,"departure":1522705624000,"zoneId":"NA","stopIndex":1,"stopSequence":2,"vertexType":"TRANSIT"},"to":{"name":"Destination","lon":-71.077992,"lat":48.428642,"arrival":1522706076000,"orig":"","vertexType":"NORMAL"},"legGeometry":{"points":"alrfHlmzpL\\mAlDkMz@cDLJJFLDPCPOhG{HhA{A","length":11},"rentedBike":false,"transitLeg":false,"duration":452.0,"steps":[{"distance":296.935,"relativeDirection":"DEPART","streetName":"Boulevard du Saguenay Ouest","absoluteDirection":"SOUTHEAST","stayOn":false,"area":false,"bogusName":false,"lon":-71.08326006882355,"lat":48.43217286802547,"elevation":[]},{"distance":287.67400000000004,"relativeDirection":"RIGHT","streetName":"Rue Price Ouest","absoluteDirection":"SOUTHWEST","stayOn":false,"area":false,"bogusName":false,"lon":-71.0797579,"lat":48.430857100000004,"elevation":[]}]}],"tooSloped":false}]},"debugOutput":{"precalculationTime":42,"pathCalculationTime":43,"pathTimes":[23,10,10],"renderingTime":0,"totalTime":85,"timedOut":false},"elevationMetadata":{"ellipsoidToGeoidDifference":-28.885904201182168,"geoidElevation":false}}