{"requestParameters":{"date":"2018/04/02","walkSpeed":"1.33","walkReluctance":"2.0","fromPlace":"48.441426,-71.082718","maxWalkDistance":"3000","waitReluctance":"1.0","carSpeed":"33","numItineraries":"3","waitAtBeginningFactor":"0.4","mode":"TRANSIT,WALK","ignoreRealtimeUpdates":"false","stairsReluctance":"2.0","toPlace":"48.44911,-71.08157599","time":"20:30:00"},"plan":{"date":1522715400000,"from":{"name":"Origin","lon":-71.082718,"lat":48.441426,"orig":"","vertexType":"NORMAL"},"to":{"name":"Destination","lon":-71.08157599,"lat":48.44911,"orig":"","vertexType":"NORMAL"},"itineraries":[{"duration":925,"startTime":1522715400000,"endTime":1522716325000,"walkTime":925,"transitTime":0,"waitingTime":0,"walkDistance":1199.6636541317355,"walkLimitExceeded":false,"elevationLost":0.0,"elevationGained":0.0,"transfers":0,"legs":[{"startTime":1522715400000,"endTime":1522716325000,"departureDelay":0,"arrivalDelay":0,"realTime":false,"distance":1199.5520000000001,"pathway":false,"mode":"WALK","route":"","agencyTimeZoneOffset":-14400000,"interlineWithPreviousLeg":false,"from":{"name":"Origin","lon":-71.082718,"lat":48.441426,"departure":1522715400000,"orig":"","vertexType":"NORMAL"},"to":{"name":"Destination","lon":-71.08157599,"lat":48.44911,"arrival":1522716325000,"orig":"","vertexType":"NORMAL"},"legGeometry":{"points":"mftfHrizpLGZ[xAKd@EZGf@QvCcCWeADcAXqDLu@R]PsAj@y@\\OHaBn@OFWBcD@mB@gCDKIIGa@{@O]w@mBKUGQ]}@KWI_@Go@Em@MqCOqCn@U","length":37},"alerts":[{"alertHeaderText":"Unpaved surface"}],"rentedBike":false,"transitLeg":false,"duration":925.0,"steps":[{"distance":146.65300000000002,"relativeDirection":"DEPART","streetName":"Rue Roussel","absoluteDirection":"NORTHWEST","stayOn":false,"area":false,"bogusName":false,"lon":-71.08265424319706,"lat":48.441513715102175,"elevation":[]},{"distance":709.337,"relativeDirection":"RIGHT","streetName":"Rue Sainte-Marie Sud","absoluteDirection":"NORTH","stayOn":false,"area":false,"bogusName":false,"lon":-71.08453420000001,"lat":48.441911600000005,"elevation":[],"alerts":[{"alertHeaderText":"Unpaved surface"}]},{"distance":35.026,"relativeDirection":"RIGHT","streetName":"Rue Sainte-Marie Sud","absoluteDirection":"NORTHEAST","stayOn":true,"area":false,"bogusName":false,"lon":-71.0855571,"lat":48.448167500000004,"elevation":[]},{"distance":280.95,"relativeDirection":"CONTINUE","streetName":"Rue Saint-Gérard","absoluteDirection":"NORTHEAST","stayOn":false,"area":false,"bogusName":false,"lon":-71.08521470000001,"lat":48.448382800000005,"elevation":[]},{"distance":27.586,"relativeDirection":"RIGHT","streetName":"path","absoluteDirection":"SOUTH","stayOn":false,"area":false,"bogusName":false,"lon":-71.0817962,"lat":48.449325400000006,"elevation":[]}]}],"tooSloped":false},{"duration":724,"startTime":1522716067000,"endTime":1522716791000,"walkTime":621,"transitTime":101,"waitingTime":2,"walkDistance":789.9403984910974,"walkLimitExceeded":false,"elevationLost":0.0,"elevationGained":0.0,"transfers":0,"legs":[{"startTime":1522716067000,"endTime":1522716618000,"departureDelay":0,"arrivalDelay":0,"realTime":false,"distance":704.8850000000001,"pathway":false,"mode":"WALK","route":"","agencyTimeZoneOffset":-14400000,"interlineWithPreviousLeg":false,"from":{"name":"Origin","lon":-71.082718,"lat":48.441426,"departure":1522716067000,"orig":"","vertexType":"NORMAL"},"to":{"name":"Place de la Colline (boul. Ste-Geneviève)","stopId":"1:706","stopCode":"706","lon":-71.080094,"lat":48.44485,"arrival":1522716618000,"departure":1522716619000,"zoneId":"NA","stopIndex":2,"stopSequence":3,"vertexType":"TRANSIT"},"legGeometry":{"points":"mftfHrizpLPw@BMH[BK@MBM@M@O?Q?M?M@kA?oA@GBQBKNo@LUNWLQi@ME??AMA]?_@?a@Bc@?Y@e@E[EOEQGoBo@iCw@]MUKc@a@QSeBjF","length":41},"rentedBike":false,"transitLeg":false,"duration":551.0,"steps":[{"distance":210.60000000000002,"relativeDirection":"DEPART","streetName":"Rue Roussel","absoluteDirection":"SOUTHEAST","stayOn":false,"area":false,"bogusName":false,"lon":-71.08265424319706,"lat":48.441513715102175,"elevation":[]},{"distance":390.311,"relativeDirection":"HARD_LEFT","streetName":"Rue Saint-Albert","absoluteDirection":"NORTH","stayOn":false,"area":false,"bogusName":false,"lon":-71.0800502,"lat":48.4409276,"elevation":[]},{"distance":103.974,"relativeDirection":"LEFT","streetName":"Boulevard Sainte-Geneviève","absoluteDirection":"NORTHWEST","stayOn":false,"area":false,"bogusName":false,"lon":-71.07894370000001,"lat":48.444307900000005,"elevation":[]}]},{"startTime":1522716619000,"endTime":1522716720000,"departureDelay":0,"arrivalDelay":0,"realTime":false,"distance":785.227921100666,"pathway":false,"mode":"BUS","route":"23","agencyName":"Société de Transport du Saguenay","agencyUrl":"http://ville.saguenay.ca/fr/services-aux-citoyens/transport-sts","agencyTimeZoneOffset":-14400000,"routeColor":"FF00FF","routeType":3,"routeId":"1:23","routeTextColor":"FFFFFF","interlineWithPreviousLeg":false,"tripBlockId":"5","headsign":"Terminus Chicoutimi","agencyId":"0","tripId":"1:217278","serviceDate":"20180402","from":{"name":"Place de la Colline (boul. Ste-Geneviève)","stopId":"1:706","stopCode":"706","lon":-71.080094,"lat":48.44485,"arrival":1522716618000,"departure":1522716619000,"zoneId":"NA","stopIndex":2,"stopSequence":3,"vertexType":"TRANSIT"},"to":{"name":"École Secondaire Charles-Gravel (St-Gérard)","stopId":"1:728","stopCode":"728","lon":-71.08106,"lat":48.449225,"arrival":1522716720000,"departure":1522716721000,"zoneId":"NA","stopIndex":5,"stopSequence":6,"vertexType":"TRANSIT"},"legGeometry":{"points":"{ztfH~yypLCD}@hCo@~Aq@pAs@fA{BlCqH|Iq@Bq@Im@UGCUi@Wm@ScA_@gGSaE@_@@_@@E","length":20},"routeShortName":"23","routeLongName":"Côte Verdun via Aréna du Plateau","rentedBike":false,"transitLeg":true,"duration":101.0,"steps":[]},{"startTime":1522716721000,"endTime":1522716791000,"departureDelay":0,"arrivalDelay":0,"realTime":false,"distance":84.896,"pathway":false,"mode":"WALK","route":"","agencyTimeZoneOffset":-14400000,"interlineWithPreviousLeg":false,"from":{"name":"École Secondaire Charles-Gravel (St-Gérard)","stopId":"1:728","stopCode":"728","lon":-71.08106,"lat":48.449225,"arrival":1522716720000,"departure":1522716721000,"zoneId":"NA","stopIndex":5,"stopSequence":6,"vertexType":"TRANSIT"},"to":{"name":"Destination","lon":-71.08157599,"lat":48.44911,"arrival":1522716791000,"orig":"","vertexType":"NORMAL"},"legGeometry":{"points":"iwufHl_zpLCT?f@DzAn@U","length":5},"rentedBike":false,"transitLeg":false,"duration":70.0,"steps":[{"distance":57.31,"relativeDirection":"DEPART","streetName":"Rue Saint-Gérard","absoluteDirection":"WEST","stayOn":false,"area":false,"bogusName":false,"lon":-71.08102429625302,"lat":48.449334223206954,"elevation":[]},{"distance":27.586,"relativeDirection":"LEFT","streetName":"path","absoluteDirection":"SOUTH","stayOn":false,"area":false,"bogusName":false,"lon":-71.0817962,"lat":48.449325400000006,"elevation":[]}]}],"tooSloped":false},{"duration":1187,"startTime":1522716544000,"endTime":1522717731000,"walkTime":571,"transitTime":614,"waitingTime":2,"walkDistance":726.3416917252353,"walkLimitExceeded":false,"elevationLost":0.0,"elevationGained":0.0,"transfers":0,"legs":[{"startTime":1522716544000,"endTime":1522716734000,"departureDelay":0,"arrivalDelay":0,"realTime":false,"distance":237.55200000000002,"pathway":false,"mode":"WALK","route":"","agencyTimeZoneOffset":-14400000,"interlineWithPreviousLeg":false,"from":{"name":"Origin","lon":-71.082718,"lat":48.441426,"departure":1522716544000,"orig":"","vertexType":"NORMAL"},"to":{"name":"St-Albert / Roussel","stopId":"1:680","stopCode":"680","lon":-71.079859,"lat":48.441152,"arrival":1522716734000,"departure":1522716735000,"zoneId":"NA","stopIndex":5,"stopSequence":6,"vertexType":"TRANSIT"},"legGeometry":{"points":"mftfHrizpLPw@BMH[BK@MBM@M@O?Q?M?M@kA?oA@GBQBKNo@LUNWLQi@ME??A","length":24},"rentedBike":false,"transitLeg":false,"duration":190.0,"steps":[{"distance":210.60000000000002,"relativeDirection":"DEPART","streetName":"Rue Roussel","absoluteDirection":"SOUTHEAST","stayOn":false,"area":false,"bogusName":false,"lon":-71.08265424319706,"lat":48.441513715102175,"elevation":[]},{"distance":26.952,"relativeDirection":"HARD_LEFT","streetName":"Rue Saint-Albert","absoluteDirection":"NORTH","stayOn":false,"area":false,"bogusName":false,"lon":-71.0800502,"lat":48.4409276,"elevation":[]}]},{"startTime":1522716735000,"endTime":1522717349000,"departureDelay":0,"arrivalDelay":0,"realTime":false,"distance":3443.8730241218473,"pathway":false,"mode":"BUS","route":"20","agencyName":"Société de Transport du Saguenay","agencyUrl":"http://ville.saguenay.ca/fr/services-aux-citoyens/transport-sts","agencyTimeZoneOffset":-14400000,"routeColor":"0000FF","routeType":3,"routeId":"1:20","routeTextColor":"FFFFFF","interlineWithPreviousLeg":false,"tripBlockId":"3","headsign":"Terminus Chicoutimi","agencyId":"0","tripId":"1:217215","serviceDate":"20180402","from":{"name":"St-Albert / Roussel","stopId":"1:680","stopCode":"680","lon":-71.079859,"lat":48.441152,"arrival":1522716734000,"departure":1522716735000,"zoneId":"NA","stopIndex":5,"stopSequence":6,"vertexType":"TRANSIT"},"to":{"name":"Ste-Marie (no. 224)","stopId":"1:697","stopCode":"697","lon":-71.085685,"lat":48.44687,"arrival":1522717349000,"departure":1522717350000,"zoneId":"NA","stopIndex":21,"stopSequence":22,"vertexType":"TRANSIT"},"legGeometry":{"points":"gdtfH~xypLIAe@Cs@Fy@DWA[EUGyCgAU~@Sx@{A`FyBfHmDjJCDEVE`B?vFBjC@ZFX\\j@T^JVBNBV@RCbE?VCVy@nGCRCFGLKJQNSHaAZa@Pk@\\a@XZrAHp@@FDj@Bp@?~I@fHAd@C`@ERELA@GHMHi@PSBy@BW?YDMDC?OHULWVOXQXSb@~@~BJXF`@Fj@?VAvACv@e@hNGx@MdAQr@ILQ\\a@d@w@aCCQAO@ODOHQDSDWLoDRgGBMFMHIHAfBNDuA@wA?WGk@Ga@KY_A_CRc@PYNYUk@Q[O]KYC]_AaQYwF?W?Y?UBc@D_@d@{DNaAB]@O@]?}BbA?hA?A}I?iEEcEjBC","length":131},"routeShortName":"20","routeLongName":"Sainte-Claire","rentedBike":false,"transitLeg":true,"duration":614.0,"steps":[]},{"startTime":1522717350000,"endTime":1522717731000,"departureDelay":0,"arrivalDelay":0,"realTime":false,"distance":488.663,"pathway":false,"mode":"WALK","route":"","agencyTimeZoneOffset":-14400000,"interlineWithPreviousLeg":false,"from":{"name":"Ste-Marie (no. 224)","stopId":"1:697","stopCode":"697","lon":-71.085685,"lat":48.44687,"arrival":1522717349000,"departure":1522717350000,"zoneId":"NA","stopIndex":21,"stopSequence":22,"vertexType":"TRANSIT"},"to":{"name":"Destination","lon":-71.08157599,"lat":48.44911,"arrival":1522717731000,"orig":"","vertexType":"NORMAL"},"legGeometry":{"points":"}gufHx{zpLmB@gCDKIIGa@{@O]w@mBKUGQ]}@KWI_@Go@Em@MqCOqCn@U","length":18},"rentedBike":false,"transitLeg":false,"duration":381.0,"steps":[{"distance":145.101,"relativeDirection":"DEPART","streetName":"Rue Sainte-Marie Sud","absoluteDirection":"NORTH","stayOn":false,"area":false,"bogusName":false,"lon":-71.0855691296444,"lat":48.44687087860302,"elevation":[]},{"distance":35.026,"relativeDirection":"RIGHT","streetName":"Rue Sainte-Marie Sud","absoluteDirection":"NORTHEAST","stayOn":true,"area":false,"bogusName":false,"lon":-71.0855571,"lat":48.448167500000004,"elevation":[]},{"distance":280.95,"relativeDirection":"CONTINUE","streetName":"Rue Saint-Gérard","absoluteDirection":"NORTHEAST","stayOn":false,"area":false,"bogusName":false,"lon":-71.08521470000001,"lat":48.448382800000005,"elevation":[]},{"distance":27.586,"relativeDirection":"RIGHT","streetName":"path","absoluteDirection":"SOUTH","stayOn":false,"area":false,"bogusName":false,"lon":-71.0817962,"lat":48.449325400000006,"elevation":[]}]}],"tooSloped":false}]},"debugOutput":{"precalculationTime":16,"pathCalculationTime":18,"pathTimes":[12,3,3],"renderingTime":0,"totalTime":34,"timedOut":false},"elevationMetadata":{"ellipsoidToGeoidDifference":-28.885904201182168,"geoidElevation":false}}