{"requestParameters":{"date":"2018/04/02","walkSpeed":"1.33","walkReluctance":"2.0","fromPlace":"48.386991,-71.11645199","maxWalkDistance":"3000","waitReluctance":"1.0","carSpeed":"33","numItineraries":"3","waitAtBeginningFactor":"0.4","mode":"TRANSIT,WALK","ignoreRealtimeUpdates":"false","stairsReluctance":"2.0","toPlace":"48.395857,-71.12647","time":"18:45:00"},"plan":{"date":1522709100000,"from":{"name":"Origin","lon":-71.11645199,"lat":48.386991,"orig":"","vertexType":"NORMAL"},"to":{"name":"Destination","lon":-71.12647,"lat":48.395857,"orig":"","vertexType":"NORMAL"},"itineraries":[{"duration":1529,"startTime":1522709100000,"endTime":1522710629000,"walkTime":1529,"transitTime":0,"waitingTime":0,"walkDistance":2003.3718796959608,"walkLimitExceeded":false,"elevationLost":0.0,"elevationGained":0.0,"transfers":0,"legs":[{"startTime":1522709100000,"endTime":1522710629000,"departureDelay":0,"arrivalDelay":0,"realTime":false,"distance":2003.2700000000002,"pathway":false,"mode":"WALK","route":"","agencyTimeZoneOffset":-14400000,"interlineWithPreviousLeg":false,"from":{"name":"Origin","lon":-71.11645199,"lat":48.386991,"departure":1522709100000,"orig":"","vertexType":"NORMAL"},"to":{"name":"Destination","lon":-71.12647,"lat":48.395857,"arrival":1522710629000,"orig":"","vertexType":"NORMAL"},"legGeometry":{"points":"gpifHhz`qL_BuBGGKKITADgBjEyBzF]d@Yx@MZyEjMyA|DmA~DIZA@YdA_@pBe@bEQ|BGlA?JCb@?fCD~BXvHDjE@n@?TYBm@?kASk@YcA}@yBaIs@s@m@@Uw@gBqFs@aBa@CkD^i@R]`@","length":44},"rentedBike":false,"transitLeg":false,"duration":1529.0,"steps":[{"distance":81.726,"relativeDirection":"DEPART","streetName":"Rue Saint-Paul","absoluteDirection":"NORTHEAST","stayOn":false,"area":false,"bogusName":false,"lon":-71.11604615829486,"lat":48.38676727336411,"elevation":[]},{"distance":1233.8870000000002,"relativeDirection":"LEFT","streetName":"Boulevard du Royaume Ouest","absoluteDirection":"NORTHWEST","stayOn":false,"area":false,"bogusName":false,"lon":-71.1153551,"lat":48.3873406,"elevation":[]},{"distance":350.545,"relativeDirection":"RIGHT","streetName":"Rang Saint-Pierre","absoluteDirection":"NORTH","stayOn":false,"area":false,"bogusName":false,"lon":-71.1301609,"lat":48.3913062,"elevation":[]},{"distance":337.112,"relativeDirection":"RIGHT","streetName":"Rue du Belvédère","absoluteDirection":"NORTHEAST","stayOn":false,"area":false,"bogusName":false,"lon":-71.127785,"lat":48.393705600000004,"elevation":[]}]}],"tooSloped":false},{"duration":883,"startTime":1522710143000,"endTime":1522711026000,"walkTime":817,"transitTime":64,"waitingTime":2,"walkDistance":1065.0769849593735,"walkLimitExceeded":false,"elevationLost":0.0,"elevationGained":0.0,"transfers":0,"legs":[{"startTime":1522710143000,"endTime":1522710415000,"departureDelay":0,"arrivalDelay":0,"realTime":false,"distance":351.66700000000003,"pathway":false,"mode":"WALK","route":"","agencyTimeZoneOffset":-14400000,"interlineWithPreviousLeg":false,"from":{"name":"Origin","lon":-71.11645199,"lat":48.386991,"departure":1522710143000,"orig":"","vertexType":"NORMAL"},"to":{"name":"boul. Royaume (no. 1409)","stopId":"1:264","stopCode":"264","lon":-71.118186,"lat":48.388875,"arrival":1522710415000,"departure":1522710416000,"zoneId":"NA","stopIndex":28,"stopSequence":29,"vertexType":"TRANSIT"},"legGeometry":{"points":"gpifHhz`qL_BuBGGKKITADgBjEyBzF]d@Yx@","length":10},"rentedBike":false,"transitLeg":false,"duration":272.0,"steps":[{"distance":81.726,"relativeDirection":"DEPART","streetName":"Rue Saint-Paul","absoluteDirection":"NORTHEAST","stayOn":false,"area":false,"bogusName":false,"lon":-71.11604615829486,"lat":48.38676727336411,"elevation":[]},{"distance":269.941,"relativeDirection":"LEFT","streetName":"Boulevard du Royaume Ouest","absoluteDirection":"NORTHWEST","stayOn":false,"area":false,"bogusName":false,"lon":-71.1153551,"lat":48.3873406,"elevation":[]}]},{"startTime":1522710416000,"endTime":1522710480000,"departureDelay":0,"arrivalDelay":0,"realTime":false,"distance":943.0137336904444,"pathway":false,"mode":"BUS","route":"11","agencyName":"Société de Transport du Saguenay","agencyUrl":"http://ville.saguenay.ca/fr/services-aux-citoyens/transport-sts","agencyTimeZoneOffset":-14400000,"routeColor":"FF0000","routeType":3,"routeId":"1:11","routeTextColor":"FFFFFF","interlineWithPreviousLeg":false,"tripBlockId":"34","headsign":"Boul.Royaume/St-Pierre","agencyId":"0","tripId":"1:218231","serviceDate":"20180402","from":{"name":"boul. Royaume (no. 1409)","stopId":"1:264","stopCode":"264","lon":-71.118186,"lat":48.388875,"arrival":1522710415000,"departure":1522710416000,"zoneId":"NA","stopIndex":28,"stopSequence":29,"vertexType":"TRANSIT"},"to":{"name":"boul. Royaume / St-Pierre","stopId":"1:1922","stopCode":"1922","lon":-71.129819,"lat":48.391404,"arrival":1522710480000,"departure":1522710481000,"zoneId":"NA","stopIndex":31,"stopSequence":32,"vertexType":"TRANSIT"},"legGeometry":{"points":"g}ifHzgaqL}JnXY~@GRU~@[fB_@hCIv@KnAIpAGlAAPA~A?lBJzDRxEB~@DzB","length":18},"routeShortName":"11","routeLongName":"Chic/Faubourg via St-Paul","rentedBike":false,"transitLeg":true,"duration":64.0,"steps":[]},{"startTime":1522710481000,"endTime":1522711026000,"departureDelay":0,"arrivalDelay":0,"realTime":false,"distance":713.316,"pathway":false,"mode":"WALK","route":"","agencyTimeZoneOffset":-14400000,"interlineWithPreviousLeg":false,"from":{"name":"boul. Royaume / St-Pierre","stopId":"1:1922","stopCode":"1922","lon":-71.129819,"lat":48.391404,"arrival":1522710480000,"departure":1522710481000,"zoneId":"NA","stopIndex":31,"stopSequence":32,"vertexType":"TRANSIT"},"to":{"name":"Destination","lon":-71.12647,"lat":48.395857,"arrival":1522711026000,"orig":"","vertexType":"NORMAL"},"legGeometry":{"points":"uljfHjpcqL@n@?TYBm@?kASk@YcA}@yBaIs@s@m@@Uw@gBqFs@aBa@CkD^i@R]`@","length":18},"rentedBike":false,"transitLeg":false,"duration":545.0,"steps":[{"distance":25.659,"relativeDirection":"DEPART","streetName":"Boulevard du Royaume Ouest","absoluteDirection":"WEST","stayOn":false,"area":false,"bogusName":false,"lon":-71.12981366448275,"lat":48.39131535185243,"elevation":[]},{"distance":350.545,"relativeDirection":"RIGHT","streetName":"Rang Saint-Pierre","absoluteDirection":"NORTH","stayOn":false,"area":false,"bogusName":false,"lon":-71.1301609,"lat":48.3913062,"elevation":[]},{"distance":337.112,"relativeDirection":"RIGHT","streetName":"Rue du Belvédère","absoluteDirection":"NORTHEAST","stayOn":false,"area":false,"bogusName":false,"lon":-71.127785,"lat":48.393705600000004,"elevation":[]}]}],"tooSloped":false},{"duration":882,"startTime":1522710864000,"endTime":1522711746000,"walkTime":817,"transitTime":63,"waitingTime":2,"walkDistance":1065.0769849593735,"walkLimitExceeded":false,"elevationLost":0.0,"elevationGained":0.0,"transfers":0,"legs":[{"startTime":1522710864000,"endTime":1522711136000,"departureDelay":0,"arrivalDelay":0,"realTime":false,"distance":351.66700000000003,"pathway":false,"mode":"WALK","route":"","agencyTimeZoneOffset":-14400000,"interlineWithPreviousLeg":false,"from":{"name":"Origin","lon":-71.11645199,"lat":48.386991,"departure":1522710864000,"orig":"","vertexType":"NORMAL"},"to":{"name":"boul. Royaume (no. 1409)","stopId":"1:264","stopCode":"264","lon":-71.118186,"lat":48.388875,"arrival":1522711136000,"departure":1522711137000,"zoneId":"NA","stopIndex":4,"stopSequence":5,"vertexType":"TRANSIT"},"legGeometry":{"points":"gpifHhz`qL_BuBGGKKITADgBjEyBzF]d@Yx@","length":10},"rentedBike":false,"transitLeg":false,"duration":272.0,"steps":[{"distance":81.726,"relativeDirection":"DEPART","streetName":"Rue Saint-Paul","absoluteDirection":"NORTHEAST","stayOn":false,"area":false,"bogusName":false,"lon":-71.11604615829486,"lat":48.38676727336411,"elevation":[]},{"distance":269.941,"relativeDirection":"LEFT","streetName":"Boulevard du Royaume Ouest","absoluteDirection":"NORTHWEST","stayOn":false,"area":false,"bogusName":false,"lon":-71.1153551,"lat":48.3873406,"elevation":[]}]},{"startTime":1522711137000,"endTime":1522711200000,"departureDelay":0,"arrivalDelay":0,"realTime":false,"distance":943.0137336904444,"pathway":false,"mode":"BUS","route":"2","agencyName":"Société de Transport du Saguenay","agencyUrl":"http://ville.saguenay.ca/fr/services-aux-citoyens/transport-sts","agencyTimeZoneOffset":-14400000,"routeColor":"FF0000","routeType":3,"routeId":"1:2","routeTextColor":"FFFFFF","interlineWithPreviousLeg":false,"tripBlockId":"6","headsign":"Terminus Jonquière","agencyId":"0","tripId":"1:217310","serviceDate":"20180402","from":{"name":"boul. Royaume (no. 1409)","stopId":"1:264","stopCode":"264","lon":-71.118186,"lat":48.388875,"arrival":1522711136000,"departure":1522711137000,"zoneId":"NA","stopIndex":4,"stopSequence":5,"vertexType":"TRANSIT"},"to":{"name":"boul. Royaume / St-Pierre","stopId":"1:1922","stopCode":"1922","lon":-71.129819,"lat":48.391404,"arrival":1522711200000,"departure":1522711201000,"zoneId":"NA","stopIndex":7,"stopSequence":8,"vertexType":"TRANSIT"},"legGeometry":{"points":"w|ifHnhaqLeFxMqDtKAJ}ApJM~EWhIb@`N","length":8},"routeShortName":"2","routeLongName":"Chic/Jonq via Boul. Royaume","rentedBike":false,"transitLeg":true,"duration":63.0,"steps":[]},{"startTime":1522711201000,"endTime":1522711746000,"departureDelay":0,"arrivalDelay":0,"realTime":false,"distance":713.316,"pathway":false,"mode":"WALK","route":"","agencyTimeZoneOffset":-14400000,"interlineWithPreviousLeg":false,"from":{"name":"boul. Royaume / St-Pierre","stopId":"1:1922","stopCode":"1922","lon":-71.129819,"lat":48.391404,"arrival":1522711200000,"departure":1522711201000,"zoneId":"NA","stopIndex":7,"stopSequence":8,"vertexType":"TRANSIT"},"to":{"name":"Destination","lon":-71.12647,"lat":48.395857,"arrival":1522711746000,"orig":"","vertexType":"NORMAL"},"legGeometry":{"points":"uljfHjpcqL@n@?TYBm@?kASk@YcA}@yBaIs@s@m@@Uw@gBqFs@aBa@CkD^i@R]`@","length":18},"rentedBike":false,"transitLeg":false,"duration":545.0,"steps":[{"distance":25.659,"relativeDirection":"DEPART","streetName":"Boulevard du Royaume Ouest","absoluteDirection":"WEST","stayOn":false,"area":false,"bogusName":false,"lon":-71.12981366448275,"lat":48.39131535185243,"elevation":[]},{"distance":350.545,"relativeDirection":"RIGHT","streetName":"Rang Saint-Pierre","absoluteDirection":"NORTH","stayOn":false,"area":false,"bogusName":false,"lon":-71.1301609,"lat":48.3913062,"elevation":[]},{"distance":337.112,"relativeDirection":"RIGHT","streetName":"Rue du Belvédère","absoluteDirection":"NORTHEAST","stayOn":false,"area":false,"bogusName":false,"lon":-71.127785,"lat":48.393705600000004,"elevation":[]}]}],"tooSloped":false}]},"debugOutput":{"precalculationTime":3,"pathCalculationTime":12,"pathTimes":[4,5,3],"renderingTime":0,"totalTime":15,"timedOut":false},"elevationMetadata":{"ellipsoidToGeoidDifference":-28.885904201182168,"geoidElevation":false}}