{"requestParameters":{"date":"2018/04/02","walkSpeed":"1.33","walkReluctance":"2.0","fromPlace":"48.425886,-71.084177","maxWalkDistance":"3000","waitReluctance":"1.0","carSpeed":"33","numItineraries":"3","waitAtBeginningFactor":"0.4","mode":"TRANSIT,WALK","ignoreRealtimeUpdates":"false","stairsReluctance":"2.0","toPlace":"48.418729,-71.053021","time":"7:0:00"},"plan":{"date":1522666800000,"from":{"name":"Origin","lon":-71.084177,"lat":48.425886,"orig":"","vertexType":"NORMAL"},"to":{"name":"Destination","lon":-71.053021,"lat":48.418729,"orig":"","vertexType":"NORMAL"},"itineraries":[{"duration":1425,"startTime":1522666973000,"endTime":1522668398000,"walkTime":326,"transitTime":857,"waitingTime":242,"walkDistance":413.16929323091136,"walkLimitExceeded":false,"elevationLost":0.0,"elevationGained":0.0,"transfers":1,"legs":[{"startTime":1522666973000,"endTime":1522667022000,"departureDelay":0,"arrivalDelay":0,"realTime":false,"distance":64.583,"pathway":false,"mode":"WALK","route":"","agencyTimeZoneOffset":-14400000,"interlineWithPreviousLeg":false,"from":{"name":"Origin","lon":-71.084177,"lat":48.425886,"departure":1522666973000,"orig":"","vertexType":"NORMAL"},"to":{"name":"ch. de la Réserve / Ste-Cécile","stopId":"1:624","stopCode":"624","lon":-71.084991,"lat":48.425617,"arrival":1522667022000,"departure":1522667023000,"zoneId":"NA","stopIndex":29,"stopSequence":30,"vertexType":"TRANSIT"},"legGeometry":{"points":"weqfHltzpLlA`C","length":2},"rentedBike":false,"transitLeg":false,"duration":49.0,"steps":[{"distance":64.583,"relativeDirection":"DEPART","streetName":"Chemin de la Réserve","absoluteDirection":"SOUTHWEST","stayOn":false,"area":false,"bogusName":false,"lon":-71.08438992849686,"lat":48.42604175622712,"elevation":[]}]},{"startTime":1522667023000,"endTime":1522667460000,"departureDelay":0,"arrivalDelay":0,"realTime":false,"distance":1824.8346300120436,"pathway":false,"mode":"BUS","route":"16","agencyName":"Société de Transport du Saguenay","agencyUrl":"http://ville.saguenay.ca/fr/services-aux-citoyens/transport-sts","agencyTimeZoneOffset":-14400000,"routeColor":"00FF00","routeType":3,"routeId":"1:16","routeTextColor":"000000","interlineWithPreviousLeg":false,"tripBlockId":"36","headsign":"Terminus Chicoutimi","agencyId":"0","tripId":"1:218277","serviceDate":"20180402","from":{"name":"ch. de la Réserve / Ste-Cécile","stopId":"1:624","stopCode":"624","lon":-71.084991,"lat":48.425617,"arrival":1522667022000,"departure":1522667023000,"zoneId":"NA","stopIndex":29,"stopSequence":30,"vertexType":"TRANSIT"},"to":{"name":"Terminus Chicoutimi","stopId":"1:1289","stopCode":"1289","lon":-71.066163,"lat":48.428677,"arrival":1522667460000,"departure":1522667700000,"zoneId":"NA","stopIndex":35,"stopSequence":36,"vertexType":"TRANSIT"},"legGeometry":{"points":"mcqfHtxzpLQ[sAuC{@sBeCcGqAwC[g@]a@aAw@[_@cA}A_@w@GU[iDWaDzByCv@cA`@e@TSp@g@nAo@nBm@ZSf@c@PMb@[b@_@b@e@PYP]N_@La@P{@NcB@IBcAG_A{@sEEg@oAP}@DiBDFeBMa@iBCq@FmBPFcEDoBNiHyDWN_HBoA@Y@m@","length":55},"routeShortName":"16","routeLongName":"Côte de la Réserve","rentedBike":false,"transitLeg":true,"duration":437.0,"steps":[]},{"startTime":1522667700000,"endTime":1522668120000,"departureDelay":0,"arrivalDelay":0,"realTime":false,"distance":1625.306231263697,"pathway":false,"mode":"BUS","route":"15","agencyName":"Société de Transport du Saguenay","agencyUrl":"http://ville.saguenay.ca/fr/services-aux-citoyens/transport-sts","agencyTimeZoneOffset":-14400000,"routeColor":"FF00FF","routeType":3,"routeId":"1:15","routeTextColor":"FFFFFF","interlineWithPreviousLeg":false,"tripBlockId":"33","headsign":"Talbot / Barrette","agencyId":"0","tripId":"1:218173","serviceDate":"20180402","from":{"name":"Terminus Chicoutimi","stopId":"1:1289","stopCode":"1289","lon":-71.066163,"lat":48.428677,"arrival":1522667460000,"departure":1522667700000,"zoneId":"NA","stopIndex":0,"stopSequence":1,"vertexType":"TRANSIT"},"to":{"name":"Terminus UQAC","stopId":"1:1670","stopCode":"1670","lon":-71.053369,"lat":48.420903,"arrival":1522668120000,"departure":1522668121000,"zoneId":"NA","stopIndex":7,"stopSequence":8,"vertexType":"TRANSIT"},"legGeometry":{"points":"evqfHpbwpLPiCjKx@HiEZkS\\aSN_K^eIrBpBvIpIr@r@\\mBfAaA`@gBOkB_@uF|DyL|DpDQ|@|@z@","length":20},"routeShortName":"15","routeLongName":"Term. Chic / Costco","rentedBike":false,"transitLeg":true,"duration":420.0,"steps":[]},{"startTime":1522668121000,"endTime":1522668398000,"departureDelay":0,"arrivalDelay":0,"realTime":false,"distance":348.51900000000006,"pathway":false,"mode":"WALK","route":"","agencyTimeZoneOffset":-14400000,"interlineWithPreviousLeg":false,"from":{"name":"Terminus UQAC","stopId":"1:1670","stopCode":"1670","lon":-71.053369,"lat":48.420903,"arrival":1522668120000,"departure":1522668121000,"zoneId":"NA","stopIndex":7,"stopSequence":8,"vertexType":"TRANSIT"},"to":{"name":"Destination","lon":-71.053021,"lat":48.418729,"arrival":1522668398000,"orig":"","vertexType":"NORMAL"},"legGeometry":{"points":"sepfHrrtpLbA`ATq@f@wAd@wATs@X{@p@Y~@`AB@vBtB","length":11},"rentedBike":false,"transitLeg":false,"duration":277.0,"steps":[{"distance":269.46700000000004,"relativeDirection":"DEPART","streetName":"service road","absoluteDirection":"SOUTHWEST","stayOn":false,"area":false,"bogusName":true,"lon":-71.0533724395415,"lat":48.420904465432976,"elevation":[]},{"distance":79.052,"relativeDirection":"CONTINUE","streetName":"path","absoluteDirection":"SOUTHWEST","stayOn":false,"area":false,"bogusName":false,"lon":-71.05222810000001,"lat":48.41923430000001,"elevation":[]}]}],"tooSloped":false},{"duration":1496,"startTime":1522667442000,"endTime":1522668938000,"walkTime":1147,"transitTime":347,"waitingTime":2,"walkDistance":1462.2416842049222,"walkLimitExceeded":false,"elevationLost":0.0,"elevationGained":0.0,"transfers":0,"legs":[{"startTime":1522667442000,"endTime":1522668312000,"departureDelay":0,"arrivalDelay":0,"realTime":false,"distance":1113.549,"pathway":false,"mode":"WALK","route":"","agencyTimeZoneOffset":-14400000,"interlineWithPreviousLeg":false,"from":{"name":"Origin","lon":-71.084177,"lat":48.425886,"departure":1522667442000,"orig":"","vertexType":"NORMAL"},"to":{"name":"Jolliet / Audet","stopId":"1:522","stopCode":"522","lon":-71.07278,"lat":48.420244,"arrival":1522668312000,"departure":1522668313000,"zoneId":"NA","stopIndex":27,"stopSequence":28,"vertexType":"TRANSIT"},"legGeometry":{"points":"weqfHltzpL]q@xAgEh@{A`AyCXm@Xa@r@u@pBqB~AqBFKVe@La@f@gAHc@RgAD[NeANu@`@qAvAuDbAkCDIN[BIx@uBf@}AXq@Pa@FEFCDCBG@I@K?MESfA_CNc@`@mA","length":40},"rentedBike":false,"transitLeg":false,"duration":870.0,"steps":[{"distance":25.427,"relativeDirection":"DEPART","streetName":"Chemin de la Réserve","absoluteDirection":"NORTHEAST","stayOn":false,"area":false,"bogusName":false,"lon":-71.08438992849686,"lat":48.42604175622712,"elevation":[]},{"distance":238.88,"relativeDirection":"RIGHT","streetName":"Côte Saint-Ange","absoluteDirection":"SOUTHEAST","stayOn":false,"area":false,"bogusName":false,"lon":-71.0841347,"lat":48.426195400000005,"elevation":[]},{"distance":658.8380000000001,"relativeDirection":"CONTINUE","streetName":"Rue Dubuc","absoluteDirection":"SOUTHEAST","stayOn":false,"area":false,"bogusName":false,"lon":-71.0815067,"lat":48.424949000000005,"elevation":[]},{"distance":78.343,"relativeDirection":"CONTINUE","streetName":"path","absoluteDirection":"SOUTHEAST","stayOn":false,"area":false,"bogusName":true,"lon":-71.07469880000001,"lat":48.4212916,"elevation":[]},{"distance":112.061,"relativeDirection":"RIGHT","streetName":"Rue Jolliet","absoluteDirection":"SOUTHEAST","stayOn":false,"area":false,"bogusName":false,"lon":-71.07388590000001,"lat":48.420954200000004,"elevation":[]}]},{"startTime":1522668313000,"endTime":1522668660000,"departureDelay":0,"arrivalDelay":0,"realTime":false,"distance":1526.456654196125,"pathway":false,"mode":"BUS","route":"14","agencyName":"Société de Transport du Saguenay","agencyUrl":"http://ville.saguenay.ca/fr/services-aux-citoyens/transport-sts","agencyTimeZoneOffset":-14400000,"routeColor":"C0C000","routeType":3,"routeId":"1:14","routeTextColor":"000000","interlineWithPreviousLeg":false,"tripBlockId":"31","headsign":"Terminus Chicoutimi","agencyId":"0","tripId":"1:218123","serviceDate":"20180402","from":{"name":"Jolliet / Audet","stopId":"1:522","stopCode":"522","lon":-71.07278,"lat":48.420244,"arrival":1522668312000,"departure":1522668313000,"zoneId":"NA","stopIndex":27,"stopSequence":28,"vertexType":"TRANSIT"},"to":{"name":"Terminus UQAC","stopId":"1:1670","stopCode":"1670","lon":-71.053369,"lat":48.420903,"arrival":1522668660000,"departure":1522668661000,"zoneId":"NA","stopIndex":29,"stopSequence":30,"vertexType":"TRANSIT"},"legGeometry":{"points":"ibpfHdkxpLZeAa@SyEQg@CPcALuCx@{b@t@{[XoDd@sBl@iB~@gA`G{F{A{D_@sBFqDOq@iG{F","length":19},"routeShortName":"14","routeLongName":"Coopérative","rentedBike":false,"transitLeg":true,"duration":347.0,"steps":[]},{"startTime":1522668661000,"endTime":1522668938000,"departureDelay":0,"arrivalDelay":0,"realTime":false,"distance":348.51900000000006,"pathway":false,"mode":"WALK","route":"","agencyTimeZoneOffset":-14400000,"interlineWithPreviousLeg":false,"from":{"name":"Terminus UQAC","stopId":"1:1670","stopCode":"1670","lon":-71.053369,"lat":48.420903,"arrival":1522668660000,"departure":1522668661000,"zoneId":"NA","stopIndex":29,"stopSequence":30,"vertexType":"TRANSIT"},"to":{"name":"Destination","lon":-71.053021,"lat":48.418729,"arrival":1522668938000,"orig":"","vertexType":"NORMAL"},"legGeometry":{"points":"sepfHrrtpLbA`ATq@f@wAd@wATs@X{@p@Y~@`AB@vBtB","length":11},"rentedBike":false,"transitLeg":false,"duration":277.0,"steps":[{"distance":269.46700000000004,"relativeDirection":"DEPART","streetName":"service road","absoluteDirection":"SOUTHWEST","stayOn":false,"area":false,"bogusName":true,"lon":-71.0533724395415,"lat":48.420904465432976,"elevation":[]},{"distance":79.052,"relativeDirection":"CONTINUE","streetName":"path","absoluteDirection":"SOUTHWEST","stayOn":false,"area":false,"bogusName":false,"lon":-71.05222810000001,"lat":48.41923430000001,"elevation":[]}]}],"tooSloped":false},{"duration":1210,"startTime":1522668773000,"endTime":1522669983000,"walkTime":111,"transitTime":857,"waitingTime":242,"walkDistance":145.913,"walkLimitExceeded":false,"elevationLost":0.0,"elevationGained":0.0,"transfers":1,"legs":[{"startTime":1522668773000,"endTime":1522668822000,"departureDelay":0,"arrivalDelay":0,"realTime":false,"distance":64.583,"pathway":false,"mode":"WALK","route":"","agencyTimeZoneOffset":-14400000,"interlineWithPreviousLeg":false,"from":{"name":"Origin","lon":-71.084177,"lat":48.425886,"departure":1522668773000,"orig":"","vertexType":"NORMAL"},"to":{"name":"ch. de la Réserve / Ste-Cécile","stopId":"1:624","stopCode":"624","lon":-71.084991,"lat":48.425617,"arrival":1522668822000,"departure":1522668823000,"zoneId":"NA","stopIndex":29,"stopSequence":30,"vertexType":"TRANSIT"},"legGeometry":{"points":"weqfHltzpLlA`C","length":2},"rentedBike":false,"transitLeg":false,"duration":49.0,"steps":[{"distance":64.583,"relativeDirection":"DEPART","streetName":"Chemin de la Réserve","absoluteDirection":"SOUTHWEST","stayOn":false,"area":false,"bogusName":false,"lon":-71.08438992849686,"lat":48.42604175622712,"elevation":[]}]},{"startTime":1522668823000,"endTime":1522669260000,"departureDelay":0,"arrivalDelay":0,"realTime":false,"distance":1824.8346300120436,"pathway":false,"mode":"BUS","route":"16","agencyName":"Société de Transport du Saguenay","agencyUrl":"http://ville.saguenay.ca/fr/services-aux-citoyens/transport-sts","agencyTimeZoneOffset":-14400000,"routeColor":"00FF00","routeType":3,"routeId":"1:16","routeTextColor":"000000","interlineWithPreviousLeg":false,"tripBlockId":"35","headsign":"Terminus Chicoutimi","agencyId":"0","tripId":"1:218243","serviceDate":"20180402","from":{"name":"ch. de la Réserve / Ste-Cécile","stopId":"1:624","stopCode":"624","lon":-71.084991,"lat":48.425617,"arrival":1522668822000,"departure":1522668823000,"zoneId":"NA","stopIndex":29,"stopSequence":30,"vertexType":"TRANSIT"},"to":{"name":"Terminus Chicoutimi","stopId":"1:1289","stopCode":"1289","lon":-71.066163,"lat":48.428677,"arrival":1522669260000,"departure":1522669500000,"zoneId":"NA","stopIndex":35,"stopSequence":36,"vertexType":"TRANSIT"},"legGeometry":{"points":"mcqfHtxzpLQ[sAuC{@sBeCcGqAwC[g@]a@aAw@[_@cA}A_@w@GU[iDWaDzByCv@cA`@e@TSp@g@nAo@nBm@ZSf@c@PMb@[b@_@b@e@PYP]N_@La@P{@NcB@IBcAG_A{@sEEg@oAP}@DiBDFeBMa@iBCq@FmBPFcEDoBNiHyDWN_HBoA@Y@m@","length":55},"routeShortName":"16","routeLongName":"Côte de la Réserve","rentedBike":false,"transitLeg":true,"duration":437.0,"steps":[]},{"startTime":1522669500000,"endTime":1522669920000,"departureDelay":0,"arrivalDelay":0,"realTime":false,"distance":1786.9362989351841,"pathway":false,"mode":"BUS","route":"24S","agencyName":"Société de Transport du Saguenay","agencyUrl":"http://ville.saguenay.ca/fr/services-aux-citoyens/transport-sts","agencyTimeZoneOffset":-14400000,"routeColor":"8B0000","routeType":3,"routeId":"1:24S","routeTextColor":"FFFFFF","interlineWithPreviousLeg":false,"tripBlockId":"49","headsign":"UQAC","agencyId":"0","tripId":"1:218409","serviceDate":"20180402","from":{"name":"Terminus Chicoutimi","stopId":"1:1289","stopCode":"1289","lon":-71.066163,"lat":48.428677,"arrival":1522669260000,"departure":1522669500000,"zoneId":"NA","stopIndex":0,"stopSequence":1,"vertexType":"TRANSIT"},"to":{"name":"Université du Québec à Chicoutimi","stopId":"1:1927","stopCode":"1927","lon":-71.052171,"lat":48.419234,"arrival":1522669920000,"departure":1522669921000,"zoneId":"NA","stopIndex":7,"stopSequence":8,"vertexType":"TRANSIT"},"legGeometry":{"points":"uvqfHnbwpLDoChBPd@P~G`@DoC@m@@M?A?KHmEJgEDmC@yA?ABuC@wBFcDHoEBuAV_OToBlBnB@@zApBTNn@v@fA|@pCnC\\y@\\{@z@aARg@NoA@a@Ge@AQAMc@_E?i@dAeDN{@n@gBh@yALG|@t@\\`@@@tAxAp@uBlByFjChCtAvA","length":53},"routeShortName":"24S","routeLongName":"UQAC via Bégin","rentedBike":false,"transitLeg":true,"duration":420.0,"steps":[]},{"startTime":1522669921000,"endTime":1522669983000,"departureDelay":0,"arrivalDelay":0,"realTime":false,"distance":81.33000000000001,"pathway":false,"mode":"WALK","route":"","agencyTimeZoneOffset":-14400000,"interlineWithPreviousLeg":false,"from":{"name":"Université du Québec à Chicoutimi","stopId":"1:1927","stopCode":"1927","lon":-71.052171,"lat":48.419234,"arrival":1522669920000,"departure":1522669921000,"zoneId":"NA","stopIndex":7,"stopSequence":8,"vertexType":"TRANSIT"},"to":{"name":"Destination","lon":-71.053021,"lat":48.418729,"arrival":1522669983000,"orig":"","vertexType":"NORMAL"},"legGeometry":{"points":"i{ofHjktpLB@vBtB","length":3},"rentedBike":false,"transitLeg":false,"duration":62.0,"steps":[{"distance":81.33000000000001,"relativeDirection":"DEPART","streetName":"path","absoluteDirection":"SOUTHWEST","stayOn":false,"area":false,"bogusName":true,"lon":-71.05221121256777,"lat":48.419251445558785,"elevation":[]}]}],"tooSloped":false}]},"debugOutput":{"precalculationTime":45,"pathCalculationTime":30,"pathTimes":[19,5,6],"renderingTime":0,"totalTime":75,"timedOut":false},"elevationMetadata":{"ellipsoidToGeoidDifference":-28.885904201182168,"geoidElevation":false}}