{"requestParameters":{"date":"2018/04/02","walkSpeed":"1.33","walkReluctance":"2.0","fromPlace":"48.449824,-71.05944","maxWalkDistance":"3000","waitReluctance":"1.0","carSpeed":"33","numItineraries":"3","waitAtBeginningFactor":"0.4","mode":"TRANSIT,WALK","ignoreRealtimeUpdates":"false","stairsReluctance":"2.0","toPlace":"48.414926,-71.05418","time":"13:55:00"},"plan":{"date":1522691700000,"from":{"name":"Origin","lon":-71.05944,"lat":48.449824,"orig":"","vertexType":"NORMAL"},"to":{"name":"Destination","lon":-71.05418,"lat":48.414926,"orig":"","vertexType":"NORMAL"},"itineraries":[{"duration":2035,"startTime":1522693367000,"endTime":1522695402000,"walkTime":381,"transitTime":1172,"waitingTime":482,"walkDistance":482.9814511252236,"walkLimitExceeded":false,"elevationLost":0.0,"elevationGained":0.0,"transfers":2,"legs":[{"startTime":1522693367000,"endTime":1522693741000,"departureDelay":0,"arrivalDelay":0,"realTime":false,"distance":474.654,"pathway":false,"mode":"WALK","route":"","agencyTimeZoneOffset":-14400000,"interlineWithPreviousLeg":false,"from":{"name":"Origin","lon":-71.05944,"lat":48.449824,"departure":1522693367000,"orig":"","vertexType":"NORMAL"},"to":{"name":"Vimy 1963 (Ch) /","stopId":"1:757","stopCode":"757","lon":-71.0573,"lat":48.4526,"arrival":1522693741000,"departure":1522693742000,"zoneId":"NA","stopIndex":21,"stopSequence":22,"vertexType":"TRANSIT"},"legGeometry":{"points":"qyufHvyupLBEN_@Tw@TcAYQOOOQKMs@qA_ArAcBq@WIwCgAyCeAOGQG","length":17},"rentedBike":false,"transitLeg":false,"duration":374.0,"steps":[{"distance":69.34,"relativeDirection":"DEPART","streetName":"Rue Triquet","absoluteDirection":"SOUTHEAST","stayOn":false,"area":false,"bogusName":false,"lon":-71.05963400260381,"lat":48.449692878058485,"elevation":[]},{"distance":88.072,"relativeDirection":"LEFT","streetName":"Rue Comtois","absoluteDirection":"NORTHEAST","stayOn":false,"area":false,"bogusName":false,"lon":-71.0588281,"lat":48.4493756,"elevation":[]},{"distance":46.75,"relativeDirection":"LEFT","streetName":"Rue de Verdun","absoluteDirection":"NORTHWEST","stayOn":false,"area":false,"bogusName":false,"lon":-71.0580831,"lat":48.4499853,"elevation":[]},{"distance":260.302,"relativeDirection":"RIGHT","streetName":"Rue Richelieu","absoluteDirection":"NORTH","stayOn":false,"area":false,"bogusName":false,"lon":-71.05850140000001,"lat":48.450301200000006,"elevation":[]},{"distance":10.19,"relativeDirection":"CONTINUE","streetName":"Rue Fabre","absoluteDirection":"NORTH","stayOn":false,"area":false,"bogusName":false,"lon":-71.0574594,"lat":48.4525377,"elevation":[]}]},{"startTime":1522693742000,"endTime":1522694400000,"departureDelay":0,"arrivalDelay":0,"realTime":false,"distance":4081.8423270011253,"pathway":false,"mode":"BUS","route":"22","agencyName":"Société de Transport du Saguenay","agencyUrl":"http://ville.saguenay.ca/fr/services-aux-citoyens/transport-sts","agencyTimeZoneOffset":-14400000,"routeColor":"C0C000","routeType":3,"routeId":"1:22","routeTextColor":"000000","interlineWithPreviousLeg":false,"tripBlockId":"3","headsign":"Terminus Chicoutimi","agencyId":"0","tripId":"1:217202","serviceDate":"20180402","from":{"name":"Vimy 1963 (Ch) /","stopId":"1:757","stopCode":"757","lon":-71.0573,"lat":48.4526,"arrival":1522693741000,"departure":1522693742000,"zoneId":"NA","stopIndex":21,"stopSequence":22,"vertexType":"TRANSIT"},"to":{"name":"Terminus Chicoutimi","stopId":"1:1289","stopCode":"1289","lon":-71.066163,"lat":48.428677,"arrival":1522694400000,"departure":1522694700000,"zoneId":"NA","stopIndex":35,"stopSequence":36,"vertexType":"TRANSIT"},"legGeometry":{"points":"ekvfHlkupLeA|He@hCo@|AiBbD~@^|IrDhAb@qAfJSzAMr@Yz@xAhDFNpBdFRp@Hl@Jz@BXXrCHl@Lh@Nf@r@nAr@r@`@PLFbAVH_AXeC@IdB_Mh@_EJk@x@x@bA`A|BrBnDrCl@f@|BlBrAbAj@d@ZTXNd@@lA[ZxDN|Ad@fAz@tB~AzDZ|@Zv@x@vBP\\h@~@PVrCmFhHqN~@eBr@cAt@_Av@}@RQPMz@k@tAe@REZG^Af@@X@VF`@Jn@XbClAr@Xt\\`PrAb@pA^hBTjAFj@Pb@JPHLLJNJRFXDT?X?ZEVEVKTMNMHMFOB}DWSGOSYcAN}FFkAF}DJyDd@wPV_HjAN~ALIzBQb@e@@","length":114},"routeShortName":"22","routeLongName":"Vanier","rentedBike":false,"transitLeg":true,"duration":658.0,"steps":[]},{"startTime":1522694700000,"endTime":1522695120000,"departureDelay":0,"arrivalDelay":0,"realTime":false,"distance":1729.6772383837415,"pathway":false,"mode":"BUS","route":"14","agencyName":"Société de Transport du Saguenay","agencyUrl":"http://ville.saguenay.ca/fr/services-aux-citoyens/transport-sts","agencyTimeZoneOffset":-14400000,"routeColor":"C0C000","routeType":3,"routeId":"1:14","routeTextColor":"000000","interlineWithPreviousLeg":false,"tripBlockId":"30","headsign":"Talbot / Barrette","agencyId":"0","tripId":"1:218103","serviceDate":"20180402","from":{"name":"Terminus Chicoutimi","stopId":"1:1289","stopCode":"1289","lon":-71.066163,"lat":48.428677,"arrival":1522694400000,"departure":1522694700000,"zoneId":"NA","stopIndex":0,"stopSequence":1,"vertexType":"TRANSIT"},"to":{"name":"Terminus UQAC","stopId":"1:1670","stopCode":"1670","lon":-71.053369,"lat":48.420903,"arrival":1522695120000,"departure":1522695300000,"zoneId":"NA","stopIndex":8,"stopSequence":9,"vertexType":"TRANSIT"},"legGeometry":{"points":"qvqfHnbwpLJkClLh@DsDTmSHwFB{I@m@@eBH_AF}A@w@Dq@@i@B}B@Y@e@D]F_@@SHQCKnBnBvIrIn@n@\\iATg@v@_ATg@LmABg@Is@c@iEAm@bAcDTcAtA{DJI|AxAvAvAQv@~@z@","length":42},"routeShortName":"14","routeLongName":"Coopérative","rentedBike":false,"transitLeg":true,"duration":420.0,"steps":[]},{"startTime":1522695300000,"endTime":1522695394000,"departureDelay":0,"arrivalDelay":0,"realTime":false,"distance":662.0241712657853,"pathway":false,"mode":"BUS","route":"6","agencyName":"Société de Transport du Saguenay","agencyUrl":"http://ville.saguenay.ca/fr/services-aux-citoyens/transport-sts","agencyTimeZoneOffset":-14400000,"routeColor":"FF0000","routeType":3,"routeId":"1:6","routeTextColor":"FFFFFF","interlineWithPreviousLeg":false,"tripBlockId":"24","headsign":"Terminus La Baie","agencyId":"0","tripId":"1:217916","serviceDate":"20180402","from":{"name":"Terminus UQAC","stopId":"1:1670","stopCode":"1670","lon":-71.053369,"lat":48.420903,"arrival":1522695120000,"departure":1522695300000,"zoneId":"NA","stopIndex":0,"stopSequence":1,"vertexType":"TRANSIT"},"to":{"name":"Polyclinique du Saguenay (boul. Université)","stopId":"1:79","stopCode":"79","lon":-71.053795,"lat":48.414956,"arrival":1522695394000,"departure":1522695395000,"zoneId":"NA","stopIndex":1,"stopSequence":2,"vertexType":"TRANSIT"},"legGeometry":{"points":"sepfHprtpL\\Xd@j@Tw@dEdEJ`@E~Db@pBxAtDdNaLfB}Ad@c@h@i@`@[`@_@XO","length":16},"routeShortName":"6","routeLongName":"Term. Chic/Term. Baie via ch.Plateau","rentedBike":false,"transitLeg":true,"duration":94.0,"steps":[]},{"startTime":1522695395000,"endTime":1522695402000,"departureDelay":0,"arrivalDelay":0,"realTime":false,"distance":8.247,"pathway":false,"mode":"WALK","route":"","agencyTimeZoneOffset":-14400000,"interlineWithPreviousLeg":false,"from":{"name":"Polyclinique du Saguenay (boul. Université)","stopId":"1:79","stopCode":"79","lon":-71.053795,"lat":48.414956,"arrival":1522695394000,"departure":1522695395000,"zoneId":"NA","stopIndex":1,"stopSequence":2,"vertexType":"TRANSIT"},"to":{"name":"Destination","lon":-71.05418,"lat":48.414926,"arrival":1522695402000,"orig":"","vertexType":"NORMAL"},"legGeometry":{"points":"s`ofHtttpLKH","length":2},"rentedBike":false,"transitLeg":false,"duration":7.0,"steps":[{"distance":8.247,"relativeDirection":"DEPART","streetName":"Boulevard de l'Université","absoluteDirection":"NORTHWEST","stayOn":false,"area":false,"bogusName":false,"lon":-71.05370648018611,"lat":48.414981486600546,"elevation":[]}]}],"tooSloped":false},{"duration":1998,"startTime":1522693407000,"endTime":1522695405000,"walkTime":159,"transitTime":1237,"waitingTime":602,"walkDistance":196.12193232847375,"walkLimitExceeded":false,"elevationLost":0.0,"elevationGained":0.0,"transfers":1,"legs":[{"startTime":1522693407000,"endTime":1522693559000,"departureDelay":0,"arrivalDelay":0,"realTime":false,"distance":187.80200000000002,"pathway":false,"mode":"WALK","route":"","agencyTimeZoneOffset":-14400000,"interlineWithPreviousLeg":false,"from":{"name":"Origin","lon":-71.05944,"lat":48.449824,"departure":1522693407000,"orig":"","vertexType":"NORMAL"},"to":{"name":"Verdun / Riviera","stopId":"1:2023","stopCode":"2023","lon":-71.057875,"lat":48.449739,"arrival":1522693559000,"departure":1522693560000,"zoneId":"NA","stopIndex":14,"stopSequence":15,"vertexType":"TRANSIT"},"legGeometry":{"points":"qyufHvyupLBEN_@Tw@TcAYQOOOQKMs@qAf@y@","length":11},"rentedBike":false,"transitLeg":false,"duration":152.0,"steps":[{"distance":69.34,"relativeDirection":"DEPART","streetName":"Rue Triquet","absoluteDirection":"SOUTHEAST","stayOn":false,"area":false,"bogusName":false,"lon":-71.05963400260381,"lat":48.449692878058485,"elevation":[]},{"distance":88.072,"relativeDirection":"LEFT","streetName":"Rue Comtois","absoluteDirection":"NORTHEAST","stayOn":false,"area":false,"bogusName":false,"lon":-71.0588281,"lat":48.4493756,"elevation":[]},{"distance":30.39,"relativeDirection":"RIGHT","streetName":"Rue de Verdun","absoluteDirection":"SOUTHEAST","stayOn":false,"area":false,"bogusName":false,"lon":-71.0580831,"lat":48.4499853,"elevation":[]}]},{"startTime":1522693560000,"endTime":1522694100000,"departureDelay":0,"arrivalDelay":0,"realTime":false,"distance":3566.9301798582574,"pathway":false,"mode":"BUS","route":"23","agencyName":"Société de Transport du Saguenay","agencyUrl":"http://ville.saguenay.ca/fr/services-aux-citoyens/transport-sts","agencyTimeZoneOffset":-14400000,"routeColor":"FF00FF","routeType":3,"routeId":"1:23","routeTextColor":"FFFFFF","interlineWithPreviousLeg":false,"tripBlockId":"4","headsign":"Terminus Chicoutimi","agencyId":"0","tripId":"1:217238","serviceDate":"20180402","from":{"name":"Verdun / Riviera","stopId":"1:2023","stopCode":"2023","lon":-71.057875,"lat":48.449739,"arrival":1522693559000,"departure":1522693560000,"zoneId":"NA","stopIndex":14,"stopSequence":15,"vertexType":"TRANSIT"},"to":{"name":"Terminus Chicoutimi","stopId":"1:1289","stopCode":"1289","lon":-71.066163,"lat":48.428677,"arrival":1522694100000,"departure":1522694700000,"zoneId":"NA","stopIndex":26,"stopSequence":27,"vertexType":"TRANSIT"},"legGeometry":{"points":"czufHhnupLT[~CkFf@s@\\e@x@}@jAeAXQZStBaAh@]`@]`@i@l@kDF_@R{AFWFMPIPC`@BT@V?TAVKLENCLCJ@J@xAb@x@Zz@\\CP?R@N@NFLFF`GtBx@Xw@pG@l@B\\DXL\\RZDFXPf@N@v@Bp@Dr@l@~HNlAH\\@HLd@\\z@Xd@X\\RTXRr@Zn@PfExAvDpALnBJt@Pp@|@`DHZPn@`@rBNnAFr@DbA?bB@jABzA?p@A???A???A?A???A@??A?A@??A@?@A??@A@???@A@?@?@A@?@?@?@?@???@?@?@?@?@?@@@?@?@@@?@@@?@@@?@@?@@??@@@?E`@Kr@]rACVEl@I|AAr@JbAWJe@FUAM?a@Ke@YYWWa@v@}@RQPMz@k@tAe@REZG^Af@@X@VF`@Jn@XbClAr@Xt\\`PrAb@pA^hBTjAFj@Pb@JPHLLJNJRFXDT?X?ZEVEVKTMNMHMFOB}DWSGOSYcAN}FFkAF}DJyDd@wPV_HjAN~ALI`C","length":195},"routeShortName":"23","routeLongName":"Côte Verdun via Aréna du Plateau","rentedBike":false,"transitLeg":true,"duration":540.0,"steps":[]},{"startTime":1522694700000,"endTime":1522695397000,"departureDelay":0,"arrivalDelay":0,"realTime":false,"distance":3048.924945094835,"pathway":false,"mode":"BUS","route":"175","agencyName":"Société de Transport du Saguenay","agencyUrl":"http://ville.saguenay.ca/fr/services-aux-citoyens/transport-sts","agencyTimeZoneOffset":-14400000,"routeColor":"FF00FF","routeType":3,"routeId":"1:175","routeTextColor":"FFFFFF","interlineWithPreviousLeg":false,"tripBlockId":"7","headsign":"Costco","agencyId":"0","tripId":"1:217337","serviceDate":"20180402","from":{"name":"Terminus Chicoutimi","stopId":"1:1289","stopCode":"1289","lon":-71.066163,"lat":48.428677,"arrival":1522694100000,"departure":1522694700000,"zoneId":"NA","stopIndex":0,"stopSequence":1,"vertexType":"TRANSIT"},"to":{"name":"Polyclinique du Saguenay (boul. Université)","stopId":"1:79","stopCode":"79","lon":-71.053795,"lat":48.414956,"arrival":1522695397000,"departure":1522695398000,"zoneId":"NA","stopIndex":12,"stopSequence":13,"vertexType":"TRANSIT"},"legGeometry":{"points":"kvqfH~awpL~CgBbAqa@FwCBkAOsHAg@bAYUwMKoE@mB@kJ@iFbEf@xEj@iCtYp@r@z@`ABBvHtHXRx@l@VwAvAgB\\qBIuAC]g@yEzDuLbBbBvAxAMx@|@v@`A~@Xw@~D~DPxFZtA~ApE`N{LpFmEb@[","length":42},"routeShortName":"175","routeLongName":"Term. Chic / Costco","rentedBike":false,"transitLeg":true,"duration":697.0,"steps":[]},{"startTime":1522695398000,"endTime":1522695405000,"departureDelay":0,"arrivalDelay":0,"realTime":false,"distance":8.247,"pathway":false,"mode":"WALK","route":"","agencyTimeZoneOffset":-14400000,"interlineWithPreviousLeg":false,"from":{"name":"Polyclinique du Saguenay (boul. Université)","stopId":"1:79","stopCode":"79","lon":-71.053795,"lat":48.414956,"arrival":1522695397000,"departure":1522695398000,"zoneId":"NA","stopIndex":12,"stopSequence":13,"vertexType":"TRANSIT"},"to":{"name":"Destination","lon":-71.05418,"lat":48.414926,"arrival":1522695405000,"orig":"","vertexType":"NORMAL"},"legGeometry":{"points":"s`ofHtttpLKH","length":2},"rentedBike":false,"transitLeg":false,"duration":7.0,"steps":[{"distance":8.247,"relativeDirection":"DEPART","streetName":"Boulevard de l'Université","absoluteDirection":"NORTHWEST","stayOn":false,"area":false,"bogusName":false,"lon":-71.05370648018611,"lat":48.414981486600546,"elevation":[]}]}],"tooSloped":false},{"duration":1998,"startTime":1522695207000,"endTime":1522697205000,"walkTime":159,"transitTime":1237,"waitingTime":602,"walkDistance":196.12193232847375,"walkLimitExceeded":false,"elevationLost":0.0,"elevationGained":0.0,"transfers":1,"legs":[{"startTime":1522695207000,"endTime":1522695359000,"departureDelay":0,"arrivalDelay":0,"realTime":false,"distance":187.80200000000002,"pathway":false,"mode":"WALK","route":"","agencyTimeZoneOffset":-14400000,"interlineWithPreviousLeg":false,"from":{"name":"Origin","lon":-71.05944,"lat":48.449824,"departure":1522695207000,"orig":"","vertexType":"NORMAL"},"to":{"name":"Verdun / Riviera","stopId":"1:2023","stopCode":"2023","lon":-71.057875,"lat":48.449739,"arrival":1522695359000,"departure":1522695360000,"zoneId":"NA","stopIndex":14,"stopSequence":15,"vertexType":"TRANSIT"},"legGeometry":{"points":"qyufHvyupLBEN_@Tw@TcAYQOOOQKMs@qAf@y@","length":11},"rentedBike":false,"transitLeg":false,"duration":152.0,"steps":[{"distance":69.34,"relativeDirection":"DEPART","streetName":"Rue Triquet","absoluteDirection":"SOUTHEAST","stayOn":false,"area":false,"bogusName":false,"lon":-71.05963400260381,"lat":48.449692878058485,"elevation":[]},{"distance":88.072,"relativeDirection":"LEFT","streetName":"Rue Comtois","absoluteDirection":"NORTHEAST","stayOn":false,"area":false,"bogusName":false,"lon":-71.0588281,"lat":48.4493756,"elevation":[]},{"distance":30.39,"relativeDirection":"RIGHT","streetName":"Rue de Verdun","absoluteDirection":"SOUTHEAST","stayOn":false,"area":false,"bogusName":false,"lon":-71.0580831,"lat":48.4499853,"elevation":[]}]},{"startTime":1522695360000,"endTime":1522695900000,"departureDelay":0,"arrivalDelay":0,"realTime":false,"distance":3566.9301798582574,"pathway":false,"mode":"BUS","route":"23","agencyName":"Société de Transport du Saguenay","agencyUrl":"http://ville.saguenay.ca/fr/services-aux-citoyens/transport-sts","agencyTimeZoneOffset":-14400000,"routeColor":"FF00FF","routeType":3,"routeId":"1:23","routeTextColor":"FFFFFF","interlineWithPreviousLeg":false,"tripBlockId":"5","headsign":"Terminus Chicoutimi","agencyId":"0","tripId":"1:217266","serviceDate":"20180402","from":{"name":"Verdun / Riviera","stopId":"1:2023","stopCode":"2023","lon":-71.057875,"lat":48.449739,"arrival":1522695359000,"departure":1522695360000,"zoneId":"NA","stopIndex":14,"stopSequence":15,"vertexType":"TRANSIT"},"to":{"name":"Terminus Chicoutimi","stopId":"1:1289","stopCode":"1289","lon":-71.066163,"lat":48.428677,"arrival":1522695900000,"departure":1522696500000,"zoneId":"NA","stopIndex":26,"stopSequence":27,"vertexType":"TRANSIT"},"legGeometry":{"points":"czufHhnupLT[~CkFf@s@\\e@x@}@jAeAXQZStBaAh@]`@]`@i@l@kDF_@R{AFWFMPIPC`@BT@V?TAVKLENCLCJ@J@xAb@x@Zz@\\CP?R@N@NFLFF`GtBx@Xw@pG@l@B\\DXL\\RZDFXPf@N@v@Bp@Dr@l@~HNlAH\\@HLd@\\z@Xd@X\\RTXRr@Zn@PfExAvDpALnBJt@Pp@|@`DHZPn@`@rBNnAFr@DbA?bB@jABzA?p@A???A???A?A???A@??A?A@??A@?@A??@A@???@A@?@?@A@?@?@?@?@???@?@?@?@?@?@@@?@?@@@?@@@?@@@?@@?@@??@@@?E`@Kr@]rACVEl@I|AAr@JbAWJe@FUAM?a@Ke@YYWWa@v@}@RQPMz@k@tAe@REZG^Af@@X@VF`@Jn@XbClAr@Xt\\`PrAb@pA^hBTjAFj@Pb@JPHLLJNJRFXDT?X?ZEVEVKTMNMHMFOB}DWSGOSYcAN}FFkAF}DJyDd@wPV_HjAN~ALI`C","length":195},"routeShortName":"23","routeLongName":"Côte Verdun via Aréna du Plateau","rentedBike":false,"transitLeg":true,"duration":540.0,"steps":[]},{"startTime":1522696500000,"endTime":1522697197000,"departureDelay":0,"arrivalDelay":0,"realTime":false,"distance":3048.924945094835,"pathway":false,"mode":"BUS","route":"175","agencyName":"Société de Transport du Saguenay","agencyUrl":"http://ville.saguenay.ca/fr/services-aux-citoyens/transport-sts","agencyTimeZoneOffset":-14400000,"routeColor":"FF00FF","routeType":3,"routeId":"1:175","routeTextColor":"FFFFFF","interlineWithPreviousLeg":false,"tripBlockId":"8","headsign":"Costco","agencyId":"0","tripId":"1:217374","serviceDate":"20180402","from":{"name":"Terminus Chicoutimi","stopId":"1:1289","stopCode":"1289","lon":-71.066163,"lat":48.428677,"arrival":1522695900000,"departure":1522696500000,"zoneId":"NA","stopIndex":0,"stopSequence":1,"vertexType":"TRANSIT"},"to":{"name":"Polyclinique du Saguenay (boul. Université)","stopId":"1:79","stopCode":"79","lon":-71.053795,"lat":48.414956,"arrival":1522697197000,"departure":1522697198000,"zoneId":"NA","stopIndex":12,"stopSequence":13,"vertexType":"TRANSIT"},"legGeometry":{"points":"kvqfH~awpL~CgBbAqa@FwCBkAOsHAg@bAYUwMKoE@mB@kJ@iFbEf@xEj@iCtYp@r@z@`ABBvHtHXRx@l@VwAvAgB\\qBIuAC]g@yEzDuLbBbBvAxAMx@|@v@`A~@Xw@~D~DPxFZtA~ApE`N{LpFmEb@[","length":42},"routeShortName":"175","routeLongName":"Term. Chic / Costco","rentedBike":false,"transitLeg":true,"duration":697.0,"steps":[]},{"startTime":1522697198000,"endTime":1522697205000,"departureDelay":0,"arrivalDelay":0,"realTime":false,"distance":8.247,"pathway":false,"mode":"WALK","route":"","agencyTimeZoneOffset":-14400000,"interlineWithPreviousLeg":false,"from":{"name":"Polyclinique du Saguenay (boul. Université)","stopId":"1:79","stopCode":"79","lon":-71.053795,"lat":48.414956,"arrival":1522697197000,"departure":1522697198000,"zoneId":"NA","stopIndex":12,"stopSequence":13,"vertexType":"TRANSIT"},"to":{"name":"Destination","lon":-71.05418,"lat":48.414926,"arrival":1522697205000,"orig":"","vertexType":"NORMAL"},"legGeometry":{"points":"s`ofHtttpLKH","length":2},"rentedBike":false,"transitLeg":false,"duration":7.0,"steps":[{"distance":8.247,"relativeDirection":"DEPART","streetName":"Boulevard de l'Université","absoluteDirection":"NORTHWEST","stayOn":false,"area":false,"bogusName":false,"lon":-71.05370648018611,"lat":48.414981486600546,"elevation":[]}]}],"tooSloped":false}]},"debugOutput":{"precalculationTime":38,"pathCalculationTime":33,"pathTimes":[20,7,6],"renderingTime":0,"totalTime":71,"timedOut":false},"elevationMetadata":{"ellipsoidToGeoidDifference":-28.885904201182168,"geoidElevation":false}}