{"requestParameters":{"date":"2018/04/02","walkSpeed":"1.33","walkReluctance":"2.0","fromPlace":"48.427847,-71.06056399","maxWalkDistance":"3000","waitReluctance":"1.0","carSpeed":"33","numItineraries":"3","waitAtBeginningFactor":"0.4","mode":"TRANSIT,WALK","ignoreRealtimeUpdates":"false","stairsReluctance":"2.0","toPlace":"48.425843,-71.071136","time":"11:35:00"},"plan":{"date":1522683300000,"from":{"name":"Origin","lon":-71.06056399,"lat":48.427847,"orig":"","vertexType":"NORMAL"},"to":{"name":"Destination","lon":-71.071136,"lat":48.425843,"orig":"","vertexType":"NORMAL"},"itineraries":[{"duration":771,"startTime":1522683300000,"endTime":1522684071000,"walkTime":771,"transitTime":0,"waitingTime":0,"walkDistance":990.3729172894604,"walkLimitExceeded":false,"elevationLost":0.0,"elevationGained":0.0,"transfers":0,"legs":[{"startTime":1522683300000,"endTime":1522684071000,"departureDelay":0,"arrivalDelay":0,"realTime":false,"distance":990.2559999999999,"pathway":false,"mode":"WALK","route":"","agencyTimeZoneOffset":-14400000,"interlineWithPreviousLeg":false,"from":{"name":"Origin","lon":-71.06056399,"lat":48.427847,"departure":1522683300000,"orig":"","vertexType":"NORMAL"},"to":{"name":"Destination","lon":-71.071136,"lat":48.425843,"arrival":1522684071000,"orig":"","vertexType":"NORMAL"},"legGeometry":{"points":"{oqfHt_vpLDsBlAD^@An@XnAJb@Hb@F^FtABjA?~@Bt@@j@Hr@R~ADPJPr@pBbAxBt@jBVn@Vn@PF@n@Ah@EfBEdBK~FKlEA^EnBC|@ElA","length":34},"rentedBike":false,"transitLeg":false,"duration":771.0,"steps":[{"distance":42.7,"relativeDirection":"DEPART","streetName":"Rue Racine Est","absoluteDirection":"EAST","stayOn":false,"area":false,"bogusName":false,"lon":-71.06058465341188,"lat":48.427660566528886,"elevation":[]},{"distance":61.031000000000006,"relativeDirection":"RIGHT","streetName":"Rue La Fontaine","absoluteDirection":"SOUTH","stayOn":false,"area":false,"bogusName":false,"lon":-71.0600075,"lat":48.4276324,"elevation":[]},{"distance":490.78299999999996,"relativeDirection":"RIGHT","streetName":"service road","absoluteDirection":"WEST","stayOn":false,"area":false,"bogusName":true,"lon":-71.0600417,"lat":48.427084,"elevation":[]},{"distance":10.208,"relativeDirection":"SLIGHTLY_LEFT","streetName":"Rue Morin","absoluteDirection":"SOUTH","stayOn":false,"area":false,"bogusName":false,"lon":-71.0659473,"lat":48.425372700000004,"elevation":[]},{"distance":204.411,"relativeDirection":"RIGHT","streetName":"Rue Price Est","absoluteDirection":"WEST","stayOn":false,"area":false,"bogusName":false,"lon":-71.06598410000001,"lat":48.4252842,"elevation":[]},{"distance":181.12300000000002,"relativeDirection":"CONTINUE","streetName":"Rue Price Ouest","absoluteDirection":"WEST","stayOn":false,"area":false,"bogusName":false,"lon":-71.06874640000001,"lat":48.4254073,"elevation":[]}]}],"tooSloped":false},{"duration":545,"startTime":1522683550000,"endTime":1522684095000,"walkTime":441,"transitTime":102,"waitingTime":2,"walkDistance":562.5635488699363,"walkLimitExceeded":false,"elevationLost":0.0,"elevationGained":0.0,"transfers":0,"legs":[{"startTime":1522683550000,"endTime":1522683899000,"departureDelay":0,"arrivalDelay":0,"realTime":false,"distance":450.38,"pathway":false,"mode":"WALK","route":"","agencyTimeZoneOffset":-14400000,"interlineWithPreviousLeg":false,"from":{"name":"Origin","lon":-71.06056399,"lat":48.427847,"departure":1522683550000,"orig":"","vertexType":"NORMAL"},"to":{"name":"Terminus Chicoutimi","stopId":"1:1289","stopCode":"1289","lon":-71.066163,"lat":48.428677,"arrival":1522683899000,"departure":1522683900000,"zoneId":"NA","stopIndex":0,"stopSequence":1,"vertexType":"TRANSIT"},"legGeometry":{"points":"{oqfHt_vpLE|BAl@?RCv@IxEAh@GpBAXAj@SzHc@MKESAcAK","length":15},"rentedBike":false,"transitLeg":false,"duration":349.0,"steps":[{"distance":373.173,"relativeDirection":"DEPART","streetName":"Rue Racine Est","absoluteDirection":"WEST","stayOn":false,"area":false,"bogusName":false,"lon":-71.06058465341188,"lat":48.427660566528886,"elevation":[]},{"distance":77.207,"relativeDirection":"RIGHT","streetName":"Rue Morin","absoluteDirection":"NORTH","stayOn":false,"area":false,"bogusName":false,"lon":-71.0656238,"lat":48.4279449,"elevation":[]}]},{"startTime":1522683900000,"endTime":1522684002000,"departureDelay":0,"arrivalDelay":0,"realTime":false,"distance":452.7447030864804,"pathway":false,"mode":"BUS","route":"11","agencyName":"Société de Transport du Saguenay","agencyUrl":"http://ville.saguenay.ca/fr/services-aux-citoyens/transport-sts","agencyTimeZoneOffset":-14400000,"routeColor":"FF0000","routeType":3,"routeId":"1:11","routeTextColor":"FFFFFF","interlineWithPreviousLeg":false,"tripBlockId":"35","headsign":"Boul.Royaume/St-Pierre","agencyId":"0","tripId":"1:218252","serviceDate":"20180402","from":{"name":"Terminus Chicoutimi","stopId":"1:1289","stopCode":"1289","lon":-71.066163,"lat":48.428677,"arrival":1522683899000,"departure":1522683900000,"zoneId":"NA","stopIndex":0,"stopSequence":1,"vertexType":"TRANSIT"},"to":{"name":"Price / Ste-Anne","stopId":"1:414","stopCode":"414","lon":-71.069681,"lat":48.425524,"arrival":1522684002000,"departure":1522684003000,"zoneId":"NA","stopIndex":2,"stopSequence":3,"vertexType":"TRANSIT"},"legGeometry":{"points":"evqfHzcwpLk@?UhKfIh@dKp@GnD","length":6},"routeShortName":"11","routeLongName":"Chic/Faubourg via St-Paul","rentedBike":false,"transitLeg":true,"duration":102.0,"steps":[]},{"startTime":1522684003000,"endTime":1522684095000,"departureDelay":0,"arrivalDelay":0,"realTime":false,"distance":112.11399999999999,"pathway":false,"mode":"WALK","route":"","agencyTimeZoneOffset":-14400000,"interlineWithPreviousLeg":false,"from":{"name":"Price / Ste-Anne","stopId":"1:414","stopCode":"414","lon":-71.069681,"lat":48.425524,"arrival":1522684002000,"departure":1522684003000,"zoneId":"NA","stopIndex":2,"stopSequence":3,"vertexType":"TRANSIT"},"to":{"name":"Destination","lon":-71.071136,"lat":48.425843,"arrival":1522684095000,"orig":"","vertexType":"NORMAL"},"legGeometry":{"points":"obqfH`ywpLJ@A^EnBC|@ElA","length":6},"rentedBike":false,"transitLeg":false,"duration":92.0,"steps":[{"distance":6.959,"relativeDirection":"DEPART","streetName":"Rue Petit","absoluteDirection":"SOUTH","stayOn":false,"area":false,"bogusName":false,"lon":-71.06976560254664,"lat":48.42552793662429,"elevation":[]},{"distance":105.15499999999999,"relativeDirection":"RIGHT","streetName":"Rue Price Ouest","absoluteDirection":"WEST","stayOn":false,"area":false,"bogusName":false,"lon":-71.0697722,"lat":48.4254655,"elevation":[]}]}],"tooSloped":false},{"duration":674,"startTime":1522683550000,"endTime":1522684224000,"walkTime":531,"transitTime":141,"waitingTime":2,"walkDistance":681.5909248097738,"walkLimitExceeded":false,"elevationLost":0.0,"elevationGained":0.0,"transfers":0,"legs":[{"startTime":1522683550000,"endTime":1522683899000,"departureDelay":0,"arrivalDelay":0,"realTime":false,"distance":450.38,"pathway":false,"mode":"WALK","route":"","agencyTimeZoneOffset":-14400000,"interlineWithPreviousLeg":false,"from":{"name":"Origin","lon":-71.06056399,"lat":48.427847,"departure":1522683550000,"orig":"","vertexType":"NORMAL"},"to":{"name":"Terminus Chicoutimi","stopId":"1:1289","stopCode":"1289","lon":-71.066163,"lat":48.428677,"arrival":1522683899000,"departure":1522683900000,"zoneId":"NA","stopIndex":0,"stopSequence":1,"vertexType":"TRANSIT"},"legGeometry":{"points":"{oqfHt_vpLE|BAl@?RCv@IxEAh@GpBAXAj@SzHc@MKESAcAK","length":15},"rentedBike":false,"transitLeg":false,"duration":349.0,"steps":[{"distance":373.173,"relativeDirection":"DEPART","streetName":"Rue Racine Est","absoluteDirection":"WEST","stayOn":false,"area":false,"bogusName":false,"lon":-71.06058465341188,"lat":48.427660566528886,"elevation":[]},{"distance":77.207,"relativeDirection":"RIGHT","streetName":"Rue Morin","absoluteDirection":"NORTH","stayOn":false,"area":false,"bogusName":false,"lon":-71.0656238,"lat":48.4279449,"elevation":[]}]},{"startTime":1522683900000,"endTime":1522684041000,"departureDelay":0,"arrivalDelay":0,"realTime":false,"distance":501.78975440250645,"pathway":false,"mode":"BUS","route":"16","agencyName":"Société de Transport du Saguenay","agencyUrl":"http://ville.saguenay.ca/fr/services-aux-citoyens/transport-sts","agencyTimeZoneOffset":-14400000,"routeColor":"00FF00","routeType":3,"routeId":"1:16","routeTextColor":"000000","interlineWithPreviousLeg":false,"tripBlockId":"34","headsign":"Faubourg Sagamie","agencyId":"0","tripId":"1:218217","serviceDate":"20180402","from":{"name":"Terminus Chicoutimi","stopId":"1:1289","stopCode":"1289","lon":-71.066163,"lat":48.428677,"arrival":1522683899000,"departure":1522683900000,"zoneId":"NA","stopIndex":0,"stopSequence":1,"vertexType":"TRANSIT"},"to":{"name":"Sainte-Anne / Lévesque","stopId":"1:518","stopCode":"518","lon":-71.068972,"lat":48.424968,"arrival":1522684041000,"departure":1522684042000,"zoneId":"NA","stopIndex":2,"stopSequence":3,"vertexType":"TRANSIT"},"legGeometry":{"points":"evqfHzcwpLg@?AXCnAO~GxDVhCP~M~@","length":8},"routeShortName":"16","routeLongName":"Côte de la Réserve","rentedBike":false,"transitLeg":true,"duration":141.0,"steps":[]},{"startTime":1522684042000,"endTime":1522684224000,"departureDelay":0,"arrivalDelay":0,"realTime":false,"distance":231.14100000000002,"pathway":false,"mode":"WALK","route":"","agencyTimeZoneOffset":-14400000,"interlineWithPreviousLeg":false,"from":{"name":"Sainte-Anne / Lévesque","stopId":"1:518","stopCode":"518","lon":-71.068972,"lat":48.424968,"arrival":1522684041000,"departure":1522684042000,"zoneId":"NA","stopIndex":2,"stopSequence":3,"vertexType":"TRANSIT"},"to":{"name":"Destination","lon":-71.071136,"lat":48.425843,"arrival":1522684224000,"orig":"","vertexType":"NORMAL"},"legGeometry":{"points":"}~pfH`swpLuAKC?KlEA^EnBC|@ElA","length":8},"rentedBike":false,"transitLeg":false,"duration":182.0,"steps":[{"distance":50.018,"relativeDirection":"DEPART","streetName":"Rue Sainte-Anne","absoluteDirection":"NORTH","stayOn":false,"area":false,"bogusName":false,"lon":-71.06880089934269,"lat":48.42495893495779,"elevation":[]},{"distance":181.12300000000002,"relativeDirection":"LEFT","streetName":"Rue Price Ouest","absoluteDirection":"WEST","stayOn":false,"area":false,"bogusName":false,"lon":-71.06874640000001,"lat":48.4254073,"elevation":[]}]}],"tooSloped":false}]},"debugOutput":{"precalculationTime":53,"pathCalculationTime":23,"pathTimes":[16,3,4],"renderingTime":1,"totalTime":77,"timedOut":false},"elevationMetadata":{"ellipsoidToGeoidDifference":-28.885904201182168,"geoidElevation":false}}