{"requestParameters":{"date":"2018/04/02","walkSpeed":"1.33","walkReluctance":"2.0","fromPlace":"48.41743,-71.075541","maxWalkDistance":"3000","waitReluctance":"1.0","carSpeed":"33","numItineraries":"3","waitAtBeginningFactor":"0.4","mode":"TRANSIT,WALK","ignoreRealtimeUpdates":"false","stairsReluctance":"2.0","toPlace":"48.422638,-71.059381","time":"6:50:00"},"plan":{"date":1522666200000,"from":{"name":"Origin","lon":-71.075541,"lat":48.41743,"orig":"","vertexType":"NORMAL"},"to":{"name":"Destination","lon":-71.059381,"lat":48.422638,"orig":"","vertexType":"NORMAL"},"itineraries":[{"duration":1004,"startTime":1522666501000,"endTime":1522667505000,"walkTime":903,"transitTime":99,"waitingTime":2,"walkDistance":1174.6289248097737,"walkLimitExceeded":false,"elevationLost":0.0,"elevationGained":0.0,"transfers":0,"legs":[{"startTime":1522666501000,"endTime":1522667381000,"departureDelay":0,"arrivalDelay":0,"realTime":false,"distance":1145.239,"pathway":false,"mode":"WALK","route":"","agencyTimeZoneOffset":-14400000,"interlineWithPreviousLeg":false,"from":{"name":"Origin","lon":-71.075541,"lat":48.41743,"departure":1522666501000,"orig":"","vertexType":"NORMAL"},"to":{"name":"Champs-Élysées / Bégin","stopId":"1:587","stopCode":"587","lon":-71.064119,"lat":48.41589,"arrival":1522667381000,"departure":1522667382000,"zoneId":"NA","stopIndex":32,"stopSequence":33,"vertexType":"TRANSIT"},"legGeometry":{"points":"{nofHj~xpL@Eh@uAd@qAhCoHPa@`CaH~CsIz@aCb@kAh@yA|AiEHQ_BwBsCqCw@w@CCGGsCqCMOo@m@j@kB","length":22},"rentedBike":false,"transitLeg":false,"duration":880.0,"steps":[{"distance":746.75,"relativeDirection":"DEPART","streetName":"Rue Des Oblats Est","absoluteDirection":"SOUTHEAST","stayOn":false,"area":false,"bogusName":false,"lon":-71.07573284236969,"lat":48.41726634402762,"elevation":[]},{"distance":352.20399999999995,"relativeDirection":"LEFT","streetName":"Rue Bégin","absoluteDirection":"NORTHEAST","stayOn":false,"area":false,"bogusName":false,"lon":-71.06744280000001,"lat":48.413416500000004,"elevation":[]},{"distance":46.285,"relativeDirection":"RIGHT","streetName":"Rue des Champs-Élysées","absoluteDirection":"SOUTHEAST","stayOn":false,"area":false,"bogusName":false,"lon":-71.0647342,"lat":48.416021,"elevation":[]}]},{"startTime":1522667382000,"endTime":1522667481000,"departureDelay":0,"arrivalDelay":0,"realTime":false,"distance":796.1760681790925,"pathway":false,"mode":"BUS","route":"12","agencyName":"Société de Transport du Saguenay","agencyUrl":"http://ville.saguenay.ca/fr/services-aux-citoyens/transport-sts","agencyTimeZoneOffset":-14400000,"routeColor":"556B2F","routeType":3,"routeId":"1:12","routeTextColor":"FFFFFF","interlineWithPreviousLeg":false,"tripBlockId":"27","headsign":"Terminus UQAC","agencyId":"0","tripId":"1:218000","serviceDate":"20180402","from":{"name":"Champs-Élysées / Bégin","stopId":"1:587","stopCode":"587","lon":-71.064119,"lat":48.41589,"arrival":1522667381000,"departure":1522667382000,"zoneId":"NA","stopIndex":32,"stopSequence":33,"vertexType":"TRANSIT"},"to":{"name":"Bégin / Saint-Thomas","stopId":"1:563","stopCode":"563","lon":-71.0587,"lat":48.422,"arrival":1522667481000,"departure":1522667482000,"zoneId":"NA","stopIndex":36,"stopSequence":37,"vertexType":"TRANSIT"},"legGeometry":{"points":"ifofHvuvpLuCYmIeIeJ_J{J{J","length":5},"routeShortName":"12","routeLongName":"Rivière du Moulin","rentedBike":false,"transitLeg":true,"duration":99.0,"steps":[]},{"startTime":1522667482000,"endTime":1522667505000,"departureDelay":0,"arrivalDelay":0,"realTime":false,"distance":29.32,"pathway":false,"mode":"WALK","route":"","agencyTimeZoneOffset":-14400000,"interlineWithPreviousLeg":false,"from":{"name":"Bégin / Saint-Thomas","stopId":"1:563","stopCode":"563","lon":-71.0587,"lat":48.422,"arrival":1522667481000,"departure":1522667482000,"zoneId":"NA","stopIndex":36,"stopSequence":37,"vertexType":"TRANSIT"},"to":{"name":"Destination","lon":-71.059381,"lat":48.422638,"arrival":1522667505000,"orig":"","vertexType":"NORMAL"},"legGeometry":{"points":"slpfHftupLKI_@a@","length":3},"rentedBike":false,"transitLeg":false,"duration":23.0,"steps":[{"distance":29.32,"relativeDirection":"DEPART","streetName":"Rue Bégin","absoluteDirection":"NORTHEAST","stayOn":false,"area":false,"bogusName":false,"lon":-71.05875953651149,"lat":48.42202602664888,"elevation":[]}]}],"tooSloped":false},{"duration":819,"startTime":1522667567000,"endTime":1522668386000,"walkTime":635,"transitTime":182,"waitingTime":2,"walkDistance":828.3262105252119,"walkLimitExceeded":false,"elevationLost":0.0,"elevationGained":0.0,"transfers":0,"legs":[{"startTime":1522667567000,"endTime":1522668179000,"departureDelay":0,"arrivalDelay":0,"realTime":false,"distance":798.972,"pathway":false,"mode":"WALK","route":"","agencyTimeZoneOffset":-14400000,"interlineWithPreviousLeg":false,"from":{"name":"Origin","lon":-71.075541,"lat":48.41743,"departure":1522667567000,"orig":"","vertexType":"NORMAL"},"to":{"name":"École secondaire de l'Odyssé Dominique-Racine","stopId":"1:580","stopCode":"580","lon":-71.067703,"lat":48.412977,"arrival":1522668179000,"departure":1522668180000,"zoneId":"NA","stopIndex":35,"stopSequence":36,"vertexType":"TRANSIT"},"legGeometry":{"points":"{nofHj~xpL@Eh@uAd@qAhCoHPa@`CaH~CsIz@aCb@kAh@yA|AiEHQTHz@t@","length":15},"rentedBike":false,"transitLeg":false,"duration":612.0,"steps":[{"distance":746.75,"relativeDirection":"DEPART","streetName":"Rue Des Oblats Est","absoluteDirection":"SOUTHEAST","stayOn":false,"area":false,"bogusName":false,"lon":-71.07573284236969,"lat":48.41726634402762,"elevation":[]},{"distance":52.222,"relativeDirection":"RIGHT","streetName":"Rue Bégin","absoluteDirection":"SOUTH","stayOn":false,"area":false,"bogusName":false,"lon":-71.06744280000001,"lat":48.413416500000004,"elevation":[]}]},{"startTime":1522668180000,"endTime":1522668362000,"departureDelay":0,"arrivalDelay":0,"realTime":false,"distance":1203.4075470095063,"pathway":false,"mode":"BUS","route":"105S","agencyName":"Société de Transport du Saguenay","agencyUrl":"http://ville.saguenay.ca/fr/services-aux-citoyens/transport-sts","agencyTimeZoneOffset":-14400000,"routeColor":"8B0000","routeType":3,"routeId":"1:105S","routeTextColor":"FFFFFF","interlineWithPreviousLeg":false,"tripBlockId":"39","headsign":"Terminus Chicoutimi","agencyId":"0","tripId":"1:218335","serviceDate":"20180402","from":{"name":"École secondaire de l'Odyssé Dominique-Racine","stopId":"1:580","stopCode":"580","lon":-71.067703,"lat":48.412977,"arrival":1522668179000,"departure":1522668180000,"zoneId":"NA","stopIndex":35,"stopSequence":36,"vertexType":"TRANSIT"},"to":{"name":"Bégin / Saint-Thomas","stopId":"1:563","stopCode":"563","lon":-71.0587,"lat":48.422,"arrival":1522668362000,"departure":1522668363000,"zoneId":"NA","stopIndex":40,"stopSequence":41,"vertexType":"TRANSIT"},"legGeometry":{"points":"ktnfH~lwpLsAkAoBwB_EcE{A_BoAmAk@o@cCaCkIkIaJaJUUiCwCw@q@aD_D","length":14},"routeShortName":"105S","routeLongName":"Terminus Chicoutimi via Bégin","rentedBike":false,"transitLeg":true,"duration":182.0,"steps":[]},{"startTime":1522668363000,"endTime":1522668386000,"departureDelay":0,"arrivalDelay":0,"realTime":false,"distance":29.32,"pathway":false,"mode":"WALK","route":"","agencyTimeZoneOffset":-14400000,"interlineWithPreviousLeg":false,"from":{"name":"Bégin / Saint-Thomas","stopId":"1:563","stopCode":"563","lon":-71.0587,"lat":48.422,"arrival":1522668362000,"departure":1522668363000,"zoneId":"NA","stopIndex":40,"stopSequence":41,"vertexType":"TRANSIT"},"to":{"name":"Destination","lon":-71.059381,"lat":48.422638,"arrival":1522668386000,"orig":"","vertexType":"NORMAL"},"legGeometry":{"points":"slpfHftupLKI_@a@","length":3},"rentedBike":false,"transitLeg":false,"duration":23.0,"steps":[{"distance":29.32,"relativeDirection":"DEPART","streetName":"Rue Bégin","absoluteDirection":"NORTHEAST","stayOn":false,"area":false,"bogusName":false,"lon":-71.05875953651149,"lat":48.42202602664888,"elevation":[]}]}],"tooSloped":false},{"duration":887,"startTime":1522668155000,"endTime":1522669042000,"walkTime":278,"transitTime":607,"waitingTime":2,"walkDistance":348.8235187951365,"walkLimitExceeded":false,"elevationLost":0.0,"elevationGained":0.0,"transfers":0,"legs":[{"startTime":1522668155000,"endTime":1522668204000,"departureDelay":0,"arrivalDelay":0,"realTime":false,"distance":58.522000000000006,"pathway":false,"mode":"WALK","route":"","agencyTimeZoneOffset":-14400000,"interlineWithPreviousLeg":false,"from":{"name":"Origin","lon":-71.075541,"lat":48.41743,"departure":1522668155000,"orig":"","vertexType":"NORMAL"},"to":{"name":"Boily / Oblats","stopId":"1:549","stopCode":"549","lon":-71.075339,"lat":48.416894,"arrival":1522668204000,"departure":1522668205000,"zoneId":"NA","stopIndex":24,"stopSequence":25,"vertexType":"TRANSIT"},"legGeometry":{"points":"{nofHj~xpL@Eh@uAXV","length":4},"rentedBike":false,"transitLeg":false,"duration":49.0,"steps":[{"distance":41.731,"relativeDirection":"DEPART","streetName":"Rue Des Oblats Est","absoluteDirection":"SOUTHEAST","stayOn":false,"area":false,"bogusName":false,"lon":-71.07573284236969,"lat":48.41726634402762,"elevation":[]},{"distance":16.791,"relativeDirection":"RIGHT","streetName":"Rue Boily","absoluteDirection":"SOUTHWEST","stayOn":false,"area":false,"bogusName":false,"lon":-71.07527490000001,"lat":48.4170462,"elevation":[]}]},{"startTime":1522668205000,"endTime":1522668812000,"departureDelay":0,"arrivalDelay":0,"realTime":false,"distance":2535.973127487562,"pathway":false,"mode":"BUS","route":"14","agencyName":"Société de Transport du Saguenay","agencyUrl":"http://ville.saguenay.ca/fr/services-aux-citoyens/transport-sts","agencyTimeZoneOffset":-14400000,"routeColor":"C0C000","routeType":3,"routeId":"1:14","routeTextColor":"000000","interlineWithPreviousLeg":false,"tripBlockId":"31","headsign":"Terminus Chicoutimi","agencyId":"0","tripId":"1:218123","serviceDate":"20180402","from":{"name":"Boily / Oblats","stopId":"1:549","stopCode":"549","lon":-71.075339,"lat":48.416894,"arrival":1522668204000,"departure":1522668205000,"zoneId":"NA","stopIndex":24,"stopSequence":25,"vertexType":"TRANSIT"},"to":{"name":"Cégep de Chicoutimi (Bégin)","stopId":"1:66","stopCode":"66","lon":-71.056314,"lat":48.424377,"arrival":1522668812000,"departure":1522668813000,"zoneId":"NA","stopIndex":32,"stopSequence":33,"vertexType":"TRANSIT"},"legGeometry":{"points":"wlofHh|xpL][aBhE}@}@oBmBwE{EwE{Ej@mBZeAa@SyEQg@CPcALuCx@{b@t@{[XoDd@sBl@iB~@gA`G{F{A{D_@sBFqDOq@iG{FGIoCkCgBgBsDpLHzBBT`@~COnBQf@gAjAg@bBuDmD","length":38},"routeShortName":"14","routeLongName":"Coopérative","rentedBike":false,"transitLeg":true,"duration":607.0,"steps":[]},{"startTime":1522668813000,"endTime":1522669042000,"departureDelay":0,"arrivalDelay":0,"realTime":false,"distance":290.244,"pathway":false,"mode":"WALK","route":"","agencyTimeZoneOffset":-14400000,"interlineWithPreviousLeg":false,"from":{"name":"Cégep de Chicoutimi (Bégin)","stopId":"1:66","stopCode":"66","lon":-71.056314,"lat":48.424377,"arrival":1522668812000,"departure":1522668813000,"zoneId":"NA","stopIndex":32,"stopSequence":33,"vertexType":"TRANSIT"},"to":{"name":"Destination","lon":-71.059381,"lat":48.422638,"arrival":1522669042000,"orig":"","vertexType":"NORMAL"},"legGeometry":{"points":"k{pfH`eupLJJ`A~@rAjAH^HHVVRN`AbAhAfAVXd@h@","length":12},"rentedBike":false,"transitLeg":false,"duration":229.0,"steps":[{"distance":119.033,"relativeDirection":"DEPART","streetName":"sidewalk","absoluteDirection":"SOUTHWEST","stayOn":false,"area":false,"bogusName":true,"lon":-71.0563254039123,"lat":48.42438196430904,"elevation":[]},{"distance":171.211,"relativeDirection":"SLIGHTLY_LEFT","streetName":"Rue Bégin","absoluteDirection":"SOUTHWEST","stayOn":false,"area":false,"bogusName":false,"lon":-71.0572466,"lat":48.423523700000004,"elevation":[]}]}],"tooSloped":false}]},"debugOutput":{"precalculationTime":55,"pathCalculationTime":28,"pathTimes":[18,5,5],"renderingTime":0,"totalTime":83,"timedOut":false},"elevationMetadata":{"ellipsoidToGeoidDifference":-28.885904201182168,"geoidElevation":false}}