{"requestParameters":{"date":"2018/04/02","walkSpeed":"1.33","walkReluctance":"2.0","fromPlace":"48.45469,-71.063104","maxWalkDistance":"3000","waitReluctance":"1.0","carSpeed":"33","numItineraries":"3","waitAtBeginningFactor":"0.4","mode":"TRANSIT,WALK","ignoreRealtimeUpdates":"false","stairsReluctance":"2.0","toPlace":"48.448027,-71.07448399","time":"21:15:00"},"plan":{"date":1522718100000,"from":{"name":"Origin","lon":-71.063104,"lat":48.45469,"orig":"","vertexType":"NORMAL"},"to":{"name":"Destination","lon":-71.07448399,"lat":48.448027,"orig":"","vertexType":"NORMAL"},"itineraries":[{"duration":1267,"startTime":1522718100000,"endTime":1522719367000,"walkTime":1267,"transitTime":0,"waitingTime":0,"walkDistance":1648.7820300715725,"walkLimitExceeded":false,"elevationLost":0.0,"elevationGained":0.0,"transfers":0,"legs":[{"startTime":1522718100000,"endTime":1522719367000,"departureDelay":0,"arrivalDelay":0,"realTime":false,"distance":1648.67,"pathway":false,"mode":"WALK","route":"","agencyTimeZoneOffset":-14400000,"interlineWithPreviousLeg":false,"from":{"name":"Origin","lon":-71.063104,"lat":48.45469,"departure":1522718100000,"orig":"","vertexType":"NORMAL"},"to":{"name":"Destination","lon":-71.07448399,"lat":48.448027,"arrival":1522719367000,"orig":"","vertexType":"NORMAL"},"legGeometry":{"points":"{wvfH|ovpLN_Ap@uDNu@Li@d@wBbA`@DB~IjDhAd@wAlJW`B]fBtAlDJTfAnCPb@LZFRDPJd@T`BDVd@hEJ`@Pd@L\\Zb@\\d@TPRPTLB@XHp@FAHAd@Ad@@p@BPFVP\\FH`@f@\\Td@P^B`@Cx@K?j@@jABn@Bt@Hf@Lr@ZfBH\\Jr@Dj@","length":59},"alerts":[{"alertHeaderText":"Unpaved surface"}],"rentedBike":false,"transitLeg":false,"duration":1267.0,"steps":[{"distance":186.10899999999998,"relativeDirection":"DEPART","streetName":"Rue de Vimy","absoluteDirection":"EAST","stayOn":false,"area":false,"bogusName":false,"lon":-71.06318855308457,"lat":48.45454383452165,"elevation":[]},{"distance":293.048,"relativeDirection":"RIGHT","streetName":"Rue Delisle","absoluteDirection":"SOUTH","stayOn":false,"area":false,"bogusName":false,"lon":-71.0608763,"lat":48.4538754,"elevation":[]},{"distance":224.285,"relativeDirection":"RIGHT","streetName":"Rue Dupré","absoluteDirection":"WEST","stayOn":false,"area":false,"bogusName":false,"lon":-71.06211280000001,"lat":48.45137080000001,"elevation":[]},{"distance":514.968,"relativeDirection":"LEFT","streetName":"Rue de Boischatel","absoluteDirection":"SOUTHWEST","stayOn":false,"area":false,"bogusName":false,"lon":-71.064958,"lat":48.452082100000005,"elevation":[],"alerts":[{"alertHeaderText":"Unpaved surface"}]},{"distance":221.346,"relativeDirection":"RIGHT","streetName":"Rue Cabot","absoluteDirection":"WEST","stayOn":false,"area":false,"bogusName":false,"lon":-71.0702047,"lat":48.449388000000006,"elevation":[]},{"distance":208.91400000000002,"relativeDirection":"RIGHT","streetName":"Rue de l'Aréna","absoluteDirection":"WEST","stayOn":false,"area":false,"bogusName":false,"lon":-71.0716385,"lat":48.448087900000004,"elevation":[]}]}],"tooSloped":false},{"duration":698,"startTime":1522718816000,"endTime":1522719514000,"walkTime":542,"transitTime":154,"waitingTime":2,"walkDistance":704.8889849609868,"walkLimitExceeded":false,"elevationLost":0.0,"elevationGained":0.0,"transfers":0,"legs":[{"startTime":1522718816000,"endTime":1522718996000,"departureDelay":0,"arrivalDelay":0,"realTime":false,"distance":229.959,"pathway":false,"mode":"WALK","route":"","agencyTimeZoneOffset":-14400000,"interlineWithPreviousLeg":false,"from":{"name":"Origin","lon":-71.063104,"lat":48.45469,"departure":1522718816000,"orig":"","vertexType":"NORMAL"},"to":{"name":"Delisle / Vimy","stopId":"1:759","stopCode":"759","lon":-71.061215,"lat":48.453534,"arrival":1522718996000,"departure":1522718997000,"zoneId":"NA","stopIndex":22,"stopSequence":23,"vertexType":"TRANSIT"},"legGeometry":{"points":"{wvfH|ovpLN_Ap@uDNu@Li@d@wBbA`@DB","length":8},"rentedBike":false,"transitLeg":false,"duration":180.0,"steps":[{"distance":186.10899999999998,"relativeDirection":"DEPART","streetName":"Rue de Vimy","absoluteDirection":"EAST","stayOn":false,"area":false,"bogusName":false,"lon":-71.06318855308457,"lat":48.45454383452165,"elevation":[]},{"distance":43.85,"relativeDirection":"RIGHT","streetName":"Rue Delisle","absoluteDirection":"SOUTH","stayOn":false,"area":false,"bogusName":false,"lon":-71.0608763,"lat":48.4538754,"elevation":[]}]},{"startTime":1522718997000,"endTime":1522719151000,"departureDelay":0,"arrivalDelay":0,"realTime":false,"distance":869.2698397053555,"pathway":false,"mode":"BUS","route":"22","agencyName":"Société de Transport du Saguenay","agencyUrl":"http://ville.saguenay.ca/fr/services-aux-citoyens/transport-sts","agencyTimeZoneOffset":-14400000,"routeColor":"C0C000","routeType":3,"routeId":"1:22","routeTextColor":"000000","interlineWithPreviousLeg":false,"tripBlockId":"3","headsign":"Terminus Chicoutimi","agencyId":"0","tripId":"1:217216","serviceDate":"20180402","from":{"name":"Delisle / Vimy","stopId":"1:759","stopCode":"759","lon":-71.061215,"lat":48.453534,"arrival":1522718996000,"departure":1522718997000,"zoneId":"NA","stopIndex":22,"stopSequence":23,"vertexType":"TRANSIT"},"to":{"name":"Boischatel / Cabot","stopId":"1:763","stopCode":"763","lon":-71.070142,"lat":48.449792,"arrival":1522719151000,"departure":1522719152000,"zoneId":"NA","stopIndex":27,"stopSequence":28,"vertexType":"TRANSIT"},"legGeometry":{"points":"kqvfHvbvpL|IrDhAb@qAfJSzAMr@Yz@xAhDFNpBdFRp@Hl@Jz@BXXrCHl@Lh@Nf@r@nAr@r@`@P","length":21},"routeShortName":"22","routeLongName":"Vanier","rentedBike":false,"transitLeg":true,"duration":154.0,"steps":[]},{"startTime":1522719152000,"endTime":1522719514000,"departureDelay":0,"arrivalDelay":0,"realTime":false,"distance":474.88599999999997,"pathway":false,"mode":"WALK","route":"","agencyTimeZoneOffset":-14400000,"interlineWithPreviousLeg":false,"from":{"name":"Boischatel / Cabot","stopId":"1:763","stopCode":"763","lon":-71.070142,"lat":48.449792,"arrival":1522719151000,"departure":1522719152000,"zoneId":"NA","stopIndex":27,"stopSequence":28,"vertexType":"TRANSIT"},"to":{"name":"Destination","lon":-71.07448399,"lat":48.448027,"arrival":1522719514000,"orig":"","vertexType":"NORMAL"},"legGeometry":{"points":"czufHd{wpLB@XHp@FAHAd@Ad@@p@BPFVP\\FH`@f@\\Td@P^B`@Cx@K?j@@jABn@Bt@Hf@Lr@ZfBH\\Jr@Dj@","length":28},"rentedBike":false,"transitLeg":false,"duration":362.0,"steps":[{"distance":44.626,"relativeDirection":"DEPART","streetName":"Rue de Boischatel","absoluteDirection":"SOUTH","stayOn":false,"area":false,"bogusName":false,"lon":-71.07010820220822,"lat":48.449782750880445,"elevation":[]},{"distance":221.346,"relativeDirection":"RIGHT","streetName":"Rue Cabot","absoluteDirection":"WEST","stayOn":false,"area":false,"bogusName":false,"lon":-71.0702047,"lat":48.449388000000006,"elevation":[]},{"distance":208.91400000000002,"relativeDirection":"RIGHT","streetName":"Rue de l'Aréna","absoluteDirection":"WEST","stayOn":false,"area":false,"bogusName":false,"lon":-71.0716385,"lat":48.448087900000004,"elevation":[]}]}],"tooSloped":false},{"duration":698,"startTime":1522722416000,"endTime":1522723114000,"walkTime":542,"transitTime":154,"waitingTime":2,"walkDistance":704.8889849609868,"walkLimitExceeded":false,"elevationLost":0.0,"elevationGained":0.0,"transfers":0,"legs":[{"startTime":1522722416000,"endTime":1522722596000,"departureDelay":0,"arrivalDelay":0,"realTime":false,"distance":229.959,"pathway":false,"mode":"WALK","route":"","agencyTimeZoneOffset":-14400000,"interlineWithPreviousLeg":false,"from":{"name":"Origin","lon":-71.063104,"lat":48.45469,"departure":1522722416000,"orig":"","vertexType":"NORMAL"},"to":{"name":"Delisle / Vimy","stopId":"1:759","stopCode":"759","lon":-71.061215,"lat":48.453534,"arrival":1522722596000,"departure":1522722597000,"zoneId":"NA","stopIndex":22,"stopSequence":23,"vertexType":"TRANSIT"},"legGeometry":{"points":"{wvfH|ovpLN_Ap@uDNu@Li@d@wBbA`@DB","length":8},"rentedBike":false,"transitLeg":false,"duration":180.0,"steps":[{"distance":186.10899999999998,"relativeDirection":"DEPART","streetName":"Rue de Vimy","absoluteDirection":"EAST","stayOn":false,"area":false,"bogusName":false,"lon":-71.06318855308457,"lat":48.45454383452165,"elevation":[]},{"distance":43.85,"relativeDirection":"RIGHT","streetName":"Rue Delisle","absoluteDirection":"SOUTH","stayOn":false,"area":false,"bogusName":false,"lon":-71.0608763,"lat":48.4538754,"elevation":[]}]},{"startTime":1522722597000,"endTime":1522722751000,"departureDelay":0,"arrivalDelay":0,"realTime":false,"distance":869.2698397053555,"pathway":false,"mode":"BUS","route":"22","agencyName":"Société de Transport du Saguenay","agencyUrl":"http://ville.saguenay.ca/fr/services-aux-citoyens/transport-sts","agencyTimeZoneOffset":-14400000,"routeColor":"C0C000","routeType":3,"routeId":"1:22","routeTextColor":"000000","interlineWithPreviousLeg":false,"tripBlockId":"3","headsign":"Terminus Chicoutimi","agencyId":"0","tripId":"1:217218","serviceDate":"20180402","from":{"name":"Delisle / Vimy","stopId":"1:759","stopCode":"759","lon":-71.061215,"lat":48.453534,"arrival":1522722596000,"departure":1522722597000,"zoneId":"NA","stopIndex":22,"stopSequence":23,"vertexType":"TRANSIT"},"to":{"name":"Boischatel / Cabot","stopId":"1:763","stopCode":"763","lon":-71.070142,"lat":48.449792,"arrival":1522722751000,"departure":1522722752000,"zoneId":"NA","stopIndex":27,"stopSequence":28,"vertexType":"TRANSIT"},"legGeometry":{"points":"kqvfHvbvpL|IrDhAb@qAfJSzAMr@Yz@xAhDFNpBdFRp@Hl@Jz@BXXrCHl@Lh@Nf@r@nAr@r@`@P","length":21},"routeShortName":"22","routeLongName":"Vanier","rentedBike":false,"transitLeg":true,"duration":154.0,"steps":[]},{"startTime":1522722752000,"endTime":1522723114000,"departureDelay":0,"arrivalDelay":0,"realTime":false,"distance":474.88599999999997,"pathway":false,"mode":"WALK","route":"","agencyTimeZoneOffset":-14400000,"interlineWithPreviousLeg":false,"from":{"name":"Boischatel / Cabot","stopId":"1:763","stopCode":"763","lon":-71.070142,"lat":48.449792,"arrival":1522722751000,"departure":1522722752000,"zoneId":"NA","stopIndex":27,"stopSequence":28,"vertexType":"TRANSIT"},"to":{"name":"Destination","lon":-71.07448399,"lat":48.448027,"arrival":1522723114000,"orig":"","vertexType":"NORMAL"},"legGeometry":{"points":"czufHd{wpLB@XHp@FAHAd@Ad@@p@BPFVP\\FH`@f@\\Td@P^B`@Cx@K?j@@jABn@Bt@Hf@Lr@ZfBH\\Jr@Dj@","length":28},"rentedBike":false,"transitLeg":false,"duration":362.0,"steps":[{"distance":44.626,"relativeDirection":"DEPART","streetName":"Rue de Boischatel","absoluteDirection":"SOUTH","stayOn":false,"area":false,"bogusName":false,"lon":-71.07010820220822,"lat":48.449782750880445,"elevation":[]},{"distance":221.346,"relativeDirection":"RIGHT","streetName":"Rue Cabot","absoluteDirection":"WEST","stayOn":false,"area":false,"bogusName":false,"lon":-71.0702047,"lat":48.449388000000006,"elevation":[]},{"distance":208.91400000000002,"relativeDirection":"RIGHT","streetName":"Rue de l'Aréna","absoluteDirection":"WEST","stayOn":false,"area":false,"bogusName":false,"lon":-71.0716385,"lat":48.448087900000004,"elevation":[]}]}],"tooSloped":false}]},"debugOutput":{"precalculationTime":15,"pathCalculationTime":16,"pathTimes":[9,4,3],"renderingTime":0,"totalTime":31,"timedOut":false},"elevationMetadata":{"ellipsoidToGeoidDifference":-28.885904201182168,"geoidElevation":false}}