{"requestParameters":{"date":"2018/04/02","walkSpeed":"1.33","walkReluctance":"2.0","fromPlace":"48.423708,-71.043938","maxWalkDistance":"3000","waitReluctance":"1.0","carSpeed":"33","numItineraries":"3","waitAtBeginningFactor":"0.4","mode":"TRANSIT,WALK","ignoreRealtimeUpdates":"false","stairsReluctance":"2.0","toPlace":"48.423148,-71.052406","time":"8:0:00"},"plan":{"date":1522670400000,"from":{"name":"Origin","lon":-71.043938,"lat":48.423708,"orig":"","vertexType":"NORMAL"},"to":{"name":"Destination","lon":-71.052406,"lat":48.423148,"orig":"","vertexType":"NORMAL"},"itineraries":[{"duration":716,"startTime":1522670400000,"endTime":1522671116000,"walkTime":716,"transitTime":0,"waitingTime":0,"walkDistance":911.8715338293097,"walkLimitExceeded":false,"elevationLost":0.0,"elevationGained":0.0,"transfers":0,"legs":[{"startTime":1522670400000,"endTime":1522671116000,"departureDelay":0,"arrivalDelay":0,"realTime":false,"distance":911.708,"pathway":false,"mode":"WALK","route":"","agencyTimeZoneOffset":-14400000,"interlineWithPreviousLeg":false,"from":{"name":"Origin","lon":-71.043938,"lat":48.423708,"departure":1522670400000,"orig":"","vertexType":"NORMAL"},"to":{"name":"Destination","lon":-71.052406,"lat":48.423148,"arrival":1522671116000,"orig":"","vertexType":"NORMAL"},"legGeometry":{"points":"{vpfHvurpLyBi@ObBQrBIv@YvC_AfLrAPTFJBJLBXEd@e@bGjAZ?^DbABDp@XLFJHd@ZJFYbC\\PZPLb@HTBbB?f@","length":30},"rentedBike":false,"transitLeg":false,"duration":716.0,"steps":[{"distance":70.187,"relativeDirection":"DEPART","streetName":"Rue de Sales","absoluteDirection":"NORTH","stayOn":false,"area":false,"bogusName":false,"lon":-71.04363346289534,"lat":48.423661595973854,"elevation":[]},{"distance":321.69499999999994,"relativeDirection":"LEFT","streetName":"Rue Jacques-Cartier Est","absoluteDirection":"WEST","stayOn":false,"area":false,"bogusName":false,"lon":-71.0434206,"lat":48.4242768,"elevation":[]},{"distance":197.333,"relativeDirection":"LEFT","streetName":"Rue Duberger","absoluteDirection":"SOUTH","stayOn":false,"area":false,"bogusName":false,"lon":-71.047663,"lat":48.424941800000006,"elevation":[]},{"distance":43.677,"relativeDirection":"LEFT","streetName":"Chemin Sydenham","absoluteDirection":"SOUTH","stayOn":false,"area":false,"bogusName":false,"lon":-71.0495042,"lat":48.4244963,"elevation":[]},{"distance":37.224000000000004,"relativeDirection":"RIGHT","streetName":"road","absoluteDirection":"WEST","stayOn":false,"area":false,"bogusName":true,"lon":-71.0496408,"lat":48.424114100000004,"elevation":[]},{"distance":78.756,"relativeDirection":"LEFT","streetName":"road","absoluteDirection":"SOUTH","stayOn":true,"area":false,"bogusName":true,"lon":-71.0501431,"lat":48.4240852,"elevation":[]},{"distance":162.83599999999998,"relativeDirection":"RIGHT","streetName":"service road","absoluteDirection":"WEST","stayOn":true,"area":false,"bogusName":true,"lon":-71.0505725,"lat":48.4234394,"elevation":[]}]}],"tooSloped":false}]},"debugOutput":{"precalculationTime":48,"pathCalculationTime":26,"pathTimes":[14,6,6],"renderingTime":1,"totalTime":75,"timedOut":false},"elevationMetadata":{"ellipsoidToGeoidDifference":-28.885904201182168,"geoidElevation":false}}