{"requestParameters":{"date":"2018/04/02","walkSpeed":"1.33","walkReluctance":"2.0","fromPlace":"48.437044,-71.046257","maxWalkDistance":"3000","waitReluctance":"1.0","carSpeed":"33","numItineraries":"3","waitAtBeginningFactor":"0.4","mode":"TRANSIT,WALK","ignoreRealtimeUpdates":"false","stairsReluctance":"2.0","toPlace":"48.418147,-71.036921","time":"8:0:00"},"plan":{"date":1522670400000,"from":{"name":"Origin","lon":-71.046257,"lat":48.437044,"orig":"","vertexType":"NORMAL"},"to":{"name":"Destination","lon":-71.036921,"lat":48.418147,"orig":"","vertexType":"NORMAL"},"itineraries":[{"duration":1859,"startTime":1522672088000,"endTime":1522673947000,"walkTime":228,"transitTime":1389,"waitingTime":242,"walkDistance":284.79349623742337,"walkLimitExceeded":false,"elevationLost":0.0,"elevationGained":0.0,"transfers":1,"legs":[{"startTime":1522672088000,"endTime":1522672199000,"departureDelay":0,"arrivalDelay":0,"realTime":false,"distance":142.973,"pathway":false,"mode":"WALK","route":"","agencyTimeZoneOffset":-14400000,"interlineWithPreviousLeg":false,"from":{"name":"Origin","lon":-71.046257,"lat":48.437044,"departure":1522672088000,"orig":"","vertexType":"NORMAL"},"to":{"name":"Roussel (no. 1671)","stopId":"1:824","stopCode":"824","lon":-71.04565,"lat":48.4363,"arrival":1522672199000,"departure":1522672200000,"zoneId":"NA","stopIndex":21,"stopSequence":22,"vertexType":"TRANSIT"},"legGeometry":{"points":"}jsfHngspLjAz@lAyDN]","length":4},"rentedBike":false,"transitLeg":false,"duration":111.0,"steps":[{"distance":47.827,"relativeDirection":"DEPART","streetName":"Rue Buies","absoluteDirection":"SOUTHWEST","stayOn":false,"area":false,"bogusName":false,"lon":-71.04647409041317,"lat":48.43711822999637,"elevation":[]},{"distance":95.146,"relativeDirection":"LEFT","streetName":"Rue Roussel","absoluteDirection":"SOUTHEAST","stayOn":false,"area":false,"bogusName":false,"lon":-71.0467711,"lat":48.4367359,"elevation":[]}]},{"startTime":1522672200000,"endTime":1522672860000,"departureDelay":0,"arrivalDelay":0,"realTime":false,"distance":4133.303416235199,"pathway":false,"mode":"BUS","route":"24","agencyName":"Société de Transport du Saguenay","agencyUrl":"http://ville.saguenay.ca/fr/services-aux-citoyens/transport-sts","agencyTimeZoneOffset":-14400000,"routeColor":"00FF00","routeType":3,"routeId":"1:24","routeTextColor":"000000","interlineWithPreviousLeg":false,"tripBlockId":"5","headsign":"Terminus Chicoutimi","agencyId":"0","tripId":"1:217253","serviceDate":"20180402","from":{"name":"Roussel (no. 1671)","stopId":"1:824","stopCode":"824","lon":-71.04565,"lat":48.4363,"arrival":1522672199000,"departure":1522672200000,"zoneId":"NA","stopIndex":21,"stopSequence":22,"vertexType":"TRANSIT"},"to":{"name":"Terminus Chicoutimi","stopId":"1:1289","stopCode":"1289","lon":-71.066163,"lat":48.428677,"arrival":1522672860000,"departure":1522673100000,"zoneId":"NA","stopIndex":35,"stopSequence":36,"vertexType":"TRANSIT"},"legGeometry":{"points":"qesfHtbspLk@pAw@fCwB|HCNk@jCeDuAq@UC?mG_CaHiCsJqD_A]VvC\\`Ch@rCj@tBf@bBxDxJN\\bAjCTnAHvA@|@CPIpAe@pDUfBCTEXK~@MxAEn@@v@Bp@Dr@l@~HNlAH\\@HLd@\\z@Xd@X\\RTXRr@Zn@PfExAvDpALnBJt@Pp@Nj@l@tBHZPn@`@rBNnAFr@DbA?bB@jABzA?p@A???A???A?A???A@??A?A@??A@?@A??@A@???@A@?@?@A@?@?@?@?@???@?@?@?@?@?@@@?@?@@@?@@@?@@@?@@?@@??@@@?E`@Kr@]rACVEl@I|AAr@JbAWJe@FUAM?a@Ke@YYWWa@v@}@RQPMz@k@tAe@REZG^Af@@X@VF`@Jn@XbClAr@Xt\\`PrAb@pA^hBTjAFj@Pb@JPHLLJNJRFXDT?X?ZEVEVKTMNMHMFOB}DWSGOSYcAN}FFkAF}DJyDPwGvAHN_HDiB@m@","length":179},"routeShortName":"24","routeLongName":"Saint-Luc","rentedBike":false,"transitLeg":true,"duration":660.0,"steps":[]},{"startTime":1522673100000,"endTime":1522673829000,"departureDelay":0,"arrivalDelay":0,"realTime":false,"distance":3458.8732059868325,"pathway":false,"mode":"BUS","route":"10","agencyName":"Société de Transport du Saguenay","agencyUrl":"http://ville.saguenay.ca/fr/services-aux-citoyens/transport-sts","agencyTimeZoneOffset":-14400000,"routeColor":"0000FF","routeType":3,"routeId":"1:10","routeTextColor":"FFFFFF","interlineWithPreviousLeg":false,"tripBlockId":"26","headsign":"Terminus UQAC","agencyId":"0","tripId":"1:217968","serviceDate":"20180402","from":{"name":"Terminus Chicoutimi","stopId":"1:1289","stopCode":"1289","lon":-71.066163,"lat":48.428677,"arrival":1522672860000,"departure":1522673100000,"zoneId":"NA","stopIndex":0,"stopSequence":1,"vertexType":"TRANSIT"},"to":{"name":"Chabanel (no. 616)","stopId":"1:1640","stopCode":"1640","lon":-71.037069,"lat":48.419408,"arrival":1522673829000,"departure":1522673830000,"zoneId":"NA","stopIndex":14,"stopSequence":15,"vertexType":"TRANSIT"},"legGeometry":{"points":"svqfHnbwpLDmCdDZ\\kO`@mQBuCD}DQ_ECk@^Cd@QWkL?m@IuF@gA?eH?cAEuEDO^AjD`@B@rEf@T_FjBXpDd@hCObDaCfCaHbFqN`CwG_J_CwMiDGe@T}C\\yELaCJeAJcAXw@Fk@M_@xBwVr@^LJ|@z@HdAlBbD`Av@b@\\v@d@`@BpBAzAXl@t@","length":55},"routeShortName":"10","routeLongName":"Notre-Dame du Saguenay","rentedBike":false,"transitLeg":true,"duration":729.0,"steps":[]},{"startTime":1522673830000,"endTime":1522673947000,"departureDelay":0,"arrivalDelay":0,"realTime":false,"distance":141.722,"pathway":false,"mode":"WALK","route":"","agencyTimeZoneOffset":-14400000,"interlineWithPreviousLeg":false,"from":{"name":"Chabanel (no. 616)","stopId":"1:1640","stopCode":"1640","lon":-71.037069,"lat":48.419408,"arrival":1522673829000,"departure":1522673830000,"zoneId":"NA","stopIndex":14,"stopSequence":15,"vertexType":"TRANSIT"},"to":{"name":"Destination","lon":-71.036921,"lat":48.418147,"arrival":1522673947000,"orig":"","vertexType":"NORMAL"},"legGeometry":{"points":"{{ofH`lqpL?@VZHTDPPOHGR_@@\\HNNJPJRFLHTJ","length":15},"rentedBike":false,"transitLeg":false,"duration":117.0,"steps":[{"distance":35.321,"relativeDirection":"DEPART","streetName":"Rue Chabanel","absoluteDirection":"SOUTHWEST","stayOn":false,"area":false,"bogusName":false,"lon":-71.03696057111584,"lat":48.41934895529792,"elevation":[]},{"distance":106.401,"relativeDirection":"LEFT","streetName":"service road","absoluteDirection":"SOUTHEAST","stayOn":false,"area":false,"bogusName":true,"lon":-71.0373165,"lat":48.419144200000005,"elevation":[]}]}],"tooSloped":false},{"duration":3490,"startTime":1522671159000,"endTime":1522674649000,"walkTime":2185,"transitTime":703,"waitingTime":602,"walkDistance":2799.7554435968436,"walkLimitExceeded":false,"elevationLost":0.0,"elevationGained":0.0,"transfers":1,"legs":[{"startTime":1522671159000,"endTime":1522672096000,"departureDelay":0,"arrivalDelay":0,"realTime":false,"distance":1204.551,"pathway":false,"mode":"WALK","route":"","agencyTimeZoneOffset":-14400000,"interlineWithPreviousLeg":false,"from":{"name":"Origin","lon":-71.046257,"lat":48.437044,"departure":1522671159000,"orig":"","vertexType":"NORMAL"},"to":{"name":"Boileau / Colbert","stopId":"1:2019","stopCode":"2019","lon":-71.054133,"lat":48.442456,"arrival":1522672096000,"departure":1522672097000,"zoneId":"NA","stopIndex":18,"stopSequence":19,"vertexType":"TRANSIT"},"legGeometry":{"points":"}jsfHngspLjAz@wB|HER[vAMp@_AbGKz@MrAe@rOSbEgF{AOEaDmAwCgA]McC_Ae@~D}@Y","length":19},"rentedBike":false,"transitLeg":false,"duration":937.0,"steps":[{"distance":47.827,"relativeDirection":"DEPART","streetName":"Rue Buies","absoluteDirection":"SOUTHWEST","stayOn":false,"area":false,"bogusName":false,"lon":-71.04647409041317,"lat":48.43711822999637,"elevation":[]},{"distance":626.8199999999999,"relativeDirection":"RIGHT","streetName":"Rue Roussel","absoluteDirection":"NORTHWEST","stayOn":false,"area":false,"bogusName":false,"lon":-71.0467711,"lat":48.4367359,"elevation":[]},{"distance":420.20500000000004,"relativeDirection":"RIGHT","streetName":"Rue Viau","absoluteDirection":"NORTH","stayOn":false,"area":false,"bogusName":false,"lon":-71.0548121,"lat":48.438311000000006,"elevation":[]},{"distance":74.473,"relativeDirection":"LEFT","streetName":"Rue Colbert","absoluteDirection":"WEST","stayOn":false,"area":false,"bogusName":false,"lon":-71.0531831,"lat":48.4419309,"elevation":[]},{"distance":35.226,"relativeDirection":"RIGHT","streetName":"Rue Boileau","absoluteDirection":"NORTH","stayOn":false,"area":false,"bogusName":false,"lon":-71.0541475,"lat":48.4421291,"elevation":[]}]},{"startTime":1522672097000,"endTime":1522672500000,"departureDelay":0,"arrivalDelay":0,"realTime":false,"distance":2618.6893635583783,"pathway":false,"mode":"BUS","route":"23","agencyName":"Société de Transport du Saguenay","agencyUrl":"http://ville.saguenay.ca/fr/services-aux-citoyens/transport-sts","agencyTimeZoneOffset":-14400000,"routeColor":"FF00FF","routeType":3,"routeId":"1:23","routeTextColor":"FFFFFF","interlineWithPreviousLeg":false,"tripBlockId":"4","headsign":"Terminus Chicoutimi","agencyId":"0","tripId":"1:217226","serviceDate":"20180402","from":{"name":"Boileau / Colbert","stopId":"1:2019","stopCode":"2019","lon":-71.054133,"lat":48.442456,"arrival":1522672096000,"departure":1522672097000,"zoneId":"NA","stopIndex":18,"stopSequence":19,"vertexType":"TRANSIT"},"to":{"name":"Terminus Chicoutimi","stopId":"1:1289","stopCode":"1289","lon":-71.066163,"lat":48.428677,"arrival":1522672500000,"departure":1522673100000,"zoneId":"NA","stopIndex":26,"stopSequence":27,"vertexType":"TRANSIT"},"legGeometry":{"points":"eltfHvvtpLx@Xw@pG@l@B\\DXL\\RZDFXPf@N@v@Bp@Dr@l@~HNlAH\\@HLd@\\z@Xd@X\\RTXRr@Zn@PfExAvDpALnBJt@Pp@|@`DHZPn@`@rBNnAFr@DbA?bB@jABzA?p@A???A???A?A???A@??A?A@??A@?@A??@A@???@A@?@?@A@?@?@?@?@???@?@?@?@?@?@@@?@?@@@?@@@?@@@?@@?@@??@@@?E`@Kr@]rACVEl@I|AAr@JbAWJe@FUAM?a@Ke@YYWWa@v@}@RQPMz@k@tAe@REZG^Af@@X@VF`@Jn@XbClAr@Xt\\`PrAb@pA^hBTjAFj@Pb@JPHLLJNJRFXDT?X?ZEVEVKTMNMHMFOB}DWSGOSYcAN}FFkAF}DJyDd@wPV_HjAN~ALI`C","length":156},"routeShortName":"23","routeLongName":"Côte Verdun via Aréna du Plateau","rentedBike":false,"transitLeg":true,"duration":403.0,"steps":[]},{"startTime":1522673100000,"endTime":1522673400000,"departureDelay":0,"arrivalDelay":0,"realTime":false,"distance":1242.678141622333,"pathway":false,"mode":"BUS","route":"175","agencyName":"Société de Transport du Saguenay","agencyUrl":"http://ville.saguenay.ca/fr/services-aux-citoyens/transport-sts","agencyTimeZoneOffset":-14400000,"routeColor":"FF00FF","routeType":3,"routeId":"1:175","routeTextColor":"FFFFFF","interlineWithPreviousLeg":false,"tripBlockId":"7","headsign":"Costco","agencyId":"0","tripId":"1:217325","serviceDate":"20180402","from":{"name":"Terminus Chicoutimi","stopId":"1:1289","stopCode":"1289","lon":-71.066163,"lat":48.428677,"arrival":1522672500000,"departure":1522673100000,"zoneId":"NA","stopIndex":0,"stopSequence":1,"vertexType":"TRANSIT"},"to":{"name":"Hôpital de Chicoutimi (Saint-Vallier)","stopId":"1:342","stopCode":"342","lon":-71.050416,"lat":48.426429,"arrival":1522673400000,"departure":1522673401000,"zoneId":"NA","stopIndex":6,"stopSequence":7,"vertexType":"TRANSIT"},"legGeometry":{"points":"kvqfH~awpL~CgBbAqa@FwCBkAOsHAg@bAYUwMKoE@mB@kJ@iFbEf@","length":14},"routeShortName":"175","routeLongName":"Term. Chic / Costco","rentedBike":false,"transitLeg":true,"duration":300.0,"steps":[]},{"startTime":1522673401000,"endTime":1522674649000,"departureDelay":0,"arrivalDelay":0,"realTime":false,"distance":1594.8270000000002,"pathway":false,"mode":"WALK","route":"","agencyTimeZoneOffset":-14400000,"interlineWithPreviousLeg":false,"from":{"name":"Hôpital de Chicoutimi (Saint-Vallier)","stopId":"1:342","stopCode":"342","lon":-71.050416,"lat":48.426429,"arrival":1522673400000,"departure":1522673401000,"zoneId":"NA","stopIndex":6,"stopSequence":7,"vertexType":"TRANSIT"},"to":{"name":"Destination","lon":-71.036921,"lat":48.418147,"arrival":1522674649000,"orig":"","vertexType":"NORMAL"},"legGeometry":{"points":"ahqfHd_tpLF?J_@F?^DhBZP?FOBg@BoADy@b@DnBX\\FjAZPDx@D^Cr@E|@Yh@g@FE`A_A\\a@n@wAl@eBn@cBRk@nBoFnAgDFSNa@nAoDJ[L_@HYnAkDVu@t@uBhAmDzCiJh@eBJWe@eAE?O]OBO?MMK_@UWSW","length":52},"rentedBike":false,"transitLeg":false,"duration":1248.0,"steps":[{"distance":5.013,"relativeDirection":"DEPART","streetName":"Rue Saint-Vallier","absoluteDirection":"SOUTH","stayOn":false,"area":false,"bogusName":false,"lon":-71.05026027647143,"lat":48.426416552989835,"elevation":[]},{"distance":13.926,"relativeDirection":"LEFT","streetName":"path","absoluteDirection":"SOUTHEAST","stayOn":false,"area":false,"bogusName":true,"lon":-71.05026840000001,"lat":48.426371800000005,"elevation":[]},{"distance":99.413,"relativeDirection":"RIGHT","streetName":"service road","absoluteDirection":"SOUTH","stayOn":true,"area":false,"bogusName":true,"lon":-71.0501005,"lat":48.426314600000005,"elevation":[]},{"distance":66.589,"relativeDirection":"LEFT","streetName":"service road","absoluteDirection":"EAST","stayOn":true,"area":false,"bogusName":true,"lon":-71.05019700000001,"lat":48.425456700000005,"elevation":[]},{"distance":19.537,"relativeDirection":"RIGHT","streetName":"path","absoluteDirection":"SOUTH","stayOn":true,"area":false,"bogusName":true,"lon":-71.0493017,"lat":48.4253823,"elevation":[]},{"distance":1268.887,"relativeDirection":"CONTINUE","streetName":"Chemin Sydenham","absoluteDirection":"SOUTH","stayOn":false,"area":false,"bogusName":false,"lon":-71.04933630000001,"lat":48.425208100000006,"elevation":[]},{"distance":91.524,"relativeDirection":"LEFT","streetName":"path","absoluteDirection":"NORTHEAST","stayOn":false,"area":false,"bogusName":true,"lon":-71.0384806,"lat":48.417596800000005,"elevation":[]},{"distance":29.938,"relativeDirection":"SLIGHTLY_LEFT","streetName":"service road","absoluteDirection":"NORTHEAST","stayOn":false,"area":false,"bogusName":false,"lon":-71.03778,"lat":48.4181825,"elevation":[]}]}],"tooSloped":false},{"duration":1859,"startTime":1522673888000,"endTime":1522675747000,"walkTime":228,"transitTime":1389,"waitingTime":242,"walkDistance":284.79349623742337,"walkLimitExceeded":false,"elevationLost":0.0,"elevationGained":0.0,"transfers":1,"legs":[{"startTime":1522673888000,"endTime":1522673999000,"departureDelay":0,"arrivalDelay":0,"realTime":false,"distance":142.973,"pathway":false,"mode":"WALK","route":"","agencyTimeZoneOffset":-14400000,"interlineWithPreviousLeg":false,"from":{"name":"Origin","lon":-71.046257,"lat":48.437044,"departure":1522673888000,"orig":"","vertexType":"NORMAL"},"to":{"name":"Roussel (no. 1671)","stopId":"1:824","stopCode":"824","lon":-71.04565,"lat":48.4363,"arrival":1522673999000,"departure":1522674000000,"zoneId":"NA","stopIndex":21,"stopSequence":22,"vertexType":"TRANSIT"},"legGeometry":{"points":"}jsfHngspLjAz@lAyDN]","length":4},"rentedBike":false,"transitLeg":false,"duration":111.0,"steps":[{"distance":47.827,"relativeDirection":"DEPART","streetName":"Rue Buies","absoluteDirection":"SOUTHWEST","stayOn":false,"area":false,"bogusName":false,"lon":-71.04647409041317,"lat":48.43711822999637,"elevation":[]},{"distance":95.146,"relativeDirection":"LEFT","streetName":"Rue Roussel","absoluteDirection":"SOUTHEAST","stayOn":false,"area":false,"bogusName":false,"lon":-71.0467711,"lat":48.4367359,"elevation":[]}]},{"startTime":1522674000000,"endTime":1522674660000,"departureDelay":0,"arrivalDelay":0,"realTime":false,"distance":4133.303416235199,"pathway":false,"mode":"BUS","route":"24","agencyName":"Société de Transport du Saguenay","agencyUrl":"http://ville.saguenay.ca/fr/services-aux-citoyens/transport-sts","agencyTimeZoneOffset":-14400000,"routeColor":"00FF00","routeType":3,"routeId":"1:24","routeTextColor":"000000","interlineWithPreviousLeg":false,"tripBlockId":"4","headsign":"Terminus Chicoutimi","agencyId":"0","tripId":"1:217227","serviceDate":"20180402","from":{"name":"Roussel (no. 1671)","stopId":"1:824","stopCode":"824","lon":-71.04565,"lat":48.4363,"arrival":1522673999000,"departure":1522674000000,"zoneId":"NA","stopIndex":21,"stopSequence":22,"vertexType":"TRANSIT"},"to":{"name":"Terminus Chicoutimi","stopId":"1:1289","stopCode":"1289","lon":-71.066163,"lat":48.428677,"arrival":1522674660000,"departure":1522674900000,"zoneId":"NA","stopIndex":35,"stopSequence":36,"vertexType":"TRANSIT"},"legGeometry":{"points":"qesfHtbspLk@pAw@fCwB|HCNk@jCeDuAq@UC?mG_CaHiCsJqD_A]VvC\\`Ch@rCj@tBf@bBxDxJN\\bAjCTnAHvA@|@CPIpAe@pDUfBCTEXK~@MxAEn@@v@Bp@Dr@l@~HNlAH\\@HLd@\\z@Xd@X\\RTXRr@Zn@PfExAvDpALnBJt@Pp@Nj@l@tBHZPn@`@rBNnAFr@DbA?bB@jABzA?p@A???A???A?A???A@??A?A@??A@?@A??@A@???@A@?@?@A@?@?@?@?@???@?@?@?@?@?@@@?@?@@@?@@@?@@@?@@?@@??@@@?E`@Kr@]rACVEl@I|AAr@JbAWJe@FUAM?a@Ke@YYWWa@v@}@RQPMz@k@tAe@REZG^Af@@X@VF`@Jn@XbClAr@Xt\\`PrAb@pA^hBTjAFj@Pb@JPHLLJNJRFXDT?X?ZEVEVKTMNMHMFOB}DWSGOSYcAN}FFkAF}DJyDPwGvAHN_HDiB@m@","length":179},"routeShortName":"24","routeLongName":"Saint-Luc","rentedBike":false,"transitLeg":true,"duration":660.0,"steps":[]},{"startTime":1522674900000,"endTime":1522675629000,"departureDelay":0,"arrivalDelay":0,"realTime":false,"distance":3458.8732059868325,"pathway":false,"mode":"BUS","route":"10","agencyName":"Société de Transport du Saguenay","agencyUrl":"http://ville.saguenay.ca/fr/services-aux-citoyens/transport-sts","agencyTimeZoneOffset":-14400000,"routeColor":"0000FF","routeType":3,"routeId":"1:10","routeTextColor":"FFFFFF","interlineWithPreviousLeg":false,"tripBlockId":"29","headsign":"Terminus UQAC","agencyId":"0","tripId":"1:218057","serviceDate":"20180402","from":{"name":"Terminus Chicoutimi","stopId":"1:1289","stopCode":"1289","lon":-71.066163,"lat":48.428677,"arrival":1522674660000,"departure":1522674900000,"zoneId":"NA","stopIndex":0,"stopSequence":1,"vertexType":"TRANSIT"},"to":{"name":"Chabanel (no. 616)","stopId":"1:1640","stopCode":"1640","lon":-71.037069,"lat":48.419408,"arrival":1522675629000,"departure":1522675630000,"zoneId":"NA","stopIndex":14,"stopSequence":15,"vertexType":"TRANSIT"},"legGeometry":{"points":"svqfHnbwpLDmCdDZ\\kO`@mQBuCD}DQ_ECk@^Cd@QWkL?m@IuF@gA?eH?cAEuEDO^AjD`@B@rEf@T_FjBXpDd@hCObDaCfCaHbFqN`CwG_J_CwMiDGe@T}C\\yELaCJeAJcAXw@Fk@M_@xBwVr@^LJ|@z@HdAlBbD`Av@b@\\v@d@`@BpBAzAXl@t@","length":55},"routeShortName":"10","routeLongName":"Notre-Dame du Saguenay","rentedBike":false,"transitLeg":true,"duration":729.0,"steps":[]},{"startTime":1522675630000,"endTime":1522675747000,"departureDelay":0,"arrivalDelay":0,"realTime":false,"distance":141.722,"pathway":false,"mode":"WALK","route":"","agencyTimeZoneOffset":-14400000,"interlineWithPreviousLeg":false,"from":{"name":"Chabanel (no. 616)","stopId":"1:1640","stopCode":"1640","lon":-71.037069,"lat":48.419408,"arrival":1522675629000,"departure":1522675630000,"zoneId":"NA","stopIndex":14,"stopSequence":15,"vertexType":"TRANSIT"},"to":{"name":"Destination","lon":-71.036921,"lat":48.418147,"arrival":1522675747000,"orig":"","vertexType":"NORMAL"},"legGeometry":{"points":"{{ofH`lqpL?@VZHTDPPOHGR_@@\\HNNJPJRFLHTJ","length":15},"rentedBike":false,"transitLeg":false,"duration":117.0,"steps":[{"distance":35.321,"relativeDirection":"DEPART","streetName":"Rue Chabanel","absoluteDirection":"SOUTHWEST","stayOn":false,"area":false,"bogusName":false,"lon":-71.03696057111584,"lat":48.41934895529792,"elevation":[]},{"distance":106.401,"relativeDirection":"LEFT","streetName":"service road","absoluteDirection":"SOUTHEAST","stayOn":false,"area":false,"bogusName":true,"lon":-71.0373165,"lat":48.419144200000005,"elevation":[]}]}],"tooSloped":false}]},"debugOutput":{"precalculationTime":26,"pathCalculationTime":28,"pathTimes":[13,6,9],"renderingTime":0,"totalTime":54,"timedOut":false},"elevationMetadata":{"ellipsoidToGeoidDifference":-28.885904201182168,"geoidElevation":false}}