{"requestParameters":{"date":"2018/04/02","walkSpeed":"1.33","walkReluctance":"2.0","fromPlace":"48.426559,-71.069473","maxWalkDistance":"3000","waitReluctance":"1.0","carSpeed":"33","numItineraries":"3","waitAtBeginningFactor":"0.4","mode":"TRANSIT,WALK","ignoreRealtimeUpdates":"false","stairsReluctance":"2.0","toPlace":"48.412825,-71.049726","time":"22:0:00"},"plan":{"date":1522720800000,"from":{"name":"Origin","lon":-71.069473,"lat":48.426559,"orig":"","vertexType":"NORMAL"},"to":{"name":"Destination","lon":-71.049726,"lat":48.412825,"orig":"","vertexType":"NORMAL"},"itineraries":[{"duration":1382,"startTime":1522721275000,"endTime":1522722657000,"walkTime":597,"transitTime":783,"waitingTime":2,"walkDistance":765.4007669138482,"walkLimitExceeded":false,"elevationLost":0.0,"elevationGained":0.0,"transfers":0,"legs":[{"startTime":1522721275000,"endTime":1522721699000,"departureDelay":0,"arrivalDelay":0,"realTime":false,"distance":541.514,"pathway":false,"mode":"WALK","route":"","agencyTimeZoneOffset":-14400000,"interlineWithPreviousLeg":false,"from":{"name":"Origin","lon":-71.069473,"lat":48.426559,"departure":1522721275000,"orig":"","vertexType":"NORMAL"},"to":{"name":"Terminus Chicoutimi","stopId":"1:1289","stopCode":"1289","lon":-71.066163,"lat":48.428677,"arrival":1522721699000,"departure":1522721700000,"zoneId":"NA","stopIndex":0,"stopSequence":1,"vertexType":"TRANSIT"},"legGeometry":{"points":"_iqfHjxwpLm@CLsEB_BDoBBwABaAJeEkCQQAsBIc@MKESAcAK","length":15},"rentedBike":false,"transitLeg":false,"duration":424.0,"steps":[{"distance":25.945,"relativeDirection":"DEPART","streetName":"Rue Petit","absoluteDirection":"NORTH","stayOn":false,"area":false,"bogusName":false,"lon":-71.06965929207354,"lat":48.42656706524627,"elevation":[]},{"distance":79.107,"relativeDirection":"RIGHT","streetName":"Rue Jacques-Cartier Ouest","absoluteDirection":"EAST","stayOn":false,"area":false,"bogusName":false,"lon":-71.06963640000001,"lat":48.426799900000006,"elevation":[]},{"distance":206.74900000000002,"relativeDirection":"CONTINUE","streetName":"Rue Jacques-Cartier Est","absoluteDirection":"EAST","stayOn":false,"area":false,"bogusName":false,"lon":-71.0685709,"lat":48.426721,"elevation":[]},{"distance":229.713,"relativeDirection":"LEFT","streetName":"Rue Morin","absoluteDirection":"NORTH","stayOn":false,"area":false,"bogusName":false,"lon":-71.0657774,"lat":48.426577300000005,"elevation":[]}]},{"startTime":1522721700000,"endTime":1522722483000,"departureDelay":0,"arrivalDelay":0,"realTime":false,"distance":3542.2693364457004,"pathway":false,"mode":"BUS","route":"175","agencyName":"Société de Transport du Saguenay","agencyUrl":"http://ville.saguenay.ca/fr/services-aux-citoyens/transport-sts","agencyTimeZoneOffset":-14400000,"routeColor":"FF00FF","routeType":3,"routeId":"1:175","routeTextColor":"FFFFFF","interlineWithPreviousLeg":false,"tripBlockId":"7","headsign":"Costco","agencyId":"0","tripId":"1:217352","serviceDate":"20180402","from":{"name":"Terminus Chicoutimi","stopId":"1:1289","stopCode":"1289","lon":-71.066163,"lat":48.428677,"arrival":1522721699000,"departure":1522721700000,"zoneId":"NA","stopIndex":0,"stopSequence":1,"vertexType":"TRANSIT"},"to":{"name":"boul. Université / Murdock","stopId":"1:80","stopCode":"80","lon":-71.050111,"lat":48.411498,"arrival":1522722483000,"departure":1522722484000,"zoneId":"NA","stopIndex":14,"stopSequence":15,"vertexType":"TRANSIT"},"legGeometry":{"points":"kvqfH~awpL~CgBbAqa@FwCBkAOsHAg@bAYUwMKoE@mB@kJ@iFbEf@xEj@iCtYp@r@z@`ABBvHtHXRx@l@VwAvAgB\\qBIuAC]g@yEzDuLbBbBvAxAMx@|@v@`A~@Xw@~D~DPxFZtA~ApE`N{LpFmEb@[ROl@[vDQXKfA[|@q@fAsBlEmM","length":50},"routeShortName":"175","routeLongName":"Term. Chic / Costco","rentedBike":false,"transitLeg":true,"duration":783.0,"steps":[]},{"startTime":1522722484000,"endTime":1522722657000,"departureDelay":0,"arrivalDelay":0,"realTime":false,"distance":223.78,"pathway":false,"mode":"WALK","route":"","agencyTimeZoneOffset":-14400000,"interlineWithPreviousLeg":false,"from":{"name":"boul. Université / Murdock","stopId":"1:80","stopCode":"80","lon":-71.050111,"lat":48.411498,"arrival":1522722483000,"departure":1522722484000,"zoneId":"NA","stopIndex":14,"stopSequence":15,"vertexType":"TRANSIT"},"to":{"name":"Destination","lon":-71.049726,"lat":48.412825,"arrival":1522722657000,"orig":"","vertexType":"NORMAL"},"legGeometry":{"points":"aknfH|}spL}AlEUYmDqD","length":4},"rentedBike":false,"transitLeg":false,"duration":173.0,"steps":[{"distance":91.298,"relativeDirection":"DEPART","streetName":"Boulevard de l'Université","absoluteDirection":"NORTHWEST","stayOn":false,"area":false,"bogusName":false,"lon":-71.05006857152243,"lat":48.41153928216614,"elevation":[]},{"distance":132.482,"relativeDirection":"RIGHT","streetName":"Boulevard Talbot","absoluteDirection":"NORTHEAST","stayOn":false,"area":false,"bogusName":false,"lon":-71.0510904,"lat":48.412002,"elevation":[]}]}],"tooSloped":false},{"duration":1557,"startTime":1522721275000,"endTime":1522722832000,"walkTime":579,"transitTime":976,"waitingTime":2,"walkDistance":741.6310150341733,"walkLimitExceeded":false,"elevationLost":0.0,"elevationGained":0.0,"transfers":0,"legs":[{"startTime":1522721275000,"endTime":1522721699000,"departureDelay":0,"arrivalDelay":0,"realTime":false,"distance":541.514,"pathway":false,"mode":"WALK","route":"","agencyTimeZoneOffset":-14400000,"interlineWithPreviousLeg":false,"from":{"name":"Origin","lon":-71.069473,"lat":48.426559,"departure":1522721275000,"orig":"","vertexType":"NORMAL"},"to":{"name":"Terminus Chicoutimi","stopId":"1:1289","stopCode":"1289","lon":-71.066163,"lat":48.428677,"arrival":1522721699000,"departure":1522721700000,"zoneId":"NA","stopIndex":0,"stopSequence":1,"vertexType":"TRANSIT"},"legGeometry":{"points":"_iqfHjxwpLm@CLsEB_BDoBBwABaAJeEkCQQAsBIc@MKESAcAK","length":15},"rentedBike":false,"transitLeg":false,"duration":424.0,"steps":[{"distance":25.945,"relativeDirection":"DEPART","streetName":"Rue Petit","absoluteDirection":"NORTH","stayOn":false,"area":false,"bogusName":false,"lon":-71.06965929207354,"lat":48.42656706524627,"elevation":[]},{"distance":79.107,"relativeDirection":"RIGHT","streetName":"Rue Jacques-Cartier Ouest","absoluteDirection":"EAST","stayOn":false,"area":false,"bogusName":false,"lon":-71.06963640000001,"lat":48.426799900000006,"elevation":[]},{"distance":206.74900000000002,"relativeDirection":"CONTINUE","streetName":"Rue Jacques-Cartier Est","absoluteDirection":"EAST","stayOn":false,"area":false,"bogusName":false,"lon":-71.0685709,"lat":48.426721,"elevation":[]},{"distance":229.713,"relativeDirection":"LEFT","streetName":"Rue Morin","absoluteDirection":"NORTH","stayOn":false,"area":false,"bogusName":false,"lon":-71.0657774,"lat":48.426577300000005,"elevation":[]}]},{"startTime":1522721700000,"endTime":1522722676000,"departureDelay":0,"arrivalDelay":0,"realTime":false,"distance":4818.336852562372,"pathway":false,"mode":"BUS","route":"10","agencyName":"Société de Transport du Saguenay","agencyUrl":"http://ville.saguenay.ca/fr/services-aux-citoyens/transport-sts","agencyTimeZoneOffset":-14400000,"routeColor":"0000FF","routeType":3,"routeId":"1:10","routeTextColor":"FFFFFF","interlineWithPreviousLeg":false,"tripBlockId":"29","headsign":"Terminus UQAC","agencyId":"0","tripId":"1:218083","serviceDate":"20180402","from":{"name":"Terminus Chicoutimi","stopId":"1:1289","stopCode":"1289","lon":-71.066163,"lat":48.428677,"arrival":1522721699000,"departure":1522721700000,"zoneId":"NA","stopIndex":0,"stopSequence":1,"vertexType":"TRANSIT"},"to":{"name":"boul. Université / Murdock","stopId":"1:59","stopCode":"59","lon":-71.049971,"lat":48.411755,"arrival":1522722676000,"departure":1522722677000,"zoneId":"NA","stopIndex":21,"stopSequence":22,"vertexType":"TRANSIT"},"legGeometry":{"points":"svqfHnbwpLDmCdDZ\\kO`@mQBuCD}DQ_ECk@^Cd@QWkL?m@IuF@gA?eH?cAEuEDO^AjD`@B@rEf@T_FjBXpDd@hCObDaCfCaHbFqN`CwG_J_CwMiDGe@T}C\\yELaCJeAJcAXw@Fk@M_@xBwVr@^LJ|@z@HdAlBbD`Av@b@\\v@d@`@BpBAzAXl@t@XZt@lCl@tAnBpB~@~@lDjDr@r@zDrDnAlAjBrBl@pBPlBCj@KrAAHSpAe@jB_A|Bz@xAvA~BvB|BdN|Nc@bA","length":78},"routeShortName":"10","routeLongName":"Notre-Dame du Saguenay","rentedBike":false,"transitLeg":true,"duration":976.0,"steps":[]},{"startTime":1522722677000,"endTime":1522722832000,"departureDelay":0,"arrivalDelay":0,"realTime":false,"distance":200.011,"pathway":false,"mode":"WALK","route":"","agencyTimeZoneOffset":-14400000,"interlineWithPreviousLeg":false,"from":{"name":"boul. Université / Murdock","stopId":"1:59","stopCode":"59","lon":-71.049971,"lat":48.411755,"arrival":1522722676000,"departure":1522722677000,"zoneId":"NA","stopIndex":21,"stopSequence":22,"vertexType":"TRANSIT"},"to":{"name":"Destination","lon":-71.049726,"lat":48.412825,"arrival":1522722832000,"orig":"","vertexType":"NORMAL"},"legGeometry":{"points":"_lnfHx}spLoAhDELmDqD","length":4},"rentedBike":false,"transitLeg":false,"duration":155.0,"steps":[{"distance":83.417,"relativeDirection":"DEPART","streetName":"Boulevard de l'Université","absoluteDirection":"NORTHWEST","stayOn":false,"area":false,"bogusName":false,"lon":-71.05004245459075,"lat":48.41168714240219,"elevation":[]},{"distance":116.594,"relativeDirection":"RIGHT","streetName":"Boulevard Talbot","absoluteDirection":"NORTHEAST","stayOn":false,"area":false,"bogusName":false,"lon":-71.05096660000001,"lat":48.4121189,"elevation":[]}]}],"tooSloped":false},{"duration":1382,"startTime":1522723075000,"endTime":1522724457000,"walkTime":597,"transitTime":783,"waitingTime":2,"walkDistance":765.4007669138482,"walkLimitExceeded":false,"elevationLost":0.0,"elevationGained":0.0,"transfers":0,"legs":[{"startTime":1522723075000,"endTime":1522723499000,"departureDelay":0,"arrivalDelay":0,"realTime":false,"distance":541.514,"pathway":false,"mode":"WALK","route":"","agencyTimeZoneOffset":-14400000,"interlineWithPreviousLeg":false,"from":{"name":"Origin","lon":-71.069473,"lat":48.426559,"departure":1522723075000,"orig":"","vertexType":"NORMAL"},"to":{"name":"Terminus Chicoutimi","stopId":"1:1289","stopCode":"1289","lon":-71.066163,"lat":48.428677,"arrival":1522723499000,"departure":1522723500000,"zoneId":"NA","stopIndex":0,"stopSequence":1,"vertexType":"TRANSIT"},"legGeometry":{"points":"_iqfHjxwpLm@CLsEB_BDoBBwABaAJeEkCQQAsBIc@MKESAcAK","length":15},"rentedBike":false,"transitLeg":false,"duration":424.0,"steps":[{"distance":25.945,"relativeDirection":"DEPART","streetName":"Rue Petit","absoluteDirection":"NORTH","stayOn":false,"area":false,"bogusName":false,"lon":-71.06965929207354,"lat":48.42656706524627,"elevation":[]},{"distance":79.107,"relativeDirection":"RIGHT","streetName":"Rue Jacques-Cartier Ouest","absoluteDirection":"EAST","stayOn":false,"area":false,"bogusName":false,"lon":-71.06963640000001,"lat":48.426799900000006,"elevation":[]},{"distance":206.74900000000002,"relativeDirection":"CONTINUE","streetName":"Rue Jacques-Cartier Est","absoluteDirection":"EAST","stayOn":false,"area":false,"bogusName":false,"lon":-71.0685709,"lat":48.426721,"elevation":[]},{"distance":229.713,"relativeDirection":"LEFT","streetName":"Rue Morin","absoluteDirection":"NORTH","stayOn":false,"area":false,"bogusName":false,"lon":-71.0657774,"lat":48.426577300000005,"elevation":[]}]},{"startTime":1522723500000,"endTime":1522724283000,"departureDelay":0,"arrivalDelay":0,"realTime":false,"distance":3542.2693364457004,"pathway":false,"mode":"BUS","route":"175","agencyName":"Société de Transport du Saguenay","agencyUrl":"http://ville.saguenay.ca/fr/services-aux-citoyens/transport-sts","agencyTimeZoneOffset":-14400000,"routeColor":"FF00FF","routeType":3,"routeId":"1:175","routeTextColor":"FFFFFF","interlineWithPreviousLeg":false,"tripBlockId":"8","headsign":"Costco","agencyId":"0","tripId":"1:217389","serviceDate":"20180402","from":{"name":"Terminus Chicoutimi","stopId":"1:1289","stopCode":"1289","lon":-71.066163,"lat":48.428677,"arrival":1522723499000,"departure":1522723500000,"zoneId":"NA","stopIndex":0,"stopSequence":1,"vertexType":"TRANSIT"},"to":{"name":"boul. Université / Murdock","stopId":"1:80","stopCode":"80","lon":-71.050111,"lat":48.411498,"arrival":1522724283000,"departure":1522724284000,"zoneId":"NA","stopIndex":14,"stopSequence":15,"vertexType":"TRANSIT"},"legGeometry":{"points":"kvqfH~awpL~CgBbAqa@FwCBkAOsHAg@bAYUwMKoE@mB@kJ@iFbEf@xEj@iCtYp@r@z@`ABBvHtHXRx@l@VwAvAgB\\qBIuAC]g@yEzDuLbBbBvAxAMx@|@v@`A~@Xw@~D~DPxFZtA~ApE`N{LpFmEb@[ROl@[vDQXKfA[|@q@fAsBlEmM","length":50},"routeShortName":"175","routeLongName":"Term. Chic / Costco","rentedBike":false,"transitLeg":true,"duration":783.0,"steps":[]},{"startTime":1522724284000,"endTime":1522724457000,"departureDelay":0,"arrivalDelay":0,"realTime":false,"distance":223.78,"pathway":false,"mode":"WALK","route":"","agencyTimeZoneOffset":-14400000,"interlineWithPreviousLeg":false,"from":{"name":"boul. Université / Murdock","stopId":"1:80","stopCode":"80","lon":-71.050111,"lat":48.411498,"arrival":1522724283000,"departure":1522724284000,"zoneId":"NA","stopIndex":14,"stopSequence":15,"vertexType":"TRANSIT"},"to":{"name":"Destination","lon":-71.049726,"lat":48.412825,"arrival":1522724457000,"orig":"","vertexType":"NORMAL"},"legGeometry":{"points":"aknfH|}spL}AlEUYmDqD","length":4},"rentedBike":false,"transitLeg":false,"duration":173.0,"steps":[{"distance":91.298,"relativeDirection":"DEPART","streetName":"Boulevard de l'Université","absoluteDirection":"NORTHWEST","stayOn":false,"area":false,"bogusName":false,"lon":-71.05006857152243,"lat":48.41153928216614,"elevation":[]},{"distance":132.482,"relativeDirection":"RIGHT","streetName":"Boulevard Talbot","absoluteDirection":"NORTHEAST","stayOn":false,"area":false,"bogusName":false,"lon":-71.0510904,"lat":48.412002,"elevation":[]}]}],"tooSloped":false}]},"debugOutput":{"precalculationTime":62,"pathCalculationTime":47,"pathTimes":[25,9,13],"renderingTime":0,"totalTime":109,"timedOut":false},"elevationMetadata":{"ellipsoidToGeoidDifference":-28.885904201182168,"geoidElevation":false}}