{"requestParameters":{"date":"2018/04/02","walkSpeed":"1.33","walkReluctance":"2.0","fromPlace":"48.426559,-71.069473","maxWalkDistance":"3000","waitReluctance":"1.0","carSpeed":"33","numItineraries":"3","waitAtBeginningFactor":"0.4","mode":"TRANSIT,WALK","ignoreRealtimeUpdates":"false","stairsReluctance":"2.0","toPlace":"48.420356,-71.045389","time":"12:50:00"},"plan":{"date":1522687800000,"from":{"name":"Origin","lon":-71.069473,"lat":48.426559,"orig":"","vertexType":"NORMAL"},"to":{"name":"Destination","lon":-71.045389,"lat":48.420356,"orig":"","vertexType":"NORMAL"},"itineraries":[{"duration":1418,"startTime":1522687975000,"endTime":1522689393000,"walkTime":1116,"transitTime":300,"waitingTime":2,"walkDistance":1421.5462255561586,"walkLimitExceeded":false,"elevationLost":0.0,"elevationGained":0.0,"transfers":0,"legs":[{"startTime":1522687975000,"endTime":1522688399000,"departureDelay":0,"arrivalDelay":0,"realTime":false,"distance":541.514,"pathway":false,"mode":"WALK","route":"","agencyTimeZoneOffset":-14400000,"interlineWithPreviousLeg":false,"from":{"name":"Origin","lon":-71.069473,"lat":48.426559,"departure":1522687975000,"orig":"","vertexType":"NORMAL"},"to":{"name":"Terminus Chicoutimi","stopId":"1:1289","stopCode":"1289","lon":-71.066163,"lat":48.428677,"arrival":1522688399000,"departure":1522688400000,"zoneId":"NA","stopIndex":0,"stopSequence":1,"vertexType":"TRANSIT"},"legGeometry":{"points":"_iqfHjxwpLm@CLsEB_BDoBBwABaAJeEkCQQAsBIc@MKESAcAK","length":15},"rentedBike":false,"transitLeg":false,"duration":424.0,"steps":[{"distance":25.945,"relativeDirection":"DEPART","streetName":"Rue Petit","absoluteDirection":"NORTH","stayOn":false,"area":false,"bogusName":false,"lon":-71.06965929207354,"lat":48.42656706524627,"elevation":[]},{"distance":79.107,"relativeDirection":"RIGHT","streetName":"Rue Jacques-Cartier Ouest","absoluteDirection":"EAST","stayOn":false,"area":false,"bogusName":false,"lon":-71.06963640000001,"lat":48.426799900000006,"elevation":[]},{"distance":206.74900000000002,"relativeDirection":"CONTINUE","streetName":"Rue Jacques-Cartier Est","absoluteDirection":"EAST","stayOn":false,"area":false,"bogusName":false,"lon":-71.0685709,"lat":48.426721,"elevation":[]},{"distance":229.713,"relativeDirection":"LEFT","streetName":"Rue Morin","absoluteDirection":"NORTH","stayOn":false,"area":false,"bogusName":false,"lon":-71.0657774,"lat":48.426577300000005,"elevation":[]}]},{"startTime":1522688400000,"endTime":1522688700000,"departureDelay":0,"arrivalDelay":0,"realTime":false,"distance":1242.678141622333,"pathway":false,"mode":"BUS","route":"175","agencyName":"Société de Transport du Saguenay","agencyUrl":"http://ville.saguenay.ca/fr/services-aux-citoyens/transport-sts","agencyTimeZoneOffset":-14400000,"routeColor":"FF00FF","routeType":3,"routeId":"1:175","routeTextColor":"FFFFFF","interlineWithPreviousLeg":false,"tripBlockId":"78","headsign":"Costco","agencyId":"0","tripId":"1:218645","serviceDate":"20180402","from":{"name":"Terminus Chicoutimi","stopId":"1:1289","stopCode":"1289","lon":-71.066163,"lat":48.428677,"arrival":1522688399000,"departure":1522688400000,"zoneId":"NA","stopIndex":0,"stopSequence":1,"vertexType":"TRANSIT"},"to":{"name":"Hôpital de Chicoutimi (Saint-Vallier)","stopId":"1:342","stopCode":"342","lon":-71.050416,"lat":48.426429,"arrival":1522688700000,"departure":1522688701000,"zoneId":"NA","stopIndex":6,"stopSequence":7,"vertexType":"TRANSIT"},"legGeometry":{"points":"kvqfH~awpL~CgBbAqa@FwCBkAOsHAg@bAYUwMKoE@mB@kJ@iFbEf@","length":14},"routeShortName":"175","routeLongName":"Term. Chic / Costco","rentedBike":false,"transitLeg":true,"duration":300.0,"steps":[]},{"startTime":1522688701000,"endTime":1522689393000,"departureDelay":0,"arrivalDelay":0,"realTime":false,"distance":879.7920000000001,"pathway":false,"mode":"WALK","route":"","agencyTimeZoneOffset":-14400000,"interlineWithPreviousLeg":false,"from":{"name":"Hôpital de Chicoutimi (Saint-Vallier)","stopId":"1:342","stopCode":"342","lon":-71.050416,"lat":48.426429,"arrival":1522688700000,"departure":1522688701000,"zoneId":"NA","stopIndex":6,"stopSequence":7,"vertexType":"TRANSIT"},"to":{"name":"Destination","lon":-71.045389,"lat":48.420356,"arrival":1522689393000,"orig":"","vertexType":"NORMAL"},"legGeometry":{"points":"ahqfHd_tpLF?J_@F?^DhBZP?FOBg@BoADy@b@DnBX\\FjAZPDx@D^Cr@E|@Yh@g@FE`A_A\\a@n@wAl@eBn@cBRk@nBoFdAwC","length":30},"rentedBike":false,"transitLeg":false,"duration":692.0,"steps":[{"distance":5.013,"relativeDirection":"DEPART","streetName":"Rue Saint-Vallier","absoluteDirection":"SOUTH","stayOn":false,"area":false,"bogusName":false,"lon":-71.05026027647143,"lat":48.426416552989835,"elevation":[]},{"distance":13.926,"relativeDirection":"LEFT","streetName":"path","absoluteDirection":"SOUTHEAST","stayOn":false,"area":false,"bogusName":true,"lon":-71.05026840000001,"lat":48.426371800000005,"elevation":[]},{"distance":99.413,"relativeDirection":"RIGHT","streetName":"service road","absoluteDirection":"SOUTH","stayOn":true,"area":false,"bogusName":true,"lon":-71.0501005,"lat":48.426314600000005,"elevation":[]},{"distance":66.589,"relativeDirection":"LEFT","streetName":"service road","absoluteDirection":"EAST","stayOn":true,"area":false,"bogusName":true,"lon":-71.05019700000001,"lat":48.425456700000005,"elevation":[]},{"distance":19.537,"relativeDirection":"RIGHT","streetName":"path","absoluteDirection":"SOUTH","stayOn":true,"area":false,"bogusName":true,"lon":-71.0493017,"lat":48.4253823,"elevation":[]},{"distance":675.3140000000001,"relativeDirection":"CONTINUE","streetName":"Chemin Sydenham","absoluteDirection":"SOUTH","stayOn":false,"area":false,"bogusName":false,"lon":-71.04933630000001,"lat":48.425208100000006,"elevation":[]}]}],"tooSloped":false},{"duration":889,"startTime":1522688875000,"endTime":1522689764000,"walkTime":437,"transitTime":450,"waitingTime":2,"walkDistance":557.9598045089613,"walkLimitExceeded":false,"elevationLost":0.0,"elevationGained":0.0,"transfers":0,"legs":[{"startTime":1522688875000,"endTime":1522689299000,"departureDelay":0,"arrivalDelay":0,"realTime":false,"distance":541.514,"pathway":false,"mode":"WALK","route":"","agencyTimeZoneOffset":-14400000,"interlineWithPreviousLeg":false,"from":{"name":"Origin","lon":-71.069473,"lat":48.426559,"departure":1522688875000,"orig":"","vertexType":"NORMAL"},"to":{"name":"Terminus Chicoutimi","stopId":"1:1289","stopCode":"1289","lon":-71.066163,"lat":48.428677,"arrival":1522689299000,"departure":1522689300000,"zoneId":"NA","stopIndex":0,"stopSequence":1,"vertexType":"TRANSIT"},"legGeometry":{"points":"_iqfHjxwpLm@CLsEB_BDoBBwABaAJeEkCQQAsBIc@MKESAcAK","length":15},"rentedBike":false,"transitLeg":false,"duration":424.0,"steps":[{"distance":25.945,"relativeDirection":"DEPART","streetName":"Rue Petit","absoluteDirection":"NORTH","stayOn":false,"area":false,"bogusName":false,"lon":-71.06965929207354,"lat":48.42656706524627,"elevation":[]},{"distance":79.107,"relativeDirection":"RIGHT","streetName":"Rue Jacques-Cartier Ouest","absoluteDirection":"EAST","stayOn":false,"area":false,"bogusName":false,"lon":-71.06963640000001,"lat":48.426799900000006,"elevation":[]},{"distance":206.74900000000002,"relativeDirection":"CONTINUE","streetName":"Rue Jacques-Cartier Est","absoluteDirection":"EAST","stayOn":false,"area":false,"bogusName":false,"lon":-71.0685709,"lat":48.426721,"elevation":[]},{"distance":229.713,"relativeDirection":"LEFT","streetName":"Rue Morin","absoluteDirection":"NORTH","stayOn":false,"area":false,"bogusName":false,"lon":-71.0657774,"lat":48.426577300000005,"elevation":[]}]},{"startTime":1522689300000,"endTime":1522689750000,"departureDelay":0,"arrivalDelay":0,"realTime":false,"distance":2054.5895961408355,"pathway":false,"mode":"BUS","route":"10","agencyName":"Société de Transport du Saguenay","agencyUrl":"http://ville.saguenay.ca/fr/services-aux-citoyens/transport-sts","agencyTimeZoneOffset":-14400000,"routeColor":"0000FF","routeType":3,"routeId":"1:10","routeTextColor":"FFFFFF","interlineWithPreviousLeg":false,"tripBlockId":"29","headsign":"Terminus UQAC","agencyId":"0","tripId":"1:218065","serviceDate":"20180402","from":{"name":"Terminus Chicoutimi","stopId":"1:1289","stopCode":"1289","lon":-71.066163,"lat":48.428677,"arrival":1522689299000,"departure":1522689300000,"zoneId":"NA","stopIndex":0,"stopSequence":1,"vertexType":"TRANSIT"},"to":{"name":"nouveau","stopId":"1:2286","stopCode":"2286","lon":-71.045129,"lat":48.420344,"arrival":1522689750000,"departure":1522689751000,"zoneId":"NA","stopIndex":8,"stopSequence":9,"vertexType":"TRANSIT"},"legGeometry":{"points":"svqfHnbwpLDmCdDZ\\kO`@mQBuCD}DQ_ECk@^Cd@QWkL?m@IuF@gA?eH?cAEuEDO^AjD`@B@rEf@T_FjBXpDd@hCObDaCfCaHbFqN","length":30},"routeShortName":"10","routeLongName":"Notre-Dame du Saguenay","rentedBike":false,"transitLeg":true,"duration":450.0,"steps":[]},{"startTime":1522689751000,"endTime":1522689764000,"departureDelay":0,"arrivalDelay":0,"realTime":false,"distance":16.374,"pathway":false,"mode":"WALK","route":"","agencyTimeZoneOffset":-14400000,"interlineWithPreviousLeg":false,"from":{"name":"nouveau","stopId":"1:2286","stopCode":"2286","lon":-71.045129,"lat":48.420344,"arrival":1522689750000,"departure":1522689751000,"zoneId":"NA","stopIndex":8,"stopSequence":9,"vertexType":"TRANSIT"},"to":{"name":"Destination","lon":-71.045389,"lat":48.420356,"arrival":1522689764000,"orig":"","vertexType":"NORMAL"},"legGeometry":{"points":"{bpfHf~rpLGRIN","length":3},"rentedBike":false,"transitLeg":false,"duration":13.0,"steps":[{"distance":16.374,"relativeDirection":"DEPART","streetName":"Chemin Sydenham","absoluteDirection":"NORTHWEST","stayOn":false,"area":false,"bogusName":false,"lon":-71.04499801128695,"lat":48.42046535770786,"elevation":[]}]}],"tooSloped":false},{"duration":889,"startTime":1522690675000,"endTime":1522691564000,"walkTime":437,"transitTime":450,"waitingTime":2,"walkDistance":557.9598045089613,"walkLimitExceeded":false,"elevationLost":0.0,"elevationGained":0.0,"transfers":0,"legs":[{"startTime":1522690675000,"endTime":1522691099000,"departureDelay":0,"arrivalDelay":0,"realTime":false,"distance":541.514,"pathway":false,"mode":"WALK","route":"","agencyTimeZoneOffset":-14400000,"interlineWithPreviousLeg":false,"from":{"name":"Origin","lon":-71.069473,"lat":48.426559,"departure":1522690675000,"orig":"","vertexType":"NORMAL"},"to":{"name":"Terminus Chicoutimi","stopId":"1:1289","stopCode":"1289","lon":-71.066163,"lat":48.428677,"arrival":1522691099000,"departure":1522691100000,"zoneId":"NA","stopIndex":0,"stopSequence":1,"vertexType":"TRANSIT"},"legGeometry":{"points":"_iqfHjxwpLm@CLsEB_BDoBBwABaAJeEkCQQAsBIc@MKESAcAK","length":15},"rentedBike":false,"transitLeg":false,"duration":424.0,"steps":[{"distance":25.945,"relativeDirection":"DEPART","streetName":"Rue Petit","absoluteDirection":"NORTH","stayOn":false,"area":false,"bogusName":false,"lon":-71.06965929207354,"lat":48.42656706524627,"elevation":[]},{"distance":79.107,"relativeDirection":"RIGHT","streetName":"Rue Jacques-Cartier Ouest","absoluteDirection":"EAST","stayOn":false,"area":false,"bogusName":false,"lon":-71.06963640000001,"lat":48.426799900000006,"elevation":[]},{"distance":206.74900000000002,"relativeDirection":"CONTINUE","streetName":"Rue Jacques-Cartier Est","absoluteDirection":"EAST","stayOn":false,"area":false,"bogusName":false,"lon":-71.0685709,"lat":48.426721,"elevation":[]},{"distance":229.713,"relativeDirection":"LEFT","streetName":"Rue Morin","absoluteDirection":"NORTH","stayOn":false,"area":false,"bogusName":false,"lon":-71.0657774,"lat":48.426577300000005,"elevation":[]}]},{"startTime":1522691100000,"endTime":1522691550000,"departureDelay":0,"arrivalDelay":0,"realTime":false,"distance":2054.5895961408355,"pathway":false,"mode":"BUS","route":"10","agencyName":"Société de Transport du Saguenay","agencyUrl":"http://ville.saguenay.ca/fr/services-aux-citoyens/transport-sts","agencyTimeZoneOffset":-14400000,"routeColor":"0000FF","routeType":3,"routeId":"1:10","routeTextColor":"FFFFFF","interlineWithPreviousLeg":false,"tripBlockId":"26","headsign":"Terminus UQAC","agencyId":"0","tripId":"1:217978","serviceDate":"20180402","from":{"name":"Terminus Chicoutimi","stopId":"1:1289","stopCode":"1289","lon":-71.066163,"lat":48.428677,"arrival":1522691099000,"departure":1522691100000,"zoneId":"NA","stopIndex":0,"stopSequence":1,"vertexType":"TRANSIT"},"to":{"name":"nouveau","stopId":"1:2286","stopCode":"2286","lon":-71.045129,"lat":48.420344,"arrival":1522691550000,"departure":1522691551000,"zoneId":"NA","stopIndex":8,"stopSequence":9,"vertexType":"TRANSIT"},"legGeometry":{"points":"svqfHnbwpLDmCdDZ\\kO`@mQBuCD}DQ_ECk@^Cd@QWkL?m@IuF@gA?eH?cAEuEDO^AjD`@B@rEf@T_FjBXpDd@hCObDaCfCaHbFqN","length":30},"routeShortName":"10","routeLongName":"Notre-Dame du Saguenay","rentedBike":false,"transitLeg":true,"duration":450.0,"steps":[]},{"startTime":1522691551000,"endTime":1522691564000,"departureDelay":0,"arrivalDelay":0,"realTime":false,"distance":16.374,"pathway":false,"mode":"WALK","route":"","agencyTimeZoneOffset":-14400000,"interlineWithPreviousLeg":false,"from":{"name":"nouveau","stopId":"1:2286","stopCode":"2286","lon":-71.045129,"lat":48.420344,"arrival":1522691550000,"departure":1522691551000,"zoneId":"NA","stopIndex":8,"stopSequence":9,"vertexType":"TRANSIT"},"to":{"name":"Destination","lon":-71.045389,"lat":48.420356,"arrival":1522691564000,"orig":"","vertexType":"NORMAL"},"legGeometry":{"points":"{bpfHf~rpLGRIN","length":3},"rentedBike":false,"transitLeg":false,"duration":13.0,"steps":[{"distance":16.374,"relativeDirection":"DEPART","streetName":"Chemin Sydenham","absoluteDirection":"NORTHWEST","stayOn":false,"area":false,"bogusName":false,"lon":-71.04499801128695,"lat":48.42046535770786,"elevation":[]}]}],"tooSloped":false}]},"debugOutput":{"precalculationTime":66,"pathCalculationTime":45,"pathTimes":[23,11,11],"renderingTime":1,"totalTime":112,"timedOut":false},"elevationMetadata":{"ellipsoidToGeoidDifference":-28.885904201182168,"geoidElevation":false}}