{"requestParameters":{"date":"2018/04/02","walkSpeed":"1.33","walkReluctance":"2.0","fromPlace":"48.42794,-71.066315","maxWalkDistance":"3000","waitReluctance":"1.0","carSpeed":"33","numItineraries":"3","waitAtBeginningFactor":"0.4","mode":"TRANSIT,WALK","ignoreRealtimeUpdates":"false","stairsReluctance":"2.0","toPlace":"48.420539,-71.092338","time":"18:15:00"},"plan":{"date":1522707300000,"from":{"name":"Origin","lon":-71.066315,"lat":48.42794,"orig":"","vertexType":"NORMAL"},"to":{"name":"Destination","lon":-71.092338,"lat":48.420539,"orig":"","vertexType":"NORMAL"},"itineraries":[{"duration":2108,"startTime":1522707300000,"endTime":1522709408000,"walkTime":2108,"transitTime":0,"waitingTime":0,"walkDistance":2692.9813383318174,"walkLimitExceeded":false,"elevationLost":0.0,"elevationGained":0.0,"transfers":0,"legs":[{"startTime":1522707300000,"endTime":1522709408000,"departureDelay":0,"arrivalDelay":0,"realTime":false,"distance":2692.5460000000003,"pathway":false,"mode":"WALK","route":"","agencyTimeZoneOffset":-14400000,"interlineWithPreviousLeg":false,"from":{"name":"Origin","lon":-71.066315,"lat":48.42794,"departure":1522707300000,"orig":"","vertexType":"NORMAL"},"to":{"name":"Destination","lon":-71.092338,"lat":48.420539,"arrival":1522709408000,"orig":"","vertexType":"NORMAL"},"legGeometry":{"points":"{qqfHlcwpLIlCAv@Aj@EvD|AJf@BF@@?x@Bp@BR@MrEInCAj@A`DjAJVJRXJRFFJBJEBG`AXNLDb@@Zp@hDF|@BZEbA?@ARGh@Gj@r@TdCRAb@G|CBjD@Z?d@BLf@nCLp@LZLNVF`@HFFDJ@T?d@Ap@D\\J^@DDP?jAO`B_BpBqBpBs@t@Y`@Yl@aAxCrDxBOnAc@lDXXbApAtAdBd@NjClCzC~C^`@^|@HRXjAZrC^tEpAxB^l@\\`BDTVzCCP","length":88},"rentedBike":false,"transitLeg":false,"duration":2108.0,"steps":[{"distance":156.952,"relativeDirection":"DEPART","streetName":"Rue Racine Est","absoluteDirection":"WEST","stayOn":false,"area":false,"bogusName":false,"lon":-71.06630819856213,"lat":48.42798778891083,"elevation":[]},{"distance":152.029,"relativeDirection":"LEFT","streetName":"Rue Sainte-Anne","absoluteDirection":"SOUTH","stayOn":false,"area":false,"bogusName":false,"lon":-71.06843,"lat":48.42808470000001,"elevation":[]},{"distance":208.179,"relativeDirection":"RIGHT","streetName":"Rue Jacques-Cartier Ouest","absoluteDirection":"WEST","stayOn":false,"area":false,"bogusName":false,"lon":-71.0685709,"lat":48.426721,"elevation":[]},{"distance":103.339,"relativeDirection":"LEFT","streetName":"Rue Montcalm","absoluteDirection":"SOUTH","stayOn":false,"area":false,"bogusName":false,"lon":-71.0713817,"lat":48.426863100000006,"elevation":[]},{"distance":48.492,"relativeDirection":"SLIGHTLY_RIGHT","streetName":"path","absoluteDirection":"SOUTH","stayOn":false,"area":false,"bogusName":true,"lon":-71.0717267,"lat":48.426028200000005,"elevation":[]},{"distance":193.44,"relativeDirection":"RIGHT","streetName":"Rue Price Ouest","absoluteDirection":"WEST","stayOn":false,"area":false,"bogusName":false,"lon":-71.0719217,"lat":48.425614800000005,"elevation":[]},{"distance":104.41,"relativeDirection":"LEFT","streetName":"Rue Sainte-Marthe","absoluteDirection":"SOUTH","stayOn":false,"area":false,"bogusName":false,"lon":-71.07442610000001,"lat":48.425381900000005,"elevation":[]},{"distance":304.524,"relativeDirection":"RIGHT","streetName":"Rue Bossé","absoluteDirection":"WEST","stayOn":false,"area":false,"bogusName":false,"lon":-71.0746309,"lat":48.424456500000005,"elevation":[]},{"distance":81.06899999999999,"relativeDirection":"RIGHT","streetName":"Rue Bossé","absoluteDirection":"WEST","stayOn":true,"area":false,"bogusName":false,"lon":-71.0781822,"lat":48.42371,"elevation":[]},{"distance":65.531,"relativeDirection":"SLIGHTLY_RIGHT","streetName":"road","absoluteDirection":"WEST","stayOn":false,"area":false,"bogusName":true,"lon":-71.0792211,"lat":48.423552400000005,"elevation":[]},{"distance":179.39800000000002,"relativeDirection":"SLIGHTLY_RIGHT","streetName":"Rue Dubuc","absoluteDirection":"NORTHWEST","stayOn":false,"area":false,"bogusName":false,"lon":-71.080094,"lat":48.4236379,"elevation":[]},{"distance":108.353,"relativeDirection":"CONTINUE","streetName":"Côte Saint-Ange","absoluteDirection":"NORTHWEST","stayOn":false,"area":false,"bogusName":false,"lon":-71.0815067,"lat":48.424949000000005,"elevation":[]},{"distance":207.47,"relativeDirection":"LEFT","streetName":"Rue Saint-Léon","absoluteDirection":"SOUTHWEST","stayOn":false,"area":false,"bogusName":false,"lon":-71.0826715,"lat":48.425535700000005,"elevation":[]},{"distance":779.3599999999999,"relativeDirection":"LEFT","streetName":"Rue Legrand","absoluteDirection":"SOUTHWEST","stayOn":false,"area":false,"bogusName":false,"lon":-71.08455740000001,"lat":48.4248916,"elevation":[]}]}],"tooSloped":false},{"duration":1302,"startTime":1522708997000,"endTime":1522710299000,"walkTime":595,"transitTime":705,"waitingTime":2,"walkDistance":769.1745187935232,"walkLimitExceeded":false,"elevationLost":0.0,"elevationGained":0.0,"transfers":0,"legs":[{"startTime":1522708997000,"endTime":1522709099000,"departureDelay":0,"arrivalDelay":0,"realTime":false,"distance":127.929,"pathway":false,"mode":"WALK","route":"","agencyTimeZoneOffset":-14400000,"interlineWithPreviousLeg":false,"from":{"name":"Origin","lon":-71.066315,"lat":48.42794,"departure":1522708997000,"orig":"","vertexType":"NORMAL"},"to":{"name":"Terminus Chicoutimi","stopId":"1:1289","stopCode":"1289","lon":-71.066163,"lat":48.428677,"arrival":1522709099000,"departure":1522709100000,"zoneId":"NA","stopIndex":0,"stopSequence":1,"vertexType":"TRANSIT"},"legGeometry":{"points":"{qqfHlcwpLFgCc@MKESAcAK","length":6},"rentedBike":false,"transitLeg":false,"duration":102.0,"steps":[{"distance":50.722,"relativeDirection":"DEPART","streetName":"Rue Racine Est","absoluteDirection":"EAST","stayOn":false,"area":false,"bogusName":false,"lon":-71.06630819856213,"lat":48.42798778891083,"elevation":[]},{"distance":77.207,"relativeDirection":"LEFT","streetName":"Rue Morin","absoluteDirection":"NORTH","stayOn":false,"area":false,"bogusName":false,"lon":-71.0656238,"lat":48.4279449,"elevation":[]}]},{"startTime":1522709100000,"endTime":1522709805000,"departureDelay":0,"arrivalDelay":0,"realTime":false,"distance":4331.633105590931,"pathway":false,"mode":"BUS","route":"16","agencyName":"Société de Transport du Saguenay","agencyUrl":"http://ville.saguenay.ca/fr/services-aux-citoyens/transport-sts","agencyTimeZoneOffset":-14400000,"routeColor":"00FF00","routeType":3,"routeId":"1:16","routeTextColor":"000000","interlineWithPreviousLeg":false,"tripBlockId":"35","headsign":"Faubourg Sagamie","agencyId":"0","tripId":"1:218266","serviceDate":"20180402","from":{"name":"Terminus Chicoutimi","stopId":"1:1289","stopCode":"1289","lon":-71.066163,"lat":48.428677,"arrival":1522709099000,"departure":1522709100000,"zoneId":"NA","stopIndex":0,"stopSequence":1,"vertexType":"TRANSIT"},"to":{"name":"Stade / Desgagné","stopId":"1:608","stopCode":"608","lon":-71.099034,"lat":48.423309,"arrival":1522709805000,"departure":1522709806000,"zoneId":"NA","stopIndex":22,"stopSequence":23,"vertexType":"TRANSIT"},"legGeometry":{"points":"evqfHzcwpLg@?AXCnAO~GxDVhCP~M~@jDTOrHKdGE^E~BQnIMhGAxCD~@Df@DVDZd@zBBLDJJNHHHDJBn@HCxAHdAFX@DFj@@b@Ab@SvAe@p@{EnEEB{@w@m@o@aDeDIKCMCM?SL}A?A@WCYi@mDOu@Wm@EIMSSWaAcAuAcBq@f@URa@d@u@`A}BzCV`DX~C@HFT^v@bA|AZ^`Av@\\`@Zf@pAvCtD`JJTrAtCpAjC@BvA|CvA~Ci@zAqD`KyDrKyF|Og@tAr@r@h@^jA\\\\Nt@\\PHf@RVDXEROR[p@iBr@uBJQLIDCNEr@lERbBFzA@LFbFN`A^r@bB|AlC`B","length":112},"routeShortName":"16","routeLongName":"Côte de la Réserve","rentedBike":false,"transitLeg":true,"duration":705.0,"steps":[]},{"startTime":1522709806000,"endTime":1522710299000,"departureDelay":0,"arrivalDelay":0,"realTime":false,"distance":641.138,"pathway":false,"mode":"WALK","route":"","agencyTimeZoneOffset":-14400000,"interlineWithPreviousLeg":false,"from":{"name":"Stade / Desgagné","stopId":"1:608","stopCode":"608","lon":-71.099034,"lat":48.423309,"arrival":1522709805000,"departure":1522709806000,"zoneId":"NA","stopIndex":22,"stopSequence":23,"vertexType":"TRANSIT"},"to":{"name":"Destination","lon":-71.092338,"lat":48.420539,"arrival":1522710299000,"orig":"","vertexType":"NORMAL"},"legGeometry":{"points":"ktpfHfo}pLPNp@l@fA_EbAsDf@kBb@uC^o@Xa@I{@?G@mA?OHwA@k@EiAxAeC`@q@R[Te@J{@","length":21},"rentedBike":false,"transitLeg":false,"duration":493.0,"steps":[{"distance":43.626,"relativeDirection":"DEPART","streetName":"Rue du Stade","absoluteDirection":"SOUTHWEST","stayOn":false,"area":false,"bogusName":false,"lon":-71.09891905282419,"lat":48.423265777116086,"elevation":[]},{"distance":306.318,"relativeDirection":"LEFT","streetName":"Rue Desgagné","absoluteDirection":"SOUTHEAST","stayOn":false,"area":false,"bogusName":false,"lon":-71.09922230000001,"lat":48.422929,"elevation":[]},{"distance":137.064,"relativeDirection":"LEFT","streetName":"Chemin de la Réserve","absoluteDirection":"EAST","stayOn":false,"area":false,"bogusName":false,"lon":-71.0956657,"lat":48.421554900000004,"elevation":[]},{"distance":154.13,"relativeDirection":"RIGHT","streetName":"Rue Legrand","absoluteDirection":"SOUTHEAST","stayOn":false,"area":false,"bogusName":false,"lon":-71.0938276,"lat":48.421569700000006,"elevation":[]}]}],"tooSloped":false},{"duration":1586,"startTime":1522708997000,"endTime":1522710583000,"walkTime":1364,"transitTime":220,"waitingTime":2,"walkDistance":1746.772225554545,"walkLimitExceeded":false,"elevationLost":0.0,"elevationGained":0.0,"transfers":0,"legs":[{"startTime":1522708997000,"endTime":1522709099000,"departureDelay":0,"arrivalDelay":0,"realTime":false,"distance":127.929,"pathway":false,"mode":"WALK","route":"","agencyTimeZoneOffset":-14400000,"interlineWithPreviousLeg":false,"from":{"name":"Origin","lon":-71.066315,"lat":48.42794,"departure":1522708997000,"orig":"","vertexType":"NORMAL"},"to":{"name":"Terminus Chicoutimi","stopId":"1:1289","stopCode":"1289","lon":-71.066163,"lat":48.428677,"arrival":1522709099000,"departure":1522709100000,"zoneId":"NA","stopIndex":0,"stopSequence":1,"vertexType":"TRANSIT"},"legGeometry":{"points":"{qqfHlcwpLFgCc@MKESAcAK","length":6},"rentedBike":false,"transitLeg":false,"duration":102.0,"steps":[{"distance":50.722,"relativeDirection":"DEPART","streetName":"Rue Racine Est","absoluteDirection":"EAST","stayOn":false,"area":false,"bogusName":false,"lon":-71.06630819856213,"lat":48.42798778891083,"elevation":[]},{"distance":77.207,"relativeDirection":"LEFT","streetName":"Rue Morin","absoluteDirection":"NORTH","stayOn":false,"area":false,"bogusName":false,"lon":-71.0656238,"lat":48.4279449,"elevation":[]}]},{"startTime":1522709100000,"endTime":1522709320000,"departureDelay":0,"arrivalDelay":0,"realTime":false,"distance":1122.0893295461835,"pathway":false,"mode":"BUS","route":"11","agencyName":"Société de Transport du Saguenay","agencyUrl":"http://ville.saguenay.ca/fr/services-aux-citoyens/transport-sts","agencyTimeZoneOffset":-14400000,"routeColor":"FF0000","routeType":3,"routeId":"1:11","routeTextColor":"FFFFFF","interlineWithPreviousLeg":false,"tripBlockId":"34","headsign":"Boul.Royaume/St-Pierre","agencyId":"0","tripId":"1:218231","serviceDate":"20180402","from":{"name":"Terminus Chicoutimi","stopId":"1:1289","stopCode":"1289","lon":-71.066163,"lat":48.428677,"arrival":1522709099000,"departure":1522709100000,"zoneId":"NA","stopIndex":0,"stopSequence":1,"vertexType":"TRANSIT"},"to":{"name":"Taché / Sainte-Marthe","stopId":"1:419","stopCode":"419","lon":-71.075998,"lat":48.422681,"arrival":1522709320000,"departure":1522709321000,"zoneId":"NA","stopIndex":6,"stopSequence":7,"vertexType":"TRANSIT"},"legGeometry":{"points":"evqfHzcwpLk@?UhKfIh@dKp@GnDIfDOtEE~@Ff@x@rEF~@CbAALO~ADRNJXBr@DfGRPBPJLN@@FPFTBX?TE`BhBR","length":30},"routeShortName":"11","routeLongName":"Chic/Faubourg via St-Paul","rentedBike":false,"transitLeg":true,"duration":220.0,"steps":[]},{"startTime":1522709321000,"endTime":1522710583000,"departureDelay":0,"arrivalDelay":0,"realTime":false,"distance":1618.5529999999997,"pathway":false,"mode":"WALK","route":"","agencyTimeZoneOffset":-14400000,"interlineWithPreviousLeg":false,"from":{"name":"Taché / Sainte-Marthe","stopId":"1:419","stopCode":"419","lon":-71.075998,"lat":48.422681,"arrival":1522709320000,"departure":1522709321000,"zoneId":"NA","stopIndex":6,"stopSequence":7,"vertexType":"TRANSIT"},"to":{"name":"Destination","lon":-71.092338,"lat":48.420539,"arrival":1522710583000,"orig":"","vertexType":"NORMAL"},"legGeometry":{"points":"sppfH~_ypL@LCj@Yj@o@bAe@|@_@fADBBDBH?LCJELK^Ep@WtDDP?jAO`B_BpBqBpBs@t@Y`@Yl@aAxCrDxBOnAc@lDXXbApAtAdBd@NjClCzC~C^`@^|@HRXjAZrC^tEpAxB^l@\\`BDTVzCCP","length":46},"rentedBike":false,"transitLeg":false,"duration":1262.0,"steps":[{"distance":142.785,"relativeDirection":"DEPART","streetName":"path","absoluteDirection":"WEST","stayOn":false,"area":false,"bogusName":true,"lon":-71.07599606605297,"lat":48.42266087507635,"elevation":[]},{"distance":41.096000000000004,"relativeDirection":"LEFT","streetName":"Rue Saint Onésime","absoluteDirection":"SOUTHWEST","stayOn":false,"area":false,"bogusName":false,"lon":-71.0775138,"lat":48.423397400000006,"elevation":[]},{"distance":86.86699999999999,"relativeDirection":"SLIGHTLY_LEFT","streetName":"Rue le Doré","absoluteDirection":"WEST","stayOn":false,"area":false,"bogusName":false,"lon":-71.077976,"lat":48.423435700000006,"elevation":[]},{"distance":7.693,"relativeDirection":"LEFT","streetName":"Rue Bossé","absoluteDirection":"SOUTHWEST","stayOn":false,"area":false,"bogusName":false,"lon":-71.07913090000001,"lat":48.423587100000006,"elevation":[]},{"distance":65.531,"relativeDirection":"SLIGHTLY_RIGHT","streetName":"road","absoluteDirection":"WEST","stayOn":false,"area":false,"bogusName":true,"lon":-71.0792211,"lat":48.423552400000005,"elevation":[]},{"distance":179.39800000000002,"relativeDirection":"SLIGHTLY_RIGHT","streetName":"Rue Dubuc","absoluteDirection":"NORTHWEST","stayOn":false,"area":false,"bogusName":false,"lon":-71.080094,"lat":48.4236379,"elevation":[]},{"distance":108.353,"relativeDirection":"CONTINUE","streetName":"Côte Saint-Ange","absoluteDirection":"NORTHWEST","stayOn":false,"area":false,"bogusName":false,"lon":-71.0815067,"lat":48.424949000000005,"elevation":[]},{"distance":207.47,"relativeDirection":"LEFT","streetName":"Rue Saint-Léon","absoluteDirection":"SOUTHWEST","stayOn":false,"area":false,"bogusName":false,"lon":-71.0826715,"lat":48.425535700000005,"elevation":[]},{"distance":779.3599999999999,"relativeDirection":"LEFT","streetName":"Rue Legrand","absoluteDirection":"SOUTHWEST","stayOn":false,"area":false,"bogusName":false,"lon":-71.08455740000001,"lat":48.4248916,"elevation":[]}]}],"tooSloped":false}]},"debugOutput":{"precalculationTime":35,"pathCalculationTime":57,"pathTimes":[23,15,19],"renderingTime":1,"totalTime":93,"timedOut":false},"elevationMetadata":{"ellipsoidToGeoidDifference":-28.885904201182168,"geoidElevation":false}}