{"requestParameters":{"date":"2018/04/02","walkSpeed":"1.33","walkReluctance":"2.0","fromPlace":"48.420539,-71.092338","maxWalkDistance":"3000","waitReluctance":"1.0","carSpeed":"33","numItineraries":"3","waitAtBeginningFactor":"0.4","mode":"TRANSIT,WALK","ignoreRealtimeUpdates":"false","stairsReluctance":"2.0","toPlace":"48.42794,-71.066315","time":"10:30:00"},"plan":{"date":1522679400000,"from":{"name":"Origin","lon":-71.092338,"lat":48.420539,"orig":"","vertexType":"NORMAL"},"to":{"name":"Destination","lon":-71.066315,"lat":48.42794,"orig":"","vertexType":"NORMAL"},"itineraries":[{"duration":780,"startTime":1522681183000,"endTime":1522681963000,"walkTime":255,"transitTime":523,"waitingTime":2,"walkDistance":323.22248120002337,"walkLimitExceeded":false,"elevationLost":0.0,"elevationGained":0.0,"transfers":0,"legs":[{"startTime":1522681183000,"endTime":1522681336000,"departureDelay":0,"arrivalDelay":0,"realTime":false,"distance":195.201,"pathway":false,"mode":"WALK","route":"","agencyTimeZoneOffset":-14400000,"interlineWithPreviousLeg":false,"from":{"name":"Origin","lon":-71.092338,"lat":48.420539,"departure":1522681183000,"orig":"","vertexType":"NORMAL"},"to":{"name":"ch. de la Réserve / Legrand","stopId":"1:621","stopCode":"621","lon":-71.093267,"lat":48.421638,"arrival":1522681336000,"departure":1522681337000,"zoneId":"NA","stopIndex":26,"stopSequence":27,"vertexType":"TRANSIT"},"legGeometry":{"points":"edpfHve|pLKz@Ud@SZa@p@yAdCWyACM","length":8},"rentedBike":false,"transitLeg":false,"duration":153.0,"steps":[{"distance":154.13,"relativeDirection":"DEPART","streetName":"Rue Legrand","absoluteDirection":"WEST","stayOn":false,"area":false,"bogusName":false,"lon":-71.0922777940296,"lat":48.42067333076948,"elevation":[]},{"distance":41.071,"relativeDirection":"RIGHT","streetName":"Chemin de la Réserve","absoluteDirection":"EAST","stayOn":false,"area":false,"bogusName":false,"lon":-71.0938276,"lat":48.421569700000006,"elevation":[]}]},{"startTime":1522681337000,"endTime":1522681860000,"departureDelay":0,"arrivalDelay":0,"realTime":false,"distance":2581.319090422377,"pathway":false,"mode":"BUS","route":"16","agencyName":"Société de Transport du Saguenay","agencyUrl":"http://ville.saguenay.ca/fr/services-aux-citoyens/transport-sts","agencyTimeZoneOffset":-14400000,"routeColor":"00FF00","routeType":3,"routeId":"1:16","routeTextColor":"000000","interlineWithPreviousLeg":false,"tripBlockId":"36","headsign":"Terminus Chicoutimi","agencyId":"0","tripId":"1:218285","serviceDate":"20180402","from":{"name":"ch. de la Réserve / Legrand","stopId":"1:621","stopCode":"621","lon":-71.093267,"lat":48.421638,"arrival":1522681336000,"departure":1522681337000,"zoneId":"NA","stopIndex":26,"stopSequence":27,"vertexType":"TRANSIT"},"to":{"name":"Terminus Chicoutimi","stopId":"1:1289","stopCode":"1289","lon":-71.066163,"lat":48.428677,"arrival":1522681860000,"departure":1522681861000,"zoneId":"NA","stopIndex":35,"stopSequence":36,"vertexType":"TRANSIT"},"legGeometry":{"points":"}jpfHhl|pLiAaIgA{B}CiGiBeFqBsFQ_@wA_DyAaD_AoBQ[sAuC{@sBeCcGqAwC[g@]a@aAw@[_@cA}A_@w@GU[iDWaDzByCv@cA`@e@TSp@g@nAo@nBm@ZSf@c@PMb@[b@_@b@e@PYP]N_@La@P{@NcB@IBcAG_A{@sEEg@oAP}@DiBDFeBMa@iBCq@FmBPFcEDoBNiHyDWN_HBoA@Y@m@","length":64},"routeShortName":"16","routeLongName":"Côte de la Réserve","rentedBike":false,"transitLeg":true,"duration":523.0,"steps":[]},{"startTime":1522681861000,"endTime":1522681963000,"departureDelay":0,"arrivalDelay":0,"realTime":false,"distance":127.929,"pathway":false,"mode":"WALK","route":"","agencyTimeZoneOffset":-14400000,"interlineWithPreviousLeg":false,"from":{"name":"Terminus Chicoutimi","stopId":"1:1289","stopCode":"1289","lon":-71.066163,"lat":48.428677,"arrival":1522681860000,"departure":1522681861000,"zoneId":"NA","stopIndex":35,"stopSequence":36,"vertexType":"TRANSIT"},"to":{"name":"Destination","lon":-71.066315,"lat":48.42794,"arrival":1522681963000,"orig":"","vertexType":"NORMAL"},"legGeometry":{"points":"{uqfHb~vpLbAJR@JDb@LGfC","length":6},"rentedBike":false,"transitLeg":false,"duration":102.0,"steps":[{"distance":77.207,"relativeDirection":"DEPART","streetName":"Rue Morin","absoluteDirection":"SOUTH","stayOn":false,"area":false,"bogusName":false,"lon":-71.0654590096484,"lat":48.428628638946556,"elevation":[]},{"distance":50.722,"relativeDirection":"RIGHT","streetName":"Rue Racine Est","absoluteDirection":"WEST","stayOn":false,"area":false,"bogusName":false,"lon":-71.0656238,"lat":48.4279449,"elevation":[]}]}],"tooSloped":false},{"duration":1548,"startTime":1522680415000,"endTime":1522681963000,"walkTime":1218,"transitTime":328,"waitingTime":2,"walkDistance":1555.5270977350328,"walkLimitExceeded":false,"elevationLost":0.0,"elevationGained":0.0,"transfers":0,"legs":[{"startTime":1522680415000,"endTime":1522681531000,"departureDelay":0,"arrivalDelay":0,"realTime":false,"distance":1427.3090000000002,"pathway":false,"mode":"WALK","route":"","agencyTimeZoneOffset":-14400000,"interlineWithPreviousLeg":false,"from":{"name":"Origin","lon":-71.092338,"lat":48.420539,"departure":1522680415000,"orig":"","vertexType":"NORMAL"},"to":{"name":"Doré / Bossé","stopId":"1:1851","stopCode":"1851","lon":-71.078314,"lat":48.423588,"arrival":1522681531000,"departure":1522681532000,"zoneId":"NA","stopIndex":24,"stopSequence":25,"vertexType":"TRANSIT"},"legGeometry":{"points":"edpfHve|pLBQW{CEU]aB_@m@qAyB_@uE[sCYkAIS_@}@_@a@{C_DkCmCe@OuAeBcAqAYYb@mDNoAsDyB`AyCXm@Xa@r@u@pBqB~AqBNaB?kAEQVuDSE","length":33},"rentedBike":false,"transitLeg":false,"duration":1116.0,"steps":[{"distance":779.3600000000001,"relativeDirection":"DEPART","streetName":"Rue Legrand","absoluteDirection":"EAST","stayOn":false,"area":false,"bogusName":false,"lon":-71.0922777940296,"lat":48.42067333076948,"elevation":[]},{"distance":207.47,"relativeDirection":"RIGHT","streetName":"Rue Saint-Léon","absoluteDirection":"EAST","stayOn":false,"area":false,"bogusName":false,"lon":-71.08455740000001,"lat":48.4248916,"elevation":[]},{"distance":108.353,"relativeDirection":"RIGHT","streetName":"Côte Saint-Ange","absoluteDirection":"SOUTHEAST","stayOn":false,"area":false,"bogusName":false,"lon":-71.0826715,"lat":48.425535700000005,"elevation":[]},{"distance":179.39800000000002,"relativeDirection":"CONTINUE","streetName":"Rue Dubuc","absoluteDirection":"SOUTHEAST","stayOn":false,"area":false,"bogusName":false,"lon":-71.0815067,"lat":48.424949000000005,"elevation":[]},{"distance":65.531,"relativeDirection":"SLIGHTLY_LEFT","streetName":"road","absoluteDirection":"EAST","stayOn":false,"area":false,"bogusName":true,"lon":-71.080094,"lat":48.4236379,"elevation":[]},{"distance":7.693,"relativeDirection":"SLIGHTLY_LEFT","streetName":"Rue Bossé","absoluteDirection":"NORTHEAST","stayOn":false,"area":false,"bogusName":false,"lon":-71.0792211,"lat":48.423552400000005,"elevation":[]},{"distance":68.065,"relativeDirection":"RIGHT","streetName":"Rue le Doré","absoluteDirection":"EAST","stayOn":false,"area":false,"bogusName":false,"lon":-71.07913090000001,"lat":48.423587100000006,"elevation":[]},{"distance":11.439,"relativeDirection":"LEFT","streetName":"road","absoluteDirection":"NORTH","stayOn":false,"area":false,"bogusName":true,"lon":-71.0782257,"lat":48.4234694,"elevation":[]}]},{"startTime":1522681532000,"endTime":1522681860000,"departureDelay":0,"arrivalDelay":0,"realTime":false,"distance":1255.4672450276205,"pathway":false,"mode":"BUS","route":"11","agencyName":"Société de Transport du Saguenay","agencyUrl":"http://ville.saguenay.ca/fr/services-aux-citoyens/transport-sts","agencyTimeZoneOffset":-14400000,"routeColor":"FF0000","routeType":3,"routeId":"1:11","routeTextColor":"FFFFFF","interlineWithPreviousLeg":false,"tripBlockId":"37","headsign":"Terminus Chicoutimi","agencyId":"0","tripId":"1:218311","serviceDate":"20180402","from":{"name":"Doré / Bossé","stopId":"1:1851","stopCode":"1851","lon":-71.078314,"lat":48.423588,"arrival":1522681531000,"departure":1522681532000,"zoneId":"NA","stopIndex":24,"stopSequence":25,"vertexType":"TRANSIT"},"to":{"name":"Terminus Chicoutimi","stopId":"1:1289","stopCode":"1289","lon":-71.066163,"lat":48.428677,"arrival":1522681860000,"departure":1522681861000,"zoneId":"NA","stopIndex":30,"stopSequence":31,"vertexType":"TRANSIT"},"legGeometry":{"points":"{vpfHlnypL?Yo@IKCIEIIKOEKCKe@}BKs@CQAUE_A@yCFcDVsLDaCD_@kBKW?e@Q_BQNuEDuBXmNLgHmKm@}BW{AMCn@o@G??","length":33},"routeShortName":"11","routeLongName":"Chic/Faubourg via St-Paul","rentedBike":false,"transitLeg":true,"duration":328.0,"steps":[]},{"startTime":1522681861000,"endTime":1522681963000,"departureDelay":0,"arrivalDelay":0,"realTime":false,"distance":127.929,"pathway":false,"mode":"WALK","route":"","agencyTimeZoneOffset":-14400000,"interlineWithPreviousLeg":false,"from":{"name":"Terminus Chicoutimi","stopId":"1:1289","stopCode":"1289","lon":-71.066163,"lat":48.428677,"arrival":1522681860000,"departure":1522681861000,"zoneId":"NA","stopIndex":30,"stopSequence":31,"vertexType":"TRANSIT"},"to":{"name":"Destination","lon":-71.066315,"lat":48.42794,"arrival":1522681963000,"orig":"","vertexType":"NORMAL"},"legGeometry":{"points":"{uqfHb~vpLbAJR@JDb@LGfC","length":6},"rentedBike":false,"transitLeg":false,"duration":102.0,"steps":[{"distance":77.207,"relativeDirection":"DEPART","streetName":"Rue Morin","absoluteDirection":"SOUTH","stayOn":false,"area":false,"bogusName":false,"lon":-71.0654590096484,"lat":48.428628638946556,"elevation":[]},{"distance":50.722,"relativeDirection":"RIGHT","streetName":"Rue Racine Est","absoluteDirection":"WEST","stayOn":false,"area":false,"bogusName":false,"lon":-71.0656238,"lat":48.4279449,"elevation":[]}]}],"tooSloped":false},{"duration":780,"startTime":1522682983000,"endTime":1522683763000,"walkTime":255,"transitTime":523,"waitingTime":2,"walkDistance":323.22248120002337,"walkLimitExceeded":false,"elevationLost":0.0,"elevationGained":0.0,"transfers":0,"legs":[{"startTime":1522682983000,"endTime":1522683136000,"departureDelay":0,"arrivalDelay":0,"realTime":false,"distance":195.201,"pathway":false,"mode":"WALK","route":"","agencyTimeZoneOffset":-14400000,"interlineWithPreviousLeg":false,"from":{"name":"Origin","lon":-71.092338,"lat":48.420539,"departure":1522682983000,"orig":"","vertexType":"NORMAL"},"to":{"name":"ch. de la Réserve / Legrand","stopId":"1:621","stopCode":"621","lon":-71.093267,"lat":48.421638,"arrival":1522683136000,"departure":1522683137000,"zoneId":"NA","stopIndex":26,"stopSequence":27,"vertexType":"TRANSIT"},"legGeometry":{"points":"edpfHve|pLKz@Ud@SZa@p@yAdCWyACM","length":8},"rentedBike":false,"transitLeg":false,"duration":153.0,"steps":[{"distance":154.13,"relativeDirection":"DEPART","streetName":"Rue Legrand","absoluteDirection":"WEST","stayOn":false,"area":false,"bogusName":false,"lon":-71.0922777940296,"lat":48.42067333076948,"elevation":[]},{"distance":41.071,"relativeDirection":"RIGHT","streetName":"Chemin de la Réserve","absoluteDirection":"EAST","stayOn":false,"area":false,"bogusName":false,"lon":-71.0938276,"lat":48.421569700000006,"elevation":[]}]},{"startTime":1522683137000,"endTime":1522683660000,"departureDelay":0,"arrivalDelay":0,"realTime":false,"distance":2581.319090422377,"pathway":false,"mode":"BUS","route":"16","agencyName":"Société de Transport du Saguenay","agencyUrl":"http://ville.saguenay.ca/fr/services-aux-citoyens/transport-sts","agencyTimeZoneOffset":-14400000,"routeColor":"00FF00","routeType":3,"routeId":"1:16","routeTextColor":"000000","interlineWithPreviousLeg":false,"tripBlockId":"35","headsign":"Terminus Chicoutimi","agencyId":"0","tripId":"1:218251","serviceDate":"20180402","from":{"name":"ch. de la Réserve / Legrand","stopId":"1:621","stopCode":"621","lon":-71.093267,"lat":48.421638,"arrival":1522683136000,"departure":1522683137000,"zoneId":"NA","stopIndex":26,"stopSequence":27,"vertexType":"TRANSIT"},"to":{"name":"Terminus Chicoutimi","stopId":"1:1289","stopCode":"1289","lon":-71.066163,"lat":48.428677,"arrival":1522683660000,"departure":1522683661000,"zoneId":"NA","stopIndex":35,"stopSequence":36,"vertexType":"TRANSIT"},"legGeometry":{"points":"}jpfHhl|pLiAaIgA{B}CiGiBeFqBsFQ_@wA_DyAaD_AoBQ[sAuC{@sBeCcGqAwC[g@]a@aAw@[_@cA}A_@w@GU[iDWaDzByCv@cA`@e@TSp@g@nAo@nBm@ZSf@c@PMb@[b@_@b@e@PYP]N_@La@P{@NcB@IBcAG_A{@sEEg@oAP}@DiBDFeBMa@iBCq@FmBPFcEDoBNiHyDWN_HBoA@Y@m@","length":64},"routeShortName":"16","routeLongName":"Côte de la Réserve","rentedBike":false,"transitLeg":true,"duration":523.0,"steps":[]},{"startTime":1522683661000,"endTime":1522683763000,"departureDelay":0,"arrivalDelay":0,"realTime":false,"distance":127.929,"pathway":false,"mode":"WALK","route":"","agencyTimeZoneOffset":-14400000,"interlineWithPreviousLeg":false,"from":{"name":"Terminus Chicoutimi","stopId":"1:1289","stopCode":"1289","lon":-71.066163,"lat":48.428677,"arrival":1522683660000,"departure":1522683661000,"zoneId":"NA","stopIndex":35,"stopSequence":36,"vertexType":"TRANSIT"},"to":{"name":"Destination","lon":-71.066315,"lat":48.42794,"arrival":1522683763000,"orig":"","vertexType":"NORMAL"},"legGeometry":{"points":"{uqfHb~vpLbAJR@JDb@LGfC","length":6},"rentedBike":false,"transitLeg":false,"duration":102.0,"steps":[{"distance":77.207,"relativeDirection":"DEPART","streetName":"Rue Morin","absoluteDirection":"SOUTH","stayOn":false,"area":false,"bogusName":false,"lon":-71.0654590096484,"lat":48.428628638946556,"elevation":[]},{"distance":50.722,"relativeDirection":"RIGHT","streetName":"Rue Racine Est","absoluteDirection":"WEST","stayOn":false,"area":false,"bogusName":false,"lon":-71.0656238,"lat":48.4279449,"elevation":[]}]}],"tooSloped":false}]},"debugOutput":{"precalculationTime":33,"pathCalculationTime":21,"pathTimes":[7,10,3],"renderingTime":0,"totalTime":54,"timedOut":false},"elevationMetadata":{"ellipsoidToGeoidDifference":-28.885904201182168,"geoidElevation":false}}