{"requestParameters":{"date":"2018/04/02","walkSpeed":"1.33","walkReluctance":"2.0","fromPlace":"48.413365,-71.117025","maxWalkDistance":"3000","waitReluctance":"1.0","carSpeed":"33","numItineraries":"3","waitAtBeginningFactor":"0.4","mode":"TRANSIT,WALK","ignoreRealtimeUpdates":"false","stairsReluctance":"2.0","toPlace":"48.397648,-71.095803","time":"7:30:00"},"plan":{"date":1522668600000,"from":{"name":"Origin","lon":-71.117025,"lat":48.413365,"orig":"","vertexType":"NORMAL"},"to":{"name":"Destination","lon":-71.095803,"lat":48.397648,"orig":"","vertexType":"NORMAL"},"itineraries":[{"duration":2463,"startTime":1522669155000,"endTime":1522671618000,"walkTime":2431,"transitTime":30,"waitingTime":2,"walkDistance":3175.0366691659083,"walkLimitExceeded":false,"elevationLost":0.0,"elevationGained":0.0,"transfers":0,"legs":[{"startTime":1522669155000,"endTime":1522671265000,"departureDelay":0,"arrivalDelay":0,"realTime":false,"distance":2761.3419999999996,"pathway":false,"mode":"WALK","route":"","agencyTimeZoneOffset":-14400000,"interlineWithPreviousLeg":false,"from":{"name":"Origin","lon":-71.117025,"lat":48.413365,"departure":1522669155000,"orig":"","vertexType":"NORMAL"},"to":{"name":"Malraux / Pagnol","stopId":"1:441","stopCode":"441","lon":-71.09356,"lat":48.400447,"arrival":1522671265000,"departure":1522671266000,"zoneId":"NA","stopIndex":6,"stopSequence":7,"vertexType":"TRANSIT"},"legGeometry":{"points":"{tnfHb_aqLi@wB\\{B^k@~@]DKtA}CFa@Vo@L]\\]XUc@kBq@uBo@eDYwBk@cECYIs@Ii@s@}FQoA|As@`FwBvDcBdF{BnGoCrCoBhCkD|AgDn@sCLi@p@kCjCoJt@iBr@mBhB{ErCsHFQx@uBzEwM@?`@kAjFzFDD","length":45},"rentedBike":false,"transitLeg":false,"duration":2110.0,"steps":[{"distance":326.092,"relativeDirection":"DEPART","streetName":"Rue des Carcajous","absoluteDirection":"NORTHEAST","stayOn":false,"area":false,"bogusName":false,"lon":-71.11681015579595,"lat":48.413101340486456,"elevation":[]},{"distance":461.409,"relativeDirection":"LEFT","streetName":"Chemin de la Réserve","absoluteDirection":"NORTHEAST","stayOn":false,"area":false,"bogusName":false,"lon":-71.11355780000001,"lat":48.411718500000006,"elevation":[]},{"distance":1809.034,"relativeDirection":"RIGHT","streetName":"Boulevard Barrette","absoluteDirection":"SOUTH","stayOn":false,"area":false,"bogusName":false,"lon":-71.1077458,"lat":48.413203300000006,"elevation":[]},{"distance":164.807,"relativeDirection":"RIGHT","streetName":"Rue Malraux","absoluteDirection":"SOUTHWEST","stayOn":false,"area":false,"bogusName":false,"lon":-71.0921587,"lat":48.401604500000005,"elevation":[]}]},{"startTime":1522671266000,"endTime":1522671296000,"departureDelay":0,"arrivalDelay":0,"realTime":false,"distance":354.7931334357767,"pathway":false,"mode":"BUS","route":"14","agencyName":"Société de Transport du Saguenay","agencyUrl":"http://ville.saguenay.ca/fr/services-aux-citoyens/transport-sts","agencyTimeZoneOffset":-14400000,"routeColor":"C0C000","routeType":3,"routeId":"1:14","routeTextColor":"000000","interlineWithPreviousLeg":false,"tripBlockId":"31","headsign":"Terminus Chicoutimi","agencyId":"0","tripId":"1:218125","serviceDate":"20180402","from":{"name":"Malraux / Pagnol","stopId":"1:441","stopCode":"441","lon":-71.09356,"lat":48.400447,"arrival":1522671265000,"departure":1522671266000,"zoneId":"NA","stopIndex":6,"stopSequence":7,"vertexType":"TRANSIT"},"to":{"name":"Malraux / Colette","stopId":"1:1591","stopCode":"1591","lon":-71.091599,"lat":48.397534,"arrival":1522671296000,"departure":1522671297000,"zoneId":"NA","stopIndex":7,"stopSequence":8,"vertexType":"TRANSIT"},"legGeometry":{"points":"melfHbm|pLhCtCdDY|F_O","length":4},"routeShortName":"14","routeLongName":"Coopérative","rentedBike":false,"transitLeg":true,"duration":30.0,"steps":[]},{"startTime":1522671297000,"endTime":1522671618000,"departureDelay":0,"arrivalDelay":0,"realTime":false,"distance":413.477,"pathway":false,"mode":"WALK","route":"","agencyTimeZoneOffset":-14400000,"interlineWithPreviousLeg":false,"from":{"name":"Malraux / Colette","stopId":"1:1591","stopCode":"1591","lon":-71.091599,"lat":48.397534,"arrival":1522671296000,"departure":1522671297000,"zoneId":"NA","stopIndex":7,"stopSequence":8,"vertexType":"TRANSIT"},"to":{"name":"Destination","lon":-71.095803,"lat":48.397648,"arrival":1522671618000,"orig":"","vertexType":"NORMAL"},"legGeometry":{"points":"{skfHda|pLqBzFbBvBcApCw@tBC\\FX~BnC","length":8},"rentedBike":false,"transitLeg":false,"duration":321.0,"steps":[{"distance":112.33,"relativeDirection":"DEPART","streetName":"Rue Malraux","absoluteDirection":"NORTHWEST","stayOn":false,"area":false,"bogusName":false,"lon":-71.09154661403835,"lat":48.397585409766506,"elevation":[]},{"distance":70.684,"relativeDirection":"LEFT","streetName":"Rue Paul Morand","absoluteDirection":"SOUTHWEST","stayOn":false,"area":false,"bogusName":false,"lon":-71.0928068,"lat":48.398151500000004,"elevation":[]},{"distance":230.463,"relativeDirection":"RIGHT","streetName":"Croissant Rabelais","absoluteDirection":"NORTHWEST","stayOn":false,"area":false,"bogusName":false,"lon":-71.0934024,"lat":48.3976538,"elevation":[]}]}],"tooSloped":false},{"duration":2048,"startTime":1522670151000,"endTime":1522672199000,"walkTime":1626,"transitTime":420,"waitingTime":2,"walkDistance":2088.742015026106,"walkLimitExceeded":false,"elevationLost":0.0,"elevationGained":0.0,"transfers":0,"legs":[{"startTime":1522670151000,"endTime":1522670219000,"departureDelay":0,"arrivalDelay":0,"realTime":false,"distance":83.523,"pathway":false,"mode":"WALK","route":"","agencyTimeZoneOffset":-14400000,"interlineWithPreviousLeg":false,"from":{"name":"Origin","lon":-71.117025,"lat":48.413365,"departure":1522670151000,"orig":"","vertexType":"NORMAL"},"to":{"name":"Carcajous / Martres","stopId":"1:1623","stopCode":"1623","lon":-71.117898,"lat":48.412938,"arrival":1522670219000,"departure":1522670220000,"zoneId":"NA","stopIndex":0,"stopSequence":1,"vertexType":"TRANSIT"},"legGeometry":{"points":"{tnfHb_aqLTv@BLRlC","length":4},"rentedBike":false,"transitLeg":false,"duration":68.0,"steps":[{"distance":83.523,"relativeDirection":"DEPART","streetName":"Rue des Carcajous","absoluteDirection":"SOUTHWEST","stayOn":false,"area":false,"bogusName":false,"lon":-71.11681015579595,"lat":48.413101340486456,"elevation":[]}]},{"startTime":1522670220000,"endTime":1522670640000,"departureDelay":0,"arrivalDelay":0,"realTime":false,"distance":1734.9425924582226,"pathway":false,"mode":"BUS","route":"217S","agencyName":"Société de Transport du Saguenay","agencyUrl":"http://ville.saguenay.ca/fr/services-aux-citoyens/transport-sts","agencyTimeZoneOffset":-14400000,"routeColor":"8B0000","routeType":3,"routeId":"1:217S","routeTextColor":"FFFFFF","interlineWithPreviousLeg":false,"tripBlockId":"94","headsign":"Séminaire","agencyId":"0","tripId":"1:218702","serviceDate":"20180402","from":{"name":"Carcajous / Martres","stopId":"1:1623","stopCode":"1623","lon":-71.117898,"lat":48.412938,"arrival":1522670219000,"departure":1522670220000,"zoneId":"NA","stopIndex":0,"stopSequence":1,"vertexType":"TRANSIT"},"to":{"name":"Draveurs / Pulpe","stopId":"1:893","stopCode":"893","lon":-71.095051,"lat":48.40927,"arrival":1522670640000,"departure":1522670641000,"zoneId":"NA","stopIndex":1,"stopSequence":2,"vertexType":"TRANSIT"},"legGeometry":{"points":"ksnfHveaqLB`@v@[lDd@r@PrAM?eK]{F{@uCs@wBc@kBo@sBo@aDeAeI}AgMz]yNhDgClCqDzAmDf@iCwA{@qAQiFHuAuAaAmAYoDNmC{AeB|@yC}AgDvCaImBaB","length":32},"routeShortName":"217S","routeLongName":"Séminaire - ch. Réserve","rentedBike":false,"transitLeg":true,"duration":420.0,"steps":[]},{"startTime":1522670641000,"endTime":1522672199000,"departureDelay":0,"arrivalDelay":0,"realTime":false,"distance":2004.863,"pathway":false,"mode":"WALK","route":"","agencyTimeZoneOffset":-14400000,"interlineWithPreviousLeg":false,"from":{"name":"Draveurs / Pulpe","stopId":"1:893","stopCode":"893","lon":-71.095051,"lat":48.40927,"arrival":1522670640000,"departure":1522670641000,"zoneId":"NA","stopIndex":1,"stopSequence":2,"vertexType":"TRANSIT"},"to":{"name":"Destination","lon":-71.095803,"lat":48.397648,"arrival":1522672199000,"orig":"","vertexType":"NORMAL"},"legGeometry":{"points":"y|mfHxw|pLJElAz@BDZ}Ad@wASUrAuC|AgDxAuDjAwC~IhIdHrGnCfCzEwM@?`@kAjFzFDD`AdA|@jAb@RpBEXMhCeGDKbBvBcApCw@tBC\\FX~BnC","length":32},"rentedBike":false,"transitLeg":false,"duration":1558.0,"steps":[{"distance":57.89,"relativeDirection":"DEPART","streetName":"Rue des Draveurs","absoluteDirection":"SOUTH","stayOn":false,"area":false,"bogusName":false,"lon":-71.09516003685162,"lat":48.40925175007877,"elevation":[]},{"distance":76.935,"relativeDirection":"LEFT","streetName":"path","absoluteDirection":"SOUTHEAST","stayOn":false,"area":false,"bogusName":true,"lon":-71.0954658,"lat":48.4087873,"elevation":[]},{"distance":13.63,"relativeDirection":"LEFT","streetName":"Rue de l'Estacade","absoluteDirection":"NORTHEAST","stayOn":false,"area":false,"bogusName":false,"lon":-71.0945535,"lat":48.4084571,"elevation":[]},{"distance":307.78700000000003,"relativeDirection":"RIGHT","streetName":"Rue Descartes","absoluteDirection":"SOUTHEAST","stayOn":false,"area":false,"bogusName":false,"lon":-71.0944442,"lat":48.4085559,"elevation":[]},{"distance":517.189,"relativeDirection":"RIGHT","streetName":"Rue Voltaire","absoluteDirection":"SOUTHWEST","stayOn":false,"area":false,"bogusName":false,"lon":-71.09118190000001,"lat":48.4068338,"elevation":[]},{"distance":247.08900000000003,"relativeDirection":"LEFT","streetName":"Boulevard Barrette","absoluteDirection":"SOUTHEAST","stayOn":false,"area":false,"bogusName":false,"lon":-71.0948911,"lat":48.4028879,"elevation":[]},{"distance":483.196,"relativeDirection":"RIGHT","streetName":"Rue Malraux","absoluteDirection":"SOUTHWEST","stayOn":false,"area":false,"bogusName":false,"lon":-71.0921587,"lat":48.401604500000005,"elevation":[]},{"distance":70.684,"relativeDirection":"RIGHT","streetName":"Rue Paul Morand","absoluteDirection":"SOUTHWEST","stayOn":false,"area":false,"bogusName":false,"lon":-71.0928068,"lat":48.398151500000004,"elevation":[]},{"distance":230.463,"relativeDirection":"RIGHT","streetName":"Croissant Rabelais","absoluteDirection":"NORTHWEST","stayOn":false,"area":false,"bogusName":false,"lon":-71.0934024,"lat":48.3976538,"elevation":[]}]}],"tooSloped":false},{"duration":2943,"startTime":1522670011000,"endTime":1522672954000,"walkTime":520,"transitTime":2181,"waitingTime":242,"walkDistance":657.386203001672,"walkLimitExceeded":false,"elevationLost":0.0,"elevationGained":0.0,"transfers":1,"legs":[{"startTime":1522670011000,"endTime":1522670277000,"departureDelay":0,"arrivalDelay":0,"realTime":false,"distance":338.9,"pathway":false,"mode":"WALK","route":"","agencyTimeZoneOffset":-14400000,"interlineWithPreviousLeg":false,"from":{"name":"Origin","lon":-71.117025,"lat":48.413365,"departure":1522670011000,"orig":"","vertexType":"NORMAL"},"to":{"name":"ch. de la Réserve / Carcajous","stopId":"1:642","stopCode":"642","lon":-71.11365,"lat":48.411602,"arrival":1522670277000,"departure":1522670278000,"zoneId":"NA","stopIndex":19,"stopSequence":20,"vertexType":"TRANSIT"},"legGeometry":{"points":"{tnfHb_aqLi@wB\\{B^k@~@]DKtA}CFa@Vo@L]\\]XUJ\\","length":13},"rentedBike":false,"transitLeg":false,"duration":266.0,"steps":[{"distance":326.092,"relativeDirection":"DEPART","streetName":"Rue des Carcajous","absoluteDirection":"NORTHEAST","stayOn":false,"area":false,"bogusName":false,"lon":-71.11681015579595,"lat":48.413101340486456,"elevation":[]},{"distance":12.808,"relativeDirection":"RIGHT","streetName":"Chemin de la Réserve","absoluteDirection":"SOUTHWEST","stayOn":false,"area":false,"bogusName":false,"lon":-71.11355780000001,"lat":48.411718500000006,"elevation":[]}]},{"startTime":1522670278000,"endTime":1522671060000,"departureDelay":0,"arrivalDelay":0,"realTime":false,"distance":4596.022495696004,"pathway":false,"mode":"BUS","route":"16","agencyName":"Société de Transport du Saguenay","agencyUrl":"http://ville.saguenay.ca/fr/services-aux-citoyens/transport-sts","agencyTimeZoneOffset":-14400000,"routeColor":"00FF00","routeType":3,"routeId":"1:16","routeTextColor":"000000","interlineWithPreviousLeg":false,"tripBlockId":"37","headsign":"Terminus Chicoutimi","agencyId":"0","tripId":"1:218305","serviceDate":"20180402","from":{"name":"ch. de la Réserve / Carcajous","stopId":"1:642","stopCode":"642","lon":-71.11365,"lat":48.411602,"arrival":1522670277000,"departure":1522670278000,"zoneId":"NA","stopIndex":19,"stopSequence":20,"vertexType":"TRANSIT"},"to":{"name":"Terminus Chicoutimi","stopId":"1:1289","stopCode":"1289","lon":-71.066163,"lat":48.428677,"arrival":1522671060000,"departure":1522671300000,"zoneId":"NA","stopIndex":35,"stopSequence":36,"vertexType":"TRANSIT"},"legGeometry":{"points":"yknfHtk`qLM_@i@kCs@{B_CqPy@{FQmAoAwK[aEeByD}BkCmC_DaDqDyDcDkD]_Bc@aAY_IsGYo@}@mBqAkKg@aE@wFS}AiAaIgA{B}CiGiBeFqBsFQ_@wA_DyAaD_AoBQ[sAuC{@sBeCcGqAwC[g@]a@aAw@[_@cA}A_@w@GU[iDWaDzByCv@cA`@e@TSp@g@nAo@nBm@ZSf@c@PMb@[b@_@b@e@PYP]N_@La@P{@NcB@IBcAG_A{@sEEg@oAP}@DiBDFeBMa@iBCq@FmBPFcEDoBNiHyDWN_HBoA@Y@m@","length":87},"routeShortName":"16","routeLongName":"Côte de la Réserve","rentedBike":false,"transitLeg":true,"duration":782.0,"steps":[]},{"startTime":1522671300000,"endTime":1522672699000,"departureDelay":0,"arrivalDelay":0,"realTime":false,"distance":7226.913152719149,"pathway":false,"mode":"BUS","route":"14","agencyName":"Société de Transport du Saguenay","agencyUrl":"http://ville.saguenay.ca/fr/services-aux-citoyens/transport-sts","agencyTimeZoneOffset":-14400000,"routeColor":"C0C000","routeType":3,"routeId":"1:14","routeTextColor":"000000","interlineWithPreviousLeg":false,"tripBlockId":"32","headsign":"Talbot / Barrette","agencyId":"0","tripId":"1:218150","serviceDate":"20180402","from":{"name":"Terminus Chicoutimi","stopId":"1:1289","stopCode":"1289","lon":-71.066163,"lat":48.428677,"arrival":1522671060000,"departure":1522671300000,"zoneId":"NA","stopIndex":0,"stopSequence":1,"vertexType":"TRANSIT"},"to":{"name":"Malraux / Paul Morand","stopId":"1:92","stopCode":"92","lon":-71.092693,"lat":48.398228,"arrival":1522672699000,"departure":1522672700000,"zoneId":"NA","stopIndex":28,"stopSequence":29,"vertexType":"TRANSIT"},"legGeometry":{"points":"qvqfHnbwpLJkClLh@DsDTmSHwFB{I@m@@eBH_AF}A@w@Dq@@i@B}B@Y@e@D]F_@@SHQCKnBnBvIrIn@n@\\iATg@v@_ATg@LmABg@Is@c@iEAm@bAcDTcAtA{DJI|AxAvAvAQv@~@z@dA`ATq@`E~DL`@E`Ex@hDd@`B}FtFaAzAm@xAe@jCa@nDiAbm@SpKM`H]vBhDVzCTcAvCO^bEbEzK`LfBeEtK`KhAdAnCbCvBpCNR~BxAxBf@z@h@vAz@z@{DrCoITTlElEtAnB`@l@pFrD@?fDr@XgAjFuR\\yADm@b@gFd@_B`A}@tEvJBDvC`FtJ|LLNlClC|@^hCYVExCjCb@d@vE`F`BhB?pHaBhRqAbLK~@qBxFqB|F","length":109},"routeShortName":"14","routeLongName":"Coopérative","rentedBike":false,"transitLeg":true,"duration":1399.0,"steps":[]},{"startTime":1522672700000,"endTime":1522672954000,"departureDelay":0,"arrivalDelay":0,"realTime":false,"distance":318.30499999999995,"pathway":false,"mode":"WALK","route":"","agencyTimeZoneOffset":-14400000,"interlineWithPreviousLeg":false,"from":{"name":"Malraux / Paul Morand","stopId":"1:92","stopCode":"92","lon":-71.092693,"lat":48.398228,"arrival":1522672699000,"departure":1522672700000,"zoneId":"NA","stopIndex":28,"stopSequence":29,"vertexType":"TRANSIT"},"to":{"name":"Destination","lon":-71.095803,"lat":48.397648,"arrival":1522672954000,"orig":"","vertexType":"NORMAL"},"legGeometry":{"points":"cxkfHxh|pLNRDKbBvBcApCw@tBC\\FX~BnC","length":9},"rentedBike":false,"transitLeg":false,"duration":254.0,"steps":[{"distance":11.696,"relativeDirection":"DEPART","streetName":"path","absoluteDirection":"SOUTHWEST","stayOn":false,"area":false,"bogusName":true,"lon":-71.09276985880696,"lat":48.39826620258713,"elevation":[]},{"distance":5.462,"relativeDirection":"LEFT","streetName":"Rue Malraux","absoluteDirection":"SOUTHEAST","stayOn":false,"area":false,"bogusName":false,"lon":-71.0928648,"lat":48.398182000000006,"elevation":[]},{"distance":70.684,"relativeDirection":"RIGHT","streetName":"Rue Paul Morand","absoluteDirection":"SOUTHWEST","stayOn":false,"area":false,"bogusName":false,"lon":-71.0928068,"lat":48.398151500000004,"elevation":[]},{"distance":230.463,"relativeDirection":"RIGHT","streetName":"Croissant Rabelais","absoluteDirection":"NORTHWEST","stayOn":false,"area":false,"bogusName":false,"lon":-71.0934024,"lat":48.3976538,"elevation":[]}]}],"tooSloped":false}]},"debugOutput":{"precalculationTime":5,"pathCalculationTime":14,"pathTimes":[9,4,1],"renderingTime":1,"totalTime":20,"timedOut":false},"elevationMetadata":{"ellipsoidToGeoidDifference":-28.885904201182168,"geoidElevation":false}}