{"requestParameters":{"date":"2018/04/02","walkSpeed":"1.33","walkReluctance":"2.0","fromPlace":"48.408707,-71.05524699","maxWalkDistance":"3000","waitReluctance":"1.0","carSpeed":"33","numItineraries":"3","waitAtBeginningFactor":"0.4","mode":"TRANSIT,WALK","ignoreRealtimeUpdates":"false","stairsReluctance":"2.0","toPlace":"48.395327,-71.071431","time":"16:35:00"},"plan":{"date":1522701300000,"from":{"name":"Origin","lon":-71.05524699,"lat":48.408707,"orig":"","vertexType":"NORMAL"},"to":{"name":"Destination","lon":-71.071431,"lat":48.395327,"orig":"","vertexType":"NORMAL"},"itineraries":[{"duration":968,"startTime":1522701514000,"endTime":1522702482000,"walkTime":595,"transitTime":371,"waitingTime":2,"walkDistance":763.6063759366107,"walkLimitExceeded":false,"elevationLost":0.0,"elevationGained":0.0,"transfers":0,"legs":[{"startTime":1522701514000,"endTime":1522701888000,"departureDelay":0,"arrivalDelay":0,"realTime":false,"distance":477.387,"pathway":false,"mode":"WALK","route":"","agencyTimeZoneOffset":-14400000,"interlineWithPreviousLeg":false,"from":{"name":"Origin","lon":-71.05524699,"lat":48.408707,"departure":1522701514000,"orig":"","vertexType":"NORMAL"},"to":{"name":"Émile Girardin / Roitelets","stopId":"1:253","stopCode":"253","lon":-71.050677,"lat":48.406726,"arrival":1522701888000,"departure":1522701889000,"zoneId":"NA","stopIndex":17,"stopSequence":18,"vertexType":"TRANSIT"},"legGeometry":{"points":"exmfHn{tpL`A~@NNNa@HSj@_Br@qB`A_DNc@PUfAuAbAaA{@qEGo@AGAK","length":16},"rentedBike":false,"transitLeg":false,"duration":374.0,"steps":[{"distance":54.431,"relativeDirection":"DEPART","streetName":"Boulevard Talbot","absoluteDirection":"SOUTHWEST","stayOn":false,"area":false,"bogusName":false,"lon":-71.05479494405348,"lat":48.408512028291746,"elevation":[]},{"distance":312.858,"relativeDirection":"LEFT","streetName":"Rue des Champs-Élysées","absoluteDirection":"SOUTHEAST","stayOn":false,"area":false,"bogusName":false,"lon":-71.0551966,"lat":48.4081015,"elevation":[]},{"distance":110.09799999999998,"relativeDirection":"LEFT","streetName":"Rue Émile-Girardin","absoluteDirection":"NORTHEAST","stayOn":false,"area":false,"bogusName":false,"lon":-71.05202630000001,"lat":48.4062974,"elevation":[]}]},{"startTime":1522701889000,"endTime":1522702260000,"departureDelay":0,"arrivalDelay":0,"realTime":false,"distance":2249.0633945460104,"pathway":false,"mode":"BUS","route":"175","agencyName":"Société de Transport du Saguenay","agencyUrl":"http://ville.saguenay.ca/fr/services-aux-citoyens/transport-sts","agencyTimeZoneOffset":-14400000,"routeColor":"FF00FF","routeType":3,"routeId":"1:175","routeTextColor":"FFFFFF","interlineWithPreviousLeg":false,"tripBlockId":"77","headsign":"Costco","agencyId":"0","tripId":"1:218637","serviceDate":"20180402","from":{"name":"Émile Girardin / Roitelets","stopId":"1:253","stopCode":"253","lon":-71.050677,"lat":48.406726,"arrival":1522701888000,"departure":1522701889000,"zoneId":"NA","stopIndex":17,"stopSequence":18,"vertexType":"TRANSIT"},"to":{"name":"boul. Talbot (no. 1870)","stopId":"1:1556","stopCode":"1556","lon":-71.069429,"lat":48.3951,"arrival":1522702260000,"departure":1522702261000,"zoneId":"NA","stopIndex":24,"stopSequence":25,"vertexType":"TRANSIT"},"legGeometry":{"points":"_lmfHhatpLr@~Gx@]PEr@ObACn@FrBb@|@Ch@Kx@U~HsB^KZ|DJpII~Fa@rFUzBi@bDUxAm@nCcAlDM^RTfD`DjF`FjCrCrAvAbCfDjIfMdAzAfFpHd@n@nC`D","length":34},"routeShortName":"175","routeLongName":"Term. Chic / Costco","rentedBike":false,"transitLeg":true,"duration":371.0,"steps":[]},{"startTime":1522702261000,"endTime":1522702482000,"departureDelay":0,"arrivalDelay":0,"realTime":false,"distance":286.119,"pathway":false,"mode":"WALK","route":"","agencyTimeZoneOffset":-14400000,"interlineWithPreviousLeg":false,"from":{"name":"boul. Talbot (no. 1870)","stopId":"1:1556","stopCode":"1556","lon":-71.069429,"lat":48.3951,"arrival":1522702260000,"departure":1522702261000,"zoneId":"NA","stopIndex":24,"stopSequence":25,"vertexType":"TRANSIT"},"to":{"name":"Destination","lon":-71.071431,"lat":48.395327,"arrival":1522702482000,"orig":"","vertexType":"NORMAL"},"legGeometry":{"points":"adkfHjvwpL~DxENPuCrH","length":4},"rentedBike":false,"transitLeg":false,"duration":221.0,"steps":[{"distance":145.045,"relativeDirection":"DEPART","streetName":"Boulevard Talbot","absoluteDirection":"SOUTHWEST","stayOn":false,"area":false,"bogusName":false,"lon":-71.0693341574882,"lat":48.39505259726926,"elevation":[]},{"distance":141.074,"relativeDirection":"RIGHT","streetName":"Boulevard Barrette","absoluteDirection":"NORTHWEST","stayOn":false,"area":false,"bogusName":false,"lon":-71.0705155,"lat":48.394010400000006,"elevation":[]}]}],"tooSloped":false},{"duration":968,"startTime":1522702414000,"endTime":1522703382000,"walkTime":595,"transitTime":371,"waitingTime":2,"walkDistance":763.6063759366107,"walkLimitExceeded":false,"elevationLost":0.0,"elevationGained":0.0,"transfers":0,"legs":[{"startTime":1522702414000,"endTime":1522702788000,"departureDelay":0,"arrivalDelay":0,"realTime":false,"distance":477.387,"pathway":false,"mode":"WALK","route":"","agencyTimeZoneOffset":-14400000,"interlineWithPreviousLeg":false,"from":{"name":"Origin","lon":-71.05524699,"lat":48.408707,"departure":1522702414000,"orig":"","vertexType":"NORMAL"},"to":{"name":"Émile Girardin / Roitelets","stopId":"1:253","stopCode":"253","lon":-71.050677,"lat":48.406726,"arrival":1522702788000,"departure":1522702789000,"zoneId":"NA","stopIndex":17,"stopSequence":18,"vertexType":"TRANSIT"},"legGeometry":{"points":"exmfHn{tpL`A~@NNNa@HSj@_Br@qB`A_DNc@PUfAuAbAaA{@qEGo@AGAK","length":16},"rentedBike":false,"transitLeg":false,"duration":374.0,"steps":[{"distance":54.431,"relativeDirection":"DEPART","streetName":"Boulevard Talbot","absoluteDirection":"SOUTHWEST","stayOn":false,"area":false,"bogusName":false,"lon":-71.05479494405348,"lat":48.408512028291746,"elevation":[]},{"distance":312.858,"relativeDirection":"LEFT","streetName":"Rue des Champs-Élysées","absoluteDirection":"SOUTHEAST","stayOn":false,"area":false,"bogusName":false,"lon":-71.0551966,"lat":48.4081015,"elevation":[]},{"distance":110.09799999999998,"relativeDirection":"LEFT","streetName":"Rue Émile-Girardin","absoluteDirection":"NORTHEAST","stayOn":false,"area":false,"bogusName":false,"lon":-71.05202630000001,"lat":48.4062974,"elevation":[]}]},{"startTime":1522702789000,"endTime":1522703160000,"departureDelay":0,"arrivalDelay":0,"realTime":false,"distance":2249.0633945460104,"pathway":false,"mode":"BUS","route":"175","agencyName":"Société de Transport du Saguenay","agencyUrl":"http://ville.saguenay.ca/fr/services-aux-citoyens/transport-sts","agencyTimeZoneOffset":-14400000,"routeColor":"FF00FF","routeType":3,"routeId":"1:175","routeTextColor":"FFFFFF","interlineWithPreviousLeg":false,"tripBlockId":"8","headsign":"Costco","agencyId":"0","tripId":"1:217377","serviceDate":"20180402","from":{"name":"Émile Girardin / Roitelets","stopId":"1:253","stopCode":"253","lon":-71.050677,"lat":48.406726,"arrival":1522702788000,"departure":1522702789000,"zoneId":"NA","stopIndex":17,"stopSequence":18,"vertexType":"TRANSIT"},"to":{"name":"boul. Talbot (no. 1870)","stopId":"1:1556","stopCode":"1556","lon":-71.069429,"lat":48.3951,"arrival":1522703160000,"departure":1522703161000,"zoneId":"NA","stopIndex":24,"stopSequence":25,"vertexType":"TRANSIT"},"legGeometry":{"points":"_lmfHhatpLr@~Gx@]PEr@ObACn@FrBb@|@Ch@Kx@U~HsB^KZ|DJpII~Fa@rFUzBi@bDUxAm@nCcAlDM^RTfD`DjF`FjCrCrAvAbCfDjIfMdAzAfFpHd@n@nC`D","length":34},"routeShortName":"175","routeLongName":"Term. Chic / Costco","rentedBike":false,"transitLeg":true,"duration":371.0,"steps":[]},{"startTime":1522703161000,"endTime":1522703382000,"departureDelay":0,"arrivalDelay":0,"realTime":false,"distance":286.119,"pathway":false,"mode":"WALK","route":"","agencyTimeZoneOffset":-14400000,"interlineWithPreviousLeg":false,"from":{"name":"boul. Talbot (no. 1870)","stopId":"1:1556","stopCode":"1556","lon":-71.069429,"lat":48.3951,"arrival":1522703160000,"departure":1522703161000,"zoneId":"NA","stopIndex":24,"stopSequence":25,"vertexType":"TRANSIT"},"to":{"name":"Destination","lon":-71.071431,"lat":48.395327,"arrival":1522703382000,"orig":"","vertexType":"NORMAL"},"legGeometry":{"points":"adkfHjvwpL~DxENPuCrH","length":4},"rentedBike":false,"transitLeg":false,"duration":221.0,"steps":[{"distance":145.045,"relativeDirection":"DEPART","streetName":"Boulevard Talbot","absoluteDirection":"SOUTHWEST","stayOn":false,"area":false,"bogusName":false,"lon":-71.0693341574882,"lat":48.39505259726926,"elevation":[]},{"distance":141.074,"relativeDirection":"RIGHT","streetName":"Boulevard Barrette","absoluteDirection":"NORTHWEST","stayOn":false,"area":false,"bogusName":false,"lon":-71.0705155,"lat":48.394010400000006,"elevation":[]}]}],"tooSloped":false},{"duration":1068,"startTime":1522702525000,"endTime":1522703593000,"walkTime":684,"transitTime":382,"waitingTime":2,"walkDistance":899.0198421040745,"walkLimitExceeded":false,"elevationLost":0.0,"elevationGained":0.0,"transfers":0,"legs":[{"startTime":1522702525000,"endTime":1522703158000,"departureDelay":0,"arrivalDelay":0,"realTime":false,"distance":831.376,"pathway":false,"mode":"WALK","route":"","agencyTimeZoneOffset":-14400000,"interlineWithPreviousLeg":false,"from":{"name":"Origin","lon":-71.05524699,"lat":48.408707,"departure":1522702525000,"orig":"","vertexType":"NORMAL"},"to":{"name":"Saguenéens  / Bach","stopId":"1:575","stopCode":"575","lon":-71.061104,"lat":48.403689,"arrival":1522703158000,"departure":1522703159000,"zoneId":"NA","stopIndex":23,"stopSequence":24,"vertexType":"TRANSIT"},"legGeometry":{"points":"exmfHn{tpL`A~@NNjEzD`A~@pD|CJHtAlAtEjEjF~EPPyBvF","length":12},"rentedBike":false,"transitLeg":false,"duration":633.0,"steps":[{"distance":717.09,"relativeDirection":"DEPART","streetName":"Boulevard Talbot","absoluteDirection":"SOUTHWEST","stayOn":false,"area":false,"bogusName":false,"lon":-71.05479494405348,"lat":48.408512028291746,"elevation":[]},{"distance":114.286,"relativeDirection":"RIGHT","streetName":"Rue des Saguenéens","absoluteDirection":"NORTHWEST","stayOn":false,"area":false,"bogusName":false,"lon":-71.0599121,"lat":48.403030900000005,"elevation":[]}]},{"startTime":1522703159000,"endTime":1522703520000,"departureDelay":0,"arrivalDelay":0,"realTime":false,"distance":3436.0046196032185,"pathway":false,"mode":"BUS","route":"15","agencyName":"Société de Transport du Saguenay","agencyUrl":"http://ville.saguenay.ca/fr/services-aux-citoyens/transport-sts","agencyTimeZoneOffset":-14400000,"routeColor":"FF00FF","routeType":3,"routeId":"1:15","routeTextColor":"FFFFFF","interlineWithPreviousLeg":false,"tripBlockId":"31","headsign":"Talbot / Barrette","agencyId":"0","tripId":"1:218142","serviceDate":"20180402","from":{"name":"Saguenéens  / Bach","stopId":"1:575","stopCode":"575","lon":-71.061104,"lat":48.403689,"arrival":1522703158000,"departure":1522703159000,"zoneId":"NA","stopIndex":23,"stopSequence":24,"vertexType":"TRANSIT"},"to":{"name":"Roitelets / Sapins","stopId":"1:1543","stopCode":"1543","lon":-71.069553,"lat":48.393375,"arrival":1522703520000,"departure":1522703520000,"zoneId":"NA","stopIndex":35,"stopSequence":36,"vertexType":"TRANSIT"},"legGeometry":{"points":"ezlfHvbvpLtC{FnBoLbCaO?qLa@uJzF`ApF~@~@PzAgEeDcBf@qAWcKUqEx@Ef@ExDVjDxAFBrBvAfGjG@BjCzC~DxC@@zA~Cb@fCJlC?BsBre@?DWbOAn@?nEGnM@H\\hCzA~ELvAAlAi@jDo@nB","length":42},"routeShortName":"15","routeLongName":"Term. Chic / Costco","rentedBike":false,"transitLeg":true,"duration":361.0,"steps":[]},{"startTime":1522703520000,"endTime":1522703541000,"departureDelay":0,"arrivalDelay":0,"realTime":false,"distance":307.4152455172333,"pathway":false,"mode":"BUS","route":"14","agencyName":"Société de Transport du Saguenay","agencyUrl":"http://ville.saguenay.ca/fr/services-aux-citoyens/transport-sts","agencyTimeZoneOffset":-14400000,"routeColor":"C0C000","routeType":3,"routeId":"1:14","routeTextColor":"000000","interlineWithPreviousLeg":true,"tripBlockId":"31","headsign":"Terminus Chicoutimi","agencyId":"0","tripId":"1:218143","serviceDate":"20180402","from":{"name":"Roitelets / Sapins","stopId":"1:1513","stopCode":"1513","lon":-71.069396,"lat":48.393523,"arrival":1522703520000,"departure":1522703520000,"zoneId":"NA","stopIndex":0,"stopSequence":1,"vertexType":"TRANSIT"},"to":{"name":"Familiprix du boul. Barrette","stopId":"1:1931","stopCode":"1931","lon":-71.072721,"lat":48.395187,"arrival":1522703541000,"departure":1522703542000,"zoneId":"NA","stopIndex":1,"stopSequence":2,"vertexType":"TRANSIT"},"legGeometry":{"points":"azjfHfwwpLiEfLuBzF","length":3},"routeShortName":"14","routeLongName":"Coopérative","rentedBike":false,"transitLeg":true,"duration":21.0,"steps":[]},{"startTime":1522703542000,"endTime":1522703593000,"departureDelay":0,"arrivalDelay":0,"realTime":false,"distance":67.607,"pathway":false,"mode":"WALK","route":"","agencyTimeZoneOffset":-14400000,"interlineWithPreviousLeg":false,"from":{"name":"Familiprix du boul. Barrette","stopId":"1:1931","stopCode":"1931","lon":-71.072721,"lat":48.395187,"arrival":1522703541000,"departure":1522703542000,"zoneId":"NA","stopIndex":1,"stopSequence":2,"vertexType":"TRANSIT"},"to":{"name":"Destination","lon":-71.071431,"lat":48.395327,"arrival":1522703593000,"orig":"","vertexType":"NORMAL"},"legGeometry":{"points":"odkfH~kxpLfAsC","length":2},"rentedBike":false,"transitLeg":false,"duration":51.0,"steps":[{"distance":67.607,"relativeDirection":"DEPART","streetName":"Boulevard Barrette","absoluteDirection":"SOUTHEAST","stayOn":false,"area":false,"bogusName":false,"lon":-71.07279494685812,"lat":48.39512002794624,"elevation":[]}]}],"tooSloped":false}]},"debugOutput":{"precalculationTime":30,"pathCalculationTime":27,"pathTimes":[16,5,6],"renderingTime":1,"totalTime":58,"timedOut":false},"elevationMetadata":{"ellipsoidToGeoidDifference":-28.885904201182168,"geoidElevation":false}}