{"requestParameters":{"date":"2018/04/02","walkSpeed":"1.33","walkReluctance":"2.0","fromPlace":"48.418729,-71.053021","maxWalkDistance":"3000","waitReluctance":"1.0","carSpeed":"33","numItineraries":"3","waitAtBeginningFactor":"0.4","mode":"TRANSIT,WALK","ignoreRealtimeUpdates":"false","stairsReluctance":"2.0","toPlace":"48.411859,-71.119452","time":"18:15:00"},"plan":{"date":1522707300000,"from":{"name":"Origin","lon":-71.053021,"lat":48.418729,"orig":"","vertexType":"NORMAL"},"to":{"name":"Destination","lon":-71.119452,"lat":48.411859,"orig":"","vertexType":"NORMAL"},"itineraries":[{"duration":2510,"startTime":1522707981000,"endTime":1522710491000,"walkTime":596,"transitTime":1492,"waitingTime":422,"walkDistance":757.7840075138598,"walkLimitExceeded":false,"elevationLost":0.0,"elevationGained":0.0,"transfers":1,"legs":[{"startTime":1522707981000,"endTime":1522708259000,"departureDelay":0,"arrivalDelay":0,"realTime":false,"distance":348.519,"pathway":false,"mode":"WALK","route":"","agencyTimeZoneOffset":-14400000,"interlineWithPreviousLeg":false,"from":{"name":"Origin","lon":-71.053021,"lat":48.418729,"departure":1522707981000,"orig":"","vertexType":"NORMAL"},"to":{"name":"Terminus UQAC","stopId":"1:1670","stopCode":"1670","lon":-71.053369,"lat":48.420903,"arrival":1522708259000,"departure":1522708260000,"zoneId":"NA","stopIndex":29,"stopSequence":30,"vertexType":"TRANSIT"},"legGeometry":{"points":"mwofHbotpLwBuBCA_AaAq@XYz@Ur@e@vAg@vAUp@cAaA","length":11},"rentedBike":false,"transitLeg":false,"duration":278.0,"steps":[{"distance":281.082,"relativeDirection":"DEPART","streetName":"path","absoluteDirection":"NORTHEAST","stayOn":false,"area":false,"bogusName":false,"lon":-71.05281450938897,"lat":48.41863935175929,"elevation":[]},{"distance":67.437,"relativeDirection":"CONTINUE","streetName":"service road","absoluteDirection":"NORTHWEST","stayOn":false,"area":false,"bogusName":true,"lon":-71.05345460000001,"lat":48.4204518,"elevation":[]}]},{"startTime":1522708260000,"endTime":1522708680000,"departureDelay":0,"arrivalDelay":0,"realTime":false,"distance":1953.854830020236,"pathway":false,"mode":"BUS","route":"15","agencyName":"Société de Transport du Saguenay","agencyUrl":"http://ville.saguenay.ca/fr/services-aux-citoyens/transport-sts","agencyTimeZoneOffset":-14400000,"routeColor":"FF00FF","routeType":3,"routeId":"1:15","routeTextColor":"FFFFFF","interlineWithPreviousLeg":false,"tripBlockId":"30","headsign":"Terminus Chicoutimi","agencyId":"0","tripId":"1:218110","serviceDate":"20180402","from":{"name":"Terminus UQAC","stopId":"1:1670","stopCode":"1670","lon":-71.053369,"lat":48.420903,"arrival":1522708259000,"departure":1522708260000,"zoneId":"NA","stopIndex":29,"stopSequence":30,"vertexType":"TRANSIT"},"to":{"name":"Terminus Chicoutimi","stopId":"1:1289","stopCode":"1289","lon":-71.066163,"lat":48.428677,"arrival":1522708680000,"departure":1522709100000,"zoneId":"NA","stopIndex":39,"stopSequence":40,"vertexType":"TRANSIT"},"legGeometry":{"points":"sepfHprtpLy@w@L{@wAuA_B_B_EpLDh@NbBVvCIxBg@`Am@l@Sb@a@rAqDqDmEkE]a@kAqAU|@WnKG|DGxDOdPKvJU|F?XQlJC~@ChAIzEcCOaIi@VwL","length":33},"routeShortName":"15","routeLongName":"Term. Chic / Costco","rentedBike":false,"transitLeg":true,"duration":420.0,"steps":[]},{"startTime":1522709100000,"endTime":1522710172000,"departureDelay":0,"arrivalDelay":0,"realTime":false,"distance":6530.256272856047,"pathway":false,"mode":"BUS","route":"16","agencyName":"Société de Transport du Saguenay","agencyUrl":"http://ville.saguenay.ca/fr/services-aux-citoyens/transport-sts","agencyTimeZoneOffset":-14400000,"routeColor":"00FF00","routeType":3,"routeId":"1:16","routeTextColor":"000000","interlineWithPreviousLeg":false,"tripBlockId":"35","headsign":"Faubourg Sagamie","agencyId":"0","tripId":"1:218266","serviceDate":"20180402","from":{"name":"Terminus Chicoutimi","stopId":"1:1289","stopCode":"1289","lon":-71.066163,"lat":48.428677,"arrival":1522708680000,"departure":1522709100000,"zoneId":"NA","stopIndex":0,"stopSequence":1,"vertexType":"TRANSIT"},"to":{"name":"ch. de la Réserve / Martres","stopId":"1:107","stopCode":"107","lon":-71.1177,"lat":48.41109,"arrival":1522710172000,"departure":1522710173000,"zoneId":"NA","stopIndex":29,"stopSequence":30,"vertexType":"TRANSIT"},"legGeometry":{"points":"evqfHzcwpLg@?AXCnAO~GxDVhCP~M~@jDTOrHKdGE^E~BQnIMhGAxCD~@Df@DVDZd@zBBLDJJNHHHDJBn@HCxAHdAFX@DFj@@b@Ab@SvAe@p@{EnEEB{@w@m@o@aDeDIKCMCM?SL}A?A@WCYi@mDOu@Wm@EIMSSWaAcAuAcBq@f@URa@d@u@`A}BzCV`DX~C@HFT^v@bA|AZ^`Av@\\`@Zf@pAvCtD`JJTrAtCpAjC@BvA|CvA~Ci@zAqD`KyDrKyF|Og@tAr@r@h@^jA\\\\Nt@\\PHf@RVDXEROR[p@iBr@uBJQLIDCNEr@lERbBFzA@LFbFN`A^r@bB|AlC`BDBz@t@eAjD|@x@~AxAxB`BbAiDjCzB|ApAvAZbAo@|@cDf@gB~DbA~Cr@fNtNZ\\nCbDl@jBZrB\\`Dx@tIbB|KzBnOpB|GhA~D\\dF@hI","length":140},"routeShortName":"16","routeLongName":"Côte de la Réserve","rentedBike":false,"transitLeg":true,"duration":1072.0,"steps":[]},{"startTime":1522710173000,"endTime":1522710491000,"departureDelay":0,"arrivalDelay":0,"realTime":false,"distance":409.11199999999997,"pathway":false,"mode":"WALK","route":"","agencyTimeZoneOffset":-14400000,"interlineWithPreviousLeg":false,"from":{"name":"ch. de la Réserve / Martres","stopId":"1:107","stopCode":"107","lon":-71.1177,"lat":48.41109,"arrival":1522710172000,"departure":1522710173000,"zoneId":"NA","stopIndex":29,"stopSequence":30,"vertexType":"TRANSIT"},"to":{"name":"Destination","lon":-71.119452,"lat":48.411859,"arrival":1522710491000,"orig":"","vertexType":"NORMAL"},"legGeometry":{"points":"wgnfHtdaqL?pAsANk@KKKeAIcBWy@ZPbDDPJHdDb@","length":12},"rentedBike":false,"transitLeg":false,"duration":318.0,"steps":[{"distance":30.575,"relativeDirection":"DEPART","streetName":"Chemin de la Réserve","absoluteDirection":"WEST","stayOn":false,"area":false,"bogusName":false,"lon":-71.11770127339844,"lat":48.41100641934715,"elevation":[]},{"distance":208.61399999999998,"relativeDirection":"RIGHT","streetName":"Rue des Martres","absoluteDirection":"NORTH","stayOn":false,"area":false,"bogusName":false,"lon":-71.1181155,"lat":48.4110092,"elevation":[]},{"distance":169.923,"relativeDirection":"LEFT","streetName":"Rue des Carcajous","absoluteDirection":"WEST","stayOn":false,"area":false,"bogusName":false,"lon":-71.11804310000001,"lat":48.4128471,"elevation":[]}]}],"tooSloped":false},{"duration":4397,"startTime":1522707561000,"endTime":1522711958000,"walkTime":598,"transitTime":2597,"waitingTime":1202,"walkDistance":759.2300075138598,"walkLimitExceeded":false,"elevationLost":0.0,"elevationGained":0.0,"transfers":1,"legs":[{"startTime":1522707561000,"endTime":1522707839000,"departureDelay":0,"arrivalDelay":0,"realTime":false,"distance":348.519,"pathway":false,"mode":"WALK","route":"","agencyTimeZoneOffset":-14400000,"interlineWithPreviousLeg":false,"from":{"name":"Origin","lon":-71.053021,"lat":48.418729,"departure":1522707561000,"orig":"","vertexType":"NORMAL"},"to":{"name":"Terminus UQAC","stopId":"1:1670","stopCode":"1670","lon":-71.053369,"lat":48.420903,"arrival":1522707839000,"departure":1522707840000,"zoneId":"NA","stopIndex":11,"stopSequence":12,"vertexType":"TRANSIT"},"legGeometry":{"points":"mwofHbotpLwBuBCA_AaAq@XYz@Ur@e@vAg@vAUp@cAaA","length":11},"rentedBike":false,"transitLeg":false,"duration":278.0,"steps":[{"distance":281.082,"relativeDirection":"DEPART","streetName":"path","absoluteDirection":"NORTHEAST","stayOn":false,"area":false,"bogusName":false,"lon":-71.05281450938897,"lat":48.41863935175929,"elevation":[]},{"distance":67.437,"relativeDirection":"CONTINUE","streetName":"service road","absoluteDirection":"NORTHWEST","stayOn":false,"area":false,"bogusName":true,"lon":-71.05345460000001,"lat":48.4204518,"elevation":[]}]},{"startTime":1522707840000,"endTime":1522708920000,"departureDelay":0,"arrivalDelay":0,"realTime":false,"distance":5979.584739843219,"pathway":false,"mode":"BUS","route":"175","agencyName":"Société de Transport du Saguenay","agencyUrl":"http://ville.saguenay.ca/fr/services-aux-citoyens/transport-sts","agencyTimeZoneOffset":-14400000,"routeColor":"FF00FF","routeType":3,"routeId":"1:175","routeTextColor":"FFFFFF","interlineWithPreviousLeg":false,"tripBlockId":"8","headsign":"Costco","agencyId":"0","tripId":"1:217380","serviceDate":"20180402","from":{"name":"Terminus UQAC","stopId":"1:1670","stopCode":"1670","lon":-71.053369,"lat":48.420903,"arrival":1522707839000,"departure":1522707840000,"zoneId":"NA","stopIndex":11,"stopSequence":12,"vertexType":"TRANSIT"},"to":{"name":"COSTCO","stopId":"1:1710","stopCode":"1710","lon":-71.085767,"lat":48.382333,"arrival":1522708920000,"departure":1522709100000,"zoneId":"NA","stopIndex":30,"stopSequence":31,"vertexType":"TRANSIT"},"legGeometry":{"points":"sepfHtrtpL`A~@Xw@~D~DPxFZtA~ApE`N{LpFmEb@[ROl@[vDQXKfA[|@q@fAsBlEmMr@sBhCsKz@dAjB|@dM`GzCvAXrCr@~Gx@]PEr@ObACn@FrBb@|@Ch@Kx@U~HsB^KZ|DJpII~Fa@rFUzBi@bDUxAm@nCcAlDM^RTfD`DjF`FjCrCrAvAbCfDjIfMdAzAfFpHd@n@nC`DlXv[b@f@mCtHv@v@p@r@_@p@uAcBjDoJhAzApBrBrFvGjDdEbD|DZb@~DrEbDfDrA~ApLbNpG|GyCtHwBcC","length":79},"routeShortName":"175","routeLongName":"Term. Chic / Costco","rentedBike":false,"transitLeg":true,"duration":1080.0,"steps":[]},{"startTime":1522709100000,"endTime":1522709700000,"departureDelay":0,"arrivalDelay":0,"realTime":false,"distance":6545.867623869018,"pathway":false,"mode":"BUS","route":"2","agencyName":"Société de Transport du Saguenay","agencyUrl":"http://ville.saguenay.ca/fr/services-aux-citoyens/transport-sts","agencyTimeZoneOffset":-14400000,"routeColor":"FF0000","routeType":3,"routeId":"1:2","routeTextColor":"FFFFFF","interlineWithPreviousLeg":true,"tripBlockId":"8","headsign":"Terminus Jonquière","agencyId":"0","tripId":"1:217381","serviceDate":"20180402","from":{"name":"COSTCO","stopId":"1:1710","stopCode":"1710","lon":-71.085767,"lat":48.382333,"arrival":1522708920000,"departure":1522709100000,"zoneId":"NA","stopIndex":0,"stopSequence":1,"vertexType":"TRANSIT"},"to":{"name":"Faubourg Sagamie","stopId":"1:1129","stopCode":"1129","lon":-71.167414,"lat":48.402974,"arrival":1522709700000,"departure":1522710900000,"zoneId":"NA","stopIndex":9,"stopSequence":10,"vertexType":"TRANSIT"},"legGeometry":{"points":"wthfHn}zpLeLkMxCaIbPzPkL|[eB~GwBlIa@bXIbQO`^aBhTiBlNUfBiI~ZeHzQeFxMqDtKAJ}ApJM~EWhIb@`NFlB_@fOsBvK_DrH_G|HiSfXwExNyEzZoHll@}GpYuL`_@PPZ^lC|Bn@j@bB|A","length":38},"routeShortName":"2","routeLongName":"Chic/Jonq via Boul. Royaume","rentedBike":false,"transitLeg":true,"duration":600.0,"steps":[]},{"startTime":1522710900000,"endTime":1522711637000,"departureDelay":0,"arrivalDelay":0,"realTime":false,"distance":4407.667596454169,"pathway":false,"mode":"BUS","route":"16","agencyName":"Société de Transport du Saguenay","agencyUrl":"http://ville.saguenay.ca/fr/services-aux-citoyens/transport-sts","agencyTimeZoneOffset":-14400000,"routeColor":"00FF00","routeType":3,"routeId":"1:16","routeTextColor":"000000","interlineWithPreviousLeg":false,"tripBlockId":"35","headsign":"Terminus Chicoutimi","agencyId":"0","tripId":"1:218267","serviceDate":"20180402","from":{"name":"Faubourg Sagamie","stopId":"1:1129","stopCode":"1129","lon":-71.167414,"lat":48.402974,"arrival":1522709700000,"departure":1522710900000,"zoneId":"NA","stopIndex":0,"stopSequence":1,"vertexType":"TRANSIT"},"to":{"name":"ch. de la Réserve / Martres","stopId":"1:116","stopCode":"116","lon":-71.117683,"lat":48.410919,"arrival":1522711637000,"departure":1522711638000,"zoneId":"NA","stopIndex":18,"stopSequence":19,"vertexType":"TRANSIT"},"legGeometry":{"points":"sulfHn{jqLq@g@J]kIkHbAoDzB{HhBoGxGiTd@{A`ByIXyCZcDaB_@aBoBeGmH[_@m@iClA_AlAuEj@yBt@iDDq@Z}EpAkDlAiAv@i@zB}AeA}H\\sCNgApDyKeE}EoEgF`@gAl@gB}GoImCqFeD_H}DcEiJqJgEeGqAyGk@kEg@_EmD}NkB_IUoBmB{PAiA","length":49},"routeShortName":"16","routeLongName":"Côte de la Réserve","rentedBike":false,"transitLeg":true,"duration":737.0,"steps":[]},{"startTime":1522711638000,"endTime":1522711958000,"departureDelay":0,"arrivalDelay":0,"realTime":false,"distance":410.558,"pathway":false,"mode":"WALK","route":"","agencyTimeZoneOffset":-14400000,"interlineWithPreviousLeg":false,"from":{"name":"ch. de la Réserve / Martres","stopId":"1:116","stopCode":"116","lon":-71.117683,"lat":48.410919,"arrival":1522711637000,"departure":1522711638000,"zoneId":"NA","stopIndex":18,"stopSequence":19,"vertexType":"TRANSIT"},"to":{"name":"Destination","lon":-71.119452,"lat":48.411859,"arrival":1522711958000,"orig":"","vertexType":"NORMAL"},"legGeometry":{"points":"wgnfHpdaqL?B?pAsANk@KKKeAIcBWy@ZPbDDPJHdDb@","length":13},"rentedBike":false,"transitLeg":false,"duration":320.0,"steps":[{"distance":32.021,"relativeDirection":"DEPART","streetName":"Chemin de la Réserve","absoluteDirection":"WEST","stayOn":false,"area":false,"bogusName":false,"lon":-71.11768167013075,"lat":48.4110062877528,"elevation":[]},{"distance":208.61399999999998,"relativeDirection":"RIGHT","streetName":"Rue des Martres","absoluteDirection":"NORTH","stayOn":false,"area":false,"bogusName":false,"lon":-71.1181155,"lat":48.4110092,"elevation":[]},{"distance":169.923,"relativeDirection":"LEFT","streetName":"Rue des Carcajous","absoluteDirection":"WEST","stayOn":false,"area":false,"bogusName":false,"lon":-71.11804310000001,"lat":48.4128471,"elevation":[]}]}],"tooSloped":false},{"duration":2718,"startTime":1522711373000,"endTime":1522714091000,"walkTime":1785,"transitTime":931,"waitingTime":2,"walkDistance":2290.114225552932,"walkLimitExceeded":false,"elevationLost":0.0,"elevationGained":0.0,"transfers":0,"legs":[{"startTime":1522711373000,"endTime":1522712840000,"departureDelay":0,"arrivalDelay":0,"realTime":false,"distance":1880.662,"pathway":false,"mode":"WALK","route":"","agencyTimeZoneOffset":-14400000,"interlineWithPreviousLeg":false,"from":{"name":"Origin","lon":-71.053021,"lat":48.418729,"departure":1522711373000,"orig":"","vertexType":"NORMAL"},"to":{"name":"Sainte-Anne / Lévesque","stopId":"1:518","stopCode":"518","lon":-71.068972,"lat":48.424968,"arrival":1522712840000,"departure":1522712841000,"zoneId":"NA","stopIndex":2,"stopSequence":3,"vertexType":"TRANSIT"},"legGeometry":{"points":"mwofHbotpLwBuBY|@Sj@[x@d@`@XXD\\G`@w@zBTZJ`@AvBChAd@lBRz@^pAFNeE`Ew@t@y@nAm@fBc@nBId@StDIfEW`IElBAx@OfICtA?TM?qBCs@?O?}@EcAIw@EWnLExBm@Eg@ESAYCkCO[CC?","length":48},"rentedBike":false,"transitLeg":false,"duration":1467.0,"steps":[{"distance":152.13,"relativeDirection":"DEPART","streetName":"path","absoluteDirection":"NORTHEAST","stayOn":false,"area":false,"bogusName":false,"lon":-71.05281450938897,"lat":48.41863935175929,"elevation":[]},{"distance":122.724,"relativeDirection":"LEFT","streetName":"service road","absoluteDirection":"SOUTHWEST","stayOn":false,"area":false,"bogusName":true,"lon":-71.05304550000001,"lat":48.4196048,"elevation":[]},{"distance":74.519,"relativeDirection":"LEFT","streetName":"Chemin Saint Thomas","absoluteDirection":"SOUTHWEST","stayOn":false,"area":false,"bogusName":false,"lon":-71.05428950000001,"lat":48.4195775,"elevation":[]},{"distance":27.625,"relativeDirection":"CONTINUE","streetName":"Rue Newton","absoluteDirection":"WEST","stayOn":false,"area":false,"bogusName":false,"lon":-71.0551914,"lat":48.4194198,"elevation":[]},{"distance":112.815,"relativeDirection":"SLIGHTLY_LEFT","streetName":"Rue Newton","absoluteDirection":"SOUTHWEST","stayOn":true,"area":false,"bogusName":false,"lon":-71.05556510000001,"lat":48.4194344,"elevation":[]},{"distance":803.899,"relativeDirection":"RIGHT","streetName":"Boulevard de l'Université","absoluteDirection":"NORTHWEST","stayOn":false,"area":false,"bogusName":false,"lon":-71.0569061,"lat":48.4189492,"elevation":[]},{"distance":211.964,"relativeDirection":"RIGHT","streetName":"Rue Morin","absoluteDirection":"NORTH","stayOn":false,"area":false,"bogusName":false,"lon":-71.0663555,"lat":48.421379900000005,"elevation":[]},{"distance":205.195,"relativeDirection":"LEFT","streetName":"Rue Saint-Luc","absoluteDirection":"WEST","stayOn":false,"area":false,"bogusName":false,"lon":-71.0662247,"lat":48.423283100000006,"elevation":[]},{"distance":169.791,"relativeDirection":"RIGHT","streetName":"Rue Sainte-Anne","absoluteDirection":"NORTH","stayOn":false,"area":false,"bogusName":false,"lon":-71.0689957,"lat":48.423437500000006,"elevation":[]}]},{"startTime":1522712841000,"endTime":1522713772000,"departureDelay":0,"arrivalDelay":0,"realTime":false,"distance":6028.466518453541,"pathway":false,"mode":"BUS","route":"16","agencyName":"Société de Transport du Saguenay","agencyUrl":"http://ville.saguenay.ca/fr/services-aux-citoyens/transport-sts","agencyTimeZoneOffset":-14400000,"routeColor":"00FF00","routeType":3,"routeId":"1:16","routeTextColor":"000000","interlineWithPreviousLeg":false,"tripBlockId":"34","headsign":"Faubourg Sagamie","agencyId":"0","tripId":"1:218233","serviceDate":"20180402","from":{"name":"Sainte-Anne / Lévesque","stopId":"1:518","stopCode":"518","lon":-71.068972,"lat":48.424968,"arrival":1522712840000,"departure":1522712841000,"zoneId":"NA","stopIndex":2,"stopSequence":3,"vertexType":"TRANSIT"},"to":{"name":"ch. de la Réserve / Martres","stopId":"1:107","stopCode":"107","lon":-71.1177,"lat":48.41109,"arrival":1522713772000,"departure":1522713773000,"zoneId":"NA","stopIndex":29,"stopSequence":30,"vertexType":"TRANSIT"},"legGeometry":{"points":"__qfHnswpLjDTOrHKdGE^E~BQnIMhGAxCD~@Df@DVDZd@zBBLDJJNHHHDJBn@HCxAHdAFX@DFj@@b@Ab@SvAe@p@{EnEEB{@w@m@o@aDeDIKCMCM?SL}A?A@WCYi@mDOu@Wm@EIMSSWaAcAuAcBq@f@URa@d@u@`A}BzCV`DX~C@HFT^v@bA|AZ^`Av@\\`@Zf@pAvCtD`JJTrAtCpAjC@BvA|CvA~Ci@zAqD`KyDrKyF|Og@tAr@r@h@^jA\\\\Nt@\\PHf@RVDXEROR[p@iBr@uBJQLIDCNEr@lERbBFzA@LFbFN`A^r@bB|AlC`BDBz@t@eAjD|@x@~AxAxB`BbAiDjCzB|ApAvAZbAo@|@cDf@gB~DbA~Cr@fNtNZ\\nCbDl@jBZrB\\`Dx@tIbB|KzBnOpB|GhA~D\\dF@hI","length":133},"routeShortName":"16","routeLongName":"Côte de la Réserve","rentedBike":false,"transitLeg":true,"duration":931.0,"steps":[]},{"startTime":1522713773000,"endTime":1522714091000,"departureDelay":0,"arrivalDelay":0,"realTime":false,"distance":409.11199999999997,"pathway":false,"mode":"WALK","route":"","agencyTimeZoneOffset":-14400000,"interlineWithPreviousLeg":false,"from":{"name":"ch. de la Réserve / Martres","stopId":"1:107","stopCode":"107","lon":-71.1177,"lat":48.41109,"arrival":1522713772000,"departure":1522713773000,"zoneId":"NA","stopIndex":29,"stopSequence":30,"vertexType":"TRANSIT"},"to":{"name":"Destination","lon":-71.119452,"lat":48.411859,"arrival":1522714091000,"orig":"","vertexType":"NORMAL"},"legGeometry":{"points":"wgnfHtdaqL?pAsANk@KKKeAIcBWy@ZPbDDPJHdDb@","length":12},"rentedBike":false,"transitLeg":false,"duration":318.0,"steps":[{"distance":30.575,"relativeDirection":"DEPART","streetName":"Chemin de la Réserve","absoluteDirection":"WEST","stayOn":false,"area":false,"bogusName":false,"lon":-71.11770127339844,"lat":48.41100641934715,"elevation":[]},{"distance":208.61399999999998,"relativeDirection":"RIGHT","streetName":"Rue des Martres","absoluteDirection":"NORTH","stayOn":false,"area":false,"bogusName":false,"lon":-71.1181155,"lat":48.4110092,"elevation":[]},{"distance":169.923,"relativeDirection":"LEFT","streetName":"Rue des Carcajous","absoluteDirection":"WEST","stayOn":false,"area":false,"bogusName":false,"lon":-71.11804310000001,"lat":48.4128471,"elevation":[]}]}],"tooSloped":false}]},"debugOutput":{"precalculationTime":18,"pathCalculationTime":61,"pathTimes":[23,19,19],"renderingTime":1,"totalTime":80,"timedOut":false},"elevationMetadata":{"ellipsoidToGeoidDifference":-28.885904201182168,"geoidElevation":false}}