{"requestParameters":{"date":"2018/04/02","walkSpeed":"1.33","walkReluctance":"2.0","fromPlace":"48.412854,-71.116789","maxWalkDistance":"3000","waitReluctance":"1.0","carSpeed":"33","numItineraries":"3","waitAtBeginningFactor":"0.4","mode":"TRANSIT,WALK","ignoreRealtimeUpdates":"false","stairsReluctance":"2.0","toPlace":"48.382579,-71.08294499","time":"8:30:00"},"plan":{"date":1522672200000,"from":{"name":"Origin","lon":-71.116789,"lat":48.412854,"orig":"","vertexType":"NORMAL"},"to":{"name":"Destination","lon":-71.08294499,"lat":48.382579,"orig":"","vertexType":"NORMAL"},"itineraries":[{"duration":2520,"startTime":1522672352000,"endTime":1522674872000,"walkTime":1754,"transitTime":753,"waitingTime":13,"walkDistance":2287.6208796943474,"walkLimitExceeded":false,"elevationLost":0.0,"elevationGained":0.0,"transfers":1,"legs":[{"startTime":1522672352000,"endTime":1522673882000,"departureDelay":0,"arrivalDelay":0,"realTime":false,"distance":1999.921,"pathway":false,"mode":"WALK","route":"","agencyTimeZoneOffset":-14400000,"interlineWithPreviousLeg":false,"from":{"name":"Origin","lon":-71.116789,"lat":48.412854,"departure":1522672352000,"orig":"","vertexType":"NORMAL"},"to":{"name":"boul. Barrette / Estacade","stopId":"1:465","stopCode":"465","lon":-71.098983,"lat":48.40478,"arrival":1522673882000,"departure":1522673883000,"zoneId":"NA","stopIndex":15,"stopSequence":16,"vertexType":"TRANSIT"},"legGeometry":{"points":"_snfHf`aqLlAg@@qACkBm@gCtA}CFa@Vo@L]\\]XUc@kBq@uBo@eDYwBk@cECYIs@Ii@s@}FQoA|As@`FwBvDcBdF{BnGoCrCoBhCkD|AgDn@sCPPn@wCj@{BpAiE~@qC","length":35},"rentedBike":false,"transitLeg":false,"duration":1530.0,"steps":[{"distance":172.6,"relativeDirection":"DEPART","streetName":"Rue des Pékans","absoluteDirection":"SOUTH","stayOn":false,"area":false,"bogusName":false,"lon":-71.11699794695231,"lat":48.41280652482903,"elevation":[]},{"distance":160.687,"relativeDirection":"RIGHT","streetName":"Rue des Carcajous","absoluteDirection":"SOUTHEAST","stayOn":false,"area":false,"bogusName":false,"lon":-71.1151665,"lat":48.412654100000005,"elevation":[]},{"distance":461.409,"relativeDirection":"LEFT","streetName":"Chemin de la Réserve","absoluteDirection":"NORTHEAST","stayOn":false,"area":false,"bogusName":false,"lon":-71.11355780000001,"lat":48.411718500000006,"elevation":[]},{"distance":926.935,"relativeDirection":"RIGHT","streetName":"Boulevard Barrette","absoluteDirection":"SOUTH","stayOn":false,"area":false,"bogusName":false,"lon":-71.1077458,"lat":48.413203300000006,"elevation":[]},{"distance":12.048,"relativeDirection":"RIGHT","streetName":"path","absoluteDirection":"SOUTHWEST","stayOn":false,"area":false,"bogusName":true,"lon":-71.1020482,"lat":48.4060381,"elevation":[]},{"distance":266.242,"relativeDirection":"LEFT","streetName":"bike path","absoluteDirection":"SOUTHEAST","stayOn":true,"area":false,"bogusName":true,"lon":-71.1021327,"lat":48.4059454,"elevation":[]}]},{"startTime":1522673883000,"endTime":1522674416000,"departureDelay":0,"arrivalDelay":0,"realTime":false,"distance":5271.990291164261,"pathway":false,"mode":"BUS","route":"11","agencyName":"Société de Transport du Saguenay","agencyUrl":"http://ville.saguenay.ca/fr/services-aux-citoyens/transport-sts","agencyTimeZoneOffset":-14400000,"routeColor":"FF0000","routeType":3,"routeId":"1:11","routeTextColor":"FFFFFF","interlineWithPreviousLeg":false,"tripBlockId":"34","headsign":"Boul.Royaume/St-Pierre","agencyId":"0","tripId":"1:218211","serviceDate":"20180402","from":{"name":"boul. Barrette / Estacade","stopId":"1:465","stopCode":"465","lon":-71.098983,"lat":48.40478,"arrival":1522673882000,"departure":1522673883000,"zoneId":"NA","stopIndex":15,"stopSequence":16,"vertexType":"TRANSIT"},"to":{"name":"boul. Royaume (no. 1409)","stopId":"1:264","stopCode":"264","lon":-71.118186,"lat":48.388875,"arrival":1522674416000,"departure":1522674416000,"zoneId":"NA","stopIndex":28,"stopSequence":29,"vertexType":"TRANSIT"},"legGeometry":{"points":"i`mfHdp}pL|CyI~IrJtAzAmKrWsE`LzJjL|P}d@Ri@hCpEpBdCHJzPrR_AhC}Ppd@KZkDxJq@`CyGfZOl@fNzIJ@HAHIDI@CnNco@vE}Sh@kCb@oCXyBTuAFSBMl@iBlHjJxEtGPRbBdBp@r@xDpDrL`LlAtAiBdFOd@oCrH","length":46},"routeShortName":"11","routeLongName":"Chic/Faubourg via St-Paul","rentedBike":false,"transitLeg":true,"duration":533.0,"steps":[]},{"startTime":1522674416000,"endTime":1522674429000,"departureDelay":0,"arrivalDelay":0,"realTime":false,"distance":13.493,"pathway":false,"mode":"WALK","route":"","agencyTimeZoneOffset":-14400000,"interlineWithPreviousLeg":false,"from":{"name":"boul. Royaume (no. 1409)","stopId":"1:264","stopCode":"264","lon":-71.118186,"lat":48.388875,"arrival":1522674416000,"departure":1522674416000,"zoneId":"NA","stopIndex":28,"stopSequence":29,"vertexType":"TRANSIT"},"to":{"name":"boul. Royaume (no. 1460)","stopId":"1:267","stopCode":"267","lon":-71.1185,"lat":48.388791,"arrival":1522674429000,"departure":1522674440000,"zoneId":"NA","stopIndex":23,"stopSequence":24,"vertexType":"TRANSIT"},"legGeometry":{"points":"a}ifHbhaqLMZ","length":2},"rentedBike":false,"transitLeg":false,"duration":13.0,"steps":[{"distance":13.493,"relativeDirection":"DEPART","streetName":"Boulevard du Royaume Ouest","absoluteDirection":"NORTHWEST","stayOn":false,"area":false,"bogusName":false,"lon":-71.11825025873861,"lat":48.3888149249102,"elevation":[]}]},{"startTime":1522674440000,"endTime":1522674660000,"departureDelay":0,"arrivalDelay":0,"realTime":false,"distance":2570.2679685702965,"pathway":false,"mode":"BUS","route":"2","agencyName":"Société de Transport du Saguenay","agencyUrl":"http://ville.saguenay.ca/fr/services-aux-citoyens/transport-sts","agencyTimeZoneOffset":-14400000,"routeColor":"FF0000","routeType":3,"routeId":"1:2","routeTextColor":"FFFFFF","interlineWithPreviousLeg":false,"tripBlockId":"11","headsign":"Costco","agencyId":"0","tripId":"1:217466","serviceDate":"20180402","from":{"name":"boul. Royaume (no. 1460)","stopId":"1:267","stopCode":"267","lon":-71.1185,"lat":48.388791,"arrival":1522674429000,"departure":1522674440000,"zoneId":"NA","stopIndex":23,"stopSequence":24,"vertexType":"TRANSIT"},"to":{"name":"COSTCO","stopId":"1:1710","stopCode":"1710","lon":-71.085767,"lat":48.382333,"arrival":1522674660000,"departure":1522674661000,"zoneId":"NA","stopIndex":28,"stopSequence":29,"vertexType":"TRANSIT"},"legGeometry":{"points":"e}ifHjiaqL|BaGbDgIz@{B|G}WVyBfB_OrBsTDa]?sD`@uc@tBcJz@yDtI}UaCcC","length":15},"routeShortName":"2","routeLongName":"Chic/Jonq via Boul. Royaume","rentedBike":false,"transitLeg":true,"duration":220.0,"steps":[]},{"startTime":1522674661000,"endTime":1522674872000,"departureDelay":0,"arrivalDelay":0,"realTime":false,"distance":274.055,"pathway":false,"mode":"WALK","route":"","agencyTimeZoneOffset":-14400000,"interlineWithPreviousLeg":false,"from":{"name":"COSTCO","stopId":"1:1710","stopCode":"1710","lon":-71.085767,"lat":48.382333,"arrival":1522674660000,"departure":1522674661000,"zoneId":"NA","stopIndex":28,"stopSequence":29,"vertexType":"TRANSIT"},"to":{"name":"Destination","lon":-71.08294499,"lat":48.382579,"arrival":1522674872000,"orig":"","vertexType":"NORMAL"},"legGeometry":{"points":"uthfHh}zpLwBgCeAiAtBaFRq@Ee@","length":6},"rentedBike":false,"transitLeg":false,"duration":211.0,"steps":[{"distance":274.055,"relativeDirection":"DEPART","streetName":"service road","absoluteDirection":"NORTHEAST","stayOn":false,"area":false,"bogusName":true,"lon":-71.08580460382532,"lat":48.38235152300571,"elevation":[]}]}],"tooSloped":false},{"duration":2763,"startTime":1522673909000,"endTime":1522676672000,"walkTime":473,"transitTime":1328,"waitingTime":962,"walkDistance":607.9442255609985,"walkLimitExceeded":false,"elevationLost":0.0,"elevationGained":0.0,"transfers":1,"legs":[{"startTime":1522673909000,"endTime":1522674171000,"departureDelay":0,"arrivalDelay":0,"realTime":false,"distance":333.799,"pathway":false,"mode":"WALK","route":"","agencyTimeZoneOffset":-14400000,"interlineWithPreviousLeg":false,"from":{"name":"Origin","lon":-71.116789,"lat":48.412854,"departure":1522673909000,"orig":"","vertexType":"NORMAL"},"to":{"name":"ch. de la Réserve / Martres","stopId":"1:107","stopCode":"107","lon":-71.1177,"lat":48.41109,"arrival":1522674171000,"departure":1522674172000,"zoneId":"NA","stopIndex":29,"stopSequence":30,"vertexType":"TRANSIT"},"legGeometry":{"points":"_snfHf`aqLe@RBLRlCD`@x@[bBVdAHJJj@JrAO?qA","length":12},"rentedBike":false,"transitLeg":false,"duration":262.0,"steps":[{"distance":22.55,"relativeDirection":"DEPART","streetName":"Rue des Pékans","absoluteDirection":"NORTH","stayOn":false,"area":false,"bogusName":false,"lon":-71.11699794695231,"lat":48.41280652482903,"elevation":[]},{"distance":72.06,"relativeDirection":"LEFT","streetName":"Rue des Carcajous","absoluteDirection":"WEST","stayOn":false,"area":false,"bogusName":false,"lon":-71.1170969,"lat":48.412998400000006,"elevation":[]},{"distance":208.61399999999998,"relativeDirection":"LEFT","streetName":"Rue des Martres","absoluteDirection":"SOUTH","stayOn":false,"area":false,"bogusName":false,"lon":-71.11804310000001,"lat":48.4128471,"elevation":[]},{"distance":30.575,"relativeDirection":"LEFT","streetName":"Chemin de la Réserve","absoluteDirection":"EAST","stayOn":false,"area":false,"bogusName":false,"lon":-71.1181155,"lat":48.4110092,"elevation":[]}]},{"startTime":1522674172000,"endTime":1522674900000,"departureDelay":0,"arrivalDelay":0,"realTime":false,"distance":4413.241308656674,"pathway":false,"mode":"BUS","route":"16","agencyName":"Société de Transport du Saguenay","agencyUrl":"http://ville.saguenay.ca/fr/services-aux-citoyens/transport-sts","agencyTimeZoneOffset":-14400000,"routeColor":"00FF00","routeType":3,"routeId":"1:16","routeTextColor":"000000","interlineWithPreviousLeg":false,"tripBlockId":"35","headsign":"Faubourg Sagamie","agencyId":"0","tripId":"1:218246","serviceDate":"20180402","from":{"name":"ch. de la Réserve / Martres","stopId":"1:107","stopCode":"107","lon":-71.1177,"lat":48.41109,"arrival":1522674171000,"departure":1522674172000,"zoneId":"NA","stopIndex":29,"stopSequence":30,"vertexType":"TRANSIT"},"to":{"name":"Faubourg Sagamie","stopId":"1:1129","stopCode":"1129","lon":-71.167414,"lat":48.402974,"arrival":1522674900000,"departure":1522675860000,"zoneId":"NA","stopIndex":47,"stopSequence":48,"vertexType":"TRANSIT"},"legGeometry":{"points":"ygnfHrdaqL?pApBnPVrB`BfH|C|M~AxJvA`JpDnEjDzDlF~FpD|DfChF~CpGnE~FpApAg@nAs@jBvEhFlE`FuDrKQnAS~ABdCv@xEuBzAuAbAgAhA_AvCSlCQ`Cs@dEe@|AwAzEy@r@f@zCpAzAnGfH^b@zAh@QjBa@bEiCtLETaI~WwDfMeAjD|JfJ","length":48},"routeShortName":"16","routeLongName":"Côte de la Réserve","rentedBike":false,"transitLeg":true,"duration":728.0,"steps":[]},{"startTime":1522675860000,"endTime":1522676460000,"departureDelay":0,"arrivalDelay":0,"realTime":false,"distance":6616.846141464566,"pathway":false,"mode":"BUS","route":"2","agencyName":"Société de Transport du Saguenay","agencyUrl":"http://ville.saguenay.ca/fr/services-aux-citoyens/transport-sts","agencyTimeZoneOffset":-14400000,"routeColor":"FF0000","routeType":3,"routeId":"1:2","routeTextColor":"FFFFFF","interlineWithPreviousLeg":false,"tripBlockId":"10","headsign":"Costco","agencyId":"0","tripId":"1:217432","serviceDate":"20180402","from":{"name":"Faubourg Sagamie","stopId":"1:1129","stopCode":"1129","lon":-71.167414,"lat":48.402974,"arrival":1522674900000,"departure":1522675860000,"zoneId":"NA","stopIndex":17,"stopSequence":18,"vertexType":"TRANSIT"},"to":{"name":"COSTCO","stopId":"1:1710","stopCode":"1710","lon":-71.085767,"lat":48.382333,"arrival":1522676460000,"departure":1522676461000,"zoneId":"NA","stopIndex":28,"stopSequence":29,"vertexType":"TRANSIT"},"legGeometry":{"points":"mulfHb{jqLtDjDADGJKFK@KCkF{EGMCS@KHWo@k@mC}BIKrM{c@zFiV|Gum@fCsObAiG`DaKpBuEdF_H|JwMjHsJ~CgKbAmIZaLD}AcAqPXuHPyEdBcJPcAxCqJtEsL|BaGbDgIz@{B|G}WVyBfB_OrBsTDa]?sD`@uc@tBcJz@yDtI}UaCcC","length":50},"routeShortName":"2","routeLongName":"Chic/Jonq via Boul. Royaume","rentedBike":false,"transitLeg":true,"duration":600.0,"steps":[]},{"startTime":1522676461000,"endTime":1522676672000,"departureDelay":0,"arrivalDelay":0,"realTime":false,"distance":274.055,"pathway":false,"mode":"WALK","route":"","agencyTimeZoneOffset":-14400000,"interlineWithPreviousLeg":false,"from":{"name":"COSTCO","stopId":"1:1710","stopCode":"1710","lon":-71.085767,"lat":48.382333,"arrival":1522676460000,"departure":1522676461000,"zoneId":"NA","stopIndex":28,"stopSequence":29,"vertexType":"TRANSIT"},"to":{"name":"Destination","lon":-71.08294499,"lat":48.382579,"arrival":1522676672000,"orig":"","vertexType":"NORMAL"},"legGeometry":{"points":"uthfHh}zpLwBgCeAiAtBaFRq@Ee@","length":6},"rentedBike":false,"transitLeg":false,"duration":211.0,"steps":[{"distance":274.055,"relativeDirection":"DEPART","streetName":"service road","absoluteDirection":"NORTHEAST","stayOn":false,"area":false,"bogusName":true,"lon":-71.08580460382532,"lat":48.38235152300571,"elevation":[]}]}],"tooSloped":false},{"duration":3125,"startTime":1522673607000,"endTime":1522676732000,"walkTime":481,"transitTime":2402,"waitingTime":242,"walkDistance":620.2330827040861,"walkLimitExceeded":false,"elevationLost":0.0,"elevationGained":0.0,"transfers":1,"legs":[{"startTime":1522673607000,"endTime":1522673877000,"departureDelay":0,"arrivalDelay":0,"realTime":false,"distance":346.095,"pathway":false,"mode":"WALK","route":"","agencyTimeZoneOffset":-14400000,"interlineWithPreviousLeg":false,"from":{"name":"Origin","lon":-71.116789,"lat":48.412854,"departure":1522673607000,"orig":"","vertexType":"NORMAL"},"to":{"name":"ch. de la Réserve / Carcajous","stopId":"1:642","stopCode":"642","lon":-71.11365,"lat":48.411602,"arrival":1522673877000,"departure":1522673878000,"zoneId":"NA","stopIndex":19,"stopSequence":20,"vertexType":"TRANSIT"},"legGeometry":{"points":"_snfHf`aqLlAg@@qACkBm@gCtA}CFa@Vo@L]\\]XUJ\\","length":12},"rentedBike":false,"transitLeg":false,"duration":270.0,"steps":[{"distance":172.6,"relativeDirection":"DEPART","streetName":"Rue des Pékans","absoluteDirection":"SOUTH","stayOn":false,"area":false,"bogusName":false,"lon":-71.11699794695231,"lat":48.41280652482903,"elevation":[]},{"distance":160.687,"relativeDirection":"RIGHT","streetName":"Rue des Carcajous","absoluteDirection":"SOUTHEAST","stayOn":false,"area":false,"bogusName":false,"lon":-71.1151665,"lat":48.412654100000005,"elevation":[]},{"distance":12.808,"relativeDirection":"RIGHT","streetName":"Chemin de la Réserve","absoluteDirection":"SOUTHWEST","stayOn":false,"area":false,"bogusName":false,"lon":-71.11355780000001,"lat":48.411718500000006,"elevation":[]}]},{"startTime":1522673878000,"endTime":1522674660000,"departureDelay":0,"arrivalDelay":0,"realTime":false,"distance":4596.022495696004,"pathway":false,"mode":"BUS","route":"16","agencyName":"Société de Transport du Saguenay","agencyUrl":"http://ville.saguenay.ca/fr/services-aux-citoyens/transport-sts","agencyTimeZoneOffset":-14400000,"routeColor":"00FF00","routeType":3,"routeId":"1:16","routeTextColor":"000000","interlineWithPreviousLeg":false,"tripBlockId":"36","headsign":"Terminus Chicoutimi","agencyId":"0","tripId":"1:218281","serviceDate":"20180402","from":{"name":"ch. de la Réserve / Carcajous","stopId":"1:642","stopCode":"642","lon":-71.11365,"lat":48.411602,"arrival":1522673877000,"departure":1522673878000,"zoneId":"NA","stopIndex":19,"stopSequence":20,"vertexType":"TRANSIT"},"to":{"name":"Terminus Chicoutimi","stopId":"1:1289","stopCode":"1289","lon":-71.066163,"lat":48.428677,"arrival":1522674660000,"departure":1522674900000,"zoneId":"NA","stopIndex":35,"stopSequence":36,"vertexType":"TRANSIT"},"legGeometry":{"points":"yknfHtk`qLM_@i@kCs@{B_CqPy@{FQmAoAwK[aEeByD}BkCmC_DaDqDyDcDkD]_Bc@aAY_IsGYo@}@mBqAkKg@aE@wFS}AiAaIgA{B}CiGiBeFqBsFQ_@wA_DyAaD_AoBQ[sAuC{@sBeCcGqAwC[g@]a@aAw@[_@cA}A_@w@GU[iDWaDzByCv@cA`@e@TSp@g@nAo@nBm@ZSf@c@PMb@[b@_@b@e@PYP]N_@La@P{@NcB@IBcAG_A{@sEEg@oAP}@DiBDFeBMa@iBCq@FmBPFcEDoBNiHyDWN_HBoA@Y@m@","length":87},"routeShortName":"16","routeLongName":"Côte de la Réserve","rentedBike":false,"transitLeg":true,"duration":782.0,"steps":[]},{"startTime":1522674900000,"endTime":1522676520000,"departureDelay":0,"arrivalDelay":0,"realTime":false,"distance":8366.485513672267,"pathway":false,"mode":"BUS","route":"175","agencyName":"Société de Transport du Saguenay","agencyUrl":"http://ville.saguenay.ca/fr/services-aux-citoyens/transport-sts","agencyTimeZoneOffset":-14400000,"routeColor":"FF00FF","routeType":3,"routeId":"1:175","routeTextColor":"FFFFFF","interlineWithPreviousLeg":false,"tripBlockId":"8","headsign":"Costco","agencyId":"0","tripId":"1:217362","serviceDate":"20180402","from":{"name":"Terminus Chicoutimi","stopId":"1:1289","stopCode":"1289","lon":-71.066163,"lat":48.428677,"arrival":1522674660000,"departure":1522674900000,"zoneId":"NA","stopIndex":0,"stopSequence":1,"vertexType":"TRANSIT"},"to":{"name":"COSTCO","stopId":"1:1710","stopCode":"1710","lon":-71.085767,"lat":48.382333,"arrival":1522676520000,"departure":1522676521000,"zoneId":"NA","stopIndex":30,"stopSequence":31,"vertexType":"TRANSIT"},"legGeometry":{"points":"kvqfH~awpL~CgBbAqa@FwCBkAOsHAg@bAYUwMKoE@mB@kJ@iFbEf@xEj@iCtYp@r@z@`ABBvHtHXRx@l@VwAvAgB\\qBIuAC]g@yEzDuLbBbBvAxAMx@|@v@`A~@Xw@~D~DPxFZtA~ApE`N{LpFmEb@[ROl@[vDQXKfA[|@q@fAsBlEmMr@sBhCsKz@dAjB|@dM`GzCvAXrCr@~Gx@]PEr@ObACn@FrBb@|@Ch@Kx@U~HsB^KZ|DJpII~Fa@rFUzBi@bDUxAm@nCcAlDM^RTfD`DjF`FjCrCrAvAbCfDjIfMdAzAfFpHd@n@nC`DlXv[b@f@mCtHv@v@p@r@_@p@uAcBjDoJhAzApBrBrFvGjDdEbD|DZb@~DrEbDfDrA~ApLbNpG|GyCtHwBcC","length":111},"routeShortName":"175","routeLongName":"Term. Chic / Costco","rentedBike":false,"transitLeg":true,"duration":1620.0,"steps":[]},{"startTime":1522676521000,"endTime":1522676732000,"departureDelay":0,"arrivalDelay":0,"realTime":false,"distance":274.055,"pathway":false,"mode":"WALK","route":"","agencyTimeZoneOffset":-14400000,"interlineWithPreviousLeg":false,"from":{"name":"COSTCO","stopId":"1:1710","stopCode":"1710","lon":-71.085767,"lat":48.382333,"arrival":1522676520000,"departure":1522676521000,"zoneId":"NA","stopIndex":30,"stopSequence":31,"vertexType":"TRANSIT"},"to":{"name":"Destination","lon":-71.08294499,"lat":48.382579,"arrival":1522676732000,"orig":"","vertexType":"NORMAL"},"legGeometry":{"points":"uthfHh}zpLwBgCeAiAtBaFRq@Ee@","length":6},"rentedBike":false,"transitLeg":false,"duration":211.0,"steps":[{"distance":274.055,"relativeDirection":"DEPART","streetName":"service road","absoluteDirection":"NORTHEAST","stayOn":false,"area":false,"bogusName":true,"lon":-71.08580460382532,"lat":48.38235152300571,"elevation":[]}]}],"tooSloped":false}]},"debugOutput":{"precalculationTime":3,"pathCalculationTime":23,"pathTimes":[16,4,3],"renderingTime":2,"totalTime":28,"timedOut":false},"elevationMetadata":{"ellipsoidToGeoidDifference":-28.885904201182168,"geoidElevation":false}}