{"requestParameters":{"date":"2018/04/02","walkSpeed":"1.33","walkReluctance":"2.0","fromPlace":"48.425729,-71.093354","maxWalkDistance":"3000","waitReluctance":"1.0","carSpeed":"33","numItineraries":"3","waitAtBeginningFactor":"0.4","mode":"TRANSIT,WALK","ignoreRealtimeUpdates":"false","stairsReluctance":"2.0","toPlace":"48.41457,-71.107872","time":"15:15:00"},"plan":{"date":1522696500000,"from":{"name":"Origin","lon":-71.093354,"lat":48.425729,"orig":"","vertexType":"NORMAL"},"to":{"name":"Destination","lon":-71.107872,"lat":48.41457,"orig":"","vertexType":"NORMAL"},"itineraries":[{"duration":824,"startTime":1522696950000,"endTime":1522697774000,"walkTime":415,"transitTime":407,"waitingTime":2,"walkDistance":528.3165789431227,"walkLimitExceeded":false,"elevationLost":0.0,"elevationGained":0.0,"transfers":0,"legs":[{"startTime":1522696950000,"endTime":1522697103000,"departureDelay":0,"arrivalDelay":0,"realTime":false,"distance":187.81699999999998,"pathway":false,"mode":"WALK","route":"","agencyTimeZoneOffset":-14400000,"interlineWithPreviousLeg":false,"from":{"name":"Origin","lon":-71.093354,"lat":48.425729,"departure":1522696950000,"orig":"","vertexType":"NORMAL"},"to":{"name":"Dequen / Clairons","stopId":"1:603","stopCode":"603","lon":-71.091582,"lat":48.42656,"arrival":1522697103000,"departure":1522697104000,"zoneId":"NA","stopIndex":17,"stopSequence":18,"vertexType":"TRANSIT"},"legGeometry":{"points":"ycqfHll|pL@C?]KSoAwAVy@?i@G[kAsACJ","length":10},"rentedBike":false,"transitLeg":false,"duration":153.0,"steps":[{"distance":78.201,"relativeDirection":"DEPART","streetName":"Rue Casgrain","absoluteDirection":"EAST","stayOn":false,"area":false,"bogusName":false,"lon":-71.09334704730794,"lat":48.425735500282045,"elevation":[]},{"distance":104.386,"relativeDirection":"RIGHT","streetName":"Rue des Clairons","absoluteDirection":"SOUTHEAST","stayOn":false,"area":false,"bogusName":false,"lon":-71.0926338,"lat":48.426188800000006,"elevation":[]},{"distance":5.23,"relativeDirection":"LEFT","streetName":"Rue De Quen","absoluteDirection":"NORTHWEST","stayOn":false,"area":false,"bogusName":false,"lon":-71.0915777,"lat":48.426480500000004,"elevation":[]}]},{"startTime":1522697104000,"endTime":1522697511000,"departureDelay":0,"arrivalDelay":0,"realTime":false,"distance":2598.2175800248183,"pathway":false,"mode":"BUS","route":"16","agencyName":"Société de Transport du Saguenay","agencyUrl":"http://ville.saguenay.ca/fr/services-aux-citoyens/transport-sts","agencyTimeZoneOffset":-14400000,"routeColor":"00FF00","routeType":3,"routeId":"1:16","routeTextColor":"000000","interlineWithPreviousLeg":false,"tripBlockId":"37","headsign":"Faubourg Sagamie","agencyId":"0","tripId":"1:218320","serviceDate":"20180402","from":{"name":"Dequen / Clairons","stopId":"1:603","stopCode":"603","lon":-71.091582,"lat":48.42656,"arrival":1522697103000,"departure":1522697104000,"zoneId":"NA","stopIndex":17,"stopSequence":18,"vertexType":"TRANSIT"},"to":{"name":"Sentier Panoramique","stopId":"1:466","stopCode":"466","lon":-71.109918,"lat":48.412835,"arrival":1522697511000,"departure":1522697512000,"zoneId":"NA","stopIndex":27,"stopSequence":28,"vertexType":"TRANSIT"},"legGeometry":{"points":"qhqfHxa|pLyF|Og@tAr@r@h@^jA\\\\Nt@\\PHf@RVDXEROR[p@iBr@uBJQLIDCNEr@lERbBFzA@LFbFN`A^r@bB|AlC`BDBz@t@eAjD|@x@~AxAxB`BbAiDjCzB|ApAvAZbAo@|@cDf@gB~DbA~Cr@fNtNZ\\nCbDl@jBZrB\\`Dx@tIbB|K","length":52},"routeShortName":"16","routeLongName":"Côte de la Réserve","rentedBike":false,"transitLeg":true,"duration":407.0,"steps":[]},{"startTime":1522697512000,"endTime":1522697774000,"departureDelay":0,"arrivalDelay":0,"realTime":false,"distance":340.368,"pathway":false,"mode":"WALK","route":"","agencyTimeZoneOffset":-14400000,"interlineWithPreviousLeg":false,"from":{"name":"Sentier Panoramique","stopId":"1:466","stopCode":"466","lon":-71.109918,"lat":48.412835,"arrival":1522697511000,"departure":1522697512000,"zoneId":"NA","stopIndex":27,"stopSequence":28,"vertexType":"TRANSIT"},"to":{"name":"Destination","lon":-71.107872,"lat":48.41457,"arrival":1522697774000,"orig":"","vertexType":"NORMAL"},"legGeometry":{"points":"urnfHxs_qLIs@Ii@s@}FQoA[Fu@AUD}@`@O?GESu@IIQ?g@d@","length":15},"rentedBike":false,"transitLeg":false,"duration":262.0,"steps":[{"distance":165.518,"relativeDirection":"DEPART","streetName":"Chemin de la Réserve","absoluteDirection":"EAST","stayOn":false,"area":false,"bogusName":false,"lon":-71.10988596599562,"lat":48.412758944454424,"elevation":[]},{"distance":174.85,"relativeDirection":"LEFT","streetName":"Rue Jeanne Mance","absoluteDirection":"NORTH","stayOn":false,"area":false,"bogusName":false,"lon":-71.1077458,"lat":48.413203300000006,"elevation":[]}]}],"tooSloped":false},{"duration":824,"startTime":1522698750000,"endTime":1522699574000,"walkTime":415,"transitTime":407,"waitingTime":2,"walkDistance":528.3165789431227,"walkLimitExceeded":false,"elevationLost":0.0,"elevationGained":0.0,"transfers":0,"legs":[{"startTime":1522698750000,"endTime":1522698903000,"departureDelay":0,"arrivalDelay":0,"realTime":false,"distance":187.81699999999998,"pathway":false,"mode":"WALK","route":"","agencyTimeZoneOffset":-14400000,"interlineWithPreviousLeg":false,"from":{"name":"Origin","lon":-71.093354,"lat":48.425729,"departure":1522698750000,"orig":"","vertexType":"NORMAL"},"to":{"name":"Dequen / Clairons","stopId":"1:603","stopCode":"603","lon":-71.091582,"lat":48.42656,"arrival":1522698903000,"departure":1522698904000,"zoneId":"NA","stopIndex":17,"stopSequence":18,"vertexType":"TRANSIT"},"legGeometry":{"points":"ycqfHll|pL@C?]KSoAwAVy@?i@G[kAsACJ","length":10},"rentedBike":false,"transitLeg":false,"duration":153.0,"steps":[{"distance":78.201,"relativeDirection":"DEPART","streetName":"Rue Casgrain","absoluteDirection":"EAST","stayOn":false,"area":false,"bogusName":false,"lon":-71.09334704730794,"lat":48.425735500282045,"elevation":[]},{"distance":104.386,"relativeDirection":"RIGHT","streetName":"Rue des Clairons","absoluteDirection":"SOUTHEAST","stayOn":false,"area":false,"bogusName":false,"lon":-71.0926338,"lat":48.426188800000006,"elevation":[]},{"distance":5.23,"relativeDirection":"LEFT","streetName":"Rue De Quen","absoluteDirection":"NORTHWEST","stayOn":false,"area":false,"bogusName":false,"lon":-71.0915777,"lat":48.426480500000004,"elevation":[]}]},{"startTime":1522698904000,"endTime":1522699311000,"departureDelay":0,"arrivalDelay":0,"realTime":false,"distance":2598.2175800248183,"pathway":false,"mode":"BUS","route":"16","agencyName":"Société de Transport du Saguenay","agencyUrl":"http://ville.saguenay.ca/fr/services-aux-citoyens/transport-sts","agencyTimeZoneOffset":-14400000,"routeColor":"00FF00","routeType":3,"routeId":"1:16","routeTextColor":"000000","interlineWithPreviousLeg":false,"tripBlockId":"34","headsign":"Faubourg Sagamie","agencyId":"0","tripId":"1:218225","serviceDate":"20180402","from":{"name":"Dequen / Clairons","stopId":"1:603","stopCode":"603","lon":-71.091582,"lat":48.42656,"arrival":1522698903000,"departure":1522698904000,"zoneId":"NA","stopIndex":17,"stopSequence":18,"vertexType":"TRANSIT"},"to":{"name":"Sentier Panoramique","stopId":"1:466","stopCode":"466","lon":-71.109918,"lat":48.412835,"arrival":1522699311000,"departure":1522699312000,"zoneId":"NA","stopIndex":27,"stopSequence":28,"vertexType":"TRANSIT"},"legGeometry":{"points":"qhqfHxa|pLyF|Og@tAr@r@h@^jA\\\\Nt@\\PHf@RVDXEROR[p@iBr@uBJQLIDCNEr@lERbBFzA@LFbFN`A^r@bB|AlC`BDBz@t@eAjD|@x@~AxAxB`BbAiDjCzB|ApAvAZbAo@|@cDf@gB~DbA~Cr@fNtNZ\\nCbDl@jBZrB\\`Dx@tIbB|K","length":52},"routeShortName":"16","routeLongName":"Côte de la Réserve","rentedBike":false,"transitLeg":true,"duration":407.0,"steps":[]},{"startTime":1522699312000,"endTime":1522699574000,"departureDelay":0,"arrivalDelay":0,"realTime":false,"distance":340.368,"pathway":false,"mode":"WALK","route":"","agencyTimeZoneOffset":-14400000,"interlineWithPreviousLeg":false,"from":{"name":"Sentier Panoramique","stopId":"1:466","stopCode":"466","lon":-71.109918,"lat":48.412835,"arrival":1522699311000,"departure":1522699312000,"zoneId":"NA","stopIndex":27,"stopSequence":28,"vertexType":"TRANSIT"},"to":{"name":"Destination","lon":-71.107872,"lat":48.41457,"arrival":1522699574000,"orig":"","vertexType":"NORMAL"},"legGeometry":{"points":"urnfHxs_qLIs@Ii@s@}FQoA[Fu@AUD}@`@O?GESu@IIQ?g@d@","length":15},"rentedBike":false,"transitLeg":false,"duration":262.0,"steps":[{"distance":165.518,"relativeDirection":"DEPART","streetName":"Chemin de la Réserve","absoluteDirection":"EAST","stayOn":false,"area":false,"bogusName":false,"lon":-71.10988596599562,"lat":48.412758944454424,"elevation":[]},{"distance":174.85,"relativeDirection":"LEFT","streetName":"Rue Jeanne Mance","absoluteDirection":"NORTH","stayOn":false,"area":false,"bogusName":false,"lon":-71.1077458,"lat":48.413203300000006,"elevation":[]}]}],"tooSloped":false},{"duration":824,"startTime":1522700550000,"endTime":1522701374000,"walkTime":415,"transitTime":407,"waitingTime":2,"walkDistance":528.3165789431227,"walkLimitExceeded":false,"elevationLost":0.0,"elevationGained":0.0,"transfers":0,"legs":[{"startTime":1522700550000,"endTime":1522700703000,"departureDelay":0,"arrivalDelay":0,"realTime":false,"distance":187.81699999999998,"pathway":false,"mode":"WALK","route":"","agencyTimeZoneOffset":-14400000,"interlineWithPreviousLeg":false,"from":{"name":"Origin","lon":-71.093354,"lat":48.425729,"departure":1522700550000,"orig":"","vertexType":"NORMAL"},"to":{"name":"Dequen / Clairons","stopId":"1:603","stopCode":"603","lon":-71.091582,"lat":48.42656,"arrival":1522700703000,"departure":1522700704000,"zoneId":"NA","stopIndex":17,"stopSequence":18,"vertexType":"TRANSIT"},"legGeometry":{"points":"ycqfHll|pL@C?]KSoAwAVy@?i@G[kAsACJ","length":10},"rentedBike":false,"transitLeg":false,"duration":153.0,"steps":[{"distance":78.201,"relativeDirection":"DEPART","streetName":"Rue Casgrain","absoluteDirection":"EAST","stayOn":false,"area":false,"bogusName":false,"lon":-71.09334704730794,"lat":48.425735500282045,"elevation":[]},{"distance":104.386,"relativeDirection":"RIGHT","streetName":"Rue des Clairons","absoluteDirection":"SOUTHEAST","stayOn":false,"area":false,"bogusName":false,"lon":-71.0926338,"lat":48.426188800000006,"elevation":[]},{"distance":5.23,"relativeDirection":"LEFT","streetName":"Rue De Quen","absoluteDirection":"NORTHWEST","stayOn":false,"area":false,"bogusName":false,"lon":-71.0915777,"lat":48.426480500000004,"elevation":[]}]},{"startTime":1522700704000,"endTime":1522701111000,"departureDelay":0,"arrivalDelay":0,"realTime":false,"distance":2598.2175800248183,"pathway":false,"mode":"BUS","route":"16","agencyName":"Société de Transport du Saguenay","agencyUrl":"http://ville.saguenay.ca/fr/services-aux-citoyens/transport-sts","agencyTimeZoneOffset":-14400000,"routeColor":"00FF00","routeType":3,"routeId":"1:16","routeTextColor":"000000","interlineWithPreviousLeg":false,"tripBlockId":"36","headsign":"Faubourg Sagamie","agencyId":"0","tripId":"1:218296","serviceDate":"20180402","from":{"name":"Dequen / Clairons","stopId":"1:603","stopCode":"603","lon":-71.091582,"lat":48.42656,"arrival":1522700703000,"departure":1522700704000,"zoneId":"NA","stopIndex":17,"stopSequence":18,"vertexType":"TRANSIT"},"to":{"name":"Sentier Panoramique","stopId":"1:466","stopCode":"466","lon":-71.109918,"lat":48.412835,"arrival":1522701111000,"departure":1522701112000,"zoneId":"NA","stopIndex":27,"stopSequence":28,"vertexType":"TRANSIT"},"legGeometry":{"points":"qhqfHxa|pLyF|Og@tAr@r@h@^jA\\\\Nt@\\PHf@RVDXEROR[p@iBr@uBJQLIDCNEr@lERbBFzA@LFbFN`A^r@bB|AlC`BDBz@t@eAjD|@x@~AxAxB`BbAiDjCzB|ApAvAZbAo@|@cDf@gB~DbA~Cr@fNtNZ\\nCbDl@jBZrB\\`Dx@tIbB|K","length":52},"routeShortName":"16","routeLongName":"Côte de la Réserve","rentedBike":false,"transitLeg":true,"duration":407.0,"steps":[]},{"startTime":1522701112000,"endTime":1522701374000,"departureDelay":0,"arrivalDelay":0,"realTime":false,"distance":340.368,"pathway":false,"mode":"WALK","route":"","agencyTimeZoneOffset":-14400000,"interlineWithPreviousLeg":false,"from":{"name":"Sentier Panoramique","stopId":"1:466","stopCode":"466","lon":-71.109918,"lat":48.412835,"arrival":1522701111000,"departure":1522701112000,"zoneId":"NA","stopIndex":27,"stopSequence":28,"vertexType":"TRANSIT"},"to":{"name":"Destination","lon":-71.107872,"lat":48.41457,"arrival":1522701374000,"orig":"","vertexType":"NORMAL"},"legGeometry":{"points":"urnfHxs_qLIs@Ii@s@}FQoA[Fu@AUD}@`@O?GESu@IIQ?g@d@","length":15},"rentedBike":false,"transitLeg":false,"duration":262.0,"steps":[{"distance":165.518,"relativeDirection":"DEPART","streetName":"Chemin de la Réserve","absoluteDirection":"EAST","stayOn":false,"area":false,"bogusName":false,"lon":-71.10988596599562,"lat":48.412758944454424,"elevation":[]},{"distance":174.85,"relativeDirection":"LEFT","streetName":"Rue Jeanne Mance","absoluteDirection":"NORTH","stayOn":false,"area":false,"bogusName":false,"lon":-71.1077458,"lat":48.413203300000006,"elevation":[]}]}],"tooSloped":false}]},"debugOutput":{"precalculationTime":15,"pathCalculationTime":18,"pathTimes":[3,11,4],"renderingTime":0,"totalTime":33,"timedOut":false},"elevationMetadata":{"ellipsoidToGeoidDifference":-28.885904201182168,"geoidElevation":false}}