{"requestParameters":{"date":"2018/04/02","walkSpeed":"1.33","walkReluctance":"2.0","fromPlace":"48.425729,-71.093354","maxWalkDistance":"3000","waitReluctance":"1.0","carSpeed":"33","numItineraries":"3","waitAtBeginningFactor":"0.4","mode":"TRANSIT,WALK","ignoreRealtimeUpdates":"false","stairsReluctance":"2.0","toPlace":"48.41457,-71.107872","time":"8:25:00"},"plan":{"date":1522671900000,"from":{"name":"Origin","lon":-71.093354,"lat":48.425729,"orig":"","vertexType":"NORMAL"},"to":{"name":"Destination","lon":-71.107872,"lat":48.41457,"orig":"","vertexType":"NORMAL"},"itineraries":[{"duration":1956,"startTime":1522671900000,"endTime":1522673856000,"walkTime":1956,"transitTime":0,"waitingTime":0,"walkDistance":2562.833639092722,"walkLimitExceeded":false,"elevationLost":0.0,"elevationGained":0.0,"transfers":0,"legs":[{"startTime":1522671900000,"endTime":1522673856000,"departureDelay":0,"arrivalDelay":0,"realTime":false,"distance":2562.6779999999994,"pathway":false,"mode":"WALK","route":"","agencyTimeZoneOffset":-14400000,"interlineWithPreviousLeg":false,"from":{"name":"Origin","lon":-71.093354,"lat":48.425729,"departure":1522671900000,"orig":"","vertexType":"NORMAL"},"to":{"name":"Destination","lon":-71.107872,"lat":48.41457,"arrival":1522673856000,"orig":"","vertexType":"NORMAL"},"legGeometry":{"points":"ycqfHll|pLmErLDDZP`@DTBt@QB?b@s@Nc@`@kAb@aB^ITGJDh@lER`BBvAHbGZ~@bGzEPNp@l@nGxFjAbA~@z@~AtAvAT`As@ZgA`@wAb@{AvA`@`Bf@rALrANnBxAd@f@^Vd@`@`@d@xBnCrB~B@@lBxB~@rAr@tBVlBJbBJp@BZx@pH[Fu@AUD}@`@O?GESu@IIQ?g@d@","length":62},"rentedBike":false,"transitLeg":false,"duration":1956.0,"steps":[{"distance":197.433,"relativeDirection":"DEPART","streetName":"Rue Casgrain","absoluteDirection":"NORTHWEST","stayOn":false,"area":false,"bogusName":false,"lon":-71.09334704730794,"lat":48.425735500282045,"elevation":[]},{"distance":241.214,"relativeDirection":"LEFT","streetName":"Rue Marguerite-Bourgeoys","absoluteDirection":"SOUTHWEST","stayOn":false,"area":false,"bogusName":false,"lon":-71.095529,"lat":48.4267632,"elevation":[]},{"distance":1013.1379999999999,"relativeDirection":"RIGHT","streetName":"Rue du Stade","absoluteDirection":"WEST","stayOn":false,"area":false,"bogusName":false,"lon":-71.0942373,"lat":48.425086300000004,"elevation":[]},{"distance":936.043,"relativeDirection":"RIGHT","streetName":"Chemin de la Réserve","absoluteDirection":"SOUTH","stayOn":false,"area":false,"bogusName":false,"lon":-71.10013090000001,"lat":48.4191238,"elevation":[]},{"distance":174.85,"relativeDirection":"RIGHT","streetName":"Rue Jeanne Mance","absoluteDirection":"NORTH","stayOn":false,"area":false,"bogusName":false,"lon":-71.1077458,"lat":48.413203300000006,"elevation":[]}]}],"tooSloped":false},{"duration":824,"startTime":1522673550000,"endTime":1522674374000,"walkTime":415,"transitTime":407,"waitingTime":2,"walkDistance":528.3165789431227,"walkLimitExceeded":false,"elevationLost":0.0,"elevationGained":0.0,"transfers":0,"legs":[{"startTime":1522673550000,"endTime":1522673703000,"departureDelay":0,"arrivalDelay":0,"realTime":false,"distance":187.81699999999998,"pathway":false,"mode":"WALK","route":"","agencyTimeZoneOffset":-14400000,"interlineWithPreviousLeg":false,"from":{"name":"Origin","lon":-71.093354,"lat":48.425729,"departure":1522673550000,"orig":"","vertexType":"NORMAL"},"to":{"name":"Dequen / Clairons","stopId":"1:603","stopCode":"603","lon":-71.091582,"lat":48.42656,"arrival":1522673703000,"departure":1522673704000,"zoneId":"NA","stopIndex":17,"stopSequence":18,"vertexType":"TRANSIT"},"legGeometry":{"points":"ycqfHll|pL@C?]KSoAwAVy@?i@G[kAsACJ","length":10},"rentedBike":false,"transitLeg":false,"duration":153.0,"steps":[{"distance":78.201,"relativeDirection":"DEPART","streetName":"Rue Casgrain","absoluteDirection":"EAST","stayOn":false,"area":false,"bogusName":false,"lon":-71.09334704730794,"lat":48.425735500282045,"elevation":[]},{"distance":104.386,"relativeDirection":"RIGHT","streetName":"Rue des Clairons","absoluteDirection":"SOUTHEAST","stayOn":false,"area":false,"bogusName":false,"lon":-71.0926338,"lat":48.426188800000006,"elevation":[]},{"distance":5.23,"relativeDirection":"LEFT","streetName":"Rue De Quen","absoluteDirection":"NORTHWEST","stayOn":false,"area":false,"bogusName":false,"lon":-71.0915777,"lat":48.426480500000004,"elevation":[]}]},{"startTime":1522673704000,"endTime":1522674111000,"departureDelay":0,"arrivalDelay":0,"realTime":false,"distance":2598.2175800248183,"pathway":false,"mode":"BUS","route":"16","agencyName":"Société de Transport du Saguenay","agencyUrl":"http://ville.saguenay.ca/fr/services-aux-citoyens/transport-sts","agencyTimeZoneOffset":-14400000,"routeColor":"00FF00","routeType":3,"routeId":"1:16","routeTextColor":"000000","interlineWithPreviousLeg":false,"tripBlockId":"35","headsign":"Faubourg Sagamie","agencyId":"0","tripId":"1:218246","serviceDate":"20180402","from":{"name":"Dequen / Clairons","stopId":"1:603","stopCode":"603","lon":-71.091582,"lat":48.42656,"arrival":1522673703000,"departure":1522673704000,"zoneId":"NA","stopIndex":17,"stopSequence":18,"vertexType":"TRANSIT"},"to":{"name":"Sentier Panoramique","stopId":"1:466","stopCode":"466","lon":-71.109918,"lat":48.412835,"arrival":1522674111000,"departure":1522674112000,"zoneId":"NA","stopIndex":27,"stopSequence":28,"vertexType":"TRANSIT"},"legGeometry":{"points":"qhqfHxa|pLyF|Og@tAr@r@h@^jA\\\\Nt@\\PHf@RVDXEROR[p@iBr@uBJQLIDCNEr@lERbBFzA@LFbFN`A^r@bB|AlC`BDBz@t@eAjD|@x@~AxAxB`BbAiDjCzB|ApAvAZbAo@|@cDf@gB~DbA~Cr@fNtNZ\\nCbDl@jBZrB\\`Dx@tIbB|K","length":52},"routeShortName":"16","routeLongName":"Côte de la Réserve","rentedBike":false,"transitLeg":true,"duration":407.0,"steps":[]},{"startTime":1522674112000,"endTime":1522674374000,"departureDelay":0,"arrivalDelay":0,"realTime":false,"distance":340.368,"pathway":false,"mode":"WALK","route":"","agencyTimeZoneOffset":-14400000,"interlineWithPreviousLeg":false,"from":{"name":"Sentier Panoramique","stopId":"1:466","stopCode":"466","lon":-71.109918,"lat":48.412835,"arrival":1522674111000,"departure":1522674112000,"zoneId":"NA","stopIndex":27,"stopSequence":28,"vertexType":"TRANSIT"},"to":{"name":"Destination","lon":-71.107872,"lat":48.41457,"arrival":1522674374000,"orig":"","vertexType":"NORMAL"},"legGeometry":{"points":"urnfHxs_qLIs@Ii@s@}FQoA[Fu@AUD}@`@O?GESu@IIQ?g@d@","length":15},"rentedBike":false,"transitLeg":false,"duration":262.0,"steps":[{"distance":165.518,"relativeDirection":"DEPART","streetName":"Chemin de la Réserve","absoluteDirection":"EAST","stayOn":false,"area":false,"bogusName":false,"lon":-71.10988596599562,"lat":48.412758944454424,"elevation":[]},{"distance":174.85,"relativeDirection":"LEFT","streetName":"Rue Jeanne Mance","absoluteDirection":"NORTH","stayOn":false,"area":false,"bogusName":false,"lon":-71.1077458,"lat":48.413203300000006,"elevation":[]}]}],"tooSloped":false},{"duration":824,"startTime":1522675350000,"endTime":1522676174000,"walkTime":415,"transitTime":407,"waitingTime":2,"walkDistance":528.3165789431227,"walkLimitExceeded":false,"elevationLost":0.0,"elevationGained":0.0,"transfers":0,"legs":[{"startTime":1522675350000,"endTime":1522675503000,"departureDelay":0,"arrivalDelay":0,"realTime":false,"distance":187.81699999999998,"pathway":false,"mode":"WALK","route":"","agencyTimeZoneOffset":-14400000,"interlineWithPreviousLeg":false,"from":{"name":"Origin","lon":-71.093354,"lat":48.425729,"departure":1522675350000,"orig":"","vertexType":"NORMAL"},"to":{"name":"Dequen / Clairons","stopId":"1:603","stopCode":"603","lon":-71.091582,"lat":48.42656,"arrival":1522675503000,"departure":1522675504000,"zoneId":"NA","stopIndex":17,"stopSequence":18,"vertexType":"TRANSIT"},"legGeometry":{"points":"ycqfHll|pL@C?]KSoAwAVy@?i@G[kAsACJ","length":10},"rentedBike":false,"transitLeg":false,"duration":153.0,"steps":[{"distance":78.201,"relativeDirection":"DEPART","streetName":"Rue Casgrain","absoluteDirection":"EAST","stayOn":false,"area":false,"bogusName":false,"lon":-71.09334704730794,"lat":48.425735500282045,"elevation":[]},{"distance":104.386,"relativeDirection":"RIGHT","streetName":"Rue des Clairons","absoluteDirection":"SOUTHEAST","stayOn":false,"area":false,"bogusName":false,"lon":-71.0926338,"lat":48.426188800000006,"elevation":[]},{"distance":5.23,"relativeDirection":"LEFT","streetName":"Rue De Quen","absoluteDirection":"NORTHWEST","stayOn":false,"area":false,"bogusName":false,"lon":-71.0915777,"lat":48.426480500000004,"elevation":[]}]},{"startTime":1522675504000,"endTime":1522675911000,"departureDelay":0,"arrivalDelay":0,"realTime":false,"distance":2598.2175800248183,"pathway":false,"mode":"BUS","route":"16","agencyName":"Société de Transport du Saguenay","agencyUrl":"http://ville.saguenay.ca/fr/services-aux-citoyens/transport-sts","agencyTimeZoneOffset":-14400000,"routeColor":"00FF00","routeType":3,"routeId":"1:16","routeTextColor":"000000","interlineWithPreviousLeg":false,"tripBlockId":"37","headsign":"Faubourg Sagamie","agencyId":"0","tripId":"1:218308","serviceDate":"20180402","from":{"name":"Dequen / Clairons","stopId":"1:603","stopCode":"603","lon":-71.091582,"lat":48.42656,"arrival":1522675503000,"departure":1522675504000,"zoneId":"NA","stopIndex":17,"stopSequence":18,"vertexType":"TRANSIT"},"to":{"name":"Sentier Panoramique","stopId":"1:466","stopCode":"466","lon":-71.109918,"lat":48.412835,"arrival":1522675911000,"departure":1522675912000,"zoneId":"NA","stopIndex":27,"stopSequence":28,"vertexType":"TRANSIT"},"legGeometry":{"points":"qhqfHxa|pLyF|Og@tAr@r@h@^jA\\\\Nt@\\PHf@RVDXEROR[p@iBr@uBJQLIDCNEr@lERbBFzA@LFbFN`A^r@bB|AlC`BDBz@t@eAjD|@x@~AxAxB`BbAiDjCzB|ApAvAZbAo@|@cDf@gB~DbA~Cr@fNtNZ\\nCbDl@jBZrB\\`Dx@tIbB|K","length":52},"routeShortName":"16","routeLongName":"Côte de la Réserve","rentedBike":false,"transitLeg":true,"duration":407.0,"steps":[]},{"startTime":1522675912000,"endTime":1522676174000,"departureDelay":0,"arrivalDelay":0,"realTime":false,"distance":340.368,"pathway":false,"mode":"WALK","route":"","agencyTimeZoneOffset":-14400000,"interlineWithPreviousLeg":false,"from":{"name":"Sentier Panoramique","stopId":"1:466","stopCode":"466","lon":-71.109918,"lat":48.412835,"arrival":1522675911000,"departure":1522675912000,"zoneId":"NA","stopIndex":27,"stopSequence":28,"vertexType":"TRANSIT"},"to":{"name":"Destination","lon":-71.107872,"lat":48.41457,"arrival":1522676174000,"orig":"","vertexType":"NORMAL"},"legGeometry":{"points":"urnfHxs_qLIs@Ii@s@}FQoA[Fu@AUD}@`@O?GESu@IIQ?g@d@","length":15},"rentedBike":false,"transitLeg":false,"duration":262.0,"steps":[{"distance":165.518,"relativeDirection":"DEPART","streetName":"Chemin de la Réserve","absoluteDirection":"EAST","stayOn":false,"area":false,"bogusName":false,"lon":-71.10988596599562,"lat":48.412758944454424,"elevation":[]},{"distance":174.85,"relativeDirection":"LEFT","streetName":"Rue Jeanne Mance","absoluteDirection":"NORTH","stayOn":false,"area":false,"bogusName":false,"lon":-71.1077458,"lat":48.413203300000006,"elevation":[]}]}],"tooSloped":false}]},"debugOutput":{"precalculationTime":13,"pathCalculationTime":19,"pathTimes":[7,10,2],"renderingTime":1,"totalTime":33,"timedOut":false},"elevationMetadata":{"ellipsoidToGeoidDifference":-28.885904201182168,"geoidElevation":false}}