{"requestParameters":{"date":"2018/04/02","walkSpeed":"1.33","walkReluctance":"2.0","fromPlace":"48.451331,-71.053402","maxWalkDistance":"3000","waitReluctance":"1.0","carSpeed":"33","numItineraries":"3","waitAtBeginningFactor":"0.4","mode":"TRANSIT,WALK","ignoreRealtimeUpdates":"false","stairsReluctance":"2.0","toPlace":"48.425403,-71.050713","time":"7:0:00"},"plan":{"date":1522666800000,"from":{"name":"Origin","lon":-71.053402,"lat":48.451331,"orig":"","vertexType":"NORMAL"},"to":{"name":"Destination","lon":-71.050713,"lat":48.425403,"orig":"","vertexType":"NORMAL"},"itineraries":[{"duration":1542,"startTime":1522668306000,"endTime":1522669848000,"walkTime":194,"transitTime":1046,"waitingTime":302,"walkDistance":250.81708270569942,"walkLimitExceeded":false,"elevationLost":0.0,"elevationGained":0.0,"transfers":1,"legs":[{"startTime":1522668306000,"endTime":1522668392000,"departureDelay":0,"arrivalDelay":0,"realTime":false,"distance":107.59,"pathway":false,"mode":"WALK","route":"","agencyTimeZoneOffset":-14400000,"interlineWithPreviousLeg":false,"from":{"name":"Origin","lon":-71.053402,"lat":48.451331,"departure":1522668306000,"orig":"","vertexType":"NORMAL"},"to":{"name":"Guy / Vimy","stopId":"1:756","stopCode":"756","lon":-71.0539,"lat":48.4522,"arrival":1522668392000,"departure":1522668393000,"zoneId":"NA","stopIndex":20,"stopSequence":21,"vertexType":"TRANSIT"},"legGeometry":{"points":"mevfH|qtpLa@vCsAi@","length":3},"rentedBike":false,"transitLeg":false,"duration":86.0,"steps":[{"distance":59.218,"relativeDirection":"DEPART","streetName":"Rue de Vimy","absoluteDirection":"WEST","stayOn":false,"area":false,"bogusName":false,"lon":-71.05326376108388,"lat":48.45159095686517,"elevation":[]},{"distance":48.372,"relativeDirection":"RIGHT","streetName":"Rue Guy","absoluteDirection":"NORTH","stayOn":false,"area":false,"bogusName":false,"lon":-71.054021,"lat":48.4517681,"elevation":[]}]},{"startTime":1522668393000,"endTime":1522669200000,"departureDelay":0,"arrivalDelay":0,"realTime":false,"distance":4336.504074318192,"pathway":false,"mode":"BUS","route":"22","agencyName":"Société de Transport du Saguenay","agencyUrl":"http://ville.saguenay.ca/fr/services-aux-citoyens/transport-sts","agencyTimeZoneOffset":-14400000,"routeColor":"C0C000","routeType":3,"routeId":"1:22","routeTextColor":"000000","interlineWithPreviousLeg":false,"tripBlockId":"3","headsign":"Terminus Chicoutimi","agencyId":"0","tripId":"1:217188","serviceDate":"20180402","from":{"name":"Guy / Vimy","stopId":"1:756","stopCode":"756","lon":-71.0539,"lat":48.4522,"arrival":1522668392000,"departure":1522668393000,"zoneId":"NA","stopIndex":20,"stopSequence":21,"vertexType":"TRANSIT"},"to":{"name":"Terminus Chicoutimi","stopId":"1:1289","stopCode":"1289","lon":-71.066163,"lat":48.428677,"arrival":1522669200000,"departure":1522669500000,"zoneId":"NA","stopIndex":35,"stopSequence":36,"vertexType":"TRANSIT"},"legGeometry":{"points":"civfHjutpLrAh@uCvSeA|He@hCo@|AiBbD~@^|IrDhAb@qAfJSzAMr@Yz@xAhDFNpBdFRp@Hl@Jz@BXXrCHl@Lh@Nf@r@nAr@r@`@PLFbAVH_AXeC@IdB_Mh@_EJk@x@x@bA`A|BrBnDrCl@f@|BlBrAbAj@d@ZTXNd@@lA[ZxDN|Ad@fAz@tB~AzDZ|@Zv@x@vBP\\h@~@PVrCmFhHqN~@eBr@cAt@_Av@}@RQPMz@k@tAe@REZG^Af@@X@VF`@Jn@XbClAr@Xt\\`PrAb@pA^hBTjAFj@Pb@JPHLLJNJRFXDT?X?ZEVEVKTMNMHMFOB}DWSGOSYcAN}FFkAF}DJyDd@wPV_HjAN~ALIzBQb@e@@","length":116},"routeShortName":"22","routeLongName":"Vanier","rentedBike":false,"transitLeg":true,"duration":807.0,"steps":[]},{"startTime":1522669500000,"endTime":1522669739000,"departureDelay":0,"arrivalDelay":0,"realTime":false,"distance":1169.0968840426099,"pathway":false,"mode":"BUS","route":"203S","agencyName":"Société de Transport du Saguenay","agencyUrl":"http://ville.saguenay.ca/fr/services-aux-citoyens/transport-sts","agencyTimeZoneOffset":-14400000,"routeColor":"8B0000","routeType":3,"routeId":"1:203S","routeTextColor":"FFFFFF","interlineWithPreviousLeg":false,"tripBlockId":"46","headsign":"Séminaire","agencyId":"0","tripId":"1:218386","serviceDate":"20180402","from":{"name":"Terminus Chicoutimi","stopId":"1:1289","stopCode":"1289","lon":-71.066163,"lat":48.428677,"arrival":1522669200000,"departure":1522669500000,"zoneId":"NA","stopIndex":0,"stopSequence":1,"vertexType":"TRANSIT"},"to":{"name":"Jacques-Cartier / Séminaire","stopId":"1:1918","stopCode":"1918","lon":-71.052669,"lat":48.425403,"arrival":1522669739000,"departure":1522669740000,"zoneId":"NA","stopIndex":4,"stopSequence":5,"vertexType":"TRANSIT"},"legGeometry":{"points":"_vqfH``wpLe@E@o@zDX|BXfCNF}D@YRcFJgLNuNDkCHkFVoKT}@x@yCPcAFiAJeC","length":19},"routeShortName":"203S","routeLongName":"Séminaire - Term. Chic","rentedBike":false,"transitLeg":true,"duration":239.0,"steps":[]},{"startTime":1522669740000,"endTime":1522669848000,"departureDelay":0,"arrivalDelay":0,"realTime":false,"distance":143.194,"pathway":false,"mode":"WALK","route":"","agencyTimeZoneOffset":-14400000,"interlineWithPreviousLeg":false,"from":{"name":"Jacques-Cartier / Séminaire","stopId":"1:1918","stopCode":"1918","lon":-71.052669,"lat":48.425403,"arrival":1522669739000,"departure":1522669740000,"zoneId":"NA","stopIndex":4,"stopSequence":5,"vertexType":"TRANSIT"},"to":{"name":"Destination","lon":-71.050713,"lat":48.425403,"arrival":1522669848000,"orig":"","vertexType":"NORMAL"},"legGeometry":{"points":"obqfH`ntpLHuBViG","length":3},"rentedBike":false,"transitLeg":false,"duration":108.0,"steps":[{"distance":143.194,"relativeDirection":"DEPART","streetName":"Rue Jacques-Cartier Est","absoluteDirection":"EAST","stayOn":false,"area":false,"bogusName":false,"lon":-71.05264627987177,"lat":48.42552496441786,"elevation":[]}]}],"tooSloped":false},{"duration":1991,"startTime":1522667918000,"endTime":1522669909000,"walkTime":588,"transitTime":981,"waitingTime":422,"walkDistance":752.2282180406853,"walkLimitExceeded":false,"elevationLost":0.0,"elevationGained":0.0,"transfers":1,"legs":[{"startTime":1522667918000,"endTime":1522668398000,"departureDelay":0,"arrivalDelay":0,"realTime":false,"distance":616.925,"pathway":false,"mode":"WALK","route":"","agencyTimeZoneOffset":-14400000,"interlineWithPreviousLeg":false,"from":{"name":"Origin","lon":-71.053402,"lat":48.451331,"departure":1522667918000,"orig":"","vertexType":"NORMAL"},"to":{"name":"Verdun (no. 397)","stopId":"1:777","stopCode":"777","lon":-71.055381,"lat":48.447691,"arrival":1522668398000,"departure":1522668399000,"zoneId":"NA","stopIndex":15,"stopSequence":16,"vertexType":"TRANSIT"},"legGeometry":{"points":"mevfH|qtpLT}AN{@Jq@^Nf@g@`@]bAQt@PfArBpAhBfB`BbCpBx@`ACxAPvALIRI","length":18},"rentedBike":false,"transitLeg":false,"duration":480.0,"steps":[{"distance":80.364,"relativeDirection":"DEPART","streetName":"Rue de Vimy","absoluteDirection":"EAST","stayOn":false,"area":false,"bogusName":false,"lon":-71.05326376108388,"lat":48.45159095686517,"elevation":[]},{"distance":448.84,"relativeDirection":"RIGHT","streetName":"Sentier parc bon-air","absoluteDirection":"SOUTH","stayOn":false,"area":false,"bogusName":false,"lon":-71.0522401,"lat":48.451343300000005,"elevation":[]},{"distance":66.992,"relativeDirection":"RIGHT","streetName":"path","absoluteDirection":"WEST","stayOn":false,"area":false,"bogusName":true,"lon":-71.05447620000001,"lat":48.4479625,"elevation":[]},{"distance":20.729,"relativeDirection":"LEFT","streetName":"Rue de Verdun","absoluteDirection":"SOUTH","stayOn":false,"area":false,"bogusName":false,"lon":-71.0553617,"lat":48.4478954,"elevation":[]}]},{"startTime":1522668399000,"endTime":1522669080000,"departureDelay":0,"arrivalDelay":0,"realTime":false,"distance":3274.1926768927856,"pathway":false,"mode":"BUS","route":"23","agencyName":"Société de Transport du Saguenay","agencyUrl":"http://ville.saguenay.ca/fr/services-aux-citoyens/transport-sts","agencyTimeZoneOffset":-14400000,"routeColor":"FF00FF","routeType":3,"routeId":"1:23","routeTextColor":"FFFFFF","interlineWithPreviousLeg":false,"tripBlockId":"4","headsign":"Terminus Chicoutimi","agencyId":"0","tripId":"1:217224","serviceDate":"20180402","from":{"name":"Verdun (no. 397)","stopId":"1:777","stopCode":"777","lon":-71.055381,"lat":48.447691,"arrival":1522668398000,"departure":1522668399000,"zoneId":"NA","stopIndex":15,"stopSequence":16,"vertexType":"TRANSIT"},"to":{"name":"Terminus Chicoutimi","stopId":"1:1289","stopCode":"1289","lon":-71.066163,"lat":48.428677,"arrival":1522669080000,"departure":1522669500000,"zoneId":"NA","stopIndex":26,"stopSequence":27,"vertexType":"TRANSIT"},"legGeometry":{"points":"gmufHp~tpLZStBaAh@]`@]`@i@l@kDF_@R{AFWFMPIPC`@BT@V?TAVKLENCLCJ@J@xAb@x@Zz@\\CP?R@N@NFLFF`GtBx@Xw@pG@l@B\\DXL\\RZDFXPf@N@v@Bp@Dr@l@~HNlAH\\@HLd@\\z@Xd@X\\RTXRr@Zn@PfExAvDpALnBJt@Pp@|@`DHZPn@`@rBNnAFr@DbA?bB@jABzA?p@A???A???A?A???A@??A?A@??A@?@A??@A@???@A@?@?@A@?@?@?@?@???@?@?@?@?@?@@@?@?@@@?@@@?@@@?@@?@@??@@@?E`@Kr@]rACVEl@I|AAr@JbAWJe@FUAM?a@Ke@YYWWa@v@}@RQPMz@k@tAe@REZG^Af@@X@VF`@Jn@XbClAr@Xt\\`PrAb@pA^hBTjAFj@Pb@JPHLLJNJRFXDT?X?ZEVEVKTMNMHMFOB}DWSGOSYcAN}FFkAF}DJyDd@wPV_HjAN~ALI`C","length":188},"routeShortName":"23","routeLongName":"Côte Verdun via Aréna du Plateau","rentedBike":false,"transitLeg":true,"duration":681.0,"steps":[]},{"startTime":1522669500000,"endTime":1522669800000,"departureDelay":0,"arrivalDelay":0,"realTime":false,"distance":1242.678141622333,"pathway":false,"mode":"BUS","route":"175","agencyName":"Société de Transport du Saguenay","agencyUrl":"http://ville.saguenay.ca/fr/services-aux-citoyens/transport-sts","agencyTimeZoneOffset":-14400000,"routeColor":"FF00FF","routeType":3,"routeId":"1:175","routeTextColor":"FFFFFF","interlineWithPreviousLeg":false,"tripBlockId":"8","headsign":"Costco","agencyId":"0","tripId":"1:217359","serviceDate":"20180402","from":{"name":"Terminus Chicoutimi","stopId":"1:1289","stopCode":"1289","lon":-71.066163,"lat":48.428677,"arrival":1522669080000,"departure":1522669500000,"zoneId":"NA","stopIndex":0,"stopSequence":1,"vertexType":"TRANSIT"},"to":{"name":"Hôpital de Chicoutimi (Saint-Vallier)","stopId":"1:342","stopCode":"342","lon":-71.050416,"lat":48.426429,"arrival":1522669800000,"departure":1522669801000,"zoneId":"NA","stopIndex":6,"stopSequence":7,"vertexType":"TRANSIT"},"legGeometry":{"points":"kvqfH~awpL~CgBbAqa@FwCBkAOsHAg@bAYUwMKoE@mB@kJ@iFbEf@","length":14},"routeShortName":"175","routeLongName":"Term. Chic / Costco","rentedBike":false,"transitLeg":true,"duration":300.0,"steps":[]},{"startTime":1522669801000,"endTime":1522669909000,"departureDelay":0,"arrivalDelay":0,"realTime":false,"distance":135.166,"pathway":false,"mode":"WALK","route":"","agencyTimeZoneOffset":-14400000,"interlineWithPreviousLeg":false,"from":{"name":"Hôpital de Chicoutimi (Saint-Vallier)","stopId":"1:342","stopCode":"342","lon":-71.050416,"lat":48.426429,"arrival":1522669800000,"departure":1522669801000,"zoneId":"NA","stopIndex":6,"stopSequence":7,"vertexType":"TRANSIT"},"to":{"name":"Destination","lon":-71.050713,"lat":48.425403,"arrival":1522669909000,"orig":"","vertexType":"NORMAL"},"legGeometry":{"points":"ahqfHd_tpLF?lEt@Ad@","length":4},"rentedBike":false,"transitLeg":false,"duration":108.0,"steps":[{"distance":121.256,"relativeDirection":"DEPART","streetName":"Rue Saint-Vallier","absoluteDirection":"SOUTH","stayOn":false,"area":false,"bogusName":false,"lon":-71.05026027647143,"lat":48.426416552989835,"elevation":[]},{"distance":13.91,"relativeDirection":"RIGHT","streetName":"Rue Jacques-Cartier Est","absoluteDirection":"WEST","stayOn":false,"area":false,"bogusName":false,"lon":-71.0505352,"lat":48.4253415,"elevation":[]}]}],"tooSloped":false},{"duration":1442,"startTime":1522670206000,"endTime":1522671648000,"walkTime":194,"transitTime":946,"waitingTime":302,"walkDistance":250.81708270569942,"walkLimitExceeded":false,"elevationLost":0.0,"elevationGained":0.0,"transfers":1,"legs":[{"startTime":1522670206000,"endTime":1522670292000,"departureDelay":0,"arrivalDelay":0,"realTime":false,"distance":107.59,"pathway":false,"mode":"WALK","route":"","agencyTimeZoneOffset":-14400000,"interlineWithPreviousLeg":false,"from":{"name":"Origin","lon":-71.053402,"lat":48.451331,"departure":1522670206000,"orig":"","vertexType":"NORMAL"},"to":{"name":"Guy / Vimy","stopId":"1:756","stopCode":"756","lon":-71.0539,"lat":48.4522,"arrival":1522670292000,"departure":1522670293000,"zoneId":"NA","stopIndex":20,"stopSequence":21,"vertexType":"TRANSIT"},"legGeometry":{"points":"mevfH|qtpLa@vCsAi@","length":3},"rentedBike":false,"transitLeg":false,"duration":86.0,"steps":[{"distance":59.218,"relativeDirection":"DEPART","streetName":"Rue de Vimy","absoluteDirection":"WEST","stayOn":false,"area":false,"bogusName":false,"lon":-71.05326376108388,"lat":48.45159095686517,"elevation":[]},{"distance":48.372,"relativeDirection":"RIGHT","streetName":"Rue Guy","absoluteDirection":"NORTH","stayOn":false,"area":false,"bogusName":false,"lon":-71.054021,"lat":48.4517681,"elevation":[]}]},{"startTime":1522670293000,"endTime":1522671000000,"departureDelay":0,"arrivalDelay":0,"realTime":false,"distance":4336.504074318192,"pathway":false,"mode":"BUS","route":"22","agencyName":"Société de Transport du Saguenay","agencyUrl":"http://ville.saguenay.ca/fr/services-aux-citoyens/transport-sts","agencyTimeZoneOffset":-14400000,"routeColor":"C0C000","routeType":3,"routeId":"1:22","routeTextColor":"000000","interlineWithPreviousLeg":false,"tripBlockId":"1","headsign":"Terminus Chicoutimi","agencyId":"0","tripId":"1:217132","serviceDate":"20180402","from":{"name":"Guy / Vimy","stopId":"1:756","stopCode":"756","lon":-71.0539,"lat":48.4522,"arrival":1522670292000,"departure":1522670293000,"zoneId":"NA","stopIndex":20,"stopSequence":21,"vertexType":"TRANSIT"},"to":{"name":"Terminus Chicoutimi","stopId":"1:1289","stopCode":"1289","lon":-71.066163,"lat":48.428677,"arrival":1522671000000,"departure":1522671300000,"zoneId":"NA","stopIndex":35,"stopSequence":36,"vertexType":"TRANSIT"},"legGeometry":{"points":"civfHjutpLrAh@uCvSeA|He@hCo@|AiBbD~@^|IrDhAb@qAfJSzAMr@Yz@xAhDFNpBdFRp@Hl@Jz@BXXrCHl@Lh@Nf@r@nAr@r@`@PLFbAVH_AXeC@IdB_Mh@_EJk@x@x@bA`A|BrBnDrCl@f@|BlBrAbAj@d@ZTXNd@@lA[ZxDN|Ad@fAz@tB~AzDZ|@Zv@x@vBP\\h@~@PVrCmFhHqN~@eBr@cAt@_Av@}@RQPMz@k@tAe@REZG^Af@@X@VF`@Jn@XbClAr@Xt\\`PrAb@pA^hBTjAFj@Pb@JPHLLJNJRFXDT?X?ZEVEVKTMNMHMFOB}DWSGOSYcAN}FFkAF}DJyDd@wPV_HjAN~ALIzBQb@e@@","length":116},"routeShortName":"22","routeLongName":"Vanier","rentedBike":false,"transitLeg":true,"duration":707.0,"steps":[]},{"startTime":1522671300000,"endTime":1522671539000,"departureDelay":0,"arrivalDelay":0,"realTime":false,"distance":1169.0968840426099,"pathway":false,"mode":"BUS","route":"203S","agencyName":"Société de Transport du Saguenay","agencyUrl":"http://ville.saguenay.ca/fr/services-aux-citoyens/transport-sts","agencyTimeZoneOffset":-14400000,"routeColor":"8B0000","routeType":3,"routeId":"1:203S","routeTextColor":"FFFFFF","interlineWithPreviousLeg":false,"tripBlockId":"99","headsign":"Séminaire","agencyId":"0","tripId":"1:218751","serviceDate":"20180402","from":{"name":"Terminus Chicoutimi","stopId":"1:1289","stopCode":"1289","lon":-71.066163,"lat":48.428677,"arrival":1522671000000,"departure":1522671300000,"zoneId":"NA","stopIndex":0,"stopSequence":1,"vertexType":"TRANSIT"},"to":{"name":"Jacques-Cartier / Séminaire","stopId":"1:1918","stopCode":"1918","lon":-71.052669,"lat":48.425403,"arrival":1522671539000,"departure":1522671540000,"zoneId":"NA","stopIndex":4,"stopSequence":5,"vertexType":"TRANSIT"},"legGeometry":{"points":"_vqfH``wpLe@E@o@zDX|BXfCNF}D@YRcFJgLNuNDkCHkFVoKT}@x@yCPcAFiAJeC","length":19},"routeShortName":"203S","routeLongName":"Séminaire - Term. Chic","rentedBike":false,"transitLeg":true,"duration":239.0,"steps":[]},{"startTime":1522671540000,"endTime":1522671648000,"departureDelay":0,"arrivalDelay":0,"realTime":false,"distance":143.194,"pathway":false,"mode":"WALK","route":"","agencyTimeZoneOffset":-14400000,"interlineWithPreviousLeg":false,"from":{"name":"Jacques-Cartier / Séminaire","stopId":"1:1918","stopCode":"1918","lon":-71.052669,"lat":48.425403,"arrival":1522671539000,"departure":1522671540000,"zoneId":"NA","stopIndex":4,"stopSequence":5,"vertexType":"TRANSIT"},"to":{"name":"Destination","lon":-71.050713,"lat":48.425403,"arrival":1522671648000,"orig":"","vertexType":"NORMAL"},"legGeometry":{"points":"obqfH`ntpLHuBViG","length":3},"rentedBike":false,"transitLeg":false,"duration":108.0,"steps":[{"distance":143.194,"relativeDirection":"DEPART","streetName":"Rue Jacques-Cartier Est","absoluteDirection":"EAST","stayOn":false,"area":false,"bogusName":false,"lon":-71.05264627987177,"lat":48.42552496441786,"elevation":[]}]}],"tooSloped":false}]},"debugOutput":{"precalculationTime":20,"pathCalculationTime":22,"pathTimes":[15,3,4],"renderingTime":0,"totalTime":42,"timedOut":false},"elevationMetadata":{"ellipsoidToGeoidDifference":-28.885904201182168,"geoidElevation":false}}