{"requestParameters":{"date":"2018/04/02","walkSpeed":"1.33","walkReluctance":"2.0","fromPlace":"48.411832,-71.111062","maxWalkDistance":"3000","waitReluctance":"1.0","carSpeed":"33","numItineraries":"3","waitAtBeginningFactor":"0.4","mode":"TRANSIT,WALK","ignoreRealtimeUpdates":"false","stairsReluctance":"2.0","toPlace":"48.426419,-71.065683","time":"19:0:00"},"plan":{"date":1522710000000,"from":{"name":"Origin","lon":-71.111062,"lat":48.411832,"orig":"","vertexType":"NORMAL"},"to":{"name":"Destination","lon":-71.065683,"lat":48.426419,"orig":"","vertexType":"NORMAL"},"itineraries":[{"duration":2059,"startTime":1522710477000,"endTime":1522712536000,"walkTime":1393,"transitTime":664,"waitingTime":2,"walkDistance":1814.6623834536972,"walkLimitExceeded":false,"elevationLost":0.0,"elevationGained":0.0,"transfers":0,"legs":[{"startTime":1522710477000,"endTime":1522711684000,"departureDelay":0,"arrivalDelay":0,"realTime":false,"distance":1577.02,"pathway":false,"mode":"WALK","route":"","agencyTimeZoneOffset":-14400000,"interlineWithPreviousLeg":false,"from":{"name":"Origin","lon":-71.111062,"lat":48.411832,"departure":1522710477000,"orig":"","vertexType":"NORMAL"},"to":{"name":"boul. Barrette / Estacade","stopId":"1:478","stopCode":"478","lon":-71.098119,"lat":48.404568,"arrival":1522711684000,"departure":1522711685000,"zoneId":"NA","stopIndex":12,"stopSequence":13,"vertexType":"TRANSIT"},"legGeometry":{"points":"wmnfHzx_qLGDeBt@k@cECYIs@Ii@s@}FQoA|As@`FwBvDcBdF{BnGoCrCoBhCkD|AgDn@sCLi@p@kCjCoJt@iBr@mB","length":23},"rentedBike":false,"transitLeg":false,"duration":1207.0,"steps":[{"distance":65.534,"relativeDirection":"DEPART","streetName":"Rue de Nicolas Pelletier","absoluteDirection":"NORTH","stayOn":false,"area":false,"bogusName":false,"lon":-71.11069095237917,"lat":48.4119614898787,"elevation":[]},{"distance":252.10299999999998,"relativeDirection":"RIGHT","streetName":"Chemin de la Réserve","absoluteDirection":"EAST","stayOn":false,"area":false,"bogusName":false,"lon":-71.11099920000001,"lat":48.412513700000005,"elevation":[]},{"distance":1259.383,"relativeDirection":"RIGHT","streetName":"Boulevard Barrette","absoluteDirection":"SOUTH","stayOn":false,"area":false,"bogusName":false,"lon":-71.1077458,"lat":48.413203300000006,"elevation":[]}]},{"startTime":1522711685000,"endTime":1522712349000,"departureDelay":0,"arrivalDelay":0,"realTime":false,"distance":3757.7806886482604,"pathway":false,"mode":"BUS","route":"11","agencyName":"Société de Transport du Saguenay","agencyUrl":"http://ville.saguenay.ca/fr/services-aux-citoyens/transport-sts","agencyTimeZoneOffset":-14400000,"routeColor":"FF0000","routeType":3,"routeId":"1:11","routeTextColor":"FFFFFF","interlineWithPreviousLeg":false,"tripBlockId":"34","headsign":"Terminus Chicoutimi","agencyId":"0","tripId":"1:218232","serviceDate":"20180402","from":{"name":"boul. Barrette / Estacade","stopId":"1:478","stopCode":"478","lon":-71.098119,"lat":48.404568,"arrival":1522711684000,"departure":1522711685000,"zoneId":"NA","stopIndex":12,"stopSequence":13,"vertexType":"TRANSIT"},"to":{"name":"Price / Lemieux","stopId":"1:1897","stopCode":"1897","lon":-71.067472,"lat":48.425313,"arrival":1522712349000,"departure":1522712350000,"zoneId":"NA","stopIndex":29,"stopSequence":30,"vertexType":"TRANSIT"},"legGeometry":{"points":"c_mfHtj}pLy@vBeCuCoCaDkDuE_@g@{FwGOMnA}CnA_DJWu@iAW[S[yI{MmBqC{@wAQUw@gAsDiF_B_CQYa@cA[_AUy@YcBOgAYHu@\\M`@cAiBuAyBkHgL{C{E}AcCc@o@q@gAOWwCyCyGyG_IaIs@rBEHwAtDmBvEOd@[bBK~AIf@YHE@Q@O?OCI_@GMEKI_AB_A?Yo@IKCIEIIKOEKCKe@}BKs@CQAUE_A@yCFcDVsLDaCD_@kBKW?e@Q_BQNuEDuBXmN","length":84},"routeShortName":"11","routeLongName":"Chic/Faubourg via St-Paul","rentedBike":false,"transitLeg":true,"duration":664.0,"steps":[]},{"startTime":1522712350000,"endTime":1522712536000,"departureDelay":0,"arrivalDelay":0,"realTime":false,"distance":237.489,"pathway":false,"mode":"WALK","route":"","agencyTimeZoneOffset":-14400000,"interlineWithPreviousLeg":false,"from":{"name":"Price / Lemieux","stopId":"1:1897","stopCode":"1897","lon":-71.067472,"lat":48.425313,"arrival":1522712349000,"departure":1522712350000,"zoneId":"NA","stopIndex":29,"stopSequence":30,"vertexType":"TRANSIT"},"to":{"name":"Destination","lon":-71.065683,"lat":48.426419,"arrival":1522712536000,"orig":"","vertexType":"NORMAL"},"legGeometry":{"points":"kaqfHtjwpLDeBDgB@i@Ao@QG_@C{BUu@C","length":9},"rentedBike":false,"transitLeg":false,"duration":186.0,"steps":[{"distance":109.845,"relativeDirection":"DEPART","streetName":"Rue Price Est","absoluteDirection":"EAST","stayOn":false,"area":false,"bogusName":false,"lon":-71.06746868871497,"lat":48.425341175781035,"elevation":[]},{"distance":127.644,"relativeDirection":"LEFT","streetName":"Rue Morin","absoluteDirection":"NORTH","stayOn":false,"area":false,"bogusName":false,"lon":-71.06598410000001,"lat":48.4252842,"elevation":[]}]}],"tooSloped":false},{"duration":1079,"startTime":1522711573000,"endTime":1522712652000,"walkTime":341,"transitTime":736,"waitingTime":2,"walkDistance":435.43138345692415,"walkLimitExceeded":false,"elevationLost":0.0,"elevationGained":0.0,"transfers":0,"legs":[{"startTime":1522711573000,"endTime":1522711723000,"departureDelay":0,"arrivalDelay":0,"realTime":false,"distance":188.538,"pathway":false,"mode":"WALK","route":"","agencyTimeZoneOffset":-14400000,"interlineWithPreviousLeg":false,"from":{"name":"Origin","lon":-71.111062,"lat":48.411832,"departure":1522711573000,"orig":"","vertexType":"NORMAL"},"to":{"name":"Sentier Panoramique","stopId":"1:459","stopCode":"459","lon":-71.109357,"lat":48.412735,"arrival":1522711723000,"departure":1522711724000,"zoneId":"NA","stopIndex":20,"stopSequence":21,"vertexType":"TRANSIT"},"legGeometry":{"points":"wmnfHzx_qLGDeBt@k@cECYIs@Ii@","length":7},"rentedBike":false,"transitLeg":false,"duration":150.0,"steps":[{"distance":65.534,"relativeDirection":"DEPART","streetName":"Rue de Nicolas Pelletier","absoluteDirection":"NORTH","stayOn":false,"area":false,"bogusName":false,"lon":-71.11069095237917,"lat":48.4119614898787,"elevation":[]},{"distance":123.00399999999999,"relativeDirection":"RIGHT","streetName":"Chemin de la Réserve","absoluteDirection":"EAST","stayOn":false,"area":false,"bogusName":false,"lon":-71.11099920000001,"lat":48.412513700000005,"elevation":[]}]},{"startTime":1522711724000,"endTime":1522712460000,"departureDelay":0,"arrivalDelay":0,"realTime":false,"distance":4255.038709057946,"pathway":false,"mode":"BUS","route":"16","agencyName":"Société de Transport du Saguenay","agencyUrl":"http://ville.saguenay.ca/fr/services-aux-citoyens/transport-sts","agencyTimeZoneOffset":-14400000,"routeColor":"00FF00","routeType":3,"routeId":"1:16","routeTextColor":"000000","interlineWithPreviousLeg":false,"tripBlockId":"35","headsign":"Terminus Chicoutimi","agencyId":"0","tripId":"1:218267","serviceDate":"20180402","from":{"name":"Sentier Panoramique","stopId":"1:459","stopCode":"459","lon":-71.109357,"lat":48.412735,"arrival":1522711723000,"departure":1522711724000,"zoneId":"NA","stopIndex":20,"stopSequence":21,"vertexType":"TRANSIT"},"to":{"name":"Terminus Chicoutimi","stopId":"1:1289","stopCode":"1289","lon":-71.066163,"lat":48.428677,"arrival":1522712460000,"departure":1522712461000,"zoneId":"NA","stopIndex":35,"stopSequence":36,"vertexType":"TRANSIT"},"legGeometry":{"points":"esnfHzp_qLy@{FQmAoAwK[aEeByD}BkCmC_DaDqDyDcDkD]_Bc@aAY_IsGYo@}@mBqAkKg@aE@wFS}AiAaIgA{B}CiGiBeFqBsFQ_@wA_DyAaD_AoBQ[sAuC{@sBeCcGqAwC[g@]a@aAw@[_@cA}A_@w@GU[iDWaDzByCv@cA`@e@TSp@g@nAo@nBm@ZSf@c@PMb@[b@_@b@e@PYP]N_@La@P{@NcB@IBcAG_A{@sEEg@oAP}@DiBDFeBMa@iBCq@FmBPFcEDoBNiHyDWN_HBoA@Y@m@","length":83},"routeShortName":"16","routeLongName":"Côte de la Réserve","rentedBike":false,"transitLeg":true,"duration":736.0,"steps":[]},{"startTime":1522712461000,"endTime":1522712652000,"departureDelay":0,"arrivalDelay":0,"realTime":false,"distance":246.84000000000003,"pathway":false,"mode":"WALK","route":"","agencyTimeZoneOffset":-14400000,"interlineWithPreviousLeg":false,"from":{"name":"Terminus Chicoutimi","stopId":"1:1289","stopCode":"1289","lon":-71.066163,"lat":48.428677,"arrival":1522712460000,"departure":1522712461000,"zoneId":"NA","stopIndex":35,"stopSequence":36,"vertexType":"TRANSIT"},"to":{"name":"Destination","lon":-71.065683,"lat":48.426419,"arrival":1522712652000,"orig":"","vertexType":"NORMAL"},"legGeometry":{"points":"{uqfHb~vpLbAJR@JDb@LrBHP@jCP\\B","length":9},"rentedBike":false,"transitLeg":false,"duration":191.0,"steps":[{"distance":246.84000000000003,"relativeDirection":"DEPART","streetName":"Rue Morin","absoluteDirection":"SOUTH","stayOn":false,"area":false,"bogusName":false,"lon":-71.0654590096484,"lat":48.428628638946556,"elevation":[]}]}],"tooSloped":false},{"duration":1079,"startTime":1522715173000,"endTime":1522716252000,"walkTime":341,"transitTime":736,"waitingTime":2,"walkDistance":435.43138345692415,"walkLimitExceeded":false,"elevationLost":0.0,"elevationGained":0.0,"transfers":0,"legs":[{"startTime":1522715173000,"endTime":1522715323000,"departureDelay":0,"arrivalDelay":0,"realTime":false,"distance":188.538,"pathway":false,"mode":"WALK","route":"","agencyTimeZoneOffset":-14400000,"interlineWithPreviousLeg":false,"from":{"name":"Origin","lon":-71.111062,"lat":48.411832,"departure":1522715173000,"orig":"","vertexType":"NORMAL"},"to":{"name":"Sentier Panoramique","stopId":"1:459","stopCode":"459","lon":-71.109357,"lat":48.412735,"arrival":1522715323000,"departure":1522715324000,"zoneId":"NA","stopIndex":20,"stopSequence":21,"vertexType":"TRANSIT"},"legGeometry":{"points":"wmnfHzx_qLGDeBt@k@cECYIs@Ii@","length":7},"rentedBike":false,"transitLeg":false,"duration":150.0,"steps":[{"distance":65.534,"relativeDirection":"DEPART","streetName":"Rue de Nicolas Pelletier","absoluteDirection":"NORTH","stayOn":false,"area":false,"bogusName":false,"lon":-71.11069095237917,"lat":48.4119614898787,"elevation":[]},{"distance":123.00399999999999,"relativeDirection":"RIGHT","streetName":"Chemin de la Réserve","absoluteDirection":"EAST","stayOn":false,"area":false,"bogusName":false,"lon":-71.11099920000001,"lat":48.412513700000005,"elevation":[]}]},{"startTime":1522715324000,"endTime":1522716060000,"departureDelay":0,"arrivalDelay":0,"realTime":false,"distance":4255.038709057946,"pathway":false,"mode":"BUS","route":"16","agencyName":"Société de Transport du Saguenay","agencyUrl":"http://ville.saguenay.ca/fr/services-aux-citoyens/transport-sts","agencyTimeZoneOffset":-14400000,"routeColor":"00FF00","routeType":3,"routeId":"1:16","routeTextColor":"000000","interlineWithPreviousLeg":false,"tripBlockId":"34","headsign":"Terminus Chicoutimi","agencyId":"0","tripId":"1:218234","serviceDate":"20180402","from":{"name":"Sentier Panoramique","stopId":"1:459","stopCode":"459","lon":-71.109357,"lat":48.412735,"arrival":1522715323000,"departure":1522715324000,"zoneId":"NA","stopIndex":20,"stopSequence":21,"vertexType":"TRANSIT"},"to":{"name":"Terminus Chicoutimi","stopId":"1:1289","stopCode":"1289","lon":-71.066163,"lat":48.428677,"arrival":1522716060000,"departure":1522716061000,"zoneId":"NA","stopIndex":35,"stopSequence":36,"vertexType":"TRANSIT"},"legGeometry":{"points":"esnfHzp_qLy@{FQmAoAwK[aEeByD}BkCmC_DaDqDyDcDkD]_Bc@aAY_IsGYo@}@mBqAkKg@aE@wFS}AiAaIgA{B}CiGiBeFqBsFQ_@wA_DyAaD_AoBQ[sAuC{@sBeCcGqAwC[g@]a@aAw@[_@cA}A_@w@GU[iDWaDzByCv@cA`@e@TSp@g@nAo@nBm@ZSf@c@PMb@[b@_@b@e@PYP]N_@La@P{@NcB@IBcAG_A{@sEEg@oAP}@DiBDFeBMa@iBCq@FmBPFcEDoBNiHyDWN_HBoA@Y@m@","length":83},"routeShortName":"16","routeLongName":"Côte de la Réserve","rentedBike":false,"transitLeg":true,"duration":736.0,"steps":[]},{"startTime":1522716061000,"endTime":1522716252000,"departureDelay":0,"arrivalDelay":0,"realTime":false,"distance":246.84000000000003,"pathway":false,"mode":"WALK","route":"","agencyTimeZoneOffset":-14400000,"interlineWithPreviousLeg":false,"from":{"name":"Terminus Chicoutimi","stopId":"1:1289","stopCode":"1289","lon":-71.066163,"lat":48.428677,"arrival":1522716060000,"departure":1522716061000,"zoneId":"NA","stopIndex":35,"stopSequence":36,"vertexType":"TRANSIT"},"to":{"name":"Destination","lon":-71.065683,"lat":48.426419,"arrival":1522716252000,"orig":"","vertexType":"NORMAL"},"legGeometry":{"points":"{uqfHb~vpLbAJR@JDb@LrBHP@jCP\\B","length":9},"rentedBike":false,"transitLeg":false,"duration":191.0,"steps":[{"distance":246.84000000000003,"relativeDirection":"DEPART","streetName":"Rue Morin","absoluteDirection":"SOUTH","stayOn":false,"area":false,"bogusName":false,"lon":-71.0654590096484,"lat":48.428628638946556,"elevation":[]}]}],"tooSloped":false}]},"debugOutput":{"precalculationTime":20,"pathCalculationTime":16,"pathTimes":[5,9,2],"renderingTime":0,"totalTime":36,"timedOut":false},"elevationMetadata":{"ellipsoidToGeoidDifference":-28.885904201182168,"geoidElevation":false}}