{"requestParameters":{"date":"2018/04/02","walkSpeed":"1.33","walkReluctance":"2.0","fromPlace":"48.379567,-71.089425","maxWalkDistance":"3000","waitReluctance":"1.0","carSpeed":"33","numItineraries":"3","waitAtBeginningFactor":"0.4","mode":"TRANSIT,WALK","ignoreRealtimeUpdates":"false","stairsReluctance":"2.0","toPlace":"48.411277,-71.114068","time":"15:0:00"},"plan":{"date":1522695600000,"from":{"name":"Origin","lon":-71.089425,"lat":48.379567,"orig":"","vertexType":"NORMAL"},"to":{"name":"Destination","lon":-71.114068,"lat":48.411277,"orig":"","vertexType":"NORMAL"},"itineraries":[{"duration":1765,"startTime":1522695946000,"endTime":1522697711000,"walkTime":434,"transitTime":1264,"waitingTime":67,"walkDistance":572.542,"walkLimitExceeded":false,"elevationLost":0.0,"elevationGained":0.0,"transfers":1,"legs":[{"startTime":1522695946000,"endTime":1522696218000,"departureDelay":0,"arrivalDelay":0,"realTime":false,"distance":361.418,"pathway":false,"mode":"WALK","route":"","agencyTimeZoneOffset":-14400000,"interlineWithPreviousLeg":false,"from":{"name":"Origin","lon":-71.089425,"lat":48.379567,"departure":1522695946000,"orig":"","vertexType":"NORMAL"},"to":{"name":"nouveau","stopId":"1:2280","stopCode":"2280","lon":-71.091199,"lat":48.383276,"arrival":1522696218000,"departure":1522696219000,"zoneId":"NA","stopIndex":27,"stopSequence":28,"vertexType":"TRANSIT"},"legGeometry":{"points":"mqhfHdd{pLg@rAyCzHS`@_AxBsA`EMl@","length":7},"rentedBike":false,"transitLeg":false,"duration":272.0,"steps":[{"distance":361.418,"relativeDirection":"DEPART","streetName":"Boulevard du Royaume Ouest","absoluteDirection":"NORTHWEST","stayOn":false,"area":false,"bogusName":false,"lon":-71.08690972199349,"lat":48.38183312594164,"elevation":[]}]},{"startTime":1522696219000,"endTime":1522696260000,"departureDelay":0,"arrivalDelay":0,"realTime":false,"distance":414.63255884647657,"pathway":false,"mode":"BUS","route":"2","agencyName":"Société de Transport du Saguenay","agencyUrl":"http://ville.saguenay.ca/fr/services-aux-citoyens/transport-sts","agencyTimeZoneOffset":-14400000,"routeColor":"FF0000","routeType":3,"routeId":"1:2","routeTextColor":"FFFFFF","interlineWithPreviousLeg":false,"tripBlockId":"11","headsign":"Costco","agencyId":"0","tripId":"1:217478","serviceDate":"20180402","from":{"name":"nouveau","stopId":"1:2280","stopCode":"2280","lon":-71.091199,"lat":48.383276,"arrival":1522696218000,"departure":1522696219000,"zoneId":"NA","stopIndex":27,"stopSequence":28,"vertexType":"TRANSIT"},"to":{"name":"COSTCO","stopId":"1:1710","stopCode":"1710","lon":-71.085767,"lat":48.382333,"arrival":1522696260000,"departure":1522696500000,"zoneId":"NA","stopIndex":28,"stopSequence":29,"vertexType":"TRANSIT"},"legGeometry":{"points":"w|hfHh}{pLz@yDtI}UaCcC","length":4},"routeShortName":"2","routeLongName":"Chic/Jonq via Boul. Royaume","rentedBike":false,"transitLeg":true,"duration":41.0,"steps":[]},{"startTime":1522696500000,"endTime":1522696959000,"departureDelay":0,"arrivalDelay":0,"realTime":false,"distance":2627.4993928987424,"pathway":false,"mode":"BUS","route":"175","agencyName":"Société de Transport du Saguenay","agencyUrl":"http://ville.saguenay.ca/fr/services-aux-citoyens/transport-sts","agencyTimeZoneOffset":-14400000,"routeColor":"FF00FF","routeType":3,"routeId":"1:175","routeTextColor":"FFFFFF","interlineWithPreviousLeg":true,"tripBlockId":"11","headsign":"Terminus Chicoutimi","agencyId":"0","tripId":"1:217479","serviceDate":"20180402","from":{"name":"COSTCO","stopId":"1:1710","stopCode":"1710","lon":-71.085767,"lat":48.382333,"arrival":1522696260000,"departure":1522696500000,"zoneId":"NA","stopIndex":0,"stopSequence":1,"vertexType":"TRANSIT"},"to":{"name":"boul. Talbot / Laurentides","stopId":"1:51","stopCode":"51","lon":-71.063914,"lat":48.398861,"arrival":1522696959000,"departure":1522696959000,"zoneId":"NA","stopIndex":9,"stopSequence":10,"vertexType":"TRANSIT"},"legGeometry":{"points":"euhfHt|zpL_BiBsCoDwCqDrCsGN_@uEoFoEiFUWSUqCwC]a@{ByC{@cAkJuKoAwA_CeCeExJ~AlB`@mAu@k@}@q@|C}Iw@}@aO_QkEsEiAoAgEsFkFsHqJ_N","length":30},"routeShortName":"175","routeLongName":"Term. Chic / Costco","rentedBike":false,"transitLeg":true,"duration":459.0,"steps":[]},{"startTime":1522696959000,"endTime":1522697102000,"departureDelay":0,"arrivalDelay":0,"realTime":false,"distance":186.692,"pathway":false,"mode":"WALK","route":"","agencyTimeZoneOffset":-14400000,"interlineWithPreviousLeg":false,"from":{"name":"boul. Talbot / Laurentides","stopId":"1:51","stopCode":"51","lon":-71.063914,"lat":48.398861,"arrival":1522696959000,"departure":1522696959000,"zoneId":"NA","stopIndex":9,"stopSequence":10,"vertexType":"TRANSIT"},"to":{"name":"boul. Talbot (no.1600) (mode Choc)","stopId":"1:86","stopCode":"86","lon":-71.06283,"lat":48.40025,"arrival":1522697102000,"departure":1522697167000,"zoneId":"NA","stopIndex":6,"stopSequence":7,"vertexType":"TRANSIT"},"legGeometry":{"points":"e|kfH`uvpLGIW]Qb@MOiCgDu@aA","length":7},"rentedBike":false,"transitLeg":false,"duration":143.0,"steps":[{"distance":186.692,"relativeDirection":"DEPART","streetName":"Boulevard Talbot","absoluteDirection":"NORTHEAST","stayOn":false,"area":false,"bogusName":false,"lon":-71.06400548628389,"lat":48.398911410972886,"elevation":[]}]},{"startTime":1522697167000,"endTime":1522697691000,"departureDelay":0,"arrivalDelay":0,"realTime":false,"distance":4822.127150259104,"pathway":false,"mode":"BUS","route":"211S","agencyName":"Société de Transport du Saguenay","agencyUrl":"http://ville.saguenay.ca/fr/services-aux-citoyens/transport-sts","agencyTimeZoneOffset":-14400000,"routeColor":"8B0000","routeType":3,"routeId":"1:211S","routeTextColor":"FFFFFF","interlineWithPreviousLeg":false,"tripBlockId":"104","headsign":"Faubourg Sagamie","agencyId":"0","tripId":"1:218800","serviceDate":"20180402","from":{"name":"boul. Talbot (no.1600) (mode Choc)","stopId":"1:86","stopCode":"86","lon":-71.06283,"lat":48.40025,"arrival":1522697102000,"departure":1522697167000,"zoneId":"NA","stopIndex":6,"stopSequence":7,"vertexType":"TRANSIT"},"to":{"name":"ch.de la Réserve / Carcajous","stopId":"1:1868","stopCode":"1868","lon":-71.114016,"lat":48.411636,"arrival":1522697691000,"departure":1522697692000,"zoneId":"NA","stopIndex":19,"stopSequence":20,"vertexType":"TRANSIT"},"legGeometry":{"points":"gdlfH`mvpLrAvAbCfDjIfMdAzAfFpHd@n@nC`DhEbF{ElMaAjC{GzWoEfQcEbPcBrIuGf\\}BbLe@bB?La@hAwGhQsBrFQJ[t@mAbDAVUn@w@tBkAfDo@xBcA|Dk@`CI^e@dB_@fAi@pAg@dAm@|@s@~@o@l@m@j@s@f@u@`@{ZhNcBv@j@pEHTzAxK|CfOZ`A","length":50},"routeShortName":"211S","routeLongName":"Séminaire - Arvida / Kénogami","rentedBike":false,"transitLeg":true,"duration":524.0,"steps":[]},{"startTime":1522697692000,"endTime":1522697711000,"departureDelay":0,"arrivalDelay":0,"realTime":false,"distance":24.432,"pathway":false,"mode":"WALK","route":"","agencyTimeZoneOffset":-14400000,"interlineWithPreviousLeg":false,"from":{"name":"ch.de la Réserve / Carcajous","stopId":"1:1868","stopCode":"1868","lon":-71.114016,"lat":48.411636,"arrival":1522697691000,"departure":1522697692000,"zoneId":"NA","stopIndex":19,"stopSequence":20,"vertexType":"TRANSIT"},"to":{"name":"Destination","lon":-71.114068,"lat":48.411277,"arrival":1522697711000,"orig":"","vertexType":"NORMAL"},"legGeometry":{"points":"eknfHbm`qLPh@DL","length":3},"rentedBike":false,"transitLeg":false,"duration":19.0,"steps":[{"distance":24.432,"relativeDirection":"DEPART","streetName":"Chemin de la Réserve","absoluteDirection":"SOUTHWEST","stayOn":false,"area":false,"bogusName":false,"lon":-71.11393448379538,"lat":48.41155383832718,"elevation":[]}]}],"tooSloped":false},{"duration":3359,"startTime":1522695755000,"endTime":1522699114000,"walkTime":779,"transitTime":1378,"waitingTime":1202,"walkDistance":1002.0224135301106,"walkLimitExceeded":false,"elevationLost":0.0,"elevationGained":0.0,"transfers":1,"legs":[{"startTime":1522695755000,"endTime":1522696499000,"departureDelay":0,"arrivalDelay":0,"realTime":false,"distance":956.995,"pathway":false,"mode":"WALK","route":"","agencyTimeZoneOffset":-14400000,"interlineWithPreviousLeg":false,"from":{"name":"Origin","lon":-71.089425,"lat":48.379567,"departure":1522695755000,"orig":"","vertexType":"NORMAL"},"to":{"name":"COSTCO","stopId":"1:1710","stopCode":"1710","lon":-71.085767,"lat":48.382333,"arrival":1522696499000,"departure":1522696500000,"zoneId":"NA","stopIndex":0,"stopSequence":1,"vertexType":"TRANSIT"},"legGeometry":{"points":"mqhfHdd{pL@Cp@cBpBmFLWLa@zCuHpA_DZcAPu@s@rA{@jBs@`B}BdGINUh@mCbHuBaC","length":18},"rentedBike":false,"transitLeg":false,"duration":744.0,"steps":[{"distance":183.44799999999998,"relativeDirection":"DEPART","streetName":"Boulevard du Royaume Ouest","absoluteDirection":"SOUTHEAST","stayOn":false,"area":false,"bogusName":false,"lon":-71.08690972199349,"lat":48.38183312594164,"elevation":[]},{"distance":558.224,"relativeDirection":"CONTINUE","streetName":"Boulevard du Royaume Est","absoluteDirection":"SOUTHEAST","stayOn":false,"area":false,"bogusName":false,"lon":-71.08490040000001,"lat":48.380863700000006,"elevation":[]},{"distance":134.097,"relativeDirection":"CONTINUE","streetName":"Boulevard du Royaume Ouest","absoluteDirection":"NORTHWEST","stayOn":false,"area":false,"bogusName":false,"lon":-71.0849956,"lat":48.381051600000006,"elevation":[]},{"distance":81.226,"relativeDirection":"RIGHT","streetName":"service road","absoluteDirection":"NORTHEAST","stayOn":false,"area":false,"bogusName":true,"lon":-71.0864598,"lat":48.381764800000006,"elevation":[]}]},{"startTime":1522696500000,"endTime":1522697100000,"departureDelay":0,"arrivalDelay":0,"realTime":false,"distance":6545.867623869018,"pathway":false,"mode":"BUS","route":"2","agencyName":"Société de Transport du Saguenay","agencyUrl":"http://ville.saguenay.ca/fr/services-aux-citoyens/transport-sts","agencyTimeZoneOffset":-14400000,"routeColor":"FF0000","routeType":3,"routeId":"1:2","routeTextColor":"FFFFFF","interlineWithPreviousLeg":false,"tripBlockId":"7","headsign":"Terminus Jonquière","agencyId":"0","tripId":"1:217338","serviceDate":"20180402","from":{"name":"COSTCO","stopId":"1:1710","stopCode":"1710","lon":-71.085767,"lat":48.382333,"arrival":1522696499000,"departure":1522696500000,"zoneId":"NA","stopIndex":0,"stopSequence":1,"vertexType":"TRANSIT"},"to":{"name":"Faubourg Sagamie","stopId":"1:1129","stopCode":"1129","lon":-71.167414,"lat":48.402974,"arrival":1522697100000,"departure":1522698300000,"zoneId":"NA","stopIndex":9,"stopSequence":10,"vertexType":"TRANSIT"},"legGeometry":{"points":"wthfHn}zpLeLkMxCaIbPzPkL|[eB~GwBlIa@bXIbQO`^aBhTiBlNUfBiI~ZeHzQeFxMqDtKAJ}ApJM~EWhIb@`NFlB_@fOsBvK_DrH_G|HiSfXwExNyEzZoHll@}GpYuL`_@PPZ^lC|Bn@j@bB|A","length":38},"routeShortName":"2","routeLongName":"Chic/Jonq via Boul. Royaume","rentedBike":false,"transitLeg":true,"duration":600.0,"steps":[]},{"startTime":1522698300000,"endTime":1522699078000,"departureDelay":0,"arrivalDelay":0,"realTime":false,"distance":4714.874806997261,"pathway":false,"mode":"BUS","route":"16","agencyName":"Société de Transport du Saguenay","agencyUrl":"http://ville.saguenay.ca/fr/services-aux-citoyens/transport-sts","agencyTimeZoneOffset":-14400000,"routeColor":"00FF00","routeType":3,"routeId":"1:16","routeTextColor":"000000","interlineWithPreviousLeg":false,"tripBlockId":"37","headsign":"Terminus Chicoutimi","agencyId":"0","tripId":"1:218321","serviceDate":"20180402","from":{"name":"Faubourg Sagamie","stopId":"1:1129","stopCode":"1129","lon":-71.167414,"lat":48.402974,"arrival":1522697100000,"departure":1522698300000,"zoneId":"NA","stopIndex":0,"stopSequence":1,"vertexType":"TRANSIT"},"to":{"name":"ch. de la Réserve / Carcajous","stopId":"1:642","stopCode":"642","lon":-71.11365,"lat":48.411602,"arrival":1522699078000,"departure":1522699079000,"zoneId":"NA","stopIndex":19,"stopSequence":20,"vertexType":"TRANSIT"},"legGeometry":{"points":"sulfHn{jqLq@g@J]kIkHbAoDzB{HhBoGxGiTd@{A`ByIXyCZcDaB_@aBoBeGmH[_@m@iClA_AlAuEj@yBt@iDDq@Z}EpAkDlAiAv@i@zB}AeA}H\\sCNgApDyKeE}EoEgF`@gAl@gB}GoImCqFeD_H}DcEiJqJgEeGqAyGk@kEg@_EmD}NkB_IUoBmB{PAiAI_IWkF_BoF","length":52},"routeShortName":"16","routeLongName":"Côte de la Réserve","rentedBike":false,"transitLeg":true,"duration":778.0,"steps":[]},{"startTime":1522699079000,"endTime":1522699114000,"departureDelay":0,"arrivalDelay":0,"realTime":false,"distance":44.912,"pathway":false,"mode":"WALK","route":"","agencyTimeZoneOffset":-14400000,"interlineWithPreviousLeg":false,"from":{"name":"ch. de la Réserve / Carcajous","stopId":"1:642","stopCode":"642","lon":-71.11365,"lat":48.411602,"arrival":1522699078000,"departure":1522699079000,"zoneId":"NA","stopIndex":19,"stopSequence":20,"vertexType":"TRANSIT"},"to":{"name":"Destination","lon":-71.114068,"lat":48.411277,"arrival":1522699114000,"orig":"","vertexType":"NORMAL"},"legGeometry":{"points":"yknfHtk`qLRl@Ph@DL","length":4},"rentedBike":false,"transitLeg":false,"duration":35.0,"steps":[{"distance":44.912,"relativeDirection":"DEPART","streetName":"Chemin de la Réserve","absoluteDirection":"SOUTHWEST","stayOn":false,"area":false,"bogusName":false,"lon":-71.1137027289078,"lat":48.411655146501154,"elevation":[]}]}],"tooSloped":false},{"duration":3417,"startTime":1522697746000,"endTime":1522701163000,"walkTime":291,"transitTime":2824,"waitingTime":302,"walkDistance":385.85,"walkLimitExceeded":false,"elevationLost":0.0,"elevationGained":0.0,"transfers":1,"legs":[{"startTime":1522697746000,"endTime":1522698018000,"departureDelay":0,"arrivalDelay":0,"realTime":false,"distance":361.418,"pathway":false,"mode":"WALK","route":"","agencyTimeZoneOffset":-14400000,"interlineWithPreviousLeg":false,"from":{"name":"Origin","lon":-71.089425,"lat":48.379567,"departure":1522697746000,"orig":"","vertexType":"NORMAL"},"to":{"name":"nouveau","stopId":"1:2280","stopCode":"2280","lon":-71.091199,"lat":48.383276,"arrival":1522698018000,"departure":1522698019000,"zoneId":"NA","stopIndex":27,"stopSequence":28,"vertexType":"TRANSIT"},"legGeometry":{"points":"mqhfHdd{pLg@rAyCzHS`@_AxBsA`EMl@","length":7},"rentedBike":false,"transitLeg":false,"duration":272.0,"steps":[{"distance":361.418,"relativeDirection":"DEPART","streetName":"Boulevard du Royaume Ouest","absoluteDirection":"NORTHWEST","stayOn":false,"area":false,"bogusName":false,"lon":-71.08690972199349,"lat":48.38183312594164,"elevation":[]}]},{"startTime":1522698019000,"endTime":1522698060000,"departureDelay":0,"arrivalDelay":0,"realTime":false,"distance":414.63255884647657,"pathway":false,"mode":"BUS","route":"2","agencyName":"Société de Transport du Saguenay","agencyUrl":"http://ville.saguenay.ca/fr/services-aux-citoyens/transport-sts","agencyTimeZoneOffset":-14400000,"routeColor":"FF0000","routeType":3,"routeId":"1:2","routeTextColor":"FFFFFF","interlineWithPreviousLeg":false,"tripBlockId":"10","headsign":"Costco","agencyId":"0","tripId":"1:217444","serviceDate":"20180402","from":{"name":"nouveau","stopId":"1:2280","stopCode":"2280","lon":-71.091199,"lat":48.383276,"arrival":1522698018000,"departure":1522698019000,"zoneId":"NA","stopIndex":27,"stopSequence":28,"vertexType":"TRANSIT"},"to":{"name":"COSTCO","stopId":"1:1710","stopCode":"1710","lon":-71.085767,"lat":48.382333,"arrival":1522698060000,"departure":1522698300000,"zoneId":"NA","stopIndex":28,"stopSequence":29,"vertexType":"TRANSIT"},"legGeometry":{"points":"w|hfHh}{pLz@yDtI}UaCcC","length":4},"routeShortName":"2","routeLongName":"Chic/Jonq via Boul. Royaume","rentedBike":false,"transitLeg":true,"duration":41.0,"steps":[]},{"startTime":1522698300000,"endTime":1522699800000,"departureDelay":0,"arrivalDelay":0,"realTime":false,"distance":7720.38554651896,"pathway":false,"mode":"BUS","route":"175","agencyName":"Société de Transport du Saguenay","agencyUrl":"http://ville.saguenay.ca/fr/services-aux-citoyens/transport-sts","agencyTimeZoneOffset":-14400000,"routeColor":"FF00FF","routeType":3,"routeId":"1:175","routeTextColor":"FFFFFF","interlineWithPreviousLeg":true,"tripBlockId":"10","headsign":"Terminus Chicoutimi","agencyId":"0","tripId":"1:217445","serviceDate":"20180402","from":{"name":"COSTCO","stopId":"1:1710","stopCode":"1710","lon":-71.085767,"lat":48.382333,"arrival":1522698060000,"departure":1522698300000,"zoneId":"NA","stopIndex":0,"stopSequence":1,"vertexType":"TRANSIT"},"to":{"name":"Terminus Chicoutimi","stopId":"1:1289","stopCode":"1289","lon":-71.066163,"lat":48.428677,"arrival":1522699800000,"departure":1522700100000,"zoneId":"NA","stopIndex":27,"stopSequence":28,"vertexType":"TRANSIT"},"legGeometry":{"points":"euhfHt|zpL_BiBsCoDwCqDrCsGN_@uEoFoEiFUWSUqCwC]a@{ByC{@cAkJuKoAwA_CeCeExJ~AlB`@mAu@k@}@q@|C}Iw@}@aO_QkEsEiAoAgEsFkFsHqJ_N}FkImPkOuO{N_U_TcNgNcBcB{E`Jc@x@qG~@{BlAk@XgSrQqB_GAeFiEeEOt@gAeA_A_ATm@yAwAgBeBqDnL@nBF`@f@|C[dCuAfB]xAs@OmCmCmEkE]a@g@i@ZiGTmEl@oLaEe@cFk@?pH?tJDvBPjMB~Bo@PQDRbFKdGMhIOvIK|EQpHoCQEdC","length":83},"routeShortName":"175","routeLongName":"Term. Chic / Costco","rentedBike":false,"transitLeg":true,"duration":1500.0,"steps":[]},{"startTime":1522700100000,"endTime":1522701143000,"departureDelay":0,"arrivalDelay":0,"realTime":false,"distance":6251.648950783489,"pathway":false,"mode":"BUS","route":"16","agencyName":"Société de Transport du Saguenay","agencyUrl":"http://ville.saguenay.ca/fr/services-aux-citoyens/transport-sts","agencyTimeZoneOffset":-14400000,"routeColor":"00FF00","routeType":3,"routeId":"1:16","routeTextColor":"000000","interlineWithPreviousLeg":false,"tripBlockId":"36","headsign":"Faubourg Sagamie","agencyId":"0","tripId":"1:218296","serviceDate":"20180402","from":{"name":"Terminus Chicoutimi","stopId":"1:1289","stopCode":"1289","lon":-71.066163,"lat":48.428677,"arrival":1522699800000,"departure":1522700100000,"zoneId":"NA","stopIndex":0,"stopSequence":1,"vertexType":"TRANSIT"},"to":{"name":"ch.de la Réserve / Carcajous","stopId":"1:1868","stopCode":"1868","lon":-71.114016,"lat":48.411636,"arrival":1522701143000,"departure":1522701144000,"zoneId":"NA","stopIndex":28,"stopSequence":29,"vertexType":"TRANSIT"},"legGeometry":{"points":"evqfHzcwpLg@?AXCnAO~GxDVhCP~M~@jDTOrHKdGE^E~BQnIMhGAxCD~@Df@DVDZd@zBBLDJJNHHHDJBn@HCxAHdAFX@DFj@@b@Ab@SvAe@p@{EnEEB{@w@m@o@aDeDIKCMCM?SL}A?A@WCYi@mDOu@Wm@EIMSSWaAcAuAcBq@f@URa@d@u@`A}BzCV`DX~C@HFT^v@bA|AZ^`Av@\\`@Zf@pAvCtD`JJTrAtCpAjC@BvA|CvA~Ci@zAqD`KyDrKyF|Og@tAr@r@h@^jA\\\\Nt@\\PHf@RVDXEROR[p@iBr@uBJQLIDCNEr@lERbBFzA@LFbFN`A^r@bB|AlC`BDBz@t@eAjD|@x@~AxAxB`BbAiDjCzB|ApAvAZbAo@|@cDf@gB~DbA~Cr@fNtNZ\\nCbDl@jBZrB\\`Dx@tIbB|KzBnOpB|G","length":137},"routeShortName":"16","routeLongName":"Côte de la Réserve","rentedBike":false,"transitLeg":true,"duration":1043.0,"steps":[]},{"startTime":1522701144000,"endTime":1522701163000,"departureDelay":0,"arrivalDelay":0,"realTime":false,"distance":24.432,"pathway":false,"mode":"WALK","route":"","agencyTimeZoneOffset":-14400000,"interlineWithPreviousLeg":false,"from":{"name":"ch.de la Réserve / Carcajous","stopId":"1:1868","stopCode":"1868","lon":-71.114016,"lat":48.411636,"arrival":1522701143000,"departure":1522701144000,"zoneId":"NA","stopIndex":28,"stopSequence":29,"vertexType":"TRANSIT"},"to":{"name":"Destination","lon":-71.114068,"lat":48.411277,"arrival":1522701163000,"orig":"","vertexType":"NORMAL"},"legGeometry":{"points":"eknfHbm`qLPh@DL","length":3},"rentedBike":false,"transitLeg":false,"duration":19.0,"steps":[{"distance":24.432,"relativeDirection":"DEPART","streetName":"Chemin de la Réserve","absoluteDirection":"SOUTHWEST","stayOn":false,"area":false,"bogusName":false,"lon":-71.11393448379538,"lat":48.41155383832718,"elevation":[]}]}],"tooSloped":false}]},"debugOutput":{"precalculationTime":3,"pathCalculationTime":15,"pathTimes":[6,5,3],"renderingTime":0,"totalTime":18,"timedOut":false},"elevationMetadata":{"ellipsoidToGeoidDifference":-28.885904201182168,"geoidElevation":false}}