{"requestParameters":{"date":"2018/04/02","walkSpeed":"1.33","walkReluctance":"2.0","fromPlace":"48.40201,-71.05843199","maxWalkDistance":"3000","waitReluctance":"1.0","carSpeed":"33","numItineraries":"3","waitAtBeginningFactor":"0.4","mode":"TRANSIT,WALK","ignoreRealtimeUpdates":"false","stairsReluctance":"2.0","toPlace":"48.40513,-71.06202999","time":"15:50:00"},"plan":{"date":1522698600000,"from":{"name":"Origin","lon":-71.05843199,"lat":48.40201,"orig":"","vertexType":"NORMAL"},"to":{"name":"Destination","lon":-71.06202999,"lat":48.40513,"orig":"","vertexType":"NORMAL"},"itineraries":[{"duration":440,"startTime":1522698600000,"endTime":1522699040000,"walkTime":440,"transitTime":0,"waitingTime":0,"walkDistance":564.0105488699362,"walkLimitExceeded":false,"elevationLost":0.0,"elevationGained":0.0,"transfers":0,"legs":[{"startTime":1522698600000,"endTime":1522699040000,"departureDelay":0,"arrivalDelay":0,"realTime":false,"distance":563.941,"pathway":false,"mode":"WALK","route":"","agencyTimeZoneOffset":-14400000,"interlineWithPreviousLeg":false,"from":{"name":"Origin","lon":-71.05843199,"lat":48.40201,"departure":1522698600000,"orig":"","vertexType":"NORMAL"},"to":{"name":"Destination","lon":-71.06202999,"lat":48.40513,"arrival":1522699040000,"orig":"","vertexType":"NORMAL"},"legGeometry":{"points":"gqlfH`qupL[xAa@bBq@hCMZMV_ArBwBxFSS}EuEO`@}@`C","length":12},"rentedBike":false,"transitLeg":false,"duration":440.0,"steps":[{"distance":330.41100000000006,"relativeDirection":"DEPART","streetName":"Rue des Saguenéens","absoluteDirection":"NORTHWEST","stayOn":false,"area":false,"bogusName":false,"lon":-71.05824494283218,"lat":48.40228779211456,"elevation":[]},{"distance":159.651,"relativeDirection":"RIGHT","streetName":"Rue Bach","absoluteDirection":"NORTHEAST","stayOn":false,"area":false,"bogusName":false,"lon":-71.0619727,"lat":48.403908900000005,"elevation":[]},{"distance":73.87899999999999,"relativeDirection":"LEFT","streetName":"Rue Des Maristes","absoluteDirection":"NORTHWEST","stayOn":false,"area":false,"bogusName":false,"lon":-71.06080990000001,"lat":48.405119500000005,"elevation":[]}]}],"tooSloped":false},{"duration":373,"startTime":1522700239000,"endTime":1522700612000,"walkTime":277,"transitTime":94,"waitingTime":2,"walkDistance":349.2231278162858,"walkLimitExceeded":false,"elevationLost":0.0,"elevationGained":0.0,"transfers":0,"legs":[{"startTime":1522700239000,"endTime":1522700339000,"departureDelay":0,"arrivalDelay":0,"realTime":false,"distance":120.30699999999999,"pathway":false,"mode":"WALK","route":"","agencyTimeZoneOffset":-14400000,"interlineWithPreviousLeg":false,"from":{"name":"Origin","lon":-71.05843199,"lat":48.40201,"departure":1522700239000,"orig":"","vertexType":"NORMAL"},"to":{"name":"Place du Royaume (Saguenéens)","stopId":"1:1294","stopCode":"1294","lon":-71.057691,"lat":48.402355,"arrival":1522700339000,"departure":1522700340000,"zoneId":"NA","stopIndex":11,"stopSequence":12,"vertexType":"TRANSIT"},"legGeometry":{"points":"gqlfH`qupL[xAUQLi@`@eC","length":5},"rentedBike":false,"transitLeg":false,"duration":100.0,"steps":[{"distance":50.299,"relativeDirection":"DEPART","streetName":"Rue des Saguenéens","absoluteDirection":"NORTHWEST","stayOn":false,"area":false,"bogusName":false,"lon":-71.05824494283218,"lat":48.40228779211456,"elevation":[]},{"distance":70.008,"relativeDirection":"RIGHT","streetName":"Rue des Saguenéens","absoluteDirection":"SOUTHEAST","stayOn":true,"area":false,"bogusName":false,"lon":-71.0586019,"lat":48.4025327,"elevation":[]}]},{"startTime":1522700340000,"endTime":1522700434000,"departureDelay":0,"arrivalDelay":0,"realTime":false,"distance":611.0942250000784,"pathway":false,"mode":"BUS","route":"15","agencyName":"Société de Transport du Saguenay","agencyUrl":"http://ville.saguenay.ca/fr/services-aux-citoyens/transport-sts","agencyTimeZoneOffset":-14400000,"routeColor":"FF00FF","routeType":3,"routeId":"1:15","routeTextColor":"FFFFFF","interlineWithPreviousLeg":false,"tripBlockId":"30","headsign":"Terminus Chicoutimi","agencyId":"0","tripId":"1:218106","serviceDate":"20180402","from":{"name":"Place du Royaume (Saguenéens)","stopId":"1:1294","stopCode":"1294","lon":-71.057691,"lat":48.402355,"arrival":1522700339000,"departure":1522700340000,"zoneId":"NA","stopIndex":11,"stopSequence":12,"vertexType":"TRANSIT"},"to":{"name":"Saguenéens / Maristes","stopId":"1:1999","stopCode":"1999","lon":-71.06394,"lat":48.405813,"arrival":1522700434000,"departure":1522700435000,"zoneId":"NA","stopIndex":14,"stopSequence":15,"vertexType":"TRANSIT"},"legGeometry":{"points":"eqlfHzmupLUxAm@nCcAlDeCvGmA|CUr@}@~A_@\\_DvCEZcA|@","length":12},"routeShortName":"15","routeLongName":"Term. Chic / Costco","rentedBike":false,"transitLeg":true,"duration":94.0,"steps":[]},{"startTime":1522700435000,"endTime":1522700612000,"departureDelay":0,"arrivalDelay":0,"realTime":false,"distance":228.815,"pathway":false,"mode":"WALK","route":"","agencyTimeZoneOffset":-14400000,"interlineWithPreviousLeg":false,"from":{"name":"Saguenéens / Maristes","stopId":"1:1999","stopCode":"1999","lon":-71.06394,"lat":48.405813,"arrival":1522700434000,"departure":1522700435000,"zoneId":"NA","stopIndex":14,"stopSequence":15,"vertexType":"TRANSIT"},"to":{"name":"Destination","lon":-71.06202999,"lat":48.40513,"arrival":1522700612000,"orig":"","vertexType":"NORMAL"},"legGeometry":{"points":"agmfHduvpLbA_AcBmFPe@bAkC","length":5},"rentedBike":false,"transitLeg":false,"duration":177.0,"steps":[{"distance":44.272,"relativeDirection":"DEPART","streetName":"Rue des Saguenéens","absoluteDirection":"SOUTHEAST","stayOn":false,"area":false,"bogusName":false,"lon":-71.06402958721657,"lat":48.40577499056331,"elevation":[]},{"distance":184.543,"relativeDirection":"LEFT","streetName":"Rue Des Maristes","absoluteDirection":"NORTHEAST","stayOn":false,"area":false,"bogusName":false,"lon":-71.0637066,"lat":48.4054395,"elevation":[]}]}],"tooSloped":false}]},"debugOutput":{"precalculationTime":29,"pathCalculationTime":19,"pathTimes":[11,5,3],"renderingTime":0,"totalTime":48,"timedOut":false},"elevationMetadata":{"ellipsoidToGeoidDifference":-28.885904201182168,"geoidElevation":false}}