{"requestParameters":{"date":"2018/04/02","walkSpeed":"1.33","walkReluctance":"2.0","fromPlace":"48.411231,-71.10399","maxWalkDistance":"3000","waitReluctance":"1.0","carSpeed":"33","numItineraries":"3","waitAtBeginningFactor":"0.4","mode":"TRANSIT,WALK","ignoreRealtimeUpdates":"false","stairsReluctance":"2.0","toPlace":"48.418436,-71.035021","time":"7:30:00"},"plan":{"date":1522668600000,"from":{"name":"Origin","lon":-71.10399,"lat":48.411231,"orig":"","vertexType":"NORMAL"},"to":{"name":"Destination","lon":-71.035021,"lat":48.418436,"orig":"","vertexType":"NORMAL"},"itineraries":[{"duration":2480,"startTime":1522669220000,"endTime":1522671700000,"walkTime":1278,"transitTime":1200,"waitingTime":2,"walkDistance":1647.0471578878587,"walkLimitExceeded":false,"elevationLost":0.0,"elevationGained":0.0,"transfers":0,"legs":[{"startTime":1522669220000,"endTime":1522670219000,"departureDelay":0,"arrivalDelay":0,"realTime":false,"distance":1300.417,"pathway":false,"mode":"WALK","route":"","agencyTimeZoneOffset":-14400000,"interlineWithPreviousLeg":false,"from":{"name":"Origin","lon":-71.10399,"lat":48.411231,"departure":1522669220000,"orig":"","vertexType":"NORMAL"},"to":{"name":"Carcajous / Martres","stopId":"1:1623","stopCode":"1623","lon":-71.117898,"lat":48.412938,"arrival":1522670219000,"departure":1522670220000,"zoneId":"NA","stopIndex":0,"stopSequence":1,"vertexType":"TRANSIT"},"legGeometry":{"points":"oknfHdp~pLHj@I|BaAxBgA`@sFr@BZx@pHPnAr@|FHh@Hr@BXj@bEXvBn@dDp@tBb@jBYT]\\M\\Wn@G`@uA|CEJ_A\\_@j@]zB~@nDBLRlC","length":31},"rentedBike":false,"transitLeg":false,"duration":999.0,"steps":[{"distance":301.199,"relativeDirection":"DEPART","streetName":"Rue Gabriel-Druillet","absoluteDirection":"WEST","stayOn":false,"area":false,"bogusName":false,"lon":-71.10418850814189,"lat":48.41160136208376,"elevation":[]},{"distance":589.637,"relativeDirection":"LEFT","streetName":"Chemin de la Réserve","absoluteDirection":"WEST","stayOn":false,"area":false,"bogusName":false,"lon":-71.1060731,"lat":48.4135147,"elevation":[]},{"distance":409.5810000000001,"relativeDirection":"RIGHT","streetName":"Rue des Carcajous","absoluteDirection":"NORTHWEST","stayOn":false,"area":false,"bogusName":false,"lon":-71.11355780000001,"lat":48.411718500000006,"elevation":[]}]},{"startTime":1522670220000,"endTime":1522671420000,"departureDelay":0,"arrivalDelay":0,"realTime":false,"distance":6056.1801182519575,"pathway":false,"mode":"BUS","route":"217S","agencyName":"Société de Transport du Saguenay","agencyUrl":"http://ville.saguenay.ca/fr/services-aux-citoyens/transport-sts","agencyTimeZoneOffset":-14400000,"routeColor":"8B0000","routeType":3,"routeId":"1:217S","routeTextColor":"FFFFFF","interlineWithPreviousLeg":false,"tripBlockId":"94","headsign":"Séminaire","agencyId":"0","tripId":"1:218702","serviceDate":"20180402","from":{"name":"Carcajous / Martres","stopId":"1:1623","stopCode":"1623","lon":-71.117898,"lat":48.412938,"arrival":1522670219000,"departure":1522670220000,"zoneId":"NA","stopIndex":0,"stopSequence":1,"vertexType":"TRANSIT"},"to":{"name":"Séminaire de Chicoutimi (Chabanel)","stopId":"1:1902","stopCode":"1902","lon":-71.037893,"lat":48.41769,"arrival":1522671420000,"departure":1522671421000,"zoneId":"NA","stopIndex":2,"stopSequence":3,"vertexType":"TRANSIT"},"legGeometry":{"points":"ksnfHveaqLB`@v@[lDd@r@PrAM?eK]{F{@uCs@wBc@kBo@sBo@aDeAeI}AgMz]yNhDgClCqDzAmDf@iCwA{@qAQiFHuAuAaAmAYoDNmC{AeB|@yC}AgDvCaImBaBA?kAbCeBkAx@iCzAqCtD|ApDmIsTg[w@yAwFqIs@eBa@aBa@}CeA_FwBiGkEaG{DaGg_@s^sCmEzAoFlBqeAd@_Dj@{Cj@uAt@iAhIuHpIgH`IcHrAo@dA]jEO|AoAnAmCbBcFaW{W{JeKgEiDyEgClKe[{CaD|@sAVSN^JJV?LKJ_@","length":79},"routeShortName":"217S","routeLongName":"Séminaire - ch. Réserve","rentedBike":false,"transitLeg":true,"duration":1200.0,"steps":[]},{"startTime":1522671421000,"endTime":1522671700000,"departureDelay":0,"arrivalDelay":0,"realTime":false,"distance":346.417,"pathway":false,"mode":"WALK","route":"","agencyTimeZoneOffset":-14400000,"interlineWithPreviousLeg":false,"from":{"name":"Séminaire de Chicoutimi (Chabanel)","stopId":"1:1902","stopCode":"1902","lon":-71.037893,"lat":48.41769,"arrival":1522671420000,"departure":1522671421000,"zoneId":"NA","stopIndex":2,"stopSequence":3,"vertexType":"TRANSIT"},"to":{"name":"Destination","lon":-71.035021,"lat":48.418436,"arrival":1522671700000,"orig":"","vertexType":"NORMAL"},"legGeometry":{"points":"kqofH~qqpLQj@E?E?O]OBO?MMK_@UWSWUKMISGQKOKIOA]LSRo@H{@Co@GgBC_ABe@Dg@","length":26},"rentedBike":false,"transitLeg":false,"duration":279.0,"steps":[{"distance":21.334,"relativeDirection":"DEPART","streetName":"service road","absoluteDirection":"NORTHWEST","stayOn":false,"area":false,"bogusName":true,"lon":-71.0379161128933,"lat":48.417666291722945,"elevation":[]},{"distance":325.08299999999997,"relativeDirection":"RIGHT","streetName":"service road","absoluteDirection":"NORTHEAST","stayOn":true,"area":false,"bogusName":true,"lon":-71.03813170000001,"lat":48.417780300000004,"elevation":[]}]}],"tooSloped":false},{"duration":2228,"startTime":1522669984000,"endTime":1522672212000,"walkTime":534,"transitTime":1452,"waitingTime":242,"walkDistance":693.7352406000117,"walkLimitExceeded":false,"elevationLost":0.0,"elevationGained":0.0,"transfers":1,"legs":[{"startTime":1522669984000,"endTime":1522670336000,"departureDelay":0,"arrivalDelay":0,"realTime":false,"distance":460.404,"pathway":false,"mode":"WALK","route":"","agencyTimeZoneOffset":-14400000,"interlineWithPreviousLeg":false,"from":{"name":"Origin","lon":-71.10399,"lat":48.411231,"departure":1522669984000,"orig":"","vertexType":"NORMAL"},"to":{"name":"ch. de la Réserve / boul. Barrette","stopId":"1:1583","stopCode":"1583","lon":-71.108098,"lat":48.413019,"arrival":1522670336000,"departure":1522670337000,"zoneId":"NA","stopIndex":21,"stopSequence":22,"vertexType":"TRANSIT"},"legGeometry":{"points":"oknfHdp~pLHj@I|BaAxBgA`@sFr@BZx@pHPnA","length":9},"rentedBike":false,"transitLeg":false,"duration":352.0,"steps":[{"distance":301.199,"relativeDirection":"DEPART","streetName":"Rue Gabriel-Druillet","absoluteDirection":"WEST","stayOn":false,"area":false,"bogusName":false,"lon":-71.10418850814189,"lat":48.41160136208376,"elevation":[]},{"distance":159.20499999999998,"relativeDirection":"LEFT","streetName":"Chemin de la Réserve","absoluteDirection":"WEST","stayOn":false,"area":false,"bogusName":false,"lon":-71.1060731,"lat":48.4135147,"elevation":[]}]},{"startTime":1522670337000,"endTime":1522671060000,"departureDelay":0,"arrivalDelay":0,"realTime":false,"distance":4156.896648214512,"pathway":false,"mode":"BUS","route":"16","agencyName":"Société de Transport du Saguenay","agencyUrl":"http://ville.saguenay.ca/fr/services-aux-citoyens/transport-sts","agencyTimeZoneOffset":-14400000,"routeColor":"00FF00","routeType":3,"routeId":"1:16","routeTextColor":"000000","interlineWithPreviousLeg":false,"tripBlockId":"37","headsign":"Terminus Chicoutimi","agencyId":"0","tripId":"1:218305","serviceDate":"20180402","from":{"name":"ch. de la Réserve / boul. Barrette","stopId":"1:1583","stopCode":"1583","lon":-71.108098,"lat":48.413019,"arrival":1522670336000,"departure":1522670337000,"zoneId":"NA","stopIndex":21,"stopSequence":22,"vertexType":"TRANSIT"},"to":{"name":"Terminus Chicoutimi","stopId":"1:1289","stopCode":"1289","lon":-71.066163,"lat":48.428677,"arrival":1522671060000,"departure":1522671300000,"zoneId":"NA","stopIndex":35,"stopSequence":36,"vertexType":"TRANSIT"},"legGeometry":{"points":"_unfH~h_qLQmAoAwK[aEeByD}BkCmC_DaDqDyDcDkD]_Bc@aAY_IsGYo@}@mBqAkKg@aE@wFS}AiAaIgA{B}CiGiBeFqBsFQ_@wA_DyAaD_AoBQ[sAuC{@sBeCcGqAwC[g@]a@aAw@[_@cA}A_@w@GU[iDWaDzByCv@cA`@e@TSp@g@nAo@nBm@ZSf@c@PMb@[b@_@b@e@PYP]N_@La@P{@NcB@IBcAG_A{@sEEg@oAP}@DiBDFeBMa@iBCq@FmBPFcEDoBNiHyDWN_HBoA@Y@m@","length":82},"routeShortName":"16","routeLongName":"Côte de la Réserve","rentedBike":false,"transitLeg":true,"duration":723.0,"steps":[]},{"startTime":1522671300000,"endTime":1522672029000,"departureDelay":0,"arrivalDelay":0,"realTime":false,"distance":3458.8732059868325,"pathway":false,"mode":"BUS","route":"10","agencyName":"Société de Transport du Saguenay","agencyUrl":"http://ville.saguenay.ca/fr/services-aux-citoyens/transport-sts","agencyTimeZoneOffset":-14400000,"routeColor":"0000FF","routeType":3,"routeId":"1:10","routeTextColor":"FFFFFF","interlineWithPreviousLeg":false,"tripBlockId":"29","headsign":"Terminus UQAC","agencyId":"0","tripId":"1:218055","serviceDate":"20180402","from":{"name":"Terminus Chicoutimi","stopId":"1:1289","stopCode":"1289","lon":-71.066163,"lat":48.428677,"arrival":1522671060000,"departure":1522671300000,"zoneId":"NA","stopIndex":0,"stopSequence":1,"vertexType":"TRANSIT"},"to":{"name":"Chabanel (no. 616)","stopId":"1:1640","stopCode":"1640","lon":-71.037069,"lat":48.419408,"arrival":1522672029000,"departure":1522672030000,"zoneId":"NA","stopIndex":14,"stopSequence":15,"vertexType":"TRANSIT"},"legGeometry":{"points":"svqfHnbwpLDmCdDZ\\kO`@mQBuCD}DQ_ECk@^Cd@QWkL?m@IuF@gA?eH?cAEuEDO^AjD`@B@rEf@T_FjBXpDd@hCObDaCfCaHbFqN`CwG_J_CwMiDGe@T}C\\yELaCJeAJcAXw@Fk@M_@xBwVr@^LJ|@z@HdAlBbD`Av@b@\\v@d@`@BpBAzAXl@t@","length":55},"routeShortName":"10","routeLongName":"Notre-Dame du Saguenay","rentedBike":false,"transitLeg":true,"duration":729.0,"steps":[]},{"startTime":1522672030000,"endTime":1522672212000,"departureDelay":0,"arrivalDelay":0,"realTime":false,"distance":233.28499999999997,"pathway":false,"mode":"WALK","route":"","agencyTimeZoneOffset":-14400000,"interlineWithPreviousLeg":false,"from":{"name":"Chabanel (no. 616)","stopId":"1:1640","stopCode":"1640","lon":-71.037069,"lat":48.419408,"arrival":1522672029000,"departure":1522672030000,"zoneId":"NA","stopIndex":14,"stopSequence":15,"vertexType":"TRANSIT"},"to":{"name":"Destination","lon":-71.035021,"lat":48.418436,"arrival":1522672212000,"orig":"","vertexType":"NORMAL"},"legGeometry":{"points":"{{ofH`lqpL?@VZHTDPPOHGR_@LSRo@H{@Co@GgBC_ABe@Dg@","length":16},"rentedBike":false,"transitLeg":false,"duration":182.0,"steps":[{"distance":35.321,"relativeDirection":"DEPART","streetName":"Rue Chabanel","absoluteDirection":"SOUTHWEST","stayOn":false,"area":false,"bogusName":false,"lon":-71.03696057111584,"lat":48.41934895529792,"elevation":[]},{"distance":197.964,"relativeDirection":"LEFT","streetName":"service road","absoluteDirection":"SOUTHEAST","stayOn":false,"area":false,"bogusName":true,"lon":-71.0373165,"lat":48.419144200000005,"elevation":[]}]}],"tooSloped":false},{"duration":2228,"startTime":1522671784000,"endTime":1522674012000,"walkTime":534,"transitTime":1452,"waitingTime":242,"walkDistance":693.7352406000117,"walkLimitExceeded":false,"elevationLost":0.0,"elevationGained":0.0,"transfers":1,"legs":[{"startTime":1522671784000,"endTime":1522672136000,"departureDelay":0,"arrivalDelay":0,"realTime":false,"distance":460.404,"pathway":false,"mode":"WALK","route":"","agencyTimeZoneOffset":-14400000,"interlineWithPreviousLeg":false,"from":{"name":"Origin","lon":-71.10399,"lat":48.411231,"departure":1522671784000,"orig":"","vertexType":"NORMAL"},"to":{"name":"ch. de la Réserve / boul. Barrette","stopId":"1:1583","stopCode":"1583","lon":-71.108098,"lat":48.413019,"arrival":1522672136000,"departure":1522672137000,"zoneId":"NA","stopIndex":21,"stopSequence":22,"vertexType":"TRANSIT"},"legGeometry":{"points":"oknfHdp~pLHj@I|BaAxBgA`@sFr@BZx@pHPnA","length":9},"rentedBike":false,"transitLeg":false,"duration":352.0,"steps":[{"distance":301.199,"relativeDirection":"DEPART","streetName":"Rue Gabriel-Druillet","absoluteDirection":"WEST","stayOn":false,"area":false,"bogusName":false,"lon":-71.10418850814189,"lat":48.41160136208376,"elevation":[]},{"distance":159.20499999999998,"relativeDirection":"LEFT","streetName":"Chemin de la Réserve","absoluteDirection":"WEST","stayOn":false,"area":false,"bogusName":false,"lon":-71.1060731,"lat":48.4135147,"elevation":[]}]},{"startTime":1522672137000,"endTime":1522672860000,"departureDelay":0,"arrivalDelay":0,"realTime":false,"distance":4156.896648214512,"pathway":false,"mode":"BUS","route":"16","agencyName":"Société de Transport du Saguenay","agencyUrl":"http://ville.saguenay.ca/fr/services-aux-citoyens/transport-sts","agencyTimeZoneOffset":-14400000,"routeColor":"00FF00","routeType":3,"routeId":"1:16","routeTextColor":"000000","interlineWithPreviousLeg":false,"tripBlockId":"34","headsign":"Terminus Chicoutimi","agencyId":"0","tripId":"1:218210","serviceDate":"20180402","from":{"name":"ch. de la Réserve / boul. Barrette","stopId":"1:1583","stopCode":"1583","lon":-71.108098,"lat":48.413019,"arrival":1522672136000,"departure":1522672137000,"zoneId":"NA","stopIndex":21,"stopSequence":22,"vertexType":"TRANSIT"},"to":{"name":"Terminus Chicoutimi","stopId":"1:1289","stopCode":"1289","lon":-71.066163,"lat":48.428677,"arrival":1522672860000,"departure":1522673100000,"zoneId":"NA","stopIndex":35,"stopSequence":36,"vertexType":"TRANSIT"},"legGeometry":{"points":"_unfH~h_qLQmAoAwK[aEeByD}BkCmC_DaDqDyDcDkD]_Bc@aAY_IsGYo@}@mBqAkKg@aE@wFS}AiAaIgA{B}CiGiBeFqBsFQ_@wA_DyAaD_AoBQ[sAuC{@sBeCcGqAwC[g@]a@aAw@[_@cA}A_@w@GU[iDWaDzByCv@cA`@e@TSp@g@nAo@nBm@ZSf@c@PMb@[b@_@b@e@PYP]N_@La@P{@NcB@IBcAG_A{@sEEg@oAP}@DiBDFeBMa@iBCq@FmBPFcEDoBNiHyDWN_HBoA@Y@m@","length":82},"routeShortName":"16","routeLongName":"Côte de la Réserve","rentedBike":false,"transitLeg":true,"duration":723.0,"steps":[]},{"startTime":1522673100000,"endTime":1522673829000,"departureDelay":0,"arrivalDelay":0,"realTime":false,"distance":3458.8732059868325,"pathway":false,"mode":"BUS","route":"10","agencyName":"Société de Transport du Saguenay","agencyUrl":"http://ville.saguenay.ca/fr/services-aux-citoyens/transport-sts","agencyTimeZoneOffset":-14400000,"routeColor":"0000FF","routeType":3,"routeId":"1:10","routeTextColor":"FFFFFF","interlineWithPreviousLeg":false,"tripBlockId":"26","headsign":"Terminus UQAC","agencyId":"0","tripId":"1:217968","serviceDate":"20180402","from":{"name":"Terminus Chicoutimi","stopId":"1:1289","stopCode":"1289","lon":-71.066163,"lat":48.428677,"arrival":1522672860000,"departure":1522673100000,"zoneId":"NA","stopIndex":0,"stopSequence":1,"vertexType":"TRANSIT"},"to":{"name":"Chabanel (no. 616)","stopId":"1:1640","stopCode":"1640","lon":-71.037069,"lat":48.419408,"arrival":1522673829000,"departure":1522673830000,"zoneId":"NA","stopIndex":14,"stopSequence":15,"vertexType":"TRANSIT"},"legGeometry":{"points":"svqfHnbwpLDmCdDZ\\kO`@mQBuCD}DQ_ECk@^Cd@QWkL?m@IuF@gA?eH?cAEuEDO^AjD`@B@rEf@T_FjBXpDd@hCObDaCfCaHbFqN`CwG_J_CwMiDGe@T}C\\yELaCJeAJcAXw@Fk@M_@xBwVr@^LJ|@z@HdAlBbD`Av@b@\\v@d@`@BpBAzAXl@t@","length":55},"routeShortName":"10","routeLongName":"Notre-Dame du Saguenay","rentedBike":false,"transitLeg":true,"duration":729.0,"steps":[]},{"startTime":1522673830000,"endTime":1522674012000,"departureDelay":0,"arrivalDelay":0,"realTime":false,"distance":233.28499999999997,"pathway":false,"mode":"WALK","route":"","agencyTimeZoneOffset":-14400000,"interlineWithPreviousLeg":false,"from":{"name":"Chabanel (no. 616)","stopId":"1:1640","stopCode":"1640","lon":-71.037069,"lat":48.419408,"arrival":1522673829000,"departure":1522673830000,"zoneId":"NA","stopIndex":14,"stopSequence":15,"vertexType":"TRANSIT"},"to":{"name":"Destination","lon":-71.035021,"lat":48.418436,"arrival":1522674012000,"orig":"","vertexType":"NORMAL"},"legGeometry":{"points":"{{ofH`lqpL?@VZHTDPPOHGR_@LSRo@H{@Co@GgBC_ABe@Dg@","length":16},"rentedBike":false,"transitLeg":false,"duration":182.0,"steps":[{"distance":35.321,"relativeDirection":"DEPART","streetName":"Rue Chabanel","absoluteDirection":"SOUTHWEST","stayOn":false,"area":false,"bogusName":false,"lon":-71.03696057111584,"lat":48.41934895529792,"elevation":[]},{"distance":197.964,"relativeDirection":"LEFT","streetName":"service road","absoluteDirection":"SOUTHEAST","stayOn":false,"area":false,"bogusName":true,"lon":-71.0373165,"lat":48.419144200000005,"elevation":[]}]}],"tooSloped":false}]},"debugOutput":{"precalculationTime":14,"pathCalculationTime":18,"pathTimes":[14,2,2],"renderingTime":0,"totalTime":32,"timedOut":false},"elevationMetadata":{"ellipsoidToGeoidDifference":-28.885904201182168,"geoidElevation":false}}