{"requestParameters":{"date":"2018/04/02","walkSpeed":"1.33","walkReluctance":"2.0","fromPlace":"48.429233,-71.04134299","maxWalkDistance":"3000","waitReluctance":"1.0","carSpeed":"33","numItineraries":"3","waitAtBeginningFactor":"0.4","mode":"TRANSIT,WALK","ignoreRealtimeUpdates":"false","stairsReluctance":"2.0","toPlace":"48.398673,-71.063822","time":"12:40:00"},"plan":{"date":1522687200000,"from":{"name":"Origin","lon":-71.04134299,"lat":48.429233,"orig":"","vertexType":"NORMAL"},"to":{"name":"Destination","lon":-71.063822,"lat":48.398673,"orig":"","vertexType":"NORMAL"},"itineraries":[{"duration":1799,"startTime":1522687882000,"endTime":1522689681000,"walkTime":932,"transitTime":865,"waitingTime":2,"walkDistance":1204.698714281335,"walkLimitExceeded":false,"elevationLost":0.0,"elevationGained":0.0,"transfers":0,"legs":[{"startTime":1522687882000,"endTime":1522688656000,"departureDelay":0,"arrivalDelay":0,"realTime":false,"distance":1007.408,"pathway":false,"mode":"WALK","route":"","agencyTimeZoneOffset":-14400000,"interlineWithPreviousLeg":false,"from":{"name":"Origin","lon":-71.04134299,"lat":48.429233,"departure":1522687882000,"orig":"","vertexType":"NORMAL"},"to":{"name":"Hôtel-Dieu / Séminaire","stopId":"1:341","stopCode":"341","lon":-71.05125,"lat":48.42738,"arrival":1522688656000,"departure":1522688657000,"zoneId":"NA","stopIndex":5,"stopSequence":6,"vertexType":"TRANSIT"},"legGeometry":{"points":"}yqfHlgrpL@vDEpC?@ALA|@Ap@EpAEx@CZIjAQtBCZElA?`@?|@?ZAzA?jDAjC?f@AtHBp@Hl@l@bBl@v@NPf@|@TEVEdBWp@Mb@G^M@sA","length":35},"rentedBike":false,"transitLeg":false,"duration":774.0,"steps":[{"distance":169.088,"relativeDirection":"DEPART","streetName":"Boulevard du Saguenay Est","absoluteDirection":"WEST","stayOn":false,"area":false,"bogusName":false,"lon":-71.04134341232603,"lat":48.42927235868192,"elevation":[]},{"distance":656.19,"relativeDirection":"CONTINUE","streetName":"Rue Racine Est","absoluteDirection":"WEST","stayOn":false,"area":false,"bogusName":false,"lon":-71.04363190000001,"lat":48.4293294,"elevation":[]},{"distance":151.044,"relativeDirection":"LEFT","streetName":"Rue du Séminaire","absoluteDirection":"SOUTH","stayOn":false,"area":false,"bogusName":false,"lon":-71.0520228,"lat":48.4288171,"elevation":[]},{"distance":31.086,"relativeDirection":"LEFT","streetName":"Rue de l'Hôtel-Dieu","absoluteDirection":"EAST","stayOn":false,"area":false,"bogusName":false,"lon":-71.05166870000001,"lat":48.42748,"elevation":[]}]},{"startTime":1522688657000,"endTime":1522689522000,"departureDelay":0,"arrivalDelay":0,"realTime":false,"distance":4538.6450754061825,"pathway":false,"mode":"BUS","route":"175","agencyName":"Société de Transport du Saguenay","agencyUrl":"http://ville.saguenay.ca/fr/services-aux-citoyens/transport-sts","agencyTimeZoneOffset":-14400000,"routeColor":"FF00FF","routeType":3,"routeId":"1:175","routeTextColor":"FFFFFF","interlineWithPreviousLeg":false,"tripBlockId":"78","headsign":"Costco","agencyId":"0","tripId":"1:218645","serviceDate":"20180402","from":{"name":"Hôtel-Dieu / Séminaire","stopId":"1:341","stopCode":"341","lon":-71.05125,"lat":48.42738,"arrival":1522688656000,"departure":1522688657000,"zoneId":"NA","stopIndex":5,"stopSequence":6,"vertexType":"TRANSIT"},"to":{"name":"boul. Talbot (no.1600) (mode Choc)","stopId":"1:86","stopCode":"86","lon":-71.06283,"lat":48.40025,"arrival":1522689522000,"departure":1522689523000,"zoneId":"NA","stopIndex":22,"stopSequence":23,"vertexType":"TRANSIT"},"legGeometry":{"points":"gnqfHhetpL@iFbEf@xEj@iCtYp@r@z@`ABBvHtHXRx@l@VwAvAgB\\qBIuAC]g@yEzDuLbBbBvAxAMx@|@v@`A~@Xw@~D~DPxFZtA~ApE`N{LpFmEb@[ROl@[vDQXKfA[|@q@fAsBlEmMr@sBhCsKz@dAjB|@dM`GzCvAXrCr@~Gx@]PEr@ObACn@FrBb@|@Ch@Kx@U~HsB^KZ|DJpII~Fa@rFUzBi@bDUxAm@nCcAlDM^RTfD`DjF`FjCrC","length":72},"routeShortName":"175","routeLongName":"Term. Chic / Costco","rentedBike":false,"transitLeg":true,"duration":865.0,"steps":[]},{"startTime":1522689523000,"endTime":1522689681000,"departureDelay":0,"arrivalDelay":0,"realTime":false,"distance":197.155,"pathway":false,"mode":"WALK","route":"","agencyTimeZoneOffset":-14400000,"interlineWithPreviousLeg":false,"from":{"name":"boul. Talbot (no.1600) (mode Choc)","stopId":"1:86","stopCode":"86","lon":-71.06283,"lat":48.40025,"arrival":1522689522000,"departure":1522689523000,"zoneId":"NA","stopIndex":22,"stopSequence":23,"vertexType":"TRANSIT"},"to":{"name":"Destination","lon":-71.063822,"lat":48.398673,"arrival":1522689681000,"orig":"","vertexType":"NORMAL"},"legGeometry":{"points":"edlfHbmvpLt@`AhCfDLNPc@V\\FHNP","length":8},"rentedBike":false,"transitLeg":false,"duration":158.0,"steps":[{"distance":197.155,"relativeDirection":"DEPART","streetName":"Boulevard Talbot","absoluteDirection":"SOUTHWEST","stayOn":false,"area":false,"bogusName":false,"lon":-71.06273598252479,"lat":48.400199941215426,"elevation":[]}]}],"tooSloped":false},{"duration":2264,"startTime":1522687649000,"endTime":1522689913000,"walkTime":1184,"transitTime":1078,"waitingTime":2,"walkDistance":1541.1795338309232,"walkLimitExceeded":false,"elevationLost":0.0,"elevationGained":0.0,"transfers":0,"legs":[{"startTime":1522687649000,"endTime":1522687741000,"departureDelay":0,"arrivalDelay":0,"realTime":false,"distance":121.685,"pathway":false,"mode":"WALK","route":"","agencyTimeZoneOffset":-14400000,"interlineWithPreviousLeg":false,"from":{"name":"Origin","lon":-71.04134299,"lat":48.429233,"departure":1522687649000,"orig":"","vertexType":"NORMAL"},"to":{"name":"boul. Saguenay / Bon-Conseil","stopId":"1:491","stopCode":"491","lon":-71.043,"lat":48.4292,"arrival":1522687741000,"departure":1522687742000,"zoneId":"NA","stopIndex":5,"stopSequence":6,"vertexType":"TRANSIT"},"legGeometry":{"points":"}yqfHlgrpL@vDEpC","length":3},"rentedBike":false,"transitLeg":false,"duration":92.0,"steps":[{"distance":121.685,"relativeDirection":"DEPART","streetName":"Boulevard du Saguenay Est","absoluteDirection":"WEST","stayOn":false,"area":false,"bogusName":false,"lon":-71.04134341232603,"lat":48.42927235868192,"elevation":[]}]},{"startTime":1522687742000,"endTime":1522688820000,"departureDelay":0,"arrivalDelay":0,"realTime":false,"distance":6636.3977891759805,"pathway":false,"mode":"BUS","route":"12","agencyName":"Société de Transport du Saguenay","agencyUrl":"http://ville.saguenay.ca/fr/services-aux-citoyens/transport-sts","agencyTimeZoneOffset":-14400000,"routeColor":"556B2F","routeType":3,"routeId":"1:12","routeTextColor":"FFFFFF","interlineWithPreviousLeg":false,"tripBlockId":"27","headsign":"Terminus UQAC","agencyId":"0","tripId":"1:218012","serviceDate":"20180402","from":{"name":"boul. Saguenay / Bon-Conseil","stopId":"1:491","stopCode":"491","lon":-71.043,"lat":48.4292,"arrival":1522687741000,"departure":1522687742000,"zoneId":"NA","stopIndex":5,"stopSequence":6,"vertexType":"TRANSIT"},"to":{"name":"Place du Royaume (Champs-Élysées)","stopId":"1:193","stopCode":"193","lon":-71.052659,"lat":48.407065,"arrival":1522688820000,"departure":1522688821000,"zoneId":"NA","stopIndex":28,"stopSequence":29,"vertexType":"TRANSIT"},"legGeometry":{"points":"oyqfHxqrpLSeV}@aNs@gKToKd@gTnCyHkGuLqFqJ_DeFf@iIvGsKlIrH`JlH`EfDnOdIdGlGjL|BzBiLv@}L`b@fNvVvrCdRvMcAjK","length":24},"routeShortName":"12","routeLongName":"Rivière du Moulin","rentedBike":false,"transitLeg":true,"duration":1078.0,"steps":[]},{"startTime":1522688821000,"endTime":1522689913000,"departureDelay":0,"arrivalDelay":0,"realTime":false,"distance":1419.381,"pathway":false,"mode":"WALK","route":"","agencyTimeZoneOffset":-14400000,"interlineWithPreviousLeg":false,"from":{"name":"Place du Royaume (Champs-Élysées)","stopId":"1:193","stopCode":"193","lon":-71.052659,"lat":48.407065,"arrival":1522688820000,"departure":1522688821000,"zoneId":"NA","stopIndex":28,"stopSequence":29,"vertexType":"TRANSIT"},"to":{"name":"Destination","lon":-71.063822,"lat":48.398673,"arrival":1522689913000,"orig":"","vertexType":"NORMAL"},"legGeometry":{"points":"unmfH|ntpLQTOb@aA~Cs@pB^\\~EnEm@|B|DpDLJhE~DhFvEjBdBVVLJzDpDpH~GnCpDdB~BV\\FHNP","length":22},"rentedBike":false,"transitLeg":false,"duration":1092.0,"steps":[{"distance":149.249,"relativeDirection":"DEPART","streetName":"Rue des Champs-Élysées","absoluteDirection":"NORTHWEST","stayOn":false,"area":false,"bogusName":false,"lon":-71.0527883359973,"lat":48.40699779220329,"elevation":[]},{"distance":167.27,"relativeDirection":"LEFT","streetName":"parking aisle","absoluteDirection":"SOUTHWEST","stayOn":false,"area":false,"bogusName":true,"lon":-71.0544462,"lat":48.407755200000004,"elevation":[]},{"distance":53.12,"relativeDirection":"RIGHT","streetName":"service road","absoluteDirection":"NORTHWEST","stayOn":true,"area":false,"bogusName":true,"lon":-71.0556352,"lat":48.4064746,"elevation":[]},{"distance":1049.742,"relativeDirection":"LEFT","streetName":"Boulevard Talbot","absoluteDirection":"SOUTHWEST","stayOn":false,"area":false,"bogusName":false,"lon":-71.0562666,"lat":48.4067038,"elevation":[]}]}],"tooSloped":false},{"duration":1853,"startTime":1522688728000,"endTime":1522690581000,"walkTime":251,"transitTime":1360,"waitingTime":242,"walkDistance":319.78516541139885,"walkLimitExceeded":false,"elevationLost":0.0,"elevationGained":0.0,"transfers":1,"legs":[{"startTime":1522688728000,"endTime":1522688821000,"departureDelay":0,"arrivalDelay":0,"realTime":false,"distance":122.56400000000001,"pathway":false,"mode":"WALK","route":"","agencyTimeZoneOffset":-14400000,"interlineWithPreviousLeg":false,"from":{"name":"Origin","lon":-71.04134299,"lat":48.429233,"departure":1522688728000,"orig":"","vertexType":"NORMAL"},"to":{"name":"boul. Saguenay / Bon-Conseil","stopId":"1:1990","stopCode":"1990","lon":-71.043002,"lat":48.429311,"arrival":1522688821000,"departure":1522688822000,"zoneId":"NA","stopIndex":30,"stopSequence":31,"vertexType":"TRANSIT"},"legGeometry":{"points":"}yqfHlgrpL@vDEpC?@","length":4},"rentedBike":false,"transitLeg":false,"duration":93.0,"steps":[{"distance":122.56400000000001,"relativeDirection":"DEPART","streetName":"Boulevard du Saguenay Est","absoluteDirection":"WEST","stayOn":false,"area":false,"bogusName":false,"lon":-71.04134341232603,"lat":48.42927235868192,"elevation":[]}]},{"startTime":1522688822000,"endTime":1522689060000,"departureDelay":0,"arrivalDelay":0,"realTime":false,"distance":1722.6244316128991,"pathway":false,"mode":"BUS","route":"12","agencyName":"Société de Transport du Saguenay","agencyUrl":"http://ville.saguenay.ca/fr/services-aux-citoyens/transport-sts","agencyTimeZoneOffset":-14400000,"routeColor":"556B2F","routeType":3,"routeId":"1:12","routeTextColor":"FFFFFF","interlineWithPreviousLeg":false,"tripBlockId":"29","headsign":"Terminus Chicoutimi","agencyId":"0","tripId":"1:218064","serviceDate":"20180402","from":{"name":"boul. Saguenay / Bon-Conseil","stopId":"1:1990","stopCode":"1990","lon":-71.043002,"lat":48.429311,"arrival":1522688821000,"departure":1522688822000,"zoneId":"NA","stopIndex":30,"stopSequence":31,"vertexType":"TRANSIT"},"to":{"name":"Terminus Chicoutimi","stopId":"1:1289","stopCode":"1289","lon":-71.066163,"lat":48.428677,"arrival":1522689060000,"departure":1522689300000,"zoneId":"NA","stopIndex":33,"stopSequence":34,"vertexType":"TRANSIT"},"legGeometry":{"points":"q{qfH~qrpLPvHsCrMFxf@|ApJj@nDDl]BvZdCXJhC","length":10},"routeShortName":"12","routeLongName":"Rivière du Moulin","rentedBike":false,"transitLeg":true,"duration":238.0,"steps":[]},{"startTime":1522689300000,"endTime":1522690422000,"departureDelay":0,"arrivalDelay":0,"realTime":false,"distance":5658.9744227296305,"pathway":false,"mode":"BUS","route":"175","agencyName":"Société de Transport du Saguenay","agencyUrl":"http://ville.saguenay.ca/fr/services-aux-citoyens/transport-sts","agencyTimeZoneOffset":-14400000,"routeColor":"FF00FF","routeType":3,"routeId":"1:175","routeTextColor":"FFFFFF","interlineWithPreviousLeg":false,"tripBlockId":"7","headsign":"Costco","agencyId":"0","tripId":"1:217334","serviceDate":"20180402","from":{"name":"Terminus Chicoutimi","stopId":"1:1289","stopCode":"1289","lon":-71.066163,"lat":48.428677,"arrival":1522689060000,"departure":1522689300000,"zoneId":"NA","stopIndex":0,"stopSequence":1,"vertexType":"TRANSIT"},"to":{"name":"boul. Talbot (no.1600) (mode Choc)","stopId":"1:86","stopCode":"86","lon":-71.06283,"lat":48.40025,"arrival":1522690422000,"departure":1522690423000,"zoneId":"NA","stopIndex":22,"stopSequence":23,"vertexType":"TRANSIT"},"legGeometry":{"points":"kvqfH~awpL~CgBbAqa@FwCBkAOsHAg@bAYUwMKoE@mB@kJ@iFbEf@xEj@iCtYp@r@z@`ABBvHtHXRx@l@VwAvAgB\\qBIuAC]g@yEzDuLbBbBvAxAMx@|@v@`A~@Xw@~D~DPxFZtA~ApE`N{LpFmEb@[ROl@[vDQXKfA[|@q@fAsBlEmMr@sBhCsKz@dAjB|@dM`GzCvAXrCr@~Gx@]PEr@ObACn@FrBb@|@Ch@Kx@U~HsB^KZ|DJpII~Fa@rFUzBi@bDUxAm@nCcAlDM^RTfD`DjF`FjCrC","length":83},"routeShortName":"175","routeLongName":"Term. Chic / Costco","rentedBike":false,"transitLeg":true,"duration":1122.0,"steps":[]},{"startTime":1522690423000,"endTime":1522690581000,"departureDelay":0,"arrivalDelay":0,"realTime":false,"distance":197.155,"pathway":false,"mode":"WALK","route":"","agencyTimeZoneOffset":-14400000,"interlineWithPreviousLeg":false,"from":{"name":"boul. Talbot (no.1600) (mode Choc)","stopId":"1:86","stopCode":"86","lon":-71.06283,"lat":48.40025,"arrival":1522690422000,"departure":1522690423000,"zoneId":"NA","stopIndex":22,"stopSequence":23,"vertexType":"TRANSIT"},"to":{"name":"Destination","lon":-71.063822,"lat":48.398673,"arrival":1522690581000,"orig":"","vertexType":"NORMAL"},"legGeometry":{"points":"edlfHbmvpLt@`AhCfDLNPc@V\\FHNP","length":8},"rentedBike":false,"transitLeg":false,"duration":158.0,"steps":[{"distance":197.155,"relativeDirection":"DEPART","streetName":"Boulevard Talbot","absoluteDirection":"SOUTHWEST","stayOn":false,"area":false,"bogusName":false,"lon":-71.06273598252479,"lat":48.400199941215426,"elevation":[]}]}],"tooSloped":false}]},"debugOutput":{"precalculationTime":22,"pathCalculationTime":34,"pathTimes":[20,6,8],"renderingTime":0,"totalTime":56,"timedOut":false},"elevationMetadata":{"ellipsoidToGeoidDifference":-28.885904201182168,"geoidElevation":false}}