{"requestParameters":{"date":"2018/04/02","walkSpeed":"1.33","walkReluctance":"2.0","fromPlace":"48.425975,-71.04859999","maxWalkDistance":"3000","waitReluctance":"1.0","carSpeed":"33","numItineraries":"3","waitAtBeginningFactor":"0.4","mode":"TRANSIT,WALK","ignoreRealtimeUpdates":"false","stairsReluctance":"2.0","toPlace":"48.433443,-71.090683","time":"14:55:00"},"plan":{"date":1522695300000,"from":{"name":"Origin","lon":-71.04859999,"lat":48.425975,"orig":"","vertexType":"NORMAL"},"to":{"name":"Destination","lon":-71.090683,"lat":48.433443,"orig":"","vertexType":"NORMAL"},"itineraries":[{"duration":1148,"startTime":1522695691000,"endTime":1522696839000,"walkTime":365,"transitTime":781,"waitingTime":2,"walkDistance":456.5523383414977,"walkLimitExceeded":false,"elevationLost":0.0,"elevationGained":0.0,"transfers":0,"legs":[{"startTime":1522695691000,"endTime":1522695899000,"departureDelay":0,"arrivalDelay":0,"realTime":false,"distance":262.976,"pathway":false,"mode":"WALK","route":"","agencyTimeZoneOffset":-14400000,"interlineWithPreviousLeg":false,"from":{"name":"Origin","lon":-71.04859999,"lat":48.425975,"departure":1522695691000,"orig":"","vertexType":"NORMAL"},"to":{"name":"Hôpital de Chicoutimi (Saint-Vallier)","stopId":"1:410","stopCode":"410","lon":-71.050193,"lat":48.426282,"arrival":1522695899000,"departure":1522695900000,"zoneId":"NA","stopIndex":20,"stopSequence":21,"vertexType":"TRANSIT"},"legGeometry":{"points":"wcqfHprspLDFFAHGl@jB@T@VEz@Ex@CnACf@GNQ?iB[_@E","length":15},"rentedBike":false,"transitLeg":false,"duration":208.0,"steps":[{"distance":168.006,"relativeDirection":"DEPART","streetName":"service road","absoluteDirection":"SOUTH","stayOn":false,"area":false,"bogusName":false,"lon":-71.04824,"lat":48.425726,"elevation":[]},{"distance":94.97,"relativeDirection":"RIGHT","streetName":"service road","absoluteDirection":"NORTH","stayOn":true,"area":false,"bogusName":true,"lon":-71.05019700000001,"lat":48.425456700000005,"elevation":[]}]},{"startTime":1522695900000,"endTime":1522696200000,"departureDelay":0,"arrivalDelay":0,"realTime":false,"distance":1235.9935925040847,"pathway":false,"mode":"BUS","route":"175","agencyName":"Société de Transport du Saguenay","agencyUrl":"http://ville.saguenay.ca/fr/services-aux-citoyens/transport-sts","agencyTimeZoneOffset":-14400000,"routeColor":"FF00FF","routeType":3,"routeId":"1:175","routeTextColor":"FFFFFF","interlineWithPreviousLeg":false,"tripBlockId":"9","headsign":"Terminus Chicoutimi","agencyId":"0","tripId":"1:217408","serviceDate":"20180402","from":{"name":"Hôpital de Chicoutimi (Saint-Vallier)","stopId":"1:410","stopCode":"410","lon":-71.050193,"lat":48.426282,"arrival":1522695899000,"departure":1522695900000,"zoneId":"NA","stopIndex":20,"stopSequence":21,"vertexType":"TRANSIT"},"to":{"name":"Terminus Chicoutimi","stopId":"1:1289","stopCode":"1289","lon":-71.066163,"lat":48.428677,"arrival":1522696200000,"departure":1522696500000,"zoneId":"NA","stopIndex":27,"stopSequence":28,"vertexType":"TRANSIT"},"legGeometry":{"points":"ggqfHh_tpLcFk@?pH?tJDvBPjMB~Bo@PQDRbFKdGMhIOvIK|EQpHoCQEdC","length":17},"routeShortName":"175","routeLongName":"Term. Chic / Costco","rentedBike":false,"transitLeg":true,"duration":300.0,"steps":[]},{"startTime":1522696500000,"endTime":1522696681000,"departureDelay":0,"arrivalDelay":0,"realTime":false,"distance":1960.480925293295,"pathway":false,"mode":"BUS","route":"3","agencyName":"Société de Transport du Saguenay","agencyUrl":"http://ville.saguenay.ca/fr/services-aux-citoyens/transport-sts","agencyTimeZoneOffset":-14400000,"routeColor":"FF0000","routeType":3,"routeId":"1:3","routeTextColor":"FFFFFF","interlineWithPreviousLeg":true,"tripBlockId":"9","headsign":"Terminus Jonquière","agencyId":"0","tripId":"1:217409","serviceDate":"20180402","from":{"name":"Terminus Chicoutimi","stopId":"1:1289","stopCode":"1289","lon":-71.066163,"lat":48.428677,"arrival":1522696200000,"departure":1522696500000,"zoneId":"NA","stopIndex":0,"stopSequence":1,"vertexType":"TRANSIT"},"to":{"name":"boul. Saguenay (no. 760)","stopId":"1:162","stopCode":"162","lon":-71.091291,"lat":48.434375,"arrival":1522696681000,"departure":1522696682000,"zoneId":"NA","stopIndex":2,"stopSequence":3,"vertexType":"TRANSIT"},"legGeometry":{"points":"evqfHzcwpLi@?UhKoBKcBts@OjC]fCg@~BsId[{DrNqB|HSl@YnAMfAOnAo@nMCp@","length":17},"routeShortName":"3","routeLongName":"Chic/Jonq via Boul. Saguenay","rentedBike":false,"transitLeg":true,"duration":181.0,"steps":[]},{"startTime":1522696682000,"endTime":1522696839000,"departureDelay":0,"arrivalDelay":0,"realTime":false,"distance":193.441,"pathway":false,"mode":"WALK","route":"","agencyTimeZoneOffset":-14400000,"interlineWithPreviousLeg":false,"from":{"name":"boul. Saguenay (no. 760)","stopId":"1:162","stopCode":"162","lon":-71.091291,"lat":48.434375,"arrival":1522696681000,"departure":1522696682000,"zoneId":"NA","stopIndex":2,"stopSequence":3,"vertexType":"TRANSIT"},"to":{"name":"Destination","lon":-71.090683,"lat":48.433443,"arrival":1522696839000,"orig":"","vertexType":"NORMAL"},"legGeometry":{"points":"myrfHt_|pLNqFH?|Bd@EhA","length":5},"rentedBike":false,"transitLeg":false,"duration":157.0,"steps":[{"distance":89.072,"relativeDirection":"DEPART","streetName":"Boulevard du Saguenay Ouest","absoluteDirection":"EAST","stayOn":false,"area":false,"bogusName":false,"lon":-71.09130000382352,"lat":48.43431445509596,"elevation":[]},{"distance":77.349,"relativeDirection":"RIGHT","streetName":"Rue Albert","absoluteDirection":"SOUTH","stayOn":false,"area":false,"bogusName":false,"lon":-71.09009850000001,"lat":48.4342358,"elevation":[]},{"distance":27.02,"relativeDirection":"RIGHT","streetName":"Rue Rodolphe","absoluteDirection":"WEST","stayOn":false,"area":false,"bogusName":false,"lon":-71.09028950000001,"lat":48.433552600000006,"elevation":[]}]}],"tooSloped":false},{"duration":1103,"startTime":1522696476000,"endTime":1522697579000,"walkTime":755,"transitTime":346,"waitingTime":2,"walkDistance":959.7768796943474,"walkLimitExceeded":false,"elevationLost":0.0,"elevationGained":0.0,"transfers":0,"legs":[{"startTime":1522696476000,"endTime":1522697074000,"departureDelay":0,"arrivalDelay":0,"realTime":false,"distance":766.1840000000001,"pathway":false,"mode":"WALK","route":"","agencyTimeZoneOffset":-14400000,"interlineWithPreviousLeg":false,"from":{"name":"Origin","lon":-71.04859999,"lat":48.425975,"departure":1522696476000,"orig":"","vertexType":"NORMAL"},"to":{"name":"Jacques-Cartier / Labrecque (Manoir Champlain)","stopId":"1:68","stopCode":"68","lon":-71.05805,"lat":48.426307,"arrival":1522697074000,"departure":1522697075000,"zoneId":"NA","stopIndex":2,"stopSequence":3,"vertexType":"TRANSIT"},"legGeometry":{"points":"wcqfHprspLDFFAHGl@jB@T@VEz@Ex@CnACf@TbAYnHItBGxAAf@OfBAFKb@]hACHSv@ERQxAAb@OzHI|D?J","length":28},"rentedBike":false,"transitLeg":false,"duration":598.0,"steps":[{"distance":168.006,"relativeDirection":"DEPART","streetName":"service road","absoluteDirection":"SOUTH","stayOn":false,"area":false,"bogusName":false,"lon":-71.04824,"lat":48.425726,"elevation":[]},{"distance":28.05,"relativeDirection":"SLIGHTLY_LEFT","streetName":"path","absoluteDirection":"SOUTHWEST","stayOn":false,"area":false,"bogusName":true,"lon":-71.05019700000001,"lat":48.425456700000005,"elevation":[]},{"distance":570.128,"relativeDirection":"SLIGHTLY_RIGHT","streetName":"Rue Jacques-Cartier Est","absoluteDirection":"WEST","stayOn":false,"area":false,"bogusName":false,"lon":-71.0505352,"lat":48.4253415,"elevation":[]}]},{"startTime":1522697075000,"endTime":1522697421000,"departureDelay":0,"arrivalDelay":0,"realTime":false,"distance":2638.228105712241,"pathway":false,"mode":"BUS","route":"213S","agencyName":"Société de Transport du Saguenay","agencyUrl":"http://ville.saguenay.ca/fr/services-aux-citoyens/transport-sts","agencyTimeZoneOffset":-14400000,"routeColor":"8B0000","routeType":3,"routeId":"1:213S","routeTextColor":"FFFFFF","interlineWithPreviousLeg":false,"headsign":"Harvey / Chapais","agencyId":"0","tripId":"1:218469","serviceDate":"20180402","from":{"name":"Jacques-Cartier / Labrecque (Manoir Champlain)","stopId":"1:68","stopCode":"68","lon":-71.05805,"lat":48.426307,"arrival":1522697074000,"departure":1522697075000,"zoneId":"NA","stopIndex":2,"stopSequence":3,"vertexType":"TRANSIT"},"to":{"name":"boul. Saguenay (no. 760)","stopId":"1:162","stopCode":"162","lon":-71.091291,"lat":48.434375,"arrival":1522697421000,"departure":1522697422000,"zoneId":"NA","stopIndex":6,"stopSequence":7,"vertexType":"TRANSIT"},"legGeometry":{"points":"agqfHzoupLGxDOdPKvJU|F?XGbDgCO}BW{D[eBSm@rR_Bbr@OjC]fCg@~BsId[{DrNqB|HSl@YnAMfAOnAo@nMCp@","length":25},"routeShortName":"213S","routeLongName":"Séminaire - St-J.Eudes / Cégep Jonq","rentedBike":false,"transitLeg":true,"duration":346.0,"steps":[]},{"startTime":1522697422000,"endTime":1522697579000,"departureDelay":0,"arrivalDelay":0,"realTime":false,"distance":193.441,"pathway":false,"mode":"WALK","route":"","agencyTimeZoneOffset":-14400000,"interlineWithPreviousLeg":false,"from":{"name":"boul. Saguenay (no. 760)","stopId":"1:162","stopCode":"162","lon":-71.091291,"lat":48.434375,"arrival":1522697421000,"departure":1522697422000,"zoneId":"NA","stopIndex":6,"stopSequence":7,"vertexType":"TRANSIT"},"to":{"name":"Destination","lon":-71.090683,"lat":48.433443,"arrival":1522697579000,"orig":"","vertexType":"NORMAL"},"legGeometry":{"points":"myrfHt_|pLNqFH?|Bd@EhA","length":5},"rentedBike":false,"transitLeg":false,"duration":157.0,"steps":[{"distance":89.072,"relativeDirection":"DEPART","streetName":"Boulevard du Saguenay Ouest","absoluteDirection":"EAST","stayOn":false,"area":false,"bogusName":false,"lon":-71.09130000382352,"lat":48.43431445509596,"elevation":[]},{"distance":77.349,"relativeDirection":"RIGHT","streetName":"Rue Albert","absoluteDirection":"SOUTH","stayOn":false,"area":false,"bogusName":false,"lon":-71.09009850000001,"lat":48.4342358,"elevation":[]},{"distance":27.02,"relativeDirection":"RIGHT","streetName":"Rue Rodolphe","absoluteDirection":"WEST","stayOn":false,"area":false,"bogusName":false,"lon":-71.09028950000001,"lat":48.433552600000006,"elevation":[]}]}],"tooSloped":false},{"duration":1148,"startTime":1522697491000,"endTime":1522698639000,"walkTime":365,"transitTime":781,"waitingTime":2,"walkDistance":456.5523383414977,"walkLimitExceeded":false,"elevationLost":0.0,"elevationGained":0.0,"transfers":0,"legs":[{"startTime":1522697491000,"endTime":1522697699000,"departureDelay":0,"arrivalDelay":0,"realTime":false,"distance":262.976,"pathway":false,"mode":"WALK","route":"","agencyTimeZoneOffset":-14400000,"interlineWithPreviousLeg":false,"from":{"name":"Origin","lon":-71.04859999,"lat":48.425975,"departure":1522697491000,"orig":"","vertexType":"NORMAL"},"to":{"name":"Hôpital de Chicoutimi (Saint-Vallier)","stopId":"1:410","stopCode":"410","lon":-71.050193,"lat":48.426282,"arrival":1522697699000,"departure":1522697700000,"zoneId":"NA","stopIndex":20,"stopSequence":21,"vertexType":"TRANSIT"},"legGeometry":{"points":"wcqfHprspLDFFAHGl@jB@T@VEz@Ex@CnACf@GNQ?iB[_@E","length":15},"rentedBike":false,"transitLeg":false,"duration":208.0,"steps":[{"distance":168.006,"relativeDirection":"DEPART","streetName":"service road","absoluteDirection":"SOUTH","stayOn":false,"area":false,"bogusName":false,"lon":-71.04824,"lat":48.425726,"elevation":[]},{"distance":94.97,"relativeDirection":"RIGHT","streetName":"service road","absoluteDirection":"NORTH","stayOn":true,"area":false,"bogusName":true,"lon":-71.05019700000001,"lat":48.425456700000005,"elevation":[]}]},{"startTime":1522697700000,"endTime":1522698000000,"departureDelay":0,"arrivalDelay":0,"realTime":false,"distance":1235.9935925040847,"pathway":false,"mode":"BUS","route":"175","agencyName":"Société de Transport du Saguenay","agencyUrl":"http://ville.saguenay.ca/fr/services-aux-citoyens/transport-sts","agencyTimeZoneOffset":-14400000,"routeColor":"FF00FF","routeType":3,"routeId":"1:175","routeTextColor":"FFFFFF","interlineWithPreviousLeg":false,"tripBlockId":"11","headsign":"Terminus Chicoutimi","agencyId":"0","tripId":"1:217479","serviceDate":"20180402","from":{"name":"Hôpital de Chicoutimi (Saint-Vallier)","stopId":"1:410","stopCode":"410","lon":-71.050193,"lat":48.426282,"arrival":1522697699000,"departure":1522697700000,"zoneId":"NA","stopIndex":20,"stopSequence":21,"vertexType":"TRANSIT"},"to":{"name":"Terminus Chicoutimi","stopId":"1:1289","stopCode":"1289","lon":-71.066163,"lat":48.428677,"arrival":1522698000000,"departure":1522698300000,"zoneId":"NA","stopIndex":27,"stopSequence":28,"vertexType":"TRANSIT"},"legGeometry":{"points":"ggqfHh_tpLcFk@?pH?tJDvBPjMB~Bo@PQDRbFKdGMhIOvIK|EQpHoCQEdC","length":17},"routeShortName":"175","routeLongName":"Term. Chic / Costco","rentedBike":false,"transitLeg":true,"duration":300.0,"steps":[]},{"startTime":1522698300000,"endTime":1522698481000,"departureDelay":0,"arrivalDelay":0,"realTime":false,"distance":1960.480925293295,"pathway":false,"mode":"BUS","route":"3","agencyName":"Société de Transport du Saguenay","agencyUrl":"http://ville.saguenay.ca/fr/services-aux-citoyens/transport-sts","agencyTimeZoneOffset":-14400000,"routeColor":"FF0000","routeType":3,"routeId":"1:3","routeTextColor":"FFFFFF","interlineWithPreviousLeg":true,"tripBlockId":"11","headsign":"Terminus Jonquière","agencyId":"0","tripId":"1:217480","serviceDate":"20180402","from":{"name":"Terminus Chicoutimi","stopId":"1:1289","stopCode":"1289","lon":-71.066163,"lat":48.428677,"arrival":1522698000000,"departure":1522698300000,"zoneId":"NA","stopIndex":0,"stopSequence":1,"vertexType":"TRANSIT"},"to":{"name":"boul. Saguenay (no. 760)","stopId":"1:162","stopCode":"162","lon":-71.091291,"lat":48.434375,"arrival":1522698481000,"departure":1522698482000,"zoneId":"NA","stopIndex":2,"stopSequence":3,"vertexType":"TRANSIT"},"legGeometry":{"points":"evqfHzcwpLi@?UhKoBKcBts@OjC]fCg@~BsId[{DrNqB|HSl@YnAMfAOnAo@nMCp@","length":17},"routeShortName":"3","routeLongName":"Chic/Jonq via Boul. Saguenay","rentedBike":false,"transitLeg":true,"duration":181.0,"steps":[]},{"startTime":1522698482000,"endTime":1522698639000,"departureDelay":0,"arrivalDelay":0,"realTime":false,"distance":193.441,"pathway":false,"mode":"WALK","route":"","agencyTimeZoneOffset":-14400000,"interlineWithPreviousLeg":false,"from":{"name":"boul. Saguenay (no. 760)","stopId":"1:162","stopCode":"162","lon":-71.091291,"lat":48.434375,"arrival":1522698481000,"departure":1522698482000,"zoneId":"NA","stopIndex":2,"stopSequence":3,"vertexType":"TRANSIT"},"to":{"name":"Destination","lon":-71.090683,"lat":48.433443,"arrival":1522698639000,"orig":"","vertexType":"NORMAL"},"legGeometry":{"points":"myrfHt_|pLNqFH?|Bd@EhA","length":5},"rentedBike":false,"transitLeg":false,"duration":157.0,"steps":[{"distance":89.072,"relativeDirection":"DEPART","streetName":"Boulevard du Saguenay Ouest","absoluteDirection":"EAST","stayOn":false,"area":false,"bogusName":false,"lon":-71.09130000382352,"lat":48.43431445509596,"elevation":[]},{"distance":77.349,"relativeDirection":"RIGHT","streetName":"Rue Albert","absoluteDirection":"SOUTH","stayOn":false,"area":false,"bogusName":false,"lon":-71.09009850000001,"lat":48.4342358,"elevation":[]},{"distance":27.02,"relativeDirection":"RIGHT","streetName":"Rue Rodolphe","absoluteDirection":"WEST","stayOn":false,"area":false,"bogusName":false,"lon":-71.09028950000001,"lat":48.433552600000006,"elevation":[]}]}],"tooSloped":false}]},"debugOutput":{"precalculationTime":38,"pathCalculationTime":45,"pathTimes":[26,11,8],"renderingTime":1,"totalTime":84,"timedOut":false},"elevationMetadata":{"ellipsoidToGeoidDifference":-28.885904201182168,"geoidElevation":false}}