{"requestParameters":{"date":"2018/04/02","walkSpeed":"1.33","walkReluctance":"2.0","fromPlace":"48.423419,-71.039377","maxWalkDistance":"3000","waitReluctance":"1.0","carSpeed":"33","numItineraries":"3","waitAtBeginningFactor":"0.4","mode":"TRANSIT,WALK","ignoreRealtimeUpdates":"false","stairsReluctance":"2.0","toPlace":"48.426892,-71.087959","time":"16:30:00"},"plan":{"date":1522701000000,"from":{"name":"Origin","lon":-71.039377,"lat":48.423419,"orig":"","vertexType":"NORMAL"},"to":{"name":"Destination","lon":-71.087959,"lat":48.426892,"orig":"","vertexType":"NORMAL"},"itineraries":[{"duration":2623,"startTime":1522701300000,"endTime":1522703923000,"walkTime":2221,"transitTime":400,"waitingTime":2,"walkDistance":2836.3989999887062,"walkLimitExceeded":false,"elevationLost":0.0,"elevationGained":0.0,"transfers":0,"legs":[{"startTime":1522701300000,"endTime":1522702294000,"departureDelay":0,"arrivalDelay":0,"realTime":false,"distance":1261.2949999999998,"pathway":false,"mode":"WALK","route":"","agencyTimeZoneOffset":-14400000,"interlineWithPreviousLeg":false,"from":{"name":"Origin","lon":-71.039377,"lat":48.423419,"departure":1522701300000,"orig":"","vertexType":"NORMAL"},"to":{"name":"Résidence de l' UQAC","stopId":"1:64","stopCode":"64","lon":-71.052396,"lat":48.421595,"arrival":1522702294000,"departure":1522702295000,"zoneId":"NA","stopIndex":7,"stopSequence":8,"vertexType":"TRANSIT"},"legGeometry":{"points":"qupfH`{qpLEZGCYIKpAAFa@rEQtBAbAGNGRCBCDAF?F?D@H?~@_@fDObBQrBIv@YvC_AfLrAPTFJBJLBXEd@e@bGjAZ?^DbABDp@XLFJHd@ZJFXNV^h@l@ZVb@`@nAlAVPRPb@^TRLJTT","length":52},"rentedBike":false,"transitLeg":false,"duration":994.0,"steps":[{"distance":30.3,"relativeDirection":"DEPART","streetName":"service road","absoluteDirection":"WEST","stayOn":false,"area":false,"bogusName":false,"lon":-71.03936007182831,"lat":48.423455069459806,"elevation":[]},{"distance":184.736,"relativeDirection":"LEFT","streetName":"Rue Jacques Cartier","absoluteDirection":"WEST","stayOn":false,"area":false,"bogusName":false,"lon":-71.0394333,"lat":48.4236505,"elevation":[]},{"distance":443.078,"relativeDirection":"SLIGHTLY_RIGHT","streetName":"Rue Jacques-Cartier Est","absoluteDirection":"NORTHWEST","stayOn":false,"area":false,"bogusName":false,"lon":-71.0418774,"lat":48.423999300000006,"elevation":[]},{"distance":197.333,"relativeDirection":"LEFT","streetName":"Rue Duberger","absoluteDirection":"SOUTH","stayOn":false,"area":false,"bogusName":false,"lon":-71.047663,"lat":48.424941800000006,"elevation":[]},{"distance":43.677,"relativeDirection":"LEFT","streetName":"Chemin Sydenham","absoluteDirection":"SOUTH","stayOn":false,"area":false,"bogusName":false,"lon":-71.0495042,"lat":48.4244963,"elevation":[]},{"distance":37.224000000000004,"relativeDirection":"RIGHT","streetName":"road","absoluteDirection":"WEST","stayOn":false,"area":false,"bogusName":true,"lon":-71.0496408,"lat":48.424114100000004,"elevation":[]},{"distance":263.87899999999996,"relativeDirection":"LEFT","streetName":"road","absoluteDirection":"SOUTH","stayOn":true,"area":false,"bogusName":true,"lon":-71.0501431,"lat":48.4240852,"elevation":[]},{"distance":61.068,"relativeDirection":"CONTINUE","streetName":"Chemin Saint Thomas","absoluteDirection":"SOUTHWEST","stayOn":false,"area":false,"bogusName":false,"lon":-71.051902,"lat":48.4220343,"elevation":[]}]},{"startTime":1522702295000,"endTime":1522702695000,"departureDelay":0,"arrivalDelay":0,"realTime":false,"distance":1575.7662870644044,"pathway":false,"mode":"BUS","route":"14","agencyName":"Société de Transport du Saguenay","agencyUrl":"http://ville.saguenay.ca/fr/services-aux-citoyens/transport-sts","agencyTimeZoneOffset":-14400000,"routeColor":"C0C000","routeType":3,"routeId":"1:14","routeTextColor":"000000","interlineWithPreviousLeg":false,"tripBlockId":"30","headsign":"Talbot / Barrette","agencyId":"0","tripId":"1:218107","serviceDate":"20180402","from":{"name":"Résidence de l' UQAC","stopId":"1:64","stopCode":"64","lon":-71.052396,"lat":48.421595,"arrival":1522702294000,"departure":1522702295000,"zoneId":"NA","stopIndex":7,"stopSequence":8,"vertexType":"TRANSIT"},"to":{"name":"Jolliet / Caron","stopId":"1:552","stopCode":"552","lon":-71.073027,"lat":48.420559,"arrival":1522702695000,"departure":1522702696000,"zoneId":"NA","stopIndex":10,"stopSequence":11,"vertexType":"TRANSIT"},"legGeometry":{"points":"yipfHfltpLvAvAQv@~@z@dA`ATq@`E~DL`@E`Ex@hDd@`B}FtFaAzAm@xAe@jCa@nDiAbm@SpKM`H]vBhDVzCTcAvC","length":23},"routeShortName":"14","routeLongName":"Coopérative","rentedBike":false,"transitLeg":true,"duration":400.0,"steps":[]},{"startTime":1522702696000,"endTime":1522703923000,"departureDelay":0,"arrivalDelay":0,"realTime":false,"distance":1574.754,"pathway":false,"mode":"WALK","route":"","agencyTimeZoneOffset":-14400000,"interlineWithPreviousLeg":false,"from":{"name":"Jolliet / Caron","stopId":"1:552","stopCode":"552","lon":-71.073027,"lat":48.420559,"arrival":1522702695000,"departure":1522702696000,"zoneId":"NA","stopIndex":10,"stopSequence":11,"vertexType":"TRANSIT"},"to":{"name":"Destination","lon":-71.087959,"lat":48.426892,"arrival":1522703923000,"orig":"","vertexType":"NORMAL"},"legGeometry":{"points":"ecpfHtmxpLOb@gA~BDR?LAJAHCFEBGBGDQ`@Yp@g@|Ay@tBCHOZEHcAjCwAtDa@pAOt@OdAEZSfAIb@g@fAM`@Wd@GJ_BpBqBpBs@t@Y`@Yl@aAxCi@zAyAfEEj@I~CEjD?b@A|@Ab@IxCS~I_Cu@FaCC{@","length":49},"rentedBike":false,"transitLeg":false,"duration":1227.0,"steps":[{"distance":77.524,"relativeDirection":"DEPART","streetName":"Rue Jolliet","absoluteDirection":"NORTHWEST","stayOn":false,"area":false,"bogusName":false,"lon":-71.07306855411295,"lat":48.42051735854942,"elevation":[]},{"distance":78.343,"relativeDirection":"LEFT","streetName":"path","absoluteDirection":"WEST","stayOn":false,"area":false,"bogusName":true,"lon":-71.07388590000001,"lat":48.420954200000004,"elevation":[]},{"distance":658.8380000000001,"relativeDirection":"CONTINUE","streetName":"Rue Dubuc","absoluteDirection":"NORTHWEST","stayOn":false,"area":false,"bogusName":false,"lon":-71.07469880000001,"lat":48.4212916,"elevation":[]},{"distance":238.88,"relativeDirection":"CONTINUE","streetName":"Côte Saint-Ange","absoluteDirection":"NORTHWEST","stayOn":false,"area":false,"bogusName":false,"lon":-71.0815067,"lat":48.424949000000005,"elevation":[]},{"distance":376.719,"relativeDirection":"SLIGHTLY_LEFT","streetName":"Rue Brassard","absoluteDirection":"WEST","stayOn":false,"area":false,"bogusName":false,"lon":-71.0841347,"lat":48.426195400000005,"elevation":[]},{"distance":74.278,"relativeDirection":"RIGHT","streetName":"Rue J.-R.-Théberge","absoluteDirection":"NORTH","stayOn":false,"area":false,"bogusName":false,"lon":-71.0892196,"lat":48.4264773,"elevation":[]},{"distance":70.172,"relativeDirection":"RIGHT","streetName":"Rue Sagard","absoluteDirection":"EAST","stayOn":false,"area":false,"bogusName":false,"lon":-71.0889425,"lat":48.4271195,"elevation":[]}]}],"tooSloped":false},{"duration":2147,"startTime":1522702328000,"endTime":1522704475000,"walkTime":1604,"transitTime":481,"waitingTime":62,"walkDistance":2047.3172631464313,"walkLimitExceeded":false,"elevationLost":0.0,"elevationGained":0.0,"transfers":1,"legs":[{"startTime":1522702328000,"endTime":1522703099000,"departureDelay":0,"arrivalDelay":0,"realTime":false,"distance":966.221,"pathway":false,"mode":"WALK","route":"","agencyTimeZoneOffset":-14400000,"interlineWithPreviousLeg":false,"from":{"name":"Origin","lon":-71.039377,"lat":48.423419,"departure":1522702328000,"orig":"","vertexType":"NORMAL"},"to":{"name":"Hôpital de Chicoutimi (Saint-Vallier)","stopId":"1:410","stopCode":"410","lon":-71.050193,"lat":48.426282,"arrival":1522703099000,"departure":1522703100000,"zoneId":"NA","stopIndex":20,"stopSequence":21,"vertexType":"TRANSIT"},"legGeometry":{"points":"qupfH`{qpLEZGCYIKpAAFa@rEQtBAbAGNGRCBCDAF?F?D@H?~@_@fDObBQrBIv@YvC_AfLAFOtBCVC^YvCc@EEx@CnACf@GNQ?iB[_@E","length":37},"rentedBike":false,"transitLeg":false,"duration":771.0,"steps":[{"distance":30.3,"relativeDirection":"DEPART","streetName":"service road","absoluteDirection":"WEST","stayOn":false,"area":false,"bogusName":false,"lon":-71.03936007182831,"lat":48.423455069459806,"elevation":[]},{"distance":184.736,"relativeDirection":"LEFT","streetName":"Rue Jacques Cartier","absoluteDirection":"WEST","stayOn":false,"area":false,"bogusName":false,"lon":-71.0394333,"lat":48.4236505,"elevation":[]},{"distance":570.089,"relativeDirection":"SLIGHTLY_RIGHT","streetName":"Rue Jacques-Cartier Est","absoluteDirection":"NORTHWEST","stayOn":false,"area":false,"bogusName":false,"lon":-71.0418774,"lat":48.423999300000006,"elevation":[]},{"distance":19.537,"relativeDirection":"RIGHT","streetName":"path","absoluteDirection":"NORTH","stayOn":false,"area":false,"bogusName":true,"lon":-71.04933630000001,"lat":48.425208100000006,"elevation":[]},{"distance":66.589,"relativeDirection":"LEFT","streetName":"service road","absoluteDirection":"WEST","stayOn":true,"area":false,"bogusName":true,"lon":-71.0493017,"lat":48.4253823,"elevation":[]},{"distance":94.97,"relativeDirection":"RIGHT","streetName":"service road","absoluteDirection":"NORTH","stayOn":true,"area":false,"bogusName":true,"lon":-71.05019700000001,"lat":48.425456700000005,"elevation":[]}]},{"startTime":1522703100000,"endTime":1522703400000,"departureDelay":0,"arrivalDelay":0,"realTime":false,"distance":1235.9935925040847,"pathway":false,"mode":"BUS","route":"175","agencyName":"Société de Transport du Saguenay","agencyUrl":"http://ville.saguenay.ca/fr/services-aux-citoyens/transport-sts","agencyTimeZoneOffset":-14400000,"routeColor":"FF00FF","routeType":3,"routeId":"1:175","routeTextColor":"FFFFFF","interlineWithPreviousLeg":false,"tripBlockId":"11","headsign":"Terminus Chicoutimi","agencyId":"0","tripId":"1:217482","serviceDate":"20180402","from":{"name":"Hôpital de Chicoutimi (Saint-Vallier)","stopId":"1:410","stopCode":"410","lon":-71.050193,"lat":48.426282,"arrival":1522703099000,"departure":1522703100000,"zoneId":"NA","stopIndex":20,"stopSequence":21,"vertexType":"TRANSIT"},"to":{"name":"Terminus Chicoutimi","stopId":"1:1289","stopCode":"1289","lon":-71.066163,"lat":48.428677,"arrival":1522703400000,"departure":1522703460000,"zoneId":"NA","stopIndex":27,"stopSequence":28,"vertexType":"TRANSIT"},"legGeometry":{"points":"ggqfHh_tpLcFk@?pH?tJDvBPjMB~Bo@PQDRbFKdGMhIOvIK|EQpHoCQEdC","length":17},"routeShortName":"175","routeLongName":"Term. Chic / Costco","rentedBike":false,"transitLeg":true,"duration":300.0,"steps":[]},{"startTime":1522703460000,"endTime":1522703641000,"departureDelay":0,"arrivalDelay":0,"realTime":false,"distance":1960.480925293295,"pathway":false,"mode":"BUS","route":"3","agencyName":"Société de Transport du Saguenay","agencyUrl":"http://ville.saguenay.ca/fr/services-aux-citoyens/transport-sts","agencyTimeZoneOffset":-14400000,"routeColor":"FF0000","routeType":3,"routeId":"1:3","routeTextColor":"FFFFFF","interlineWithPreviousLeg":false,"tripBlockId":"57","headsign":"Terminus Jonquière","agencyId":"0","tripId":"1:218537","serviceDate":"20180402","from":{"name":"Terminus Chicoutimi","stopId":"1:1289","stopCode":"1289","lon":-71.066163,"lat":48.428677,"arrival":1522703400000,"departure":1522703460000,"zoneId":"NA","stopIndex":0,"stopSequence":1,"vertexType":"TRANSIT"},"to":{"name":"boul. Saguenay (no. 760)","stopId":"1:162","stopCode":"162","lon":-71.091291,"lat":48.434375,"arrival":1522703641000,"departure":1522703642000,"zoneId":"NA","stopIndex":2,"stopSequence":3,"vertexType":"TRANSIT"},"legGeometry":{"points":"evqfHzcwpLi@?UhKoBKcBts@OjC]fCg@~BsId[{DrNqB|HSl@YnAMfAOnAo@nMCp@","length":17},"routeShortName":"3","routeLongName":"Chic/Jonq via Boul. Saguenay","rentedBike":false,"transitLeg":true,"duration":181.0,"steps":[]},{"startTime":1522703642000,"endTime":1522704475000,"departureDelay":0,"arrivalDelay":0,"realTime":false,"distance":1080.741,"pathway":false,"mode":"WALK","route":"","agencyTimeZoneOffset":-14400000,"interlineWithPreviousLeg":false,"from":{"name":"boul. Saguenay (no. 760)","stopId":"1:162","stopCode":"162","lon":-71.091291,"lat":48.434375,"arrival":1522703641000,"departure":1522703642000,"zoneId":"NA","stopIndex":2,"stopSequence":3,"vertexType":"TRANSIT"},"to":{"name":"Destination","lon":-71.087959,"lat":48.426892,"arrival":1522704475000,"orig":"","vertexType":"NORMAL"},"legGeometry":{"points":"myrfHt_|pLNqFH?|Bd@NaDHsB@i@Vm@\\Y`@Cb@GL_@pAf@`AXnALz@DnBEl@?jGCdBD`C\\pBj@|@JFaCC{@","length":25},"rentedBike":false,"transitLeg":false,"duration":833.0,"steps":[{"distance":89.072,"relativeDirection":"DEPART","streetName":"Boulevard du Saguenay Ouest","absoluteDirection":"EAST","stayOn":false,"area":false,"bogusName":false,"lon":-71.09130000382352,"lat":48.43431445509596,"elevation":[]},{"distance":77.349,"relativeDirection":"RIGHT","streetName":"Rue Albert","absoluteDirection":"SOUTH","stayOn":false,"area":false,"bogusName":false,"lon":-71.09009850000001,"lat":48.4342358,"elevation":[]},{"distance":213.519,"relativeDirection":"LEFT","streetName":"Rue Rodolphe","absoluteDirection":"EAST","stayOn":false,"area":false,"bogusName":false,"lon":-71.09028950000001,"lat":48.433552600000006,"elevation":[]},{"distance":630.629,"relativeDirection":"RIGHT","streetName":"Rue J.-R.-Théberge","absoluteDirection":"SOUTH","stayOn":false,"area":false,"bogusName":false,"lon":-71.0881025,"lat":48.432726300000006,"elevation":[]},{"distance":70.172,"relativeDirection":"LEFT","streetName":"Rue Sagard","absoluteDirection":"EAST","stayOn":false,"area":false,"bogusName":false,"lon":-71.0889425,"lat":48.4271195,"elevation":[]}]}],"tooSloped":false},{"duration":1726,"startTime":1522702766000,"endTime":1522704492000,"walkTime":260,"transitTime":1164,"waitingTime":302,"walkDistance":320.0540827024727,"walkLimitExceeded":false,"elevationLost":0.0,"elevationGained":0.0,"transfers":1,"legs":[{"startTime":1522702766000,"endTime":1522702822000,"departureDelay":0,"arrivalDelay":0,"realTime":false,"distance":61.729,"pathway":false,"mode":"WALK","route":"","agencyTimeZoneOffset":-14400000,"interlineWithPreviousLeg":false,"from":{"name":"Origin","lon":-71.039377,"lat":48.423419,"departure":1522702766000,"orig":"","vertexType":"NORMAL"},"to":{"name":"École Apostolique","stopId":"1:251","stopCode":"251","lon":-71.039839,"lat":48.42374,"arrival":1522702822000,"departure":1522702823000,"zoneId":"NA","stopIndex":10,"stopSequence":11,"vertexType":"TRANSIT"},"legGeometry":{"points":"qupfH`{qpLEZGCYIKpA","length":5},"rentedBike":false,"transitLeg":false,"duration":56.0,"steps":[{"distance":30.3,"relativeDirection":"DEPART","streetName":"service road","absoluteDirection":"WEST","stayOn":false,"area":false,"bogusName":false,"lon":-71.03936007182831,"lat":48.423455069459806,"elevation":[]},{"distance":31.429,"relativeDirection":"LEFT","streetName":"Rue Jacques Cartier","absoluteDirection":"WEST","stayOn":false,"area":false,"bogusName":false,"lon":-71.0394333,"lat":48.4236505,"elevation":[]}]},{"startTime":1522702823000,"endTime":1522703400000,"departureDelay":0,"arrivalDelay":0,"realTime":false,"distance":2511.128594145138,"pathway":false,"mode":"BUS","route":"10","agencyName":"Société de Transport du Saguenay","agencyUrl":"http://ville.saguenay.ca/fr/services-aux-citoyens/transport-sts","agencyTimeZoneOffset":-14400000,"routeColor":"0000FF","routeType":3,"routeId":"1:10","routeTextColor":"FFFFFF","interlineWithPreviousLeg":false,"tripBlockId":"28","headsign":"Terminus Chicoutimi","agencyId":"0","tripId":"1:218046","serviceDate":"20180402","from":{"name":"École Apostolique","stopId":"1:251","stopCode":"251","lon":-71.039839,"lat":48.42374,"arrival":1522702822000,"departure":1522702823000,"zoneId":"NA","stopIndex":10,"stopSequence":11,"vertexType":"TRANSIT"},"to":{"name":"Terminus Chicoutimi","stopId":"1:1289","stopCode":"1289","lon":-71.066163,"lat":48.428677,"arrival":1522703400000,"departure":1522703700000,"zoneId":"NA","stopIndex":21,"stopSequence":22,"vertexType":"TRANSIT"},"legGeometry":{"points":"ewpfH`~qpLKdAi@pGAr@GXMRG^Bb@`CV~IxB~ElAhChAsBtFaEvK_BhE}AfD{BdByBh@iC]oDq@YbF_Ea@AAuEg@MDENF|GAjJDzBDdDLdHFbCo@RUFRbFG|FApAMvFa@tPOnHqBOIjDc@Q","length":43},"routeShortName":"10","routeLongName":"Notre-Dame du Saguenay","rentedBike":false,"transitLeg":true,"duration":577.0,"steps":[]},{"startTime":1522703700000,"endTime":1522704287000,"departureDelay":0,"arrivalDelay":0,"realTime":false,"distance":3141.49334574456,"pathway":false,"mode":"BUS","route":"16","agencyName":"Société de Transport du Saguenay","agencyUrl":"http://ville.saguenay.ca/fr/services-aux-citoyens/transport-sts","agencyTimeZoneOffset":-14400000,"routeColor":"00FF00","routeType":3,"routeId":"1:16","routeTextColor":"000000","interlineWithPreviousLeg":false,"tripBlockId":"37","headsign":"Faubourg Sagamie","agencyId":"0","tripId":"1:218324","serviceDate":"20180402","from":{"name":"Terminus Chicoutimi","stopId":"1:1289","stopCode":"1289","lon":-71.066163,"lat":48.428677,"arrival":1522703400000,"departure":1522703700000,"zoneId":"NA","stopIndex":0,"stopSequence":1,"vertexType":"TRANSIT"},"to":{"name":"Dequen / J.R.Théberge","stopId":"1:602","stopCode":"602","lon":-71.089555,"lat":48.425637,"arrival":1522704287000,"departure":1522704288000,"zoneId":"NA","stopIndex":16,"stopSequence":17,"vertexType":"TRANSIT"},"legGeometry":{"points":"evqfHzcwpLg@?AXCnAO~GxDVhCP~M~@jDTOrHKdGE^E~BQnIMhGAxCD~@Df@DVDZd@zBBLDJJNHHHDJBn@HCxAHdAFX@DFj@@b@Ab@SvAe@p@{EnEEB{@w@m@o@aDeDIKCMCM?SL}A?A@WCYi@mDOu@Wm@EIMSSWaAcAuAcBq@f@URa@d@u@`A}BzCV`DX~C@HFT^v@bA|AZ^`Av@\\`@Zf@pAvCtD`JJTrAtCpAjC@BvA|CvA~Ci@zAqD`K","length":83},"routeShortName":"16","routeLongName":"Côte de la Réserve","rentedBike":false,"transitLeg":true,"duration":587.0,"steps":[]},{"startTime":1522704288000,"endTime":1522704492000,"departureDelay":0,"arrivalDelay":0,"realTime":false,"distance":258.192,"pathway":false,"mode":"WALK","route":"","agencyTimeZoneOffset":-14400000,"interlineWithPreviousLeg":false,"from":{"name":"Dequen / J.R.Théberge","stopId":"1:602","stopCode":"602","lon":-71.089555,"lat":48.425637,"arrival":1522704287000,"departure":1522704288000,"zoneId":"NA","stopIndex":16,"stopSequence":17,"vertexType":"TRANSIT"},"to":{"name":"Destination","lon":-71.087959,"lat":48.426892,"arrival":1522704492000,"orig":"","vertexType":"NORMAL"},"legGeometry":{"points":"{bqfH`u{pLM^aCsAa@Y_Cu@FaCC{@","length":7},"rentedBike":false,"transitLeg":false,"duration":204.0,"steps":[{"distance":14.015,"relativeDirection":"DEPART","streetName":"Rue De Quen","absoluteDirection":"NORTHWEST","stayOn":false,"area":false,"bogusName":false,"lon":-71.08960751748019,"lat":48.42558583912932,"elevation":[]},{"distance":174.005,"relativeDirection":"RIGHT","streetName":"Rue J.-R.-Théberge","absoluteDirection":"NORTHEAST","stayOn":false,"area":false,"bogusName":false,"lon":-71.0897645,"lat":48.425656800000006,"elevation":[]},{"distance":70.172,"relativeDirection":"RIGHT","streetName":"Rue Sagard","absoluteDirection":"EAST","stayOn":false,"area":false,"bogusName":false,"lon":-71.0889425,"lat":48.4271195,"elevation":[]}]}],"tooSloped":false}]},"debugOutput":{"precalculationTime":18,"pathCalculationTime":56,"pathTimes":[21,17,17],"renderingTime":1,"totalTime":75,"timedOut":false},"elevationMetadata":{"ellipsoidToGeoidDifference":-28.885904201182168,"geoidElevation":false}}