{"requestParameters":{"date":"2018/04/02","walkSpeed":"1.33","walkReluctance":"2.0","fromPlace":"48.426892,-71.087959","maxWalkDistance":"3000","waitReluctance":"1.0","carSpeed":"33","numItineraries":"3","waitAtBeginningFactor":"0.4","mode":"TRANSIT,WALK","ignoreRealtimeUpdates":"false","stairsReluctance":"2.0","toPlace":"48.423419,-71.039377","time":"7:30:00"},"plan":{"date":1522668600000,"from":{"name":"Origin","lon":-71.087959,"lat":48.426892,"orig":"","vertexType":"NORMAL"},"to":{"name":"Destination","lon":-71.039377,"lat":48.423419,"orig":"","vertexType":"NORMAL"},"itineraries":[{"duration":1082,"startTime":1522670414000,"endTime":1522671496000,"walkTime":773,"transitTime":307,"waitingTime":2,"walkDistance":1005.8782932292979,"walkLimitExceeded":false,"elevationLost":0.0,"elevationGained":0.0,"transfers":0,"legs":[{"startTime":1522670414000,"endTime":1522671172000,"departureDelay":0,"arrivalDelay":0,"realTime":false,"distance":987.001,"pathway":false,"mode":"WALK","route":"","agencyTimeZoneOffset":-14400000,"interlineWithPreviousLeg":false,"from":{"name":"Origin","lon":-71.087959,"lat":48.426892,"departure":1522670414000,"orig":"","vertexType":"NORMAL"},"to":{"name":"boul. Saguenay / Albert","stopId":"1:158","stopCode":"158","lon":-71.089619,"lat":48.434041,"arrival":1522671172000,"departure":1522671173000,"zoneId":"NA","stopIndex":26,"stopSequence":27,"vertexType":"TRANSIT"},"legGeometry":{"points":"ilqfH~j{pLBz@G`C}@KqBk@aC]eBEkGBm@?oBD{@EoAMaAYqAg@eAm@iBkAMMCJa@|ASdAGp@WnE","length":22},"rentedBike":false,"transitLeg":false,"duration":758.0,"steps":[{"distance":70.172,"relativeDirection":"DEPART","streetName":"Rue Sagard","absoluteDirection":"WEST","stayOn":false,"area":false,"bogusName":false,"lon":-71.087996,"lat":48.427096,"elevation":[]},{"distance":747.15,"relativeDirection":"RIGHT","streetName":"Rue J.-R.-Théberge","absoluteDirection":"NORTH","stayOn":false,"area":false,"bogusName":false,"lon":-71.0889425,"lat":48.4271195,"elevation":[]},{"distance":169.679,"relativeDirection":"LEFT","streetName":"Boulevard du Saguenay Ouest","absoluteDirection":"NORTHWEST","stayOn":false,"area":false,"bogusName":false,"lon":-71.0874263,"lat":48.433672300000005,"elevation":[]}]},{"startTime":1522671173000,"endTime":1522671480000,"departureDelay":0,"arrivalDelay":0,"realTime":false,"distance":3945.871086545959,"pathway":false,"mode":"BUS","route":"207S","agencyName":"Société de Transport du Saguenay","agencyUrl":"http://ville.saguenay.ca/fr/services-aux-citoyens/transport-sts","agencyTimeZoneOffset":-14400000,"routeColor":"8B0000","routeType":3,"routeId":"1:207S","routeTextColor":"FFFFFF","interlineWithPreviousLeg":false,"tripBlockId":"96","headsign":"Séminaire","agencyId":"0","tripId":"1:218732","serviceDate":"20180402","from":{"name":"boul. Saguenay / Albert","stopId":"1:158","stopCode":"158","lon":-71.089619,"lat":48.434041,"arrival":1522671172000,"departure":1522671173000,"zoneId":"NA","stopIndex":26,"stopSequence":27,"vertexType":"TRANSIT"},"to":{"name":"Complexe Sagamie","stopId":"1:1565","stopCode":"1565","lon":-71.039089,"lat":48.423475,"arrival":1522671480000,"departure":1522671481000,"zoneId":"NA","stopIndex":36,"stopSequence":37,"vertexType":"TRANSIT"},"legGeometry":{"points":"exrfH`u{pLPiDN_BZcB`@mAxGgV|Ju^\\eBVgBLcBz@_^`G\\|HWIgCZsQX{OFkE?a@T_JJiGF}CFeJD}BJuFN}IP}AfAaEPsBH_CNuDVaG@m@ToD`@oEPmB|@sKBc@t@cI\\{DTyA^u@Aa@Im@TsCNgBh@oGDc@","length":47},"routeShortName":"207S","routeLongName":"Séminaire - Term. Jonq","rentedBike":false,"transitLeg":true,"duration":307.0,"steps":[]},{"startTime":1522671481000,"endTime":1522671496000,"departureDelay":0,"arrivalDelay":0,"realTime":false,"distance":18.76,"pathway":false,"mode":"WALK","route":"","agencyTimeZoneOffset":-14400000,"interlineWithPreviousLeg":false,"from":{"name":"Complexe Sagamie","stopId":"1:1565","stopCode":"1565","lon":-71.039089,"lat":48.423475,"arrival":1522671480000,"departure":1522671481000,"zoneId":"NA","stopIndex":36,"stopSequence":37,"vertexType":"TRANSIT"},"to":{"name":"Destination","lon":-71.039377,"lat":48.423419,"arrival":1522671496000,"orig":"","vertexType":"NORMAL"},"legGeometry":{"points":"gupfHnyqpLGb@AL","length":3},"rentedBike":false,"transitLeg":false,"duration":15.0,"steps":[{"distance":18.76,"relativeDirection":"DEPART","streetName":"service road","absoluteDirection":"WEST","stayOn":false,"area":false,"bogusName":false,"lon":-71.03911523041273,"lat":48.423409719784964,"elevation":[]}]}],"tooSloped":false},{"duration":1248,"startTime":1522670368000,"endTime":1522671616000,"walkTime":773,"transitTime":473,"waitingTime":2,"walkDistance":1005.8782932292979,"walkLimitExceeded":false,"elevationLost":0.0,"elevationGained":0.0,"transfers":0,"legs":[{"startTime":1522670368000,"endTime":1522671126000,"departureDelay":0,"arrivalDelay":0,"realTime":false,"distance":987.001,"pathway":false,"mode":"WALK","route":"","agencyTimeZoneOffset":-14400000,"interlineWithPreviousLeg":false,"from":{"name":"Origin","lon":-71.087959,"lat":48.426892,"departure":1522670368000,"orig":"","vertexType":"NORMAL"},"to":{"name":"boul. Saguenay / Albert","stopId":"1:158","stopCode":"158","lon":-71.089619,"lat":48.434041,"arrival":1522671126000,"departure":1522671127000,"zoneId":"NA","stopIndex":18,"stopSequence":19,"vertexType":"TRANSIT"},"legGeometry":{"points":"ilqfH~j{pLBz@G`C}@KqBk@aC]eBEkGBm@?oBD{@EoAMaAYqAg@eAm@iBkAMMCJa@|ASdAGp@WnE","length":22},"rentedBike":false,"transitLeg":false,"duration":758.0,"steps":[{"distance":70.172,"relativeDirection":"DEPART","streetName":"Rue Sagard","absoluteDirection":"WEST","stayOn":false,"area":false,"bogusName":false,"lon":-71.087996,"lat":48.427096,"elevation":[]},{"distance":747.15,"relativeDirection":"RIGHT","streetName":"Rue J.-R.-Théberge","absoluteDirection":"NORTH","stayOn":false,"area":false,"bogusName":false,"lon":-71.0889425,"lat":48.4271195,"elevation":[]},{"distance":169.679,"relativeDirection":"LEFT","streetName":"Boulevard du Saguenay Ouest","absoluteDirection":"NORTHWEST","stayOn":false,"area":false,"bogusName":false,"lon":-71.0874263,"lat":48.433672300000005,"elevation":[]}]},{"startTime":1522671127000,"endTime":1522671600000,"departureDelay":0,"arrivalDelay":0,"realTime":false,"distance":3981.066852838104,"pathway":false,"mode":"BUS","route":"201S","agencyName":"Société de Transport du Saguenay","agencyUrl":"http://ville.saguenay.ca/fr/services-aux-citoyens/transport-sts","agencyTimeZoneOffset":-14400000,"routeColor":"8B0000","routeType":3,"routeId":"1:201S","routeTextColor":"FFFFFF","interlineWithPreviousLeg":false,"tripBlockId":"40","headsign":"Séminaire","agencyId":"0","tripId":"1:218347","serviceDate":"20180402","from":{"name":"boul. Saguenay / Albert","stopId":"1:158","stopCode":"158","lon":-71.089619,"lat":48.434041,"arrival":1522671126000,"departure":1522671127000,"zoneId":"NA","stopIndex":18,"stopSequence":19,"vertexType":"TRANSIT"},"to":{"name":"Complexe Sagamie","stopId":"1:1565","stopCode":"1565","lon":-71.039089,"lat":48.423475,"arrival":1522671600000,"departure":1522671601000,"zoneId":"NA","stopIndex":29,"stopSequence":30,"vertexType":"TRANSIT"},"legGeometry":{"points":"exrfH`u{pLPiDN_BZcB`@mAxGgV|Ju^\\eBVgBLcB|@}^FkAF}DJyDd@uPVaHjANzDZ|BVfCNF}D@YRcFJgLNuNDkCHkFVoKT}@x@yCPcAFiAJeCHmBBg@ViGLsBLsB`@{ElAaOd@sFRuBLuAFWNsAHsA`@_AO_ATyCTiC`@sEF}@","length":52},"routeShortName":"201S","routeLongName":"Séminaire - Arvida","rentedBike":false,"transitLeg":true,"duration":473.0,"steps":[]},{"startTime":1522671601000,"endTime":1522671616000,"departureDelay":0,"arrivalDelay":0,"realTime":false,"distance":18.76,"pathway":false,"mode":"WALK","route":"","agencyTimeZoneOffset":-14400000,"interlineWithPreviousLeg":false,"from":{"name":"Complexe Sagamie","stopId":"1:1565","stopCode":"1565","lon":-71.039089,"lat":48.423475,"arrival":1522671600000,"departure":1522671601000,"zoneId":"NA","stopIndex":29,"stopSequence":30,"vertexType":"TRANSIT"},"to":{"name":"Destination","lon":-71.039377,"lat":48.423419,"arrival":1522671616000,"orig":"","vertexType":"NORMAL"},"legGeometry":{"points":"gupfHnyqpLGb@AL","length":3},"rentedBike":false,"transitLeg":false,"duration":15.0,"steps":[{"distance":18.76,"relativeDirection":"DEPART","streetName":"service road","absoluteDirection":"WEST","stayOn":false,"area":false,"bogusName":false,"lon":-71.03911523041273,"lat":48.423409719784964,"elevation":[]}]}],"tooSloped":false},{"duration":1710,"startTime":1522670195000,"endTime":1522671905000,"walkTime":459,"transitTime":1009,"waitingTime":242,"walkDistance":591.6606691707487,"walkLimitExceeded":false,"elevationLost":0.0,"elevationGained":0.0,"transfers":1,"legs":[{"startTime":1522670195000,"endTime":1522670639000,"departureDelay":0,"arrivalDelay":0,"realTime":false,"distance":572.8329999999999,"pathway":false,"mode":"WALK","route":"","agencyTimeZoneOffset":-14400000,"interlineWithPreviousLeg":false,"from":{"name":"Origin","lon":-71.087959,"lat":48.426892,"departure":1522670195000,"orig":"","vertexType":"NORMAL"},"to":{"name":"ch. de la Réserve / St-Ange","stopId":"1:625","stopCode":"625","lon":-71.083536,"lat":48.42644,"arrival":1522670639000,"departure":1522670640000,"zoneId":"NA","stopIndex":30,"stopSequence":31,"vertexType":"TRANSIT"},"legGeometry":{"points":"ilqfH~j{pLBz@G`C~Bt@R_JHyC@c@@}@?c@DkDH_DDk@GOo@_B","length":14},"rentedBike":false,"transitLeg":false,"duration":444.0,"steps":[{"distance":70.172,"relativeDirection":"DEPART","streetName":"Rue Sagard","absoluteDirection":"WEST","stayOn":false,"area":false,"bogusName":false,"lon":-71.087996,"lat":48.427096,"elevation":[]},{"distance":74.278,"relativeDirection":"LEFT","streetName":"Rue J.-R.-Théberge","absoluteDirection":"SOUTH","stayOn":false,"area":false,"bogusName":false,"lon":-71.0889425,"lat":48.4271195,"elevation":[]},{"distance":376.719,"relativeDirection":"LEFT","streetName":"Rue Brassard","absoluteDirection":"EAST","stayOn":false,"area":false,"bogusName":false,"lon":-71.0892196,"lat":48.4264773,"elevation":[]},{"distance":51.664,"relativeDirection":"LEFT","streetName":"Chemin de la Réserve","absoluteDirection":"NORTHEAST","stayOn":false,"area":false,"bogusName":false,"lon":-71.0841347,"lat":48.426195400000005,"elevation":[]}]},{"startTime":1522670640000,"endTime":1522671060000,"departureDelay":0,"arrivalDelay":0,"realTime":false,"distance":1683.763385147579,"pathway":false,"mode":"BUS","route":"16","agencyName":"Société de Transport du Saguenay","agencyUrl":"http://ville.saguenay.ca/fr/services-aux-citoyens/transport-sts","agencyTimeZoneOffset":-14400000,"routeColor":"00FF00","routeType":3,"routeId":"1:16","routeTextColor":"000000","interlineWithPreviousLeg":false,"tripBlockId":"37","headsign":"Terminus Chicoutimi","agencyId":"0","tripId":"1:218305","serviceDate":"20180402","from":{"name":"ch. de la Réserve / St-Ange","stopId":"1:625","stopCode":"625","lon":-71.083536,"lat":48.42644,"arrival":1522670639000,"departure":1522670640000,"zoneId":"NA","stopIndex":30,"stopSequence":31,"vertexType":"TRANSIT"},"to":{"name":"Terminus Chicoutimi","stopId":"1:1289","stopCode":"1289","lon":-71.066163,"lat":48.428677,"arrival":1522671060000,"departure":1522671300000,"zoneId":"NA","stopIndex":35,"stopSequence":36,"vertexType":"TRANSIT"},"legGeometry":{"points":"ohqfHnozpLeCcGqAwC[g@]a@aAw@[_@cA}A_@w@GU[iDWaDzByCv@cA`@e@TSp@g@nAo@nBm@ZSf@c@PMb@[b@_@b@e@PYP]N_@La@P{@NcB@IBcAG_A{@sEEg@oAP}@DiBDFeBMa@iBCq@FmBPFcEDoBNiHyDWN_HBoA@Y@m@","length":52},"routeShortName":"16","routeLongName":"Côte de la Réserve","rentedBike":false,"transitLeg":true,"duration":420.0,"steps":[]},{"startTime":1522671300000,"endTime":1522671889000,"departureDelay":0,"arrivalDelay":0,"realTime":false,"distance":2704.712362975673,"pathway":false,"mode":"BUS","route":"10","agencyName":"Société de Transport du Saguenay","agencyUrl":"http://ville.saguenay.ca/fr/services-aux-citoyens/transport-sts","agencyTimeZoneOffset":-14400000,"routeColor":"0000FF","routeType":3,"routeId":"1:10","routeTextColor":"FFFFFF","interlineWithPreviousLeg":false,"tripBlockId":"29","headsign":"Terminus UQAC","agencyId":"0","tripId":"1:218055","serviceDate":"20180402","from":{"name":"Terminus Chicoutimi","stopId":"1:1289","stopCode":"1289","lon":-71.066163,"lat":48.428677,"arrival":1522671060000,"departure":1522671300000,"zoneId":"NA","stopIndex":0,"stopSequence":1,"vertexType":"TRANSIT"},"to":{"name":"Complexe Sagamie","stopId":"1:1565","stopCode":"1565","lon":-71.039089,"lat":48.423475,"arrival":1522671889000,"departure":1522671890000,"zoneId":"NA","stopIndex":11,"stopSequence":12,"vertexType":"TRANSIT"},"legGeometry":{"points":"svqfHnbwpLDmCdDZ\\kO`@mQBuCD}DQ_ECk@^Cd@QWkL?m@IuF@gA?eH?cAEuEDO^AjD`@B@rEf@T_FjBXpDd@hCObDaCfCaHbFqN`CwG_J_CwMiDGe@T}C\\yELaCJeA","length":38},"routeShortName":"10","routeLongName":"Notre-Dame du Saguenay","rentedBike":false,"transitLeg":true,"duration":589.0,"steps":[]},{"startTime":1522671890000,"endTime":1522671905000,"departureDelay":0,"arrivalDelay":0,"realTime":false,"distance":18.76,"pathway":false,"mode":"WALK","route":"","agencyTimeZoneOffset":-14400000,"interlineWithPreviousLeg":false,"from":{"name":"Complexe Sagamie","stopId":"1:1565","stopCode":"1565","lon":-71.039089,"lat":48.423475,"arrival":1522671889000,"departure":1522671890000,"zoneId":"NA","stopIndex":11,"stopSequence":12,"vertexType":"TRANSIT"},"to":{"name":"Destination","lon":-71.039377,"lat":48.423419,"arrival":1522671905000,"orig":"","vertexType":"NORMAL"},"legGeometry":{"points":"gupfHnyqpLGb@AL","length":3},"rentedBike":false,"transitLeg":false,"duration":15.0,"steps":[{"distance":18.76,"relativeDirection":"DEPART","streetName":"service road","absoluteDirection":"WEST","stayOn":false,"area":false,"bogusName":false,"lon":-71.03911523041273,"lat":48.423409719784964,"elevation":[]}]}],"tooSloped":false}]},"debugOutput":{"precalculationTime":21,"pathCalculationTime":19,"pathTimes":[13,2,3],"renderingTime":0,"totalTime":40,"timedOut":false},"elevationMetadata":{"ellipsoidToGeoidDifference":-28.885904201182168,"geoidElevation":false}}