{"requestParameters":{"date":"2018/04/02","walkSpeed":"1.33","walkReluctance":"2.0","fromPlace":"48.426747,-71.09166","maxWalkDistance":"3000","waitReluctance":"1.0","carSpeed":"33","numItineraries":"3","waitAtBeginningFactor":"0.4","mode":"TRANSIT,WALK","ignoreRealtimeUpdates":"false","stairsReluctance":"2.0","toPlace":"48.393297,-71.050177","time":"6:45:00"},"plan":{"date":1522665900000,"from":{"name":"Origin","lon":-71.09166,"lat":48.426747,"orig":"","vertexType":"NORMAL"},"to":{"name":"Destination","lon":-71.050177,"lat":48.393297,"orig":"","vertexType":"NORMAL"},"itineraries":[{"duration":2614,"startTime":1522666584000,"endTime":1522669198000,"walkTime":403,"transitTime":1969,"waitingTime":242,"walkDistance":510.5291428536857,"walkLimitExceeded":false,"elevationLost":0.0,"elevationGained":0.0,"transfers":1,"legs":[{"startTime":1522666584000,"endTime":1522666984000,"departureDelay":0,"arrivalDelay":0,"realTime":false,"distance":506.95400000000006,"pathway":false,"mode":"WALK","route":"","agencyTimeZoneOffset":-14400000,"interlineWithPreviousLeg":false,"from":{"name":"Origin","lon":-71.09166,"lat":48.426747,"departure":1522666584000,"orig":"","vertexType":"NORMAL"},"to":{"name":"ch. de la Réserve / Albanel","stopId":"1:623","stopCode":"623","lon":-71.0885,"lat":48.4237,"arrival":1522666984000,"departure":1522666985000,"zoneId":"NA","stopIndex":28,"stopSequence":29,"vertexType":"TRANSIT"},"legGeometry":{"points":"eiqfH|b|pLPe@BKlAiDvA_EL_@|@gC~C|CfA_DRi@^eATf@??","length":13},"rentedBike":false,"transitLeg":false,"duration":400.0,"steps":[{"distance":259.00800000000004,"relativeDirection":"DEPART","streetName":"Rue De Quen","absoluteDirection":"SOUTHEAST","stayOn":false,"area":false,"bogusName":false,"lon":-71.09182070008984,"lat":48.42659007638222,"elevation":[]},{"distance":107.137,"relativeDirection":"RIGHT","streetName":"Rue Émile Grouard","absoluteDirection":"SOUTHWEST","stayOn":false,"area":false,"bogusName":false,"lon":-71.08892230000001,"lat":48.425276100000005,"elevation":[]},{"distance":121.227,"relativeDirection":"LEFT","streetName":"Rue Albanel","absoluteDirection":"SOUTHEAST","stayOn":false,"area":false,"bogusName":false,"lon":-71.089719,"lat":48.42447060000001,"elevation":[]},{"distance":19.582,"relativeDirection":"RIGHT","streetName":"Chemin de la Réserve","absoluteDirection":"SOUTHWEST","stayOn":false,"area":false,"bogusName":false,"lon":-71.0883591,"lat":48.423858900000006,"elevation":[]}]},{"startTime":1522666985000,"endTime":1522667460000,"departureDelay":0,"arrivalDelay":0,"realTime":false,"distance":2160.2166227334155,"pathway":false,"mode":"BUS","route":"16","agencyName":"Société de Transport du Saguenay","agencyUrl":"http://ville.saguenay.ca/fr/services-aux-citoyens/transport-sts","agencyTimeZoneOffset":-14400000,"routeColor":"00FF00","routeType":3,"routeId":"1:16","routeTextColor":"000000","interlineWithPreviousLeg":false,"tripBlockId":"36","headsign":"Terminus Chicoutimi","agencyId":"0","tripId":"1:218277","serviceDate":"20180402","from":{"name":"ch. de la Réserve / Albanel","stopId":"1:623","stopCode":"623","lon":-71.0885,"lat":48.4237,"arrival":1522666984000,"departure":1522666985000,"zoneId":"NA","stopIndex":28,"stopSequence":29,"vertexType":"TRANSIT"},"to":{"name":"Terminus Chicoutimi","stopId":"1:1289","stopCode":"1289","lon":-71.066163,"lat":48.428677,"arrival":1522667460000,"departure":1522667700000,"zoneId":"NA","stopIndex":35,"stopSequence":36,"vertexType":"TRANSIT"},"legGeometry":{"points":"wwpfHzn{pLqBsFQ_@wA_DyAaD_AoBQ[sAuC{@sBeCcGqAwC[g@]a@aAw@[_@cA}A_@w@GU[iDWaDzByCv@cA`@e@TSp@g@nAo@nBm@ZSf@c@PMb@[b@_@b@e@PYP]N_@La@P{@NcB@IBcAG_A{@sEEg@oAP}@DiBDFeBMa@iBCq@FmBPFcEDoBNiHyDWN_HBoA@Y@m@","length":60},"routeShortName":"16","routeLongName":"Côte de la Réserve","rentedBike":false,"transitLeg":true,"duration":475.0,"steps":[]},{"startTime":1522667700000,"endTime":1522669194000,"departureDelay":0,"arrivalDelay":0,"realTime":false,"distance":7363.1142440466065,"pathway":false,"mode":"BUS","route":"15","agencyName":"Société de Transport du Saguenay","agencyUrl":"http://ville.saguenay.ca/fr/services-aux-citoyens/transport-sts","agencyTimeZoneOffset":-14400000,"routeColor":"FF00FF","routeType":3,"routeId":"1:15","routeTextColor":"FFFFFF","interlineWithPreviousLeg":false,"tripBlockId":"33","headsign":"Talbot / Barrette","agencyId":"0","tripId":"1:218173","serviceDate":"20180402","from":{"name":"Terminus Chicoutimi","stopId":"1:1289","stopCode":"1289","lon":-71.066163,"lat":48.428677,"arrival":1522667460000,"departure":1522667700000,"zoneId":"NA","stopIndex":0,"stopSequence":1,"vertexType":"TRANSIT"},"to":{"name":"Résidence Villa du Saguenay (Roitelets)","stopId":"1:1546","stopCode":"1546","lon":-71.050627,"lat":48.393589,"arrival":1522669194000,"departure":1522669195000,"zoneId":"NA","stopIndex":30,"stopSequence":31,"vertexType":"TRANSIT"},"legGeometry":{"points":"evqfHpbwpLPiCjKx@HiEZkS\\aSN_K^eIrBpBvIpIr@r@\\mBfAaA`@gBOkB_@uF|DyL|DpDQ|@|@z@bA`ATw@dD~Ch@fA@`E~AjGuH`Iy@bBi@dCbEdEjJlJ`HbHlJpJ|J~JdAfALzDNzDrAdBrEKvBEbCv@d@TvFlC|DlBpMlGrB`AM}@hAwEC{B]oBiBmBsH_@_K{H`EgIvCaGfEoItDsH~DeItC{FnBoLbCaO?qLa@uJzF`ApF~@~@PzAgEeDcBf@qAWcKUqEx@Ef@ExDVjDxAFBrBvAfGjG@BjCzC~DxC","length":81},"routeShortName":"15","routeLongName":"Term. Chic / Costco","rentedBike":false,"transitLeg":true,"duration":1494.0,"steps":[]},{"startTime":1522669195000,"endTime":1522669198000,"departureDelay":0,"arrivalDelay":0,"realTime":false,"distance":3.468,"pathway":false,"mode":"WALK","route":"","agencyTimeZoneOffset":-14400000,"interlineWithPreviousLeg":false,"from":{"name":"Résidence Villa du Saguenay (Roitelets)","stopId":"1:1546","stopCode":"1546","lon":-71.050627,"lat":48.393589,"arrival":1522669194000,"departure":1522669195000,"zoneId":"NA","stopIndex":30,"stopSequence":31,"vertexType":"TRANSIT"},"to":{"name":"Destination","lon":-71.050177,"lat":48.393297,"arrival":1522669198000,"orig":"","vertexType":"NORMAL"},"legGeometry":{"points":"e{jfH|atpLBD","length":2},"rentedBike":false,"transitLeg":false,"duration":3.0,"steps":[{"distance":3.468,"relativeDirection":"DEPART","streetName":"bike path","absoluteDirection":"SOUTHWEST","stayOn":false,"area":false,"bogusName":false,"lon":-71.05070830576834,"lat":48.39363439480543,"elevation":[]}]}],"tooSloped":false},{"duration":2304,"startTime":1522667161000,"endTime":1522669465000,"walkTime":1336,"transitTime":966,"waitingTime":2,"walkDistance":1717.47402255126,"walkLimitExceeded":false,"elevationLost":0.0,"elevationGained":0.0,"transfers":0,"legs":[{"startTime":1522667161000,"endTime":1522668494000,"departureDelay":0,"arrivalDelay":0,"realTime":false,"distance":1713.8470000000002,"pathway":false,"mode":"WALK","route":"","agencyTimeZoneOffset":-14400000,"interlineWithPreviousLeg":false,"from":{"name":"Origin","lon":-71.09166,"lat":48.426747,"departure":1522667161000,"orig":"","vertexType":"NORMAL"},"to":{"name":"Jolliet / Caron","stopId":"1:552","stopCode":"552","lon":-71.073027,"lat":48.420559,"arrival":1522668494000,"departure":1522668495000,"zoneId":"NA","stopIndex":10,"stopSequence":11,"vertexType":"TRANSIT"},"legGeometry":{"points":"eiqfH|b|pLPe@BKlAiDvA_EaCsAa@YR_JHyC@c@@}@?c@DkDH_DDk@xAgEh@{A`AyCXm@Xa@r@u@pBqB~AqBFKVe@La@f@gAHc@RgAD[NeANu@`@qAvAuDbAkCDIN[BIx@uBf@}AXq@Pa@FEFCDCBG@I@K?MESfA_CNc@","length":52},"rentedBike":false,"transitLeg":false,"duration":1333.0,"steps":[{"distance":183.81600000000003,"relativeDirection":"DEPART","streetName":"Rue De Quen","absoluteDirection":"SOUTHEAST","stayOn":false,"area":false,"bogusName":false,"lon":-71.09182070008984,"lat":48.42659007638222,"elevation":[]},{"distance":99.727,"relativeDirection":"LEFT","streetName":"Rue J.-R.-Théberge","absoluteDirection":"NORTHEAST","stayOn":false,"area":false,"bogusName":false,"lon":-71.0897645,"lat":48.425656800000006,"elevation":[]},{"distance":376.719,"relativeDirection":"RIGHT","streetName":"Rue Brassard","absoluteDirection":"EAST","stayOn":false,"area":false,"bogusName":false,"lon":-71.0892196,"lat":48.4264773,"elevation":[]},{"distance":238.88,"relativeDirection":"SLIGHTLY_RIGHT","streetName":"Côte Saint-Ange","absoluteDirection":"SOUTHEAST","stayOn":false,"area":false,"bogusName":false,"lon":-71.0841347,"lat":48.426195400000005,"elevation":[]},{"distance":658.8380000000001,"relativeDirection":"CONTINUE","streetName":"Rue Dubuc","absoluteDirection":"SOUTHEAST","stayOn":false,"area":false,"bogusName":false,"lon":-71.0815067,"lat":48.424949000000005,"elevation":[]},{"distance":78.343,"relativeDirection":"CONTINUE","streetName":"path","absoluteDirection":"SOUTHEAST","stayOn":false,"area":false,"bogusName":true,"lon":-71.07469880000001,"lat":48.4212916,"elevation":[]},{"distance":77.524,"relativeDirection":"RIGHT","streetName":"Rue Jolliet","absoluteDirection":"SOUTHEAST","stayOn":false,"area":false,"bogusName":false,"lon":-71.07388590000001,"lat":48.420954200000004,"elevation":[]}]},{"startTime":1522668495000,"endTime":1522669260000,"departureDelay":0,"arrivalDelay":0,"realTime":false,"distance":6245.821937629069,"pathway":false,"mode":"BUS","route":"14","agencyName":"Société de Transport du Saguenay","agencyUrl":"http://ville.saguenay.ca/fr/services-aux-citoyens/transport-sts","agencyTimeZoneOffset":-14400000,"routeColor":"C0C000","routeType":3,"routeId":"1:14","routeTextColor":"000000","interlineWithPreviousLeg":false,"tripBlockId":"32","headsign":"Talbot / Barrette","agencyId":"0","tripId":"1:218148","serviceDate":"20180402","from":{"name":"Jolliet / Caron","stopId":"1:552","stopCode":"552","lon":-71.073027,"lat":48.420559,"arrival":1522668494000,"departure":1522668495000,"zoneId":"NA","stopIndex":10,"stopSequence":11,"vertexType":"TRANSIT"},"to":{"name":"Roitelets / Sapins","stopId":"1:1543","stopCode":"1543","lon":-71.069553,"lat":48.393375,"arrival":1522669260000,"departure":1522669260000,"zoneId":"NA","stopIndex":35,"stopSequence":36,"vertexType":"TRANSIT"},"legGeometry":{"points":"kcpfHpmxpLO^bEbEzK`LfBeEtK`KhAdAnCbCvBpCNR~BxAxBf@z@h@vAz@z@{DrCoITTlElEtAnB`@l@pFrD@?fDr@XgAjFuR\\yADm@b@gFd@_B`A}@tEvJBDvC`FtJ|LLNlClC|@^hCYVExCjCb@d@vE`F`BhB?pHaBhRqAbLK~@qBxFqB|FcC~GyC\\aDkDcFsF~CgOtGm[j@oCvEoSl@_CxCmLjAeFpCeKrByHfAqCvH_SLa@","length":65},"routeShortName":"14","routeLongName":"Coopérative","rentedBike":false,"transitLeg":true,"duration":765.0,"steps":[]},{"startTime":1522669260000,"endTime":1522669461000,"departureDelay":0,"arrivalDelay":0,"realTime":false,"distance":1417.6790644138782,"pathway":false,"mode":"BUS","route":"15","agencyName":"Société de Transport du Saguenay","agencyUrl":"http://ville.saguenay.ca/fr/services-aux-citoyens/transport-sts","agencyTimeZoneOffset":-14400000,"routeColor":"FF00FF","routeType":3,"routeId":"1:15","routeTextColor":"FFFFFF","interlineWithPreviousLeg":true,"tripBlockId":"32","headsign":"Terminus Chicoutimi","agencyId":"0","tripId":"1:218149","serviceDate":"20180402","from":{"name":"Roitelets / Sapins","stopId":"1:1543","stopCode":"1543","lon":-71.069553,"lat":48.393375,"arrival":1522669260000,"departure":1522669260000,"zoneId":"NA","stopIndex":0,"stopSequence":1,"vertexType":"TRANSIT"},"to":{"name":"Résidence Villa du Saguenay (Roitelets)","stopId":"1:1546","stopCode":"1546","lon":-71.050627,"lat":48.393589,"arrival":1522669461000,"departure":1522669462000,"zoneId":"NA","stopIndex":5,"stopSequence":6,"vertexType":"TRANSIT"},"legGeometry":{"points":"_zjfHfwwpLx@}BHa@NaADq@@y@Cy@I{@Ka@O[Sg@c@mAWwAMyA?EC]?wABuABmFB{@BmDFuH@i@F[FsC@c@TuGEGVsHPuDLuBXsFDoA?W@]Cu@GcAKu@Q_ASo@a@y@a@o@MO","length":43},"routeShortName":"15","routeLongName":"Term. Chic / Costco","rentedBike":false,"transitLeg":true,"duration":201.0,"steps":[]},{"startTime":1522669462000,"endTime":1522669465000,"departureDelay":0,"arrivalDelay":0,"realTime":false,"distance":3.468,"pathway":false,"mode":"WALK","route":"","agencyTimeZoneOffset":-14400000,"interlineWithPreviousLeg":false,"from":{"name":"Résidence Villa du Saguenay (Roitelets)","stopId":"1:1546","stopCode":"1546","lon":-71.050627,"lat":48.393589,"arrival":1522669461000,"departure":1522669462000,"zoneId":"NA","stopIndex":5,"stopSequence":6,"vertexType":"TRANSIT"},"to":{"name":"Destination","lon":-71.050177,"lat":48.393297,"arrival":1522669465000,"orig":"","vertexType":"NORMAL"},"legGeometry":{"points":"e{jfH|atpLBD","length":2},"rentedBike":false,"transitLeg":false,"duration":3.0,"steps":[{"distance":3.468,"relativeDirection":"DEPART","streetName":"bike path","absoluteDirection":"SOUTHWEST","stayOn":false,"area":false,"bogusName":false,"lon":-71.05070830576834,"lat":48.39363439480543,"elevation":[]}]}],"tooSloped":false},{"duration":2614,"startTime":1522668384000,"endTime":1522670998000,"walkTime":403,"transitTime":1969,"waitingTime":242,"walkDistance":510.5291428536857,"walkLimitExceeded":false,"elevationLost":0.0,"elevationGained":0.0,"transfers":1,"legs":[{"startTime":1522668384000,"endTime":1522668784000,"departureDelay":0,"arrivalDelay":0,"realTime":false,"distance":506.95400000000006,"pathway":false,"mode":"WALK","route":"","agencyTimeZoneOffset":-14400000,"interlineWithPreviousLeg":false,"from":{"name":"Origin","lon":-71.09166,"lat":48.426747,"departure":1522668384000,"orig":"","vertexType":"NORMAL"},"to":{"name":"ch. de la Réserve / Albanel","stopId":"1:623","stopCode":"623","lon":-71.0885,"lat":48.4237,"arrival":1522668784000,"departure":1522668785000,"zoneId":"NA","stopIndex":28,"stopSequence":29,"vertexType":"TRANSIT"},"legGeometry":{"points":"eiqfH|b|pLPe@BKlAiDvA_EL_@|@gC~C|CfA_DRi@^eATf@??","length":13},"rentedBike":false,"transitLeg":false,"duration":400.0,"steps":[{"distance":259.00800000000004,"relativeDirection":"DEPART","streetName":"Rue De Quen","absoluteDirection":"SOUTHEAST","stayOn":false,"area":false,"bogusName":false,"lon":-71.09182070008984,"lat":48.42659007638222,"elevation":[]},{"distance":107.137,"relativeDirection":"RIGHT","streetName":"Rue Émile Grouard","absoluteDirection":"SOUTHWEST","stayOn":false,"area":false,"bogusName":false,"lon":-71.08892230000001,"lat":48.425276100000005,"elevation":[]},{"distance":121.227,"relativeDirection":"LEFT","streetName":"Rue Albanel","absoluteDirection":"SOUTHEAST","stayOn":false,"area":false,"bogusName":false,"lon":-71.089719,"lat":48.42447060000001,"elevation":[]},{"distance":19.582,"relativeDirection":"RIGHT","streetName":"Chemin de la Réserve","absoluteDirection":"SOUTHWEST","stayOn":false,"area":false,"bogusName":false,"lon":-71.0883591,"lat":48.423858900000006,"elevation":[]}]},{"startTime":1522668785000,"endTime":1522669260000,"departureDelay":0,"arrivalDelay":0,"realTime":false,"distance":2160.2166227334155,"pathway":false,"mode":"BUS","route":"16","agencyName":"Société de Transport du Saguenay","agencyUrl":"http://ville.saguenay.ca/fr/services-aux-citoyens/transport-sts","agencyTimeZoneOffset":-14400000,"routeColor":"00FF00","routeType":3,"routeId":"1:16","routeTextColor":"000000","interlineWithPreviousLeg":false,"tripBlockId":"35","headsign":"Terminus Chicoutimi","agencyId":"0","tripId":"1:218243","serviceDate":"20180402","from":{"name":"ch. de la Réserve / Albanel","stopId":"1:623","stopCode":"623","lon":-71.0885,"lat":48.4237,"arrival":1522668784000,"departure":1522668785000,"zoneId":"NA","stopIndex":28,"stopSequence":29,"vertexType":"TRANSIT"},"to":{"name":"Terminus Chicoutimi","stopId":"1:1289","stopCode":"1289","lon":-71.066163,"lat":48.428677,"arrival":1522669260000,"departure":1522669500000,"zoneId":"NA","stopIndex":35,"stopSequence":36,"vertexType":"TRANSIT"},"legGeometry":{"points":"wwpfHzn{pLqBsFQ_@wA_DyAaD_AoBQ[sAuC{@sBeCcGqAwC[g@]a@aAw@[_@cA}A_@w@GU[iDWaDzByCv@cA`@e@TSp@g@nAo@nBm@ZSf@c@PMb@[b@_@b@e@PYP]N_@La@P{@NcB@IBcAG_A{@sEEg@oAP}@DiBDFeBMa@iBCq@FmBPFcEDoBNiHyDWN_HBoA@Y@m@","length":60},"routeShortName":"16","routeLongName":"Côte de la Réserve","rentedBike":false,"transitLeg":true,"duration":475.0,"steps":[]},{"startTime":1522669500000,"endTime":1522670994000,"departureDelay":0,"arrivalDelay":0,"realTime":false,"distance":7363.1142440466065,"pathway":false,"mode":"BUS","route":"15","agencyName":"Société de Transport du Saguenay","agencyUrl":"http://ville.saguenay.ca/fr/services-aux-citoyens/transport-sts","agencyTimeZoneOffset":-14400000,"routeColor":"FF00FF","routeType":3,"routeId":"1:15","routeTextColor":"FFFFFF","interlineWithPreviousLeg":false,"tripBlockId":"31","headsign":"Talbot / Barrette","agencyId":"0","tripId":"1:218124","serviceDate":"20180402","from":{"name":"Terminus Chicoutimi","stopId":"1:1289","stopCode":"1289","lon":-71.066163,"lat":48.428677,"arrival":1522669260000,"departure":1522669500000,"zoneId":"NA","stopIndex":0,"stopSequence":1,"vertexType":"TRANSIT"},"to":{"name":"Résidence Villa du Saguenay (Roitelets)","stopId":"1:1546","stopCode":"1546","lon":-71.050627,"lat":48.393589,"arrival":1522670994000,"departure":1522670995000,"zoneId":"NA","stopIndex":30,"stopSequence":31,"vertexType":"TRANSIT"},"legGeometry":{"points":"evqfHpbwpLPiCjKx@HiEZkS\\aSN_K^eIrBpBvIpIr@r@\\mBfAaA`@gBOkB_@uF|DyL|DpDQ|@|@z@bA`ATw@dD~Ch@fA@`E~AjGuH`Iy@bBi@dCbEdEjJlJ`HbHlJpJ|J~JdAfALzDNzDrAdBrEKvBEbCv@d@TvFlC|DlBpMlGrB`AM}@hAwEC{B]oBiBmBsH_@_K{H`EgIvCaGfEoItDsH~DeItC{FnBoLbCaO?qLa@uJzF`ApF~@~@PzAgEeDcBf@qAWcKUqEx@Ef@ExDVjDxAFBrBvAfGjG@BjCzC~DxC","length":81},"routeShortName":"15","routeLongName":"Term. Chic / Costco","rentedBike":false,"transitLeg":true,"duration":1494.0,"steps":[]},{"startTime":1522670995000,"endTime":1522670998000,"departureDelay":0,"arrivalDelay":0,"realTime":false,"distance":3.468,"pathway":false,"mode":"WALK","route":"","agencyTimeZoneOffset":-14400000,"interlineWithPreviousLeg":false,"from":{"name":"Résidence Villa du Saguenay (Roitelets)","stopId":"1:1546","stopCode":"1546","lon":-71.050627,"lat":48.393589,"arrival":1522670994000,"departure":1522670995000,"zoneId":"NA","stopIndex":30,"stopSequence":31,"vertexType":"TRANSIT"},"to":{"name":"Destination","lon":-71.050177,"lat":48.393297,"arrival":1522670998000,"orig":"","vertexType":"NORMAL"},"legGeometry":{"points":"e{jfH|atpLBD","length":2},"rentedBike":false,"transitLeg":false,"duration":3.0,"steps":[{"distance":3.468,"relativeDirection":"DEPART","streetName":"bike path","absoluteDirection":"SOUTHWEST","stayOn":false,"area":false,"bogusName":false,"lon":-71.05070830576834,"lat":48.39363439480543,"elevation":[]}]}],"tooSloped":false}]},"debugOutput":{"precalculationTime":15,"pathCalculationTime":26,"pathTimes":[17,4,5],"renderingTime":1,"totalTime":42,"timedOut":false},"elevationMetadata":{"ellipsoidToGeoidDifference":-28.885904201182168,"geoidElevation":false}}