{"requestParameters":{"date":"2018/04/02","walkSpeed":"1.33","walkReluctance":"2.0","fromPlace":"48.382739,-71.086723","maxWalkDistance":"3000","waitReluctance":"1.0","carSpeed":"33","numItineraries":"3","waitAtBeginningFactor":"0.4","mode":"TRANSIT,WALK","ignoreRealtimeUpdates":"false","stairsReluctance":"2.0","toPlace":"48.422529,-71.088152","time":"15:10:00"},"plan":{"date":1522696200000,"from":{"name":"Origin","lon":-71.086723,"lat":48.382739,"orig":"","vertexType":"NORMAL"},"to":{"name":"Destination","lon":-71.088152,"lat":48.422529,"orig":"","vertexType":"NORMAL"},"itineraries":[{"duration":2844,"startTime":1522696305000,"endTime":1522699149000,"walkTime":471,"transitTime":2071,"waitingTime":302,"walkDistance":587.6378270602211,"walkLimitExceeded":false,"elevationLost":0.0,"elevationGained":0.0,"transfers":1,"legs":[{"startTime":1522696305000,"endTime":1522696499000,"departureDelay":0,"arrivalDelay":0,"realTime":false,"distance":237.918,"pathway":false,"mode":"WALK","route":"","agencyTimeZoneOffset":-14400000,"interlineWithPreviousLeg":false,"from":{"name":"Origin","lon":-71.086723,"lat":48.382739,"departure":1522696305000,"orig":"","vertexType":"NORMAL"},"to":{"name":"COSTCO","stopId":"1:1710","stopCode":"1710","lon":-71.085767,"lat":48.382333,"arrival":1522696499000,"departure":1522696500000,"zoneId":"NA","stopIndex":0,"stopSequence":1,"vertexType":"TRANSIT"},"legGeometry":{"points":"mvhfH~c{pLZk@Lt@PZ`@d@nA_DuBaC","length":7},"rentedBike":false,"transitLeg":false,"duration":194.0,"steps":[{"distance":82.838,"relativeDirection":"DEPART","streetName":"service road","absoluteDirection":"SOUTHEAST","stayOn":false,"area":false,"bogusName":false,"lon":-71.08687506276566,"lat":48.38263570446591,"elevation":[]},{"distance":73.854,"relativeDirection":"LEFT","streetName":"Boulevard du Royaume Ouest","absoluteDirection":"SOUTHEAST","stayOn":false,"area":false,"bogusName":false,"lon":-71.0872595,"lat":48.382163600000005,"elevation":[]},{"distance":81.226,"relativeDirection":"LEFT","streetName":"service road","absoluteDirection":"NORTHEAST","stayOn":false,"area":false,"bogusName":true,"lon":-71.0864598,"lat":48.381764800000006,"elevation":[]}]},{"startTime":1522696500000,"endTime":1522698000000,"departureDelay":0,"arrivalDelay":0,"realTime":false,"distance":7720.38554651896,"pathway":false,"mode":"BUS","route":"175","agencyName":"Société de Transport du Saguenay","agencyUrl":"http://ville.saguenay.ca/fr/services-aux-citoyens/transport-sts","agencyTimeZoneOffset":-14400000,"routeColor":"FF00FF","routeType":3,"routeId":"1:175","routeTextColor":"FFFFFF","interlineWithPreviousLeg":false,"tripBlockId":"11","headsign":"Terminus Chicoutimi","agencyId":"0","tripId":"1:217479","serviceDate":"20180402","from":{"name":"COSTCO","stopId":"1:1710","stopCode":"1710","lon":-71.085767,"lat":48.382333,"arrival":1522696499000,"departure":1522696500000,"zoneId":"NA","stopIndex":0,"stopSequence":1,"vertexType":"TRANSIT"},"to":{"name":"Terminus Chicoutimi","stopId":"1:1289","stopCode":"1289","lon":-71.066163,"lat":48.428677,"arrival":1522698000000,"departure":1522698300000,"zoneId":"NA","stopIndex":27,"stopSequence":28,"vertexType":"TRANSIT"},"legGeometry":{"points":"euhfHt|zpL_BiBsCoDwCqDrCsGN_@uEoFoEiFUWSUqCwC]a@{ByC{@cAkJuKoAwA_CeCeExJ~AlB`@mAu@k@}@q@|C}Iw@}@aO_QkEsEiAoAgEsFkFsHqJ_N}FkImPkOuO{N_U_TcNgNcBcB{E`Jc@x@qG~@{BlAk@XgSrQqB_GAeFiEeEOt@gAeA_A_ATm@yAwAgBeBqDnL@nBF`@f@|C[dCuAfB]xAs@OmCmCmEkE]a@g@i@ZiGTmEl@oLaEe@cFk@?pH?tJDvBPjMB~Bo@PQDRbFKdGMhIOvIK|EQpHoCQEdC","length":83},"routeShortName":"175","routeLongName":"Term. Chic / Costco","rentedBike":false,"transitLeg":true,"duration":1500.0,"steps":[]},{"startTime":1522698300000,"endTime":1522698871000,"departureDelay":0,"arrivalDelay":0,"realTime":false,"distance":2967.5596063171365,"pathway":false,"mode":"BUS","route":"16","agencyName":"Société de Transport du Saguenay","agencyUrl":"http://ville.saguenay.ca/fr/services-aux-citoyens/transport-sts","agencyTimeZoneOffset":-14400000,"routeColor":"00FF00","routeType":3,"routeId":"1:16","routeTextColor":"000000","interlineWithPreviousLeg":false,"tripBlockId":"34","headsign":"Faubourg Sagamie","agencyId":"0","tripId":"1:218225","serviceDate":"20180402","from":{"name":"Terminus Chicoutimi","stopId":"1:1289","stopCode":"1289","lon":-71.066163,"lat":48.428677,"arrival":1522698000000,"departure":1522698300000,"zoneId":"NA","stopIndex":0,"stopSequence":1,"vertexType":"TRANSIT"},"to":{"name":"Dequen / Vilmond","stopId":"1:601","stopCode":"601","lon":-71.087641,"lat":48.424724,"arrival":1522698871000,"departure":1522698872000,"zoneId":"NA","stopIndex":15,"stopSequence":16,"vertexType":"TRANSIT"},"legGeometry":{"points":"evqfHzcwpLg@?AXCnAO~GxDVhCP~M~@jDTOrHKdGE^E~BQnIMhGAxCD~@Df@DVDZd@zBBLDJJNHHHDJBn@HCxAHdAFX@DFj@@b@Ab@SvAe@p@{EnEEB{@w@m@o@aDeDIKCMCM?SL}A?A@WCYi@mDOu@Wm@EIMSSWaAcAuAcBq@f@URa@d@u@`A}BzCV`DX~C@HFT^v@bA|AZ^`Av@\\`@Zf@pAvCtD`JJTrAtCpAjC@BvA|CvA~Ci@zA","length":82},"routeShortName":"16","routeLongName":"Côte de la Réserve","rentedBike":false,"transitLeg":true,"duration":571.0,"steps":[]},{"startTime":1522698872000,"endTime":1522699149000,"departureDelay":0,"arrivalDelay":0,"realTime":false,"distance":349.489,"pathway":false,"mode":"WALK","route":"","agencyTimeZoneOffset":-14400000,"interlineWithPreviousLeg":false,"from":{"name":"Dequen / Vilmond","stopId":"1:601","stopCode":"601","lon":-71.087641,"lat":48.424724,"arrival":1522698871000,"departure":1522698872000,"zoneId":"NA","stopIndex":15,"stopSequence":16,"vertexType":"TRANSIT"},"to":{"name":"Destination","lon":-71.088152,"lat":48.422529,"arrival":1522699149000,"orig":"","vertexType":"NORMAL"},"legGeometry":{"points":"g}pfH~h{pLh@wA~AhDZt@f@aATwCzCrCHO","length":8},"rentedBike":false,"transitLeg":false,"duration":277.0,"steps":[{"distance":40.67,"relativeDirection":"DEPART","streetName":"Rue De Quen","absoluteDirection":"SOUTHEAST","stayOn":false,"area":false,"bogusName":false,"lon":-71.08767920713842,"lat":48.42468992051686,"elevation":[]},{"distance":107.271,"relativeDirection":"RIGHT","streetName":"Chemin de la Réserve","absoluteDirection":"SOUTHWEST","stayOn":false,"area":false,"bogusName":false,"lon":-71.087237,"lat":48.424471600000004,"elevation":[]},{"distance":90.826,"relativeDirection":"LEFT","streetName":"Rue Albanel","absoluteDirection":"SOUTHEAST","stayOn":false,"area":false,"bogusName":false,"lon":-71.0883591,"lat":48.423858900000006,"elevation":[]},{"distance":110.722,"relativeDirection":"RIGHT","streetName":"Rue Simpson","absoluteDirection":"SOUTHWEST","stayOn":false,"area":false,"bogusName":false,"lon":-71.0872677,"lat":48.4235446,"elevation":[]}]}],"tooSloped":false},{"duration":3256,"startTime":1522696305000,"endTime":1522699561000,"walkTime":369,"transitTime":1685,"waitingTime":1202,"walkDistance":459.21228570898467,"walkLimitExceeded":false,"elevationLost":0.0,"elevationGained":0.0,"transfers":1,"legs":[{"startTime":1522696305000,"endTime":1522696499000,"departureDelay":0,"arrivalDelay":0,"realTime":false,"distance":237.918,"pathway":false,"mode":"WALK","route":"","agencyTimeZoneOffset":-14400000,"interlineWithPreviousLeg":false,"from":{"name":"Origin","lon":-71.086723,"lat":48.382739,"departure":1522696305000,"orig":"","vertexType":"NORMAL"},"to":{"name":"COSTCO","stopId":"1:1710","stopCode":"1710","lon":-71.085767,"lat":48.382333,"arrival":1522696499000,"departure":1522696500000,"zoneId":"NA","stopIndex":0,"stopSequence":1,"vertexType":"TRANSIT"},"legGeometry":{"points":"mvhfH~c{pLZk@Lt@PZ`@d@nA_DuBaC","length":7},"rentedBike":false,"transitLeg":false,"duration":194.0,"steps":[{"distance":82.838,"relativeDirection":"DEPART","streetName":"service road","absoluteDirection":"SOUTHEAST","stayOn":false,"area":false,"bogusName":false,"lon":-71.08687506276566,"lat":48.38263570446591,"elevation":[]},{"distance":73.854,"relativeDirection":"LEFT","streetName":"Boulevard du Royaume Ouest","absoluteDirection":"SOUTHEAST","stayOn":false,"area":false,"bogusName":false,"lon":-71.0872595,"lat":48.382163600000005,"elevation":[]},{"distance":81.226,"relativeDirection":"LEFT","streetName":"service road","absoluteDirection":"NORTHEAST","stayOn":false,"area":false,"bogusName":true,"lon":-71.0864598,"lat":48.381764800000006,"elevation":[]}]},{"startTime":1522696500000,"endTime":1522697100000,"departureDelay":0,"arrivalDelay":0,"realTime":false,"distance":6545.867623869018,"pathway":false,"mode":"BUS","route":"2","agencyName":"Société de Transport du Saguenay","agencyUrl":"http://ville.saguenay.ca/fr/services-aux-citoyens/transport-sts","agencyTimeZoneOffset":-14400000,"routeColor":"FF0000","routeType":3,"routeId":"1:2","routeTextColor":"FFFFFF","interlineWithPreviousLeg":false,"tripBlockId":"7","headsign":"Terminus Jonquière","agencyId":"0","tripId":"1:217338","serviceDate":"20180402","from":{"name":"COSTCO","stopId":"1:1710","stopCode":"1710","lon":-71.085767,"lat":48.382333,"arrival":1522696499000,"departure":1522696500000,"zoneId":"NA","stopIndex":0,"stopSequence":1,"vertexType":"TRANSIT"},"to":{"name":"Faubourg Sagamie","stopId":"1:1129","stopCode":"1129","lon":-71.167414,"lat":48.402974,"arrival":1522697100000,"departure":1522698300000,"zoneId":"NA","stopIndex":9,"stopSequence":10,"vertexType":"TRANSIT"},"legGeometry":{"points":"wthfHn}zpLeLkMxCaIbPzPkL|[eB~GwBlIa@bXIbQO`^aBhTiBlNUfBiI~ZeHzQeFxMqDtKAJ}ApJM~EWhIb@`NFlB_@fOsBvK_DrH_G|HiSfXwExNyEzZoHll@}GpYuL`_@PPZ^lC|Bn@j@bB|A","length":38},"routeShortName":"2","routeLongName":"Chic/Jonq via Boul. Royaume","rentedBike":false,"transitLeg":true,"duration":600.0,"steps":[]},{"startTime":1522698300000,"endTime":1522699385000,"departureDelay":0,"arrivalDelay":0,"realTime":false,"distance":7150.680679959849,"pathway":false,"mode":"BUS","route":"16","agencyName":"Société de Transport du Saguenay","agencyUrl":"http://ville.saguenay.ca/fr/services-aux-citoyens/transport-sts","agencyTimeZoneOffset":-14400000,"routeColor":"00FF00","routeType":3,"routeId":"1:16","routeTextColor":"000000","interlineWithPreviousLeg":false,"tripBlockId":"37","headsign":"Terminus Chicoutimi","agencyId":"0","tripId":"1:218321","serviceDate":"20180402","from":{"name":"Faubourg Sagamie","stopId":"1:1129","stopCode":"1129","lon":-71.167414,"lat":48.402974,"arrival":1522697100000,"departure":1522698300000,"zoneId":"NA","stopIndex":0,"stopSequence":1,"vertexType":"TRANSIT"},"to":{"name":"ch. de la Réserve / Albanel","stopId":"1:623","stopCode":"623","lon":-71.0885,"lat":48.4237,"arrival":1522699385000,"departure":1522699386000,"zoneId":"NA","stopIndex":28,"stopSequence":29,"vertexType":"TRANSIT"},"legGeometry":{"points":"sulfHn{jqLq@g@J]kIkHbAoDzB{HhBoGxGiTd@{A`ByIXyCZcDaB_@aBoBeGmH[_@m@iClA_AlAuEj@yBt@iDDq@Z}EpAkDlAiAv@i@zB}AeA}H\\sCNgApDyKeE}EoEgF`@gAl@gB}GoImCqFeD_H}DcEiJqJgEeGqAyGk@kEg@_EmD}NkB_IUoBmB{PAiAI_IWkF_BoFM_@i@kCs@{B_CqPy@{FQmAoAwK[aEeByD}BkCmC_DaDqDyDcDkD]_Bc@aAY_IsGYo@}@mBqAkKg@aE@wFS}AiAaIgA{B}CiGiBeF","length":79},"routeShortName":"16","routeLongName":"Côte de la Réserve","rentedBike":false,"transitLeg":true,"duration":1085.0,"steps":[]},{"startTime":1522699386000,"endTime":1522699561000,"departureDelay":0,"arrivalDelay":0,"realTime":false,"distance":221.13,"pathway":false,"mode":"WALK","route":"","agencyTimeZoneOffset":-14400000,"interlineWithPreviousLeg":false,"from":{"name":"ch. de la Réserve / Albanel","stopId":"1:623","stopCode":"623","lon":-71.0885,"lat":48.4237,"arrival":1522699385000,"departure":1522699386000,"zoneId":"NA","stopIndex":28,"stopSequence":29,"vertexType":"TRANSIT"},"to":{"name":"Destination","lon":-71.088152,"lat":48.422529,"arrival":1522699561000,"orig":"","vertexType":"NORMAL"},"legGeometry":{"points":"kwpfHnn{pL??Ug@f@aATwCzCrCHO","length":7},"rentedBike":false,"transitLeg":false,"duration":175.0,"steps":[{"distance":19.582,"relativeDirection":"DEPART","streetName":"Chemin de la Réserve","absoluteDirection":"NORTHEAST","stayOn":false,"area":false,"bogusName":false,"lon":-71.08855534649012,"lat":48.423740347419006,"elevation":[]},{"distance":90.826,"relativeDirection":"RIGHT","streetName":"Rue Albanel","absoluteDirection":"SOUTHEAST","stayOn":false,"area":false,"bogusName":false,"lon":-71.0883591,"lat":48.423858900000006,"elevation":[]},{"distance":110.722,"relativeDirection":"RIGHT","streetName":"Rue Simpson","absoluteDirection":"SOUTHWEST","stayOn":false,"area":false,"bogusName":false,"lon":-71.0872677,"lat":48.4235446,"elevation":[]}]}],"tooSloped":false},{"duration":3256,"startTime":1522698105000,"endTime":1522701361000,"walkTime":369,"transitTime":1685,"waitingTime":1202,"walkDistance":459.21228570898467,"walkLimitExceeded":false,"elevationLost":0.0,"elevationGained":0.0,"transfers":1,"legs":[{"startTime":1522698105000,"endTime":1522698299000,"departureDelay":0,"arrivalDelay":0,"realTime":false,"distance":237.918,"pathway":false,"mode":"WALK","route":"","agencyTimeZoneOffset":-14400000,"interlineWithPreviousLeg":false,"from":{"name":"Origin","lon":-71.086723,"lat":48.382739,"departure":1522698105000,"orig":"","vertexType":"NORMAL"},"to":{"name":"COSTCO","stopId":"1:1710","stopCode":"1710","lon":-71.085767,"lat":48.382333,"arrival":1522698299000,"departure":1522698300000,"zoneId":"NA","stopIndex":0,"stopSequence":1,"vertexType":"TRANSIT"},"legGeometry":{"points":"mvhfH~c{pLZk@Lt@PZ`@d@nA_DuBaC","length":7},"rentedBike":false,"transitLeg":false,"duration":194.0,"steps":[{"distance":82.838,"relativeDirection":"DEPART","streetName":"service road","absoluteDirection":"SOUTHEAST","stayOn":false,"area":false,"bogusName":false,"lon":-71.08687506276566,"lat":48.38263570446591,"elevation":[]},{"distance":73.854,"relativeDirection":"LEFT","streetName":"Boulevard du Royaume Ouest","absoluteDirection":"SOUTHEAST","stayOn":false,"area":false,"bogusName":false,"lon":-71.0872595,"lat":48.382163600000005,"elevation":[]},{"distance":81.226,"relativeDirection":"LEFT","streetName":"service road","absoluteDirection":"NORTHEAST","stayOn":false,"area":false,"bogusName":true,"lon":-71.0864598,"lat":48.381764800000006,"elevation":[]}]},{"startTime":1522698300000,"endTime":1522698900000,"departureDelay":0,"arrivalDelay":0,"realTime":false,"distance":6545.867623869018,"pathway":false,"mode":"BUS","route":"2","agencyName":"Société de Transport du Saguenay","agencyUrl":"http://ville.saguenay.ca/fr/services-aux-citoyens/transport-sts","agencyTimeZoneOffset":-14400000,"routeColor":"FF0000","routeType":3,"routeId":"1:2","routeTextColor":"FFFFFF","interlineWithPreviousLeg":false,"tripBlockId":"8","headsign":"Terminus Jonquière","agencyId":"0","tripId":"1:217375","serviceDate":"20180402","from":{"name":"COSTCO","stopId":"1:1710","stopCode":"1710","lon":-71.085767,"lat":48.382333,"arrival":1522698299000,"departure":1522698300000,"zoneId":"NA","stopIndex":0,"stopSequence":1,"vertexType":"TRANSIT"},"to":{"name":"Faubourg Sagamie","stopId":"1:1129","stopCode":"1129","lon":-71.167414,"lat":48.402974,"arrival":1522698900000,"departure":1522700100000,"zoneId":"NA","stopIndex":9,"stopSequence":10,"vertexType":"TRANSIT"},"legGeometry":{"points":"wthfHn}zpLeLkMxCaIbPzPkL|[eB~GwBlIa@bXIbQO`^aBhTiBlNUfBiI~ZeHzQeFxMqDtKAJ}ApJM~EWhIb@`NFlB_@fOsBvK_DrH_G|HiSfXwExNyEzZoHll@}GpYuL`_@PPZ^lC|Bn@j@bB|A","length":38},"routeShortName":"2","routeLongName":"Chic/Jonq via Boul. Royaume","rentedBike":false,"transitLeg":true,"duration":600.0,"steps":[]},{"startTime":1522700100000,"endTime":1522701185000,"departureDelay":0,"arrivalDelay":0,"realTime":false,"distance":7150.680679959849,"pathway":false,"mode":"BUS","route":"16","agencyName":"Société de Transport du Saguenay","agencyUrl":"http://ville.saguenay.ca/fr/services-aux-citoyens/transport-sts","agencyTimeZoneOffset":-14400000,"routeColor":"00FF00","routeType":3,"routeId":"1:16","routeTextColor":"000000","interlineWithPreviousLeg":false,"tripBlockId":"34","headsign":"Terminus Chicoutimi","agencyId":"0","tripId":"1:218226","serviceDate":"20180402","from":{"name":"Faubourg Sagamie","stopId":"1:1129","stopCode":"1129","lon":-71.167414,"lat":48.402974,"arrival":1522698900000,"departure":1522700100000,"zoneId":"NA","stopIndex":0,"stopSequence":1,"vertexType":"TRANSIT"},"to":{"name":"ch. de la Réserve / Albanel","stopId":"1:623","stopCode":"623","lon":-71.0885,"lat":48.4237,"arrival":1522701185000,"departure":1522701186000,"zoneId":"NA","stopIndex":28,"stopSequence":29,"vertexType":"TRANSIT"},"legGeometry":{"points":"sulfHn{jqLq@g@J]kIkHbAoDzB{HhBoGxGiTd@{A`ByIXyCZcDaB_@aBoBeGmH[_@m@iClA_AlAuEj@yBt@iDDq@Z}EpAkDlAiAv@i@zB}AeA}H\\sCNgApDyKeE}EoEgF`@gAl@gB}GoImCqFeD_H}DcEiJqJgEeGqAyGk@kEg@_EmD}NkB_IUoBmB{PAiAI_IWkF_BoFM_@i@kCs@{B_CqPy@{FQmAoAwK[aEeByD}BkCmC_DaDqDyDcDkD]_Bc@aAY_IsGYo@}@mBqAkKg@aE@wFS}AiAaIgA{B}CiGiBeF","length":79},"routeShortName":"16","routeLongName":"Côte de la Réserve","rentedBike":false,"transitLeg":true,"duration":1085.0,"steps":[]},{"startTime":1522701186000,"endTime":1522701361000,"departureDelay":0,"arrivalDelay":0,"realTime":false,"distance":221.13,"pathway":false,"mode":"WALK","route":"","agencyTimeZoneOffset":-14400000,"interlineWithPreviousLeg":false,"from":{"name":"ch. de la Réserve / Albanel","stopId":"1:623","stopCode":"623","lon":-71.0885,"lat":48.4237,"arrival":1522701185000,"departure":1522701186000,"zoneId":"NA","stopIndex":28,"stopSequence":29,"vertexType":"TRANSIT"},"to":{"name":"Destination","lon":-71.088152,"lat":48.422529,"arrival":1522701361000,"orig":"","vertexType":"NORMAL"},"legGeometry":{"points":"kwpfHnn{pL??Ug@f@aATwCzCrCHO","length":7},"rentedBike":false,"transitLeg":false,"duration":175.0,"steps":[{"distance":19.582,"relativeDirection":"DEPART","streetName":"Chemin de la Réserve","absoluteDirection":"NORTHEAST","stayOn":false,"area":false,"bogusName":false,"lon":-71.08855534649012,"lat":48.423740347419006,"elevation":[]},{"distance":90.826,"relativeDirection":"RIGHT","streetName":"Rue Albanel","absoluteDirection":"SOUTHEAST","stayOn":false,"area":false,"bogusName":false,"lon":-71.0883591,"lat":48.423858900000006,"elevation":[]},{"distance":110.722,"relativeDirection":"RIGHT","streetName":"Rue Simpson","absoluteDirection":"SOUTHWEST","stayOn":false,"area":false,"bogusName":false,"lon":-71.0872677,"lat":48.4235446,"elevation":[]}]}],"tooSloped":false}]},"debugOutput":{"precalculationTime":9,"pathCalculationTime":20,"pathTimes":[9,7,4],"renderingTime":1,"totalTime":30,"timedOut":false},"elevationMetadata":{"ellipsoidToGeoidDifference":-28.885904201182168,"geoidElevation":false}}