{"requestParameters":{"date":"2018/04/02","walkSpeed":"1.33","walkReluctance":"2.0","fromPlace":"48.422638,-71.059381","maxWalkDistance":"3000","waitReluctance":"1.0","carSpeed":"33","numItineraries":"3","waitAtBeginningFactor":"0.4","mode":"TRANSIT,WALK","ignoreRealtimeUpdates":"false","stairsReluctance":"2.0","toPlace":"48.426433,-71.06748899","time":"7:45:00"},"plan":{"date":1522669500000,"from":{"name":"Origin","lon":-71.059381,"lat":48.422638,"orig":"","vertexType":"NORMAL"},"to":{"name":"Destination","lon":-71.06748899,"lat":48.426433,"orig":"","vertexType":"NORMAL"},"itineraries":[{"duration":625,"startTime":1522669523000,"endTime":1522670148000,"walkTime":369,"transitTime":254,"waitingTime":2,"walkDistance":471.5694436081371,"walkLimitExceeded":false,"elevationLost":0.0,"elevationGained":0.0,"transfers":0,"legs":[{"startTime":1522669523000,"endTime":1522669752000,"departureDelay":0,"arrivalDelay":0,"realTime":false,"distance":290.244,"pathway":false,"mode":"WALK","route":"","agencyTimeZoneOffset":-14400000,"interlineWithPreviousLeg":false,"from":{"name":"Origin","lon":-71.059381,"lat":48.422638,"departure":1522669523000,"orig":"","vertexType":"NORMAL"},"to":{"name":"Cégep de Chicoutimi (Bégin)","stopId":"1:66","stopCode":"66","lon":-71.056314,"lat":48.424377,"arrival":1522669752000,"departure":1522669753000,"zoneId":"NA","stopIndex":17,"stopSequence":18,"vertexType":"TRANSIT"},"legGeometry":{"points":"_npfHzrupLe@i@WYiAgAaAcASOWWIII_@sAkAaA_AKK","length":12},"rentedBike":false,"transitLeg":false,"duration":229.0,"steps":[{"distance":171.211,"relativeDirection":"DEPART","streetName":"Rue Bégin","absoluteDirection":"NORTHEAST","stayOn":false,"area":false,"bogusName":false,"lon":-71.05853375745859,"lat":48.42224297166872,"elevation":[]},{"distance":12.842,"relativeDirection":"SLIGHTLY_RIGHT","streetName":"path","absoluteDirection":"NORTHEAST","stayOn":false,"area":false,"bogusName":true,"lon":-71.0572466,"lat":48.423523700000004,"elevation":[]},{"distance":106.191,"relativeDirection":"SLIGHTLY_LEFT","streetName":"sidewalk","absoluteDirection":"NORTHEAST","stayOn":true,"area":false,"bogusName":true,"lon":-71.057089,"lat":48.4235727,"elevation":[]}]},{"startTime":1522669753000,"endTime":1522670007000,"departureDelay":0,"arrivalDelay":0,"realTime":false,"distance":905.2119096614193,"pathway":false,"mode":"BUS","route":"72S","agencyName":"Société de Transport du Saguenay","agencyUrl":"http://ville.saguenay.ca/fr/services-aux-citoyens/transport-sts","agencyTimeZoneOffset":-14400000,"routeColor":"8B0000","routeType":3,"routeId":"1:72S","routeTextColor":"FFFFFF","interlineWithPreviousLeg":false,"tripBlockId":"99","headsign":"Terminus Chicoutimi","agencyId":"0","tripId":"1:218750","serviceDate":"20180402","from":{"name":"Cégep de Chicoutimi (Bégin)","stopId":"1:66","stopCode":"66","lon":-71.056314,"lat":48.424377,"arrival":1522669752000,"departure":1522669753000,"zoneId":"NA","stopIndex":17,"stopSequence":18,"vertexType":"TRANSIT"},"to":{"name":"Jacques-Cartier / Morin","stopId":"1:1930","stopCode":"1930","lon":-71.065007,"lat":48.426603,"arrival":1522670007000,"departure":1522670008000,"zoneId":"NA","stopIndex":21,"stopSequence":22,"vertexType":"TRANSIT"},"legGeometry":{"points":"q{pfHneupLmEkE]a@kAqAU|@WnKG|DGxDOdPKvJU|F?X","length":12},"routeShortName":"72S","routeLongName":"COSTCO vers Séminaire / UQAC / Cégep","rentedBike":false,"transitLeg":true,"duration":254.0,"steps":[]},{"startTime":1522670008000,"endTime":1522670148000,"departureDelay":0,"arrivalDelay":0,"realTime":false,"distance":181.298,"pathway":false,"mode":"WALK","route":"","agencyTimeZoneOffset":-14400000,"interlineWithPreviousLeg":false,"from":{"name":"Jacques-Cartier / Morin","stopId":"1:1930","stopCode":"1930","lon":-71.065007,"lat":48.426603,"arrival":1522670007000,"departure":1522670008000,"zoneId":"NA","stopIndex":21,"stopSequence":22,"vertexType":"TRANSIT"},"to":{"name":"Destination","lon":-71.06748899,"lat":48.426433,"arrival":1522670148000,"orig":"","vertexType":"NORMAL"},"legGeometry":{"points":"{hqfHj{vpLEvCKdEC`AChA","length":5},"rentedBike":false,"transitLeg":false,"duration":140.0,"steps":[{"distance":181.298,"relativeDirection":"DEPART","streetName":"Rue Jacques-Cartier Est","absoluteDirection":"WEST","stayOn":false,"area":false,"bogusName":false,"lon":-71.06501225432459,"lat":48.42654615659386,"elevation":[]}]}],"tooSloped":false},{"duration":960,"startTime":1522669500000,"endTime":1522670460000,"walkTime":960,"transitTime":0,"waitingTime":0,"walkDistance":1213.407466159397,"walkLimitExceeded":false,"elevationLost":0.0,"elevationGained":0.0,"transfers":0,"legs":[{"startTime":1522669500000,"endTime":1522670460000,"departureDelay":0,"arrivalDelay":0,"realTime":false,"distance":1213.221,"pathway":false,"mode":"WALK","route":"","agencyTimeZoneOffset":-14400000,"interlineWithPreviousLeg":false,"from":{"name":"Origin","lon":-71.059381,"lat":48.422638,"departure":1522669500000,"orig":"","vertexType":"NORMAL"},"to":{"name":"Destination","lon":-71.06748899,"lat":48.426433,"arrival":1522670460000,"orig":"","vertexType":"NORMAL"},"legGeometry":{"points":"_npfHzrupLe@i@WYiAgAaAcASOWWIIKIOl@EdACd@MLSICAOEk@CG?KACTM\\I\\Ax@Al@g@Zy@\\iG_@IpEAR?\\A|@?TC~C?n@CfBCdAAX?REvBCd@AVA\\CpAAx@A^Ar@EvCKdEC`AChA","length":50},"rentedBike":false,"transitLeg":false,"duration":960.0,"steps":[{"distance":178.78900000000002,"relativeDirection":"DEPART","streetName":"Rue Bégin","absoluteDirection":"NORTHEAST","stayOn":false,"area":false,"bogusName":false,"lon":-71.05853375745859,"lat":48.42224297166872,"elevation":[]},{"distance":127.559,"relativeDirection":"LEFT","streetName":"alley","absoluteDirection":"NORTHWEST","stayOn":false,"area":false,"bogusName":true,"lon":-71.05719760000001,"lat":48.4235836,"elevation":[]},{"distance":131.454,"relativeDirection":"LEFT","streetName":"path","absoluteDirection":"WEST","stayOn":true,"area":false,"bogusName":true,"lon":-71.0579166,"lat":48.424303900000005,"elevation":[]},{"distance":147.775,"relativeDirection":"SLIGHTLY_RIGHT","streetName":"Rue Maltais","absoluteDirection":"NORTH","stayOn":false,"area":false,"bogusName":false,"lon":-71.0591387,"lat":48.424959400000006,"elevation":[]},{"distance":627.644,"relativeDirection":"LEFT","streetName":"Rue Jacques-Cartier Est","absoluteDirection":"WEST","stayOn":false,"area":false,"bogusName":false,"lon":-71.0589782,"lat":48.426284100000004,"elevation":[]}]}],"tooSloped":false},{"duration":436,"startTime":1522670363000,"endTime":1522670799000,"walkTime":234,"transitTime":200,"waitingTime":2,"walkDistance":295.8919398487871,"walkLimitExceeded":false,"elevationLost":0.0,"elevationGained":0.0,"transfers":0,"legs":[{"startTime":1522670363000,"endTime":1522670592000,"departureDelay":0,"arrivalDelay":0,"realTime":false,"distance":290.244,"pathway":false,"mode":"WALK","route":"","agencyTimeZoneOffset":-14400000,"interlineWithPreviousLeg":false,"from":{"name":"Origin","lon":-71.059381,"lat":48.422638,"departure":1522670363000,"orig":"","vertexType":"NORMAL"},"to":{"name":"Cégep de Chicoutimi (Bégin)","stopId":"1:66","stopCode":"66","lon":-71.056314,"lat":48.424377,"arrival":1522670592000,"departure":1522670593000,"zoneId":"NA","stopIndex":32,"stopSequence":33,"vertexType":"TRANSIT"},"legGeometry":{"points":"_npfHzrupLe@i@WYiAgAaAcASOWWIII_@sAkAaA_AKK","length":12},"rentedBike":false,"transitLeg":false,"duration":229.0,"steps":[{"distance":171.211,"relativeDirection":"DEPART","streetName":"Rue Bégin","absoluteDirection":"NORTHEAST","stayOn":false,"area":false,"bogusName":false,"lon":-71.05853375745859,"lat":48.42224297166872,"elevation":[]},{"distance":12.842,"relativeDirection":"SLIGHTLY_RIGHT","streetName":"path","absoluteDirection":"NORTHEAST","stayOn":false,"area":false,"bogusName":true,"lon":-71.0572466,"lat":48.423523700000004,"elevation":[]},{"distance":106.191,"relativeDirection":"SLIGHTLY_LEFT","streetName":"sidewalk","absoluteDirection":"NORTHEAST","stayOn":true,"area":false,"bogusName":true,"lon":-71.057089,"lat":48.4235727,"elevation":[]}]},{"startTime":1522670593000,"endTime":1522670793000,"departureDelay":0,"arrivalDelay":0,"realTime":false,"distance":1092.0356291003914,"pathway":false,"mode":"BUS","route":"15","agencyName":"Société de Transport du Saguenay","agencyUrl":"http://ville.saguenay.ca/fr/services-aux-citoyens/transport-sts","agencyTimeZoneOffset":-14400000,"routeColor":"FF00FF","routeType":3,"routeId":"1:15","routeTextColor":"FFFFFF","interlineWithPreviousLeg":false,"tripBlockId":"32","headsign":"Terminus Chicoutimi","agencyId":"0","tripId":"1:218149","serviceDate":"20180402","from":{"name":"Cégep de Chicoutimi (Bégin)","stopId":"1:66","stopCode":"66","lon":-71.056314,"lat":48.424377,"arrival":1522670592000,"departure":1522670593000,"zoneId":"NA","stopIndex":32,"stopSequence":33,"vertexType":"TRANSIT"},"to":{"name":"Jacques-Cartier / Tessier","stopId":"1:62","stopCode":"62","lon":-71.067531,"lat":48.426736,"arrival":1522670793000,"departure":1522670794000,"zoneId":"NA","stopIndex":37,"stopSequence":38,"vertexType":"TRANSIT"},"legGeometry":{"points":"q{pfHneupLmEkE]a@kAqAU|@WnKG|DGxDOdPKvJU|F?XQlJC~@ChA","length":15},"routeShortName":"15","routeLongName":"Term. Chic / Costco","rentedBike":false,"transitLeg":true,"duration":200.0,"steps":[]},{"startTime":1522670794000,"endTime":1522670799000,"departureDelay":0,"arrivalDelay":0,"realTime":false,"distance":5.622,"pathway":false,"mode":"WALK","route":"","agencyTimeZoneOffset":-14400000,"interlineWithPreviousLeg":false,"from":{"name":"Jacques-Cartier / Tessier","stopId":"1:62","stopCode":"62","lon":-71.067531,"lat":48.426736,"arrival":1522670793000,"departure":1522670794000,"zoneId":"NA","stopIndex":37,"stopSequence":38,"vertexType":"TRANSIT"},"to":{"name":"Destination","lon":-71.06748899,"lat":48.426433,"arrival":1522670799000,"orig":"","vertexType":"NORMAL"},"legGeometry":{"points":"uiqfHbkwpL?M","length":2},"rentedBike":false,"transitLeg":false,"duration":5.0,"steps":[{"distance":5.622,"relativeDirection":"DEPART","streetName":"Rue Jacques-Cartier Est","absoluteDirection":"EAST","stayOn":false,"area":false,"bogusName":false,"lon":-71.0675380239516,"lat":48.42667414840684,"elevation":[]}]}],"tooSloped":false}]},"debugOutput":{"precalculationTime":35,"pathCalculationTime":21,"pathTimes":[15,2,4],"renderingTime":0,"totalTime":56,"timedOut":false},"elevationMetadata":{"ellipsoidToGeoidDifference":-28.885904201182168,"geoidElevation":false}}