{"requestParameters":{"date":"2018/04/02","walkSpeed":"1.33","walkReluctance":"2.0","fromPlace":"48.427986,-71.094351","maxWalkDistance":"3000","waitReluctance":"1.0","carSpeed":"33","numItineraries":"3","waitAtBeginningFactor":"0.4","mode":"TRANSIT,WALK","ignoreRealtimeUpdates":"false","stairsReluctance":"2.0","toPlace":"48.427593,-71.066276","time":"20:0:00"},"plan":{"date":1522713600000,"from":{"name":"Origin","lon":-71.094351,"lat":48.427986,"orig":"","vertexType":"NORMAL"},"to":{"name":"Destination","lon":-71.066276,"lat":48.427593,"orig":"","vertexType":"NORMAL"},"itineraries":[{"duration":1219,"startTime":1522714998000,"endTime":1522716217000,"walkTime":742,"transitTime":475,"waitingTime":2,"walkDistance":950.1358571382474,"walkLimitExceeded":false,"elevationLost":0.0,"elevationGained":0.0,"transfers":0,"legs":[{"startTime":1522714998000,"endTime":1522715584000,"departureDelay":0,"arrivalDelay":0,"realTime":false,"distance":752.177,"pathway":false,"mode":"WALK","route":"","agencyTimeZoneOffset":-14400000,"interlineWithPreviousLeg":false,"from":{"name":"Origin","lon":-71.094351,"lat":48.427986,"departure":1522714998000,"orig":"","vertexType":"NORMAL"},"to":{"name":"ch. de la Réserve / Albanel","stopId":"1:623","stopCode":"623","lon":-71.0885,"lat":48.4237,"arrival":1522715584000,"departure":1522715585000,"zoneId":"NA","stopIndex":28,"stopSequence":29,"vertexType":"TRANSIT"},"legGeometry":{"points":"_qqfH~s|pLLUDOf@wAPc@|DeLBKlAiDvA_EL_@|@gC~C|CfA_DRi@^eATf@??","length":17},"rentedBike":false,"transitLeg":false,"duration":586.0,"steps":[{"distance":504.23100000000005,"relativeDirection":"DEPART","streetName":"Rue De Quen","absoluteDirection":"SOUTHEAST","stayOn":false,"area":false,"bogusName":false,"lon":-71.09455169340069,"lat":48.427844747803825,"elevation":[]},{"distance":107.137,"relativeDirection":"RIGHT","streetName":"Rue Émile Grouard","absoluteDirection":"SOUTHWEST","stayOn":false,"area":false,"bogusName":false,"lon":-71.08892230000001,"lat":48.425276100000005,"elevation":[]},{"distance":121.227,"relativeDirection":"LEFT","streetName":"Rue Albanel","absoluteDirection":"SOUTHEAST","stayOn":false,"area":false,"bogusName":false,"lon":-71.089719,"lat":48.42447060000001,"elevation":[]},{"distance":19.582,"relativeDirection":"RIGHT","streetName":"Chemin de la Réserve","absoluteDirection":"SOUTHWEST","stayOn":false,"area":false,"bogusName":false,"lon":-71.0883591,"lat":48.423858900000006,"elevation":[]}]},{"startTime":1522715585000,"endTime":1522716060000,"departureDelay":0,"arrivalDelay":0,"realTime":false,"distance":2160.2166227334155,"pathway":false,"mode":"BUS","route":"16","agencyName":"Société de Transport du Saguenay","agencyUrl":"http://ville.saguenay.ca/fr/services-aux-citoyens/transport-sts","agencyTimeZoneOffset":-14400000,"routeColor":"00FF00","routeType":3,"routeId":"1:16","routeTextColor":"000000","interlineWithPreviousLeg":false,"tripBlockId":"34","headsign":"Terminus Chicoutimi","agencyId":"0","tripId":"1:218234","serviceDate":"20180402","from":{"name":"ch. de la Réserve / Albanel","stopId":"1:623","stopCode":"623","lon":-71.0885,"lat":48.4237,"arrival":1522715584000,"departure":1522715585000,"zoneId":"NA","stopIndex":28,"stopSequence":29,"vertexType":"TRANSIT"},"to":{"name":"Terminus Chicoutimi","stopId":"1:1289","stopCode":"1289","lon":-71.066163,"lat":48.428677,"arrival":1522716060000,"departure":1522716061000,"zoneId":"NA","stopIndex":35,"stopSequence":36,"vertexType":"TRANSIT"},"legGeometry":{"points":"wwpfHzn{pLqBsFQ_@wA_DyAaD_AoBQ[sAuC{@sBeCcGqAwC[g@]a@aAw@[_@cA}A_@w@GU[iDWaDzByCv@cA`@e@TSp@g@nAo@nBm@ZSf@c@PMb@[b@_@b@e@PYP]N_@La@P{@NcB@IBcAG_A{@sEEg@oAP}@DiBDFeBMa@iBCq@FmBPFcEDoBNiHyDWN_HBoA@Y@m@","length":60},"routeShortName":"16","routeLongName":"Côte de la Réserve","rentedBike":false,"transitLeg":true,"duration":475.0,"steps":[]},{"startTime":1522716061000,"endTime":1522716217000,"departureDelay":0,"arrivalDelay":0,"realTime":false,"distance":197.816,"pathway":false,"mode":"WALK","route":"","agencyTimeZoneOffset":-14400000,"interlineWithPreviousLeg":false,"from":{"name":"Terminus Chicoutimi","stopId":"1:1289","stopCode":"1289","lon":-71.066163,"lat":48.428677,"arrival":1522716060000,"departure":1522716061000,"zoneId":"NA","stopIndex":35,"stopSequence":36,"vertexType":"TRANSIT"},"to":{"name":"Destination","lon":-71.066276,"lat":48.427593,"arrival":1522716217000,"orig":"","vertexType":"NORMAL"},"legGeometry":{"points":"{uqfHb~vpLbAJR@JDb@LrBHP@EvB?B","length":9},"rentedBike":false,"transitLeg":false,"duration":156.0,"steps":[{"distance":152.002,"relativeDirection":"DEPART","streetName":"Rue Morin","absoluteDirection":"SOUTH","stayOn":false,"area":false,"bogusName":false,"lon":-71.0654590096484,"lat":48.428628638946556,"elevation":[]},{"distance":45.814,"relativeDirection":"RIGHT","streetName":"Rue Julien","absoluteDirection":"WEST","stayOn":false,"area":false,"bogusName":false,"lon":-71.0656854,"lat":48.427273500000005,"elevation":[]}]}],"tooSloped":false},{"duration":1520,"startTime":1522714697000,"endTime":1522716217000,"walkTime":1318,"transitTime":200,"waitingTime":2,"walkDistance":1717.8254661610104,"walkLimitExceeded":false,"elevationLost":0.0,"elevationGained":0.0,"transfers":0,"legs":[{"startTime":1522714697000,"endTime":1522715859000,"departureDelay":0,"arrivalDelay":0,"realTime":false,"distance":1519.873,"pathway":false,"mode":"WALK","route":"","agencyTimeZoneOffset":-14400000,"interlineWithPreviousLeg":false,"from":{"name":"Origin","lon":-71.094351,"lat":48.427986,"departure":1522714697000,"orig":"","vertexType":"NORMAL"},"to":{"name":"boul. Saguenay / Albert","stopId":"1:158","stopCode":"158","lon":-71.089619,"lat":48.434041,"arrival":1522715859000,"departure":1522715860000,"zoneId":"NA","stopIndex":29,"stopSequence":30,"vertexType":"TRANSIT"},"legGeometry":{"points":"_qqfH~s|pLLUDOf@wAPc@|DeLBKlAiDvA_EaCsAa@Y_Cu@}@KqBk@aC]eBEkGBm@?oBD{@EoAMaAYqAg@eAm@iBkAMMCJa@|ASdAGp@WnE","length":31},"rentedBike":false,"transitLeg":false,"duration":1162.0,"steps":[{"distance":429.03900000000004,"relativeDirection":"DEPART","streetName":"Rue De Quen","absoluteDirection":"SOUTHEAST","stayOn":false,"area":false,"bogusName":false,"lon":-71.09455169340069,"lat":48.427844747803825,"elevation":[]},{"distance":921.155,"relativeDirection":"LEFT","streetName":"Rue J.-R.-Théberge","absoluteDirection":"NORTHEAST","stayOn":false,"area":false,"bogusName":false,"lon":-71.0897645,"lat":48.425656800000006,"elevation":[]},{"distance":169.679,"relativeDirection":"LEFT","streetName":"Boulevard du Saguenay Ouest","absoluteDirection":"NORTHWEST","stayOn":false,"area":false,"bogusName":false,"lon":-71.0874263,"lat":48.433672300000005,"elevation":[]}]},{"startTime":1522715860000,"endTime":1522716060000,"departureDelay":0,"arrivalDelay":0,"realTime":false,"distance":1834.8912322043236,"pathway":false,"mode":"BUS","route":"3","agencyName":"Société de Transport du Saguenay","agencyUrl":"http://ville.saguenay.ca/fr/services-aux-citoyens/transport-sts","agencyTimeZoneOffset":-14400000,"routeColor":"FF0000","routeType":3,"routeId":"1:3","routeTextColor":"FFFFFF","interlineWithPreviousLeg":false,"tripBlockId":"7","headsign":"Terminus Chicoutimi","agencyId":"0","tripId":"1:217348","serviceDate":"20180402","from":{"name":"boul. Saguenay / Albert","stopId":"1:158","stopCode":"158","lon":-71.089619,"lat":48.434041,"arrival":1522715859000,"departure":1522715860000,"zoneId":"NA","stopIndex":29,"stopSequence":30,"vertexType":"TRANSIT"},"to":{"name":"Terminus Chicoutimi","stopId":"1:1289","stopCode":"1289","lon":-71.066163,"lat":48.428677,"arrival":1522716060000,"departure":1522716061000,"zoneId":"NA","stopIndex":32,"stopSequence":33,"vertexType":"TRANSIT"},"legGeometry":{"points":"exrfH`u{pLPiDN_BZcB`@mAxGgV|Ju^\\eBVgBLcB|@}^FkAF}DJyDPwGvAHVyL","length":17},"routeShortName":"3","routeLongName":"Chic/Jonq via Boul. Saguenay","rentedBike":false,"transitLeg":true,"duration":200.0,"steps":[]},{"startTime":1522716061000,"endTime":1522716217000,"departureDelay":0,"arrivalDelay":0,"realTime":false,"distance":197.816,"pathway":false,"mode":"WALK","route":"","agencyTimeZoneOffset":-14400000,"interlineWithPreviousLeg":false,"from":{"name":"Terminus Chicoutimi","stopId":"1:1289","stopCode":"1289","lon":-71.066163,"lat":48.428677,"arrival":1522716060000,"departure":1522716061000,"zoneId":"NA","stopIndex":32,"stopSequence":33,"vertexType":"TRANSIT"},"to":{"name":"Destination","lon":-71.066276,"lat":48.427593,"arrival":1522716217000,"orig":"","vertexType":"NORMAL"},"legGeometry":{"points":"{uqfHb~vpLbAJR@JDb@LrBHP@EvB?B","length":9},"rentedBike":false,"transitLeg":false,"duration":156.0,"steps":[{"distance":152.002,"relativeDirection":"DEPART","streetName":"Rue Morin","absoluteDirection":"SOUTH","stayOn":false,"area":false,"bogusName":false,"lon":-71.0654590096484,"lat":48.428628638946556,"elevation":[]},{"distance":45.814,"relativeDirection":"RIGHT","streetName":"Rue Julien","absoluteDirection":"WEST","stayOn":false,"area":false,"bogusName":false,"lon":-71.0656854,"lat":48.427273500000005,"elevation":[]}]}],"tooSloped":false},{"duration":1632,"startTime":1522714585000,"endTime":1522716217000,"walkTime":1302,"transitTime":328,"waitingTime":2,"walkDistance":1674.5239172862339,"walkLimitExceeded":false,"elevationLost":0.0,"elevationGained":0.0,"transfers":0,"legs":[{"startTime":1522714585000,"endTime":1522715731000,"departureDelay":0,"arrivalDelay":0,"realTime":false,"distance":1476.4910000000004,"pathway":false,"mode":"WALK","route":"","agencyTimeZoneOffset":-14400000,"interlineWithPreviousLeg":false,"from":{"name":"Origin","lon":-71.094351,"lat":48.427986,"departure":1522714585000,"orig":"","vertexType":"NORMAL"},"to":{"name":"Doré / Bossé","stopId":"1:1851","stopCode":"1851","lon":-71.078314,"lat":48.423588,"arrival":1522715731000,"departure":1522715732000,"zoneId":"NA","stopIndex":24,"stopSequence":25,"vertexType":"TRANSIT"},"legGeometry":{"points":"_qqfH~s|pLLUDOf@wAPc@|DeLBKlAiDvA_EaCsAa@YR_JHyC@c@@}@?c@DkDH_DDk@xAgEh@{A`AyCXm@Xa@r@u@pBqB~AqBNaB?kAEQVuDSE","length":32},"rentedBike":false,"transitLeg":false,"duration":1146.0,"steps":[{"distance":429.03900000000004,"relativeDirection":"DEPART","streetName":"Rue De Quen","absoluteDirection":"SOUTHEAST","stayOn":false,"area":false,"bogusName":false,"lon":-71.09455169340069,"lat":48.427844747803825,"elevation":[]},{"distance":99.727,"relativeDirection":"LEFT","streetName":"Rue J.-R.-Théberge","absoluteDirection":"NORTHEAST","stayOn":false,"area":false,"bogusName":false,"lon":-71.0897645,"lat":48.425656800000006,"elevation":[]},{"distance":376.719,"relativeDirection":"RIGHT","streetName":"Rue Brassard","absoluteDirection":"EAST","stayOn":false,"area":false,"bogusName":false,"lon":-71.0892196,"lat":48.4264773,"elevation":[]},{"distance":238.88,"relativeDirection":"SLIGHTLY_RIGHT","streetName":"Côte Saint-Ange","absoluteDirection":"SOUTHEAST","stayOn":false,"area":false,"bogusName":false,"lon":-71.0841347,"lat":48.426195400000005,"elevation":[]},{"distance":179.39800000000002,"relativeDirection":"CONTINUE","streetName":"Rue Dubuc","absoluteDirection":"SOUTHEAST","stayOn":false,"area":false,"bogusName":false,"lon":-71.0815067,"lat":48.424949000000005,"elevation":[]},{"distance":65.531,"relativeDirection":"SLIGHTLY_LEFT","streetName":"road","absoluteDirection":"EAST","stayOn":false,"area":false,"bogusName":true,"lon":-71.080094,"lat":48.4236379,"elevation":[]},{"distance":7.693,"relativeDirection":"SLIGHTLY_LEFT","streetName":"Rue Bossé","absoluteDirection":"NORTHEAST","stayOn":false,"area":false,"bogusName":false,"lon":-71.0792211,"lat":48.423552400000005,"elevation":[]},{"distance":68.065,"relativeDirection":"RIGHT","streetName":"Rue le Doré","absoluteDirection":"EAST","stayOn":false,"area":false,"bogusName":false,"lon":-71.07913090000001,"lat":48.423587100000006,"elevation":[]},{"distance":11.439,"relativeDirection":"LEFT","streetName":"road","absoluteDirection":"NORTH","stayOn":false,"area":false,"bogusName":true,"lon":-71.0782257,"lat":48.4234694,"elevation":[]}]},{"startTime":1522715732000,"endTime":1522716060000,"departureDelay":0,"arrivalDelay":0,"realTime":false,"distance":1255.4672450276205,"pathway":false,"mode":"BUS","route":"11","agencyName":"Société de Transport du Saguenay","agencyUrl":"http://ville.saguenay.ca/fr/services-aux-citoyens/transport-sts","agencyTimeZoneOffset":-14400000,"routeColor":"FF0000","routeType":3,"routeId":"1:11","routeTextColor":"FFFFFF","interlineWithPreviousLeg":false,"tripBlockId":"35","headsign":"Terminus Chicoutimi","agencyId":"0","tripId":"1:218269","serviceDate":"20180402","from":{"name":"Doré / Bossé","stopId":"1:1851","stopCode":"1851","lon":-71.078314,"lat":48.423588,"arrival":1522715731000,"departure":1522715732000,"zoneId":"NA","stopIndex":24,"stopSequence":25,"vertexType":"TRANSIT"},"to":{"name":"Terminus Chicoutimi","stopId":"1:1289","stopCode":"1289","lon":-71.066163,"lat":48.428677,"arrival":1522716060000,"departure":1522716061000,"zoneId":"NA","stopIndex":30,"stopSequence":31,"vertexType":"TRANSIT"},"legGeometry":{"points":"{vpfHlnypL?Yo@IKCIEIIKOEKCKe@}BKs@CQAUE_A@yCFcDVsLDaCD_@kBKW?e@Q_BQNuEDuBXmNLgHmKm@}BW{AMCn@o@G??","length":33},"routeShortName":"11","routeLongName":"Chic/Faubourg via St-Paul","rentedBike":false,"transitLeg":true,"duration":328.0,"steps":[]},{"startTime":1522716061000,"endTime":1522716217000,"departureDelay":0,"arrivalDelay":0,"realTime":false,"distance":197.816,"pathway":false,"mode":"WALK","route":"","agencyTimeZoneOffset":-14400000,"interlineWithPreviousLeg":false,"from":{"name":"Terminus Chicoutimi","stopId":"1:1289","stopCode":"1289","lon":-71.066163,"lat":48.428677,"arrival":1522716060000,"departure":1522716061000,"zoneId":"NA","stopIndex":30,"stopSequence":31,"vertexType":"TRANSIT"},"to":{"name":"Destination","lon":-71.066276,"lat":48.427593,"arrival":1522716217000,"orig":"","vertexType":"NORMAL"},"legGeometry":{"points":"{uqfHb~vpLbAJR@JDb@LrBHP@EvB?B","length":9},"rentedBike":false,"transitLeg":false,"duration":156.0,"steps":[{"distance":152.002,"relativeDirection":"DEPART","streetName":"Rue Morin","absoluteDirection":"SOUTH","stayOn":false,"area":false,"bogusName":false,"lon":-71.0654590096484,"lat":48.428628638946556,"elevation":[]},{"distance":45.814,"relativeDirection":"RIGHT","streetName":"Rue Julien","absoluteDirection":"WEST","stayOn":false,"area":false,"bogusName":false,"lon":-71.0656854,"lat":48.427273500000005,"elevation":[]}]}],"tooSloped":false}]},"debugOutput":{"precalculationTime":20,"pathCalculationTime":16,"pathTimes":[9,5,2],"renderingTime":0,"totalTime":36,"timedOut":false},"elevationMetadata":{"ellipsoidToGeoidDifference":-28.885904201182168,"geoidElevation":false}}