{"requestParameters":{"date":"2018/04/02","walkSpeed":"1.33","walkReluctance":"2.0","fromPlace":"48.424876,-71.082855","maxWalkDistance":"3000","waitReluctance":"1.0","carSpeed":"33","numItineraries":"3","waitAtBeginningFactor":"0.4","mode":"TRANSIT,WALK","ignoreRealtimeUpdates":"false","stairsReluctance":"2.0","toPlace":"48.416504,-71.05007799","time":"16:0:00"},"plan":{"date":1522699200000,"from":{"name":"Origin","lon":-71.082855,"lat":48.424876,"orig":"","vertexType":"NORMAL"},"to":{"name":"Destination","lon":-71.05007799,"lat":48.416504,"orig":"","vertexType":"NORMAL"},"itineraries":[{"duration":2028,"startTime":1522699236000,"endTime":1522701264000,"walkTime":259,"transitTime":1527,"waitingTime":242,"walkDistance":324.9107142829485,"walkLimitExceeded":false,"elevationLost":0.0,"elevationGained":0.0,"transfers":1,"legs":[{"startTime":1522699236000,"endTime":1522699439000,"departureDelay":0,"arrivalDelay":0,"realTime":false,"distance":254.587,"pathway":false,"mode":"WALK","route":"","agencyTimeZoneOffset":-14400000,"interlineWithPreviousLeg":false,"from":{"name":"Origin","lon":-71.082855,"lat":48.424876,"departure":1522699236000,"orig":"","vertexType":"NORMAL"},"to":{"name":"ch. de la Réserve / St-Ange","stopId":"1:625","stopCode":"625","lon":-71.083536,"lat":48.42644,"arrival":1522699439000,"departure":1522699440000,"zoneId":"NA","stopIndex":30,"stopSequence":31,"vertexType":"TRANSIT"},"legGeometry":{"points":"{~pfHflzpLuBoAi@zAyAfEGOo@_B","length":6},"rentedBike":false,"transitLeg":false,"duration":203.0,"steps":[{"distance":72.396,"relativeDirection":"DEPART","streetName":"Rue Saint-Léon","absoluteDirection":"NORTHEAST","stayOn":false,"area":false,"bogusName":false,"lon":-71.08307685070072,"lat":48.42494279107561,"elevation":[]},{"distance":130.527,"relativeDirection":"LEFT","streetName":"Côte Saint-Ange","absoluteDirection":"NORTHWEST","stayOn":false,"area":false,"bogusName":false,"lon":-71.0826715,"lat":48.425535700000005,"elevation":[]},{"distance":51.664,"relativeDirection":"RIGHT","streetName":"Chemin de la Réserve","absoluteDirection":"NORTHEAST","stayOn":false,"area":false,"bogusName":false,"lon":-71.0841347,"lat":48.426195400000005,"elevation":[]}]},{"startTime":1522699440000,"endTime":1522699860000,"departureDelay":0,"arrivalDelay":0,"realTime":false,"distance":1683.763385147579,"pathway":false,"mode":"BUS","route":"16","agencyName":"Société de Transport du Saguenay","agencyUrl":"http://ville.saguenay.ca/fr/services-aux-citoyens/transport-sts","agencyTimeZoneOffset":-14400000,"routeColor":"00FF00","routeType":3,"routeId":"1:16","routeTextColor":"000000","interlineWithPreviousLeg":false,"tripBlockId":"37","headsign":"Terminus Chicoutimi","agencyId":"0","tripId":"1:218321","serviceDate":"20180402","from":{"name":"ch. de la Réserve / St-Ange","stopId":"1:625","stopCode":"625","lon":-71.083536,"lat":48.42644,"arrival":1522699439000,"departure":1522699440000,"zoneId":"NA","stopIndex":30,"stopSequence":31,"vertexType":"TRANSIT"},"to":{"name":"Terminus Chicoutimi","stopId":"1:1289","stopCode":"1289","lon":-71.066163,"lat":48.428677,"arrival":1522699860000,"departure":1522700100000,"zoneId":"NA","stopIndex":35,"stopSequence":36,"vertexType":"TRANSIT"},"legGeometry":{"points":"ohqfHnozpLeCcGqAwC[g@]a@aAw@[_@cA}A_@w@GU[iDWaDzByCv@cA`@e@TSp@g@nAo@nBm@ZSf@c@PMb@[b@_@b@e@PYP]N_@La@P{@NcB@IBcAG_A{@sEEg@oAP}@DiBDFeBMa@iBCq@FmBPFcEDoBNiHyDWN_HBoA@Y@m@","length":52},"routeShortName":"16","routeLongName":"Côte de la Réserve","rentedBike":false,"transitLeg":true,"duration":420.0,"steps":[]},{"startTime":1522700100000,"endTime":1522701207000,"departureDelay":0,"arrivalDelay":0,"realTime":false,"distance":5393.074714381264,"pathway":false,"mode":"BUS","route":"10","agencyName":"Société de Transport du Saguenay","agencyUrl":"http://ville.saguenay.ca/fr/services-aux-citoyens/transport-sts","agencyTimeZoneOffset":-14400000,"routeColor":"0000FF","routeType":3,"routeId":"1:10","routeTextColor":"FFFFFF","interlineWithPreviousLeg":false,"tripBlockId":"29","headsign":"Terminus UQAC","agencyId":"0","tripId":"1:218071","serviceDate":"20180402","from":{"name":"Terminus Chicoutimi","stopId":"1:1289","stopCode":"1289","lon":-71.066163,"lat":48.428677,"arrival":1522699860000,"departure":1522700100000,"zoneId":"NA","stopIndex":0,"stopSequence":1,"vertexType":"TRANSIT"},"to":{"name":"Clinique St-George (St-Thomas)","stopId":"1:359","stopCode":"359","lon":-71.04918,"lat":48.416897,"arrival":1522701207000,"departure":1522701208000,"zoneId":"NA","stopIndex":22,"stopSequence":23,"vertexType":"TRANSIT"},"legGeometry":{"points":"svqfHnbwpLDmCdDZ\\kO`@mQBuCD}DQ_ECk@^Cd@QWkL?m@IuF@gA?eH?cAEuEDO^AjD`@B@rEf@T_FjBXpDd@hCObDaCfCaHbFqN`CwG_J_CwMiDGe@T}C\\yELaCJeAJcAXw@Fk@M_@xBwVr@^LJ|@z@HdAlBbD`Av@b@\\v@d@`@BpBAzAXl@t@XZt@lCl@tAnBpB~@~@lDjDr@r@zDrDnAlAjBrBl@pBPlBCj@KrAAHSpAe@jB_A|Bz@xAvA~BvB|BdN|Nc@bAuA~C}VeWaEpL","length":81},"routeShortName":"10","routeLongName":"Notre-Dame du Saguenay","rentedBike":false,"transitLeg":true,"duration":1107.0,"steps":[]},{"startTime":1522701208000,"endTime":1522701264000,"departureDelay":0,"arrivalDelay":0,"realTime":false,"distance":70.238,"pathway":false,"mode":"WALK","route":"","agencyTimeZoneOffset":-14400000,"interlineWithPreviousLeg":false,"from":{"name":"Clinique St-George (St-Thomas)","stopId":"1:359","stopCode":"359","lon":-71.04918,"lat":48.416897,"arrival":1522701207000,"departure":1522701208000,"zoneId":"NA","stopIndex":22,"stopSequence":23,"vertexType":"TRANSIT"},"to":{"name":"Destination","lon":-71.05007799,"lat":48.416504,"arrival":1522701264000,"orig":"","vertexType":"NORMAL"},"legGeometry":{"points":"qlofHvxspLF?bB|A","length":3},"rentedBike":false,"transitLeg":false,"duration":56.0,"steps":[{"distance":70.238,"relativeDirection":"DEPART","streetName":"Rue d'Alma","absoluteDirection":"SOUTH","stayOn":false,"area":false,"bogusName":false,"lon":-71.0492395039753,"lat":48.41689453822877,"elevation":[]}]}],"tooSloped":false},{"duration":1754,"startTime":1522699905000,"endTime":1522701659000,"walkTime":1405,"transitTime":347,"waitingTime":2,"walkDistance":1787.5307518716083,"walkLimitExceeded":false,"elevationLost":0.0,"elevationGained":0.0,"transfers":0,"legs":[{"startTime":1522699905000,"endTime":1522700712000,"departureDelay":0,"arrivalDelay":0,"realTime":false,"distance":1029.9910000000002,"pathway":false,"mode":"WALK","route":"","agencyTimeZoneOffset":-14400000,"interlineWithPreviousLeg":false,"from":{"name":"Origin","lon":-71.082855,"lat":48.424876,"departure":1522699905000,"orig":"","vertexType":"NORMAL"},"to":{"name":"Jolliet / Audet","stopId":"1:522","stopCode":"522","lon":-71.07278,"lat":48.420244,"arrival":1522700712000,"departure":1522700713000,"zoneId":"NA","stopIndex":27,"stopSequence":28,"vertexType":"TRANSIT"},"legGeometry":{"points":"{~pfHflzpLuBoA`AyCXm@Xa@r@u@pBqB~AqBFKVe@La@f@gAHc@RgAD[NeANu@`@qAvAuDbAkCDIN[BIx@uBf@}AXq@Pa@FEFCDCBG@I@K?MESfA_CNc@`@mA","length":38},"rentedBike":false,"transitLeg":false,"duration":807.0,"steps":[{"distance":72.396,"relativeDirection":"DEPART","streetName":"Rue Saint-Léon","absoluteDirection":"NORTHEAST","stayOn":false,"area":false,"bogusName":false,"lon":-71.08307685070072,"lat":48.42494279107561,"elevation":[]},{"distance":108.353,"relativeDirection":"RIGHT","streetName":"Côte Saint-Ange","absoluteDirection":"SOUTHEAST","stayOn":false,"area":false,"bogusName":false,"lon":-71.0826715,"lat":48.425535700000005,"elevation":[]},{"distance":658.8380000000001,"relativeDirection":"CONTINUE","streetName":"Rue Dubuc","absoluteDirection":"SOUTHEAST","stayOn":false,"area":false,"bogusName":false,"lon":-71.0815067,"lat":48.424949000000005,"elevation":[]},{"distance":78.343,"relativeDirection":"CONTINUE","streetName":"path","absoluteDirection":"SOUTHEAST","stayOn":false,"area":false,"bogusName":true,"lon":-71.07469880000001,"lat":48.4212916,"elevation":[]},{"distance":112.061,"relativeDirection":"RIGHT","streetName":"Rue Jolliet","absoluteDirection":"SOUTHEAST","stayOn":false,"area":false,"bogusName":false,"lon":-71.07388590000001,"lat":48.420954200000004,"elevation":[]}]},{"startTime":1522700713000,"endTime":1522701060000,"departureDelay":0,"arrivalDelay":0,"realTime":false,"distance":1526.456654196125,"pathway":false,"mode":"BUS","route":"14","agencyName":"Société de Transport du Saguenay","agencyUrl":"http://ville.saguenay.ca/fr/services-aux-citoyens/transport-sts","agencyTimeZoneOffset":-14400000,"routeColor":"C0C000","routeType":3,"routeId":"1:14","routeTextColor":"000000","interlineWithPreviousLeg":false,"tripBlockId":"31","headsign":"Terminus Chicoutimi","agencyId":"0","tripId":"1:218141","serviceDate":"20180402","from":{"name":"Jolliet / Audet","stopId":"1:522","stopCode":"522","lon":-71.07278,"lat":48.420244,"arrival":1522700712000,"departure":1522700713000,"zoneId":"NA","stopIndex":27,"stopSequence":28,"vertexType":"TRANSIT"},"to":{"name":"Terminus UQAC","stopId":"1:1670","stopCode":"1670","lon":-71.053369,"lat":48.420903,"arrival":1522701060000,"departure":1522701061000,"zoneId":"NA","stopIndex":29,"stopSequence":30,"vertexType":"TRANSIT"},"legGeometry":{"points":"ibpfHdkxpLZeAa@SyEQg@CPcALuCx@{b@t@{[XoDd@sBl@iB~@gA`G{F{A{D_@sBFqDOq@iG{F","length":19},"routeShortName":"14","routeLongName":"Coopérative","rentedBike":false,"transitLeg":true,"duration":347.0,"steps":[]},{"startTime":1522701061000,"endTime":1522701659000,"departureDelay":0,"arrivalDelay":0,"realTime":false,"distance":757.2890000000002,"pathway":false,"mode":"WALK","route":"","agencyTimeZoneOffset":-14400000,"interlineWithPreviousLeg":false,"from":{"name":"Terminus UQAC","stopId":"1:1670","stopCode":"1670","lon":-71.053369,"lat":48.420903,"arrival":1522701060000,"departure":1522701061000,"zoneId":"NA","stopIndex":29,"stopSequence":30,"vertexType":"TRANSIT"},"to":{"name":"Destination","lon":-71.05007799,"lat":48.416504,"arrival":1522701659000,"orig":"","vertexType":"NORMAL"},"legGeometry":{"points":"sepfHrrtpLbA`ATq@f@wAd@wATs@X{@p@YTI`AbAxAxAh@j@JYpAmDVu@z@iCpCiIbB|A","length":18},"rentedBike":false,"transitLeg":false,"duration":598.0,"steps":[{"distance":236.573,"relativeDirection":"DEPART","streetName":"service road","absoluteDirection":"SOUTHWEST","stayOn":false,"area":false,"bogusName":true,"lon":-71.0533724395415,"lat":48.420904465432976,"elevation":[]},{"distance":133.06900000000002,"relativeDirection":"RIGHT","streetName":"Rue de la Fondation","absoluteDirection":"SOUTHWEST","stayOn":false,"area":false,"bogusName":false,"lon":-71.0518321,"lat":48.419468900000005,"elevation":[]},{"distance":321.801,"relativeDirection":"LEFT","streetName":"Rue Chabanel","absoluteDirection":"SOUTHEAST","stayOn":false,"area":false,"bogusName":false,"lon":-71.05284470000001,"lat":48.4184787,"elevation":[]},{"distance":65.846,"relativeDirection":"RIGHT","streetName":"Rue d'Alma","absoluteDirection":"SOUTHWEST","stayOn":false,"area":false,"bogusName":false,"lon":-71.0492358,"lat":48.41685510000001,"elevation":[]}]}],"tooSloped":false},{"duration":2028,"startTime":1522701036000,"endTime":1522703064000,"walkTime":259,"transitTime":1527,"waitingTime":242,"walkDistance":324.9107142829485,"walkLimitExceeded":false,"elevationLost":0.0,"elevationGained":0.0,"transfers":1,"legs":[{"startTime":1522701036000,"endTime":1522701239000,"departureDelay":0,"arrivalDelay":0,"realTime":false,"distance":254.587,"pathway":false,"mode":"WALK","route":"","agencyTimeZoneOffset":-14400000,"interlineWithPreviousLeg":false,"from":{"name":"Origin","lon":-71.082855,"lat":48.424876,"departure":1522701036000,"orig":"","vertexType":"NORMAL"},"to":{"name":"ch. de la Réserve / St-Ange","stopId":"1:625","stopCode":"625","lon":-71.083536,"lat":48.42644,"arrival":1522701239000,"departure":1522701240000,"zoneId":"NA","stopIndex":30,"stopSequence":31,"vertexType":"TRANSIT"},"legGeometry":{"points":"{~pfHflzpLuBoAi@zAyAfEGOo@_B","length":6},"rentedBike":false,"transitLeg":false,"duration":203.0,"steps":[{"distance":72.396,"relativeDirection":"DEPART","streetName":"Rue Saint-Léon","absoluteDirection":"NORTHEAST","stayOn":false,"area":false,"bogusName":false,"lon":-71.08307685070072,"lat":48.42494279107561,"elevation":[]},{"distance":130.527,"relativeDirection":"LEFT","streetName":"Côte Saint-Ange","absoluteDirection":"NORTHWEST","stayOn":false,"area":false,"bogusName":false,"lon":-71.0826715,"lat":48.425535700000005,"elevation":[]},{"distance":51.664,"relativeDirection":"RIGHT","streetName":"Chemin de la Réserve","absoluteDirection":"NORTHEAST","stayOn":false,"area":false,"bogusName":false,"lon":-71.0841347,"lat":48.426195400000005,"elevation":[]}]},{"startTime":1522701240000,"endTime":1522701660000,"departureDelay":0,"arrivalDelay":0,"realTime":false,"distance":1683.763385147579,"pathway":false,"mode":"BUS","route":"16","agencyName":"Société de Transport du Saguenay","agencyUrl":"http://ville.saguenay.ca/fr/services-aux-citoyens/transport-sts","agencyTimeZoneOffset":-14400000,"routeColor":"00FF00","routeType":3,"routeId":"1:16","routeTextColor":"000000","interlineWithPreviousLeg":false,"tripBlockId":"34","headsign":"Terminus Chicoutimi","agencyId":"0","tripId":"1:218226","serviceDate":"20180402","from":{"name":"ch. de la Réserve / St-Ange","stopId":"1:625","stopCode":"625","lon":-71.083536,"lat":48.42644,"arrival":1522701239000,"departure":1522701240000,"zoneId":"NA","stopIndex":30,"stopSequence":31,"vertexType":"TRANSIT"},"to":{"name":"Terminus Chicoutimi","stopId":"1:1289","stopCode":"1289","lon":-71.066163,"lat":48.428677,"arrival":1522701660000,"departure":1522701900000,"zoneId":"NA","stopIndex":35,"stopSequence":36,"vertexType":"TRANSIT"},"legGeometry":{"points":"ohqfHnozpLeCcGqAwC[g@]a@aAw@[_@cA}A_@w@GU[iDWaDzByCv@cA`@e@TSp@g@nAo@nBm@ZSf@c@PMb@[b@_@b@e@PYP]N_@La@P{@NcB@IBcAG_A{@sEEg@oAP}@DiBDFeBMa@iBCq@FmBPFcEDoBNiHyDWN_HBoA@Y@m@","length":52},"routeShortName":"16","routeLongName":"Côte de la Réserve","rentedBike":false,"transitLeg":true,"duration":420.0,"steps":[]},{"startTime":1522701900000,"endTime":1522703007000,"departureDelay":0,"arrivalDelay":0,"realTime":false,"distance":5393.074714381264,"pathway":false,"mode":"BUS","route":"10","agencyName":"Société de Transport du Saguenay","agencyUrl":"http://ville.saguenay.ca/fr/services-aux-citoyens/transport-sts","agencyTimeZoneOffset":-14400000,"routeColor":"0000FF","routeType":3,"routeId":"1:10","routeTextColor":"FFFFFF","interlineWithPreviousLeg":false,"tripBlockId":"26","headsign":"Terminus UQAC","agencyId":"0","tripId":"1:217984","serviceDate":"20180402","from":{"name":"Terminus Chicoutimi","stopId":"1:1289","stopCode":"1289","lon":-71.066163,"lat":48.428677,"arrival":1522701660000,"departure":1522701900000,"zoneId":"NA","stopIndex":0,"stopSequence":1,"vertexType":"TRANSIT"},"to":{"name":"Clinique St-George (St-Thomas)","stopId":"1:359","stopCode":"359","lon":-71.04918,"lat":48.416897,"arrival":1522703007000,"departure":1522703008000,"zoneId":"NA","stopIndex":22,"stopSequence":23,"vertexType":"TRANSIT"},"legGeometry":{"points":"svqfHnbwpLDmCdDZ\\kO`@mQBuCD}DQ_ECk@^Cd@QWkL?m@IuF@gA?eH?cAEuEDO^AjD`@B@rEf@T_FjBXpDd@hCObDaCfCaHbFqN`CwG_J_CwMiDGe@T}C\\yELaCJeAJcAXw@Fk@M_@xBwVr@^LJ|@z@HdAlBbD`Av@b@\\v@d@`@BpBAzAXl@t@XZt@lCl@tAnBpB~@~@lDjDr@r@zDrDnAlAjBrBl@pBPlBCj@KrAAHSpAe@jB_A|Bz@xAvA~BvB|BdN|Nc@bAuA~C}VeWaEpL","length":81},"routeShortName":"10","routeLongName":"Notre-Dame du Saguenay","rentedBike":false,"transitLeg":true,"duration":1107.0,"steps":[]},{"startTime":1522703008000,"endTime":1522703064000,"departureDelay":0,"arrivalDelay":0,"realTime":false,"distance":70.238,"pathway":false,"mode":"WALK","route":"","agencyTimeZoneOffset":-14400000,"interlineWithPreviousLeg":false,"from":{"name":"Clinique St-George (St-Thomas)","stopId":"1:359","stopCode":"359","lon":-71.04918,"lat":48.416897,"arrival":1522703007000,"departure":1522703008000,"zoneId":"NA","stopIndex":22,"stopSequence":23,"vertexType":"TRANSIT"},"to":{"name":"Destination","lon":-71.05007799,"lat":48.416504,"arrival":1522703064000,"orig":"","vertexType":"NORMAL"},"legGeometry":{"points":"qlofHvxspLF?bB|A","length":3},"rentedBike":false,"transitLeg":false,"duration":56.0,"steps":[{"distance":70.238,"relativeDirection":"DEPART","streetName":"Rue d'Alma","absoluteDirection":"SOUTH","stayOn":false,"area":false,"bogusName":false,"lon":-71.0492395039753,"lat":48.41689453822877,"elevation":[]}]}],"tooSloped":false}]},"debugOutput":{"precalculationTime":25,"pathCalculationTime":27,"pathTimes":[17,4,6],"renderingTime":1,"totalTime":53,"timedOut":false},"elevationMetadata":{"ellipsoidToGeoidDifference":-28.885904201182168,"geoidElevation":false}}