{"requestParameters":{"date":"2018/04/02","walkSpeed":"1.33","walkReluctance":"2.0","fromPlace":"48.416504,-71.05007799","maxWalkDistance":"3000","waitReluctance":"1.0","carSpeed":"33","numItineraries":"3","waitAtBeginningFactor":"0.4","mode":"TRANSIT,WALK","ignoreRealtimeUpdates":"false","stairsReluctance":"2.0","toPlace":"48.424876,-71.082855","time":"16:30:00"},"plan":{"date":1522701000000,"from":{"name":"Origin","lon":-71.05007799,"lat":48.416504,"orig":"","vertexType":"NORMAL"},"to":{"name":"Destination","lon":-71.082855,"lat":48.424876,"orig":"","vertexType":"NORMAL"},"itineraries":[{"duration":2193,"startTime":1522701150000,"endTime":1522703343000,"walkTime":1524,"transitTime":667,"waitingTime":2,"walkDistance":1948.4579022472208,"walkLimitExceeded":false,"elevationLost":0.0,"elevationGained":0.0,"transfers":0,"legs":[{"startTime":1522701150000,"endTime":1522701206000,"departureDelay":0,"arrivalDelay":0,"realTime":false,"distance":70.238,"pathway":false,"mode":"WALK","route":"","agencyTimeZoneOffset":-14400000,"interlineWithPreviousLeg":false,"from":{"name":"Origin","lon":-71.05007799,"lat":48.416504,"departure":1522701150000,"orig":"","vertexType":"NORMAL"},"to":{"name":"Clinique St-George (St-Thomas)","stopId":"1:359","stopCode":"359","lon":-71.04918,"lat":48.416897,"arrival":1522701206000,"departure":1522701207000,"zoneId":"NA","stopIndex":22,"stopSequence":23,"vertexType":"TRANSIT"},"legGeometry":{"points":"eiofHt{spLcB}AG?","length":3},"rentedBike":false,"transitLeg":false,"duration":56.0,"steps":[{"distance":70.238,"relativeDirection":"DEPART","streetName":"Rue d'Alma","absoluteDirection":"NORTHEAST","stayOn":false,"area":false,"bogusName":false,"lon":-71.04970392970026,"lat":48.41635098447761,"elevation":[]}]},{"startTime":1522701207000,"endTime":1522701420000,"departureDelay":0,"arrivalDelay":0,"realTime":false,"distance":737.274407588463,"pathway":false,"mode":"BUS","route":"10","agencyName":"Société de Transport du Saguenay","agencyUrl":"http://ville.saguenay.ca/fr/services-aux-citoyens/transport-sts","agencyTimeZoneOffset":-14400000,"routeColor":"0000FF","routeType":3,"routeId":"1:10","routeTextColor":"FFFFFF","interlineWithPreviousLeg":false,"tripBlockId":"29","headsign":"Terminus UQAC","agencyId":"0","tripId":"1:218071","serviceDate":"20180402","from":{"name":"Clinique St-George (St-Thomas)","stopId":"1:359","stopCode":"359","lon":-71.04918,"lat":48.416897,"arrival":1522701206000,"departure":1522701207000,"zoneId":"NA","stopIndex":22,"stopSequence":23,"vertexType":"TRANSIT"},"to":{"name":"Terminus UQAC","stopId":"1:1670","stopCode":"1670","lon":-71.053369,"lat":48.420903,"arrival":1522701420000,"departure":1522701600000,"zoneId":"NA","stopIndex":24,"stopSequence":25,"vertexType":"TRANSIT"},"legGeometry":{"points":"ilofHtxspLeIrU|D~EfDdEwLpKeBgGAsE]gAoD}CUt@a@_@USMM","length":13},"routeShortName":"10","routeLongName":"Notre-Dame du Saguenay","rentedBike":false,"transitLeg":true,"duration":213.0,"steps":[]},{"startTime":1522701600000,"endTime":1522701874000,"departureDelay":0,"arrivalDelay":0,"realTime":false,"distance":1386.6028967689674,"pathway":false,"mode":"BUS","route":"12","agencyName":"Société de Transport du Saguenay","agencyUrl":"http://ville.saguenay.ca/fr/services-aux-citoyens/transport-sts","agencyTimeZoneOffset":-14400000,"routeColor":"556B2F","routeType":3,"routeId":"1:12","routeTextColor":"FFFFFF","interlineWithPreviousLeg":true,"tripBlockId":"29","headsign":"Terminus Chicoutimi","agencyId":"0","tripId":"1:218072","serviceDate":"20180402","from":{"name":"Terminus UQAC","stopId":"1:1670","stopCode":"1670","lon":-71.053369,"lat":48.420903,"arrival":1522701420000,"departure":1522701600000,"zoneId":"NA","stopIndex":0,"stopSequence":1,"vertexType":"TRANSIT"},"to":{"name":"Bégin (no. 825)","stopId":"1:2005","stopCode":"2005","lon":-71.064205,"lat":48.41684,"arrival":1522701874000,"departure":1522701875000,"zoneId":"NA","stopIndex":6,"stopSequence":7,"vertexType":"TRANSIT"},"legGeometry":{"points":"sepfHprtpL}@y@Pw@wAsAaB{A}DrL?jCv@fCa@nDaC`D~E`F~MfNjJnJ~GbH","length":14},"routeShortName":"12","routeLongName":"Rivière du Moulin","rentedBike":false,"transitLeg":true,"duration":274.0,"steps":[]},{"startTime":1522701875000,"endTime":1522703343000,"departureDelay":0,"arrivalDelay":0,"realTime":false,"distance":1877.9590000000005,"pathway":false,"mode":"WALK","route":"","agencyTimeZoneOffset":-14400000,"interlineWithPreviousLeg":false,"from":{"name":"Bégin (no. 825)","stopId":"1:2005","stopCode":"2005","lon":-71.064205,"lat":48.41684,"arrival":1522701874000,"departure":1522701875000,"zoneId":"NA","stopIndex":6,"stopSequence":7,"vertexType":"TRANSIT"},"to":{"name":"Destination","lon":-71.082855,"lat":48.424876,"arrival":1522703343000,"orig":"","vertexType":"NORMAL"},"legGeometry":{"points":"wkofHjwvpL{A~AmAhBq@fAIx@Cj@AfA?ZKf@Q\\TDPJPVB~ALp@J\\PDe@nBYx@o@L_@J_@X]XGDWZW`@QR[h@gBvEo@|AcAjC[|@a@lAOb@gA~BDR?LAJAHCFEBGBGDQ`@Yp@g@|Ay@tBCHOZEHcAjCwAtDa@pAOt@OdAEZSfAIb@g@fAM`@Wd@GJ_BpBqBpBs@t@Y`@Yl@aAxCtBnA","length":69},"rentedBike":false,"transitLeg":false,"duration":1468.0,"steps":[{"distance":454.466,"relativeDirection":"DEPART","streetName":"path","absoluteDirection":"NORTHWEST","stayOn":false,"area":false,"bogusName":true,"lon":-71.06437851221663,"lat":48.41676229025004,"elevation":[]},{"distance":505.56299999999993,"relativeDirection":"RIGHT","streetName":"Rue Jolliet","absoluteDirection":"NORTH","stayOn":false,"area":false,"bogusName":false,"lon":-71.069079,"lat":48.417887500000006,"elevation":[]},{"distance":78.343,"relativeDirection":"LEFT","streetName":"path","absoluteDirection":"WEST","stayOn":false,"area":false,"bogusName":true,"lon":-71.07388590000001,"lat":48.420954200000004,"elevation":[]},{"distance":658.8380000000001,"relativeDirection":"CONTINUE","streetName":"Rue Dubuc","absoluteDirection":"NORTHWEST","stayOn":false,"area":false,"bogusName":false,"lon":-71.07469880000001,"lat":48.4212916,"elevation":[]},{"distance":108.353,"relativeDirection":"CONTINUE","streetName":"Côte Saint-Ange","absoluteDirection":"NORTHWEST","stayOn":false,"area":false,"bogusName":false,"lon":-71.0815067,"lat":48.424949000000005,"elevation":[]},{"distance":72.396,"relativeDirection":"LEFT","streetName":"Rue Saint-Léon","absoluteDirection":"SOUTHWEST","stayOn":false,"area":false,"bogusName":false,"lon":-71.0826715,"lat":48.425535700000005,"elevation":[]}]}],"tooSloped":false},{"duration":1756,"startTime":1522701721000,"endTime":1522703477000,"walkTime":1379,"transitTime":375,"waitingTime":2,"walkDistance":1752.9963834504713,"walkLimitExceeded":false,"elevationLost":0.0,"elevationGained":0.0,"transfers":0,"legs":[{"startTime":1522701721000,"endTime":1522702319000,"departureDelay":0,"arrivalDelay":0,"realTime":false,"distance":757.2890000000001,"pathway":false,"mode":"WALK","route":"","agencyTimeZoneOffset":-14400000,"interlineWithPreviousLeg":false,"from":{"name":"Origin","lon":-71.05007799,"lat":48.416504,"departure":1522701721000,"orig":"","vertexType":"NORMAL"},"to":{"name":"Terminus UQAC","stopId":"1:1670","stopCode":"1670","lon":-71.053369,"lat":48.420903,"arrival":1522702319000,"departure":1522702320000,"zoneId":"NA","stopIndex":8,"stopSequence":9,"vertexType":"TRANSIT"},"legGeometry":{"points":"eiofHt{spLcB}AqChI{@hCWt@qAlDKXi@k@yAyAaAcAUHq@XYz@Ur@e@vAg@vAUp@cAaA","length":18},"rentedBike":false,"transitLeg":false,"duration":598.0,"steps":[{"distance":65.846,"relativeDirection":"DEPART","streetName":"Rue d'Alma","absoluteDirection":"NORTHEAST","stayOn":false,"area":false,"bogusName":false,"lon":-71.04970392970026,"lat":48.41635098447761,"elevation":[]},{"distance":321.801,"relativeDirection":"LEFT","streetName":"Rue Chabanel","absoluteDirection":"NORTHWEST","stayOn":false,"area":false,"bogusName":false,"lon":-71.0492358,"lat":48.41685510000001,"elevation":[]},{"distance":133.06900000000002,"relativeDirection":"RIGHT","streetName":"Rue de la Fondation","absoluteDirection":"NORTHEAST","stayOn":false,"area":false,"bogusName":false,"lon":-71.05284470000001,"lat":48.4184787,"elevation":[]},{"distance":236.573,"relativeDirection":"LEFT","streetName":"path","absoluteDirection":"NORTH","stayOn":false,"area":false,"bogusName":true,"lon":-71.0518321,"lat":48.419468900000005,"elevation":[]}]},{"startTime":1522702320000,"endTime":1522702695000,"departureDelay":0,"arrivalDelay":0,"realTime":false,"distance":1470.521921770006,"pathway":false,"mode":"BUS","route":"14","agencyName":"Société de Transport du Saguenay","agencyUrl":"http://ville.saguenay.ca/fr/services-aux-citoyens/transport-sts","agencyTimeZoneOffset":-14400000,"routeColor":"C0C000","routeType":3,"routeId":"1:14","routeTextColor":"000000","interlineWithPreviousLeg":false,"tripBlockId":"30","headsign":"Talbot / Barrette","agencyId":"0","tripId":"1:218107","serviceDate":"20180402","from":{"name":"Terminus UQAC","stopId":"1:1670","stopCode":"1670","lon":-71.053369,"lat":48.420903,"arrival":1522702319000,"departure":1522702320000,"zoneId":"NA","stopIndex":8,"stopSequence":9,"vertexType":"TRANSIT"},"to":{"name":"Jolliet / Caron","stopId":"1:552","stopCode":"552","lon":-71.073027,"lat":48.420559,"arrival":1522702695000,"departure":1522702696000,"zoneId":"NA","stopIndex":10,"stopSequence":11,"vertexType":"TRANSIT"},"legGeometry":{"points":"sepfHrrtpLdA`ATq@`E~DL`@E`Ex@hDd@`B}FtFaAzAm@xAe@jCa@nDiAbm@SpKM`H]vBhDVzCTcAvC","length":20},"routeShortName":"14","routeLongName":"Coopérative","rentedBike":false,"transitLeg":true,"duration":375.0,"steps":[]},{"startTime":1522702696000,"endTime":1522703477000,"departureDelay":0,"arrivalDelay":0,"realTime":false,"distance":995.454,"pathway":false,"mode":"WALK","route":"","agencyTimeZoneOffset":-14400000,"interlineWithPreviousLeg":false,"from":{"name":"Jolliet / Caron","stopId":"1:552","stopCode":"552","lon":-71.073027,"lat":48.420559,"arrival":1522702695000,"departure":1522702696000,"zoneId":"NA","stopIndex":10,"stopSequence":11,"vertexType":"TRANSIT"},"to":{"name":"Destination","lon":-71.082855,"lat":48.424876,"arrival":1522703477000,"orig":"","vertexType":"NORMAL"},"legGeometry":{"points":"ecpfHtmxpLOb@gA~BDR?LAJAHCFEBGBGDQ`@Yp@g@|Ay@tBCHOZEHcAjCwAtDa@pAOt@OdAEZSfAIb@g@fAM`@Wd@GJ_BpBqBpBs@t@Y`@Yl@aAxCtBnA","length":37},"rentedBike":false,"transitLeg":false,"duration":781.0,"steps":[{"distance":77.524,"relativeDirection":"DEPART","streetName":"Rue Jolliet","absoluteDirection":"NORTHWEST","stayOn":false,"area":false,"bogusName":false,"lon":-71.07306855411295,"lat":48.42051735854942,"elevation":[]},{"distance":78.343,"relativeDirection":"LEFT","streetName":"path","absoluteDirection":"WEST","stayOn":false,"area":false,"bogusName":true,"lon":-71.07388590000001,"lat":48.420954200000004,"elevation":[]},{"distance":658.8380000000001,"relativeDirection":"CONTINUE","streetName":"Rue Dubuc","absoluteDirection":"NORTHWEST","stayOn":false,"area":false,"bogusName":false,"lon":-71.07469880000001,"lat":48.4212916,"elevation":[]},{"distance":108.353,"relativeDirection":"CONTINUE","streetName":"Côte Saint-Ange","absoluteDirection":"NORTHWEST","stayOn":false,"area":false,"bogusName":false,"lon":-71.0815067,"lat":48.424949000000005,"elevation":[]},{"distance":72.396,"relativeDirection":"LEFT","streetName":"Rue Saint-Léon","absoluteDirection":"SOUTHWEST","stayOn":false,"area":false,"bogusName":false,"lon":-71.0826715,"lat":48.425535700000005,"elevation":[]}]}],"tooSloped":false},{"duration":2014,"startTime":1522702261000,"endTime":1522704275000,"walkTime":802,"transitTime":654,"waitingTime":558,"walkDistance":1010.946661647209,"walkLimitExceeded":false,"elevationLost":0.0,"elevationGained":0.0,"transfers":1,"legs":[{"startTime":1522702261000,"endTime":1522702859000,"departureDelay":0,"arrivalDelay":0,"realTime":false,"distance":757.2890000000001,"pathway":false,"mode":"WALK","route":"","agencyTimeZoneOffset":-14400000,"interlineWithPreviousLeg":false,"from":{"name":"Origin","lon":-71.05007799,"lat":48.416504,"departure":1522702261000,"orig":"","vertexType":"NORMAL"},"to":{"name":"Terminus UQAC","stopId":"1:1670","stopCode":"1670","lon":-71.053369,"lat":48.420903,"arrival":1522702859000,"departure":1522702860000,"zoneId":"NA","stopIndex":29,"stopSequence":30,"vertexType":"TRANSIT"},"legGeometry":{"points":"eiofHt{spLcB}AqChI{@hCWt@qAlDKXi@k@yAyAaAcAUHq@XYz@Ur@e@vAg@vAUp@cAaA","length":18},"rentedBike":false,"transitLeg":false,"duration":598.0,"steps":[{"distance":65.846,"relativeDirection":"DEPART","streetName":"Rue d'Alma","absoluteDirection":"NORTHEAST","stayOn":false,"area":false,"bogusName":false,"lon":-71.04970392970026,"lat":48.41635098447761,"elevation":[]},{"distance":321.801,"relativeDirection":"LEFT","streetName":"Rue Chabanel","absoluteDirection":"NORTHWEST","stayOn":false,"area":false,"bogusName":false,"lon":-71.0492358,"lat":48.41685510000001,"elevation":[]},{"distance":133.06900000000002,"relativeDirection":"RIGHT","streetName":"Rue de la Fondation","absoluteDirection":"NORTHEAST","stayOn":false,"area":false,"bogusName":false,"lon":-71.05284470000001,"lat":48.4184787,"elevation":[]},{"distance":236.573,"relativeDirection":"LEFT","streetName":"path","absoluteDirection":"NORTH","stayOn":false,"area":false,"bogusName":true,"lon":-71.0518321,"lat":48.419468900000005,"elevation":[]}]},{"startTime":1522702860000,"endTime":1522703220000,"departureDelay":0,"arrivalDelay":0,"realTime":false,"distance":1731.414812325428,"pathway":false,"mode":"BUS","route":"15","agencyName":"Société de Transport du Saguenay","agencyUrl":"http://ville.saguenay.ca/fr/services-aux-citoyens/transport-sts","agencyTimeZoneOffset":-14400000,"routeColor":"FF00FF","routeType":3,"routeId":"1:15","routeTextColor":"FFFFFF","interlineWithPreviousLeg":false,"tripBlockId":"32","headsign":"Terminus Chicoutimi","agencyId":"0","tripId":"1:218167","serviceDate":"20180402","from":{"name":"Terminus UQAC","stopId":"1:1670","stopCode":"1670","lon":-71.053369,"lat":48.420903,"arrival":1522702859000,"departure":1522702860000,"zoneId":"NA","stopIndex":29,"stopSequence":30,"vertexType":"TRANSIT"},"to":{"name":"Sainte-Anne / Racine","stopId":"1:558","stopCode":"558","lon":-71.068444,"lat":48.427369,"arrival":1522703220000,"departure":1522703220000,"zoneId":"NA","stopIndex":38,"stopSequence":39,"vertexType":"TRANSIT"},"legGeometry":{"points":"sepfHprtpLy@w@L{@wAuA_B_B_EpLDh@NbBVvCIxBg@`Am@l@Sb@a@rAqDqDmEkE]a@kAqAU|@WnKG|DGxDOdPKvJU|F?XQlJC~@ChAIzEcCO","length":31},"routeShortName":"15","routeLongName":"Term. Chic / Costco","rentedBike":false,"transitLeg":true,"duration":360.0,"steps":[]},{"startTime":1522703220000,"endTime":1522703223000,"departureDelay":0,"arrivalDelay":0,"realTime":false,"distance":0.224,"pathway":false,"mode":"WALK","route":"","agencyTimeZoneOffset":-14400000,"interlineWithPreviousLeg":false,"from":{"name":"Sainte-Anne / Racine","stopId":"1:558","stopCode":"558","lon":-71.068444,"lat":48.427369,"arrival":1522703220000,"departure":1522703220000,"zoneId":"NA","stopIndex":38,"stopSequence":39,"vertexType":"TRANSIT"},"to":{"name":"Sainte-Anne / Jacques-Cartier","stopId":"1:413","stopCode":"413","lon":-71.068639,"lat":48.427373,"arrival":1522703223000,"departure":1522703779000,"zoneId":"NA","stopIndex":1,"stopSequence":2,"vertexType":"TRANSIT"},"legGeometry":{"points":"anqfHhqwpL@?","length":2},"rentedBike":false,"transitLeg":false,"duration":3.0,"steps":[{"distance":0.224,"relativeDirection":"DEPART","streetName":"Rue Sainte-Anne","absoluteDirection":"SOUTH","stayOn":false,"area":false,"bogusName":false,"lon":-71.06852127104082,"lat":48.427371387668245,"elevation":[]}]},{"startTime":1522703779000,"endTime":1522704073000,"departureDelay":0,"arrivalDelay":0,"realTime":false,"distance":1308.836155553639,"pathway":false,"mode":"BUS","route":"16","agencyName":"Société de Transport du Saguenay","agencyUrl":"http://ville.saguenay.ca/fr/services-aux-citoyens/transport-sts","agencyTimeZoneOffset":-14400000,"routeColor":"00FF00","routeType":3,"routeId":"1:16","routeTextColor":"000000","interlineWithPreviousLeg":false,"tripBlockId":"37","headsign":"Faubourg Sagamie","agencyId":"0","tripId":"1:218324","serviceDate":"20180402","from":{"name":"Sainte-Anne / Jacques-Cartier","stopId":"1:413","stopCode":"413","lon":-71.068639,"lat":48.427373,"arrival":1522703223000,"departure":1522703779000,"zoneId":"NA","stopIndex":1,"stopSequence":2,"vertexType":"TRANSIT"},"to":{"name":"Dréan / Fortin","stopId":"1:594","stopCode":"594","lon":-71.080868,"lat":48.42545,"arrival":1522704073000,"departure":1522704074000,"zoneId":"NA","stopIndex":8,"stopSequence":9,"vertexType":"TRANSIT"},"legGeometry":{"points":"_nqfHnqwpL~M~@jDTOrHKdGE^E~BQnIMhGAxCD~@Df@DVDZd@zBBLDJJNHHHDJBn@HCxAHdAFX@DFj@@b@Ab@SvAe@p@{EnEEB{@w@m@o@","length":35},"routeShortName":"16","routeLongName":"Côte de la Réserve","rentedBike":false,"transitLeg":true,"duration":294.0,"steps":[]},{"startTime":1522704074000,"endTime":1522704275000,"departureDelay":0,"arrivalDelay":0,"realTime":false,"distance":253.219,"pathway":false,"mode":"WALK","route":"","agencyTimeZoneOffset":-14400000,"interlineWithPreviousLeg":false,"from":{"name":"Dréan / Fortin","stopId":"1:594","stopCode":"594","lon":-71.080868,"lat":48.42545,"arrival":1522704073000,"departure":1522704074000,"zoneId":"NA","stopIndex":8,"stopSequence":9,"vertexType":"TRANSIT"},"to":{"name":"Destination","lon":-71.082855,"lat":48.424876,"arrival":1522704275000,"orig":"","vertexType":"NORMAL"},"legGeometry":{"points":"kbqfHf_zpLrApAZRY`@Yl@aAxCtBnA","length":7},"rentedBike":false,"transitLeg":false,"duration":201.0,"steps":[{"distance":72.47,"relativeDirection":"DEPART","streetName":"Rue Dréan","absoluteDirection":"SOUTHWEST","stayOn":false,"area":false,"bogusName":false,"lon":-71.08099906544409,"lat":48.42550593328344,"elevation":[]},{"distance":108.353,"relativeDirection":"RIGHT","streetName":"Côte Saint-Ange","absoluteDirection":"NORTHWEST","stayOn":false,"area":false,"bogusName":false,"lon":-71.0815067,"lat":48.424949000000005,"elevation":[]},{"distance":72.396,"relativeDirection":"LEFT","streetName":"Rue Saint-Léon","absoluteDirection":"SOUTHWEST","stayOn":false,"area":false,"bogusName":false,"lon":-71.0826715,"lat":48.425535700000005,"elevation":[]}]}],"tooSloped":false}]},"debugOutput":{"precalculationTime":26,"pathCalculationTime":44,"pathTimes":[21,11,12],"renderingTime":0,"totalTime":70,"timedOut":false},"elevationMetadata":{"ellipsoidToGeoidDifference":-28.885904201182168,"geoidElevation":false}}