{"requestParameters":{"date":"2018/04/02","walkSpeed":"1.33","walkReluctance":"2.0","fromPlace":"48.413036,-71.107902","maxWalkDistance":"3000","waitReluctance":"1.0","carSpeed":"33","numItineraries":"3","waitAtBeginningFactor":"0.4","mode":"TRANSIT,WALK","ignoreRealtimeUpdates":"false","stairsReluctance":"2.0","toPlace":"48.424876,-71.082855","time":"22:41:00"},"plan":{"date":1522723260000,"from":{"name":"Origin","lon":-71.107902,"lat":48.413036,"orig":"","vertexType":"NORMAL"},"to":{"name":"Destination","lon":-71.082855,"lat":48.424876,"orig":"","vertexType":"NORMAL"},"itineraries":[{"duration":1947,"startTime":1522723260000,"endTime":1522725207000,"walkTime":1947,"transitTime":0,"waitingTime":0,"walkDistance":2535.0210526244464,"walkLimitExceeded":false,"elevationLost":0.0,"elevationGained":0.0,"transfers":0,"legs":[{"startTime":1522723260000,"endTime":1522725207000,"departureDelay":0,"arrivalDelay":0,"realTime":false,"distance":2534.8,"pathway":false,"mode":"WALK","route":"","agencyTimeZoneOffset":-14400000,"interlineWithPreviousLeg":false,"from":{"name":"Origin","lon":-71.107902,"lat":48.413036,"departure":1522723260000,"orig":"","vertexType":"NORMAL"},"to":{"name":"Destination","lon":-71.082855,"lat":48.424876,"arrival":1522725207000,"orig":"","vertexType":"NORMAL"},"legGeometry":{"points":"mtnfHjg_qLE@[_@y@qHC[Kq@KcBWmBs@uB_AsAmByBAAsB_CyBoCa@e@e@a@_@We@g@oByAsAOsAMaBg@wAa@mCmBeCaC]s@Oc@AEc@eASg@u@qEe@kDMcAI{@?G@mA?OHwA@k@EiAWyACMAIqAaH[s@[q@GOKSKSs@}AMUEIaA{BKUSe@[w@YkBKQ??Ug@[u@_BiD{@cCcA{Bg@eACGtAgBZgAYYb@mDNoA}@i@","length":72},"rentedBike":false,"transitLeg":false,"duration":1947.0,"steps":[{"distance":22.285,"relativeDirection":"DEPART","streetName":"bike path","absoluteDirection":"NORTHEAST","stayOn":false,"area":false,"bogusName":false,"lon":-71.10789028556148,"lat":48.41303925505374,"elevation":[]},{"distance":2268.5099999999998,"relativeDirection":"SLIGHTLY_RIGHT","streetName":"Chemin de la Réserve","absoluteDirection":"EAST","stayOn":false,"area":false,"bogusName":false,"lon":-71.1077458,"lat":48.413203300000006,"elevation":[]},{"distance":92.001,"relativeDirection":"RIGHT","streetName":"Rue Sainte-Cécile","absoluteDirection":"SOUTHEAST","stayOn":false,"area":false,"bogusName":false,"lon":-71.0855653,"lat":48.4253342,"elevation":[]},{"distance":16.931,"relativeDirection":"LEFT","streetName":"Rue Legrand","absoluteDirection":"NORTHEAST","stayOn":false,"area":false,"bogusName":false,"lon":-71.08468690000001,"lat":48.424765900000004,"elevation":[]},{"distance":135.07299999999998,"relativeDirection":"RIGHT","streetName":"Rue Saint-Léon","absoluteDirection":"EAST","stayOn":false,"area":false,"bogusName":false,"lon":-71.08455740000001,"lat":48.4248916,"elevation":[]}]}],"tooSloped":false}]},"debugOutput":{"precalculationTime":14,"pathCalculationTime":19,"pathTimes":[13,3],"renderingTime":0,"totalTime":33,"timedOut":false},"elevationMetadata":{"ellipsoidToGeoidDifference":-28.885904201182168,"geoidElevation":false}}