{"requestParameters":{"date":"2018/04/02","walkSpeed":"1.33","walkReluctance":"2.0","fromPlace":"48.424972,-71.084364","maxWalkDistance":"3000","waitReluctance":"1.0","carSpeed":"33","numItineraries":"3","waitAtBeginningFactor":"0.4","mode":"TRANSIT,WALK","ignoreRealtimeUpdates":"false","stairsReluctance":"2.0","toPlace":"48.424881,-71.09411099","time":"12:30:00"},"plan":{"date":1522686600000,"from":{"name":"Origin","lon":-71.084364,"lat":48.424972,"orig":"","vertexType":"NORMAL"},"to":{"name":"Destination","lon":-71.09411099,"lat":48.424881,"orig":"","vertexType":"NORMAL"},"itineraries":[{"duration":705,"startTime":1522686600000,"endTime":1522687305000,"walkTime":705,"transitTime":0,"waitingTime":0,"walkDistance":900.874172926872,"walkLimitExceeded":false,"elevationLost":0.0,"elevationGained":0.0,"transfers":0,"legs":[{"startTime":1522686600000,"endTime":1522687305000,"departureDelay":0,"arrivalDelay":0,"realTime":false,"distance":900.705,"pathway":false,"mode":"WALK","route":"","agencyTimeZoneOffset":-14400000,"interlineWithPreviousLeg":false,"from":{"name":"Origin","lon":-71.084364,"lat":48.424972,"departure":1522686600000,"orig":"","vertexType":"NORMAL"},"to":{"name":"Destination","lon":-71.09411099,"lat":48.424881,"arrival":1522687305000,"orig":"","vertexType":"NORMAL"},"legGeometry":{"points":"g_qfH`uzpLTLXX[fAuAfBBFf@dAbAzBz@bC~AhDZt@_@dASh@gA~CnAnAoAtDsA|DITi@rBMzBF|APzA","length":22},"rentedBike":false,"transitLeg":false,"duration":705.0,"steps":[{"distance":30.762,"relativeDirection":"DEPART","streetName":"Rue Legrand","absoluteDirection":"SOUTHWEST","stayOn":false,"area":false,"bogusName":false,"lon":-71.08448369016564,"lat":48.42500596935392,"elevation":[]},{"distance":92.001,"relativeDirection":"RIGHT","streetName":"Rue Sainte-Cécile","absoluteDirection":"NORTHWEST","stayOn":false,"area":false,"bogusName":false,"lon":-71.08468690000001,"lat":48.424765900000004,"elevation":[]},{"distance":263.7,"relativeDirection":"LEFT","streetName":"Chemin de la Réserve","absoluteDirection":"SOUTHWEST","stayOn":false,"area":false,"bogusName":false,"lon":-71.0855653,"lat":48.4253342,"elevation":[]},{"distance":121.227,"relativeDirection":"RIGHT","streetName":"Rue Albanel","absoluteDirection":"NORTHWEST","stayOn":false,"area":false,"bogusName":false,"lon":-71.0883591,"lat":48.423858900000006,"elevation":[]},{"distance":52.592,"relativeDirection":"LEFT","streetName":"Rue Émile Grouard","absoluteDirection":"SOUTHWEST","stayOn":false,"area":false,"bogusName":false,"lon":-71.089719,"lat":48.42447060000001,"elevation":[]},{"distance":340.423,"relativeDirection":"RIGHT","streetName":"Rue du Stade","absoluteDirection":"NORTHWEST","stayOn":false,"area":false,"bogusName":false,"lon":-71.0901108,"lat":48.4240755,"elevation":[]}]}],"tooSloped":false},{"duration":238,"startTime":1522687947000,"endTime":1522688185000,"walkTime":127,"transitTime":109,"waitingTime":2,"walkDistance":147.8047669138482,"walkLimitExceeded":false,"elevationLost":0.0,"elevationGained":0.0,"transfers":0,"legs":[{"startTime":1522687947000,"endTime":1522688053000,"departureDelay":0,"arrivalDelay":0,"realTime":false,"distance":126.32600000000001,"pathway":false,"mode":"WALK","route":"","agencyTimeZoneOffset":-14400000,"interlineWithPreviousLeg":false,"from":{"name":"Origin","lon":-71.084364,"lat":48.424972,"departure":1522687947000,"orig":"","vertexType":"NORMAL"},"to":{"name":"ch. de la Réserve / Ste-Cécile","stopId":"1:600","stopCode":"600","lon":-71.085713,"lat":48.425401,"arrival":1522688053000,"departure":1522688054000,"zoneId":"NA","stopIndex":14,"stopSequence":15,"vertexType":"TRANSIT"},"legGeometry":{"points":"g_qfH`uzpLTLXX[fAuAfBBF","length":6},"rentedBike":false,"transitLeg":false,"duration":106.0,"steps":[{"distance":30.762,"relativeDirection":"DEPART","streetName":"Rue Legrand","absoluteDirection":"SOUTHWEST","stayOn":false,"area":false,"bogusName":false,"lon":-71.08448369016564,"lat":48.42500596935392,"elevation":[]},{"distance":92.001,"relativeDirection":"RIGHT","streetName":"Rue Sainte-Cécile","absoluteDirection":"NORTHWEST","stayOn":false,"area":false,"bogusName":false,"lon":-71.08468690000001,"lat":48.424765900000004,"elevation":[]},{"distance":3.563,"relativeDirection":"LEFT","streetName":"Chemin de la Réserve","absoluteDirection":"SOUTHWEST","stayOn":false,"area":false,"bogusName":false,"lon":-71.0855653,"lat":48.4253342,"elevation":[]}]},{"startTime":1522688054000,"endTime":1522688163000,"departureDelay":0,"arrivalDelay":0,"realTime":false,"distance":1112.0668977646553,"pathway":false,"mode":"BUS","route":"16","agencyName":"Société de Transport du Saguenay","agencyUrl":"http://ville.saguenay.ca/fr/services-aux-citoyens/transport-sts","agencyTimeZoneOffset":-14400000,"routeColor":"00FF00","routeType":3,"routeId":"1:16","routeTextColor":"000000","interlineWithPreviousLeg":false,"tripBlockId":"35","headsign":"Faubourg Sagamie","agencyId":"0","tripId":"1:218254","serviceDate":"20180402","from":{"name":"ch. de la Réserve / Ste-Cécile","stopId":"1:600","stopCode":"600","lon":-71.085713,"lat":48.425401,"arrival":1522688053000,"departure":1522688054000,"zoneId":"NA","stopIndex":14,"stopSequence":15,"vertexType":"TRANSIT"},"to":{"name":"Marguerite-Bourgeois / Stade","stopId":"1:606","stopCode":"606","lon":-71.094349,"lat":48.42524,"arrival":1522688163000,"departure":1522688164000,"zoneId":"NA","stopIndex":20,"stopSequence":21,"vertexType":"TRANSIT"},"legGeometry":{"points":"kaqfHh|zpLvA|CvA~Ci@zAqD`KyDrKyF|Og@tAr@r@h@^jA\\\\Nt@\\PHf@RVDXEROR[p@iBr@uBJQLIDC","length":24},"routeShortName":"16","routeLongName":"Côte de la Réserve","rentedBike":false,"transitLeg":true,"duration":109.0,"steps":[]},{"startTime":1522688164000,"endTime":1522688185000,"departureDelay":0,"arrivalDelay":0,"realTime":false,"distance":21.372,"pathway":false,"mode":"WALK","route":"","agencyTimeZoneOffset":-14400000,"interlineWithPreviousLeg":false,"from":{"name":"Marguerite-Bourgeois / Stade","stopId":"1:606","stopCode":"606","lon":-71.094349,"lat":48.42524,"arrival":1522688163000,"departure":1522688164000,"zoneId":"NA","stopIndex":20,"stopSequence":21,"vertexType":"TRANSIT"},"to":{"name":"Destination","lon":-71.09411099,"lat":48.424881,"arrival":1522688185000,"orig":"","vertexType":"NORMAL"},"legGeometry":{"points":"y`qfH`r|pLTGJDAC","length":4},"rentedBike":false,"transitLeg":false,"duration":21.0,"steps":[{"distance":19.322,"relativeDirection":"DEPART","streetName":"Rue Marguerite-Bourgeoys","absoluteDirection":"SOUTH","stayOn":false,"area":false,"bogusName":false,"lon":-71.094244420119,"lat":48.42525461456102,"elevation":[]},{"distance":2.05,"relativeDirection":"LEFT","streetName":"Rue du Stade","absoluteDirection":"EAST","stayOn":false,"area":false,"bogusName":false,"lon":-71.0942373,"lat":48.425086300000004,"elevation":[]}]}],"tooSloped":false},{"duration":238,"startTime":1522689747000,"endTime":1522689985000,"walkTime":127,"transitTime":109,"waitingTime":2,"walkDistance":147.8047669138482,"walkLimitExceeded":false,"elevationLost":0.0,"elevationGained":0.0,"transfers":0,"legs":[{"startTime":1522689747000,"endTime":1522689853000,"departureDelay":0,"arrivalDelay":0,"realTime":false,"distance":126.32600000000001,"pathway":false,"mode":"WALK","route":"","agencyTimeZoneOffset":-14400000,"interlineWithPreviousLeg":false,"from":{"name":"Origin","lon":-71.084364,"lat":48.424972,"departure":1522689747000,"orig":"","vertexType":"NORMAL"},"to":{"name":"ch. de la Réserve / Ste-Cécile","stopId":"1:600","stopCode":"600","lon":-71.085713,"lat":48.425401,"arrival":1522689853000,"departure":1522689854000,"zoneId":"NA","stopIndex":14,"stopSequence":15,"vertexType":"TRANSIT"},"legGeometry":{"points":"g_qfH`uzpLTLXX[fAuAfBBF","length":6},"rentedBike":false,"transitLeg":false,"duration":106.0,"steps":[{"distance":30.762,"relativeDirection":"DEPART","streetName":"Rue Legrand","absoluteDirection":"SOUTHWEST","stayOn":false,"area":false,"bogusName":false,"lon":-71.08448369016564,"lat":48.42500596935392,"elevation":[]},{"distance":92.001,"relativeDirection":"RIGHT","streetName":"Rue Sainte-Cécile","absoluteDirection":"NORTHWEST","stayOn":false,"area":false,"bogusName":false,"lon":-71.08468690000001,"lat":48.424765900000004,"elevation":[]},{"distance":3.563,"relativeDirection":"LEFT","streetName":"Chemin de la Réserve","absoluteDirection":"SOUTHWEST","stayOn":false,"area":false,"bogusName":false,"lon":-71.0855653,"lat":48.4253342,"elevation":[]}]},{"startTime":1522689854000,"endTime":1522689963000,"departureDelay":0,"arrivalDelay":0,"realTime":false,"distance":1112.0668977646553,"pathway":false,"mode":"BUS","route":"16","agencyName":"Société de Transport du Saguenay","agencyUrl":"http://ville.saguenay.ca/fr/services-aux-citoyens/transport-sts","agencyTimeZoneOffset":-14400000,"routeColor":"00FF00","routeType":3,"routeId":"1:16","routeTextColor":"000000","interlineWithPreviousLeg":false,"tripBlockId":"37","headsign":"Faubourg Sagamie","agencyId":"0","tripId":"1:218316","serviceDate":"20180402","from":{"name":"ch. de la Réserve / Ste-Cécile","stopId":"1:600","stopCode":"600","lon":-71.085713,"lat":48.425401,"arrival":1522689853000,"departure":1522689854000,"zoneId":"NA","stopIndex":14,"stopSequence":15,"vertexType":"TRANSIT"},"to":{"name":"Marguerite-Bourgeois / Stade","stopId":"1:606","stopCode":"606","lon":-71.094349,"lat":48.42524,"arrival":1522689963000,"departure":1522689964000,"zoneId":"NA","stopIndex":20,"stopSequence":21,"vertexType":"TRANSIT"},"legGeometry":{"points":"kaqfHh|zpLvA|CvA~Ci@zAqD`KyDrKyF|Og@tAr@r@h@^jA\\\\Nt@\\PHf@RVDXEROR[p@iBr@uBJQLIDC","length":24},"routeShortName":"16","routeLongName":"Côte de la Réserve","rentedBike":false,"transitLeg":true,"duration":109.0,"steps":[]},{"startTime":1522689964000,"endTime":1522689985000,"departureDelay":0,"arrivalDelay":0,"realTime":false,"distance":21.372,"pathway":false,"mode":"WALK","route":"","agencyTimeZoneOffset":-14400000,"interlineWithPreviousLeg":false,"from":{"name":"Marguerite-Bourgeois / Stade","stopId":"1:606","stopCode":"606","lon":-71.094349,"lat":48.42524,"arrival":1522689963000,"departure":1522689964000,"zoneId":"NA","stopIndex":20,"stopSequence":21,"vertexType":"TRANSIT"},"to":{"name":"Destination","lon":-71.09411099,"lat":48.424881,"arrival":1522689985000,"orig":"","vertexType":"NORMAL"},"legGeometry":{"points":"y`qfH`r|pLTGJDAC","length":4},"rentedBike":false,"transitLeg":false,"duration":21.0,"steps":[{"distance":19.322,"relativeDirection":"DEPART","streetName":"Rue Marguerite-Bourgeoys","absoluteDirection":"SOUTH","stayOn":false,"area":false,"bogusName":false,"lon":-71.094244420119,"lat":48.42525461456102,"elevation":[]},{"distance":2.05,"relativeDirection":"LEFT","streetName":"Rue du Stade","absoluteDirection":"EAST","stayOn":false,"area":false,"bogusName":false,"lon":-71.0942373,"lat":48.425086300000004,"elevation":[]}]}],"tooSloped":false}]},"debugOutput":{"precalculationTime":13,"pathCalculationTime":14,"pathTimes":[4,4,6],"renderingTime":0,"totalTime":27,"timedOut":false},"elevationMetadata":{"ellipsoidToGeoidDifference":-28.885904201182168,"geoidElevation":false}}