{"requestParameters":{"date":"2018/04/02","walkSpeed":"1.33","walkReluctance":"2.0","fromPlace":"48.418729,-71.053021","maxWalkDistance":"3000","waitReluctance":"1.0","carSpeed":"33","numItineraries":"3","waitAtBeginningFactor":"0.4","mode":"TRANSIT,WALK","ignoreRealtimeUpdates":"false","stairsReluctance":"2.0","toPlace":"48.421043,-71.059678","time":"9:55:00"},"plan":{"date":1522677300000,"from":{"name":"Origin","lon":-71.053021,"lat":48.418729,"orig":"","vertexType":"NORMAL"},"to":{"name":"Destination","lon":-71.059678,"lat":48.421043,"orig":"","vertexType":"NORMAL"},"itineraries":[{"duration":646,"startTime":1522677300000,"endTime":1522677946000,"walkTime":646,"transitTime":0,"waitingTime":0,"walkDistance":821.1746616488223,"walkLimitExceeded":false,"elevationLost":0.0,"elevationGained":0.0,"transfers":0,"legs":[{"startTime":1522677300000,"endTime":1522677946000,"departureDelay":0,"arrivalDelay":0,"realTime":false,"distance":821.0099999999999,"pathway":false,"mode":"WALK","route":"","agencyTimeZoneOffset":-14400000,"interlineWithPreviousLeg":false,"from":{"name":"Origin","lon":-71.053021,"lat":48.418729,"departure":1522677300000,"orig":"","vertexType":"NORMAL"},"to":{"name":"Destination","lon":-71.059678,"lat":48.421043,"arrival":1522677946000,"orig":"","vertexType":"NORMAL"},"legGeometry":{"points":"mwofHbotpLwBuBY|@Sj@[x@d@`@XXD\\G`@w@zBTZJ`@AvBChAd@lBRz@^pAFNeE`Ew@t@y@nAm@fBc@nBId@SO","length":25},"rentedBike":false,"transitLeg":false,"duration":646.0,"steps":[{"distance":152.13,"relativeDirection":"DEPART","streetName":"path","absoluteDirection":"NORTHEAST","stayOn":false,"area":false,"bogusName":false,"lon":-71.05281450938897,"lat":48.41863935175929,"elevation":[]},{"distance":122.724,"relativeDirection":"LEFT","streetName":"service road","absoluteDirection":"SOUTHWEST","stayOn":false,"area":false,"bogusName":true,"lon":-71.05304550000001,"lat":48.4196048,"elevation":[]},{"distance":74.519,"relativeDirection":"LEFT","streetName":"Chemin Saint Thomas","absoluteDirection":"SOUTHWEST","stayOn":false,"area":false,"bogusName":false,"lon":-71.05428950000001,"lat":48.4195775,"elevation":[]},{"distance":27.625,"relativeDirection":"CONTINUE","streetName":"Rue Newton","absoluteDirection":"WEST","stayOn":false,"area":false,"bogusName":false,"lon":-71.0551914,"lat":48.4194198,"elevation":[]},{"distance":112.815,"relativeDirection":"SLIGHTLY_LEFT","streetName":"Rue Newton","absoluteDirection":"SOUTHWEST","stayOn":true,"area":false,"bogusName":false,"lon":-71.05556510000001,"lat":48.4194344,"elevation":[]},{"distance":318.946,"relativeDirection":"RIGHT","streetName":"Boulevard de l'Université","absoluteDirection":"NORTHWEST","stayOn":false,"area":false,"bogusName":false,"lon":-71.0569061,"lat":48.4189492,"elevation":[]},{"distance":12.251,"relativeDirection":"RIGHT","streetName":"Rue Bégin","absoluteDirection":"NORTHEAST","stayOn":false,"area":false,"bogusName":false,"lon":-71.05981580000001,"lat":48.4209693,"elevation":[]}]}],"tooSloped":false},{"duration":760,"startTime":1522677381000,"endTime":1522678141000,"walkTime":627,"transitTime":131,"waitingTime":2,"walkDistance":796.9498646585607,"walkLimitExceeded":false,"elevationLost":0.0,"elevationGained":0.0,"transfers":0,"legs":[{"startTime":1522677381000,"endTime":1522677659000,"departureDelay":0,"arrivalDelay":0,"realTime":false,"distance":348.519,"pathway":false,"mode":"WALK","route":"","agencyTimeZoneOffset":-14400000,"interlineWithPreviousLeg":false,"from":{"name":"Origin","lon":-71.053021,"lat":48.418729,"departure":1522677381000,"orig":"","vertexType":"NORMAL"},"to":{"name":"Terminus UQAC","stopId":"1:1670","stopCode":"1670","lon":-71.053369,"lat":48.420903,"arrival":1522677659000,"departure":1522677660000,"zoneId":"NA","stopIndex":14,"stopSequence":15,"vertexType":"TRANSIT"},"legGeometry":{"points":"mwofHbotpLwBuBCA_AaAq@XYz@Ur@e@vAg@vAUp@cAaA","length":11},"rentedBike":false,"transitLeg":false,"duration":278.0,"steps":[{"distance":281.082,"relativeDirection":"DEPART","streetName":"path","absoluteDirection":"NORTHEAST","stayOn":false,"area":false,"bogusName":false,"lon":-71.05281450938897,"lat":48.41863935175929,"elevation":[]},{"distance":67.437,"relativeDirection":"CONTINUE","streetName":"service road","absoluteDirection":"NORTHWEST","stayOn":false,"area":false,"bogusName":true,"lon":-71.05345460000001,"lat":48.4204518,"elevation":[]}]},{"startTime":1522677660000,"endTime":1522677791000,"departureDelay":0,"arrivalDelay":0,"realTime":false,"distance":541.9495699577545,"pathway":false,"mode":"BUS","route":"175","agencyName":"Société de Transport du Saguenay","agencyUrl":"http://ville.saguenay.ca/fr/services-aux-citoyens/transport-sts","agencyTimeZoneOffset":-14400000,"routeColor":"FF00FF","routeType":3,"routeId":"1:175","routeTextColor":"FFFFFF","interlineWithPreviousLeg":false,"tripBlockId":"10","headsign":"Terminus Chicoutimi","agencyId":"0","tripId":"1:217433","serviceDate":"20180402","from":{"name":"Terminus UQAC","stopId":"1:1670","stopCode":"1670","lon":-71.053369,"lat":48.420903,"arrival":1522677659000,"departure":1522677660000,"zoneId":"NA","stopIndex":14,"stopSequence":15,"vertexType":"TRANSIT"},"to":{"name":"Cégep de Chicoutimi (Bégin)","stopId":"1:66","stopCode":"66","lon":-71.056314,"lat":48.424377,"arrival":1522677791000,"departure":1522677792000,"zoneId":"NA","stopIndex":17,"stopSequence":18,"vertexType":"TRANSIT"},"legGeometry":{"points":"sepfHprtpL_A_ATm@yAwAgBeBqDnL@nBF`@f@|C[dCuAfB]xAs@OmCmC","length":14},"routeShortName":"175","routeLongName":"Term. Chic / Costco","rentedBike":false,"transitLeg":true,"duration":131.0,"steps":[]},{"startTime":1522677792000,"endTime":1522678141000,"departureDelay":0,"arrivalDelay":0,"realTime":false,"distance":448.33500000000004,"pathway":false,"mode":"WALK","route":"","agencyTimeZoneOffset":-14400000,"interlineWithPreviousLeg":false,"from":{"name":"Cégep de Chicoutimi (Bégin)","stopId":"1:66","stopCode":"66","lon":-71.056314,"lat":48.424377,"arrival":1522677791000,"departure":1522677792000,"zoneId":"NA","stopIndex":17,"stopSequence":18,"vertexType":"TRANSIT"},"to":{"name":"Destination","lon":-71.059678,"lat":48.421043,"arrival":1522678141000,"orig":"","vertexType":"NORMAL"},"legGeometry":{"points":"k{pfH`eupLJJ`A~@rAjAH^HHVVRN`AbAhAfAVXdAjAJHbAdAzBzB?@","length":16},"rentedBike":false,"transitLeg":false,"duration":349.0,"steps":[{"distance":119.033,"relativeDirection":"DEPART","streetName":"sidewalk","absoluteDirection":"SOUTHWEST","stayOn":false,"area":false,"bogusName":true,"lon":-71.0563254039123,"lat":48.42438196430904,"elevation":[]},{"distance":329.302,"relativeDirection":"SLIGHTLY_LEFT","streetName":"Rue Bégin","absoluteDirection":"SOUTHWEST","stayOn":false,"area":false,"bogusName":false,"lon":-71.0572466,"lat":48.423523700000004,"elevation":[]}]}],"tooSloped":false},{"duration":742,"startTime":1522677766000,"endTime":1522678508000,"walkTime":226,"transitTime":514,"waitingTime":2,"walkDistance":290.3306315788624,"walkLimitExceeded":false,"elevationLost":0.0,"elevationGained":0.0,"transfers":0,"legs":[{"startTime":1522677766000,"endTime":1522677883000,"departureDelay":0,"arrivalDelay":0,"realTime":false,"distance":153.204,"pathway":false,"mode":"WALK","route":"","agencyTimeZoneOffset":-14400000,"interlineWithPreviousLeg":false,"from":{"name":"Origin","lon":-71.053021,"lat":48.418729,"departure":1522677766000,"orig":"","vertexType":"NORMAL"},"to":{"name":"Fondation / Étudiants","stopId":"1:261","stopCode":"261","lon":-71.053953,"lat":48.417524,"arrival":1522677883000,"departure":1522677884000,"zoneId":"NA","stopIndex":23,"stopSequence":24,"vertexType":"TRANSIT"},"legGeometry":{"points":"mwofHbotpLd@f@DG`CdCr@p@","length":5},"rentedBike":false,"transitLeg":false,"duration":117.0,"steps":[{"distance":30.223,"relativeDirection":"DEPART","streetName":"path","absoluteDirection":"SOUTHWEST","stayOn":false,"area":false,"bogusName":false,"lon":-71.05281450938897,"lat":48.41863935175929,"elevation":[]},{"distance":122.981,"relativeDirection":"CONTINUE","streetName":"Rue de la Fondation","absoluteDirection":"SOUTHWEST","stayOn":false,"area":false,"bogusName":false,"lon":-71.05297080000001,"lat":48.4184196,"elevation":[]}]},{"startTime":1522677884000,"endTime":1522678020000,"departureDelay":0,"arrivalDelay":0,"realTime":false,"distance":378.1919200530851,"pathway":false,"mode":"BUS","route":"10","agencyName":"Société de Transport du Saguenay","agencyUrl":"http://ville.saguenay.ca/fr/services-aux-citoyens/transport-sts","agencyTimeZoneOffset":-14400000,"routeColor":"0000FF","routeType":3,"routeId":"1:10","routeTextColor":"FFFFFF","interlineWithPreviousLeg":false,"tripBlockId":"26","headsign":"Terminus UQAC","agencyId":"0","tripId":"1:217970","serviceDate":"20180402","from":{"name":"Fondation / Étudiants","stopId":"1:261","stopCode":"261","lon":-71.053953,"lat":48.417524,"arrival":1522677883000,"departure":1522677884000,"zoneId":"NA","stopIndex":23,"stopSequence":24,"vertexType":"TRANSIT"},"to":{"name":"Terminus UQAC","stopId":"1:1670","stopCode":"1670","lon":-71.053369,"lat":48.420903,"arrival":1522678020000,"departure":1522678200000,"zoneId":"NA","stopIndex":24,"stopSequence":25,"vertexType":"TRANSIT"},"legGeometry":{"points":"qpofHhvtpLfDdEwLpKeBgGAsE]gAoD}CUt@a@_@USMM","length":11},"routeShortName":"10","routeLongName":"Notre-Dame du Saguenay","rentedBike":false,"transitLeg":true,"duration":136.0,"steps":[]},{"startTime":1522678200000,"endTime":1522678398000,"departureDelay":0,"arrivalDelay":0,"realTime":false,"distance":949.6309801864423,"pathway":false,"mode":"BUS","route":"12","agencyName":"Société de Transport du Saguenay","agencyUrl":"http://ville.saguenay.ca/fr/services-aux-citoyens/transport-sts","agencyTimeZoneOffset":-14400000,"routeColor":"556B2F","routeType":3,"routeId":"1:12","routeTextColor":"FFFFFF","interlineWithPreviousLeg":true,"tripBlockId":"26","headsign":"Terminus Chicoutimi","agencyId":"0","tripId":"1:217971","serviceDate":"20180402","from":{"name":"Terminus UQAC","stopId":"1:1670","stopCode":"1670","lon":-71.053369,"lat":48.420903,"arrival":1522678020000,"departure":1522678200000,"zoneId":"NA","stopIndex":0,"stopSequence":1,"vertexType":"TRANSIT"},"to":{"name":"CFP Oasis (Bégin / Université)","stopId":"1:564","stopCode":"564","lon":-71.0609,"lat":48.4201,"arrival":1522678398000,"departure":1522678399000,"zoneId":"NA","stopIndex":4,"stopSequence":5,"vertexType":"TRANSIT"},"legGeometry":{"points":"sepfHprtpL}@y@Pw@wAsAaB{A}DrL?jCv@fCa@nDaC`D~E`F~MfN","length":12},"routeShortName":"12","routeLongName":"Rivière du Moulin","rentedBike":false,"transitLeg":true,"duration":198.0,"steps":[]},{"startTime":1522678399000,"endTime":1522678508000,"departureDelay":0,"arrivalDelay":0,"realTime":false,"distance":137.124,"pathway":false,"mode":"WALK","route":"","agencyTimeZoneOffset":-14400000,"interlineWithPreviousLeg":false,"from":{"name":"CFP Oasis (Bégin / Université)","stopId":"1:564","stopCode":"564","lon":-71.0609,"lat":48.4201,"arrival":1522678398000,"departure":1522678399000,"zoneId":"NA","stopIndex":4,"stopSequence":5,"vertexType":"TRANSIT"},"to":{"name":"Destination","lon":-71.059678,"lat":48.421043,"arrival":1522678508000,"orig":"","vertexType":"NORMAL"},"legGeometry":{"points":"g`pfHz`vpLQSSScAeAg@i@KMYYSO","length":8},"rentedBike":false,"transitLeg":false,"duration":109.0,"steps":[{"distance":137.124,"relativeDirection":"DEPART","streetName":"Rue Bégin","absoluteDirection":"NORTHEAST","stayOn":false,"area":false,"bogusName":false,"lon":-71.06077082721337,"lat":48.420042537275044,"elevation":[]}]}],"tooSloped":false}]},"debugOutput":{"precalculationTime":34,"pathCalculationTime":19,"pathTimes":[9,7,3],"renderingTime":0,"totalTime":53,"timedOut":false},"elevationMetadata":{"ellipsoidToGeoidDifference":-28.885904201182168,"geoidElevation":false}}