{"requestParameters":{"date":"2018/04/02","walkSpeed":"1.33","walkReluctance":"2.0","fromPlace":"48.43906,-71.05656999","maxWalkDistance":"3000","waitReluctance":"1.0","carSpeed":"33","numItineraries":"3","waitAtBeginningFactor":"0.4","mode":"TRANSIT,WALK","ignoreRealtimeUpdates":"false","stairsReluctance":"2.0","toPlace":"48.421725,-71.092765","time":"21:0:00"},"plan":{"date":1522717200000,"from":{"name":"Origin","lon":-71.05656999,"lat":48.43906,"orig":"","vertexType":"NORMAL"},"to":{"name":"Destination","lon":-71.092765,"lat":48.421725,"orig":"","vertexType":"NORMAL"},"itineraries":[{"duration":1908,"startTime":1522718987000,"endTime":1522720895000,"walkTime":690,"transitTime":976,"waitingTime":242,"walkDistance":896.4675714260362,"walkLimitExceeded":false,"elevationLost":0.0,"elevationGained":0.0,"transfers":1,"legs":[{"startTime":1522718987000,"endTime":1522719254000,"departureDelay":0,"arrivalDelay":0,"realTime":false,"distance":344.509,"pathway":false,"mode":"WALK","route":"","agencyTimeZoneOffset":-14400000,"interlineWithPreviousLeg":false,"from":{"name":"Origin","lon":-71.05656999,"lat":48.43906,"departure":1522718987000,"orig":"","vertexType":"NORMAL"},"to":{"name":"boul. Tadoussac / St-Benoit","stopId":"1:812","stopCode":"812","lon":-71.05473,"lat":48.441602,"arrival":1522719254000,"departure":1522719255000,"zoneId":"NA","stopIndex":28,"stopSequence":29,"vertexType":"TRANSIT"},"legGeometry":{"points":"awsfHpfupLiAo@}Aq@oBo@kFeBVmB","length":6},"rentedBike":false,"transitLeg":false,"duration":267.0,"steps":[{"distance":301.494,"relativeDirection":"DEPART","streetName":"Rue Saint-Benoît","absoluteDirection":"NORTHEAST","stayOn":false,"area":false,"bogusName":false,"lon":-71.05656884500455,"lat":48.43905966364894,"elevation":[]},{"distance":43.015,"relativeDirection":"RIGHT","streetName":"Boulevard de Tadoussac","absoluteDirection":"EAST","stayOn":false,"area":false,"bogusName":false,"lon":-71.0553263,"lat":48.441639200000004,"elevation":[]}]},{"startTime":1522719255000,"endTime":1522719660000,"departureDelay":0,"arrivalDelay":0,"realTime":false,"distance":2557.5943730526383,"pathway":false,"mode":"BUS","route":"24","agencyName":"Société de Transport du Saguenay","agencyUrl":"http://ville.saguenay.ca/fr/services-aux-citoyens/transport-sts","agencyTimeZoneOffset":-14400000,"routeColor":"00FF00","routeType":3,"routeId":"1:24","routeTextColor":"000000","interlineWithPreviousLeg":false,"tripBlockId":"5","headsign":"Terminus Chicoutimi","agencyId":"0","tripId":"1:217279","serviceDate":"20180402","from":{"name":"boul. Tadoussac / St-Benoit","stopId":"1:812","stopCode":"812","lon":-71.05473,"lat":48.441602,"arrival":1522719254000,"departure":1522719255000,"zoneId":"NA","stopIndex":28,"stopSequence":29,"vertexType":"TRANSIT"},"to":{"name":"Terminus Chicoutimi","stopId":"1:1289","stopCode":"1289","lon":-71.066163,"lat":48.428677,"arrival":1522719660000,"departure":1522719900000,"zoneId":"NA","stopIndex":35,"stopSequence":36,"vertexType":"TRANSIT"},"legGeometry":{"points":"mftfHj{tpLUfBCTEXK~@MxAEn@@v@Bp@Dr@l@~HNlAH\\@HLd@\\z@Xd@X\\RTXRr@Zn@PfExAvDpALnBJt@Pp@Nj@l@tBHZPn@`@rBNnAFr@DbA?bB@jABzA?p@A???A???A?A???A@??A?A@??A@?@A??@A@???@A@?@?@A@?@?@?@?@???@?@?@?@?@?@@@?@?@@@?@@@?@@@?@@?@@??@@@?E`@Kr@]rACVEl@I|AAr@JbAWJe@FUAM?a@Ke@YYWWa@v@}@RQPMz@k@tAe@REZG^Af@@X@VF`@Jn@XbClAr@Xt\\`PrAb@pA^hBTjAFj@Pb@JPHLLJNJRFXDT?X?ZEVEVKTMNMHMFOB}DWSGOSYcAN}FFkAF}DJyDPwGvAHN_HDiB@m@","length":153},"routeShortName":"24","routeLongName":"Saint-Luc","rentedBike":false,"transitLeg":true,"duration":405.0,"steps":[]},{"startTime":1522719900000,"endTime":1522720471000,"departureDelay":0,"arrivalDelay":0,"realTime":false,"distance":2967.5596063171365,"pathway":false,"mode":"BUS","route":"16","agencyName":"Société de Transport du Saguenay","agencyUrl":"http://ville.saguenay.ca/fr/services-aux-citoyens/transport-sts","agencyTimeZoneOffset":-14400000,"routeColor":"00FF00","routeType":3,"routeId":"1:16","routeTextColor":"000000","interlineWithPreviousLeg":false,"tripBlockId":"34","headsign":"Faubourg Sagamie","agencyId":"0","tripId":"1:218237","serviceDate":"20180402","from":{"name":"Terminus Chicoutimi","stopId":"1:1289","stopCode":"1289","lon":-71.066163,"lat":48.428677,"arrival":1522719660000,"departure":1522719900000,"zoneId":"NA","stopIndex":0,"stopSequence":1,"vertexType":"TRANSIT"},"to":{"name":"Dequen / Vilmond","stopId":"1:601","stopCode":"601","lon":-71.087641,"lat":48.424724,"arrival":1522720471000,"departure":1522720472000,"zoneId":"NA","stopIndex":15,"stopSequence":16,"vertexType":"TRANSIT"},"legGeometry":{"points":"evqfHzcwpLg@?AXCnAO~GxDVhCP~M~@jDTOrHKdGE^E~BQnIMhGAxCD~@Df@DVDZd@zBBLDJJNHHHDJBn@HCxAHdAFX@DFj@@b@Ab@SvAe@p@{EnEEB{@w@m@o@aDeDIKCMCM?SL}A?A@WCYi@mDOu@Wm@EIMSSWaAcAuAcBq@f@URa@d@u@`A}BzCV`DX~C@HFT^v@bA|AZ^`Av@\\`@Zf@pAvCtD`JJTrAtCpAjC@BvA|CvA~Ci@zA","length":82},"routeShortName":"16","routeLongName":"Côte de la Réserve","rentedBike":false,"transitLeg":true,"duration":571.0,"steps":[]},{"startTime":1522720472000,"endTime":1522720895000,"departureDelay":0,"arrivalDelay":0,"realTime":false,"distance":551.88,"pathway":false,"mode":"WALK","route":"","agencyTimeZoneOffset":-14400000,"interlineWithPreviousLeg":false,"from":{"name":"Dequen / Vilmond","stopId":"1:601","stopCode":"601","lon":-71.087641,"lat":48.424724,"arrival":1522720471000,"departure":1522720472000,"zoneId":"NA","stopIndex":15,"stopSequence":16,"vertexType":"TRANSIT"},"to":{"name":"Destination","lon":-71.092765,"lat":48.421725,"arrival":1522720895000,"orig":"","vertexType":"NORMAL"},"legGeometry":{"points":"g}pfH~h{pLh@wA~AhDZt@Tf@??JPXjBZv@Rd@JT`AzBDHLTr@|AJRJRFNZp@Zr@x@lE","length":21},"rentedBike":false,"transitLeg":false,"duration":423.0,"steps":[{"distance":40.67,"relativeDirection":"DEPART","streetName":"Rue De Quen","absoluteDirection":"SOUTHEAST","stayOn":false,"area":false,"bogusName":false,"lon":-71.08767920713842,"lat":48.42468992051686,"elevation":[]},{"distance":511.21000000000004,"relativeDirection":"RIGHT","streetName":"Chemin de la Réserve","absoluteDirection":"SOUTHWEST","stayOn":false,"area":false,"bogusName":false,"lon":-71.087237,"lat":48.424471600000004,"elevation":[]}]}],"tooSloped":false},{"duration":2494,"startTime":1522720385000,"endTime":1522722879000,"walkTime":2159,"transitTime":333,"waitingTime":2,"walkDistance":2803.195902248834,"walkLimitExceeded":false,"elevationLost":0.0,"elevationGained":0.0,"transfers":0,"legs":[{"startTime":1522720385000,"endTime":1522720724000,"departureDelay":0,"arrivalDelay":0,"realTime":false,"distance":432.88000000000005,"pathway":false,"mode":"WALK","route":"","agencyTimeZoneOffset":-14400000,"interlineWithPreviousLeg":false,"from":{"name":"Origin","lon":-71.05656999,"lat":48.43906,"departure":1522720385000,"orig":"","vertexType":"NORMAL"},"to":{"name":"Colbert / boul. Tadoussac","stopId":"1:797","stopCode":"797","lon":-71.056404,"lat":48.442237,"arrival":1522720724000,"departure":1522720725000,"zoneId":"NA","stopIndex":19,"stopSequence":20,"vertexType":"TRANSIT"},"legGeometry":{"points":"awsfHpfupLiAo@}Aq@oBo@kFeBIh@G^G\\E`@Gj@Cv@YECAIEGEECAAKK","length":18},"rentedBike":false,"transitLeg":false,"duration":339.0,"steps":[{"distance":301.494,"relativeDirection":"DEPART","streetName":"Rue Saint-Benoît","absoluteDirection":"NORTHEAST","stayOn":false,"area":false,"bogusName":false,"lon":-71.05656884500455,"lat":48.43905966364894,"elevation":[]},{"distance":91.515,"relativeDirection":"LEFT","streetName":"Boulevard de Tadoussac","absoluteDirection":"WEST","stayOn":false,"area":false,"bogusName":false,"lon":-71.0553263,"lat":48.441639200000004,"elevation":[]},{"distance":32.937,"relativeDirection":"RIGHT","streetName":"Rue Colbert","absoluteDirection":"NORTH","stayOn":false,"area":false,"bogusName":false,"lon":-71.0565172,"lat":48.4418598,"elevation":[]},{"distance":6.934,"relativeDirection":"CONTINUE","streetName":"bike path","absoluteDirection":"NORTHEAST","stayOn":false,"area":false,"bogusName":true,"lon":-71.05638040000001,"lat":48.4421392,"elevation":[]}]},{"startTime":1522720725000,"endTime":1522721058000,"departureDelay":0,"arrivalDelay":0,"realTime":false,"distance":2174.0884231870195,"pathway":false,"mode":"BUS","route":"23","agencyName":"Société de Transport du Saguenay","agencyUrl":"http://ville.saguenay.ca/fr/services-aux-citoyens/transport-sts","agencyTimeZoneOffset":-14400000,"routeColor":"FF00FF","routeType":3,"routeId":"1:23","routeTextColor":"FFFFFF","interlineWithPreviousLeg":false,"tripBlockId":"5","headsign":"Terminus Chicoutimi","agencyId":"0","tripId":"1:217280","serviceDate":"20180402","from":{"name":"Colbert / boul. Tadoussac","stopId":"1:797","stopCode":"797","lon":-71.056404,"lat":48.442237,"arrival":1522720724000,"departure":1522720725000,"zoneId":"NA","stopIndex":19,"stopSequence":20,"vertexType":"TRANSIT"},"to":{"name":"boul. Saguenay / Ste-Anne","stopId":"1:160","stopCode":"160","lon":-71.069701,"lat":48.429464,"arrival":1522721058000,"departure":1522721059000,"zoneId":"NA","stopIndex":25,"stopSequence":26,"vertexType":"TRANSIT"},"legGeometry":{"points":"ujtfHbeupLDFXPf@N@v@Bp@Dr@l@~HNlAH\\@HLd@\\z@Xd@X\\RTXRr@Zn@PfExAvDpALnBJt@Pp@|@`DHZPn@`@rBNnAFr@DbA?bB@jABzA?p@A???A???A?A???A@??A?A@??A@?@A??@A@???@A@?@?@A@?@?@?@?@???@?@?@?@?@?@@@?@?@@@?@@@?@@@?@@?@@??@@@?E`@Kr@]rACVEl@I|AAr@JbAWJe@FUAM?a@Ke@YYWWa@v@}@RQPMz@k@tAe@REZG^Af@@X@VF`@Jn@XbClAr@Xt\\`PrAb@pA^hBTjAFj@Pb@JPHLLJNJRFXDT?X?ZEVEVKTMNMHMFOB}DWSGOSYcAN}FFkAF}DJyD","length":144},"routeShortName":"23","routeLongName":"Côte Verdun via Aréna du Plateau","rentedBike":false,"transitLeg":true,"duration":333.0,"steps":[]},{"startTime":1522721059000,"endTime":1522722879000,"departureDelay":0,"arrivalDelay":0,"realTime":false,"distance":2370.105,"pathway":false,"mode":"WALK","route":"","agencyTimeZoneOffset":-14400000,"interlineWithPreviousLeg":false,"from":{"name":"boul. Saguenay / Ste-Anne","stopId":"1:160","stopCode":"160","lon":-71.069701,"lat":48.429464,"arrival":1522721058000,"departure":1522721059000,"zoneId":"NA","stopIndex":25,"stopSequence":26,"vertexType":"TRANSIT"},"to":{"name":"Destination","lon":-71.092765,"lat":48.421725,"arrival":1522722879000,"orig":"","vertexType":"NORMAL"},"legGeometry":{"points":"s{qfHrxwpLAZGxEEfBARAPAXE`BMlEEtAI~CA\\GfCUdIOvBQzAWxAcBhGJFLDPCPOhG{Hn@bI@NL`@b@b@dAvARTj@f@r@l@JHJVHPNXn@vAf@lAlB~En@~AFNjBrD~@hBBFf@dAbAzBz@bC~AhDZt@Tf@??JPXjBZv@Rd@JT`AzBDHLTr@|AJRJRFNZp@Zr@x@lE","length":65},"rentedBike":false,"transitLeg":false,"duration":1820.0,"steps":[{"distance":768.828,"relativeDirection":"DEPART","streetName":"Boulevard du Saguenay Ouest","absoluteDirection":"WEST","stayOn":false,"area":false,"bogusName":false,"lon":-71.06969134971845,"lat":48.42954562670822,"elevation":[]},{"distance":224.418,"relativeDirection":"LEFT","streetName":"Rue Price Ouest","absoluteDirection":"SOUTH","stayOn":false,"area":false,"bogusName":false,"lon":-71.0798166,"lat":48.430782300000004,"elevation":[]},{"distance":1376.859,"relativeDirection":"HARD_RIGHT","streetName":"Chemin de la Réserve","absoluteDirection":"WEST","stayOn":false,"area":false,"bogusName":false,"lon":-71.0782093,"lat":48.429149900000006,"elevation":[]}]}],"tooSloped":false},{"duration":1908,"startTime":1522722587000,"endTime":1522724495000,"walkTime":690,"transitTime":976,"waitingTime":242,"walkDistance":896.4675714260362,"walkLimitExceeded":false,"elevationLost":0.0,"elevationGained":0.0,"transfers":1,"legs":[{"startTime":1522722587000,"endTime":1522722854000,"departureDelay":0,"arrivalDelay":0,"realTime":false,"distance":344.509,"pathway":false,"mode":"WALK","route":"","agencyTimeZoneOffset":-14400000,"interlineWithPreviousLeg":false,"from":{"name":"Origin","lon":-71.05656999,"lat":48.43906,"departure":1522722587000,"orig":"","vertexType":"NORMAL"},"to":{"name":"boul. Tadoussac / St-Benoit","stopId":"1:812","stopCode":"812","lon":-71.05473,"lat":48.441602,"arrival":1522722854000,"departure":1522722855000,"zoneId":"NA","stopIndex":28,"stopSequence":29,"vertexType":"TRANSIT"},"legGeometry":{"points":"awsfHpfupLiAo@}Aq@oBo@kFeBVmB","length":6},"rentedBike":false,"transitLeg":false,"duration":267.0,"steps":[{"distance":301.494,"relativeDirection":"DEPART","streetName":"Rue Saint-Benoît","absoluteDirection":"NORTHEAST","stayOn":false,"area":false,"bogusName":false,"lon":-71.05656884500455,"lat":48.43905966364894,"elevation":[]},{"distance":43.015,"relativeDirection":"RIGHT","streetName":"Boulevard de Tadoussac","absoluteDirection":"EAST","stayOn":false,"area":false,"bogusName":false,"lon":-71.0553263,"lat":48.441639200000004,"elevation":[]}]},{"startTime":1522722855000,"endTime":1522723260000,"departureDelay":0,"arrivalDelay":0,"realTime":false,"distance":2557.5943730526383,"pathway":false,"mode":"BUS","route":"24","agencyName":"Société de Transport du Saguenay","agencyUrl":"http://ville.saguenay.ca/fr/services-aux-citoyens/transport-sts","agencyTimeZoneOffset":-14400000,"routeColor":"00FF00","routeType":3,"routeId":"1:24","routeTextColor":"000000","interlineWithPreviousLeg":false,"tripBlockId":"5","headsign":"Terminus Chicoutimi","agencyId":"0","tripId":"1:217281","serviceDate":"20180402","from":{"name":"boul. Tadoussac / St-Benoit","stopId":"1:812","stopCode":"812","lon":-71.05473,"lat":48.441602,"arrival":1522722854000,"departure":1522722855000,"zoneId":"NA","stopIndex":28,"stopSequence":29,"vertexType":"TRANSIT"},"to":{"name":"Terminus Chicoutimi","stopId":"1:1289","stopCode":"1289","lon":-71.066163,"lat":48.428677,"arrival":1522723260000,"departure":1522723500000,"zoneId":"NA","stopIndex":35,"stopSequence":36,"vertexType":"TRANSIT"},"legGeometry":{"points":"mftfHj{tpLUfBCTEXK~@MxAEn@@v@Bp@Dr@l@~HNlAH\\@HLd@\\z@Xd@X\\RTXRr@Zn@PfExAvDpALnBJt@Pp@Nj@l@tBHZPn@`@rBNnAFr@DbA?bB@jABzA?p@A???A???A?A???A@??A?A@??A@?@A??@A@???@A@?@?@A@?@?@?@?@???@?@?@?@?@?@@@?@?@@@?@@@?@@@?@@?@@??@@@?E`@Kr@]rACVEl@I|AAr@JbAWJe@FUAM?a@Ke@YYWWa@v@}@RQPMz@k@tAe@REZG^Af@@X@VF`@Jn@XbClAr@Xt\\`PrAb@pA^hBTjAFj@Pb@JPHLLJNJRFXDT?X?ZEVEVKTMNMHMFOB}DWSGOSYcAN}FFkAF}DJyDPwGvAHN_HDiB@m@","length":153},"routeShortName":"24","routeLongName":"Saint-Luc","rentedBike":false,"transitLeg":true,"duration":405.0,"steps":[]},{"startTime":1522723500000,"endTime":1522724071000,"departureDelay":0,"arrivalDelay":0,"realTime":false,"distance":2967.5596063171365,"pathway":false,"mode":"BUS","route":"16","agencyName":"Société de Transport du Saguenay","agencyUrl":"http://ville.saguenay.ca/fr/services-aux-citoyens/transport-sts","agencyTimeZoneOffset":-14400000,"routeColor":"00FF00","routeType":3,"routeId":"1:16","routeTextColor":"000000","interlineWithPreviousLeg":false,"tripBlockId":"35","headsign":"Faubourg Sagamie","agencyId":"0","tripId":"1:218274","serviceDate":"20180402","from":{"name":"Terminus Chicoutimi","stopId":"1:1289","stopCode":"1289","lon":-71.066163,"lat":48.428677,"arrival":1522723260000,"departure":1522723500000,"zoneId":"NA","stopIndex":0,"stopSequence":1,"vertexType":"TRANSIT"},"to":{"name":"Dequen / Vilmond","stopId":"1:601","stopCode":"601","lon":-71.087641,"lat":48.424724,"arrival":1522724071000,"departure":1522724072000,"zoneId":"NA","stopIndex":15,"stopSequence":16,"vertexType":"TRANSIT"},"legGeometry":{"points":"evqfHzcwpLg@?AXCnAO~GxDVhCP~M~@jDTOrHKdGE^E~BQnIMhGAxCD~@Df@DVDZd@zBBLDJJNHHHDJBn@HCxAHdAFX@DFj@@b@Ab@SvAe@p@{EnEEB{@w@m@o@aDeDIKCMCM?SL}A?A@WCYi@mDOu@Wm@EIMSSWaAcAuAcBq@f@URa@d@u@`A}BzCV`DX~C@HFT^v@bA|AZ^`Av@\\`@Zf@pAvCtD`JJTrAtCpAjC@BvA|CvA~Ci@zA","length":82},"routeShortName":"16","routeLongName":"Côte de la Réserve","rentedBike":false,"transitLeg":true,"duration":571.0,"steps":[]},{"startTime":1522724072000,"endTime":1522724495000,"departureDelay":0,"arrivalDelay":0,"realTime":false,"distance":551.88,"pathway":false,"mode":"WALK","route":"","agencyTimeZoneOffset":-14400000,"interlineWithPreviousLeg":false,"from":{"name":"Dequen / Vilmond","stopId":"1:601","stopCode":"601","lon":-71.087641,"lat":48.424724,"arrival":1522724071000,"departure":1522724072000,"zoneId":"NA","stopIndex":15,"stopSequence":16,"vertexType":"TRANSIT"},"to":{"name":"Destination","lon":-71.092765,"lat":48.421725,"arrival":1522724495000,"orig":"","vertexType":"NORMAL"},"legGeometry":{"points":"g}pfH~h{pLh@wA~AhDZt@Tf@??JPXjBZv@Rd@JT`AzBDHLTr@|AJRJRFNZp@Zr@x@lE","length":21},"rentedBike":false,"transitLeg":false,"duration":423.0,"steps":[{"distance":40.67,"relativeDirection":"DEPART","streetName":"Rue De Quen","absoluteDirection":"SOUTHEAST","stayOn":false,"area":false,"bogusName":false,"lon":-71.08767920713842,"lat":48.42468992051686,"elevation":[]},{"distance":511.21000000000004,"relativeDirection":"RIGHT","streetName":"Chemin de la Réserve","absoluteDirection":"SOUTHWEST","stayOn":false,"area":false,"bogusName":false,"lon":-71.087237,"lat":48.424471600000004,"elevation":[]}]}],"tooSloped":false}]},"debugOutput":{"precalculationTime":20,"pathCalculationTime":44,"pathTimes":[28,7,9],"renderingTime":1,"totalTime":65,"timedOut":false},"elevationMetadata":{"ellipsoidToGeoidDifference":-28.885904201182168,"geoidElevation":false}}