{"requestParameters":{"date":"2018/04/02","walkSpeed":"1.33","walkReluctance":"2.0","fromPlace":"48.408412,-71.073469","maxWalkDistance":"3000","waitReluctance":"1.0","carSpeed":"33","numItineraries":"3","waitAtBeginningFactor":"0.4","mode":"TRANSIT,WALK","ignoreRealtimeUpdates":"false","stairsReluctance":"2.0","toPlace":"48.426234,-71.079418","time":"10:30:00"},"plan":{"date":1522679400000,"from":{"name":"Origin","lon":-71.073469,"lat":48.408412,"orig":"","vertexType":"NORMAL"},"to":{"name":"Destination","lon":-71.079418,"lat":48.426234,"orig":"","vertexType":"NORMAL"},"itineraries":[{"duration":2117,"startTime":1522679400000,"endTime":1522681517000,"walkTime":2117,"transitTime":0,"waitingTime":0,"walkDistance":2716.5103007415437,"walkLimitExceeded":false,"elevationLost":0.0,"elevationGained":0.0,"transfers":0,"legs":[{"startTime":1522679400000,"endTime":1522681517000,"departureDelay":0,"arrivalDelay":0,"realTime":false,"distance":2716.1899999999996,"pathway":false,"mode":"WALK","route":"","agencyTimeZoneOffset":-14400000,"interlineWithPreviousLeg":false,"from":{"name":"Origin","lon":-71.073469,"lat":48.408412,"departure":1522679400000,"orig":"","vertexType":"NORMAL"},"to":{"name":"Destination","lon":-71.079418,"lat":48.426234,"arrival":1522681517000,"orig":"","vertexType":"NORMAL"},"legGeometry":{"points":"sumfHfkxpLWSw@cA?AeB{BuA}AYc@AAk@w@k@OmA]c@?mA?A?E@aAZkAB}@Uw@y@m@uAUwAGo@?G?CCW@wAFiAMUs@m@{@u@UIIP}AhEi@xAc@jAeEUaAEaBE}CKsBIO?c@CW?o@L_@J_@X]XGDWZW`@QR[h@gBvEo@|AcAjC[|@a@lAOb@gA~BDR?LAJAHCFEBGBGDQ`@Yp@g@|AUW}@_Aa@fAi@zAGR_@\\G@Y@G?g@?c@|@s@vAOXs@bAMNs@~@ULQHGDKD}@`@_Bf@cBz@kDbAXnB?d@?B","length":97},"rentedBike":false,"transitLeg":false,"duration":2117.0,"steps":[{"distance":699.2270000000001,"relativeDirection":"DEPART","streetName":"Rue d'Angoulème","absoluteDirection":"NORTHEAST","stayOn":false,"area":false,"bogusName":false,"lon":-71.0726750361586,"lat":48.40810885552929,"elevation":[]},{"distance":96.293,"relativeDirection":"LEFT","streetName":"Rue Bégin","absoluteDirection":"NORTHEAST","stayOn":false,"area":false,"bogusName":false,"lon":-71.0681022,"lat":48.4126786,"elevation":[]},{"distance":174.902,"relativeDirection":"LEFT","streetName":"Rue Des Oblats Est","absoluteDirection":"NORTHWEST","stayOn":false,"area":false,"bogusName":false,"lon":-71.06744280000001,"lat":48.413416500000004,"elevation":[]},{"distance":902.282,"relativeDirection":"RIGHT","streetName":"Rue Jolliet","absoluteDirection":"NORTH","stayOn":false,"area":false,"bogusName":false,"lon":-71.0693767,"lat":48.414325600000005,"elevation":[]},{"distance":78.343,"relativeDirection":"LEFT","streetName":"path","absoluteDirection":"WEST","stayOn":false,"area":false,"bogusName":true,"lon":-71.07388590000001,"lat":48.420954200000004,"elevation":[]},{"distance":40.771,"relativeDirection":"CONTINUE","streetName":"Rue Dubuc","absoluteDirection":"NORTHWEST","stayOn":false,"area":false,"bogusName":false,"lon":-71.07469880000001,"lat":48.4212916,"elevation":[]},{"distance":57.055,"relativeDirection":"RIGHT","streetName":"Rue Saint-Paul","absoluteDirection":"NORTHEAST","stayOn":false,"area":false,"bogusName":false,"lon":-71.0751601,"lat":48.4214934,"elevation":[]},{"distance":149.464,"relativeDirection":"LEFT","streetName":"Rue Taché","absoluteDirection":"NORTHWEST","stayOn":false,"area":false,"bogusName":false,"lon":-71.074724,"lat":48.4219171,"elevation":[]},{"distance":458.96000000000004,"relativeDirection":"LEFT","streetName":"bike path","absoluteDirection":"NORTHWEST","stayOn":false,"area":false,"bogusName":true,"lon":-71.075815,"lat":48.4229088,"elevation":[]},{"distance":58.893,"relativeDirection":"LEFT","streetName":"Rue Dréan","absoluteDirection":"WEST","stayOn":false,"area":false,"bogusName":false,"lon":-71.078625,"lat":48.4264664,"elevation":[]}]}],"tooSloped":false},{"duration":1613,"startTime":1522680042000,"endTime":1522681655000,"walkTime":1128,"transitTime":483,"waitingTime":2,"walkDistance":1453.219661648822,"walkLimitExceeded":false,"elevationLost":0.0,"elevationGained":0.0,"transfers":0,"legs":[{"startTime":1522680042000,"endTime":1522680462000,"departureDelay":0,"arrivalDelay":0,"realTime":false,"distance":550.458,"pathway":false,"mode":"WALK","route":"","agencyTimeZoneOffset":-14400000,"interlineWithPreviousLeg":false,"from":{"name":"Origin","lon":-71.073469,"lat":48.408412,"departure":1522680042000,"orig":"","vertexType":"NORMAL"},"to":{"name":"Ballantyne / Garon","stopId":"1:538","stopCode":"538","lon":-71.07646,"lat":48.405026,"arrival":1522680462000,"departure":1522680463000,"zoneId":"NA","stopIndex":16,"stopSequence":17,"vertexType":"TRANSIT"},"legGeometry":{"points":"sumfHfkxpLj@d@t@`@B@FBpAf@~Al@jBZ~AVj@FFnGXdAVX~@XUpC??","length":16},"rentedBike":false,"transitLeg":false,"duration":420.0,"steps":[{"distance":311.789,"relativeDirection":"DEPART","streetName":"Rue d'Angoulème","absoluteDirection":"SOUTHWEST","stayOn":false,"area":false,"bogusName":false,"lon":-71.0726750361586,"lat":48.40810885552929,"elevation":[]},{"distance":183.368,"relativeDirection":"RIGHT","streetName":"Rue Garon","absoluteDirection":"WEST","stayOn":false,"area":false,"bogusName":false,"lon":-71.0737922,"lat":48.405425300000005,"elevation":[]},{"distance":55.301,"relativeDirection":"RIGHT","streetName":"Rue Ballantyne","absoluteDirection":"WEST","stayOn":false,"area":false,"bogusName":false,"lon":-71.0757641,"lat":48.404816700000005,"elevation":[]}]},{"startTime":1522680463000,"endTime":1522680946000,"departureDelay":0,"arrivalDelay":0,"realTime":false,"distance":2318.3515184413895,"pathway":false,"mode":"BUS","route":"14","agencyName":"Société de Transport du Saguenay","agencyUrl":"http://ville.saguenay.ca/fr/services-aux-citoyens/transport-sts","agencyTimeZoneOffset":-14400000,"routeColor":"C0C000","routeType":3,"routeId":"1:14","routeTextColor":"000000","interlineWithPreviousLeg":false,"tripBlockId":"33","headsign":"Terminus Chicoutimi","agencyId":"0","tripId":"1:218180","serviceDate":"20180402","from":{"name":"Ballantyne / Garon","stopId":"1:538","stopCode":"538","lon":-71.07646,"lat":48.405026,"arrival":1522680462000,"departure":1522680463000,"zoneId":"NA","stopIndex":16,"stopSequence":17,"vertexType":"TRANSIT"},"to":{"name":"Audet / boul. Université","stopId":"1:553","stopCode":"553","lon":-71.072005,"lat":48.421488,"arrival":1522680946000,"departure":1522680947000,"zoneId":"NA","stopIndex":28,"stopSequence":29,"vertexType":"TRANSIT"},"legGeometry":{"points":"wamfHbcypLEf@mGvUYfAqCs@ICMCqFmDc@s@mAkBuEoESUgAhDiAfD}@zDyAcA_@Um@U{AWgB_Au@s@EEsBkCqFgF{IiI][aBhE}@}@oBmBwE{EwE{Ej@mBZeAa@SyEQ","length":35},"routeShortName":"14","routeLongName":"Coopérative","rentedBike":false,"transitLeg":true,"duration":483.0,"steps":[]},{"startTime":1522680947000,"endTime":1522681655000,"departureDelay":0,"arrivalDelay":0,"realTime":false,"distance":902.5970000000002,"pathway":false,"mode":"WALK","route":"","agencyTimeZoneOffset":-14400000,"interlineWithPreviousLeg":false,"from":{"name":"Audet / boul. Université","stopId":"1:553","stopCode":"553","lon":-71.072005,"lat":48.421488,"arrival":1522680946000,"departure":1522680947000,"zoneId":"NA","stopIndex":28,"stopSequence":29,"vertexType":"TRANSIT"},"to":{"name":"Destination","lon":-71.079418,"lat":48.426234,"arrival":1522681655000,"orig":"","vertexType":"NORMAL"},"legGeometry":{"points":"iipfHvgxpLg@CWbAy@dCG`@?d@@n@D|@Bd@XbAFb@a@fAi@zAGR_@\\G@Y@G?g@?c@|@s@vAOXs@bAMNs@~@ULQHGDKD}@`@_Bf@cBz@kDbAXnB?d@?B","length":36},"rentedBike":false,"transitLeg":false,"duration":708.0,"steps":[{"distance":23.119,"relativeDirection":"DEPART","streetName":"Rue Audet","absoluteDirection":"NORTH","stayOn":false,"area":false,"bogusName":false,"lon":-71.07211324351135,"lat":48.42149143047572,"elevation":[]},{"distance":100.466,"relativeDirection":"LEFT","streetName":"Boulevard de l'Université","absoluteDirection":"NORTHWEST","stayOn":false,"area":false,"bogusName":false,"lon":-71.07209830000001,"lat":48.421699100000005,"elevation":[]},{"distance":111.695,"relativeDirection":"SLIGHTLY_LEFT","streetName":"Rue Saint-Paul","absoluteDirection":"WEST","stayOn":false,"area":false,"bogusName":false,"lon":-71.0732783,"lat":48.4221458,"elevation":[]},{"distance":149.464,"relativeDirection":"RIGHT","streetName":"Rue Taché","absoluteDirection":"NORTHWEST","stayOn":false,"area":false,"bogusName":false,"lon":-71.074724,"lat":48.4219171,"elevation":[]},{"distance":458.96000000000004,"relativeDirection":"LEFT","streetName":"bike path","absoluteDirection":"NORTHWEST","stayOn":false,"area":false,"bogusName":true,"lon":-71.075815,"lat":48.4229088,"elevation":[]},{"distance":58.893,"relativeDirection":"LEFT","streetName":"Rue Dréan","absoluteDirection":"WEST","stayOn":false,"area":false,"bogusName":false,"lon":-71.078625,"lat":48.4264664,"elevation":[]}]}],"tooSloped":false},{"duration":1661,"startTime":1522680838000,"endTime":1522682499000,"walkTime":44,"transitTime":1195,"waitingTime":422,"walkDistance":56.728,"walkLimitExceeded":false,"elevationLost":0.0,"elevationGained":0.0,"transfers":1,"legs":[{"startTime":1522680838000,"endTime":1522680881000,"departureDelay":0,"arrivalDelay":0,"realTime":false,"distance":55.685,"pathway":false,"mode":"WALK","route":"","agencyTimeZoneOffset":-14400000,"interlineWithPreviousLeg":false,"from":{"name":"Origin","lon":-71.073469,"lat":48.408412,"departure":1522680838000,"orig":"","vertexType":"NORMAL"},"to":{"name":"Centre d'hébergement Mgr Victor Tremblay","stopId":"1:542","stopCode":"542","lon":-71.072091,"lat":48.408437,"arrival":1522680881000,"departure":1522680882000,"zoneId":"NA","stopIndex":20,"stopSequence":21,"vertexType":"TRANSIT"},"legGeometry":{"points":"sumfHfkxpLWSw@cA?A","length":4},"rentedBike":false,"transitLeg":false,"duration":43.0,"steps":[{"distance":55.685,"relativeDirection":"DEPART","streetName":"Rue d'Angoulème","absoluteDirection":"NORTHEAST","stayOn":false,"area":false,"bogusName":false,"lon":-71.0726750361586,"lat":48.40810885552929,"elevation":[]}]},{"startTime":1522680882000,"endTime":1522681680000,"departureDelay":0,"arrivalDelay":0,"realTime":false,"distance":4074.4760381407064,"pathway":false,"mode":"BUS","route":"15","agencyName":"Société de Transport du Saguenay","agencyUrl":"http://ville.saguenay.ca/fr/services-aux-citoyens/transport-sts","agencyTimeZoneOffset":-14400000,"routeColor":"FF00FF","routeType":3,"routeId":"1:15","routeTextColor":"FFFFFF","interlineWithPreviousLeg":false,"tripBlockId":"32","headsign":"Terminus Chicoutimi","agencyId":"0","tripId":"1:218155","serviceDate":"20180402","from":{"name":"Centre d'hébergement Mgr Victor Tremblay","stopId":"1:542","stopCode":"542","lon":-71.072091,"lat":48.408437,"arrival":1522680881000,"departure":1522680882000,"zoneId":"NA","stopIndex":20,"stopSequence":21,"vertexType":"TRANSIT"},"to":{"name":"Terminus Chicoutimi","stopId":"1:1289","stopCode":"1289","lon":-71.066163,"lat":48.428677,"arrival":1522681680000,"departure":1522682100000,"zoneId":"NA","stopIndex":39,"stopSequence":40,"vertexType":"TRANSIT"},"legGeometry":{"points":"gxmfHphxpLsEeGe@o@qAa@m@MoB?C@}BZwAc@oA_Bs@gDCKZ{Di@QECc@_@sAkAoBwB_EcE{A_BoAmAk@o@cCaCkIkIaJaJUUwBaCj@wCjAsCzGoG_CoHL{D_@kAqD{CQr@iAcAy@w@L{@wAuA_B_B_EpLDh@NbBVvCIxBg@`Am@l@Sb@a@rAqDqDmEkE]a@kAqAU|@WnKG|DGxDOdPKvJU|F?XQlJC~@ChAIzEcCOaIi@VwL","length":68},"routeShortName":"15","routeLongName":"Term. Chic / Costco","rentedBike":false,"transitLeg":true,"duration":798.0,"steps":[]},{"startTime":1522682100000,"endTime":1522682497000,"departureDelay":0,"arrivalDelay":0,"realTime":false,"distance":1683.4722473918744,"pathway":false,"mode":"BUS","route":"16","agencyName":"Société de Transport du Saguenay","agencyUrl":"http://ville.saguenay.ca/fr/services-aux-citoyens/transport-sts","agencyTimeZoneOffset":-14400000,"routeColor":"00FF00","routeType":3,"routeId":"1:16","routeTextColor":"000000","interlineWithPreviousLeg":false,"tripBlockId":"37","headsign":"Faubourg Sagamie","agencyId":"0","tripId":"1:218312","serviceDate":"20180402","from":{"name":"Terminus Chicoutimi","stopId":"1:1289","stopCode":"1289","lon":-71.066163,"lat":48.428677,"arrival":1522681680000,"departure":1522682100000,"zoneId":"NA","stopIndex":0,"stopSequence":1,"vertexType":"TRANSIT"},"to":{"name":"Dréan (no. 374)","stopId":"1:595","stopCode":"595","lon":-71.07937,"lat":48.426243,"arrival":1522682497000,"departure":1522682498000,"zoneId":"NA","stopIndex":9,"stopSequence":10,"vertexType":"TRANSIT"},"legGeometry":{"points":"evqfHzcwpLg@?AXCnAO~GxDVhCP~M~@jDTOrHKdGE^E~BQnIMhGAxCD~@Df@DVDZd@zBBLDJJNHHHDJBn@HCxAHdAFX@DFj@@b@Ab@SvAe@p@{EnEEB{@w@m@o@aDeDIKCMCM?SL}A","length":47},"routeShortName":"16","routeLongName":"Côte de la Réserve","rentedBike":false,"transitLeg":true,"duration":397.0,"steps":[]},{"startTime":1522682498000,"endTime":1522682499000,"departureDelay":0,"arrivalDelay":0,"realTime":false,"distance":1.043,"pathway":false,"mode":"WALK","route":"","agencyTimeZoneOffset":-14400000,"interlineWithPreviousLeg":false,"from":{"name":"Dréan (no. 374)","stopId":"1:595","stopCode":"595","lon":-71.07937,"lat":48.426243,"arrival":1522682497000,"departure":1522682498000,"zoneId":"NA","stopIndex":9,"stopSequence":10,"vertexType":"TRANSIT"},"to":{"name":"Destination","lon":-71.079418,"lat":48.426234,"arrival":1522682499000,"orig":"","vertexType":"NORMAL"},"legGeometry":{"points":"qgqfHbuypL?B","length":2},"rentedBike":false,"transitLeg":false,"duration":1.0,"steps":[{"distance":1.043,"relativeDirection":"DEPART","streetName":"Rue Dréan","absoluteDirection":"WEST","stayOn":false,"area":false,"bogusName":false,"lon":-71.07937687149986,"lat":48.42633247777537,"elevation":[]}]}],"tooSloped":false}]},"debugOutput":{"precalculationTime":28,"pathCalculationTime":42,"pathTimes":[21,9,11],"renderingTime":0,"totalTime":70,"timedOut":false},"elevationMetadata":{"ellipsoidToGeoidDifference":-28.885904201182168,"geoidElevation":false}}