{"requestParameters":{"date":"2018/04/02","walkSpeed":"1.33","walkReluctance":"2.0","fromPlace":"48.423843,-71.098261","maxWalkDistance":"3000","waitReluctance":"1.0","carSpeed":"33","numItineraries":"3","waitAtBeginningFactor":"0.4","mode":"TRANSIT,WALK","ignoreRealtimeUpdates":"false","stairsReluctance":"2.0","toPlace":"48.423712,-71.089477","time":"7:30:00"},"plan":{"date":1522668600000,"from":{"name":"Origin","lon":-71.098261,"lat":48.423843,"orig":"","vertexType":"NORMAL"},"to":{"name":"Destination","lon":-71.089477,"lat":48.423712,"orig":"","vertexType":"NORMAL"},"itineraries":[{"duration":739,"startTime":1522668600000,"endTime":1522669339000,"walkTime":739,"transitTime":0,"waitingTime":0,"walkDistance":953.34396992036,"walkLimitExceeded":false,"elevationLost":0.0,"elevationGained":0.0,"transfers":0,"legs":[{"startTime":1522668600000,"endTime":1522669339000,"departureDelay":0,"arrivalDelay":0,"realTime":false,"distance":953.2059999999999,"pathway":false,"mode":"WALK","route":"","agencyTimeZoneOffset":-14400000,"interlineWithPreviousLeg":false,"from":{"name":"Origin","lon":-71.098261,"lat":48.423843,"departure":1522668600000,"orig":"","vertexType":"NORMAL"},"to":{"name":"Destination","lon":-71.089477,"lat":48.423712,"arrival":1522669339000,"orig":"","vertexType":"NORMAL"},"legGeometry":{"points":"ixpfH|k}pLeCqB[_AIcGCwASaBi@mES_BG}AL{Bh@sBHUrA}DnAuDoAoAfA_DRi@^eATf@??JPXjBDL","length":23},"rentedBike":false,"transitLeg":false,"duration":739.0,"steps":[{"distance":702.3119999999999,"relativeDirection":"DEPART","streetName":"Rue du Stade","absoluteDirection":"NORTHEAST","stayOn":false,"area":false,"bogusName":false,"lon":-71.09838605129104,"lat":48.42389002128456,"elevation":[]},{"distance":52.592,"relativeDirection":"LEFT","streetName":"Rue Émile Grouard","absoluteDirection":"NORTHEAST","stayOn":false,"area":false,"bogusName":false,"lon":-71.0901108,"lat":48.4240755,"elevation":[]},{"distance":121.227,"relativeDirection":"RIGHT","streetName":"Rue Albanel","absoluteDirection":"SOUTHEAST","stayOn":false,"area":false,"bogusName":false,"lon":-71.089719,"lat":48.42447060000001,"elevation":[]},{"distance":77.075,"relativeDirection":"RIGHT","streetName":"Chemin de la Réserve","absoluteDirection":"SOUTHWEST","stayOn":false,"area":false,"bogusName":false,"lon":-71.0883591,"lat":48.423858900000006,"elevation":[]}]}],"tooSloped":false},{"duration":471,"startTime":1522670159000,"endTime":1522670630000,"walkTime":398,"transitTime":71,"waitingTime":2,"walkDistance":513.8392255609986,"walkLimitExceeded":false,"elevationLost":0.0,"elevationGained":0.0,"transfers":0,"legs":[{"startTime":1522670159000,"endTime":1522670513000,"departureDelay":0,"arrivalDelay":0,"realTime":false,"distance":456.25600000000003,"pathway":false,"mode":"WALK","route":"","agencyTimeZoneOffset":-14400000,"interlineWithPreviousLeg":false,"from":{"name":"Origin","lon":-71.098261,"lat":48.423843,"departure":1522670159000,"orig":"","vertexType":"NORMAL"},"to":{"name":"ch. de la Réserve / Desgagné","stopId":"1:620","stopCode":"620","lon":-71.095984,"lat":48.421433,"arrival":1522670513000,"departure":1522670514000,"zoneId":"NA","stopIndex":25,"stopSequence":26,"vertexType":"TRANSIT"},"legGeometry":{"points":"ixpfH|k}pL|BhBPNp@l@fA_EbAsDf@kBb@uC^o@Xa@LbA","length":11},"rentedBike":false,"transitLeg":false,"duration":354.0,"steps":[{"distance":123.40700000000001,"relativeDirection":"DEPART","streetName":"Rue du Stade","absoluteDirection":"SOUTHWEST","stayOn":false,"area":false,"bogusName":false,"lon":-71.09838605129104,"lat":48.42389002128456,"elevation":[]},{"distance":306.318,"relativeDirection":"LEFT","streetName":"Rue Desgagné","absoluteDirection":"SOUTHEAST","stayOn":false,"area":false,"bogusName":false,"lon":-71.09922230000001,"lat":48.422929,"elevation":[]},{"distance":26.531,"relativeDirection":"RIGHT","streetName":"Chemin de la Réserve","absoluteDirection":"WEST","stayOn":false,"area":false,"bogusName":false,"lon":-71.0956657,"lat":48.421554900000004,"elevation":[]}]},{"startTime":1522670514000,"endTime":1522670585000,"departureDelay":0,"arrivalDelay":0,"realTime":false,"distance":622.8926314863825,"pathway":false,"mode":"BUS","route":"16","agencyName":"Société de Transport du Saguenay","agencyUrl":"http://ville.saguenay.ca/fr/services-aux-citoyens/transport-sts","agencyTimeZoneOffset":-14400000,"routeColor":"00FF00","routeType":3,"routeId":"1:16","routeTextColor":"000000","interlineWithPreviousLeg":false,"tripBlockId":"37","headsign":"Terminus Chicoutimi","agencyId":"0","tripId":"1:218305","serviceDate":"20180402","from":{"name":"ch. de la Réserve / Desgagné","stopId":"1:620","stopCode":"620","lon":-71.095984,"lat":48.421433,"arrival":1522670513000,"departure":1522670514000,"zoneId":"NA","stopIndex":25,"stopSequence":26,"vertexType":"TRANSIT"},"to":{"name":"ch. de la Réserve / Albanel","stopId":"1:623","stopCode":"623","lon":-71.0885,"lat":48.4237,"arrival":1522670585000,"departure":1522670586000,"zoneId":"NA","stopIndex":28,"stopSequence":29,"vertexType":"TRANSIT"},"legGeometry":{"points":"cipfH`}|pLg@aE@wFS}AiAaIgA{B}CiGiBeF","length":8},"routeShortName":"16","routeLongName":"Côte de la Réserve","rentedBike":false,"transitLeg":true,"duration":71.0,"steps":[]},{"startTime":1522670586000,"endTime":1522670630000,"departureDelay":0,"arrivalDelay":0,"realTime":false,"distance":57.493,"pathway":false,"mode":"WALK","route":"","agencyTimeZoneOffset":-14400000,"interlineWithPreviousLeg":false,"from":{"name":"ch. de la Réserve / Albanel","stopId":"1:623","stopCode":"623","lon":-71.0885,"lat":48.4237,"arrival":1522670585000,"departure":1522670586000,"zoneId":"NA","stopIndex":28,"stopSequence":29,"vertexType":"TRANSIT"},"to":{"name":"Destination","lon":-71.089477,"lat":48.423712,"arrival":1522670630000,"orig":"","vertexType":"NORMAL"},"legGeometry":{"points":"kwpfHnn{pLJPXjBDL","length":4},"rentedBike":false,"transitLeg":false,"duration":44.0,"steps":[{"distance":57.493,"relativeDirection":"DEPART","streetName":"Chemin de la Réserve","absoluteDirection":"SOUTHWEST","stayOn":false,"area":false,"bogusName":false,"lon":-71.08855534649012,"lat":48.423740347419006,"elevation":[]}]}],"tooSloped":false},{"duration":471,"startTime":1522671959000,"endTime":1522672430000,"walkTime":398,"transitTime":71,"waitingTime":2,"walkDistance":513.8392255609986,"walkLimitExceeded":false,"elevationLost":0.0,"elevationGained":0.0,"transfers":0,"legs":[{"startTime":1522671959000,"endTime":1522672313000,"departureDelay":0,"arrivalDelay":0,"realTime":false,"distance":456.25600000000003,"pathway":false,"mode":"WALK","route":"","agencyTimeZoneOffset":-14400000,"interlineWithPreviousLeg":false,"from":{"name":"Origin","lon":-71.098261,"lat":48.423843,"departure":1522671959000,"orig":"","vertexType":"NORMAL"},"to":{"name":"ch. de la Réserve / Desgagné","stopId":"1:620","stopCode":"620","lon":-71.095984,"lat":48.421433,"arrival":1522672313000,"departure":1522672314000,"zoneId":"NA","stopIndex":25,"stopSequence":26,"vertexType":"TRANSIT"},"legGeometry":{"points":"ixpfH|k}pL|BhBPNp@l@fA_EbAsDf@kBb@uC^o@Xa@LbA","length":11},"rentedBike":false,"transitLeg":false,"duration":354.0,"steps":[{"distance":123.40700000000001,"relativeDirection":"DEPART","streetName":"Rue du Stade","absoluteDirection":"SOUTHWEST","stayOn":false,"area":false,"bogusName":false,"lon":-71.09838605129104,"lat":48.42389002128456,"elevation":[]},{"distance":306.318,"relativeDirection":"LEFT","streetName":"Rue Desgagné","absoluteDirection":"SOUTHEAST","stayOn":false,"area":false,"bogusName":false,"lon":-71.09922230000001,"lat":48.422929,"elevation":[]},{"distance":26.531,"relativeDirection":"RIGHT","streetName":"Chemin de la Réserve","absoluteDirection":"WEST","stayOn":false,"area":false,"bogusName":false,"lon":-71.0956657,"lat":48.421554900000004,"elevation":[]}]},{"startTime":1522672314000,"endTime":1522672385000,"departureDelay":0,"arrivalDelay":0,"realTime":false,"distance":622.8926314863825,"pathway":false,"mode":"BUS","route":"16","agencyName":"Société de Transport du Saguenay","agencyUrl":"http://ville.saguenay.ca/fr/services-aux-citoyens/transport-sts","agencyTimeZoneOffset":-14400000,"routeColor":"00FF00","routeType":3,"routeId":"1:16","routeTextColor":"000000","interlineWithPreviousLeg":false,"tripBlockId":"34","headsign":"Terminus Chicoutimi","agencyId":"0","tripId":"1:218210","serviceDate":"20180402","from":{"name":"ch. de la Réserve / Desgagné","stopId":"1:620","stopCode":"620","lon":-71.095984,"lat":48.421433,"arrival":1522672313000,"departure":1522672314000,"zoneId":"NA","stopIndex":25,"stopSequence":26,"vertexType":"TRANSIT"},"to":{"name":"ch. de la Réserve / Albanel","stopId":"1:623","stopCode":"623","lon":-71.0885,"lat":48.4237,"arrival":1522672385000,"departure":1522672386000,"zoneId":"NA","stopIndex":28,"stopSequence":29,"vertexType":"TRANSIT"},"legGeometry":{"points":"cipfH`}|pLg@aE@wFS}AiAaIgA{B}CiGiBeF","length":8},"routeShortName":"16","routeLongName":"Côte de la Réserve","rentedBike":false,"transitLeg":true,"duration":71.0,"steps":[]},{"startTime":1522672386000,"endTime":1522672430000,"departureDelay":0,"arrivalDelay":0,"realTime":false,"distance":57.493,"pathway":false,"mode":"WALK","route":"","agencyTimeZoneOffset":-14400000,"interlineWithPreviousLeg":false,"from":{"name":"ch. de la Réserve / Albanel","stopId":"1:623","stopCode":"623","lon":-71.0885,"lat":48.4237,"arrival":1522672385000,"departure":1522672386000,"zoneId":"NA","stopIndex":28,"stopSequence":29,"vertexType":"TRANSIT"},"to":{"name":"Destination","lon":-71.089477,"lat":48.423712,"arrival":1522672430000,"orig":"","vertexType":"NORMAL"},"legGeometry":{"points":"kwpfHnn{pLJPXjBDL","length":4},"rentedBike":false,"transitLeg":false,"duration":44.0,"steps":[{"distance":57.493,"relativeDirection":"DEPART","streetName":"Chemin de la Réserve","absoluteDirection":"SOUTHWEST","stayOn":false,"area":false,"bogusName":false,"lon":-71.08855534649012,"lat":48.423740347419006,"elevation":[]}]}],"tooSloped":false}]},"debugOutput":{"precalculationTime":17,"pathCalculationTime":21,"pathTimes":[5,9,7],"renderingTime":0,"totalTime":38,"timedOut":false},"elevationMetadata":{"ellipsoidToGeoidDifference":-28.885904201182168,"geoidElevation":false}}