{"requestParameters":{"date":"2018/04/02","walkSpeed":"1.33","walkReluctance":"2.0","fromPlace":"48.394631,-71.073569","maxWalkDistance":"3000","waitReluctance":"1.0","carSpeed":"33","numItineraries":"3","waitAtBeginningFactor":"0.4","mode":"TRANSIT,WALK","ignoreRealtimeUpdates":"false","stairsReluctance":"2.0","toPlace":"48.42303,-71.100724","time":"14:50:00"},"plan":{"date":1522695000000,"from":{"name":"Origin","lon":-71.073569,"lat":48.394631,"orig":"","vertexType":"NORMAL"},"to":{"name":"Destination","lon":-71.100724,"lat":48.42303,"orig":"","vertexType":"NORMAL"},"itineraries":[{"duration":1810,"startTime":1522697028000,"endTime":1522698838000,"walkTime":1507,"transitTime":301,"waitingTime":2,"walkDistance":1947.4463909691704,"walkLimitExceeded":false,"elevationLost":0.0,"elevationGained":0.0,"transfers":0,"legs":[{"startTime":1522697028000,"endTime":1522697342000,"departureDelay":0,"arrivalDelay":0,"realTime":false,"distance":400.38700000000006,"pathway":false,"mode":"WALK","route":"","agencyTimeZoneOffset":-14400000,"interlineWithPreviousLeg":false,"from":{"name":"Origin","lon":-71.073569,"lat":48.394631,"departure":1522697028000,"orig":"","vertexType":"NORMAL"},"to":{"name":"boul. Barrette / Cent Associés","stopId":"1:1596","stopCode":"1596","lon":-71.07741,"lat":48.396946,"arrival":1522697342000,"departure":1522697343000,"zoneId":"NA","stopIndex":10,"stopSequence":11,"vertexType":"TRANSIT"},"legGeometry":{"points":"cdkfHbnxpLk@~Ak@dBoA~EmAxEg@jBGIWS[fAWdA","length":10},"rentedBike":false,"transitLeg":false,"duration":314.0,"steps":[{"distance":319.26800000000003,"relativeDirection":"DEPART","streetName":"bike path","absoluteDirection":"NORTHWEST","stayOn":false,"area":false,"bogusName":false,"lon":-71.07313078418363,"lat":48.395062296987234,"elevation":[]},{"distance":20.795,"relativeDirection":"RIGHT","streetName":"path","absoluteDirection":"NORTHEAST","stayOn":false,"area":false,"bogusName":true,"lon":-71.0768749,"lat":48.396494000000004,"elevation":[]},{"distance":60.324,"relativeDirection":"LEFT","streetName":"Boulevard Barrette","absoluteDirection":"NORTHWEST","stayOn":false,"area":false,"bogusName":false,"lon":-71.07672170000001,"lat":48.396650900000004,"elevation":[]}]},{"startTime":1522697343000,"endTime":1522697644000,"departureDelay":0,"arrivalDelay":0,"realTime":false,"distance":2925.702413537367,"pathway":false,"mode":"BUS","route":"211S","agencyName":"Société de Transport du Saguenay","agencyUrl":"http://ville.saguenay.ca/fr/services-aux-citoyens/transport-sts","agencyTimeZoneOffset":-14400000,"routeColor":"8B0000","routeType":3,"routeId":"1:211S","routeTextColor":"FFFFFF","interlineWithPreviousLeg":false,"tripBlockId":"104","headsign":"Faubourg Sagamie","agencyId":"0","tripId":"1:218800","serviceDate":"20180402","from":{"name":"boul. Barrette / Cent Associés","stopId":"1:1596","stopCode":"1596","lon":-71.07741,"lat":48.396946,"arrival":1522697342000,"departure":1522697343000,"zoneId":"NA","stopIndex":10,"stopSequence":11,"vertexType":"TRANSIT"},"to":{"name":"boul. Barrette / ch. de la Réserve","stopId":"1:1867","stopCode":"1867","lon":-71.107402,"lat":48.412751,"arrival":1522697644000,"departure":1522697645000,"zoneId":"NA","stopIndex":18,"stopSequence":19,"vertexType":"TRANSIT"},"legGeometry":{"points":"ookfHbiypLoEfQcEbPcBrIuGf\\}BbLe@bB?La@hAwGhQsBrFQJ[t@mAbDAVUn@w@tBkAfDo@xBcA|Dk@`CI^e@dB_@fAi@pAg@dAm@|@s@~@o@l@m@j@s@f@u@`@{ZhN","length":33},"routeShortName":"211S","routeLongName":"Séminaire - Arvida / Kénogami","rentedBike":false,"transitLeg":true,"duration":301.0,"steps":[]},{"startTime":1522697645000,"endTime":1522698838000,"departureDelay":0,"arrivalDelay":0,"realTime":false,"distance":1546.8030000000003,"pathway":false,"mode":"WALK","route":"","agencyTimeZoneOffset":-14400000,"interlineWithPreviousLeg":false,"from":{"name":"boul. Barrette / ch. de la Réserve","stopId":"1:1867","stopCode":"1867","lon":-71.107402,"lat":48.412751,"arrival":1522697644000,"departure":1522697645000,"zoneId":"NA","stopIndex":18,"stopSequence":19,"vertexType":"TRANSIT"},"to":{"name":"Destination","lon":-71.100724,"lat":48.42303,"arrival":1522698838000,"orig":"","vertexType":"NORMAL"},"legGeometry":{"points":"qrnfHxd_qL}Ar@y@qHC[Kq@KcBWmBs@uB_AsAmByBAAsB_CyBoCa@e@e@a@_@We@g@oByAsAOsAMaBg@wAa@c@zAa@vA[fAaAr@wAU_BuA_A{@kAcAeAhD{@u@iC_C","length":33},"rentedBike":false,"transitLeg":false,"duration":1193.0,"steps":[{"distance":55.913,"relativeDirection":"DEPART","streetName":"Boulevard Barrette","absoluteDirection":"NORTH","stayOn":false,"area":false,"bogusName":false,"lon":-71.10748944047016,"lat":48.4127301279674,"elevation":[]},{"distance":936.043,"relativeDirection":"RIGHT","streetName":"Chemin de la Réserve","absoluteDirection":"EAST","stayOn":false,"area":false,"bogusName":false,"lon":-71.1077458,"lat":48.413203300000006,"elevation":[]},{"distance":351.85299999999995,"relativeDirection":"LEFT","streetName":"Rue du Stade","absoluteDirection":"NORTHWEST","stayOn":false,"area":false,"bogusName":false,"lon":-71.10013090000001,"lat":48.4191238,"elevation":[]},{"distance":74.219,"relativeDirection":"LEFT","streetName":"Rue Dutil","absoluteDirection":"NORTHWEST","stayOn":false,"area":false,"bogusName":false,"lon":-71.10047440000001,"lat":48.421560400000004,"elevation":[]},{"distance":128.775,"relativeDirection":"RIGHT","streetName":"Rue Rioux","absoluteDirection":"NORTHEAST","stayOn":false,"area":false,"bogusName":false,"lon":-71.10132630000001,"lat":48.4219152,"elevation":[]}]}],"tooSloped":false},{"duration":2802,"startTime":1522696226000,"endTime":1522699028000,"walkTime":19,"transitTime":2361,"waitingTime":422,"walkDistance":24.744,"walkLimitExceeded":false,"elevationLost":0.0,"elevationGained":0.0,"transfers":1,"legs":[{"startTime":1522696226000,"endTime":1522696238000,"departureDelay":0,"arrivalDelay":0,"realTime":false,"distance":15.551,"pathway":false,"mode":"WALK","route":"","agencyTimeZoneOffset":-14400000,"interlineWithPreviousLeg":false,"from":{"name":"Origin","lon":-71.073569,"lat":48.394631,"departure":1522696226000,"orig":"","vertexType":"NORMAL"},"to":{"name":"Maxi - boulevard Barrette","stopId":"1:88","stopCode":"88","lon":-71.07294,"lat":48.395,"arrival":1522696238000,"departure":1522696239000,"zoneId":"NA","stopIndex":34,"stopSequence":35,"vertexType":"TRANSIT"},"legGeometry":{"points":"cdkfHbnxpLNc@","length":2},"rentedBike":false,"transitLeg":false,"duration":12.0,"steps":[{"distance":15.551,"relativeDirection":"DEPART","streetName":"bike path","absoluteDirection":"SOUTHEAST","stayOn":false,"area":false,"bogusName":false,"lon":-71.07313078418363,"lat":48.395062296987234,"elevation":[]}]},{"startTime":1522696239000,"endTime":1522696260000,"departureDelay":0,"arrivalDelay":0,"realTime":false,"distance":308.52410100423333,"pathway":false,"mode":"BUS","route":"14","agencyName":"Société de Transport du Saguenay","agencyUrl":"http://ville.saguenay.ca/fr/services-aux-citoyens/transport-sts","agencyTimeZoneOffset":-14400000,"routeColor":"C0C000","routeType":3,"routeId":"1:14","routeTextColor":"000000","interlineWithPreviousLeg":false,"tripBlockId":"30","headsign":"Talbot / Barrette","agencyId":"0","tripId":"1:218103","serviceDate":"20180402","from":{"name":"Maxi - boulevard Barrette","stopId":"1:88","stopCode":"88","lon":-71.07294,"lat":48.395,"arrival":1522696238000,"departure":1522696239000,"zoneId":"NA","stopIndex":34,"stopSequence":35,"vertexType":"TRANSIT"},"to":{"name":"Roitelets / Sapins","stopId":"1:1543","stopCode":"1543","lon":-71.069553,"lat":48.393375,"arrival":1522696260000,"departure":1522696260000,"zoneId":"NA","stopIndex":35,"stopSequence":36,"vertexType":"TRANSIT"},"legGeometry":{"points":"_dkfHplxpLvH_SLa@","length":3},"routeShortName":"14","routeLongName":"Coopérative","rentedBike":false,"transitLeg":true,"duration":21.0,"steps":[]},{"startTime":1522696260000,"endTime":1522697880000,"departureDelay":0,"arrivalDelay":0,"realTime":false,"distance":9172.482542384352,"pathway":false,"mode":"BUS","route":"15","agencyName":"Société de Transport du Saguenay","agencyUrl":"http://ville.saguenay.ca/fr/services-aux-citoyens/transport-sts","agencyTimeZoneOffset":-14400000,"routeColor":"FF00FF","routeType":3,"routeId":"1:15","routeTextColor":"FFFFFF","interlineWithPreviousLeg":true,"tripBlockId":"30","headsign":"Terminus Chicoutimi","agencyId":"0","tripId":"1:218104","serviceDate":"20180402","from":{"name":"Roitelets / Sapins","stopId":"1:1543","stopCode":"1543","lon":-71.069553,"lat":48.393375,"arrival":1522696260000,"departure":1522696260000,"zoneId":"NA","stopIndex":0,"stopSequence":1,"vertexType":"TRANSIT"},"to":{"name":"Terminus Chicoutimi","stopId":"1:1289","stopCode":"1289","lon":-71.066163,"lat":48.428677,"arrival":1522697880000,"departure":1522698300000,"zoneId":"NA","stopIndex":39,"stopSequence":40,"vertexType":"TRANSIT"},"legGeometry":{"points":"_zjfHfwwpLx@}BHa@NaADq@@y@Cy@I{@Ka@O[Sg@c@mAWwAMyA?EC]?wABuABmFB{@BmDFuH@i@F[FsC@c@TuGEGVsHPuDLuBXsFDoA?W@]Cu@GcAKu@Q_ASo@a@y@a@o@MOUUeCqBiDsDqE{EiAcAcB_AqBgA_AQaBSaBG_@Bu@FG?h@fNKnDpCfBkAzDgA}@y@q@sDy@GAeGT~@~KKrKyAnL[hBUxAm@nCcAlDeCvGmA|CUr@}@~A_@\\_DvCEZcA|@UP_@d@Yl@oBdFeCxG_CfGYVQXS\\dK|HlFZbC\\p@zA\\rB@hBiArG{BNw@FiG}@iDwAECcCcBo@y@sEeGe@o@qAa@m@MoB?C@}BZwAc@oA_Bs@gDCKZ{Di@QECc@_@sAkAoBwB_EcE{A_BoAmAk@o@cCaCkIkIaJaJUUwBaCj@wCjAsCzGoG_CoHL{D_@kAqD{CQr@iAcAy@w@L{@wAuA_B_B_EpLDh@NbBVvCIxBg@`Am@l@Sb@a@rAqDqDmEkE]a@kAqAU|@WnKG|DGxDOdPKvJU|F?XQlJC~@ChAIzEcCOaIi@VwL","length":170},"routeShortName":"15","routeLongName":"Term. Chic / Costco","rentedBike":false,"transitLeg":true,"duration":1620.0,"steps":[]},{"startTime":1522698300000,"endTime":1522699020000,"departureDelay":0,"arrivalDelay":0,"realTime":false,"distance":4440.510942259597,"pathway":false,"mode":"BUS","route":"16","agencyName":"Société de Transport du Saguenay","agencyUrl":"http://ville.saguenay.ca/fr/services-aux-citoyens/transport-sts","agencyTimeZoneOffset":-14400000,"routeColor":"00FF00","routeType":3,"routeId":"1:16","routeTextColor":"000000","interlineWithPreviousLeg":false,"tripBlockId":"34","headsign":"Faubourg Sagamie","agencyId":"0","tripId":"1:218225","serviceDate":"20180402","from":{"name":"Terminus Chicoutimi","stopId":"1:1289","stopCode":"1289","lon":-71.066163,"lat":48.428677,"arrival":1522697880000,"departure":1522698300000,"zoneId":"NA","stopIndex":0,"stopSequence":1,"vertexType":"TRANSIT"},"to":{"name":"Rioux / Desgagné","stopId":"1:609","stopCode":"609","lon":-71.100439,"lat":48.42301,"arrival":1522699020000,"departure":1522699021000,"zoneId":"NA","stopIndex":23,"stopSequence":24,"vertexType":"TRANSIT"},"legGeometry":{"points":"evqfHzcwpLg@?AXCnAO~GxDVhCP~M~@jDTOrHKdGE^E~BQnIMhGAxCD~@Df@DVDZd@zBBLDJJNHHHDJBn@HCxAHdAFX@DFj@@b@Ab@SvAe@p@{EnEEB{@w@m@o@aDeDIKCMCM?SL}A?A@WCYi@mDOu@Wm@EIMSSWaAcAuAcBq@f@URa@d@u@`A}BzCV`DX~C@HFT^v@bA|AZ^`Av@\\`@Zf@pAvCtD`JJTrAtCpAjC@BvA|CvA~Ci@zAqD`KyDrKyF|Og@tAr@r@h@^jA\\\\Nt@\\PHf@RVDXEROR[p@iBr@uBJQLIDCNEr@lERbBFzA@LFbFN`A^r@bB|AlC`BDBz@t@eAjD|@x@","length":116},"routeShortName":"16","routeLongName":"Côte de la Réserve","rentedBike":false,"transitLeg":true,"duration":720.0,"steps":[]},{"startTime":1522699021000,"endTime":1522699028000,"departureDelay":0,"arrivalDelay":0,"realTime":false,"distance":9.193,"pathway":false,"mode":"WALK","route":"","agencyTimeZoneOffset":-14400000,"interlineWithPreviousLeg":false,"from":{"name":"Rioux / Desgagné","stopId":"1:609","stopCode":"609","lon":-71.100439,"lat":48.42301,"arrival":1522699020000,"departure":1522699021000,"zoneId":"NA","stopIndex":23,"stopSequence":24,"vertexType":"TRANSIT"},"to":{"name":"Destination","lon":-71.100724,"lat":48.42303,"arrival":1522699028000,"orig":"","vertexType":"NORMAL"},"legGeometry":{"points":"qrpfHdx}pLLL","length":2},"rentedBike":false,"transitLeg":false,"duration":7.0,"steps":[{"distance":9.193,"relativeDirection":"DEPART","streetName":"Rue Rioux","absoluteDirection":"SOUTHWEST","stayOn":false,"area":false,"bogusName":false,"lon":-71.10034784478613,"lat":48.42297248541416,"elevation":[]}]}],"tooSloped":false},{"duration":2802,"startTime":1522698026000,"endTime":1522700828000,"walkTime":22,"transitTime":2222,"waitingTime":558,"walkDistance":24.968,"walkLimitExceeded":false,"elevationLost":0.0,"elevationGained":0.0,"transfers":1,"legs":[{"startTime":1522698026000,"endTime":1522698038000,"departureDelay":0,"arrivalDelay":0,"realTime":false,"distance":15.551,"pathway":false,"mode":"WALK","route":"","agencyTimeZoneOffset":-14400000,"interlineWithPreviousLeg":false,"from":{"name":"Origin","lon":-71.073569,"lat":48.394631,"departure":1522698026000,"orig":"","vertexType":"NORMAL"},"to":{"name":"Maxi - boulevard Barrette","stopId":"1:88","stopCode":"88","lon":-71.07294,"lat":48.395,"arrival":1522698038000,"departure":1522698039000,"zoneId":"NA","stopIndex":34,"stopSequence":35,"vertexType":"TRANSIT"},"legGeometry":{"points":"cdkfHbnxpLNc@","length":2},"rentedBike":false,"transitLeg":false,"duration":12.0,"steps":[{"distance":15.551,"relativeDirection":"DEPART","streetName":"bike path","absoluteDirection":"SOUTHEAST","stayOn":false,"area":false,"bogusName":false,"lon":-71.07313078418363,"lat":48.395062296987234,"elevation":[]}]},{"startTime":1522698039000,"endTime":1522698060000,"departureDelay":0,"arrivalDelay":0,"realTime":false,"distance":308.52410100423333,"pathway":false,"mode":"BUS","route":"14","agencyName":"Société de Transport du Saguenay","agencyUrl":"http://ville.saguenay.ca/fr/services-aux-citoyens/transport-sts","agencyTimeZoneOffset":-14400000,"routeColor":"C0C000","routeType":3,"routeId":"1:14","routeTextColor":"000000","interlineWithPreviousLeg":false,"tripBlockId":"32","headsign":"Talbot / Barrette","agencyId":"0","tripId":"1:218164","serviceDate":"20180402","from":{"name":"Maxi - boulevard Barrette","stopId":"1:88","stopCode":"88","lon":-71.07294,"lat":48.395,"arrival":1522698038000,"departure":1522698039000,"zoneId":"NA","stopIndex":34,"stopSequence":35,"vertexType":"TRANSIT"},"to":{"name":"Roitelets / Sapins","stopId":"1:1543","stopCode":"1543","lon":-71.069553,"lat":48.393375,"arrival":1522698060000,"departure":1522698060000,"zoneId":"NA","stopIndex":35,"stopSequence":36,"vertexType":"TRANSIT"},"legGeometry":{"points":"_dkfHplxpLvH_SLa@","length":3},"routeShortName":"14","routeLongName":"Coopérative","rentedBike":false,"transitLeg":true,"duration":21.0,"steps":[]},{"startTime":1522698060000,"endTime":1522699620000,"departureDelay":0,"arrivalDelay":0,"realTime":false,"distance":8950.042524689545,"pathway":false,"mode":"BUS","route":"15","agencyName":"Société de Transport du Saguenay","agencyUrl":"http://ville.saguenay.ca/fr/services-aux-citoyens/transport-sts","agencyTimeZoneOffset":-14400000,"routeColor":"FF00FF","routeType":3,"routeId":"1:15","routeTextColor":"FFFFFF","interlineWithPreviousLeg":true,"tripBlockId":"32","headsign":"Terminus Chicoutimi","agencyId":"0","tripId":"1:218165","serviceDate":"20180402","from":{"name":"Roitelets / Sapins","stopId":"1:1543","stopCode":"1543","lon":-71.069553,"lat":48.393375,"arrival":1522698060000,"departure":1522698060000,"zoneId":"NA","stopIndex":0,"stopSequence":1,"vertexType":"TRANSIT"},"to":{"name":"Sainte-Anne / Racine","stopId":"1:558","stopCode":"558","lon":-71.068444,"lat":48.427369,"arrival":1522699620000,"departure":1522699620000,"zoneId":"NA","stopIndex":38,"stopSequence":39,"vertexType":"TRANSIT"},"legGeometry":{"points":"_zjfHfwwpLx@}BHa@NaADq@@y@Cy@I{@Ka@O[Sg@c@mAWwAMyA?EC]?wABuABmFB{@BmDFuH@i@F[FsC@c@TuGEGVsHPuDLuBXsFDoA?W@]Cu@GcAKu@Q_ASo@a@y@a@o@MOUUeCqBiDsDqE{EiAcAcB_AqBgA_AQaBSaBG_@Bu@FG?h@fNKnDpCfBkAzDgA}@y@q@sDy@GAeGT~@~KKrKyAnL[hBUxAm@nCcAlDeCvGmA|CUr@}@~A_@\\_DvCEZcA|@UP_@d@Yl@oBdFeCxG_CfGYVQXS\\dK|HlFZbC\\p@zA\\rB@hBiArG{BNw@FiG}@iDwAECcCcBo@y@sEeGe@o@qAa@m@MoB?C@}BZwAc@oA_Bs@gDCKZ{Di@QECc@_@sAkAoBwB_EcE{A_BoAmAk@o@cCaCkIkIaJaJUUwBaCj@wCjAsCzGoG_CoHL{D_@kAqD{CQr@iAcAy@w@L{@wAuA_B_B_EpLDh@NbBVvCIxBg@`Am@l@Sb@a@rAqDqDmEkE]a@kAqAU|@WnKG|DGxDOdPKvJU|F?XQlJC~@ChAIzEcCO","length":168},"routeShortName":"15","routeLongName":"Term. Chic / Costco","rentedBike":false,"transitLeg":true,"duration":1560.0,"steps":[]},{"startTime":1522699620000,"endTime":1522699623000,"departureDelay":0,"arrivalDelay":0,"realTime":false,"distance":0.224,"pathway":false,"mode":"WALK","route":"","agencyTimeZoneOffset":-14400000,"interlineWithPreviousLeg":false,"from":{"name":"Sainte-Anne / Racine","stopId":"1:558","stopCode":"558","lon":-71.068444,"lat":48.427369,"arrival":1522699620000,"departure":1522699620000,"zoneId":"NA","stopIndex":38,"stopSequence":39,"vertexType":"TRANSIT"},"to":{"name":"Sainte-Anne / Jacques-Cartier","stopId":"1:413","stopCode":"413","lon":-71.068639,"lat":48.427373,"arrival":1522699623000,"departure":1522700179000,"zoneId":"NA","stopIndex":1,"stopSequence":2,"vertexType":"TRANSIT"},"legGeometry":{"points":"anqfHhqwpL@?","length":2},"rentedBike":false,"transitLeg":false,"duration":3.0,"steps":[{"distance":0.224,"relativeDirection":"DEPART","streetName":"Rue Sainte-Anne","absoluteDirection":"SOUTH","stayOn":false,"area":false,"bogusName":false,"lon":-71.06852127104082,"lat":48.427371387668245,"elevation":[]}]},{"startTime":1522700179000,"endTime":1522700820000,"departureDelay":0,"arrivalDelay":0,"realTime":false,"distance":4207.271845793127,"pathway":false,"mode":"BUS","route":"16","agencyName":"Société de Transport du Saguenay","agencyUrl":"http://ville.saguenay.ca/fr/services-aux-citoyens/transport-sts","agencyTimeZoneOffset":-14400000,"routeColor":"00FF00","routeType":3,"routeId":"1:16","routeTextColor":"000000","interlineWithPreviousLeg":false,"tripBlockId":"36","headsign":"Faubourg Sagamie","agencyId":"0","tripId":"1:218296","serviceDate":"20180402","from":{"name":"Sainte-Anne / Jacques-Cartier","stopId":"1:413","stopCode":"413","lon":-71.068639,"lat":48.427373,"arrival":1522699623000,"departure":1522700179000,"zoneId":"NA","stopIndex":1,"stopSequence":2,"vertexType":"TRANSIT"},"to":{"name":"Rioux / Desgagné","stopId":"1:609","stopCode":"609","lon":-71.100439,"lat":48.42301,"arrival":1522700820000,"departure":1522700821000,"zoneId":"NA","stopIndex":23,"stopSequence":24,"vertexType":"TRANSIT"},"legGeometry":{"points":"_nqfHnqwpL~M~@jDTOrHKdGE^E~BQnIMhGAxCD~@Df@DVDZd@zBBLDJJNHHHDJBn@HCxAHdAFX@DFj@@b@Ab@SvAe@p@{EnEEB{@w@m@o@aDeDIKCMCM?SL}A?A@WCYi@mDOu@Wm@EIMSSWaAcAuAcBq@f@URa@d@u@`A}BzCV`DX~C@HFT^v@bA|AZ^`Av@\\`@Zf@pAvCtD`JJTrAtCpAjC@BvA|CvA~Ci@zAqD`KyDrKyF|Og@tAr@r@h@^jA\\\\Nt@\\PHf@RVDXEROR[p@iBr@uBJQLIDCNEr@lERbBFzA@LFbFN`A^r@bB|AlC`BDBz@t@eAjD|@x@","length":110},"routeShortName":"16","routeLongName":"Côte de la Réserve","rentedBike":false,"transitLeg":true,"duration":641.0,"steps":[]},{"startTime":1522700821000,"endTime":1522700828000,"departureDelay":0,"arrivalDelay":0,"realTime":false,"distance":9.193,"pathway":false,"mode":"WALK","route":"","agencyTimeZoneOffset":-14400000,"interlineWithPreviousLeg":false,"from":{"name":"Rioux / Desgagné","stopId":"1:609","stopCode":"609","lon":-71.100439,"lat":48.42301,"arrival":1522700820000,"departure":1522700821000,"zoneId":"NA","stopIndex":23,"stopSequence":24,"vertexType":"TRANSIT"},"to":{"name":"Destination","lon":-71.100724,"lat":48.42303,"arrival":1522700828000,"orig":"","vertexType":"NORMAL"},"legGeometry":{"points":"qrpfHdx}pLLL","length":2},"rentedBike":false,"transitLeg":false,"duration":7.0,"steps":[{"distance":9.193,"relativeDirection":"DEPART","streetName":"Rue Rioux","absoluteDirection":"SOUTHWEST","stayOn":false,"area":false,"bogusName":false,"lon":-71.10034784478613,"lat":48.42297248541416,"elevation":[]}]}],"tooSloped":false}]},"debugOutput":{"precalculationTime":14,"pathCalculationTime":38,"pathTimes":[19,8,11],"renderingTime":0,"totalTime":52,"timedOut":false},"elevationMetadata":{"ellipsoidToGeoidDifference":-28.885904201182168,"geoidElevation":false}}