{"requestParameters":{"date":"2018/04/02","walkSpeed":"1.33","walkReluctance":"2.0","fromPlace":"48.42303,-71.100724","maxWalkDistance":"3000","waitReluctance":"1.0","carSpeed":"33","numItineraries":"3","waitAtBeginningFactor":"0.4","mode":"TRANSIT,WALK","ignoreRealtimeUpdates":"false","stairsReluctance":"2.0","toPlace":"48.394631,-71.073569","time":"13:45:00"},"plan":{"date":1522691100000,"from":{"name":"Origin","lon":-71.100724,"lat":48.42303,"orig":"","vertexType":"NORMAL"},"to":{"name":"Destination","lon":-71.073569,"lat":48.394631,"orig":"","vertexType":"NORMAL"},"itineraries":[{"duration":2691,"startTime":1522691761000,"endTime":1522694452000,"walkTime":364,"transitTime":2085,"waitingTime":242,"walkDistance":467.7534736813235,"walkLimitExceeded":false,"elevationLost":0.0,"elevationGained":0.0,"transfers":1,"legs":[{"startTime":1522691761000,"endTime":1522692113000,"departureDelay":0,"arrivalDelay":0,"realTime":false,"distance":452.11300000000006,"pathway":false,"mode":"WALK","route":"","agencyTimeZoneOffset":-14400000,"interlineWithPreviousLeg":false,"from":{"name":"Origin","lon":-71.100724,"lat":48.42303,"departure":1522691761000,"orig":"","vertexType":"NORMAL"},"to":{"name":"ch. de la Réserve / Desgagné","stopId":"1:620","stopCode":"620","lon":-71.095984,"lat":48.421433,"arrival":1522692113000,"departure":1522692114000,"zoneId":"NA","stopIndex":25,"stopSequence":26,"vertexType":"TRANSIT"},"legGeometry":{"points":"crpfHrx}pLMMw@s@`AkDfA_EbAsDf@kBb@uC^o@Xa@LbA","length":11},"rentedBike":false,"transitLeg":false,"duration":352.0,"steps":[{"distance":46.079,"relativeDirection":"DEPART","streetName":"Rue Rioux","absoluteDirection":"NORTHEAST","stayOn":false,"area":false,"bogusName":false,"lon":-71.10041350823377,"lat":48.42290221838052,"elevation":[]},{"distance":379.50300000000004,"relativeDirection":"RIGHT","streetName":"Rue Desgagné","absoluteDirection":"SOUTHEAST","stayOn":false,"area":false,"bogusName":false,"lon":-71.1000844,"lat":48.423254400000005,"elevation":[]},{"distance":26.531,"relativeDirection":"RIGHT","streetName":"Chemin de la Réserve","absoluteDirection":"WEST","stayOn":false,"area":false,"bogusName":false,"lon":-71.0956657,"lat":48.421554900000004,"elevation":[]}]},{"startTime":1522692114000,"endTime":1522692660000,"departureDelay":0,"arrivalDelay":0,"realTime":false,"distance":2783.1092542197985,"pathway":false,"mode":"BUS","route":"16","agencyName":"Société de Transport du Saguenay","agencyUrl":"http://ville.saguenay.ca/fr/services-aux-citoyens/transport-sts","agencyTimeZoneOffset":-14400000,"routeColor":"00FF00","routeType":3,"routeId":"1:16","routeTextColor":"000000","interlineWithPreviousLeg":false,"tripBlockId":"37","headsign":"Terminus Chicoutimi","agencyId":"0","tripId":"1:218317","serviceDate":"20180402","from":{"name":"ch. de la Réserve / Desgagné","stopId":"1:620","stopCode":"620","lon":-71.095984,"lat":48.421433,"arrival":1522692113000,"departure":1522692114000,"zoneId":"NA","stopIndex":25,"stopSequence":26,"vertexType":"TRANSIT"},"to":{"name":"Terminus Chicoutimi","stopId":"1:1289","stopCode":"1289","lon":-71.066163,"lat":48.428677,"arrival":1522692660000,"departure":1522692900000,"zoneId":"NA","stopIndex":35,"stopSequence":36,"vertexType":"TRANSIT"},"legGeometry":{"points":"cipfH`}|pLg@aE@wFS}AiAaIgA{B}CiGiBeFqBsFQ_@wA_DyAaD_AoBQ[sAuC{@sBeCcGqAwC[g@]a@aAw@[_@cA}A_@w@GU[iDWaDzByCv@cA`@e@TSp@g@nAo@nBm@ZSf@c@PMb@[b@_@b@e@PYP]N_@La@P{@NcB@IBcAG_A{@sEEg@oAP}@DiBDFeBMa@iBCq@FmBPFcEDoBNiHyDWN_HBoA@Y@m@","length":67},"routeShortName":"16","routeLongName":"Côte de la Réserve","rentedBike":false,"transitLeg":true,"duration":546.0,"steps":[]},{"startTime":1522692900000,"endTime":1522694439000,"departureDelay":0,"arrivalDelay":0,"realTime":false,"distance":9137.496996778586,"pathway":false,"mode":"BUS","route":"14","agencyName":"Société de Transport du Saguenay","agencyUrl":"http://ville.saguenay.ca/fr/services-aux-citoyens/transport-sts","agencyTimeZoneOffset":-14400000,"routeColor":"C0C000","routeType":3,"routeId":"1:14","routeTextColor":"000000","interlineWithPreviousLeg":false,"tripBlockId":"32","headsign":"Talbot / Barrette","agencyId":"0","tripId":"1:218162","serviceDate":"20180402","from":{"name":"Terminus Chicoutimi","stopId":"1:1289","stopCode":"1289","lon":-71.066163,"lat":48.428677,"arrival":1522692660000,"departure":1522692900000,"zoneId":"NA","stopIndex":0,"stopSequence":1,"vertexType":"TRANSIT"},"to":{"name":"Maxi - boulevard Barrette","stopId":"1:88","stopCode":"88","lon":-71.07294,"lat":48.395,"arrival":1522694439000,"departure":1522694440000,"zoneId":"NA","stopIndex":34,"stopSequence":35,"vertexType":"TRANSIT"},"legGeometry":{"points":"qvqfHnbwpLJkClLh@DsDTmSHwFB{I@m@@eBH_AF}A@w@Dq@@i@B}B@Y@e@D]F_@@SHQCKnBnBvIrIn@n@\\iATg@v@_ATg@LmABg@Is@c@iEAm@bAcDTcAtA{DJI|AxAvAvAQv@~@z@dA`ATq@`E~DL`@E`Ex@hDd@`B}FtFaAzAm@xAe@jCa@nDiAbm@SpKM`H]vBhDVzCTcAvCO^bEbEzK`LfBeEtK`KhAdAnCbCvBpCNR~BxAxBf@z@h@vAz@z@{DrCoITTlElEtAnB`@l@pFrD@?fDr@XgAjFuR\\yADm@b@gFd@_B`A}@tEvJBDvC`FtJ|LLNlClC|@^hCYVExCjCb@d@vE`F`BhB?pHaBhRqAbLK~@qBxFqB|FcC~GyC\\aDkDcFsF~CgOtGm[j@oCvEoSl@_CxCmLjAeFpCeKrByHfAqC","length":123},"routeShortName":"14","routeLongName":"Coopérative","rentedBike":false,"transitLeg":true,"duration":1539.0,"steps":[]},{"startTime":1522694440000,"endTime":1522694452000,"departureDelay":0,"arrivalDelay":0,"realTime":false,"distance":15.551,"pathway":false,"mode":"WALK","route":"","agencyTimeZoneOffset":-14400000,"interlineWithPreviousLeg":false,"from":{"name":"Maxi - boulevard Barrette","stopId":"1:88","stopCode":"88","lon":-71.07294,"lat":48.395,"arrival":1522694439000,"departure":1522694440000,"zoneId":"NA","stopIndex":34,"stopSequence":35,"vertexType":"TRANSIT"},"to":{"name":"Destination","lon":-71.073569,"lat":48.394631,"arrival":1522694452000,"orig":"","vertexType":"NORMAL"},"legGeometry":{"points":"sckfH~lxpLOb@","length":2},"rentedBike":false,"transitLeg":false,"duration":12.0,"steps":[{"distance":15.551,"relativeDirection":"DEPART","streetName":"bike path","absoluteDirection":"NORTHWEST","stayOn":false,"area":false,"bogusName":false,"lon":-71.072956176549,"lat":48.39498407908756,"elevation":[]}]}],"tooSloped":false},{"duration":3513,"startTime":1522691812000,"endTime":1522695325000,"walkTime":271,"transitTime":2280,"waitingTime":962,"walkDistance":351.2949624048869,"walkLimitExceeded":false,"elevationLost":0.0,"elevationGained":0.0,"transfers":1,"legs":[{"startTime":1522691812000,"endTime":1522691819000,"departureDelay":0,"arrivalDelay":0,"realTime":false,"distance":9.193,"pathway":false,"mode":"WALK","route":"","agencyTimeZoneOffset":-14400000,"interlineWithPreviousLeg":false,"from":{"name":"Origin","lon":-71.100724,"lat":48.42303,"departure":1522691812000,"orig":"","vertexType":"NORMAL"},"to":{"name":"Rioux / Desgagné","stopId":"1:609","stopCode":"609","lon":-71.100439,"lat":48.42301,"arrival":1522691819000,"departure":1522691820000,"zoneId":"NA","stopIndex":23,"stopSequence":24,"vertexType":"TRANSIT"},"legGeometry":{"points":"crpfHrx}pLMM","length":2},"rentedBike":false,"transitLeg":false,"duration":7.0,"steps":[{"distance":9.193,"relativeDirection":"DEPART","streetName":"Rue Rioux","absoluteDirection":"NORTHEAST","stayOn":false,"area":false,"bogusName":false,"lon":-71.10041350823377,"lat":48.42290221838052,"elevation":[]}]},{"startTime":1522691820000,"endTime":1522692900000,"departureDelay":0,"arrivalDelay":0,"realTime":false,"distance":6502.986639253124,"pathway":false,"mode":"BUS","route":"16","agencyName":"Société de Transport du Saguenay","agencyUrl":"http://ville.saguenay.ca/fr/services-aux-citoyens/transport-sts","agencyTimeZoneOffset":-14400000,"routeColor":"00FF00","routeType":3,"routeId":"1:16","routeTextColor":"000000","interlineWithPreviousLeg":false,"tripBlockId":"34","headsign":"Faubourg Sagamie","agencyId":"0","tripId":"1:218221","serviceDate":"20180402","from":{"name":"Rioux / Desgagné","stopId":"1:609","stopCode":"609","lon":-71.100439,"lat":48.42301,"arrival":1522691819000,"departure":1522691820000,"zoneId":"NA","stopIndex":23,"stopSequence":24,"vertexType":"TRANSIT"},"to":{"name":"Faubourg Sagamie","stopId":"1:1129","stopCode":"1129","lon":-71.167414,"lat":48.402974,"arrival":1522692900000,"departure":1522693860000,"zoneId":"NA","stopIndex":47,"stopSequence":48,"vertexType":"TRANSIT"},"legGeometry":{"points":"urpfHnx}pL~AxAxB`BbAiDjCzB|ApAvAZbAo@|@cDf@gB~DbA~Cr@fNtNZ\\nCbDl@jBZrB\\`Dx@tIbB|KzBnOpB|GhA~D\\dF@hI?pApBnPVrB`BfH|C|M~AxJvA`JpDnEjDzDlF~FpD|DfChF~CpGnE~FpApAg@nAs@jBvEhFlE`FuDrKQnAS~ABdCv@xEuBzAuAbAgAhA_AvCSlCQ`Cs@dEe@|AwAzEy@r@f@zCpAzAnGfH^b@zAh@QjBa@bEiCtLETaI~WwDfMeAjD|JfJ","length":72},"routeShortName":"16","routeLongName":"Côte de la Réserve","rentedBike":false,"transitLeg":true,"duration":1080.0,"steps":[]},{"startTime":1522693860000,"endTime":1522694460000,"departureDelay":0,"arrivalDelay":0,"realTime":false,"distance":6616.846141464566,"pathway":false,"mode":"BUS","route":"2","agencyName":"Société de Transport du Saguenay","agencyUrl":"http://ville.saguenay.ca/fr/services-aux-citoyens/transport-sts","agencyTimeZoneOffset":-14400000,"routeColor":"FF0000","routeType":3,"routeId":"1:2","routeTextColor":"FFFFFF","interlineWithPreviousLeg":false,"tripBlockId":"9","headsign":"Costco","agencyId":"0","tripId":"1:217407","serviceDate":"20180402","from":{"name":"Faubourg Sagamie","stopId":"1:1129","stopCode":"1129","lon":-71.167414,"lat":48.402974,"arrival":1522692900000,"departure":1522693860000,"zoneId":"NA","stopIndex":17,"stopSequence":18,"vertexType":"TRANSIT"},"to":{"name":"COSTCO","stopId":"1:1710","stopCode":"1710","lon":-71.085767,"lat":48.382333,"arrival":1522694460000,"departure":1522694700000,"zoneId":"NA","stopIndex":28,"stopSequence":29,"vertexType":"TRANSIT"},"legGeometry":{"points":"mulfHb{jqLtDjDADGJKFK@KCkF{EGMCS@KHWo@k@mC}BIKrM{c@zFiV|Gum@fCsObAiG`DaKpBuEdF_H|JwMjHsJ~CgKbAmIZaLD}AcAqPXuHPyEdBcJPcAxCqJtEsL|BaGbDgIz@{B|G}WVyBfB_OrBsTDa]?sD`@uc@tBcJz@yDtI}UaCcC","length":50},"routeShortName":"2","routeLongName":"Chic/Jonq via Boul. Royaume","rentedBike":false,"transitLeg":true,"duration":600.0,"steps":[]},{"startTime":1522694700000,"endTime":1522695060000,"departureDelay":0,"arrivalDelay":0,"realTime":false,"distance":1990.475444549822,"pathway":false,"mode":"BUS","route":"175","agencyName":"Société de Transport du Saguenay","agencyUrl":"http://ville.saguenay.ca/fr/services-aux-citoyens/transport-sts","agencyTimeZoneOffset":-14400000,"routeColor":"FF00FF","routeType":3,"routeId":"1:175","routeTextColor":"FFFFFF","interlineWithPreviousLeg":true,"tripBlockId":"9","headsign":"Terminus Chicoutimi","agencyId":"0","tripId":"1:217408","serviceDate":"20180402","from":{"name":"COSTCO","stopId":"1:1710","stopCode":"1710","lon":-71.085767,"lat":48.382333,"arrival":1522694460000,"departure":1522694700000,"zoneId":"NA","stopIndex":0,"stopSequence":1,"vertexType":"TRANSIT"},"to":{"name":"boul. Talbot / boul. Barrette","stopId":"1:49","stopCode":"49","lon":-71.069502,"lat":48.394497,"arrival":1522695060000,"departure":1522695061000,"zoneId":"NA","stopIndex":7,"stopSequence":8,"vertexType":"TRANSIT"},"legGeometry":{"points":"euhfHt|zpL_BiBsCoDwCqDrCsGN_@uEoFoEiFUWSUqCwC]a@{ByC{@cAkJuKoAwA_CeCeExJ~AlB`@mAu@k@}@q@|C}Iw@}@aO_QkEsE","length":26},"routeShortName":"175","routeLongName":"Term. Chic / Costco","rentedBike":false,"transitLeg":true,"duration":360.0,"steps":[]},{"startTime":1522695061000,"endTime":1522695325000,"departureDelay":0,"arrivalDelay":0,"realTime":false,"distance":342.06699999999995,"pathway":false,"mode":"WALK","route":"","agencyTimeZoneOffset":-14400000,"interlineWithPreviousLeg":false,"from":{"name":"boul. Talbot / boul. Barrette","stopId":"1:49","stopCode":"49","lon":-71.069502,"lat":48.394497,"arrival":1522695060000,"departure":1522695061000,"zoneId":"NA","stopIndex":7,"stopSequence":8,"vertexType":"TRANSIT"},"to":{"name":"Destination","lon":-71.073569,"lat":48.394631,"arrival":1522695325000,"orig":"","vertexType":"NORMAL"},"legGeometry":{"points":"}`kfHdxwpL|BlCNNQb@?H?PuCvH{@bCOb@","length":9},"rentedBike":false,"transitLeg":false,"duration":264.0,"steps":[{"distance":98.432,"relativeDirection":"DEPART","streetName":"Boulevard Talbot","absoluteDirection":"SOUTHWEST","stayOn":false,"area":false,"bogusName":false,"lon":-71.06962085488986,"lat":48.394555935445034,"elevation":[]},{"distance":16.674,"relativeDirection":"RIGHT","streetName":"Boulevard Barrette","absoluteDirection":"NORTHWEST","stayOn":false,"area":false,"bogusName":false,"lon":-71.07041720000001,"lat":48.393846,"elevation":[]},{"distance":226.96099999999998,"relativeDirection":"SLIGHTLY_LEFT","streetName":"bike path","absoluteDirection":"WEST","stayOn":false,"area":false,"bogusName":true,"lon":-71.0705975,"lat":48.3939363,"elevation":[]}]}],"tooSloped":false},{"duration":2691,"startTime":1522693561000,"endTime":1522696252000,"walkTime":364,"transitTime":2085,"waitingTime":242,"walkDistance":467.7534736813235,"walkLimitExceeded":false,"elevationLost":0.0,"elevationGained":0.0,"transfers":1,"legs":[{"startTime":1522693561000,"endTime":1522693913000,"departureDelay":0,"arrivalDelay":0,"realTime":false,"distance":452.11300000000006,"pathway":false,"mode":"WALK","route":"","agencyTimeZoneOffset":-14400000,"interlineWithPreviousLeg":false,"from":{"name":"Origin","lon":-71.100724,"lat":48.42303,"departure":1522693561000,"orig":"","vertexType":"NORMAL"},"to":{"name":"ch. de la Réserve / Desgagné","stopId":"1:620","stopCode":"620","lon":-71.095984,"lat":48.421433,"arrival":1522693913000,"departure":1522693914000,"zoneId":"NA","stopIndex":25,"stopSequence":26,"vertexType":"TRANSIT"},"legGeometry":{"points":"crpfHrx}pLMMw@s@`AkDfA_EbAsDf@kBb@uC^o@Xa@LbA","length":11},"rentedBike":false,"transitLeg":false,"duration":352.0,"steps":[{"distance":46.079,"relativeDirection":"DEPART","streetName":"Rue Rioux","absoluteDirection":"NORTHEAST","stayOn":false,"area":false,"bogusName":false,"lon":-71.10041350823377,"lat":48.42290221838052,"elevation":[]},{"distance":379.50300000000004,"relativeDirection":"RIGHT","streetName":"Rue Desgagné","absoluteDirection":"SOUTHEAST","stayOn":false,"area":false,"bogusName":false,"lon":-71.1000844,"lat":48.423254400000005,"elevation":[]},{"distance":26.531,"relativeDirection":"RIGHT","streetName":"Chemin de la Réserve","absoluteDirection":"WEST","stayOn":false,"area":false,"bogusName":false,"lon":-71.0956657,"lat":48.421554900000004,"elevation":[]}]},{"startTime":1522693914000,"endTime":1522694460000,"departureDelay":0,"arrivalDelay":0,"realTime":false,"distance":2783.1092542197985,"pathway":false,"mode":"BUS","route":"16","agencyName":"Société de Transport du Saguenay","agencyUrl":"http://ville.saguenay.ca/fr/services-aux-citoyens/transport-sts","agencyTimeZoneOffset":-14400000,"routeColor":"00FF00","routeType":3,"routeId":"1:16","routeTextColor":"000000","interlineWithPreviousLeg":false,"tripBlockId":"34","headsign":"Terminus Chicoutimi","agencyId":"0","tripId":"1:218222","serviceDate":"20180402","from":{"name":"ch. de la Réserve / Desgagné","stopId":"1:620","stopCode":"620","lon":-71.095984,"lat":48.421433,"arrival":1522693913000,"departure":1522693914000,"zoneId":"NA","stopIndex":25,"stopSequence":26,"vertexType":"TRANSIT"},"to":{"name":"Terminus Chicoutimi","stopId":"1:1289","stopCode":"1289","lon":-71.066163,"lat":48.428677,"arrival":1522694460000,"departure":1522694700000,"zoneId":"NA","stopIndex":35,"stopSequence":36,"vertexType":"TRANSIT"},"legGeometry":{"points":"cipfH`}|pLg@aE@wFS}AiAaIgA{B}CiGiBeFqBsFQ_@wA_DyAaD_AoBQ[sAuC{@sBeCcGqAwC[g@]a@aAw@[_@cA}A_@w@GU[iDWaDzByCv@cA`@e@TSp@g@nAo@nBm@ZSf@c@PMb@[b@_@b@e@PYP]N_@La@P{@NcB@IBcAG_A{@sEEg@oAP}@DiBDFeBMa@iBCq@FmBPFcEDoBNiHyDWN_HBoA@Y@m@","length":67},"routeShortName":"16","routeLongName":"Côte de la Réserve","rentedBike":false,"transitLeg":true,"duration":546.0,"steps":[]},{"startTime":1522694700000,"endTime":1522696239000,"departureDelay":0,"arrivalDelay":0,"realTime":false,"distance":9137.496996778586,"pathway":false,"mode":"BUS","route":"14","agencyName":"Société de Transport du Saguenay","agencyUrl":"http://ville.saguenay.ca/fr/services-aux-citoyens/transport-sts","agencyTimeZoneOffset":-14400000,"routeColor":"C0C000","routeType":3,"routeId":"1:14","routeTextColor":"000000","interlineWithPreviousLeg":false,"tripBlockId":"30","headsign":"Talbot / Barrette","agencyId":"0","tripId":"1:218103","serviceDate":"20180402","from":{"name":"Terminus Chicoutimi","stopId":"1:1289","stopCode":"1289","lon":-71.066163,"lat":48.428677,"arrival":1522694460000,"departure":1522694700000,"zoneId":"NA","stopIndex":0,"stopSequence":1,"vertexType":"TRANSIT"},"to":{"name":"Maxi - boulevard Barrette","stopId":"1:88","stopCode":"88","lon":-71.07294,"lat":48.395,"arrival":1522696239000,"departure":1522696240000,"zoneId":"NA","stopIndex":34,"stopSequence":35,"vertexType":"TRANSIT"},"legGeometry":{"points":"qvqfHnbwpLJkClLh@DsDTmSHwFB{I@m@@eBH_AF}A@w@Dq@@i@B}B@Y@e@D]F_@@SHQCKnBnBvIrIn@n@\\iATg@v@_ATg@LmABg@Is@c@iEAm@bAcDTcAtA{DJI|AxAvAvAQv@~@z@dA`ATq@`E~DL`@E`Ex@hDd@`B}FtFaAzAm@xAe@jCa@nDiAbm@SpKM`H]vBhDVzCTcAvCO^bEbEzK`LfBeEtK`KhAdAnCbCvBpCNR~BxAxBf@z@h@vAz@z@{DrCoITTlElEtAnB`@l@pFrD@?fDr@XgAjFuR\\yADm@b@gFd@_B`A}@tEvJBDvC`FtJ|LLNlClC|@^hCYVExCjCb@d@vE`F`BhB?pHaBhRqAbLK~@qBxFqB|FcC~GyC\\aDkDcFsF~CgOtGm[j@oCvEoSl@_CxCmLjAeFpCeKrByHfAqC","length":123},"routeShortName":"14","routeLongName":"Coopérative","rentedBike":false,"transitLeg":true,"duration":1539.0,"steps":[]},{"startTime":1522696240000,"endTime":1522696252000,"departureDelay":0,"arrivalDelay":0,"realTime":false,"distance":15.551,"pathway":false,"mode":"WALK","route":"","agencyTimeZoneOffset":-14400000,"interlineWithPreviousLeg":false,"from":{"name":"Maxi - boulevard Barrette","stopId":"1:88","stopCode":"88","lon":-71.07294,"lat":48.395,"arrival":1522696239000,"departure":1522696240000,"zoneId":"NA","stopIndex":34,"stopSequence":35,"vertexType":"TRANSIT"},"to":{"name":"Destination","lon":-71.073569,"lat":48.394631,"arrival":1522696252000,"orig":"","vertexType":"NORMAL"},"legGeometry":{"points":"sckfH~lxpLOb@","length":2},"rentedBike":false,"transitLeg":false,"duration":12.0,"steps":[{"distance":15.551,"relativeDirection":"DEPART","streetName":"bike path","absoluteDirection":"NORTHWEST","stayOn":false,"area":false,"bogusName":false,"lon":-71.072956176549,"lat":48.39498407908756,"elevation":[]}]}],"tooSloped":false}]},"debugOutput":{"precalculationTime":14,"pathCalculationTime":19,"pathTimes":[14,3,2],"renderingTime":1,"totalTime":34,"timedOut":false},"elevationMetadata":{"ellipsoidToGeoidDifference":-28.885904201182168,"geoidElevation":false}}