{"requestParameters":{"date":"2018/04/02","walkSpeed":"1.33","walkReluctance":"2.0","fromPlace":"48.452315,-71.021151","maxWalkDistance":"3000","waitReluctance":"1.0","carSpeed":"33","numItineraries":"3","waitAtBeginningFactor":"0.4","mode":"TRANSIT,WALK","ignoreRealtimeUpdates":"false","stairsReluctance":"2.0","toPlace":"48.451071,-71.020099","time":"18:30:00"},"plan":{"date":1522708200000,"from":{"name":"Origin","lon":-71.021151,"lat":48.452315,"orig":"","vertexType":"NORMAL"},"to":{"name":"Destination","lon":-71.020099,"lat":48.451071,"orig":"","vertexType":"NORMAL"},"itineraries":[{"duration":257,"startTime":1522708200000,"endTime":1522708457000,"walkTime":257,"transitTime":0,"waitingTime":0,"walkDistance":324.56668420814873,"walkLimitExceeded":false,"elevationLost":0.0,"elevationGained":0.0,"transfers":0,"legs":[{"startTime":1522708200000,"endTime":1522708457000,"departureDelay":0,"arrivalDelay":0,"realTime":false,"distance":324.49300000000005,"pathway":false,"mode":"WALK","route":"","agencyTimeZoneOffset":-14400000,"interlineWithPreviousLeg":false,"from":{"name":"Origin","lon":-71.021151,"lat":48.452315,"departure":1522708200000,"orig":"","vertexType":"NORMAL"},"to":{"name":"Destination","lon":-71.020099,"lat":48.451071,"arrival":1522708457000,"orig":"","vertexType":"NORMAL"},"legGeometry":{"points":"whvfH|gnpL@B|AtCt@nAvCqDe@q@c@q@KQe@y@AC","length":10},"alerts":[{"alertHeaderText":"Unpaved surface"}],"rentedBike":false,"transitLeg":false,"duration":257.0,"steps":[{"distance":120.134,"relativeDirection":"DEPART","streetName":"Rue Justine","absoluteDirection":"SOUTHWEST","stayOn":false,"area":false,"bogusName":false,"lon":-71.0209430691795,"lat":48.452129294284724,"elevation":[],"alerts":[{"alertHeaderText":"Unpaved surface"}]},{"distance":107.875,"relativeDirection":"LEFT","streetName":"path","absoluteDirection":"SOUTHEAST","stayOn":false,"area":false,"bogusName":true,"lon":-71.0221147,"lat":48.451379,"elevation":[]},{"distance":96.48400000000001,"relativeDirection":"LEFT","streetName":"Route de Tadoussac","absoluteDirection":"NORTHEAST","stayOn":false,"area":false,"bogusName":false,"lon":-71.02122080000001,"lat":48.4506111,"elevation":[]}]}],"tooSloped":false}]},"debugOutput":{"precalculationTime":3,"pathCalculationTime":12,"pathTimes":[0,7,5],"renderingTime":0,"totalTime":15,"timedOut":false},"elevationMetadata":{"ellipsoidToGeoidDifference":-28.885904201182168,"geoidElevation":false}}