{"requestParameters":{"date":"2018/04/02","walkSpeed":"1.33","walkReluctance":"2.0","fromPlace":"48.425686,-71.091553","maxWalkDistance":"3000","waitReluctance":"1.0","carSpeed":"33","numItineraries":"3","waitAtBeginningFactor":"0.4","mode":"TRANSIT,WALK","ignoreRealtimeUpdates":"false","stairsReluctance":"2.0","toPlace":"48.432149,-71.083774","time":"7:0:00"},"plan":{"date":1522666800000,"from":{"name":"Origin","lon":-71.091553,"lat":48.425686,"orig":"","vertexType":"NORMAL"},"to":{"name":"Destination","lon":-71.083774,"lat":48.432149,"orig":"","vertexType":"NORMAL"},"itineraries":[{"duration":1074,"startTime":1522666800000,"endTime":1522667874000,"walkTime":1074,"transitTime":0,"waitingTime":0,"walkDistance":1397.6209548829604,"walkLimitExceeded":false,"elevationLost":0.0,"elevationGained":0.0,"transfers":0,"legs":[{"startTime":1522666800000,"endTime":1522667874000,"departureDelay":0,"arrivalDelay":0,"realTime":false,"distance":1397.489,"pathway":false,"mode":"WALK","route":"","agencyTimeZoneOffset":-14400000,"interlineWithPreviousLeg":false,"from":{"name":"Origin","lon":-71.091553,"lat":48.425686,"departure":1522666800000,"orig":"","vertexType":"NORMAL"},"to":{"name":"Destination","lon":-71.083774,"lat":48.432149,"arrival":1522667874000,"orig":"","vertexType":"NORMAL"},"legGeometry":{"points":"wbqfHp_|pLiBoBvA_EaCsAa@Y_Cu@}@KqBk@aC]eBEkGBm@?oBD{@EoAMaAYqAg@eAm@iBkAMM`CmIh@yBpBcH","length":23},"rentedBike":false,"transitLeg":false,"duration":1074.0,"steps":[{"distance":72.167,"relativeDirection":"DEPART","streetName":"Rue Lejeune","absoluteDirection":"NORTHEAST","stayOn":false,"area":false,"bogusName":false,"lon":-71.0912820547021,"lat":48.425561675281884,"elevation":[]},{"distance":86.087,"relativeDirection":"RIGHT","streetName":"Rue De Quen","absoluteDirection":"SOUTHEAST","stayOn":false,"area":false,"bogusName":false,"lon":-71.0907258,"lat":48.4260955,"elevation":[]},{"distance":921.155,"relativeDirection":"LEFT","streetName":"Rue J.-R.-Théberge","absoluteDirection":"NORTHEAST","stayOn":false,"area":false,"bogusName":false,"lon":-71.0897645,"lat":48.425656800000006,"elevation":[]},{"distance":318.08,"relativeDirection":"RIGHT","streetName":"Boulevard du Saguenay Ouest","absoluteDirection":"SOUTHEAST","stayOn":false,"area":false,"bogusName":false,"lon":-71.0874263,"lat":48.433672300000005,"elevation":[]}]}],"tooSloped":false},{"duration":1014,"startTime":1522667860000,"endTime":1522668874000,"walkTime":961,"transitTime":51,"waitingTime":2,"walkDistance":1251.817834582148,"walkLimitExceeded":false,"elevationLost":0.0,"elevationGained":0.0,"transfers":0,"legs":[{"startTime":1522667860000,"endTime":1522668819000,"departureDelay":0,"arrivalDelay":0,"realTime":false,"distance":1249.0880000000002,"pathway":false,"mode":"WALK","route":"","agencyTimeZoneOffset":-14400000,"interlineWithPreviousLeg":false,"from":{"name":"Origin","lon":-71.091553,"lat":48.425686,"departure":1522667860000,"orig":"","vertexType":"NORMAL"},"to":{"name":"boul. Saguenay / Albert","stopId":"1:158","stopCode":"158","lon":-71.089619,"lat":48.434041,"arrival":1522668819000,"departure":1522668820000,"zoneId":"NA","stopIndex":29,"stopSequence":30,"vertexType":"TRANSIT"},"legGeometry":{"points":"wbqfHp_|pLiBoBvA_EaCsAa@Y_Cu@}@KqBk@aC]eBEkGBm@?oBD{@EoAMaAYqAg@eAm@iBkAMMCJa@|ASdAGp@WnE","length":25},"rentedBike":false,"transitLeg":false,"duration":959.0,"steps":[{"distance":72.167,"relativeDirection":"DEPART","streetName":"Rue Lejeune","absoluteDirection":"NORTHEAST","stayOn":false,"area":false,"bogusName":false,"lon":-71.0912820547021,"lat":48.425561675281884,"elevation":[]},{"distance":86.087,"relativeDirection":"RIGHT","streetName":"Rue De Quen","absoluteDirection":"SOUTHEAST","stayOn":false,"area":false,"bogusName":false,"lon":-71.0907258,"lat":48.4260955,"elevation":[]},{"distance":921.155,"relativeDirection":"LEFT","streetName":"Rue J.-R.-Théberge","absoluteDirection":"NORTHEAST","stayOn":false,"area":false,"bogusName":false,"lon":-71.0897645,"lat":48.425656800000006,"elevation":[]},{"distance":169.679,"relativeDirection":"LEFT","streetName":"Boulevard du Saguenay Ouest","absoluteDirection":"NORTHWEST","stayOn":false,"area":false,"bogusName":false,"lon":-71.0874263,"lat":48.433672300000005,"elevation":[]}]},{"startTime":1522668820000,"endTime":1522668871000,"departureDelay":0,"arrivalDelay":0,"realTime":false,"distance":482.7152778578749,"pathway":false,"mode":"BUS","route":"3","agencyName":"Société de Transport du Saguenay","agencyUrl":"http://ville.saguenay.ca/fr/services-aux-citoyens/transport-sts","agencyTimeZoneOffset":-14400000,"routeColor":"FF0000","routeType":3,"routeId":"1:3","routeTextColor":"FFFFFF","interlineWithPreviousLeg":false,"tripBlockId":"63","headsign":"Terminus Chicoutimi","agencyId":"0","tripId":"1:218561","serviceDate":"20180402","from":{"name":"boul. Saguenay / Albert","stopId":"1:158","stopCode":"158","lon":-71.089619,"lat":48.434041,"arrival":1522668819000,"departure":1522668820000,"zoneId":"NA","stopIndex":29,"stopSequence":30,"vertexType":"TRANSIT"},"to":{"name":"Garage Municipal (boul. Saguenay)","stopId":"1:279","stopCode":"279","lon":-71.083715,"lat":48.43217,"arrival":1522668871000,"departure":1522668872000,"zoneId":"NA","stopIndex":30,"stopSequence":31,"vertexType":"TRANSIT"},"legGeometry":{"points":"exrfH`u{pLPiDN_BZcB`@mAxGgV","length":6},"routeShortName":"3","routeLongName":"Chic/Jonq via Boul. Saguenay","rentedBike":false,"transitLeg":true,"duration":51.0,"steps":[]},{"startTime":1522668872000,"endTime":1522668874000,"departureDelay":0,"arrivalDelay":0,"realTime":false,"distance":2.596,"pathway":false,"mode":"WALK","route":"","agencyTimeZoneOffset":-14400000,"interlineWithPreviousLeg":false,"from":{"name":"Garage Municipal (boul. Saguenay)","stopId":"1:279","stopCode":"279","lon":-71.083715,"lat":48.43217,"arrival":1522668871000,"departure":1522668872000,"zoneId":"NA","stopIndex":30,"stopSequence":31,"vertexType":"TRANSIT"},"to":{"name":"Destination","lon":-71.083774,"lat":48.432149,"arrival":1522668874000,"orig":"","vertexType":"NORMAL"},"legGeometry":{"points":"mlrfHzozpLAD","length":2},"rentedBike":false,"transitLeg":false,"duration":2.0,"steps":[{"distance":2.596,"relativeDirection":"DEPART","streetName":"Boulevard du Saguenay Ouest","absoluteDirection":"NORTHWEST","stayOn":false,"area":false,"bogusName":false,"lon":-71.08365587412027,"lat":48.43223774735467,"elevation":[]}]}],"tooSloped":false},{"duration":1002,"startTime":1522668046000,"endTime":1522669048000,"walkTime":961,"transitTime":39,"waitingTime":2,"walkDistance":1251.817834582148,"walkLimitExceeded":false,"elevationLost":0.0,"elevationGained":0.0,"transfers":0,"legs":[{"startTime":1522668046000,"endTime":1522669005000,"departureDelay":0,"arrivalDelay":0,"realTime":false,"distance":1249.0880000000002,"pathway":false,"mode":"WALK","route":"","agencyTimeZoneOffset":-14400000,"interlineWithPreviousLeg":false,"from":{"name":"Origin","lon":-71.091553,"lat":48.425686,"departure":1522668046000,"orig":"","vertexType":"NORMAL"},"to":{"name":"boul. Saguenay / Albert","stopId":"1:158","stopCode":"158","lon":-71.089619,"lat":48.434041,"arrival":1522669005000,"departure":1522669006000,"zoneId":"NA","stopIndex":29,"stopSequence":30,"vertexType":"TRANSIT"},"legGeometry":{"points":"wbqfHp_|pLiBoBvA_EaCsAa@Y_Cu@}@KqBk@aC]eBEkGBm@?oBD{@EoAMaAYqAg@eAm@iBkAMMCJa@|ASdAGp@WnE","length":25},"rentedBike":false,"transitLeg":false,"duration":959.0,"steps":[{"distance":72.167,"relativeDirection":"DEPART","streetName":"Rue Lejeune","absoluteDirection":"NORTHEAST","stayOn":false,"area":false,"bogusName":false,"lon":-71.0912820547021,"lat":48.425561675281884,"elevation":[]},{"distance":86.087,"relativeDirection":"RIGHT","streetName":"Rue De Quen","absoluteDirection":"SOUTHEAST","stayOn":false,"area":false,"bogusName":false,"lon":-71.0907258,"lat":48.4260955,"elevation":[]},{"distance":921.155,"relativeDirection":"LEFT","streetName":"Rue J.-R.-Théberge","absoluteDirection":"NORTHEAST","stayOn":false,"area":false,"bogusName":false,"lon":-71.0897645,"lat":48.425656800000006,"elevation":[]},{"distance":169.679,"relativeDirection":"LEFT","streetName":"Boulevard du Saguenay Ouest","absoluteDirection":"NORTHWEST","stayOn":false,"area":false,"bogusName":false,"lon":-71.0874263,"lat":48.433672300000005,"elevation":[]}]},{"startTime":1522669006000,"endTime":1522669045000,"departureDelay":0,"arrivalDelay":0,"realTime":false,"distance":482.7152778578749,"pathway":false,"mode":"BUS","route":"1S","agencyName":"Société de Transport du Saguenay","agencyUrl":"http://ville.saguenay.ca/fr/services-aux-citoyens/transport-sts","agencyTimeZoneOffset":-14400000,"routeColor":"8B0000","routeType":3,"routeId":"1:1S","routeTextColor":"FFFFFF","interlineWithPreviousLeg":false,"tripBlockId":"42","headsign":"Hôpital Chicoutimi","agencyId":"0","tripId":"1:218366","serviceDate":"20180402","from":{"name":"boul. Saguenay / Albert","stopId":"1:158","stopCode":"158","lon":-71.089619,"lat":48.434041,"arrival":1522669005000,"departure":1522669006000,"zoneId":"NA","stopIndex":29,"stopSequence":30,"vertexType":"TRANSIT"},"to":{"name":"Garage Municipal (boul. Saguenay)","stopId":"1:279","stopCode":"279","lon":-71.083715,"lat":48.43217,"arrival":1522669045000,"departure":1522669046000,"zoneId":"NA","stopIndex":30,"stopSequence":31,"vertexType":"TRANSIT"},"legGeometry":{"points":"cxrfH`u{pLPiDN_BZcB`@mAvGeV","length":6},"routeShortName":"1S","routeLongName":"Navette Hôpital - Jonquière","rentedBike":false,"transitLeg":true,"duration":39.0,"steps":[]},{"startTime":1522669046000,"endTime":1522669048000,"departureDelay":0,"arrivalDelay":0,"realTime":false,"distance":2.596,"pathway":false,"mode":"WALK","route":"","agencyTimeZoneOffset":-14400000,"interlineWithPreviousLeg":false,"from":{"name":"Garage Municipal (boul. Saguenay)","stopId":"1:279","stopCode":"279","lon":-71.083715,"lat":48.43217,"arrival":1522669045000,"departure":1522669046000,"zoneId":"NA","stopIndex":30,"stopSequence":31,"vertexType":"TRANSIT"},"to":{"name":"Destination","lon":-71.083774,"lat":48.432149,"arrival":1522669048000,"orig":"","vertexType":"NORMAL"},"legGeometry":{"points":"mlrfHzozpLAD","length":2},"rentedBike":false,"transitLeg":false,"duration":2.0,"steps":[{"distance":2.596,"relativeDirection":"DEPART","streetName":"Boulevard du Saguenay Ouest","absoluteDirection":"NORTHWEST","stayOn":false,"area":false,"bogusName":false,"lon":-71.08365587412027,"lat":48.43223774735467,"elevation":[]}]}],"tooSloped":false}]},"debugOutput":{"precalculationTime":16,"pathCalculationTime":16,"pathTimes":[7,8,1],"renderingTime":0,"totalTime":32,"timedOut":false},"elevationMetadata":{"ellipsoidToGeoidDifference":-28.885904201182168,"geoidElevation":false}}