{"requestParameters":{"date":"2018/04/02","walkSpeed":"1.33","walkReluctance":"2.0","fromPlace":"48.419872,-71.102754","maxWalkDistance":"3000","waitReluctance":"1.0","carSpeed":"33","numItineraries":"3","waitAtBeginningFactor":"0.4","mode":"TRANSIT,WALK","ignoreRealtimeUpdates":"false","stairsReluctance":"2.0","toPlace":"48.42636,-71.062753","time":"19:0:00"},"plan":{"date":1522710000000,"from":{"name":"Origin","lon":-71.102754,"lat":48.419872,"orig":"","vertexType":"NORMAL"},"to":{"name":"Destination","lon":-71.062753,"lat":48.42636,"orig":"","vertexType":"NORMAL"},"itineraries":[{"duration":2383,"startTime":1522710280000,"endTime":1522712663000,"walkTime":2164,"transitTime":217,"waitingTime":2,"walkDistance":2790.7704210423567,"walkLimitExceeded":false,"elevationLost":0.0,"elevationGained":0.0,"transfers":0,"legs":[{"startTime":1522710280000,"endTime":1522712131000,"departureDelay":0,"arrivalDelay":0,"realTime":false,"distance":2391.712,"pathway":false,"mode":"WALK","route":"","agencyTimeZoneOffset":-14400000,"interlineWithPreviousLeg":false,"from":{"name":"Origin","lon":-71.102754,"lat":48.419872,"departure":1522710280000,"orig":"","vertexType":"NORMAL"},"to":{"name":"Doré / Bossé","stopId":"1:1851","stopCode":"1851","lon":-71.078314,"lat":48.423588,"arrival":1522712131000,"departure":1522712132000,"zoneId":"NA","stopIndex":24,"stopSequence":25,"vertexType":"TRANSIT"},"legGeometry":{"points":"q`pfHrg~pL?CCICCECGAG@GBEDMHC?EC{C{Cm@m@}AyA{@u@wCmCw@s@`AkDfA_EbAsDf@kBb@uC^o@Xa@I{@?G@mA?OHwA@k@EiAWyACMAIqAaH[s@[q@GOKSKSs@}AMUEIaA{BKUSe@[w@YkBKQ??Ug@[u@_BiD{@cCcA{Bg@eACG_AiBkBsDxAgEh@{A`AyCXm@Xa@r@u@pBqB~AqBNaB?kAEQVuDSE","length":73},"rentedBike":false,"transitLeg":false,"duration":1851.0,"steps":[{"distance":415.0300000000001,"relativeDirection":"DEPART","streetName":"Rue Rioux","absoluteDirection":"NORTHEAST","stayOn":false,"area":false,"bogusName":false,"lon":-71.10281295418727,"lat":48.420097043747624,"elevation":[]},{"distance":379.50300000000004,"relativeDirection":"RIGHT","streetName":"Rue Desgagné","absoluteDirection":"SOUTHEAST","stayOn":false,"area":false,"bogusName":false,"lon":-71.1000844,"lat":48.423254400000005,"elevation":[]},{"distance":1026.173,"relativeDirection":"LEFT","streetName":"Chemin de la Réserve","absoluteDirection":"EAST","stayOn":false,"area":false,"bogusName":false,"lon":-71.0956657,"lat":48.421554900000004,"elevation":[]},{"distance":238.88,"relativeDirection":"RIGHT","streetName":"Côte Saint-Ange","absoluteDirection":"SOUTHEAST","stayOn":false,"area":false,"bogusName":false,"lon":-71.0841347,"lat":48.426195400000005,"elevation":[]},{"distance":179.39800000000002,"relativeDirection":"CONTINUE","streetName":"Rue Dubuc","absoluteDirection":"SOUTHEAST","stayOn":false,"area":false,"bogusName":false,"lon":-71.0815067,"lat":48.424949000000005,"elevation":[]},{"distance":65.531,"relativeDirection":"SLIGHTLY_LEFT","streetName":"road","absoluteDirection":"EAST","stayOn":false,"area":false,"bogusName":true,"lon":-71.080094,"lat":48.4236379,"elevation":[]},{"distance":7.693,"relativeDirection":"SLIGHTLY_LEFT","streetName":"Rue Bossé","absoluteDirection":"NORTHEAST","stayOn":false,"area":false,"bogusName":false,"lon":-71.0792211,"lat":48.423552400000005,"elevation":[]},{"distance":68.065,"relativeDirection":"RIGHT","streetName":"Rue le Doré","absoluteDirection":"EAST","stayOn":false,"area":false,"bogusName":false,"lon":-71.07913090000001,"lat":48.423587100000006,"elevation":[]},{"distance":11.439,"relativeDirection":"LEFT","streetName":"road","absoluteDirection":"NORTH","stayOn":false,"area":false,"bogusName":true,"lon":-71.0782257,"lat":48.4234694,"elevation":[]}]},{"startTime":1522712132000,"endTime":1522712349000,"departureDelay":0,"arrivalDelay":0,"realTime":false,"distance":869.1383772592707,"pathway":false,"mode":"BUS","route":"11","agencyName":"Société de Transport du Saguenay","agencyUrl":"http://ville.saguenay.ca/fr/services-aux-citoyens/transport-sts","agencyTimeZoneOffset":-14400000,"routeColor":"FF0000","routeType":3,"routeId":"1:11","routeTextColor":"FFFFFF","interlineWithPreviousLeg":false,"tripBlockId":"34","headsign":"Terminus Chicoutimi","agencyId":"0","tripId":"1:218232","serviceDate":"20180402","from":{"name":"Doré / Bossé","stopId":"1:1851","stopCode":"1851","lon":-71.078314,"lat":48.423588,"arrival":1522712131000,"departure":1522712132000,"zoneId":"NA","stopIndex":24,"stopSequence":25,"vertexType":"TRANSIT"},"to":{"name":"Price / Lemieux","stopId":"1:1897","stopCode":"1897","lon":-71.067472,"lat":48.425313,"arrival":1522712349000,"departure":1522712350000,"zoneId":"NA","stopIndex":29,"stopSequence":30,"vertexType":"TRANSIT"},"legGeometry":{"points":"{vpfHlnypL?Yo@IKCIEIIKOEKCKe@}BKs@CQAUE_A@yCFcDVsLDaCD_@kBKW?e@Q_BQNuEDuBXmN","length":26},"routeShortName":"11","routeLongName":"Chic/Faubourg via St-Paul","rentedBike":false,"transitLeg":true,"duration":217.0,"steps":[]},{"startTime":1522712350000,"endTime":1522712663000,"departureDelay":0,"arrivalDelay":0,"realTime":false,"distance":398.74,"pathway":false,"mode":"WALK","route":"","agencyTimeZoneOffset":-14400000,"interlineWithPreviousLeg":false,"from":{"name":"Price / Lemieux","stopId":"1:1897","stopCode":"1897","lon":-71.067472,"lat":48.425313,"arrival":1522712349000,"departure":1522712350000,"zoneId":"NA","stopIndex":29,"stopSequence":30,"vertexType":"TRANSIT"},"to":{"name":"Destination","lon":-71.062753,"lat":48.42636,"arrival":1522712663000,"orig":"","vertexType":"NORMAL"},"legGeometry":{"points":"kaqfHtjwpLDeBDgB@i@Ao@QGWo@Wo@u@kBcAyBs@qB@WBe@DwB?Q","length":15},"rentedBike":false,"transitLeg":false,"duration":313.0,"steps":[{"distance":109.845,"relativeDirection":"DEPART","streetName":"Rue Price Est","absoluteDirection":"EAST","stayOn":false,"area":false,"bogusName":false,"lon":-71.06746868871497,"lat":48.425341175781035,"elevation":[]},{"distance":10.208,"relativeDirection":"LEFT","streetName":"Rue Morin","absoluteDirection":"NORTH","stayOn":false,"area":false,"bogusName":false,"lon":-71.06598410000001,"lat":48.4252842,"elevation":[]},{"distance":204.015,"relativeDirection":"SLIGHTLY_RIGHT","streetName":"path","absoluteDirection":"NORTHEAST","stayOn":false,"area":false,"bogusName":true,"lon":-71.0659473,"lat":48.425372700000004,"elevation":[]},{"distance":74.672,"relativeDirection":"RIGHT","streetName":"Rue Jacques-Cartier Est","absoluteDirection":"EAST","stayOn":false,"area":false,"bogusName":false,"lon":-71.0637497,"lat":48.426484800000004,"elevation":[]}]}],"tooSloped":false},{"duration":1397,"startTime":1522711421000,"endTime":1522712818000,"walkTime":825,"transitTime":570,"waitingTime":2,"walkDistance":1030.7124736748697,"walkLimitExceeded":false,"elevationLost":0.0,"elevationGained":0.0,"transfers":0,"legs":[{"startTime":1522711421000,"endTime":1522711889000,"departureDelay":0,"arrivalDelay":0,"realTime":false,"distance":576.0629999999999,"pathway":false,"mode":"WALK","route":"","agencyTimeZoneOffset":-14400000,"interlineWithPreviousLeg":false,"from":{"name":"Origin","lon":-71.102754,"lat":48.419872,"departure":1522711421000,"orig":"","vertexType":"NORMAL"},"to":{"name":"ch. de la Réserve / Hertel","stopId":"1:619","stopCode":"619","lon":-71.098443,"lat":48.42068,"arrival":1522711889000,"departure":1522711890000,"zoneId":"NA","stopIndex":24,"stopSequence":25,"vertexType":"TRANSIT"},"legGeometry":{"points":"q`pfHrg~pL?CCICCECGAG@GBEDMHC?EC{C{Cm@m@}AyAdAiDjAbAjAcEo@i@lA}DOc@","length":21},"rentedBike":false,"transitLeg":false,"duration":468.0,"steps":[{"distance":240.175,"relativeDirection":"DEPART","streetName":"Rue Rioux","absoluteDirection":"NORTHEAST","stayOn":false,"area":false,"bogusName":false,"lon":-71.10281295418727,"lat":48.420097043747624,"elevation":[]},{"distance":74.219,"relativeDirection":"RIGHT","streetName":"Rue Dutil","absoluteDirection":"SOUTHEAST","stayOn":false,"area":false,"bogusName":false,"lon":-71.10132630000001,"lat":48.4219152,"elevation":[]},{"distance":49.015,"relativeDirection":"RIGHT","streetName":"Rue du Stade","absoluteDirection":"SOUTHWEST","stayOn":false,"area":false,"bogusName":false,"lon":-71.10047440000001,"lat":48.421560400000004,"elevation":[]},{"distance":83.705,"relativeDirection":"LEFT","streetName":"Rue Blais","absoluteDirection":"SOUTHEAST","stayOn":false,"area":false,"bogusName":false,"lon":-71.10081910000001,"lat":48.421183600000006,"elevation":[]},{"distance":30.993,"relativeDirection":"LEFT","streetName":"Rue Gendron","absoluteDirection":"NORTHEAST","stayOn":false,"area":false,"bogusName":false,"lon":-71.0998373,"lat":48.420806600000006,"elevation":[]},{"distance":82.31,"relativeDirection":"RIGHT","streetName":"Rue Alain","absoluteDirection":"SOUTHEAST","stayOn":false,"area":false,"bogusName":false,"lon":-71.0996222,"lat":48.421046000000004,"elevation":[]},{"distance":15.646,"relativeDirection":"LEFT","streetName":"Chemin de la Réserve","absoluteDirection":"NORTHEAST","stayOn":false,"area":false,"bogusName":false,"lon":-71.0986724,"lat":48.4206579,"elevation":[]}]},{"startTime":1522711890000,"endTime":1522712460000,"departureDelay":0,"arrivalDelay":0,"realTime":false,"distance":2982.9565048433888,"pathway":false,"mode":"BUS","route":"16","agencyName":"Société de Transport du Saguenay","agencyUrl":"http://ville.saguenay.ca/fr/services-aux-citoyens/transport-sts","agencyTimeZoneOffset":-14400000,"routeColor":"00FF00","routeType":3,"routeId":"1:16","routeTextColor":"000000","interlineWithPreviousLeg":false,"tripBlockId":"35","headsign":"Terminus Chicoutimi","agencyId":"0","tripId":"1:218267","serviceDate":"20180402","from":{"name":"ch. de la Réserve / Hertel","stopId":"1:619","stopCode":"619","lon":-71.098443,"lat":48.42068,"arrival":1522711889000,"departure":1522711890000,"zoneId":"NA","stopIndex":24,"stopSequence":25,"vertexType":"TRANSIT"},"to":{"name":"Terminus Chicoutimi","stopId":"1:1289","stopCode":"1289","lon":-71.066163,"lat":48.428677,"arrival":1522712460000,"departure":1522712461000,"zoneId":"NA","stopIndex":35,"stopSequence":36,"vertexType":"TRANSIT"},"legGeometry":{"points":"sdpfHzl}pL}@mBqAkKg@aE@wFS}AiAaIgA{B}CiGiBeFqBsFQ_@wA_DyAaD_AoBQ[sAuC{@sBeCcGqAwC[g@]a@aAw@[_@cA}A_@w@GU[iDWaDzByCv@cA`@e@TSp@g@nAo@nBm@ZSf@c@PMb@[b@_@b@e@PYP]N_@La@P{@NcB@IBcAG_A{@sEEg@oAP}@DiBDFeBMa@iBCq@FmBPFcEDoBNiHyDWN_HBoA@Y@m@","length":69},"routeShortName":"16","routeLongName":"Côte de la Réserve","rentedBike":false,"transitLeg":true,"duration":570.0,"steps":[]},{"startTime":1522712461000,"endTime":1522712818000,"departureDelay":0,"arrivalDelay":0,"realTime":false,"distance":454.36000000000007,"pathway":false,"mode":"WALK","route":"","agencyTimeZoneOffset":-14400000,"interlineWithPreviousLeg":false,"from":{"name":"Terminus Chicoutimi","stopId":"1:1289","stopCode":"1289","lon":-71.066163,"lat":48.428677,"arrival":1522712460000,"departure":1522712461000,"zoneId":"NA","stopIndex":35,"stopSequence":36,"vertexType":"TRANSIT"},"to":{"name":"Destination","lon":-71.062753,"lat":48.42636,"arrival":1522712818000,"orig":"","vertexType":"NORMAL"},"legGeometry":{"points":"{uqfHb~vpLbAJR@JDb@LrBHP@jCPDwC@s@@_@@y@BqA@]@WBe@DwB?Q","length":18},"rentedBike":false,"transitLeg":false,"duration":357.0,"steps":[{"distance":229.71300000000002,"relativeDirection":"DEPART","streetName":"Rue Morin","absoluteDirection":"SOUTH","stayOn":false,"area":false,"bogusName":false,"lon":-71.0654590096484,"lat":48.428628638946556,"elevation":[]},{"distance":224.647,"relativeDirection":"LEFT","streetName":"Rue Jacques-Cartier Est","absoluteDirection":"EAST","stayOn":false,"area":false,"bogusName":false,"lon":-71.0657774,"lat":48.426577300000005,"elevation":[]}]}],"tooSloped":false},{"duration":1397,"startTime":1522715021000,"endTime":1522716418000,"walkTime":825,"transitTime":570,"waitingTime":2,"walkDistance":1030.7124736748697,"walkLimitExceeded":false,"elevationLost":0.0,"elevationGained":0.0,"transfers":0,"legs":[{"startTime":1522715021000,"endTime":1522715489000,"departureDelay":0,"arrivalDelay":0,"realTime":false,"distance":576.0629999999999,"pathway":false,"mode":"WALK","route":"","agencyTimeZoneOffset":-14400000,"interlineWithPreviousLeg":false,"from":{"name":"Origin","lon":-71.102754,"lat":48.419872,"departure":1522715021000,"orig":"","vertexType":"NORMAL"},"to":{"name":"ch. de la Réserve / Hertel","stopId":"1:619","stopCode":"619","lon":-71.098443,"lat":48.42068,"arrival":1522715489000,"departure":1522715490000,"zoneId":"NA","stopIndex":24,"stopSequence":25,"vertexType":"TRANSIT"},"legGeometry":{"points":"q`pfHrg~pL?CCICCECGAG@GBEDMHC?EC{C{Cm@m@}AyAdAiDjAbAjAcEo@i@lA}DOc@","length":21},"rentedBike":false,"transitLeg":false,"duration":468.0,"steps":[{"distance":240.175,"relativeDirection":"DEPART","streetName":"Rue Rioux","absoluteDirection":"NORTHEAST","stayOn":false,"area":false,"bogusName":false,"lon":-71.10281295418727,"lat":48.420097043747624,"elevation":[]},{"distance":74.219,"relativeDirection":"RIGHT","streetName":"Rue Dutil","absoluteDirection":"SOUTHEAST","stayOn":false,"area":false,"bogusName":false,"lon":-71.10132630000001,"lat":48.4219152,"elevation":[]},{"distance":49.015,"relativeDirection":"RIGHT","streetName":"Rue du Stade","absoluteDirection":"SOUTHWEST","stayOn":false,"area":false,"bogusName":false,"lon":-71.10047440000001,"lat":48.421560400000004,"elevation":[]},{"distance":83.705,"relativeDirection":"LEFT","streetName":"Rue Blais","absoluteDirection":"SOUTHEAST","stayOn":false,"area":false,"bogusName":false,"lon":-71.10081910000001,"lat":48.421183600000006,"elevation":[]},{"distance":30.993,"relativeDirection":"LEFT","streetName":"Rue Gendron","absoluteDirection":"NORTHEAST","stayOn":false,"area":false,"bogusName":false,"lon":-71.0998373,"lat":48.420806600000006,"elevation":[]},{"distance":82.31,"relativeDirection":"RIGHT","streetName":"Rue Alain","absoluteDirection":"SOUTHEAST","stayOn":false,"area":false,"bogusName":false,"lon":-71.0996222,"lat":48.421046000000004,"elevation":[]},{"distance":15.646,"relativeDirection":"LEFT","streetName":"Chemin de la Réserve","absoluteDirection":"NORTHEAST","stayOn":false,"area":false,"bogusName":false,"lon":-71.0986724,"lat":48.4206579,"elevation":[]}]},{"startTime":1522715490000,"endTime":1522716060000,"departureDelay":0,"arrivalDelay":0,"realTime":false,"distance":2982.9565048433888,"pathway":false,"mode":"BUS","route":"16","agencyName":"Société de Transport du Saguenay","agencyUrl":"http://ville.saguenay.ca/fr/services-aux-citoyens/transport-sts","agencyTimeZoneOffset":-14400000,"routeColor":"00FF00","routeType":3,"routeId":"1:16","routeTextColor":"000000","interlineWithPreviousLeg":false,"tripBlockId":"34","headsign":"Terminus Chicoutimi","agencyId":"0","tripId":"1:218234","serviceDate":"20180402","from":{"name":"ch. de la Réserve / Hertel","stopId":"1:619","stopCode":"619","lon":-71.098443,"lat":48.42068,"arrival":1522715489000,"departure":1522715490000,"zoneId":"NA","stopIndex":24,"stopSequence":25,"vertexType":"TRANSIT"},"to":{"name":"Terminus Chicoutimi","stopId":"1:1289","stopCode":"1289","lon":-71.066163,"lat":48.428677,"arrival":1522716060000,"departure":1522716061000,"zoneId":"NA","stopIndex":35,"stopSequence":36,"vertexType":"TRANSIT"},"legGeometry":{"points":"sdpfHzl}pL}@mBqAkKg@aE@wFS}AiAaIgA{B}CiGiBeFqBsFQ_@wA_DyAaD_AoBQ[sAuC{@sBeCcGqAwC[g@]a@aAw@[_@cA}A_@w@GU[iDWaDzByCv@cA`@e@TSp@g@nAo@nBm@ZSf@c@PMb@[b@_@b@e@PYP]N_@La@P{@NcB@IBcAG_A{@sEEg@oAP}@DiBDFeBMa@iBCq@FmBPFcEDoBNiHyDWN_HBoA@Y@m@","length":69},"routeShortName":"16","routeLongName":"Côte de la Réserve","rentedBike":false,"transitLeg":true,"duration":570.0,"steps":[]},{"startTime":1522716061000,"endTime":1522716418000,"departureDelay":0,"arrivalDelay":0,"realTime":false,"distance":454.36000000000007,"pathway":false,"mode":"WALK","route":"","agencyTimeZoneOffset":-14400000,"interlineWithPreviousLeg":false,"from":{"name":"Terminus Chicoutimi","stopId":"1:1289","stopCode":"1289","lon":-71.066163,"lat":48.428677,"arrival":1522716060000,"departure":1522716061000,"zoneId":"NA","stopIndex":35,"stopSequence":36,"vertexType":"TRANSIT"},"to":{"name":"Destination","lon":-71.062753,"lat":48.42636,"arrival":1522716418000,"orig":"","vertexType":"NORMAL"},"legGeometry":{"points":"{uqfHb~vpLbAJR@JDb@LrBHP@jCPDwC@s@@_@@y@BqA@]@WBe@DwB?Q","length":18},"rentedBike":false,"transitLeg":false,"duration":357.0,"steps":[{"distance":229.71300000000002,"relativeDirection":"DEPART","streetName":"Rue Morin","absoluteDirection":"SOUTH","stayOn":false,"area":false,"bogusName":false,"lon":-71.0654590096484,"lat":48.428628638946556,"elevation":[]},{"distance":224.647,"relativeDirection":"LEFT","streetName":"Rue Jacques-Cartier Est","absoluteDirection":"EAST","stayOn":false,"area":false,"bogusName":false,"lon":-71.0657774,"lat":48.426577300000005,"elevation":[]}]}],"tooSloped":false}]},"debugOutput":{"precalculationTime":24,"pathCalculationTime":21,"pathTimes":[13,6,2],"renderingTime":0,"totalTime":45,"timedOut":false},"elevationMetadata":{"ellipsoidToGeoidDifference":-28.885904201182168,"geoidElevation":false}}