{"requestParameters":{"date":"2018/04/02","walkSpeed":"1.33","walkReluctance":"2.0","fromPlace":"48.421729,-71.105384","maxWalkDistance":"3000","waitReluctance":"1.0","carSpeed":"33","numItineraries":"3","waitAtBeginningFactor":"0.4","mode":"TRANSIT,WALK","ignoreRealtimeUpdates":"false","stairsReluctance":"2.0","toPlace":"48.416284,-71.06403199","time":"10:0:00"},"plan":{"date":1522677600000,"from":{"name":"Origin","lon":-71.105384,"lat":48.421729,"orig":"","vertexType":"NORMAL"},"to":{"name":"Destination","lon":-71.06403199,"lat":48.416284,"orig":"","vertexType":"NORMAL"},"itineraries":[{"duration":2194,"startTime":1522678890000,"endTime":1522681084000,"walkTime":779,"transitTime":1173,"waitingTime":242,"walkDistance":989.3988947285206,"walkLimitExceeded":false,"elevationLost":0.0,"elevationGained":0.0,"transfers":1,"legs":[{"startTime":1522678890000,"endTime":1522679489000,"departureDelay":0,"arrivalDelay":0,"realTime":false,"distance":751.77,"pathway":false,"mode":"WALK","route":"","agencyTimeZoneOffset":-14400000,"interlineWithPreviousLeg":false,"from":{"name":"Origin","lon":-71.105384,"lat":48.421729,"departure":1522678890000,"orig":"","vertexType":"NORMAL"},"to":{"name":"ch. de la Réserve / Hertel","stopId":"1:619","stopCode":"619","lon":-71.098443,"lat":48.42068,"arrival":1522679489000,"departure":1522679490000,"zoneId":"NA","stopIndex":24,"stopSequence":25,"vertexType":"TRANSIT"},"legGeometry":{"points":"ekpfHxx~pLa@[|CmKAw@U]eAm@M]Dg@n@aC}AyAdAiDjAbAjAcEo@i@lA}DOc@","length":16},"rentedBike":false,"transitLeg":false,"duration":599.0,"steps":[{"distance":21.185,"relativeDirection":"DEPART","streetName":"Rue Philips","absoluteDirection":"NORTHEAST","stayOn":false,"area":false,"bogusName":false,"lon":-71.10556329507581,"lat":48.42179621059341,"elevation":[]},{"distance":333.445,"relativeDirection":"RIGHT","streetName":"Rue Murray","absoluteDirection":"SOUTHEAST","stayOn":false,"area":false,"bogusName":false,"lon":-71.1054221,"lat":48.4219621,"elevation":[]},{"distance":61.252,"relativeDirection":"LEFT","streetName":"Rue Rioux","absoluteDirection":"NORTHEAST","stayOn":false,"area":false,"bogusName":false,"lon":-71.10177060000001,"lat":48.421449900000006,"elevation":[]},{"distance":74.219,"relativeDirection":"RIGHT","streetName":"Rue Dutil","absoluteDirection":"SOUTHEAST","stayOn":false,"area":false,"bogusName":false,"lon":-71.10132630000001,"lat":48.4219152,"elevation":[]},{"distance":49.015,"relativeDirection":"RIGHT","streetName":"Rue du Stade","absoluteDirection":"SOUTHWEST","stayOn":false,"area":false,"bogusName":false,"lon":-71.10047440000001,"lat":48.421560400000004,"elevation":[]},{"distance":83.705,"relativeDirection":"LEFT","streetName":"Rue Blais","absoluteDirection":"SOUTHEAST","stayOn":false,"area":false,"bogusName":false,"lon":-71.10081910000001,"lat":48.421183600000006,"elevation":[]},{"distance":30.993,"relativeDirection":"LEFT","streetName":"Rue Gendron","absoluteDirection":"NORTHEAST","stayOn":false,"area":false,"bogusName":false,"lon":-71.0998373,"lat":48.420806600000006,"elevation":[]},{"distance":82.31,"relativeDirection":"RIGHT","streetName":"Rue Alain","absoluteDirection":"SOUTHEAST","stayOn":false,"area":false,"bogusName":false,"lon":-71.0996222,"lat":48.421046000000004,"elevation":[]},{"distance":15.646,"relativeDirection":"LEFT","streetName":"Chemin de la Réserve","absoluteDirection":"NORTHEAST","stayOn":false,"area":false,"bogusName":false,"lon":-71.0986724,"lat":48.4206579,"elevation":[]}]},{"startTime":1522679490000,"endTime":1522680060000,"departureDelay":0,"arrivalDelay":0,"realTime":false,"distance":2982.9565048433888,"pathway":false,"mode":"BUS","route":"16","agencyName":"Société de Transport du Saguenay","agencyUrl":"http://ville.saguenay.ca/fr/services-aux-citoyens/transport-sts","agencyTimeZoneOffset":-14400000,"routeColor":"00FF00","routeType":3,"routeId":"1:16","routeTextColor":"000000","interlineWithPreviousLeg":false,"tripBlockId":"34","headsign":"Terminus Chicoutimi","agencyId":"0","tripId":"1:218214","serviceDate":"20180402","from":{"name":"ch. de la Réserve / Hertel","stopId":"1:619","stopCode":"619","lon":-71.098443,"lat":48.42068,"arrival":1522679489000,"departure":1522679490000,"zoneId":"NA","stopIndex":24,"stopSequence":25,"vertexType":"TRANSIT"},"to":{"name":"Terminus Chicoutimi","stopId":"1:1289","stopCode":"1289","lon":-71.066163,"lat":48.428677,"arrival":1522680060000,"departure":1522680300000,"zoneId":"NA","stopIndex":35,"stopSequence":36,"vertexType":"TRANSIT"},"legGeometry":{"points":"sdpfHzl}pL}@mBqAkKg@aE@wFS}AiAaIgA{B}CiGiBeFqBsFQ_@wA_DyAaD_AoBQ[sAuC{@sBeCcGqAwC[g@]a@aAw@[_@cA}A_@w@GU[iDWaDzByCv@cA`@e@TSp@g@nAo@nBm@ZSf@c@PMb@[b@_@b@e@PYP]N_@La@P{@NcB@IBcAG_A{@sEEg@oAP}@DiBDFeBMa@iBCq@FmBPFcEDoBNiHyDWN_HBoA@Y@m@","length":69},"routeShortName":"16","routeLongName":"Côte de la Réserve","rentedBike":false,"transitLeg":true,"duration":570.0,"steps":[]},{"startTime":1522680300000,"endTime":1522680903000,"departureDelay":0,"arrivalDelay":0,"realTime":false,"distance":2431.8743195077645,"pathway":false,"mode":"BUS","route":"15","agencyName":"Société de Transport du Saguenay","agencyUrl":"http://ville.saguenay.ca/fr/services-aux-citoyens/transport-sts","agencyTimeZoneOffset":-14400000,"routeColor":"FF00FF","routeType":3,"routeId":"1:15","routeTextColor":"FFFFFF","interlineWithPreviousLeg":false,"tripBlockId":"31","headsign":"Talbot / Barrette","agencyId":"0","tripId":"1:218130","serviceDate":"20180402","from":{"name":"Terminus Chicoutimi","stopId":"1:1289","stopCode":"1289","lon":-71.066163,"lat":48.428677,"arrival":1522680060000,"departure":1522680300000,"zoneId":"NA","stopIndex":0,"stopSequence":1,"vertexType":"TRANSIT"},"to":{"name":"Parc Rosaire-Gauthier (Bégin)","stopId":"1:565","stopCode":"565","lon":-71.062703,"lat":48.418264,"arrival":1522680903000,"departure":1522680904000,"zoneId":"NA","stopIndex":9,"stopSequence":10,"vertexType":"TRANSIT"},"legGeometry":{"points":"evqfHpbwpLPiCjKx@HiEZkS\\aSN_K^eIrBpBvIpIr@r@\\mBfAaA`@gBOkB_@uF|DyL|DpDQ|@|@z@bA`ATw@dD~Ch@fA@`E~AjGuH`Iy@bBi@dCbEdEjJlJ","length":31},"routeShortName":"15","routeLongName":"Term. Chic / Costco","rentedBike":false,"transitLeg":true,"duration":603.0,"steps":[]},{"startTime":1522680904000,"endTime":1522681084000,"departureDelay":0,"arrivalDelay":0,"realTime":false,"distance":237.371,"pathway":false,"mode":"WALK","route":"","agencyTimeZoneOffset":-14400000,"interlineWithPreviousLeg":false,"from":{"name":"Parc Rosaire-Gauthier (Bégin)","stopId":"1:565","stopCode":"565","lon":-71.062703,"lat":48.418264,"arrival":1522680903000,"departure":1522680904000,"zoneId":"NA","stopIndex":9,"stopSequence":10,"vertexType":"TRANSIT"},"to":{"name":"Destination","lon":-71.06403199,"lat":48.416284,"arrival":1522681084000,"orig":"","vertexType":"NORMAL"},"legGeometry":{"points":"{tofHhlvpLvBvBzDnD\\XTV","length":5},"rentedBike":false,"transitLeg":false,"duration":180.0,"steps":[{"distance":237.371,"relativeDirection":"DEPART","streetName":"Rue Bégin","absoluteDirection":"SOUTHWEST","stayOn":false,"area":false,"bogusName":false,"lon":-71.06260892256674,"lat":48.41822274494227,"elevation":[]}]}],"tooSloped":false},{"duration":2194,"startTime":1522680690000,"endTime":1522682884000,"walkTime":779,"transitTime":1173,"waitingTime":242,"walkDistance":989.3988947285206,"walkLimitExceeded":false,"elevationLost":0.0,"elevationGained":0.0,"transfers":1,"legs":[{"startTime":1522680690000,"endTime":1522681289000,"departureDelay":0,"arrivalDelay":0,"realTime":false,"distance":751.77,"pathway":false,"mode":"WALK","route":"","agencyTimeZoneOffset":-14400000,"interlineWithPreviousLeg":false,"from":{"name":"Origin","lon":-71.105384,"lat":48.421729,"departure":1522680690000,"orig":"","vertexType":"NORMAL"},"to":{"name":"ch. de la Réserve / Hertel","stopId":"1:619","stopCode":"619","lon":-71.098443,"lat":48.42068,"arrival":1522681289000,"departure":1522681290000,"zoneId":"NA","stopIndex":24,"stopSequence":25,"vertexType":"TRANSIT"},"legGeometry":{"points":"ekpfHxx~pLa@[|CmKAw@U]eAm@M]Dg@n@aC}AyAdAiDjAbAjAcEo@i@lA}DOc@","length":16},"rentedBike":false,"transitLeg":false,"duration":599.0,"steps":[{"distance":21.185,"relativeDirection":"DEPART","streetName":"Rue Philips","absoluteDirection":"NORTHEAST","stayOn":false,"area":false,"bogusName":false,"lon":-71.10556329507581,"lat":48.42179621059341,"elevation":[]},{"distance":333.445,"relativeDirection":"RIGHT","streetName":"Rue Murray","absoluteDirection":"SOUTHEAST","stayOn":false,"area":false,"bogusName":false,"lon":-71.1054221,"lat":48.4219621,"elevation":[]},{"distance":61.252,"relativeDirection":"LEFT","streetName":"Rue Rioux","absoluteDirection":"NORTHEAST","stayOn":false,"area":false,"bogusName":false,"lon":-71.10177060000001,"lat":48.421449900000006,"elevation":[]},{"distance":74.219,"relativeDirection":"RIGHT","streetName":"Rue Dutil","absoluteDirection":"SOUTHEAST","stayOn":false,"area":false,"bogusName":false,"lon":-71.10132630000001,"lat":48.4219152,"elevation":[]},{"distance":49.015,"relativeDirection":"RIGHT","streetName":"Rue du Stade","absoluteDirection":"SOUTHWEST","stayOn":false,"area":false,"bogusName":false,"lon":-71.10047440000001,"lat":48.421560400000004,"elevation":[]},{"distance":83.705,"relativeDirection":"LEFT","streetName":"Rue Blais","absoluteDirection":"SOUTHEAST","stayOn":false,"area":false,"bogusName":false,"lon":-71.10081910000001,"lat":48.421183600000006,"elevation":[]},{"distance":30.993,"relativeDirection":"LEFT","streetName":"Rue Gendron","absoluteDirection":"NORTHEAST","stayOn":false,"area":false,"bogusName":false,"lon":-71.0998373,"lat":48.420806600000006,"elevation":[]},{"distance":82.31,"relativeDirection":"RIGHT","streetName":"Rue Alain","absoluteDirection":"SOUTHEAST","stayOn":false,"area":false,"bogusName":false,"lon":-71.0996222,"lat":48.421046000000004,"elevation":[]},{"distance":15.646,"relativeDirection":"LEFT","streetName":"Chemin de la Réserve","absoluteDirection":"NORTHEAST","stayOn":false,"area":false,"bogusName":false,"lon":-71.0986724,"lat":48.4206579,"elevation":[]}]},{"startTime":1522681290000,"endTime":1522681860000,"departureDelay":0,"arrivalDelay":0,"realTime":false,"distance":2982.9565048433888,"pathway":false,"mode":"BUS","route":"16","agencyName":"Société de Transport du Saguenay","agencyUrl":"http://ville.saguenay.ca/fr/services-aux-citoyens/transport-sts","agencyTimeZoneOffset":-14400000,"routeColor":"00FF00","routeType":3,"routeId":"1:16","routeTextColor":"000000","interlineWithPreviousLeg":false,"tripBlockId":"36","headsign":"Terminus Chicoutimi","agencyId":"0","tripId":"1:218285","serviceDate":"20180402","from":{"name":"ch. de la Réserve / Hertel","stopId":"1:619","stopCode":"619","lon":-71.098443,"lat":48.42068,"arrival":1522681289000,"departure":1522681290000,"zoneId":"NA","stopIndex":24,"stopSequence":25,"vertexType":"TRANSIT"},"to":{"name":"Terminus Chicoutimi","stopId":"1:1289","stopCode":"1289","lon":-71.066163,"lat":48.428677,"arrival":1522681860000,"departure":1522682100000,"zoneId":"NA","stopIndex":35,"stopSequence":36,"vertexType":"TRANSIT"},"legGeometry":{"points":"sdpfHzl}pL}@mBqAkKg@aE@wFS}AiAaIgA{B}CiGiBeFqBsFQ_@wA_DyAaD_AoBQ[sAuC{@sBeCcGqAwC[g@]a@aAw@[_@cA}A_@w@GU[iDWaDzByCv@cA`@e@TSp@g@nAo@nBm@ZSf@c@PMb@[b@_@b@e@PYP]N_@La@P{@NcB@IBcAG_A{@sEEg@oAP}@DiBDFeBMa@iBCq@FmBPFcEDoBNiHyDWN_HBoA@Y@m@","length":69},"routeShortName":"16","routeLongName":"Côte de la Réserve","rentedBike":false,"transitLeg":true,"duration":570.0,"steps":[]},{"startTime":1522682100000,"endTime":1522682703000,"departureDelay":0,"arrivalDelay":0,"realTime":false,"distance":2431.8743195077645,"pathway":false,"mode":"BUS","route":"15","agencyName":"Société de Transport du Saguenay","agencyUrl":"http://ville.saguenay.ca/fr/services-aux-citoyens/transport-sts","agencyTimeZoneOffset":-14400000,"routeColor":"FF00FF","routeType":3,"routeId":"1:15","routeTextColor":"FFFFFF","interlineWithPreviousLeg":false,"tripBlockId":"33","headsign":"Talbot / Barrette","agencyId":"0","tripId":"1:218181","serviceDate":"20180402","from":{"name":"Terminus Chicoutimi","stopId":"1:1289","stopCode":"1289","lon":-71.066163,"lat":48.428677,"arrival":1522681860000,"departure":1522682100000,"zoneId":"NA","stopIndex":0,"stopSequence":1,"vertexType":"TRANSIT"},"to":{"name":"Parc Rosaire-Gauthier (Bégin)","stopId":"1:565","stopCode":"565","lon":-71.062703,"lat":48.418264,"arrival":1522682703000,"departure":1522682704000,"zoneId":"NA","stopIndex":9,"stopSequence":10,"vertexType":"TRANSIT"},"legGeometry":{"points":"evqfHpbwpLPiCjKx@HiEZkS\\aSN_K^eIrBpBvIpIr@r@\\mBfAaA`@gBOkB_@uF|DyL|DpDQ|@|@z@bA`ATw@dD~Ch@fA@`E~AjGuH`Iy@bBi@dCbEdEjJlJ","length":31},"routeShortName":"15","routeLongName":"Term. Chic / Costco","rentedBike":false,"transitLeg":true,"duration":603.0,"steps":[]},{"startTime":1522682704000,"endTime":1522682884000,"departureDelay":0,"arrivalDelay":0,"realTime":false,"distance":237.371,"pathway":false,"mode":"WALK","route":"","agencyTimeZoneOffset":-14400000,"interlineWithPreviousLeg":false,"from":{"name":"Parc Rosaire-Gauthier (Bégin)","stopId":"1:565","stopCode":"565","lon":-71.062703,"lat":48.418264,"arrival":1522682703000,"departure":1522682704000,"zoneId":"NA","stopIndex":9,"stopSequence":10,"vertexType":"TRANSIT"},"to":{"name":"Destination","lon":-71.06403199,"lat":48.416284,"arrival":1522682884000,"orig":"","vertexType":"NORMAL"},"legGeometry":{"points":"{tofHhlvpLvBvBzDnD\\XTV","length":5},"rentedBike":false,"transitLeg":false,"duration":180.0,"steps":[{"distance":237.371,"relativeDirection":"DEPART","streetName":"Rue Bégin","absoluteDirection":"SOUTHWEST","stayOn":false,"area":false,"bogusName":false,"lon":-71.06260892256674,"lat":48.41822274494227,"elevation":[]}]}],"tooSloped":false},{"duration":2194,"startTime":1522682490000,"endTime":1522684684000,"walkTime":779,"transitTime":1173,"waitingTime":242,"walkDistance":989.3988947285206,"walkLimitExceeded":false,"elevationLost":0.0,"elevationGained":0.0,"transfers":1,"legs":[{"startTime":1522682490000,"endTime":1522683089000,"departureDelay":0,"arrivalDelay":0,"realTime":false,"distance":751.77,"pathway":false,"mode":"WALK","route":"","agencyTimeZoneOffset":-14400000,"interlineWithPreviousLeg":false,"from":{"name":"Origin","lon":-71.105384,"lat":48.421729,"departure":1522682490000,"orig":"","vertexType":"NORMAL"},"to":{"name":"ch. de la Réserve / Hertel","stopId":"1:619","stopCode":"619","lon":-71.098443,"lat":48.42068,"arrival":1522683089000,"departure":1522683090000,"zoneId":"NA","stopIndex":24,"stopSequence":25,"vertexType":"TRANSIT"},"legGeometry":{"points":"ekpfHxx~pLa@[|CmKAw@U]eAm@M]Dg@n@aC}AyAdAiDjAbAjAcEo@i@lA}DOc@","length":16},"rentedBike":false,"transitLeg":false,"duration":599.0,"steps":[{"distance":21.185,"relativeDirection":"DEPART","streetName":"Rue Philips","absoluteDirection":"NORTHEAST","stayOn":false,"area":false,"bogusName":false,"lon":-71.10556329507581,"lat":48.42179621059341,"elevation":[]},{"distance":333.445,"relativeDirection":"RIGHT","streetName":"Rue Murray","absoluteDirection":"SOUTHEAST","stayOn":false,"area":false,"bogusName":false,"lon":-71.1054221,"lat":48.4219621,"elevation":[]},{"distance":61.252,"relativeDirection":"LEFT","streetName":"Rue Rioux","absoluteDirection":"NORTHEAST","stayOn":false,"area":false,"bogusName":false,"lon":-71.10177060000001,"lat":48.421449900000006,"elevation":[]},{"distance":74.219,"relativeDirection":"RIGHT","streetName":"Rue Dutil","absoluteDirection":"SOUTHEAST","stayOn":false,"area":false,"bogusName":false,"lon":-71.10132630000001,"lat":48.4219152,"elevation":[]},{"distance":49.015,"relativeDirection":"RIGHT","streetName":"Rue du Stade","absoluteDirection":"SOUTHWEST","stayOn":false,"area":false,"bogusName":false,"lon":-71.10047440000001,"lat":48.421560400000004,"elevation":[]},{"distance":83.705,"relativeDirection":"LEFT","streetName":"Rue Blais","absoluteDirection":"SOUTHEAST","stayOn":false,"area":false,"bogusName":false,"lon":-71.10081910000001,"lat":48.421183600000006,"elevation":[]},{"distance":30.993,"relativeDirection":"LEFT","streetName":"Rue Gendron","absoluteDirection":"NORTHEAST","stayOn":false,"area":false,"bogusName":false,"lon":-71.0998373,"lat":48.420806600000006,"elevation":[]},{"distance":82.31,"relativeDirection":"RIGHT","streetName":"Rue Alain","absoluteDirection":"SOUTHEAST","stayOn":false,"area":false,"bogusName":false,"lon":-71.0996222,"lat":48.421046000000004,"elevation":[]},{"distance":15.646,"relativeDirection":"LEFT","streetName":"Chemin de la Réserve","absoluteDirection":"NORTHEAST","stayOn":false,"area":false,"bogusName":false,"lon":-71.0986724,"lat":48.4206579,"elevation":[]}]},{"startTime":1522683090000,"endTime":1522683660000,"departureDelay":0,"arrivalDelay":0,"realTime":false,"distance":2982.9565048433888,"pathway":false,"mode":"BUS","route":"16","agencyName":"Société de Transport du Saguenay","agencyUrl":"http://ville.saguenay.ca/fr/services-aux-citoyens/transport-sts","agencyTimeZoneOffset":-14400000,"routeColor":"00FF00","routeType":3,"routeId":"1:16","routeTextColor":"000000","interlineWithPreviousLeg":false,"tripBlockId":"35","headsign":"Terminus Chicoutimi","agencyId":"0","tripId":"1:218251","serviceDate":"20180402","from":{"name":"ch. de la Réserve / Hertel","stopId":"1:619","stopCode":"619","lon":-71.098443,"lat":48.42068,"arrival":1522683089000,"departure":1522683090000,"zoneId":"NA","stopIndex":24,"stopSequence":25,"vertexType":"TRANSIT"},"to":{"name":"Terminus Chicoutimi","stopId":"1:1289","stopCode":"1289","lon":-71.066163,"lat":48.428677,"arrival":1522683660000,"departure":1522683900000,"zoneId":"NA","stopIndex":35,"stopSequence":36,"vertexType":"TRANSIT"},"legGeometry":{"points":"sdpfHzl}pL}@mBqAkKg@aE@wFS}AiAaIgA{B}CiGiBeFqBsFQ_@wA_DyAaD_AoBQ[sAuC{@sBeCcGqAwC[g@]a@aAw@[_@cA}A_@w@GU[iDWaDzByCv@cA`@e@TSp@g@nAo@nBm@ZSf@c@PMb@[b@_@b@e@PYP]N_@La@P{@NcB@IBcAG_A{@sEEg@oAP}@DiBDFeBMa@iBCq@FmBPFcEDoBNiHyDWN_HBoA@Y@m@","length":69},"routeShortName":"16","routeLongName":"Côte de la Réserve","rentedBike":false,"transitLeg":true,"duration":570.0,"steps":[]},{"startTime":1522683900000,"endTime":1522684503000,"departureDelay":0,"arrivalDelay":0,"realTime":false,"distance":2431.8743195077645,"pathway":false,"mode":"BUS","route":"15","agencyName":"Société de Transport du Saguenay","agencyUrl":"http://ville.saguenay.ca/fr/services-aux-citoyens/transport-sts","agencyTimeZoneOffset":-14400000,"routeColor":"FF00FF","routeType":3,"routeId":"1:15","routeTextColor":"FFFFFF","interlineWithPreviousLeg":false,"tripBlockId":"31","headsign":"Talbot / Barrette","agencyId":"0","tripId":"1:218132","serviceDate":"20180402","from":{"name":"Terminus Chicoutimi","stopId":"1:1289","stopCode":"1289","lon":-71.066163,"lat":48.428677,"arrival":1522683660000,"departure":1522683900000,"zoneId":"NA","stopIndex":0,"stopSequence":1,"vertexType":"TRANSIT"},"to":{"name":"Parc Rosaire-Gauthier (Bégin)","stopId":"1:565","stopCode":"565","lon":-71.062703,"lat":48.418264,"arrival":1522684503000,"departure":1522684504000,"zoneId":"NA","stopIndex":9,"stopSequence":10,"vertexType":"TRANSIT"},"legGeometry":{"points":"evqfHpbwpLPiCjKx@HiEZkS\\aSN_K^eIrBpBvIpIr@r@\\mBfAaA`@gBOkB_@uF|DyL|DpDQ|@|@z@bA`ATw@dD~Ch@fA@`E~AjGuH`Iy@bBi@dCbEdEjJlJ","length":31},"routeShortName":"15","routeLongName":"Term. Chic / Costco","rentedBike":false,"transitLeg":true,"duration":603.0,"steps":[]},{"startTime":1522684504000,"endTime":1522684684000,"departureDelay":0,"arrivalDelay":0,"realTime":false,"distance":237.371,"pathway":false,"mode":"WALK","route":"","agencyTimeZoneOffset":-14400000,"interlineWithPreviousLeg":false,"from":{"name":"Parc Rosaire-Gauthier (Bégin)","stopId":"1:565","stopCode":"565","lon":-71.062703,"lat":48.418264,"arrival":1522684503000,"departure":1522684504000,"zoneId":"NA","stopIndex":9,"stopSequence":10,"vertexType":"TRANSIT"},"to":{"name":"Destination","lon":-71.06403199,"lat":48.416284,"arrival":1522684684000,"orig":"","vertexType":"NORMAL"},"legGeometry":{"points":"{tofHhlvpLvBvBzDnD\\XTV","length":5},"rentedBike":false,"transitLeg":false,"duration":180.0,"steps":[{"distance":237.371,"relativeDirection":"DEPART","streetName":"Rue Bégin","absoluteDirection":"SOUTHWEST","stayOn":false,"area":false,"bogusName":false,"lon":-71.06260892256674,"lat":48.41822274494227,"elevation":[]}]}],"tooSloped":false}]},"debugOutput":{"precalculationTime":43,"pathCalculationTime":24,"pathTimes":[14,6,4],"renderingTime":1,"totalTime":68,"timedOut":false},"elevationMetadata":{"ellipsoidToGeoidDifference":-28.885904201182168,"geoidElevation":false}}