{"requestParameters":{"date":"2018/04/02","walkSpeed":"1.33","walkReluctance":"2.0","fromPlace":"48.420485,-71.060146","maxWalkDistance":"3000","waitReluctance":"1.0","carSpeed":"33","numItineraries":"3","waitAtBeginningFactor":"0.4","mode":"TRANSIT,WALK","ignoreRealtimeUpdates":"false","stairsReluctance":"2.0","toPlace":"48.423147,-71.104104","time":"22:0:00"},"plan":{"date":1522720800000,"from":{"name":"Origin","lon":-71.060146,"lat":48.420485,"orig":"","vertexType":"NORMAL"},"to":{"name":"Destination","lon":-71.104104,"lat":48.423147,"orig":"","vertexType":"NORMAL"},"itineraries":[{"duration":2003,"startTime":1522722488000,"endTime":1522724491000,"walkTime":313,"transitTime":1268,"waitingTime":422,"walkDistance":406.969443608137,"walkLimitExceeded":false,"elevationLost":0.0,"elevationGained":0.0,"transfers":1,"legs":[{"startTime":1522722488000,"endTime":1522722531000,"departureDelay":0,"arrivalDelay":0,"realTime":false,"distance":54.318,"pathway":false,"mode":"WALK","route":"","agencyTimeZoneOffset":-14400000,"interlineWithPreviousLeg":false,"from":{"name":"Origin","lon":-71.060146,"lat":48.420485,"departure":1522722488000,"orig":"","vertexType":"NORMAL"},"to":{"name":"Centre George Vézina (Bégin)","stopId":"1:583","stopCode":"583","lon":-71.0606,"lat":48.4201,"arrival":1522722531000,"departure":1522722532000,"zoneId":"NA","stopIndex":28,"stopSequence":29,"vertexType":"TRANSIT"},"legGeometry":{"points":"icpfHt}upLz@|@RR","length":3},"rentedBike":false,"transitLeg":false,"duration":43.0,"steps":[{"distance":54.318,"relativeDirection":"DEPART","streetName":"Rue Bégin","absoluteDirection":"SOUTHWEST","stayOn":false,"area":false,"bogusName":false,"lon":-71.06026360122416,"lat":48.42053841967193,"elevation":[]}]},{"startTime":1522722532000,"endTime":1522723080000,"departureDelay":0,"arrivalDelay":0,"realTime":false,"distance":2494.889526397538,"pathway":false,"mode":"BUS","route":"15","agencyName":"Société de Transport du Saguenay","agencyUrl":"http://ville.saguenay.ca/fr/services-aux-citoyens/transport-sts","agencyTimeZoneOffset":-14400000,"routeColor":"FF00FF","routeType":3,"routeId":"1:15","routeTextColor":"FFFFFF","interlineWithPreviousLeg":false,"tripBlockId":"30","headsign":"Terminus Chicoutimi","agencyId":"0","tripId":"1:218118","serviceDate":"20180402","from":{"name":"Centre George Vézina (Bégin)","stopId":"1:583","stopCode":"583","lon":-71.0606,"lat":48.4201,"arrival":1522722531000,"departure":1522722532000,"zoneId":"NA","stopIndex":28,"stopSequence":29,"vertexType":"TRANSIT"},"to":{"name":"Terminus Chicoutimi","stopId":"1:1289","stopCode":"1289","lon":-71.066163,"lat":48.428677,"arrival":1522723080000,"departure":1522723500000,"zoneId":"NA","stopIndex":39,"stopSequence":40,"vertexType":"TRANSIT"},"legGeometry":{"points":"y`pfHh`vpLUUwBaCj@wCjAsCzGoG_CoHL{D_@kAqD{CQr@iAcAy@w@L{@wAuA_B_B_EpLDh@NbBVvCIxBg@`Am@l@Sb@a@rAqDqDmEkE]a@kAqAU|@WnKG|DGxDOdPKvJU|F?XQlJC~@ChAIzEcCOaIi@VwL","length":44},"routeShortName":"15","routeLongName":"Term. Chic / Costco","rentedBike":false,"transitLeg":true,"duration":548.0,"steps":[]},{"startTime":1522723500000,"endTime":1522724220000,"departureDelay":0,"arrivalDelay":0,"realTime":false,"distance":4440.510942259597,"pathway":false,"mode":"BUS","route":"16","agencyName":"Société de Transport du Saguenay","agencyUrl":"http://ville.saguenay.ca/fr/services-aux-citoyens/transport-sts","agencyTimeZoneOffset":-14400000,"routeColor":"00FF00","routeType":3,"routeId":"1:16","routeTextColor":"000000","interlineWithPreviousLeg":false,"tripBlockId":"35","headsign":"Faubourg Sagamie","agencyId":"0","tripId":"1:218274","serviceDate":"20180402","from":{"name":"Terminus Chicoutimi","stopId":"1:1289","stopCode":"1289","lon":-71.066163,"lat":48.428677,"arrival":1522723080000,"departure":1522723500000,"zoneId":"NA","stopIndex":0,"stopSequence":1,"vertexType":"TRANSIT"},"to":{"name":"Rioux / Desgagné","stopId":"1:609","stopCode":"609","lon":-71.100439,"lat":48.42301,"arrival":1522724220000,"departure":1522724221000,"zoneId":"NA","stopIndex":23,"stopSequence":24,"vertexType":"TRANSIT"},"legGeometry":{"points":"evqfHzcwpLg@?AXCnAO~GxDVhCP~M~@jDTOrHKdGE^E~BQnIMhGAxCD~@Df@DVDZd@zBBLDJJNHHHDJBn@HCxAHdAFX@DFj@@b@Ab@SvAe@p@{EnEEB{@w@m@o@aDeDIKCMCM?SL}A?A@WCYi@mDOu@Wm@EIMSSWaAcAuAcBq@f@URa@d@u@`A}BzCV`DX~C@HFT^v@bA|AZ^`Av@\\`@Zf@pAvCtD`JJTrAtCpAjC@BvA|CvA~Ci@zAqD`KyDrKyF|Og@tAr@r@h@^jA\\\\Nt@\\PHf@RVDXEROR[p@iBr@uBJQLIDCNEr@lERbBFzA@LFbFN`A^r@bB|AlC`BDBz@t@eAjD|@x@","length":116},"routeShortName":"16","routeLongName":"Côte de la Réserve","rentedBike":false,"transitLeg":true,"duration":720.0,"steps":[]},{"startTime":1522724221000,"endTime":1522724491000,"departureDelay":0,"arrivalDelay":0,"realTime":false,"distance":352.624,"pathway":false,"mode":"WALK","route":"","agencyTimeZoneOffset":-14400000,"interlineWithPreviousLeg":false,"from":{"name":"Rioux / Desgagné","stopId":"1:609","stopCode":"609","lon":-71.100439,"lat":48.42301,"arrival":1522724220000,"departure":1522724221000,"zoneId":"NA","stopIndex":23,"stopSequence":24,"vertexType":"TRANSIT"},"to":{"name":"Destination","lon":-71.104104,"lat":48.423147,"arrival":1522724491000,"orig":"","vertexType":"NORMAL"},"legGeometry":{"points":"qrpfHdx}pLvClCu@pCOjAE`@m@pH]lA","length":7},"rentedBike":false,"transitLeg":false,"duration":270.0,"steps":[{"distance":99.516,"relativeDirection":"DEPART","streetName":"Rue Rioux","absoluteDirection":"SOUTHWEST","stayOn":false,"area":false,"bogusName":false,"lon":-71.10034784478613,"lat":48.42297248541416,"elevation":[]},{"distance":253.108,"relativeDirection":"RIGHT","streetName":"Rue Warren","absoluteDirection":"NORTHWEST","stayOn":false,"area":false,"bogusName":false,"lon":-71.1010586,"lat":48.4222119,"elevation":[]}]}],"tooSloped":false},{"duration":2898,"startTime":1522721859000,"endTime":1522724757000,"walkTime":2804,"transitTime":92,"waitingTime":2,"walkDistance":3633.6585187854566,"walkLimitExceeded":false,"elevationLost":0.0,"elevationGained":0.0,"transfers":0,"legs":[{"startTime":1522721859000,"endTime":1522722839000,"departureDelay":0,"arrivalDelay":0,"realTime":false,"distance":1267.109,"pathway":false,"mode":"WALK","route":"","agencyTimeZoneOffset":-14400000,"interlineWithPreviousLeg":false,"from":{"name":"Origin","lon":-71.060146,"lat":48.420485,"departure":1522721859000,"orig":"","vertexType":"NORMAL"},"to":{"name":"Dubuc / Lapointe","stopId":"1:1578","stopCode":"1578","lon":-71.075709,"lat":48.421825,"arrival":1522722839000,"departure":1522722840000,"zoneId":"NA","stopIndex":23,"stopSequence":24,"vertexType":"TRANSIT"},"legGeometry":{"points":"icpfHt}upLGGg@i@KMCh@KpBm@hQAb@An@EtBCj@QfHAh@GbDEfBMbGA`@QpJKjBO~@WbAy@dCG`@?d@@n@D|@Bd@XbAFb@|@~@TVy@tB","length":32},"rentedBike":false,"transitLeg":false,"duration":980.0,"steps":[{"distance":40.183,"relativeDirection":"DEPART","streetName":"Rue Bégin","absoluteDirection":"NORTHEAST","stayOn":false,"area":false,"bogusName":false,"lon":-71.06026360122416,"lat":48.42053841967193,"elevation":[]},{"distance":1003.7,"relativeDirection":"HARD_LEFT","streetName":"Boulevard de l'Université","absoluteDirection":"WEST","stayOn":false,"area":false,"bogusName":false,"lon":-71.0599459,"lat":48.4208319,"elevation":[]},{"distance":168.75,"relativeDirection":"SLIGHTLY_LEFT","streetName":"Rue Saint-Paul","absoluteDirection":"WEST","stayOn":false,"area":false,"bogusName":false,"lon":-71.0732783,"lat":48.4221458,"elevation":[]},{"distance":54.476,"relativeDirection":"RIGHT","streetName":"Rue Dubuc","absoluteDirection":"NORTHWEST","stayOn":false,"area":false,"bogusName":false,"lon":-71.0751601,"lat":48.4214934,"elevation":[]}]},{"startTime":1522722840000,"endTime":1522722932000,"departureDelay":0,"arrivalDelay":0,"realTime":false,"distance":274.55881057462403,"pathway":false,"mode":"BUS","route":"11","agencyName":"Société de Transport du Saguenay","agencyUrl":"http://ville.saguenay.ca/fr/services-aux-citoyens/transport-sts","agencyTimeZoneOffset":-14400000,"routeColor":"FF0000","routeType":3,"routeId":"1:11","routeTextColor":"FFFFFF","interlineWithPreviousLeg":false,"tripBlockId":"35","headsign":"Terminus Chicoutimi","agencyId":"0","tripId":"1:218273","serviceDate":"20180402","from":{"name":"Dubuc / Lapointe","stopId":"1:1578","stopCode":"1578","lon":-71.075709,"lat":48.421825,"arrival":1522722839000,"departure":1522722840000,"zoneId":"NA","stopIndex":23,"stopSequence":24,"vertexType":"TRANSIT"},"to":{"name":"Doré / Bossé","stopId":"1:1851","stopCode":"1851","lon":-71.078314,"lat":48.423588,"arrival":1522722932000,"departure":1522722933000,"zoneId":"NA","stopIndex":24,"stopSequence":25,"vertexType":"TRANSIT"},"legGeometry":{"points":"}jpfHr~xpLEHwAtDmBvEOd@[bBK~AIf@YHE@Q@O?OCI_@GMEKI_AB_A","length":18},"routeShortName":"11","routeLongName":"Chic/Faubourg via St-Paul","rentedBike":false,"transitLeg":true,"duration":92.0,"steps":[]},{"startTime":1522722933000,"endTime":1522724757000,"departureDelay":0,"arrivalDelay":0,"realTime":false,"distance":2366.191999999999,"pathway":false,"mode":"WALK","route":"","agencyTimeZoneOffset":-14400000,"interlineWithPreviousLeg":false,"from":{"name":"Doré / Bossé","stopId":"1:1851","stopCode":"1851","lon":-71.078314,"lat":48.423588,"arrival":1522722932000,"departure":1522722933000,"zoneId":"NA","stopIndex":24,"stopSequence":25,"vertexType":"TRANSIT"},"to":{"name":"Destination","lon":-71.104104,"lat":48.423147,"arrival":1522724757000,"orig":"","vertexType":"NORMAL"},"legGeometry":{"points":"gvpfHvmypLRDWtDDP?jAO`B_BpBqBpBs@t@Y`@Yl@aAxCi@zAyAfEjBrD~@hBBFf@dAbAzBz@bC~AhDZt@Tf@??JPXjBZv@Rd@JT`AzBDHLTr@|AJRJRFNZp@Zr@pA`H@HBLVxADhAAj@IvA?NAlA?FHz@Y`@_@n@c@tCg@jBcArDgA~DaAjDv@r@vClCu@pCOjAE`@m@pH]lA","length":63},"rentedBike":false,"transitLeg":false,"duration":1824.0,"steps":[{"distance":11.439,"relativeDirection":"DEPART","streetName":"road","absoluteDirection":"SOUTH","stayOn":false,"area":false,"bogusName":true,"lon":-71.07819180328963,"lat":48.42356983840622,"elevation":[]},{"distance":68.065,"relativeDirection":"RIGHT","streetName":"Rue le Doré","absoluteDirection":"WEST","stayOn":false,"area":false,"bogusName":false,"lon":-71.0782257,"lat":48.4234694,"elevation":[]},{"distance":7.693,"relativeDirection":"LEFT","streetName":"Rue Bossé","absoluteDirection":"SOUTHWEST","stayOn":false,"area":false,"bogusName":false,"lon":-71.07913090000001,"lat":48.423587100000006,"elevation":[]},{"distance":65.531,"relativeDirection":"SLIGHTLY_RIGHT","streetName":"road","absoluteDirection":"WEST","stayOn":false,"area":false,"bogusName":true,"lon":-71.0792211,"lat":48.423552400000005,"elevation":[]},{"distance":179.39800000000002,"relativeDirection":"SLIGHTLY_RIGHT","streetName":"Rue Dubuc","absoluteDirection":"NORTHWEST","stayOn":false,"area":false,"bogusName":false,"lon":-71.080094,"lat":48.4236379,"elevation":[]},{"distance":238.88,"relativeDirection":"CONTINUE","streetName":"Côte Saint-Ange","absoluteDirection":"NORTHWEST","stayOn":false,"area":false,"bogusName":false,"lon":-71.0815067,"lat":48.424949000000005,"elevation":[]},{"distance":1026.173,"relativeDirection":"LEFT","streetName":"Chemin de la Réserve","absoluteDirection":"SOUTHWEST","stayOn":false,"area":false,"bogusName":false,"lon":-71.0841347,"lat":48.426195400000005,"elevation":[]},{"distance":379.50300000000004,"relativeDirection":"RIGHT","streetName":"Rue Desgagné","absoluteDirection":"NORTHWEST","stayOn":false,"area":false,"bogusName":false,"lon":-71.0956657,"lat":48.421554900000004,"elevation":[]},{"distance":136.40200000000002,"relativeDirection":"LEFT","streetName":"Rue Rioux","absoluteDirection":"SOUTHWEST","stayOn":false,"area":false,"bogusName":false,"lon":-71.1000844,"lat":48.423254400000005,"elevation":[]},{"distance":253.108,"relativeDirection":"RIGHT","streetName":"Rue Warren","absoluteDirection":"NORTHWEST","stayOn":false,"area":false,"bogusName":false,"lon":-71.1010586,"lat":48.4222119,"elevation":[]}]}],"tooSloped":false},{"duration":3262,"startTime":1522722384000,"endTime":1522725646000,"walkTime":2370,"transitTime":890,"waitingTime":2,"walkDistance":3071.681721795195,"walkLimitExceeded":false,"elevationLost":0.0,"elevationGained":0.0,"transfers":0,"legs":[{"startTime":1522722384000,"endTime":1522722790000,"departureDelay":0,"arrivalDelay":0,"realTime":false,"distance":518.814,"pathway":false,"mode":"WALK","route":"","agencyTimeZoneOffset":-14400000,"interlineWithPreviousLeg":false,"from":{"name":"Origin","lon":-71.060146,"lat":48.420485,"departure":1522722384000,"orig":"","vertexType":"NORMAL"},"to":{"name":"Cégep de Chicoutimi (Bégin)","stopId":"1:66","stopCode":"66","lon":-71.056314,"lat":48.424377,"arrival":1522722790000,"departure":1522722791000,"zoneId":"NA","stopIndex":17,"stopSequence":18,"vertexType":"TRANSIT"},"legGeometry":{"points":"icpfHt}upLGGg@i@KMYYSQ{B{BcAeAKIeAkAWYiAgAaAcASOWWIII_@sAkAaA_AKK","length":20},"rentedBike":false,"transitLeg":false,"duration":406.0,"steps":[{"distance":399.781,"relativeDirection":"DEPART","streetName":"Rue Bégin","absoluteDirection":"NORTHEAST","stayOn":false,"area":false,"bogusName":false,"lon":-71.06026360122416,"lat":48.42053841967193,"elevation":[]},{"distance":12.842,"relativeDirection":"SLIGHTLY_RIGHT","streetName":"path","absoluteDirection":"NORTHEAST","stayOn":false,"area":false,"bogusName":true,"lon":-71.0572466,"lat":48.423523700000004,"elevation":[]},{"distance":106.191,"relativeDirection":"SLIGHTLY_LEFT","streetName":"sidewalk","absoluteDirection":"NORTHEAST","stayOn":true,"area":false,"bogusName":true,"lon":-71.057089,"lat":48.4235727,"elevation":[]}]},{"startTime":1522722791000,"endTime":1522723200000,"departureDelay":0,"arrivalDelay":0,"realTime":false,"distance":1782.3768540000044,"pathway":false,"mode":"BUS","route":"175","agencyName":"Société de Transport du Saguenay","agencyUrl":"http://ville.saguenay.ca/fr/services-aux-citoyens/transport-sts","agencyTimeZoneOffset":-14400000,"routeColor":"FF00FF","routeType":3,"routeId":"1:175","routeTextColor":"FFFFFF","interlineWithPreviousLeg":false,"tripBlockId":"9","headsign":"Terminus Chicoutimi","agencyId":"0","tripId":"1:217423","serviceDate":"20180402","from":{"name":"Cégep de Chicoutimi (Bégin)","stopId":"1:66","stopCode":"66","lon":-71.056314,"lat":48.424377,"arrival":1522722790000,"departure":1522722791000,"zoneId":"NA","stopIndex":17,"stopSequence":18,"vertexType":"TRANSIT"},"to":{"name":"Terminus Chicoutimi","stopId":"1:1289","stopCode":"1289","lon":-71.066163,"lat":48.428677,"arrival":1522723200000,"departure":1522723500000,"zoneId":"NA","stopIndex":27,"stopSequence":28,"vertexType":"TRANSIT"},"legGeometry":{"points":"q{pfHneupLmEkE]a@g@i@ZiGTmEl@oLaEe@cFk@?pH?tJDvBPjMB~Bo@PQDRbFKdGMhIOvIK|EQpHoCQEdC","length":24},"routeShortName":"175","routeLongName":"Term. Chic / Costco","rentedBike":false,"transitLeg":true,"duration":409.0,"steps":[]},{"startTime":1522723500000,"endTime":1522723681000,"departureDelay":0,"arrivalDelay":0,"realTime":false,"distance":1960.480925293295,"pathway":false,"mode":"BUS","route":"3","agencyName":"Société de Transport du Saguenay","agencyUrl":"http://ville.saguenay.ca/fr/services-aux-citoyens/transport-sts","agencyTimeZoneOffset":-14400000,"routeColor":"FF0000","routeType":3,"routeId":"1:3","routeTextColor":"FFFFFF","interlineWithPreviousLeg":true,"tripBlockId":"9","headsign":"Terminus Jonquière","agencyId":"0","tripId":"1:217424","serviceDate":"20180402","from":{"name":"Terminus Chicoutimi","stopId":"1:1289","stopCode":"1289","lon":-71.066163,"lat":48.428677,"arrival":1522723200000,"departure":1522723500000,"zoneId":"NA","stopIndex":0,"stopSequence":1,"vertexType":"TRANSIT"},"to":{"name":"boul. Saguenay (no. 760)","stopId":"1:162","stopCode":"162","lon":-71.091291,"lat":48.434375,"arrival":1522723681000,"departure":1522723682000,"zoneId":"NA","stopIndex":2,"stopSequence":3,"vertexType":"TRANSIT"},"legGeometry":{"points":"evqfHzcwpLi@?UhKoBKcBts@OjC]fCg@~BsId[{DrNqB|HSl@YnAMfAOnAo@nMCp@","length":17},"routeShortName":"3","routeLongName":"Chic/Jonq via Boul. Saguenay","rentedBike":false,"transitLeg":true,"duration":181.0,"steps":[]},{"startTime":1522723682000,"endTime":1522725646000,"departureDelay":0,"arrivalDelay":0,"realTime":false,"distance":2552.579,"pathway":false,"mode":"WALK","route":"","agencyTimeZoneOffset":-14400000,"interlineWithPreviousLeg":false,"from":{"name":"boul. Saguenay (no. 760)","stopId":"1:162","stopCode":"162","lon":-71.091291,"lat":48.434375,"arrival":1522723681000,"departure":1522723682000,"zoneId":"NA","stopIndex":2,"stopSequence":3,"vertexType":"TRANSIT"},"to":{"name":"Destination","lon":-71.104104,"lat":48.423147,"arrival":1522725646000,"orig":"","vertexType":"NORMAL"},"legGeometry":{"points":"myrfHt_|pLNqFH?|Bd@NaDHsB@i@Vm@\\Y`@Cb@GL_@pAf@`AXnALz@DnBEl@?jGCdBD`C\\pBj@|@J~Bt@`@X`CrARP??vEhFsA|DITi@rBMzBF|AR~Ah@lER`BBvAHbGZ~@bGzEPNp@l@aAjDv@r@vClCu@pCOjAE`@m@pH]lA","length":51},"rentedBike":false,"transitLeg":false,"duration":1964.0,"steps":[{"distance":89.072,"relativeDirection":"DEPART","streetName":"Boulevard du Saguenay Ouest","absoluteDirection":"EAST","stayOn":false,"area":false,"bogusName":false,"lon":-71.09130000382352,"lat":48.43431445509596,"elevation":[]},{"distance":77.349,"relativeDirection":"RIGHT","streetName":"Rue Albert","absoluteDirection":"SOUTH","stayOn":false,"area":false,"bogusName":false,"lon":-71.09009850000001,"lat":48.4342358,"elevation":[]},{"distance":213.519,"relativeDirection":"LEFT","streetName":"Rue Rodolphe","absoluteDirection":"EAST","stayOn":false,"area":false,"bogusName":false,"lon":-71.09028950000001,"lat":48.433552600000006,"elevation":[]},{"distance":965.422,"relativeDirection":"RIGHT","streetName":"Rue J.-R.-Théberge","absoluteDirection":"SOUTH","stayOn":false,"area":false,"bogusName":false,"lon":-71.0881025,"lat":48.432726300000006,"elevation":[]},{"distance":744.5219999999999,"relativeDirection":"RIGHT","streetName":"Rue du Stade","absoluteDirection":"NORTHWEST","stayOn":false,"area":false,"bogusName":false,"lon":-71.09102750000001,"lat":48.4244793,"elevation":[]},{"distance":73.185,"relativeDirection":"RIGHT","streetName":"Rue Desgagné","absoluteDirection":"NORTHWEST","stayOn":false,"area":false,"bogusName":false,"lon":-71.09922230000001,"lat":48.422929,"elevation":[]},{"distance":136.40200000000002,"relativeDirection":"LEFT","streetName":"Rue Rioux","absoluteDirection":"SOUTHWEST","stayOn":false,"area":false,"bogusName":false,"lon":-71.1000844,"lat":48.423254400000005,"elevation":[]},{"distance":253.108,"relativeDirection":"RIGHT","streetName":"Rue Warren","absoluteDirection":"NORTHWEST","stayOn":false,"area":false,"bogusName":false,"lon":-71.1010586,"lat":48.4222119,"elevation":[]}]}],"tooSloped":false}]},"debugOutput":{"precalculationTime":23,"pathCalculationTime":63,"pathTimes":[24,20,19],"renderingTime":1,"totalTime":87,"timedOut":false},"elevationMetadata":{"ellipsoidToGeoidDifference":-28.885904201182168,"geoidElevation":false}}