{"requestParameters":{"date":"2018/04/02","walkSpeed":"1.33","walkReluctance":"2.0","fromPlace":"48.403489,-71.09677999","maxWalkDistance":"3000","waitReluctance":"1.0","carSpeed":"33","numItineraries":"3","waitAtBeginningFactor":"0.4","mode":"TRANSIT,WALK","ignoreRealtimeUpdates":"false","stairsReluctance":"2.0","toPlace":"48.433281,-71.114739","time":"16:30:00"},"plan":{"date":1522701000000,"from":{"name":"Origin","lon":-71.09677999,"lat":48.403489,"orig":"","vertexType":"NORMAL"},"to":{"name":"Destination","lon":-71.114739,"lat":48.433281,"orig":"","vertexType":"NORMAL"},"itineraries":[{"duration":1569,"startTime":1522702569000,"endTime":1522704138000,"walkTime":470,"transitTime":1097,"waitingTime":2,"walkDistance":603.6623608992109,"walkLimitExceeded":false,"elevationLost":0.0,"elevationGained":0.0,"transfers":1,"legs":[{"startTime":1522702569000,"endTime":1522702684000,"departureDelay":0,"arrivalDelay":0,"realTime":false,"distance":150.392,"pathway":false,"mode":"WALK","route":"","agencyTimeZoneOffset":-14400000,"interlineWithPreviousLeg":false,"from":{"name":"Origin","lon":-71.09677999,"lat":48.403489,"departure":1522702569000,"orig":"","vertexType":"NORMAL"},"to":{"name":"boul. Barrette / Estacade","stopId":"1:478","stopCode":"478","lon":-71.098119,"lat":48.404568,"arrival":1522702684000,"departure":1522702685000,"zoneId":"NA","stopIndex":12,"stopSequence":13,"vertexType":"TRANSIT"},"legGeometry":{"points":"_zlfHp`}pLu@lBiBzE","length":3},"rentedBike":false,"transitLeg":false,"duration":115.0,"steps":[{"distance":150.392,"relativeDirection":"DEPART","streetName":"Boulevard Barrette","absoluteDirection":"NORTHWEST","stayOn":false,"area":false,"bogusName":false,"lon":-71.09656201221554,"lat":48.403689305768765,"elevation":[]}]},{"startTime":1522702685000,"endTime":1522703460000,"departureDelay":0,"arrivalDelay":0,"realTime":false,"distance":4144.10955641661,"pathway":false,"mode":"BUS","route":"11","agencyName":"Société de Transport du Saguenay","agencyUrl":"http://ville.saguenay.ca/fr/services-aux-citoyens/transport-sts","agencyTimeZoneOffset":-14400000,"routeColor":"FF0000","routeType":3,"routeId":"1:11","routeTextColor":"FFFFFF","interlineWithPreviousLeg":false,"tripBlockId":"37","headsign":"Terminus Chicoutimi","agencyId":"0","tripId":"1:218323","serviceDate":"20180402","from":{"name":"boul. Barrette / Estacade","stopId":"1:478","stopCode":"478","lon":-71.098119,"lat":48.404568,"arrival":1522702684000,"departure":1522702685000,"zoneId":"NA","stopIndex":12,"stopSequence":13,"vertexType":"TRANSIT"},"to":{"name":"Terminus Chicoutimi","stopId":"1:1289","stopCode":"1289","lon":-71.066163,"lat":48.428677,"arrival":1522703460000,"departure":1522703460000,"zoneId":"NA","stopIndex":30,"stopSequence":31,"vertexType":"TRANSIT"},"legGeometry":{"points":"c_mfHtj}pLy@vBeCuCoCaDkDuE_@g@{FwGOMnA}CnA_DJWu@iAW[S[yI{MmBqC{@wAQUw@gAsDiF_B_CQYa@cA[_AUy@YcBOgAYHu@\\M`@cAiBuAyBkHgL{C{E}AcCc@o@q@gAOWwCyCyGyG_IaIs@rBEHwAtDmBvEOd@[bBK~AIf@YHE@Q@O?OCI_@GMEKI_AB_A?Yo@IKCIEIIKOEKCKe@}BKs@CQAUE_A@yCFcDVsLDaCD_@kBKW?e@Q_BQNuEDuBXmNLgHmKm@}BW{AMCn@o@G??","length":91},"routeShortName":"11","routeLongName":"Chic/Faubourg via St-Paul","rentedBike":false,"transitLeg":true,"duration":775.0,"steps":[]},{"startTime":1522703460000,"endTime":1522703782000,"departureDelay":0,"arrivalDelay":0,"realTime":false,"distance":3666.8339918299184,"pathway":false,"mode":"BUS","route":"3","agencyName":"Société de Transport du Saguenay","agencyUrl":"http://ville.saguenay.ca/fr/services-aux-citoyens/transport-sts","agencyTimeZoneOffset":-14400000,"routeColor":"FF0000","routeType":3,"routeId":"1:3","routeTextColor":"FFFFFF","interlineWithPreviousLeg":false,"tripBlockId":"57","headsign":"Terminus Jonquière","agencyId":"0","tripId":"1:218537","serviceDate":"20180402","from":{"name":"Terminus Chicoutimi","stopId":"1:1289","stopCode":"1289","lon":-71.066163,"lat":48.428677,"arrival":1522703460000,"departure":1522703460000,"zoneId":"NA","stopIndex":0,"stopSequence":1,"vertexType":"TRANSIT"},"to":{"name":"boul. Saguenay / Daniel","stopId":"1:153","stopCode":"153","lon":-71.114209,"lat":48.43637,"arrival":1522703782000,"departure":1522703783000,"zoneId":"NA","stopIndex":7,"stopSequence":8,"vertexType":"TRANSIT"},"legGeometry":{"points":"evqfHzcwpLi@?UhKoBKcBts@OjC]fCg@~BsId[{DrNqB|HSl@YnAMfAOnAo@nMCp@YtKIzBADEhCkAzPEx@?R?zBAbCg@zJC\\MtDi@xa@ElAItAO`AIr@ANwAvNOdCG`BGdAArC?j@","length":41},"routeShortName":"3","routeLongName":"Chic/Jonq via Boul. Saguenay","rentedBike":false,"transitLeg":true,"duration":322.0,"steps":[]},{"startTime":1522703783000,"endTime":1522704138000,"departureDelay":0,"arrivalDelay":0,"realTime":false,"distance":453.17600000000004,"pathway":false,"mode":"WALK","route":"","agencyTimeZoneOffset":-14400000,"interlineWithPreviousLeg":false,"from":{"name":"boul. Saguenay / Daniel","stopId":"1:153","stopCode":"153","lon":-71.114209,"lat":48.43637,"arrival":1522703782000,"departure":1522703783000,"zoneId":"NA","stopIndex":7,"stopSequence":8,"vertexType":"TRANSIT"},"to":{"name":"Destination","lon":-71.114739,"lat":48.433281,"arrival":1522704138000,"orig":"","vertexType":"NORMAL"},"legGeometry":{"points":"sesfHzn`qLAl@?l@jAZpAb@`AP\\CNAlBKX?J[Pk@RsCzAl@VLXVNNHF","length":18},"rentedBike":false,"transitLeg":false,"duration":355.0,"steps":[{"distance":33.715,"relativeDirection":"DEPART","streetName":"Boulevard du Saguenay Ouest","absoluteDirection":"WEST","stayOn":false,"area":false,"bogusName":false,"lon":-71.11421401450752,"lat":48.436266370809534,"elevation":[]},{"distance":229.42900000000003,"relativeDirection":"LEFT","streetName":"Rue Daniel","absoluteDirection":"SOUTH","stayOn":false,"area":false,"bogusName":false,"lon":-71.1146708,"lat":48.4362761,"elevation":[]},{"distance":87.441,"relativeDirection":"LEFT","streetName":"Rue Daniel","absoluteDirection":"SOUTHEAST","stayOn":true,"area":false,"bogusName":false,"lon":-71.11499330000001,"lat":48.4342498,"elevation":[]},{"distance":102.591,"relativeDirection":"RIGHT","streetName":"Rue Panoramique","absoluteDirection":"SOUTH","stayOn":false,"area":false,"bogusName":false,"lon":-71.1138911,"lat":48.4339997,"elevation":[]}]}],"tooSloped":false},{"duration":2945,"startTime":1522701433000,"endTime":1522704378000,"walkTime":787,"transitTime":2155,"waitingTime":3,"walkDistance":1017.3684436049103,"walkLimitExceeded":false,"elevationLost":0.0,"elevationGained":0.0,"transfers":1,"legs":[{"startTime":1522701433000,"endTime":1522701865000,"departureDelay":0,"arrivalDelay":0,"realTime":false,"distance":564.0649999999999,"pathway":false,"mode":"WALK","route":"","agencyTimeZoneOffset":-14400000,"interlineWithPreviousLeg":false,"from":{"name":"Origin","lon":-71.09677999,"lat":48.403489,"departure":1522701433000,"orig":"","vertexType":"NORMAL"},"to":{"name":"Malraux / Pagnol","stopId":"1:441","stopCode":"441","lon":-71.09356,"lat":48.400447,"arrival":1522701865000,"departure":1522701866000,"zoneId":"NA","stopIndex":6,"stopSequence":7,"vertexType":"TRANSIT"},"legGeometry":{"points":"_zlfHp`}pL|AeEFQx@uBzEwM@?`@kAjFzFDD","length":9},"rentedBike":false,"transitLeg":false,"duration":432.0,"steps":[{"distance":399.258,"relativeDirection":"DEPART","streetName":"Boulevard Barrette","absoluteDirection":"SOUTHEAST","stayOn":false,"area":false,"bogusName":false,"lon":-71.09656201221554,"lat":48.403689305768765,"elevation":[]},{"distance":164.807,"relativeDirection":"RIGHT","streetName":"Rue Malraux","absoluteDirection":"SOUTHWEST","stayOn":false,"area":false,"bogusName":false,"lon":-71.0921587,"lat":48.401604500000005,"elevation":[]}]},{"startTime":1522701866000,"endTime":1522702880000,"departureDelay":0,"arrivalDelay":0,"realTime":false,"distance":6031.879374978265,"pathway":false,"mode":"BUS","route":"14","agencyName":"Société de Transport du Saguenay","agencyUrl":"http://ville.saguenay.ca/fr/services-aux-citoyens/transport-sts","agencyTimeZoneOffset":-14400000,"routeColor":"C0C000","routeType":3,"routeId":"1:14","routeTextColor":"000000","interlineWithPreviousLeg":false,"tripBlockId":"33","headsign":"Terminus Chicoutimi","agencyId":"0","tripId":"1:218192","serviceDate":"20180402","from":{"name":"Malraux / Pagnol","stopId":"1:441","stopCode":"441","lon":-71.09356,"lat":48.400447,"arrival":1522701865000,"departure":1522701866000,"zoneId":"NA","stopIndex":6,"stopSequence":7,"vertexType":"TRANSIT"},"to":{"name":"Résidence de l' UQAC","stopId":"1:1928","stopCode":"1928","lon":-71.052293,"lat":48.421532,"arrival":1522702880000,"departure":1522702881000,"zoneId":"NA","stopIndex":30,"stopSequence":31,"vertexType":"TRANSIT"},"legGeometry":{"points":"melfHbm|pLhCtCdDY|F_On@aB`B_GNoBvAyT|@sNuAyAuF}F}AaB_BkAC@qC\\gAWiBwBiKgMiCwEgEyHCGy@uB}@rAa@nAc@lFEf@mGvUYfAqCs@ICMCqFmDc@s@mAkBuEoESUgAhDiAfD}@zDyAcA_@Um@U{AWgB_Au@s@EEsBkCqFgF{IiI][aBhE}@}@oBmBwE{EwE{Ej@mBZeAa@SyEQg@CPcALuCx@{b@t@{[XoDd@sBl@iB~@gA`G{F{A{D_@sBFqDOq@iG{FGIoCkC","length":76},"routeShortName":"14","routeLongName":"Coopérative","rentedBike":false,"transitLeg":true,"duration":1014.0,"steps":[]},{"startTime":1522702881000,"endTime":1522703400000,"departureDelay":0,"arrivalDelay":0,"realTime":false,"distance":2218.5121084004486,"pathway":false,"mode":"BUS","route":"175","agencyName":"Société de Transport du Saguenay","agencyUrl":"http://ville.saguenay.ca/fr/services-aux-citoyens/transport-sts","agencyTimeZoneOffset":-14400000,"routeColor":"FF00FF","routeType":3,"routeId":"1:175","routeTextColor":"FFFFFF","interlineWithPreviousLeg":false,"tripBlockId":"11","headsign":"Terminus Chicoutimi","agencyId":"0","tripId":"1:217482","serviceDate":"20180402","from":{"name":"Résidence de l' UQAC","stopId":"1:1928","stopCode":"1928","lon":-71.052293,"lat":48.421532,"arrival":1522702880000,"departure":1522702881000,"zoneId":"NA","stopIndex":15,"stopSequence":16,"vertexType":"TRANSIT"},"to":{"name":"Terminus Chicoutimi","stopId":"1:1289","stopCode":"1289","lon":-71.066163,"lat":48.428677,"arrival":1522703400000,"departure":1522703700000,"zoneId":"NA","stopIndex":27,"stopSequence":28,"vertexType":"TRANSIT"},"legGeometry":{"points":"wipfHjltpLgBeBqDnL@nBF`@f@|C[dCuAfB]xAs@OmCmCmEkE]a@g@i@ZiGTmEl@oLaEe@cFk@?pH?tJDvBPjMB~Bo@PQDRbFKdGMhIOvIK|EQpHoCQEdC","length":34},"routeShortName":"175","routeLongName":"Term. Chic / Costco","rentedBike":false,"transitLeg":true,"duration":519.0,"steps":[]},{"startTime":1522703700000,"endTime":1522704022000,"departureDelay":0,"arrivalDelay":0,"realTime":false,"distance":3666.8339918299184,"pathway":false,"mode":"BUS","route":"3","agencyName":"Société de Transport du Saguenay","agencyUrl":"http://ville.saguenay.ca/fr/services-aux-citoyens/transport-sts","agencyTimeZoneOffset":-14400000,"routeColor":"FF0000","routeType":3,"routeId":"1:3","routeTextColor":"FFFFFF","interlineWithPreviousLeg":true,"tripBlockId":"11","headsign":"Terminus Jonquière","agencyId":"0","tripId":"1:217483","serviceDate":"20180402","from":{"name":"Terminus Chicoutimi","stopId":"1:1289","stopCode":"1289","lon":-71.066163,"lat":48.428677,"arrival":1522703400000,"departure":1522703700000,"zoneId":"NA","stopIndex":0,"stopSequence":1,"vertexType":"TRANSIT"},"to":{"name":"boul. Saguenay / Daniel","stopId":"1:153","stopCode":"153","lon":-71.114209,"lat":48.43637,"arrival":1522704022000,"departure":1522704023000,"zoneId":"NA","stopIndex":7,"stopSequence":8,"vertexType":"TRANSIT"},"legGeometry":{"points":"evqfHzcwpLi@?UhKoBKcBts@OjC]fCg@~BsId[{DrNqB|HSl@YnAMfAOnAo@nMCp@YtKIzBADEhCkAzPEx@?R?zBAbCg@zJC\\MtDi@xa@ElAItAO`AIr@ANwAvNOdCG`BGdAArC?j@","length":41},"routeShortName":"3","routeLongName":"Chic/Jonq via Boul. Saguenay","rentedBike":false,"transitLeg":true,"duration":322.0,"steps":[]},{"startTime":1522704023000,"endTime":1522704378000,"departureDelay":0,"arrivalDelay":0,"realTime":false,"distance":453.17600000000004,"pathway":false,"mode":"WALK","route":"","agencyTimeZoneOffset":-14400000,"interlineWithPreviousLeg":false,"from":{"name":"boul. Saguenay / Daniel","stopId":"1:153","stopCode":"153","lon":-71.114209,"lat":48.43637,"arrival":1522704022000,"departure":1522704023000,"zoneId":"NA","stopIndex":7,"stopSequence":8,"vertexType":"TRANSIT"},"to":{"name":"Destination","lon":-71.114739,"lat":48.433281,"arrival":1522704378000,"orig":"","vertexType":"NORMAL"},"legGeometry":{"points":"sesfHzn`qLAl@?l@jAZpAb@`AP\\CNAlBKX?J[Pk@RsCzAl@VLXVNNHF","length":18},"rentedBike":false,"transitLeg":false,"duration":355.0,"steps":[{"distance":33.715,"relativeDirection":"DEPART","streetName":"Boulevard du Saguenay Ouest","absoluteDirection":"WEST","stayOn":false,"area":false,"bogusName":false,"lon":-71.11421401450752,"lat":48.436266370809534,"elevation":[]},{"distance":229.42900000000003,"relativeDirection":"LEFT","streetName":"Rue Daniel","absoluteDirection":"SOUTH","stayOn":false,"area":false,"bogusName":false,"lon":-71.1146708,"lat":48.4362761,"elevation":[]},{"distance":87.441,"relativeDirection":"LEFT","streetName":"Rue Daniel","absoluteDirection":"SOUTHEAST","stayOn":true,"area":false,"bogusName":false,"lon":-71.11499330000001,"lat":48.4342498,"elevation":[]},{"distance":102.591,"relativeDirection":"RIGHT","streetName":"Rue Panoramique","absoluteDirection":"SOUTH","stayOn":false,"area":false,"bogusName":false,"lon":-71.1138911,"lat":48.4339997,"elevation":[]}]}],"tooSloped":false},{"duration":2130,"startTime":1522704048000,"endTime":1522706178000,"walkTime":639,"transitTime":829,"waitingTime":662,"walkDistance":816.5871954845853,"walkLimitExceeded":false,"elevationLost":0.0,"elevationGained":0.0,"transfers":1,"legs":[{"startTime":1522704048000,"endTime":1522704332000,"departureDelay":0,"arrivalDelay":0,"realTime":false,"distance":363.28299999999996,"pathway":false,"mode":"WALK","route":"","agencyTimeZoneOffset":-14400000,"interlineWithPreviousLeg":false,"from":{"name":"Origin","lon":-71.09677999,"lat":48.403489,"departure":1522704048000,"orig":"","vertexType":"NORMAL"},"to":{"name":"boul. St-Paul (no. 1857)","stopId":"1:93","stopCode":"93","lon":-71.099526,"lat":48.401635,"arrival":1522704332000,"departure":1522704333000,"zoneId":"NA","stopIndex":29,"stopSequence":30,"vertexType":"TRANSIT"},"legGeometry":{"points":"_zlfHp`}pLu@lBpA~AbAjAf@h@z@dA~@dAf@j@HJvA`B","length":10},"rentedBike":false,"transitLeg":false,"duration":284.0,"steps":[{"distance":50.05,"relativeDirection":"DEPART","streetName":"Boulevard Barrette","absoluteDirection":"NORTHWEST","stayOn":false,"area":false,"bogusName":false,"lon":-71.09656201221554,"lat":48.403689305768765,"elevation":[]},{"distance":313.23299999999995,"relativeDirection":"LEFT","streetName":"Boulevard Saint-Paul","absoluteDirection":"SOUTHWEST","stayOn":false,"area":false,"bogusName":false,"lon":-71.0971116,"lat":48.4039529,"elevation":[]}]},{"startTime":1522704333000,"endTime":1522704840000,"departureDelay":0,"arrivalDelay":0,"realTime":false,"distance":3972.5921496478236,"pathway":false,"mode":"BUS","route":"60","agencyName":"Société de Transport du Saguenay","agencyUrl":"http://ville.saguenay.ca/fr/services-aux-citoyens/transport-sts","agencyTimeZoneOffset":-14400000,"routeColor":"00FFFF","routeType":3,"routeId":"1:60","routeTextColor":"000000","interlineWithPreviousLeg":false,"tripBlockId":"107","headsign":"Terminus Chicoutimi","agencyId":"0","tripId":"1:218824","serviceDate":"20180402","from":{"name":"boul. St-Paul (no. 1857)","stopId":"1:93","stopCode":"93","lon":-71.099526,"lat":48.401635,"arrival":1522704332000,"departure":1522704333000,"zoneId":"NA","stopIndex":29,"stopSequence":30,"vertexType":"TRANSIT"},"to":{"name":"Terminus Chicoutimi","stopId":"1:1289","stopCode":"1289","lon":-71.066163,"lat":48.428677,"arrival":1522704840000,"departure":1522705500000,"zoneId":"NA","stopIndex":34,"stopSequence":35,"vertexType":"TRANSIT"},"legGeometry":{"points":"qmlfHxs}pL_DqDwGwHkKwLmG{H}D_GoJqNeEkGYc@qFoIcAcBk@_B[mAg@wDo@wDo@mBcBkDwFgI_B{Bw@kAgJsJkJmJwFsFsEuFyA{BwAqAwA_@aDQwNjACmCeDHkBFJiEPiI@kAeAKiAGi@EPmHCoBh@]","length":41},"routeShortName":"60","routeLongName":"Portage des Roches Nord","rentedBike":false,"transitLeg":true,"duration":507.0,"steps":[]},{"startTime":1522705500000,"endTime":1522705822000,"departureDelay":0,"arrivalDelay":0,"realTime":false,"distance":3666.8339918299184,"pathway":false,"mode":"BUS","route":"3","agencyName":"Société de Transport du Saguenay","agencyUrl":"http://ville.saguenay.ca/fr/services-aux-citoyens/transport-sts","agencyTimeZoneOffset":-14400000,"routeColor":"FF0000","routeType":3,"routeId":"1:3","routeTextColor":"FFFFFF","interlineWithPreviousLeg":false,"tripBlockId":"10","headsign":"Terminus Jonquière","agencyId":"0","tripId":"1:217449","serviceDate":"20180402","from":{"name":"Terminus Chicoutimi","stopId":"1:1289","stopCode":"1289","lon":-71.066163,"lat":48.428677,"arrival":1522704840000,"departure":1522705500000,"zoneId":"NA","stopIndex":0,"stopSequence":1,"vertexType":"TRANSIT"},"to":{"name":"boul. Saguenay / Daniel","stopId":"1:153","stopCode":"153","lon":-71.114209,"lat":48.43637,"arrival":1522705822000,"departure":1522705823000,"zoneId":"NA","stopIndex":7,"stopSequence":8,"vertexType":"TRANSIT"},"legGeometry":{"points":"evqfHzcwpLi@?UhKoBKcBts@OjC]fCg@~BsId[{DrNqB|HSl@YnAMfAOnAo@nMCp@YtKIzBADEhCkAzPEx@?R?zBAbCg@zJC\\MtDi@xa@ElAItAO`AIr@ANwAvNOdCG`BGdAArC?j@","length":41},"routeShortName":"3","routeLongName":"Chic/Jonq via Boul. Saguenay","rentedBike":false,"transitLeg":true,"duration":322.0,"steps":[]},{"startTime":1522705823000,"endTime":1522706178000,"departureDelay":0,"arrivalDelay":0,"realTime":false,"distance":453.17600000000004,"pathway":false,"mode":"WALK","route":"","agencyTimeZoneOffset":-14400000,"interlineWithPreviousLeg":false,"from":{"name":"boul. Saguenay / Daniel","stopId":"1:153","stopCode":"153","lon":-71.114209,"lat":48.43637,"arrival":1522705822000,"departure":1522705823000,"zoneId":"NA","stopIndex":7,"stopSequence":8,"vertexType":"TRANSIT"},"to":{"name":"Destination","lon":-71.114739,"lat":48.433281,"arrival":1522706178000,"orig":"","vertexType":"NORMAL"},"legGeometry":{"points":"sesfHzn`qLAl@?l@jAZpAb@`AP\\CNAlBKX?J[Pk@RsCzAl@VLXVNNHF","length":18},"rentedBike":false,"transitLeg":false,"duration":355.0,"steps":[{"distance":33.715,"relativeDirection":"DEPART","streetName":"Boulevard du Saguenay Ouest","absoluteDirection":"WEST","stayOn":false,"area":false,"bogusName":false,"lon":-71.11421401450752,"lat":48.436266370809534,"elevation":[]},{"distance":229.42900000000003,"relativeDirection":"LEFT","streetName":"Rue Daniel","absoluteDirection":"SOUTH","stayOn":false,"area":false,"bogusName":false,"lon":-71.1146708,"lat":48.4362761,"elevation":[]},{"distance":87.441,"relativeDirection":"LEFT","streetName":"Rue Daniel","absoluteDirection":"SOUTHEAST","stayOn":true,"area":false,"bogusName":false,"lon":-71.11499330000001,"lat":48.4342498,"elevation":[]},{"distance":102.591,"relativeDirection":"RIGHT","streetName":"Rue Panoramique","absoluteDirection":"SOUTH","stayOn":false,"area":false,"bogusName":false,"lon":-71.1138911,"lat":48.4339997,"elevation":[]}]}],"tooSloped":false}]},"debugOutput":{"precalculationTime":7,"pathCalculationTime":28,"pathTimes":[15,6,6],"renderingTime":0,"totalTime":35,"timedOut":false},"elevationMetadata":{"ellipsoidToGeoidDifference":-28.885904201182168,"geoidElevation":false}}