{"requestParameters":{"date":"2018/04/02","walkSpeed":"1.33","walkReluctance":"2.0","fromPlace":"48.431942,-71.099167","maxWalkDistance":"3000","waitReluctance":"1.0","carSpeed":"33","numItineraries":"3","waitAtBeginningFactor":"0.4","mode":"TRANSIT,WALK","ignoreRealtimeUpdates":"false","stairsReluctance":"2.0","toPlace":"48.412691,-71.06630099","time":"8:30:00"},"plan":{"date":1522672200000,"from":{"name":"Origin","lon":-71.099167,"lat":48.431942,"orig":"","vertexType":"NORMAL"},"to":{"name":"Destination","lon":-71.06630099,"lat":48.412691,"orig":"","vertexType":"NORMAL"},"itineraries":[{"duration":2746,"startTime":1522672996000,"endTime":1522675742000,"walkTime":1309,"transitTime":1195,"waitingTime":242,"walkDistance":1701.4155413480091,"walkLimitExceeded":false,"elevationLost":0.0,"elevationGained":0.0,"transfers":1,"legs":[{"startTime":1522672996000,"endTime":1522674184000,"departureDelay":0,"arrivalDelay":0,"realTime":false,"distance":1547.9199999999998,"pathway":false,"mode":"WALK","route":"","agencyTimeZoneOffset":-14400000,"interlineWithPreviousLeg":false,"from":{"name":"Origin","lon":-71.099167,"lat":48.431942,"departure":1522672996000,"orig":"","vertexType":"NORMAL"},"to":{"name":"ch. de la Réserve / Albanel","stopId":"1:623","stopCode":"623","lon":-71.0885,"lat":48.4237,"arrival":1522674184000,"departure":1522674185000,"zoneId":"NA","stopIndex":28,"stopSequence":29,"vertexType":"TRANSIT"},"legGeometry":{"points":"skrfHhq}pLE]KwBAuD^gMxItA`E`@tD}AxAcCh@aADOf@wAPc@|DeLBKlAiDvA_EL_@|@gC~C|CfA_DRi@^eATf@??","length":25},"rentedBike":false,"transitLeg":false,"duration":1188.0,"steps":[{"distance":1299.974,"relativeDirection":"DEPART","streetName":"Rue De Quen","absoluteDirection":"EAST","stayOn":false,"area":false,"bogusName":false,"lon":-71.09924026554525,"lat":48.43210796195053,"elevation":[]},{"distance":107.137,"relativeDirection":"RIGHT","streetName":"Rue Émile Grouard","absoluteDirection":"SOUTHWEST","stayOn":false,"area":false,"bogusName":false,"lon":-71.08892230000001,"lat":48.425276100000005,"elevation":[]},{"distance":121.227,"relativeDirection":"LEFT","streetName":"Rue Albanel","absoluteDirection":"SOUTHEAST","stayOn":false,"area":false,"bogusName":false,"lon":-71.089719,"lat":48.42447060000001,"elevation":[]},{"distance":19.582,"relativeDirection":"RIGHT","streetName":"Chemin de la Réserve","absoluteDirection":"SOUTHWEST","stayOn":false,"area":false,"bogusName":false,"lon":-71.0883591,"lat":48.423858900000006,"elevation":[]}]},{"startTime":1522674185000,"endTime":1522674660000,"departureDelay":0,"arrivalDelay":0,"realTime":false,"distance":2160.2166227334155,"pathway":false,"mode":"BUS","route":"16","agencyName":"Société de Transport du Saguenay","agencyUrl":"http://ville.saguenay.ca/fr/services-aux-citoyens/transport-sts","agencyTimeZoneOffset":-14400000,"routeColor":"00FF00","routeType":3,"routeId":"1:16","routeTextColor":"000000","interlineWithPreviousLeg":false,"tripBlockId":"36","headsign":"Terminus Chicoutimi","agencyId":"0","tripId":"1:218281","serviceDate":"20180402","from":{"name":"ch. de la Réserve / Albanel","stopId":"1:623","stopCode":"623","lon":-71.0885,"lat":48.4237,"arrival":1522674184000,"departure":1522674185000,"zoneId":"NA","stopIndex":28,"stopSequence":29,"vertexType":"TRANSIT"},"to":{"name":"Terminus Chicoutimi","stopId":"1:1289","stopCode":"1289","lon":-71.066163,"lat":48.428677,"arrival":1522674660000,"departure":1522674900000,"zoneId":"NA","stopIndex":35,"stopSequence":36,"vertexType":"TRANSIT"},"legGeometry":{"points":"wwpfHzn{pLqBsFQ_@wA_DyAaD_AoBQ[sAuC{@sBeCcGqAwC[g@]a@aAw@[_@cA}A_@w@GU[iDWaDzByCv@cA`@e@TSp@g@nAo@nBm@ZSf@c@PMb@[b@_@b@e@PYP]N_@La@P{@NcB@IBcAG_A{@sEEg@oAP}@DiBDFeBMa@iBCq@FmBPFcEDoBNiHyDWN_HBoA@Y@m@","length":60},"routeShortName":"16","routeLongName":"Côte de la Réserve","rentedBike":false,"transitLeg":true,"duration":475.0,"steps":[]},{"startTime":1522674900000,"endTime":1522675620000,"departureDelay":0,"arrivalDelay":0,"realTime":false,"distance":3126.645492805479,"pathway":false,"mode":"BUS","route":"15","agencyName":"Société de Transport du Saguenay","agencyUrl":"http://ville.saguenay.ca/fr/services-aux-citoyens/transport-sts","agencyTimeZoneOffset":-14400000,"routeColor":"FF00FF","routeType":3,"routeId":"1:15","routeTextColor":"FFFFFF","interlineWithPreviousLeg":false,"tripBlockId":"33","headsign":"Talbot / Barrette","agencyId":"0","tripId":"1:218177","serviceDate":"20180402","from":{"name":"Terminus Chicoutimi","stopId":"1:1289","stopCode":"1289","lon":-71.066163,"lat":48.428677,"arrival":1522674660000,"departure":1522674900000,"zoneId":"NA","stopIndex":0,"stopSequence":1,"vertexType":"TRANSIT"},"to":{"name":"École secondaire de l'Odyssé Dominique-Racine","stopId":"1:580","stopCode":"580","lon":-71.067703,"lat":48.412977,"arrival":1522675620000,"departure":1522675621000,"zoneId":"NA","stopIndex":12,"stopSequence":13,"vertexType":"TRANSIT"},"legGeometry":{"points":"evqfHpbwpLPiCjKx@HiEZkS\\aSN_K^eIrBpBvIpIr@r@\\mBfAaA`@gBOkB_@uF|DyL|DpDQ|@|@z@bA`ATw@dD~Ch@fA@`E~AjGuH`Iy@bBi@dCbEdEjJlJ`HbHlJpJ|J~J","length":34},"routeShortName":"15","routeLongName":"Term. Chic / Costco","rentedBike":false,"transitLeg":true,"duration":720.0,"steps":[]},{"startTime":1522675621000,"endTime":1522675742000,"departureDelay":0,"arrivalDelay":0,"realTime":false,"distance":153.329,"pathway":false,"mode":"WALK","route":"","agencyTimeZoneOffset":-14400000,"interlineWithPreviousLeg":false,"from":{"name":"École secondaire de l'Odyssé Dominique-Racine","stopId":"1:580","stopCode":"580","lon":-71.067703,"lat":48.412977,"arrival":1522675620000,"departure":1522675621000,"zoneId":"NA","stopIndex":12,"stopSequence":13,"vertexType":"TRANSIT"},"to":{"name":"Destination","lon":-71.06630099,"lat":48.412691,"arrival":1522675742000,"orig":"","vertexType":"NORMAL"},"legGeometry":{"points":"gtnfHplwpLr@l@LTxAeG","length":4},"rentedBike":false,"transitLeg":false,"duration":121.0,"steps":[{"distance":44.071,"relativeDirection":"DEPART","streetName":"Rue Bégin","absoluteDirection":"SOUTHWEST","stayOn":false,"area":false,"bogusName":false,"lon":-71.06776357747735,"lat":48.41300064951352,"elevation":[]},{"distance":109.258,"relativeDirection":"LEFT","streetName":"Rue Georges-Vanier","absoluteDirection":"SOUTHEAST","stayOn":false,"area":false,"bogusName":false,"lon":-71.0681022,"lat":48.4126786,"elevation":[]}]}],"tooSloped":false},{"duration":2990,"startTime":1522673224000,"endTime":1522676214000,"walkTime":2897,"transitTime":91,"waitingTime":2,"walkDistance":3750.639338333431,"walkLimitExceeded":false,"elevationLost":0.0,"elevationGained":0.0,"transfers":0,"legs":[{"startTime":1522673224000,"endTime":1522675119000,"departureDelay":0,"arrivalDelay":0,"realTime":false,"distance":2463.478,"pathway":false,"mode":"WALK","route":"","agencyTimeZoneOffset":-14400000,"interlineWithPreviousLeg":false,"from":{"name":"Origin","lon":-71.099167,"lat":48.431942,"departure":1522673224000,"orig":"","vertexType":"NORMAL"},"to":{"name":"Taché / Sainte-Marthe","stopId":"1:419","stopCode":"419","lon":-71.075998,"lat":48.422681,"arrival":1522675119000,"departure":1522675120000,"zoneId":"NA","stopIndex":6,"stopSequence":7,"vertexType":"TRANSIT"},"legGeometry":{"points":"skrfHhq}pLE]KwBAuD^gMxItA`E`@tD}AxAcCh@aADOf@wAPc@|DeLBKlAiDvA_EaCsAa@YR_JHyC@c@@}@?c@DkDH_DDk@xAgEh@{A`AyCXm@Xa@r@u@pBqB~AqBNaB?kAEQVuDDq@J_@DMBK?MCICEEC^gAd@}@n@cAXk@Bk@AM","length":53},"rentedBike":false,"transitLeg":false,"duration":1895.0,"steps":[{"distance":1224.782,"relativeDirection":"DEPART","streetName":"Rue De Quen","absoluteDirection":"EAST","stayOn":false,"area":false,"bogusName":false,"lon":-71.09924026554525,"lat":48.43210796195053,"elevation":[]},{"distance":99.727,"relativeDirection":"LEFT","streetName":"Rue J.-R.-Théberge","absoluteDirection":"NORTHEAST","stayOn":false,"area":false,"bogusName":false,"lon":-71.0897645,"lat":48.425656800000006,"elevation":[]},{"distance":376.719,"relativeDirection":"RIGHT","streetName":"Rue Brassard","absoluteDirection":"EAST","stayOn":false,"area":false,"bogusName":false,"lon":-71.0892196,"lat":48.4264773,"elevation":[]},{"distance":238.88,"relativeDirection":"SLIGHTLY_RIGHT","streetName":"Côte Saint-Ange","absoluteDirection":"SOUTHEAST","stayOn":false,"area":false,"bogusName":false,"lon":-71.0841347,"lat":48.426195400000005,"elevation":[]},{"distance":179.39800000000002,"relativeDirection":"CONTINUE","streetName":"Rue Dubuc","absoluteDirection":"SOUTHEAST","stayOn":false,"area":false,"bogusName":false,"lon":-71.0815067,"lat":48.424949000000005,"elevation":[]},{"distance":65.531,"relativeDirection":"SLIGHTLY_LEFT","streetName":"road","absoluteDirection":"EAST","stayOn":false,"area":false,"bogusName":true,"lon":-71.080094,"lat":48.4236379,"elevation":[]},{"distance":7.693,"relativeDirection":"SLIGHTLY_LEFT","streetName":"Rue Bossé","absoluteDirection":"NORTHEAST","stayOn":false,"area":false,"bogusName":false,"lon":-71.0792211,"lat":48.423552400000005,"elevation":[]},{"distance":86.86699999999999,"relativeDirection":"RIGHT","streetName":"Rue le Doré","absoluteDirection":"EAST","stayOn":false,"area":false,"bogusName":false,"lon":-71.07913090000001,"lat":48.423587100000006,"elevation":[]},{"distance":41.096000000000004,"relativeDirection":"SLIGHTLY_RIGHT","streetName":"Rue Saint Onésime","absoluteDirection":"SOUTHEAST","stayOn":false,"area":false,"bogusName":false,"lon":-71.077976,"lat":48.423435700000006,"elevation":[]},{"distance":142.785,"relativeDirection":"RIGHT","streetName":"path","absoluteDirection":"SOUTHEAST","stayOn":false,"area":false,"bogusName":true,"lon":-71.0775138,"lat":48.423397400000006,"elevation":[]}]},{"startTime":1522675120000,"endTime":1522675211000,"departureDelay":0,"arrivalDelay":0,"realTime":false,"distance":521.5208616269039,"pathway":false,"mode":"BUS","route":"11","agencyName":"Société de Transport du Saguenay","agencyUrl":"http://ville.saguenay.ca/fr/services-aux-citoyens/transport-sts","agencyTimeZoneOffset":-14400000,"routeColor":"FF0000","routeType":3,"routeId":"1:11","routeTextColor":"FFFFFF","interlineWithPreviousLeg":false,"tripBlockId":"36","headsign":"Boul.Royaume/St-Pierre","agencyId":"0","tripId":"1:218282","serviceDate":"20180402","from":{"name":"Taché / Sainte-Marthe","stopId":"1:419","stopCode":"419","lon":-71.075998,"lat":48.422681,"arrival":1522675119000,"departure":1522675120000,"zoneId":"NA","stopIndex":6,"stopSequence":7,"vertexType":"TRANSIT"},"to":{"name":"Saint-Paul / Saint-Henri","stopId":"1:422","stopCode":"422","lon":-71.0781,"lat":48.4187,"arrival":1522675211000,"departure":1522675212000,"zoneId":"NA","stopIndex":9,"stopSequence":10,"vertexType":"TRANSIT"},"legGeometry":{"points":"uppfHj_ypL@?J@NELKFOlAiDL[bA`AfIjIbGdG","length":11},"routeShortName":"11","routeLongName":"Chic/Faubourg via St-Paul","rentedBike":false,"transitLeg":true,"duration":91.0,"steps":[]},{"startTime":1522675212000,"endTime":1522676214000,"departureDelay":0,"arrivalDelay":0,"realTime":false,"distance":1286.7759999999998,"pathway":false,"mode":"WALK","route":"","agencyTimeZoneOffset":-14400000,"interlineWithPreviousLeg":false,"from":{"name":"Saint-Paul / Saint-Henri","stopId":"1:422","stopCode":"422","lon":-71.0781,"lat":48.4187,"arrival":1522675211000,"departure":1522675212000,"zoneId":"NA","stopIndex":9,"stopSequence":10,"vertexType":"TRANSIT"},"to":{"name":"Destination","lon":-71.06630099,"lat":48.412691,"arrival":1522676214000,"orig":"","vertexType":"NORMAL"},"legGeometry":{"points":"uwofHvlypLy@{@j@}Ax@aCHU`AoCRPRPz@z@BBz@sBh@uAd@qAhCoHPa@`CaH~CsIz@aCb@kAh@yA|AiEHQTHz@t@r@l@LTxAeG","length":27},"rentedBike":false,"transitLeg":false,"duration":1002.0,"steps":[{"distance":39.007,"relativeDirection":"DEPART","streetName":"Rue Saint-Paul","absoluteDirection":"NORTHEAST","stayOn":false,"area":false,"bogusName":false,"lon":-71.07803616807794,"lat":48.418670886448396,"elevation":[]},{"distance":174.846,"relativeDirection":"RIGHT","streetName":"Rue Saint-Henri","absoluteDirection":"SOUTHEAST","stayOn":false,"area":false,"bogusName":false,"lon":-71.07773680000001,"lat":48.418960000000006,"elevation":[]},{"distance":68.749,"relativeDirection":"RIGHT","streetName":"Rue Caron","absoluteDirection":"SOUTHWEST","stayOn":false,"area":false,"bogusName":false,"lon":-71.0757816,"lat":48.4180719,"elevation":[]},{"distance":798.6229999999999,"relativeDirection":"LEFT","streetName":"Rue Des Oblats Est","absoluteDirection":"SOUTHEAST","stayOn":false,"area":false,"bogusName":false,"lon":-71.0762876,"lat":48.4175528,"elevation":[]},{"distance":96.293,"relativeDirection":"RIGHT","streetName":"Rue Bégin","absoluteDirection":"SOUTH","stayOn":false,"area":false,"bogusName":false,"lon":-71.06744280000001,"lat":48.413416500000004,"elevation":[]},{"distance":109.258,"relativeDirection":"LEFT","streetName":"Rue Georges-Vanier","absoluteDirection":"SOUTHEAST","stayOn":false,"area":false,"bogusName":false,"lon":-71.0681022,"lat":48.4126786,"elevation":[]}]}],"tooSloped":false},{"duration":2746,"startTime":1522674796000,"endTime":1522677542000,"walkTime":1309,"transitTime":1195,"waitingTime":242,"walkDistance":1701.4155413480091,"walkLimitExceeded":false,"elevationLost":0.0,"elevationGained":0.0,"transfers":1,"legs":[{"startTime":1522674796000,"endTime":1522675984000,"departureDelay":0,"arrivalDelay":0,"realTime":false,"distance":1547.9199999999998,"pathway":false,"mode":"WALK","route":"","agencyTimeZoneOffset":-14400000,"interlineWithPreviousLeg":false,"from":{"name":"Origin","lon":-71.099167,"lat":48.431942,"departure":1522674796000,"orig":"","vertexType":"NORMAL"},"to":{"name":"ch. de la Réserve / Albanel","stopId":"1:623","stopCode":"623","lon":-71.0885,"lat":48.4237,"arrival":1522675984000,"departure":1522675985000,"zoneId":"NA","stopIndex":28,"stopSequence":29,"vertexType":"TRANSIT"},"legGeometry":{"points":"skrfHhq}pLE]KwBAuD^gMxItA`E`@tD}AxAcCh@aADOf@wAPc@|DeLBKlAiDvA_EL_@|@gC~C|CfA_DRi@^eATf@??","length":25},"rentedBike":false,"transitLeg":false,"duration":1188.0,"steps":[{"distance":1299.974,"relativeDirection":"DEPART","streetName":"Rue De Quen","absoluteDirection":"EAST","stayOn":false,"area":false,"bogusName":false,"lon":-71.09924026554525,"lat":48.43210796195053,"elevation":[]},{"distance":107.137,"relativeDirection":"RIGHT","streetName":"Rue Émile Grouard","absoluteDirection":"SOUTHWEST","stayOn":false,"area":false,"bogusName":false,"lon":-71.08892230000001,"lat":48.425276100000005,"elevation":[]},{"distance":121.227,"relativeDirection":"LEFT","streetName":"Rue Albanel","absoluteDirection":"SOUTHEAST","stayOn":false,"area":false,"bogusName":false,"lon":-71.089719,"lat":48.42447060000001,"elevation":[]},{"distance":19.582,"relativeDirection":"RIGHT","streetName":"Chemin de la Réserve","absoluteDirection":"SOUTHWEST","stayOn":false,"area":false,"bogusName":false,"lon":-71.0883591,"lat":48.423858900000006,"elevation":[]}]},{"startTime":1522675985000,"endTime":1522676460000,"departureDelay":0,"arrivalDelay":0,"realTime":false,"distance":2160.2166227334155,"pathway":false,"mode":"BUS","route":"16","agencyName":"Société de Transport du Saguenay","agencyUrl":"http://ville.saguenay.ca/fr/services-aux-citoyens/transport-sts","agencyTimeZoneOffset":-14400000,"routeColor":"00FF00","routeType":3,"routeId":"1:16","routeTextColor":"000000","interlineWithPreviousLeg":false,"tripBlockId":"35","headsign":"Terminus Chicoutimi","agencyId":"0","tripId":"1:218247","serviceDate":"20180402","from":{"name":"ch. de la Réserve / Albanel","stopId":"1:623","stopCode":"623","lon":-71.0885,"lat":48.4237,"arrival":1522675984000,"departure":1522675985000,"zoneId":"NA","stopIndex":28,"stopSequence":29,"vertexType":"TRANSIT"},"to":{"name":"Terminus Chicoutimi","stopId":"1:1289","stopCode":"1289","lon":-71.066163,"lat":48.428677,"arrival":1522676460000,"departure":1522676700000,"zoneId":"NA","stopIndex":35,"stopSequence":36,"vertexType":"TRANSIT"},"legGeometry":{"points":"wwpfHzn{pLqBsFQ_@wA_DyAaD_AoBQ[sAuC{@sBeCcGqAwC[g@]a@aAw@[_@cA}A_@w@GU[iDWaDzByCv@cA`@e@TSp@g@nAo@nBm@ZSf@c@PMb@[b@_@b@e@PYP]N_@La@P{@NcB@IBcAG_A{@sEEg@oAP}@DiBDFeBMa@iBCq@FmBPFcEDoBNiHyDWN_HBoA@Y@m@","length":60},"routeShortName":"16","routeLongName":"Côte de la Réserve","rentedBike":false,"transitLeg":true,"duration":475.0,"steps":[]},{"startTime":1522676700000,"endTime":1522677420000,"departureDelay":0,"arrivalDelay":0,"realTime":false,"distance":3126.645492805479,"pathway":false,"mode":"BUS","route":"15","agencyName":"Société de Transport du Saguenay","agencyUrl":"http://ville.saguenay.ca/fr/services-aux-citoyens/transport-sts","agencyTimeZoneOffset":-14400000,"routeColor":"FF00FF","routeType":3,"routeId":"1:15","routeTextColor":"FFFFFF","interlineWithPreviousLeg":false,"tripBlockId":"31","headsign":"Talbot / Barrette","agencyId":"0","tripId":"1:218128","serviceDate":"20180402","from":{"name":"Terminus Chicoutimi","stopId":"1:1289","stopCode":"1289","lon":-71.066163,"lat":48.428677,"arrival":1522676460000,"departure":1522676700000,"zoneId":"NA","stopIndex":0,"stopSequence":1,"vertexType":"TRANSIT"},"to":{"name":"École secondaire de l'Odyssé Dominique-Racine","stopId":"1:580","stopCode":"580","lon":-71.067703,"lat":48.412977,"arrival":1522677420000,"departure":1522677421000,"zoneId":"NA","stopIndex":12,"stopSequence":13,"vertexType":"TRANSIT"},"legGeometry":{"points":"evqfHpbwpLPiCjKx@HiEZkS\\aSN_K^eIrBpBvIpIr@r@\\mBfAaA`@gBOkB_@uF|DyL|DpDQ|@|@z@bA`ATw@dD~Ch@fA@`E~AjGuH`Iy@bBi@dCbEdEjJlJ`HbHlJpJ|J~J","length":34},"routeShortName":"15","routeLongName":"Term. Chic / Costco","rentedBike":false,"transitLeg":true,"duration":720.0,"steps":[]},{"startTime":1522677421000,"endTime":1522677542000,"departureDelay":0,"arrivalDelay":0,"realTime":false,"distance":153.329,"pathway":false,"mode":"WALK","route":"","agencyTimeZoneOffset":-14400000,"interlineWithPreviousLeg":false,"from":{"name":"École secondaire de l'Odyssé Dominique-Racine","stopId":"1:580","stopCode":"580","lon":-71.067703,"lat":48.412977,"arrival":1522677420000,"departure":1522677421000,"zoneId":"NA","stopIndex":12,"stopSequence":13,"vertexType":"TRANSIT"},"to":{"name":"Destination","lon":-71.06630099,"lat":48.412691,"arrival":1522677542000,"orig":"","vertexType":"NORMAL"},"legGeometry":{"points":"gtnfHplwpLr@l@LTxAeG","length":4},"rentedBike":false,"transitLeg":false,"duration":121.0,"steps":[{"distance":44.071,"relativeDirection":"DEPART","streetName":"Rue Bégin","absoluteDirection":"SOUTHWEST","stayOn":false,"area":false,"bogusName":false,"lon":-71.06776357747735,"lat":48.41300064951352,"elevation":[]},{"distance":109.258,"relativeDirection":"LEFT","streetName":"Rue Georges-Vanier","absoluteDirection":"SOUTHEAST","stayOn":false,"area":false,"bogusName":false,"lon":-71.0681022,"lat":48.4126786,"elevation":[]}]}],"tooSloped":false}]},"debugOutput":{"precalculationTime":20,"pathCalculationTime":18,"pathTimes":[10,4,4],"renderingTime":0,"totalTime":38,"timedOut":false},"elevationMetadata":{"ellipsoidToGeoidDifference":-28.885904201182168,"geoidElevation":false}}