{"requestParameters":{"date":"2018/04/02","walkSpeed":"1.33","walkReluctance":"2.0","fromPlace":"48.418905,-71.097966","maxWalkDistance":"3000","waitReluctance":"1.0","carSpeed":"33","numItineraries":"3","waitAtBeginningFactor":"0.4","mode":"TRANSIT,WALK","ignoreRealtimeUpdates":"false","stairsReluctance":"2.0","toPlace":"48.428649,-71.06561","time":"5:10:00"},"plan":{"date":1522660200000,"from":{"name":"Origin","lon":-71.097966,"lat":48.418905,"orig":"","vertexType":"NORMAL"},"to":{"name":"Destination","lon":-71.06561,"lat":48.428649,"orig":"","vertexType":"NORMAL"},"itineraries":[{"duration":816,"startTime":1522664846000,"endTime":1522665662000,"walkTime":214,"transitTime":600,"waitingTime":2,"walkDistance":266.0941503723856,"walkLimitExceeded":false,"elevationLost":0.0,"elevationGained":0.0,"transfers":0,"legs":[{"startTime":1522664846000,"endTime":1522665059000,"departureDelay":0,"arrivalDelay":0,"realTime":false,"distance":264.88,"pathway":false,"mode":"WALK","route":"","agencyTimeZoneOffset":-14400000,"interlineWithPreviousLeg":false,"from":{"name":"Origin","lon":-71.097966,"lat":48.418905,"departure":1522664846000,"orig":"","vertexType":"NORMAL"},"to":{"name":"nouveau","stopId":"1:2307","stopCode":"2307","lon":-71.099825,"lat":48.418606,"arrival":1522665059000,"departure":1522665060000,"zoneId":"NA","stopIndex":0,"stopSequence":1,"vertexType":"TRANSIT"},"legGeometry":{"points":"gyofHbi}pLIRbBvAaCjIvA`@","length":5},"rentedBike":false,"transitLeg":false,"duration":213.0,"steps":[{"distance":8.656,"relativeDirection":"DEPART","streetName":"Rue Cloutier","absoluteDirection":"NORTHWEST","stayOn":false,"area":false,"bogusName":false,"lon":-71.0979399228143,"lat":48.41892873620281,"elevation":[]},{"distance":64.131,"relativeDirection":"LEFT","streetName":"Rue Ringuette","absoluteDirection":"SOUTHWEST","stayOn":false,"area":false,"bogusName":false,"lon":-71.0980347,"lat":48.418974600000006,"elevation":[]},{"distance":142.185,"relativeDirection":"RIGHT","streetName":"Rue Gosselin","absoluteDirection":"NORTHWEST","stayOn":false,"area":false,"bogusName":false,"lon":-71.09847020000001,"lat":48.4184755,"elevation":[]},{"distance":49.908,"relativeDirection":"LEFT","streetName":"Chemin de la Réserve","absoluteDirection":"SOUTH","stayOn":false,"area":false,"bogusName":false,"lon":-71.10013090000001,"lat":48.4191238,"elevation":[]}]},{"startTime":1522665060000,"endTime":1522665660000,"departureDelay":0,"arrivalDelay":0,"realTime":false,"distance":3235.1198449957556,"pathway":false,"mode":"BUS","route":"16","agencyName":"Société de Transport du Saguenay","agencyUrl":"http://ville.saguenay.ca/fr/services-aux-citoyens/transport-sts","agencyTimeZoneOffset":-14400000,"routeColor":"00FF00","routeType":3,"routeId":"1:16","routeTextColor":"000000","interlineWithPreviousLeg":false,"tripBlockId":"34","headsign":"Terminus Chicoutimi","agencyId":"0","tripId":"1:218206","serviceDate":"20180402","from":{"name":"nouveau","stopId":"1:2307","stopCode":"2307","lon":-71.099825,"lat":48.418606,"arrival":1522665059000,"departure":1522665060000,"zoneId":"NA","stopIndex":0,"stopSequence":1,"vertexType":"TRANSIT"},"to":{"name":"Terminus Chicoutimi","stopId":"1:1289","stopCode":"1289","lon":-71.066163,"lat":48.428677,"arrival":1522665660000,"departure":1522665661000,"zoneId":"NA","stopIndex":12,"stopSequence":13,"vertexType":"TRANSIT"},"legGeometry":{"points":"wwofHxw}pLaAY_IsGYo@}@mBqAkKg@aE@wFS}AiAaIgA{B}CiGiBeFqBsFQ_@wA_DyAaD_AoBQ[sAuC{@sBeCcGqAwC[g@]a@aAw@[_@cA}A_@w@GU[iDWaDzByCv@cA`@e@TSp@g@nAo@nBm@ZSf@c@PMb@[b@_@b@e@PYP]N_@La@P{@NcB@IBcAG_A{@sEEg@oAP}@DiBDFeBMa@iBCq@FmBPFcEDoBNiHyDWN_HBoA@Y@m@","length":72},"routeShortName":"16","routeLongName":"Côte de la Réserve","rentedBike":false,"transitLeg":true,"duration":600.0,"steps":[]},{"startTime":1522665661000,"endTime":1522665662000,"departureDelay":0,"arrivalDelay":0,"realTime":false,"distance":1.104,"pathway":false,"mode":"WALK","route":"","agencyTimeZoneOffset":-14400000,"interlineWithPreviousLeg":false,"from":{"name":"Terminus Chicoutimi","stopId":"1:1289","stopCode":"1289","lon":-71.066163,"lat":48.428677,"arrival":1522665660000,"departure":1522665661000,"zoneId":"NA","stopIndex":12,"stopSequence":13,"vertexType":"TRANSIT"},"to":{"name":"Destination","lon":-71.06561,"lat":48.428649,"arrival":1522665662000,"orig":"","vertexType":"NORMAL"},"legGeometry":{"points":"{uqfHb~vpLA?","length":2},"rentedBike":false,"transitLeg":false,"duration":1.0,"steps":[{"distance":1.104,"relativeDirection":"DEPART","streetName":"Rue Morin","absoluteDirection":"NORTH","stayOn":false,"area":false,"bogusName":false,"lon":-71.0654590096484,"lat":48.428628638946556,"elevation":[]}]}],"tooSloped":false},{"duration":816,"startTime":1522666646000,"endTime":1522667462000,"walkTime":214,"transitTime":600,"waitingTime":2,"walkDistance":266.0941503723856,"walkLimitExceeded":false,"elevationLost":0.0,"elevationGained":0.0,"transfers":0,"legs":[{"startTime":1522666646000,"endTime":1522666859000,"departureDelay":0,"arrivalDelay":0,"realTime":false,"distance":264.88,"pathway":false,"mode":"WALK","route":"","agencyTimeZoneOffset":-14400000,"interlineWithPreviousLeg":false,"from":{"name":"Origin","lon":-71.097966,"lat":48.418905,"departure":1522666646000,"orig":"","vertexType":"NORMAL"},"to":{"name":"nouveau","stopId":"1:2307","stopCode":"2307","lon":-71.099825,"lat":48.418606,"arrival":1522666859000,"departure":1522666860000,"zoneId":"NA","stopIndex":23,"stopSequence":24,"vertexType":"TRANSIT"},"legGeometry":{"points":"gyofHbi}pLIRbBvAaCjIvA`@","length":5},"rentedBike":false,"transitLeg":false,"duration":213.0,"steps":[{"distance":8.656,"relativeDirection":"DEPART","streetName":"Rue Cloutier","absoluteDirection":"NORTHWEST","stayOn":false,"area":false,"bogusName":false,"lon":-71.0979399228143,"lat":48.41892873620281,"elevation":[]},{"distance":64.131,"relativeDirection":"LEFT","streetName":"Rue Ringuette","absoluteDirection":"SOUTHWEST","stayOn":false,"area":false,"bogusName":false,"lon":-71.0980347,"lat":48.418974600000006,"elevation":[]},{"distance":142.185,"relativeDirection":"RIGHT","streetName":"Rue Gosselin","absoluteDirection":"NORTHWEST","stayOn":false,"area":false,"bogusName":false,"lon":-71.09847020000001,"lat":48.4184755,"elevation":[]},{"distance":49.908,"relativeDirection":"LEFT","streetName":"Chemin de la Réserve","absoluteDirection":"SOUTH","stayOn":false,"area":false,"bogusName":false,"lon":-71.10013090000001,"lat":48.4191238,"elevation":[]}]},{"startTime":1522666860000,"endTime":1522667460000,"departureDelay":0,"arrivalDelay":0,"realTime":false,"distance":3235.1198449957556,"pathway":false,"mode":"BUS","route":"16","agencyName":"Société de Transport du Saguenay","agencyUrl":"http://ville.saguenay.ca/fr/services-aux-citoyens/transport-sts","agencyTimeZoneOffset":-14400000,"routeColor":"00FF00","routeType":3,"routeId":"1:16","routeTextColor":"000000","interlineWithPreviousLeg":false,"tripBlockId":"36","headsign":"Terminus Chicoutimi","agencyId":"0","tripId":"1:218277","serviceDate":"20180402","from":{"name":"nouveau","stopId":"1:2307","stopCode":"2307","lon":-71.099825,"lat":48.418606,"arrival":1522666859000,"departure":1522666860000,"zoneId":"NA","stopIndex":23,"stopSequence":24,"vertexType":"TRANSIT"},"to":{"name":"Terminus Chicoutimi","stopId":"1:1289","stopCode":"1289","lon":-71.066163,"lat":48.428677,"arrival":1522667460000,"departure":1522667461000,"zoneId":"NA","stopIndex":35,"stopSequence":36,"vertexType":"TRANSIT"},"legGeometry":{"points":"wwofHxw}pLaAY_IsGYo@}@mBqAkKg@aE@wFS}AiAaIgA{B}CiGiBeFqBsFQ_@wA_DyAaD_AoBQ[sAuC{@sBeCcGqAwC[g@]a@aAw@[_@cA}A_@w@GU[iDWaDzByCv@cA`@e@TSp@g@nAo@nBm@ZSf@c@PMb@[b@_@b@e@PYP]N_@La@P{@NcB@IBcAG_A{@sEEg@oAP}@DiBDFeBMa@iBCq@FmBPFcEDoBNiHyDWN_HBoA@Y@m@","length":72},"routeShortName":"16","routeLongName":"Côte de la Réserve","rentedBike":false,"transitLeg":true,"duration":600.0,"steps":[]},{"startTime":1522667461000,"endTime":1522667462000,"departureDelay":0,"arrivalDelay":0,"realTime":false,"distance":1.104,"pathway":false,"mode":"WALK","route":"","agencyTimeZoneOffset":-14400000,"interlineWithPreviousLeg":false,"from":{"name":"Terminus Chicoutimi","stopId":"1:1289","stopCode":"1289","lon":-71.066163,"lat":48.428677,"arrival":1522667460000,"departure":1522667461000,"zoneId":"NA","stopIndex":35,"stopSequence":36,"vertexType":"TRANSIT"},"to":{"name":"Destination","lon":-71.06561,"lat":48.428649,"arrival":1522667462000,"orig":"","vertexType":"NORMAL"},"legGeometry":{"points":"{uqfHb~vpLA?","length":2},"rentedBike":false,"transitLeg":false,"duration":1.0,"steps":[{"distance":1.104,"relativeDirection":"DEPART","streetName":"Rue Morin","absoluteDirection":"NORTH","stayOn":false,"area":false,"bogusName":false,"lon":-71.0654590096484,"lat":48.428628638946556,"elevation":[]}]}],"tooSloped":false},{"duration":816,"startTime":1522668446000,"endTime":1522669262000,"walkTime":214,"transitTime":600,"waitingTime":2,"walkDistance":266.0941503723856,"walkLimitExceeded":false,"elevationLost":0.0,"elevationGained":0.0,"transfers":0,"legs":[{"startTime":1522668446000,"endTime":1522668659000,"departureDelay":0,"arrivalDelay":0,"realTime":false,"distance":264.88,"pathway":false,"mode":"WALK","route":"","agencyTimeZoneOffset":-14400000,"interlineWithPreviousLeg":false,"from":{"name":"Origin","lon":-71.097966,"lat":48.418905,"departure":1522668446000,"orig":"","vertexType":"NORMAL"},"to":{"name":"nouveau","stopId":"1:2307","stopCode":"2307","lon":-71.099825,"lat":48.418606,"arrival":1522668659000,"departure":1522668660000,"zoneId":"NA","stopIndex":23,"stopSequence":24,"vertexType":"TRANSIT"},"legGeometry":{"points":"gyofHbi}pLIRbBvAaCjIvA`@","length":5},"rentedBike":false,"transitLeg":false,"duration":213.0,"steps":[{"distance":8.656,"relativeDirection":"DEPART","streetName":"Rue Cloutier","absoluteDirection":"NORTHWEST","stayOn":false,"area":false,"bogusName":false,"lon":-71.0979399228143,"lat":48.41892873620281,"elevation":[]},{"distance":64.131,"relativeDirection":"LEFT","streetName":"Rue Ringuette","absoluteDirection":"SOUTHWEST","stayOn":false,"area":false,"bogusName":false,"lon":-71.0980347,"lat":48.418974600000006,"elevation":[]},{"distance":142.185,"relativeDirection":"RIGHT","streetName":"Rue Gosselin","absoluteDirection":"NORTHWEST","stayOn":false,"area":false,"bogusName":false,"lon":-71.09847020000001,"lat":48.4184755,"elevation":[]},{"distance":49.908,"relativeDirection":"LEFT","streetName":"Chemin de la Réserve","absoluteDirection":"SOUTH","stayOn":false,"area":false,"bogusName":false,"lon":-71.10013090000001,"lat":48.4191238,"elevation":[]}]},{"startTime":1522668660000,"endTime":1522669260000,"departureDelay":0,"arrivalDelay":0,"realTime":false,"distance":3235.1198449957556,"pathway":false,"mode":"BUS","route":"16","agencyName":"Société de Transport du Saguenay","agencyUrl":"http://ville.saguenay.ca/fr/services-aux-citoyens/transport-sts","agencyTimeZoneOffset":-14400000,"routeColor":"00FF00","routeType":3,"routeId":"1:16","routeTextColor":"000000","interlineWithPreviousLeg":false,"tripBlockId":"35","headsign":"Terminus Chicoutimi","agencyId":"0","tripId":"1:218243","serviceDate":"20180402","from":{"name":"nouveau","stopId":"1:2307","stopCode":"2307","lon":-71.099825,"lat":48.418606,"arrival":1522668659000,"departure":1522668660000,"zoneId":"NA","stopIndex":23,"stopSequence":24,"vertexType":"TRANSIT"},"to":{"name":"Terminus Chicoutimi","stopId":"1:1289","stopCode":"1289","lon":-71.066163,"lat":48.428677,"arrival":1522669260000,"departure":1522669261000,"zoneId":"NA","stopIndex":35,"stopSequence":36,"vertexType":"TRANSIT"},"legGeometry":{"points":"wwofHxw}pLaAY_IsGYo@}@mBqAkKg@aE@wFS}AiAaIgA{B}CiGiBeFqBsFQ_@wA_DyAaD_AoBQ[sAuC{@sBeCcGqAwC[g@]a@aAw@[_@cA}A_@w@GU[iDWaDzByCv@cA`@e@TSp@g@nAo@nBm@ZSf@c@PMb@[b@_@b@e@PYP]N_@La@P{@NcB@IBcAG_A{@sEEg@oAP}@DiBDFeBMa@iBCq@FmBPFcEDoBNiHyDWN_HBoA@Y@m@","length":72},"routeShortName":"16","routeLongName":"Côte de la Réserve","rentedBike":false,"transitLeg":true,"duration":600.0,"steps":[]},{"startTime":1522669261000,"endTime":1522669262000,"departureDelay":0,"arrivalDelay":0,"realTime":false,"distance":1.104,"pathway":false,"mode":"WALK","route":"","agencyTimeZoneOffset":-14400000,"interlineWithPreviousLeg":false,"from":{"name":"Terminus Chicoutimi","stopId":"1:1289","stopCode":"1289","lon":-71.066163,"lat":48.428677,"arrival":1522669260000,"departure":1522669261000,"zoneId":"NA","stopIndex":35,"stopSequence":36,"vertexType":"TRANSIT"},"to":{"name":"Destination","lon":-71.06561,"lat":48.428649,"arrival":1522669262000,"orig":"","vertexType":"NORMAL"},"legGeometry":{"points":"{uqfHb~vpLA?","length":2},"rentedBike":false,"transitLeg":false,"duration":1.0,"steps":[{"distance":1.104,"relativeDirection":"DEPART","streetName":"Rue Morin","absoluteDirection":"NORTH","stayOn":false,"area":false,"bogusName":false,"lon":-71.0654590096484,"lat":48.428628638946556,"elevation":[]}]}],"tooSloped":false}]},"debugOutput":{"precalculationTime":26,"pathCalculationTime":26,"pathTimes":[14,10,2],"renderingTime":0,"totalTime":52,"timedOut":false},"elevationMetadata":{"ellipsoidToGeoidDifference":-28.885904201182168,"geoidElevation":false}}