{"requestParameters":{"date":"2018/04/02","walkSpeed":"1.33","walkReluctance":"2.0","fromPlace":"48.432646,-71.115853","maxWalkDistance":"3000","waitReluctance":"1.0","carSpeed":"33","numItineraries":"3","waitAtBeginningFactor":"0.4","mode":"TRANSIT,WALK","ignoreRealtimeUpdates":"false","stairsReluctance":"2.0","toPlace":"48.427391,-71.06312699","time":"19:0:00"},"plan":{"date":1522710000000,"from":{"name":"Origin","lon":-71.115853,"lat":48.432646,"orig":"","vertexType":"NORMAL"},"to":{"name":"Destination","lon":-71.06312699,"lat":48.427391,"orig":"","vertexType":"NORMAL"},"itineraries":[{"duration":1134,"startTime":1522711580000,"endTime":1522712714000,"walkTime":756,"transitTime":376,"waitingTime":2,"walkDistance":959.9814511203834,"walkLimitExceeded":false,"elevationLost":0.0,"elevationGained":0.0,"transfers":0,"legs":[{"startTime":1522711580000,"endTime":1522712083000,"departureDelay":0,"arrivalDelay":0,"realTime":false,"distance":638.827,"pathway":false,"mode":"WALK","route":"","agencyTimeZoneOffset":-14400000,"interlineWithPreviousLeg":false,"from":{"name":"Origin","lon":-71.115853,"lat":48.432646,"departure":1522711580000,"orig":"","vertexType":"NORMAL"},"to":{"name":"boul. Saguenay / Daniel","stopId":"1:1936","stopCode":"1936","lon":-71.114452,"lat":48.436189,"arrival":1522712083000,"departure":1522712084000,"zoneId":"NA","stopIndex":24,"stopSequence":25,"vertexType":"TRANSIT"},"legGeometry":{"points":"{nrfHlz`qLhAQEgAQiAeBmB_A{@OOYWWM{Am@SrCQj@KZY?mBJO@]BaAQqAc@kA[?m@","length":21},"rentedBike":false,"transitLeg":false,"duration":503.0,"steps":[{"distance":41.901,"relativeDirection":"DEPART","streetName":"Place Monal","absoluteDirection":"SOUTH","stayOn":false,"area":false,"bogusName":false,"lon":-71.11606228654483,"lat":48.43262364083299,"elevation":[]},{"distance":55.495,"relativeDirection":"LEFT","streetName":"Rue Panoramique","absoluteDirection":"EAST","stayOn":false,"area":false,"bogusName":false,"lon":-71.115972,"lat":48.4322516,"elevation":[]},{"distance":208.118,"relativeDirection":"SLIGHTLY_LEFT","streetName":"Rue Panoramique","absoluteDirection":"NORTHEAST","stayOn":true,"area":false,"bogusName":false,"lon":-71.11524940000001,"lat":48.4323764,"elevation":[]},{"distance":87.441,"relativeDirection":"LEFT","streetName":"Rue Daniel","absoluteDirection":"WEST","stayOn":false,"area":false,"bogusName":false,"lon":-71.1138911,"lat":48.4339997,"elevation":[]},{"distance":229.42900000000003,"relativeDirection":"RIGHT","streetName":"Rue Daniel","absoluteDirection":"NORTH","stayOn":true,"area":false,"bogusName":false,"lon":-71.11499330000001,"lat":48.4342498,"elevation":[]},{"distance":16.443,"relativeDirection":"RIGHT","streetName":"Boulevard du Saguenay Ouest","absoluteDirection":"EAST","stayOn":false,"area":false,"bogusName":false,"lon":-71.1146708,"lat":48.4362761,"elevation":[]}]},{"startTime":1522712084000,"endTime":1522712460000,"departureDelay":0,"arrivalDelay":0,"realTime":false,"distance":3683.1465779220334,"pathway":false,"mode":"BUS","route":"3","agencyName":"Société de Transport du Saguenay","agencyUrl":"http://ville.saguenay.ca/fr/services-aux-citoyens/transport-sts","agencyTimeZoneOffset":-14400000,"routeColor":"FF0000","routeType":3,"routeId":"1:3","routeTextColor":"FFFFFF","interlineWithPreviousLeg":false,"tripBlockId":"8","headsign":"Terminus Chicoutimi","agencyId":"0","tripId":"1:217382","serviceDate":"20180402","from":{"name":"boul. Saguenay / Daniel","stopId":"1:1936","stopCode":"1936","lon":-71.114452,"lat":48.436189,"arrival":1522712083000,"departure":1522712084000,"zoneId":"NA","stopIndex":24,"stopSequence":25,"vertexType":"TRANSIT"},"to":{"name":"Terminus Chicoutimi","stopId":"1:1289","stopCode":"1289","lon":-71.066163,"lat":48.428677,"arrival":1522712460000,"departure":1522712461000,"zoneId":"NA","stopIndex":32,"stopSequence":33,"vertexType":"TRANSIT"},"legGeometry":{"points":"qesfHjp`qL?mEDa@FgAD_BHoAr@mGTyBd@mFDq@HyAB_ADoBLyFBiFPkO@KLmDl@}K@yBAoCBiA@MhAqPNsENgEPwH^_HPiDN_BZcB`@mAxGgV|Ju^\\eBVgBLcB|@}^FkAF}DJyDPwGvAHVyL","length":44},"routeShortName":"3","routeLongName":"Chic/Jonq via Boul. Saguenay","rentedBike":false,"transitLeg":true,"duration":376.0,"steps":[]},{"startTime":1522712461000,"endTime":1522712714000,"departureDelay":0,"arrivalDelay":0,"realTime":false,"distance":320.924,"pathway":false,"mode":"WALK","route":"","agencyTimeZoneOffset":-14400000,"interlineWithPreviousLeg":false,"from":{"name":"Terminus Chicoutimi","stopId":"1:1289","stopCode":"1289","lon":-71.066163,"lat":48.428677,"arrival":1522712460000,"departure":1522712461000,"zoneId":"NA","stopIndex":32,"stopSequence":33,"vertexType":"TRANSIT"},"to":{"name":"Destination","lon":-71.06312699,"lat":48.427391,"arrival":1522712714000,"orig":"","vertexType":"NORMAL"},"legGeometry":{"points":"{uqfHb~vpLbAJR@JDb@LR{H@k@@YFqB@i@lA@","length":11},"rentedBike":false,"transitLeg":false,"duration":253.0,"steps":[{"distance":77.207,"relativeDirection":"DEPART","streetName":"Rue Morin","absoluteDirection":"SOUTH","stayOn":false,"area":false,"bogusName":false,"lon":-71.0654590096484,"lat":48.428628638946556,"elevation":[]},{"distance":200.75199999999998,"relativeDirection":"LEFT","streetName":"Rue Racine Est","absoluteDirection":"EAST","stayOn":false,"area":false,"bogusName":false,"lon":-71.0656238,"lat":48.4279449,"elevation":[]},{"distance":42.965,"relativeDirection":"RIGHT","streetName":"Rue de l'Hôtel-de-Ville","absoluteDirection":"SOUTH","stayOn":false,"area":false,"bogusName":false,"lon":-71.0629152,"lat":48.4277742,"elevation":[]}]}],"tooSloped":false},{"duration":1134,"startTime":1522713380000,"endTime":1522714514000,"walkTime":756,"transitTime":376,"waitingTime":2,"walkDistance":959.9814511203834,"walkLimitExceeded":false,"elevationLost":0.0,"elevationGained":0.0,"transfers":0,"legs":[{"startTime":1522713380000,"endTime":1522713883000,"departureDelay":0,"arrivalDelay":0,"realTime":false,"distance":638.827,"pathway":false,"mode":"WALK","route":"","agencyTimeZoneOffset":-14400000,"interlineWithPreviousLeg":false,"from":{"name":"Origin","lon":-71.115853,"lat":48.432646,"departure":1522713380000,"orig":"","vertexType":"NORMAL"},"to":{"name":"boul. Saguenay / Daniel","stopId":"1:1936","stopCode":"1936","lon":-71.114452,"lat":48.436189,"arrival":1522713883000,"departure":1522713884000,"zoneId":"NA","stopIndex":24,"stopSequence":25,"vertexType":"TRANSIT"},"legGeometry":{"points":"{nrfHlz`qLhAQEgAQiAeBmB_A{@OOYWWM{Am@SrCQj@KZY?mBJO@]BaAQqAc@kA[?m@","length":21},"rentedBike":false,"transitLeg":false,"duration":503.0,"steps":[{"distance":41.901,"relativeDirection":"DEPART","streetName":"Place Monal","absoluteDirection":"SOUTH","stayOn":false,"area":false,"bogusName":false,"lon":-71.11606228654483,"lat":48.43262364083299,"elevation":[]},{"distance":55.495,"relativeDirection":"LEFT","streetName":"Rue Panoramique","absoluteDirection":"EAST","stayOn":false,"area":false,"bogusName":false,"lon":-71.115972,"lat":48.4322516,"elevation":[]},{"distance":208.118,"relativeDirection":"SLIGHTLY_LEFT","streetName":"Rue Panoramique","absoluteDirection":"NORTHEAST","stayOn":true,"area":false,"bogusName":false,"lon":-71.11524940000001,"lat":48.4323764,"elevation":[]},{"distance":87.441,"relativeDirection":"LEFT","streetName":"Rue Daniel","absoluteDirection":"WEST","stayOn":false,"area":false,"bogusName":false,"lon":-71.1138911,"lat":48.4339997,"elevation":[]},{"distance":229.42900000000003,"relativeDirection":"RIGHT","streetName":"Rue Daniel","absoluteDirection":"NORTH","stayOn":true,"area":false,"bogusName":false,"lon":-71.11499330000001,"lat":48.4342498,"elevation":[]},{"distance":16.443,"relativeDirection":"RIGHT","streetName":"Boulevard du Saguenay Ouest","absoluteDirection":"EAST","stayOn":false,"area":false,"bogusName":false,"lon":-71.1146708,"lat":48.4362761,"elevation":[]}]},{"startTime":1522713884000,"endTime":1522714260000,"departureDelay":0,"arrivalDelay":0,"realTime":false,"distance":3683.1465779220334,"pathway":false,"mode":"BUS","route":"3","agencyName":"Société de Transport du Saguenay","agencyUrl":"http://ville.saguenay.ca/fr/services-aux-citoyens/transport-sts","agencyTimeZoneOffset":-14400000,"routeColor":"FF0000","routeType":3,"routeId":"1:3","routeTextColor":"FFFFFF","interlineWithPreviousLeg":false,"tripBlockId":"6","headsign":"Terminus Chicoutimi","agencyId":"0","tripId":"1:217311","serviceDate":"20180402","from":{"name":"boul. Saguenay / Daniel","stopId":"1:1936","stopCode":"1936","lon":-71.114452,"lat":48.436189,"arrival":1522713883000,"departure":1522713884000,"zoneId":"NA","stopIndex":24,"stopSequence":25,"vertexType":"TRANSIT"},"to":{"name":"Terminus Chicoutimi","stopId":"1:1289","stopCode":"1289","lon":-71.066163,"lat":48.428677,"arrival":1522714260000,"departure":1522714261000,"zoneId":"NA","stopIndex":32,"stopSequence":33,"vertexType":"TRANSIT"},"legGeometry":{"points":"qesfHjp`qL?mEDa@FgAD_BHoAr@mGTyBd@mFDq@HyAB_ADoBLyFBiFPkO@KLmDl@}K@yBAoCBiA@MhAqPNsENgEPwH^_HPiDN_BZcB`@mAxGgV|Ju^\\eBVgBLcB|@}^FkAF}DJyDPwGvAHVyL","length":44},"routeShortName":"3","routeLongName":"Chic/Jonq via Boul. Saguenay","rentedBike":false,"transitLeg":true,"duration":376.0,"steps":[]},{"startTime":1522714261000,"endTime":1522714514000,"departureDelay":0,"arrivalDelay":0,"realTime":false,"distance":320.924,"pathway":false,"mode":"WALK","route":"","agencyTimeZoneOffset":-14400000,"interlineWithPreviousLeg":false,"from":{"name":"Terminus Chicoutimi","stopId":"1:1289","stopCode":"1289","lon":-71.066163,"lat":48.428677,"arrival":1522714260000,"departure":1522714261000,"zoneId":"NA","stopIndex":32,"stopSequence":33,"vertexType":"TRANSIT"},"to":{"name":"Destination","lon":-71.06312699,"lat":48.427391,"arrival":1522714514000,"orig":"","vertexType":"NORMAL"},"legGeometry":{"points":"{uqfHb~vpLbAJR@JDb@LR{H@k@@YFqB@i@lA@","length":11},"rentedBike":false,"transitLeg":false,"duration":253.0,"steps":[{"distance":77.207,"relativeDirection":"DEPART","streetName":"Rue Morin","absoluteDirection":"SOUTH","stayOn":false,"area":false,"bogusName":false,"lon":-71.0654590096484,"lat":48.428628638946556,"elevation":[]},{"distance":200.75199999999998,"relativeDirection":"LEFT","streetName":"Rue Racine Est","absoluteDirection":"EAST","stayOn":false,"area":false,"bogusName":false,"lon":-71.0656238,"lat":48.4279449,"elevation":[]},{"distance":42.965,"relativeDirection":"RIGHT","streetName":"Rue de l'Hôtel-de-Ville","absoluteDirection":"SOUTH","stayOn":false,"area":false,"bogusName":false,"lon":-71.0629152,"lat":48.4277742,"elevation":[]}]}],"tooSloped":false},{"duration":1134,"startTime":1522715180000,"endTime":1522716314000,"walkTime":756,"transitTime":376,"waitingTime":2,"walkDistance":959.9814511203834,"walkLimitExceeded":false,"elevationLost":0.0,"elevationGained":0.0,"transfers":0,"legs":[{"startTime":1522715180000,"endTime":1522715683000,"departureDelay":0,"arrivalDelay":0,"realTime":false,"distance":638.827,"pathway":false,"mode":"WALK","route":"","agencyTimeZoneOffset":-14400000,"interlineWithPreviousLeg":false,"from":{"name":"Origin","lon":-71.115853,"lat":48.432646,"departure":1522715180000,"orig":"","vertexType":"NORMAL"},"to":{"name":"boul. Saguenay / Daniel","stopId":"1:1936","stopCode":"1936","lon":-71.114452,"lat":48.436189,"arrival":1522715683000,"departure":1522715684000,"zoneId":"NA","stopIndex":24,"stopSequence":25,"vertexType":"TRANSIT"},"legGeometry":{"points":"{nrfHlz`qLhAQEgAQiAeBmB_A{@OOYWWM{Am@SrCQj@KZY?mBJO@]BaAQqAc@kA[?m@","length":21},"rentedBike":false,"transitLeg":false,"duration":503.0,"steps":[{"distance":41.901,"relativeDirection":"DEPART","streetName":"Place Monal","absoluteDirection":"SOUTH","stayOn":false,"area":false,"bogusName":false,"lon":-71.11606228654483,"lat":48.43262364083299,"elevation":[]},{"distance":55.495,"relativeDirection":"LEFT","streetName":"Rue Panoramique","absoluteDirection":"EAST","stayOn":false,"area":false,"bogusName":false,"lon":-71.115972,"lat":48.4322516,"elevation":[]},{"distance":208.118,"relativeDirection":"SLIGHTLY_LEFT","streetName":"Rue Panoramique","absoluteDirection":"NORTHEAST","stayOn":true,"area":false,"bogusName":false,"lon":-71.11524940000001,"lat":48.4323764,"elevation":[]},{"distance":87.441,"relativeDirection":"LEFT","streetName":"Rue Daniel","absoluteDirection":"WEST","stayOn":false,"area":false,"bogusName":false,"lon":-71.1138911,"lat":48.4339997,"elevation":[]},{"distance":229.42900000000003,"relativeDirection":"RIGHT","streetName":"Rue Daniel","absoluteDirection":"NORTH","stayOn":true,"area":false,"bogusName":false,"lon":-71.11499330000001,"lat":48.4342498,"elevation":[]},{"distance":16.443,"relativeDirection":"RIGHT","streetName":"Boulevard du Saguenay Ouest","absoluteDirection":"EAST","stayOn":false,"area":false,"bogusName":false,"lon":-71.1146708,"lat":48.4362761,"elevation":[]}]},{"startTime":1522715684000,"endTime":1522716060000,"departureDelay":0,"arrivalDelay":0,"realTime":false,"distance":3683.1465779220334,"pathway":false,"mode":"BUS","route":"3","agencyName":"Société de Transport du Saguenay","agencyUrl":"http://ville.saguenay.ca/fr/services-aux-citoyens/transport-sts","agencyTimeZoneOffset":-14400000,"routeColor":"FF0000","routeType":3,"routeId":"1:3","routeTextColor":"FFFFFF","interlineWithPreviousLeg":false,"tripBlockId":"7","headsign":"Terminus Chicoutimi","agencyId":"0","tripId":"1:217348","serviceDate":"20180402","from":{"name":"boul. Saguenay / Daniel","stopId":"1:1936","stopCode":"1936","lon":-71.114452,"lat":48.436189,"arrival":1522715683000,"departure":1522715684000,"zoneId":"NA","stopIndex":24,"stopSequence":25,"vertexType":"TRANSIT"},"to":{"name":"Terminus Chicoutimi","stopId":"1:1289","stopCode":"1289","lon":-71.066163,"lat":48.428677,"arrival":1522716060000,"departure":1522716061000,"zoneId":"NA","stopIndex":32,"stopSequence":33,"vertexType":"TRANSIT"},"legGeometry":{"points":"qesfHjp`qL?mEDa@FgAD_BHoAr@mGTyBd@mFDq@HyAB_ADoBLyFBiFPkO@KLmDl@}K@yBAoCBiA@MhAqPNsENgEPwH^_HPiDN_BZcB`@mAxGgV|Ju^\\eBVgBLcB|@}^FkAF}DJyDPwGvAHVyL","length":44},"routeShortName":"3","routeLongName":"Chic/Jonq via Boul. Saguenay","rentedBike":false,"transitLeg":true,"duration":376.0,"steps":[]},{"startTime":1522716061000,"endTime":1522716314000,"departureDelay":0,"arrivalDelay":0,"realTime":false,"distance":320.924,"pathway":false,"mode":"WALK","route":"","agencyTimeZoneOffset":-14400000,"interlineWithPreviousLeg":false,"from":{"name":"Terminus Chicoutimi","stopId":"1:1289","stopCode":"1289","lon":-71.066163,"lat":48.428677,"arrival":1522716060000,"departure":1522716061000,"zoneId":"NA","stopIndex":32,"stopSequence":33,"vertexType":"TRANSIT"},"to":{"name":"Destination","lon":-71.06312699,"lat":48.427391,"arrival":1522716314000,"orig":"","vertexType":"NORMAL"},"legGeometry":{"points":"{uqfHb~vpLbAJR@JDb@LR{H@k@@YFqB@i@lA@","length":11},"rentedBike":false,"transitLeg":false,"duration":253.0,"steps":[{"distance":77.207,"relativeDirection":"DEPART","streetName":"Rue Morin","absoluteDirection":"SOUTH","stayOn":false,"area":false,"bogusName":false,"lon":-71.0654590096484,"lat":48.428628638946556,"elevation":[]},{"distance":200.75199999999998,"relativeDirection":"LEFT","streetName":"Rue Racine Est","absoluteDirection":"EAST","stayOn":false,"area":false,"bogusName":false,"lon":-71.0656238,"lat":48.4279449,"elevation":[]},{"distance":42.965,"relativeDirection":"RIGHT","streetName":"Rue de l'Hôtel-de-Ville","absoluteDirection":"SOUTH","stayOn":false,"area":false,"bogusName":false,"lon":-71.0629152,"lat":48.4277742,"elevation":[]}]}],"tooSloped":false}]},"debugOutput":{"precalculationTime":20,"pathCalculationTime":11,"pathTimes":[2,5,4],"renderingTime":0,"totalTime":31,"timedOut":false},"elevationMetadata":{"ellipsoidToGeoidDifference":-28.885904201182168,"geoidElevation":false}}