{"requestParameters":{"date":"2018/04/02","walkSpeed":"1.33","walkReluctance":"2.0","fromPlace":"48.412691,-71.06630099","maxWalkDistance":"3000","waitReluctance":"1.0","carSpeed":"33","numItineraries":"3","waitAtBeginningFactor":"0.4","mode":"TRANSIT,WALK","ignoreRealtimeUpdates":"false","stairsReluctance":"2.0","toPlace":"48.448829,-71.06723599","time":"12:0:00"},"plan":{"date":1522684800000,"from":{"name":"Origin","lon":-71.06630099,"lat":48.412691,"orig":"","vertexType":"NORMAL"},"to":{"name":"Destination","lon":-71.06723599,"lat":48.448829,"orig":"","vertexType":"NORMAL"},"itineraries":[{"duration":2063,"startTime":1522685920000,"endTime":1522687983000,"walkTime":1702,"transitTime":359,"waitingTime":2,"walkDistance":2206.7649248065463,"walkLimitExceeded":false,"elevationLost":0.0,"elevationGained":0.0,"transfers":0,"legs":[{"startTime":1522685920000,"endTime":1522687499000,"departureDelay":0,"arrivalDelay":0,"realTime":false,"distance":2051.4990000000007,"pathway":false,"mode":"WALK","route":"","agencyTimeZoneOffset":-14400000,"interlineWithPreviousLeg":false,"from":{"name":"Origin","lon":-71.06630099,"lat":48.412691,"departure":1522685920000,"orig":"","vertexType":"NORMAL"},"to":{"name":"Terminus Chicoutimi","stopId":"1:1289","stopCode":"1289","lon":-71.066163,"lat":48.428677,"arrival":1522687499000,"departure":1522687500000,"zoneId":"NA","stopIndex":0,"stopSequence":1,"vertexType":"TRANSIT"},"legGeometry":{"points":"konfHnfwpLyAdGMUs@m@{@u@UIIP}AhEc@c@cAUw@Pi@b@UF}@Sm@{@g@?IBMBIFs@D_AXwAZWM_@YQKc@IEAQEK]Mq@C_BQWQKUE_@Fe@FY@o@Ac@Pk@@c@A_@Uw@k@_@QWFW@U_@c@q@_@]yAKYJGBMAM?qBCs@?O?}@EcAIw@EuAKs@CgDS}AKQG_@C{BUsAGkCQQAsBIc@MKESAcAK","length":75},"rentedBike":false,"transitLeg":false,"duration":1579.0,"steps":[{"distance":109.258,"relativeDirection":"DEPART","streetName":"Rue Georges-Vanier","absoluteDirection":"NORTHWEST","stayOn":false,"area":false,"bogusName":false,"lon":-71.066793,"lat":48.41222,"elevation":[]},{"distance":96.293,"relativeDirection":"RIGHT","streetName":"Rue Bégin","absoluteDirection":"NORTHEAST","stayOn":false,"area":false,"bogusName":false,"lon":-71.0681022,"lat":48.4126786,"elevation":[]},{"distance":99.381,"relativeDirection":"LEFT","streetName":"Rue Des Oblats Est","absoluteDirection":"NORTHWEST","stayOn":false,"area":false,"bogusName":false,"lon":-71.06744280000001,"lat":48.413416500000004,"elevation":[]},{"distance":927.983,"relativeDirection":"RIGHT","streetName":"path","absoluteDirection":"NORTHEAST","stayOn":false,"area":false,"bogusName":true,"lon":-71.06854150000001,"lat":48.4139332,"elevation":[]},{"distance":818.5840000000001,"relativeDirection":"SLIGHTLY_RIGHT","streetName":"Rue Morin","absoluteDirection":"NORTH","stayOn":false,"area":false,"bogusName":false,"lon":-71.06636540000001,"lat":48.4213,"elevation":[]}]},{"startTime":1522687500000,"endTime":1522687859000,"departureDelay":0,"arrivalDelay":0,"realTime":false,"distance":2420.2783982822816,"pathway":false,"mode":"BUS","route":"22","agencyName":"Société de Transport du Saguenay","agencyUrl":"http://ville.saguenay.ca/fr/services-aux-citoyens/transport-sts","agencyTimeZoneOffset":-14400000,"routeColor":"C0C000","routeType":3,"routeId":"1:22","routeTextColor":"000000","interlineWithPreviousLeg":false,"tripBlockId":"1","headsign":"Terminus Chicoutimi","agencyId":"0","tripId":"1:217142","serviceDate":"20180402","from":{"name":"Terminus Chicoutimi","stopId":"1:1289","stopCode":"1289","lon":-71.066163,"lat":48.428677,"arrival":1522687499000,"departure":1522687500000,"zoneId":"NA","stopIndex":0,"stopSequence":1,"vertexType":"TRANSIT"},"to":{"name":"Constantin / Cabot","stopId":"1:741","stopCode":"741","lon":-71.065961,"lat":48.448053,"arrival":1522687859000,"departure":1522687860000,"zoneId":"NA","stopIndex":5,"stopSequence":6,"vertexType":"TRANSIT"},"legGeometry":{"points":"evqfHzcwpLg@?UhKxDVOhHMrH~CYhBBInAKXSNg@L{JHgBMoA[s@Usb@gS}@g@u@Su@Ia@Ck@Dm@HwAf@c@VeAx@iAlAU^[d@eLtTsAvBMJYF[EMIQ]y@wB[y@[{@_B{D{@uBe@gAO}AGw@SaCmAZe@AYOy@o@MKsAcA}BmBuC}BgA}@}BsBaAaA","length":56},"routeShortName":"22","routeLongName":"Vanier","rentedBike":false,"transitLeg":true,"duration":359.0,"steps":[]},{"startTime":1522687860000,"endTime":1522687983000,"departureDelay":0,"arrivalDelay":0,"realTime":false,"distance":155.096,"pathway":false,"mode":"WALK","route":"","agencyTimeZoneOffset":-14400000,"interlineWithPreviousLeg":false,"from":{"name":"Constantin / Cabot","stopId":"1:741","stopCode":"741","lon":-71.065961,"lat":48.448053,"arrival":1522687859000,"departure":1522687860000,"zoneId":"NA","stopIndex":5,"stopSequence":6,"vertexType":"TRANSIT"},"to":{"name":"Destination","lon":-71.06723599,"lat":48.448829,"arrival":1522687983000,"orig":"","vertexType":"NORMAL"},"legGeometry":{"points":"soufHbbwpLAA{@w@Il@i@zDMz@","length":6},"alerts":[{"alertHeaderText":"Unpaved surface"}],"rentedBike":false,"transitLeg":false,"duration":123.0,"steps":[{"distance":40.008,"relativeDirection":"DEPART","streetName":"Rue Constantin","absoluteDirection":"NORTHEAST","stayOn":false,"area":false,"bogusName":false,"lon":-71.06609099534103,"lat":48.44810739037834,"elevation":[]},{"distance":115.088,"relativeDirection":"LEFT","streetName":"Rue Cabot","absoluteDirection":"WEST","stayOn":false,"area":false,"bogusName":false,"lon":-71.0658016,"lat":48.4484117,"elevation":[],"alerts":[{"alertHeaderText":"Unpaved surface"}]}]}],"tooSloped":false},{"duration":1809,"startTime":1522686265000,"endTime":1522688074000,"walkTime":139,"transitTime":1248,"waitingTime":422,"walkDistance":177.13596240488687,"walkLimitExceeded":false,"elevationLost":0.0,"elevationGained":0.0,"transfers":1,"legs":[{"startTime":1522686265000,"endTime":1522686386000,"departureDelay":0,"arrivalDelay":0,"realTime":false,"distance":153.329,"pathway":false,"mode":"WALK","route":"","agencyTimeZoneOffset":-14400000,"interlineWithPreviousLeg":false,"from":{"name":"Origin","lon":-71.06630099,"lat":48.412691,"departure":1522686265000,"orig":"","vertexType":"NORMAL"},"to":{"name":"École secondaire de l'Odyssé Dominique-Racine","stopId":"1:580","stopCode":"580","lon":-71.067703,"lat":48.412977,"arrival":1522686386000,"departure":1522686387000,"zoneId":"NA","stopIndex":24,"stopSequence":25,"vertexType":"TRANSIT"},"legGeometry":{"points":"konfHnfwpLyAdGMUs@m@","length":4},"rentedBike":false,"transitLeg":false,"duration":121.0,"steps":[{"distance":109.258,"relativeDirection":"DEPART","streetName":"Rue Georges-Vanier","absoluteDirection":"NORTHWEST","stayOn":false,"area":false,"bogusName":false,"lon":-71.066793,"lat":48.41222,"elevation":[]},{"distance":44.071,"relativeDirection":"RIGHT","streetName":"Rue Bégin","absoluteDirection":"NORTHEAST","stayOn":false,"area":false,"bogusName":false,"lon":-71.0681022,"lat":48.4126786,"elevation":[]}]},{"startTime":1522686387000,"endTime":1522687080000,"departureDelay":0,"arrivalDelay":0,"realTime":false,"distance":3444.734109095533,"pathway":false,"mode":"BUS","route":"15","agencyName":"Société de Transport du Saguenay","agencyUrl":"http://ville.saguenay.ca/fr/services-aux-citoyens/transport-sts","agencyTimeZoneOffset":-14400000,"routeColor":"FF00FF","routeType":3,"routeId":"1:15","routeTextColor":"FFFFFF","interlineWithPreviousLeg":false,"tripBlockId":"30","headsign":"Terminus Chicoutimi","agencyId":"0","tripId":"1:218098","serviceDate":"20180402","from":{"name":"École secondaire de l'Odyssé Dominique-Racine","stopId":"1:580","stopCode":"580","lon":-71.067703,"lat":48.412977,"arrival":1522686386000,"departure":1522686387000,"zoneId":"NA","stopIndex":24,"stopSequence":25,"vertexType":"TRANSIT"},"to":{"name":"Terminus Chicoutimi","stopId":"1:1289","stopCode":"1289","lon":-71.066163,"lat":48.428677,"arrival":1522687080000,"departure":1522687500000,"zoneId":"NA","stopIndex":39,"stopSequence":40,"vertexType":"TRANSIT"},"legGeometry":{"points":"ktnfH~lwpLsAkAoBwB_EcE{A_BoAmAk@o@cCaCkIkIaJaJUUwBaCj@wCjAsCzGoG_CoHL{D_@kAqD{CQr@iAcAy@w@L{@wAuA_B_B_EpLDh@NbBVvCIxBg@`Am@l@Sb@a@rAqDqDmEkE]a@kAqAU|@WnKG|DGxDOdPKvJU|F?XQlJC~@ChAIzEcCOaIi@VwL","length":53},"routeShortName":"15","routeLongName":"Term. Chic / Costco","rentedBike":false,"transitLeg":true,"duration":693.0,"steps":[]},{"startTime":1522687500000,"endTime":1522688055000,"departureDelay":0,"arrivalDelay":0,"realTime":false,"distance":4037.7492727135223,"pathway":false,"mode":"BUS","route":"23","agencyName":"Société de Transport du Saguenay","agencyUrl":"http://ville.saguenay.ca/fr/services-aux-citoyens/transport-sts","agencyTimeZoneOffset":-14400000,"routeColor":"FF00FF","routeType":3,"routeId":"1:23","routeTextColor":"FFFFFF","interlineWithPreviousLeg":false,"tripBlockId":"5","headsign":"Terminus Chicoutimi","agencyId":"0","tripId":"1:217262","serviceDate":"20180402","from":{"name":"Terminus Chicoutimi","stopId":"1:1289","stopCode":"1289","lon":-71.066163,"lat":48.428677,"arrival":1522687080000,"departure":1522687500000,"zoneId":"NA","stopIndex":0,"stopSequence":1,"vertexType":"TRANSIT"},"to":{"name":"Cabot / Ruisseau","stopId":"1:765","stopCode":"765","lon":-71.067028,"lat":48.44857,"arrival":1522688055000,"departure":1522688056000,"zoneId":"NA","stopIndex":9,"stopSequence":10,"vertexType":"TRANSIT"},"legGeometry":{"points":"kwqfHjbwpLF_CkAOYCm@rRO\\WjGOfGCRK^KJMHQB_AMg@Gw`@eR}@g@u@Su@Ia@Ck@Dm@HwAf@c@VeAx@iAlAU^[d@eLtTsAvB_CvEuAnCmBlE}@|B_BvFoC`JCD}@hCo@~Aq@pAs@fA{BlCqH|Iq@Bq@Im@UGCUi@Wm@ScA_@gGSaE@_@@_@@ERoBFe@No@`@gAbCyFNe@Ha@He@Fg@Du@Dg@Hc@Pa@RW\\S`@QZEm@eHM}B?GGi@Is@Ou@Qw@Mo@Kw@ImAGoBAk@aALa@?YEUKc@Yc@_@KOIUGUEWAW?YBqAH_AXeC@IdB_M","length":101},"routeShortName":"23","routeLongName":"Côte Verdun via Aréna du Plateau","rentedBike":false,"transitLeg":true,"duration":555.0,"steps":[]},{"startTime":1522688056000,"endTime":1522688074000,"departureDelay":0,"arrivalDelay":0,"realTime":false,"distance":23.772,"pathway":false,"mode":"WALK","route":"","agencyTimeZoneOffset":-14400000,"interlineWithPreviousLeg":false,"from":{"name":"Cabot / Ruisseau","stopId":"1:765","stopCode":"765","lon":-71.067028,"lat":48.44857,"arrival":1522688055000,"departure":1522688056000,"zoneId":"NA","stopIndex":9,"stopSequence":10,"vertexType":"TRANSIT"},"to":{"name":"Destination","lon":-71.06723599,"lat":48.448829,"arrival":1522688074000,"orig":"","vertexType":"NORMAL"},"legGeometry":{"points":"esufHrgwpLMz@","length":2},"rentedBike":false,"transitLeg":false,"duration":18.0,"steps":[{"distance":23.772,"relativeDirection":"DEPART","streetName":"Rue Cabot","absoluteDirection":"WEST","stayOn":false,"area":false,"bogusName":false,"lon":-71.06697420818662,"lat":48.448675275192734,"elevation":[]}]}],"tooSloped":false},{"duration":1809,"startTime":1522688065000,"endTime":1522689874000,"walkTime":139,"transitTime":1248,"waitingTime":422,"walkDistance":177.13596240488687,"walkLimitExceeded":false,"elevationLost":0.0,"elevationGained":0.0,"transfers":1,"legs":[{"startTime":1522688065000,"endTime":1522688186000,"departureDelay":0,"arrivalDelay":0,"realTime":false,"distance":153.329,"pathway":false,"mode":"WALK","route":"","agencyTimeZoneOffset":-14400000,"interlineWithPreviousLeg":false,"from":{"name":"Origin","lon":-71.06630099,"lat":48.412691,"departure":1522688065000,"orig":"","vertexType":"NORMAL"},"to":{"name":"École secondaire de l'Odyssé Dominique-Racine","stopId":"1:580","stopCode":"580","lon":-71.067703,"lat":48.412977,"arrival":1522688186000,"departure":1522688187000,"zoneId":"NA","stopIndex":24,"stopSequence":25,"vertexType":"TRANSIT"},"legGeometry":{"points":"konfHnfwpLyAdGMUs@m@","length":4},"rentedBike":false,"transitLeg":false,"duration":121.0,"steps":[{"distance":109.258,"relativeDirection":"DEPART","streetName":"Rue Georges-Vanier","absoluteDirection":"NORTHWEST","stayOn":false,"area":false,"bogusName":false,"lon":-71.066793,"lat":48.41222,"elevation":[]},{"distance":44.071,"relativeDirection":"RIGHT","streetName":"Rue Bégin","absoluteDirection":"NORTHEAST","stayOn":false,"area":false,"bogusName":false,"lon":-71.0681022,"lat":48.4126786,"elevation":[]}]},{"startTime":1522688187000,"endTime":1522688880000,"departureDelay":0,"arrivalDelay":0,"realTime":false,"distance":3444.734109095533,"pathway":false,"mode":"BUS","route":"15","agencyName":"Société de Transport du Saguenay","agencyUrl":"http://ville.saguenay.ca/fr/services-aux-citoyens/transport-sts","agencyTimeZoneOffset":-14400000,"routeColor":"FF00FF","routeType":3,"routeId":"1:15","routeTextColor":"FFFFFF","interlineWithPreviousLeg":false,"tripBlockId":"32","headsign":"Terminus Chicoutimi","agencyId":"0","tripId":"1:218159","serviceDate":"20180402","from":{"name":"École secondaire de l'Odyssé Dominique-Racine","stopId":"1:580","stopCode":"580","lon":-71.067703,"lat":48.412977,"arrival":1522688186000,"departure":1522688187000,"zoneId":"NA","stopIndex":24,"stopSequence":25,"vertexType":"TRANSIT"},"to":{"name":"Terminus Chicoutimi","stopId":"1:1289","stopCode":"1289","lon":-71.066163,"lat":48.428677,"arrival":1522688880000,"departure":1522689300000,"zoneId":"NA","stopIndex":39,"stopSequence":40,"vertexType":"TRANSIT"},"legGeometry":{"points":"ktnfH~lwpLsAkAoBwB_EcE{A_BoAmAk@o@cCaCkIkIaJaJUUwBaCj@wCjAsCzGoG_CoHL{D_@kAqD{CQr@iAcAy@w@L{@wAuA_B_B_EpLDh@NbBVvCIxBg@`Am@l@Sb@a@rAqDqDmEkE]a@kAqAU|@WnKG|DGxDOdPKvJU|F?XQlJC~@ChAIzEcCOaIi@VwL","length":53},"routeShortName":"15","routeLongName":"Term. Chic / Costco","rentedBike":false,"transitLeg":true,"duration":693.0,"steps":[]},{"startTime":1522689300000,"endTime":1522689855000,"departureDelay":0,"arrivalDelay":0,"realTime":false,"distance":4037.7492727135223,"pathway":false,"mode":"BUS","route":"23","agencyName":"Société de Transport du Saguenay","agencyUrl":"http://ville.saguenay.ca/fr/services-aux-citoyens/transport-sts","agencyTimeZoneOffset":-14400000,"routeColor":"FF00FF","routeType":3,"routeId":"1:23","routeTextColor":"FFFFFF","interlineWithPreviousLeg":false,"tripBlockId":"4","headsign":"Terminus Chicoutimi","agencyId":"0","tripId":"1:217236","serviceDate":"20180402","from":{"name":"Terminus Chicoutimi","stopId":"1:1289","stopCode":"1289","lon":-71.066163,"lat":48.428677,"arrival":1522688880000,"departure":1522689300000,"zoneId":"NA","stopIndex":0,"stopSequence":1,"vertexType":"TRANSIT"},"to":{"name":"Cabot / Ruisseau","stopId":"1:765","stopCode":"765","lon":-71.067028,"lat":48.44857,"arrival":1522689855000,"departure":1522689856000,"zoneId":"NA","stopIndex":9,"stopSequence":10,"vertexType":"TRANSIT"},"legGeometry":{"points":"kwqfHjbwpLF_CkAOYCm@rRO\\WjGOfGCRK^KJMHQB_AMg@Gw`@eR}@g@u@Su@Ia@Ck@Dm@HwAf@c@VeAx@iAlAU^[d@eLtTsAvB_CvEuAnCmBlE}@|B_BvFoC`JCD}@hCo@~Aq@pAs@fA{BlCqH|Iq@Bq@Im@UGCUi@Wm@ScA_@gGSaE@_@@_@@ERoBFe@No@`@gAbCyFNe@Ha@He@Fg@Du@Dg@Hc@Pa@RW\\S`@QZEm@eHM}B?GGi@Is@Ou@Qw@Mo@Kw@ImAGoBAk@aALa@?YEUKc@Yc@_@KOIUGUEWAW?YBqAH_AXeC@IdB_M","length":101},"routeShortName":"23","routeLongName":"Côte Verdun via Aréna du Plateau","rentedBike":false,"transitLeg":true,"duration":555.0,"steps":[]},{"startTime":1522689856000,"endTime":1522689874000,"departureDelay":0,"arrivalDelay":0,"realTime":false,"distance":23.772,"pathway":false,"mode":"WALK","route":"","agencyTimeZoneOffset":-14400000,"interlineWithPreviousLeg":false,"from":{"name":"Cabot / Ruisseau","stopId":"1:765","stopCode":"765","lon":-71.067028,"lat":48.44857,"arrival":1522689855000,"departure":1522689856000,"zoneId":"NA","stopIndex":9,"stopSequence":10,"vertexType":"TRANSIT"},"to":{"name":"Destination","lon":-71.06723599,"lat":48.448829,"arrival":1522689874000,"orig":"","vertexType":"NORMAL"},"legGeometry":{"points":"esufHrgwpLMz@","length":2},"rentedBike":false,"transitLeg":false,"duration":18.0,"steps":[{"distance":23.772,"relativeDirection":"DEPART","streetName":"Rue Cabot","absoluteDirection":"WEST","stayOn":false,"area":false,"bogusName":false,"lon":-71.06697420818662,"lat":48.448675275192734,"elevation":[]}]}],"tooSloped":false}]},"debugOutput":{"precalculationTime":31,"pathCalculationTime":69,"pathTimes":[30,19,20],"renderingTime":1,"totalTime":101,"timedOut":false},"elevationMetadata":{"ellipsoidToGeoidDifference":-28.885904201182168,"geoidElevation":false}}