{"requestParameters":{"date":"2018/04/02","walkSpeed":"1.33","walkReluctance":"2.0","fromPlace":"48.408485,-71.06376299","maxWalkDistance":"3000","waitReluctance":"1.0","carSpeed":"33","numItineraries":"3","waitAtBeginningFactor":"0.4","mode":"TRANSIT,WALK","ignoreRealtimeUpdates":"false","stairsReluctance":"2.0","toPlace":"48.429366,-71.078771","time":"14:0:00"},"plan":{"date":1522692000000,"from":{"name":"Origin","lon":-71.06376299,"lat":48.408485,"orig":"","vertexType":"NORMAL"},"to":{"name":"Destination","lon":-71.078771,"lat":48.429366,"orig":"","vertexType":"NORMAL"},"itineraries":[{"duration":2352,"startTime":1522692090000,"endTime":1522694442000,"walkTime":1064,"transitTime":1286,"waitingTime":2,"walkDistance":1356.0360902179457,"walkLimitExceeded":false,"elevationLost":0.0,"elevationGained":0.0,"transfers":0,"legs":[{"startTime":1522692090000,"endTime":1522692259000,"departureDelay":0,"arrivalDelay":0,"realTime":false,"distance":216.102,"pathway":false,"mode":"WALK","route":"","agencyTimeZoneOffset":-14400000,"interlineWithPreviousLeg":false,"from":{"name":"Origin","lon":-71.06376299,"lat":48.408485,"departure":1522692090000,"orig":"","vertexType":"NORMAL"},"to":{"name":"Saguenéens / Duchesne","stopId":"1:1598","stopCode":"1598","lon":-71.065637,"lat":48.406803,"arrival":1522692259000,"departure":1522692260000,"zoneId":"NA","stopIndex":20,"stopSequence":21,"vertexType":"TRANSIT"},"legGeometry":{"points":"svmfHbvvpLILKT~HnF","length":4},"rentedBike":false,"transitLeg":false,"duration":169.0,"steps":[{"distance":17.57,"relativeDirection":"DEPART","streetName":"Rue Don Bosco","absoluteDirection":"NORTHWEST","stayOn":false,"area":false,"bogusName":false,"lon":-71.06417975070717,"lat":48.4082640207927,"elevation":[]},{"distance":198.532,"relativeDirection":"LEFT","streetName":"service road","absoluteDirection":"SOUTHWEST","stayOn":false,"area":false,"bogusName":true,"lon":-71.064351,"lat":48.4083722,"elevation":[]}]},{"startTime":1522692260000,"endTime":1522692720000,"departureDelay":0,"arrivalDelay":0,"realTime":false,"distance":3921.488213696495,"pathway":false,"mode":"BUS","route":"15","agencyName":"Société de Transport du Saguenay","agencyUrl":"http://ville.saguenay.ca/fr/services-aux-citoyens/transport-sts","agencyTimeZoneOffset":-14400000,"routeColor":"FF00FF","routeType":3,"routeId":"1:15","routeTextColor":"FFFFFF","interlineWithPreviousLeg":false,"tripBlockId":"31","headsign":"Talbot / Barrette","agencyId":"0","tripId":"1:218136","serviceDate":"20180402","from":{"name":"Saguenéens / Duchesne","stopId":"1:1598","stopCode":"1598","lon":-71.065637,"lat":48.406803,"arrival":1522692259000,"departure":1522692260000,"zoneId":"NA","stopIndex":20,"stopSequence":21,"vertexType":"TRANSIT"},"to":{"name":"Roitelets / Sapins","stopId":"1:1543","stopCode":"1543","lon":-71.069553,"lat":48.393375,"arrival":1522692720000,"departure":1522692720000,"zoneId":"NA","stopIndex":35,"stopSequence":36,"vertexType":"TRANSIT"},"legGeometry":{"points":"clmfH`awpLfEoItDsH~DeItC{FnBoLbCaO?qLa@uJzF`ApF~@~@PzAgEeDcBf@qAWcKUqEx@Ef@ExDVjDxAFBrBvAfGjG@BjCzC~DxC@@zA~Cb@fCJlC?BsBre@?DWbOAn@?nEGnM@H\\hCzA~ELvAAlAi@jDo@nB","length":45},"routeShortName":"15","routeLongName":"Term. Chic / Costco","rentedBike":false,"transitLeg":true,"duration":460.0,"steps":[]},{"startTime":1522692720000,"endTime":1522693546000,"departureDelay":0,"arrivalDelay":0,"realTime":false,"distance":6551.224729218953,"pathway":false,"mode":"BUS","route":"14","agencyName":"Société de Transport du Saguenay","agencyUrl":"http://ville.saguenay.ca/fr/services-aux-citoyens/transport-sts","agencyTimeZoneOffset":-14400000,"routeColor":"C0C000","routeType":3,"routeId":"1:14","routeTextColor":"000000","interlineWithPreviousLeg":true,"tripBlockId":"31","headsign":"Terminus Chicoutimi","agencyId":"0","tripId":"1:218137","serviceDate":"20180402","from":{"name":"Roitelets / Sapins","stopId":"1:1513","stopCode":"1513","lon":-71.069396,"lat":48.393523,"arrival":1522692720000,"departure":1522692720000,"zoneId":"NA","stopIndex":0,"stopSequence":1,"vertexType":"TRANSIT"},"to":{"name":"Audet / boul. Université","stopId":"1:553","stopCode":"553","lon":-71.072005,"lat":48.421488,"arrival":1522693546000,"departure":1522693547000,"zoneId":"NA","stopIndex":28,"stopSequence":29,"vertexType":"TRANSIT"},"legGeometry":{"points":"azjfHfwwpLiEfLuBzFsAnDgGzSWfAcD`Mi@dCgChLmCzMwGd\\aDxOdFtFhCtCdDY|F_On@aB`B_GNoBvAyT|@sNuAyAuF}F}AaB_BkAC@qC\\gAWiBwBiKgMiCwEgEyHCGy@uB}@rAa@nAc@lFEf@mGvUYfAqCs@ICMCqFmDc@s@mAkBuEoESUgAhDiAfD}@zDyAcA_@Um@U{AWgB_Au@s@EEsBkCqFgF{IiI][aBhE}@}@oBmBwE{EwE{Ej@mBZeAa@SyEQ","length":71},"routeShortName":"14","routeLongName":"Coopérative","rentedBike":false,"transitLeg":true,"duration":826.0,"steps":[]},{"startTime":1522693547000,"endTime":1522694442000,"departureDelay":0,"arrivalDelay":0,"realTime":false,"distance":1139.6979999999996,"pathway":false,"mode":"WALK","route":"","agencyTimeZoneOffset":-14400000,"interlineWithPreviousLeg":false,"from":{"name":"Audet / boul. Université","stopId":"1:553","stopCode":"553","lon":-71.072005,"lat":48.421488,"arrival":1522693546000,"departure":1522693547000,"zoneId":"NA","stopIndex":28,"stopSequence":29,"vertexType":"TRANSIT"},"to":{"name":"Destination","lon":-71.078771,"lat":48.429366,"arrival":1522694442000,"orig":"","vertexType":"NORMAL"},"legGeometry":{"points":"iipfHvgxpLg@CWbAy@dCG`@S[KHe@`@Kt@cBKGnA?j@CLIl@Ov@y@][?{CBeCSs@UYrASb@S\\]j@s@r@OJ_@Xe@\\i@\\wD`BWJi@`@o@n@q@|@A@}BzC_AjA","length":37},"rentedBike":false,"transitLeg":false,"duration":895.0,"steps":[{"distance":23.119,"relativeDirection":"DEPART","streetName":"Rue Audet","absoluteDirection":"NORTH","stayOn":false,"area":false,"bogusName":false,"lon":-71.07211324351135,"lat":48.42149143047572,"elevation":[]},{"distance":100.466,"relativeDirection":"LEFT","streetName":"Boulevard de l'Université","absoluteDirection":"NORTHWEST","stayOn":false,"area":false,"bogusName":false,"lon":-71.07209830000001,"lat":48.421699100000005,"elevation":[]},{"distance":15.283,"relativeDirection":"RIGHT","streetName":"Boulevard Saint-Paul","absoluteDirection":"NORTHEAST","stayOn":false,"area":false,"bogusName":false,"lon":-71.0732783,"lat":48.4221458,"elevation":[]},{"distance":32.267,"relativeDirection":"LEFT","streetName":"path","absoluteDirection":"NORTHWEST","stayOn":false,"area":false,"bogusName":true,"lon":-71.0731375,"lat":48.4222466,"elevation":[]},{"distance":76.89,"relativeDirection":"LEFT","streetName":"Rue Delage","absoluteDirection":"WEST","stayOn":false,"area":false,"bogusName":false,"lon":-71.07335160000001,"lat":48.4224996,"elevation":[]},{"distance":91.933,"relativeDirection":"LEFT","streetName":"Rue Gilbert","absoluteDirection":"WEST","stayOn":false,"area":false,"bogusName":false,"lon":-71.0735622,"lat":48.423054300000004,"elevation":[]},{"distance":240.725,"relativeDirection":"RIGHT","streetName":"Rue Sainte-Marthe","absoluteDirection":"NORTH","stayOn":false,"area":false,"bogusName":false,"lon":-71.0747607,"lat":48.4232457,"elevation":[]},{"distance":559.015,"relativeDirection":"LEFT","streetName":"Rue Price Ouest","absoluteDirection":"NORTHWEST","stayOn":false,"area":false,"bogusName":false,"lon":-71.07442610000001,"lat":48.425381900000005,"elevation":[]}]}],"tooSloped":false},{"duration":2167,"startTime":1522693089000,"endTime":1522695256000,"walkTime":275,"transitTime":1470,"waitingTime":422,"walkDistance":353.63536090082425,"walkLimitExceeded":false,"elevationLost":0.0,"elevationGained":0.0,"transfers":1,"legs":[{"startTime":1522693089000,"endTime":1522693258000,"departureDelay":0,"arrivalDelay":0,"realTime":false,"distance":216.102,"pathway":false,"mode":"WALK","route":"","agencyTimeZoneOffset":-14400000,"interlineWithPreviousLeg":false,"from":{"name":"Origin","lon":-71.06376299,"lat":48.408485,"departure":1522693089000,"orig":"","vertexType":"NORMAL"},"to":{"name":"Saguenéens / Duchesne","stopId":"1:1598","stopCode":"1598","lon":-71.065637,"lat":48.406803,"arrival":1522693258000,"departure":1522693259000,"zoneId":"NA","stopIndex":15,"stopSequence":16,"vertexType":"TRANSIT"},"legGeometry":{"points":"svmfHbvvpLILKT~HnF","length":4},"rentedBike":false,"transitLeg":false,"duration":169.0,"steps":[{"distance":17.57,"relativeDirection":"DEPART","streetName":"Rue Don Bosco","absoluteDirection":"NORTHWEST","stayOn":false,"area":false,"bogusName":false,"lon":-71.06417975070717,"lat":48.4082640207927,"elevation":[]},{"distance":198.532,"relativeDirection":"LEFT","streetName":"service road","absoluteDirection":"SOUTHWEST","stayOn":false,"area":false,"bogusName":true,"lon":-71.064351,"lat":48.4083722,"elevation":[]}]},{"startTime":1522693259000,"endTime":1522694280000,"departureDelay":0,"arrivalDelay":0,"realTime":false,"distance":5250.994328687577,"pathway":false,"mode":"BUS","route":"15","agencyName":"Société de Transport du Saguenay","agencyUrl":"http://ville.saguenay.ca/fr/services-aux-citoyens/transport-sts","agencyTimeZoneOffset":-14400000,"routeColor":"FF00FF","routeType":3,"routeId":"1:15","routeTextColor":"FFFFFF","interlineWithPreviousLeg":false,"tripBlockId":"30","headsign":"Terminus Chicoutimi","agencyId":"0","tripId":"1:218102","serviceDate":"20180402","from":{"name":"Saguenéens / Duchesne","stopId":"1:1598","stopCode":"1598","lon":-71.065637,"lat":48.406803,"arrival":1522693258000,"departure":1522693259000,"zoneId":"NA","stopIndex":15,"stopSequence":16,"vertexType":"TRANSIT"},"to":{"name":"Terminus Chicoutimi","stopId":"1:1289","stopCode":"1289","lon":-71.066163,"lat":48.428677,"arrival":1522694280000,"departure":1522694700000,"zoneId":"NA","stopIndex":39,"stopSequence":40,"vertexType":"TRANSIT"},"legGeometry":{"points":"_mmfHx_wpLeCxG_CfGYVQXS\\dK|HlFZbC\\p@zA\\rB@hBiArG{BNw@FiG}@iDwAECcCcBo@y@sEeGe@o@qAa@m@MoB?C@}BZwAc@oA_Bs@gDCKZ{Di@QECc@_@sAkAoBwB_EcE{A_BoAmAk@o@cCaCkIkIaJaJUUwBaCj@wCjAsCzGoG_CoHL{D_@kAqD{CQr@iAcAy@w@L{@wAuA_B_B_EpLDh@NbBVvCIxBg@`Am@l@Sb@a@rAqDqDmEkE]a@kAqAU|@WnKG|DGxDOdPKvJU|F?XQlJC~@ChAIzEcCOaIi@VwL","length":87},"routeShortName":"15","routeLongName":"Term. Chic / Costco","rentedBike":false,"transitLeg":true,"duration":1021.0,"steps":[]},{"startTime":1522694700000,"endTime":1522695149000,"departureDelay":0,"arrivalDelay":0,"realTime":false,"distance":2030.2608444181342,"pathway":false,"mode":"BUS","route":"16","agencyName":"Société de Transport du Saguenay","agencyUrl":"http://ville.saguenay.ca/fr/services-aux-citoyens/transport-sts","agencyTimeZoneOffset":-14400000,"routeColor":"00FF00","routeType":3,"routeId":"1:16","routeTextColor":"000000","interlineWithPreviousLeg":false,"tripBlockId":"35","headsign":"Faubourg Sagamie","agencyId":"0","tripId":"1:218258","serviceDate":"20180402","from":{"name":"Terminus Chicoutimi","stopId":"1:1289","stopCode":"1289","lon":-71.066163,"lat":48.428677,"arrival":1522694280000,"departure":1522694700000,"zoneId":"NA","stopIndex":0,"stopSequence":1,"vertexType":"TRANSIT"},"to":{"name":"Price (no. 277)","stopId":"1:2006","stopCode":"2006","lon":-71.0773,"lat":48.428563,"arrival":1522695149000,"departure":1522695150000,"zoneId":"NA","stopIndex":11,"stopSequence":12,"vertexType":"TRANSIT"},"legGeometry":{"points":"evqfHzcwpLg@?AXCnAO~GxDVhCP~M~@jDTOrHKdGE^E~BQnIMhGAxCD~@Df@DVDZd@zBBLDJJNHHHDJBn@HCxAHdAFX@DFj@@b@Ab@SvAe@p@{EnEEB{@w@m@o@aDeDIKCMCM?SL}A?A@WCYi@mDOu@Wm@EIMSSWaAcAuAcBq@f@URa@d@u@`A","length":62},"routeShortName":"16","routeLongName":"Côte de la Réserve","rentedBike":false,"transitLeg":true,"duration":449.0,"steps":[]},{"startTime":1522695150000,"endTime":1522695256000,"departureDelay":0,"arrivalDelay":0,"realTime":false,"distance":137.489,"pathway":false,"mode":"WALK","route":"","agencyTimeZoneOffset":-14400000,"interlineWithPreviousLeg":false,"from":{"name":"Price (no. 277)","stopId":"1:2006","stopCode":"2006","lon":-71.0773,"lat":48.428563,"arrival":1522695149000,"departure":1522695150000,"zoneId":"NA","stopIndex":11,"stopSequence":12,"vertexType":"TRANSIT"},"to":{"name":"Destination","lon":-71.078771,"lat":48.429366,"arrival":1522695256000,"orig":"","vertexType":"NORMAL"},"legGeometry":{"points":"cuqfHzhypLA@}BzC_AjA","length":4},"rentedBike":false,"transitLeg":false,"duration":106.0,"steps":[{"distance":137.489,"relativeDirection":"DEPART","streetName":"Rue Price Ouest","absoluteDirection":"NORTHWEST","stayOn":false,"area":false,"bogusName":false,"lon":-71.07741195623026,"lat":48.428502306386775,"elevation":[]}]}],"tooSloped":false},{"duration":2352,"startTime":1522693890000,"endTime":1522696242000,"walkTime":1064,"transitTime":1286,"waitingTime":2,"walkDistance":1356.0360902179457,"walkLimitExceeded":false,"elevationLost":0.0,"elevationGained":0.0,"transfers":0,"legs":[{"startTime":1522693890000,"endTime":1522694059000,"departureDelay":0,"arrivalDelay":0,"realTime":false,"distance":216.102,"pathway":false,"mode":"WALK","route":"","agencyTimeZoneOffset":-14400000,"interlineWithPreviousLeg":false,"from":{"name":"Origin","lon":-71.06376299,"lat":48.408485,"departure":1522693890000,"orig":"","vertexType":"NORMAL"},"to":{"name":"Saguenéens / Duchesne","stopId":"1:1598","stopCode":"1598","lon":-71.065637,"lat":48.406803,"arrival":1522694059000,"departure":1522694060000,"zoneId":"NA","stopIndex":20,"stopSequence":21,"vertexType":"TRANSIT"},"legGeometry":{"points":"svmfHbvvpLILKT~HnF","length":4},"rentedBike":false,"transitLeg":false,"duration":169.0,"steps":[{"distance":17.57,"relativeDirection":"DEPART","streetName":"Rue Don Bosco","absoluteDirection":"NORTHWEST","stayOn":false,"area":false,"bogusName":false,"lon":-71.06417975070717,"lat":48.4082640207927,"elevation":[]},{"distance":198.532,"relativeDirection":"LEFT","streetName":"service road","absoluteDirection":"SOUTHWEST","stayOn":false,"area":false,"bogusName":true,"lon":-71.064351,"lat":48.4083722,"elevation":[]}]},{"startTime":1522694060000,"endTime":1522694520000,"departureDelay":0,"arrivalDelay":0,"realTime":false,"distance":3921.488213696495,"pathway":false,"mode":"BUS","route":"15","agencyName":"Société de Transport du Saguenay","agencyUrl":"http://ville.saguenay.ca/fr/services-aux-citoyens/transport-sts","agencyTimeZoneOffset":-14400000,"routeColor":"FF00FF","routeType":3,"routeId":"1:15","routeTextColor":"FFFFFF","interlineWithPreviousLeg":false,"tripBlockId":"33","headsign":"Talbot / Barrette","agencyId":"0","tripId":"1:218187","serviceDate":"20180402","from":{"name":"Saguenéens / Duchesne","stopId":"1:1598","stopCode":"1598","lon":-71.065637,"lat":48.406803,"arrival":1522694059000,"departure":1522694060000,"zoneId":"NA","stopIndex":20,"stopSequence":21,"vertexType":"TRANSIT"},"to":{"name":"Roitelets / Sapins","stopId":"1:1543","stopCode":"1543","lon":-71.069553,"lat":48.393375,"arrival":1522694520000,"departure":1522694520000,"zoneId":"NA","stopIndex":35,"stopSequence":36,"vertexType":"TRANSIT"},"legGeometry":{"points":"clmfH`awpLfEoItDsH~DeItC{FnBoLbCaO?qLa@uJzF`ApF~@~@PzAgEeDcBf@qAWcKUqEx@Ef@ExDVjDxAFBrBvAfGjG@BjCzC~DxC@@zA~Cb@fCJlC?BsBre@?DWbOAn@?nEGnM@H\\hCzA~ELvAAlAi@jDo@nB","length":45},"routeShortName":"15","routeLongName":"Term. Chic / Costco","rentedBike":false,"transitLeg":true,"duration":460.0,"steps":[]},{"startTime":1522694520000,"endTime":1522695346000,"departureDelay":0,"arrivalDelay":0,"realTime":false,"distance":6551.224729218953,"pathway":false,"mode":"BUS","route":"14","agencyName":"Société de Transport du Saguenay","agencyUrl":"http://ville.saguenay.ca/fr/services-aux-citoyens/transport-sts","agencyTimeZoneOffset":-14400000,"routeColor":"C0C000","routeType":3,"routeId":"1:14","routeTextColor":"000000","interlineWithPreviousLeg":true,"tripBlockId":"33","headsign":"Terminus Chicoutimi","agencyId":"0","tripId":"1:218188","serviceDate":"20180402","from":{"name":"Roitelets / Sapins","stopId":"1:1513","stopCode":"1513","lon":-71.069396,"lat":48.393523,"arrival":1522694520000,"departure":1522694520000,"zoneId":"NA","stopIndex":0,"stopSequence":1,"vertexType":"TRANSIT"},"to":{"name":"Audet / boul. Université","stopId":"1:553","stopCode":"553","lon":-71.072005,"lat":48.421488,"arrival":1522695346000,"departure":1522695347000,"zoneId":"NA","stopIndex":28,"stopSequence":29,"vertexType":"TRANSIT"},"legGeometry":{"points":"azjfHfwwpLiEfLuBzFsAnDgGzSWfAcD`Mi@dCgChLmCzMwGd\\aDxOdFtFhCtCdDY|F_On@aB`B_GNoBvAyT|@sNuAyAuF}F}AaB_BkAC@qC\\gAWiBwBiKgMiCwEgEyHCGy@uB}@rAa@nAc@lFEf@mGvUYfAqCs@ICMCqFmDc@s@mAkBuEoESUgAhDiAfD}@zDyAcA_@Um@U{AWgB_Au@s@EEsBkCqFgF{IiI][aBhE}@}@oBmBwE{EwE{Ej@mBZeAa@SyEQ","length":71},"routeShortName":"14","routeLongName":"Coopérative","rentedBike":false,"transitLeg":true,"duration":826.0,"steps":[]},{"startTime":1522695347000,"endTime":1522696242000,"departureDelay":0,"arrivalDelay":0,"realTime":false,"distance":1139.6979999999996,"pathway":false,"mode":"WALK","route":"","agencyTimeZoneOffset":-14400000,"interlineWithPreviousLeg":false,"from":{"name":"Audet / boul. Université","stopId":"1:553","stopCode":"553","lon":-71.072005,"lat":48.421488,"arrival":1522695346000,"departure":1522695347000,"zoneId":"NA","stopIndex":28,"stopSequence":29,"vertexType":"TRANSIT"},"to":{"name":"Destination","lon":-71.078771,"lat":48.429366,"arrival":1522696242000,"orig":"","vertexType":"NORMAL"},"legGeometry":{"points":"iipfHvgxpLg@CWbAy@dCG`@S[KHe@`@Kt@cBKGnA?j@CLIl@Ov@y@][?{CBeCSs@UYrASb@S\\]j@s@r@OJ_@Xe@\\i@\\wD`BWJi@`@o@n@q@|@A@}BzC_AjA","length":37},"rentedBike":false,"transitLeg":false,"duration":895.0,"steps":[{"distance":23.119,"relativeDirection":"DEPART","streetName":"Rue Audet","absoluteDirection":"NORTH","stayOn":false,"area":false,"bogusName":false,"lon":-71.07211324351135,"lat":48.42149143047572,"elevation":[]},{"distance":100.466,"relativeDirection":"LEFT","streetName":"Boulevard de l'Université","absoluteDirection":"NORTHWEST","stayOn":false,"area":false,"bogusName":false,"lon":-71.07209830000001,"lat":48.421699100000005,"elevation":[]},{"distance":15.283,"relativeDirection":"RIGHT","streetName":"Boulevard Saint-Paul","absoluteDirection":"NORTHEAST","stayOn":false,"area":false,"bogusName":false,"lon":-71.0732783,"lat":48.4221458,"elevation":[]},{"distance":32.267,"relativeDirection":"LEFT","streetName":"path","absoluteDirection":"NORTHWEST","stayOn":false,"area":false,"bogusName":true,"lon":-71.0731375,"lat":48.4222466,"elevation":[]},{"distance":76.89,"relativeDirection":"LEFT","streetName":"Rue Delage","absoluteDirection":"WEST","stayOn":false,"area":false,"bogusName":false,"lon":-71.07335160000001,"lat":48.4224996,"elevation":[]},{"distance":91.933,"relativeDirection":"LEFT","streetName":"Rue Gilbert","absoluteDirection":"WEST","stayOn":false,"area":false,"bogusName":false,"lon":-71.0735622,"lat":48.423054300000004,"elevation":[]},{"distance":240.725,"relativeDirection":"RIGHT","streetName":"Rue Sainte-Marthe","absoluteDirection":"NORTH","stayOn":false,"area":false,"bogusName":false,"lon":-71.0747607,"lat":48.4232457,"elevation":[]},{"distance":559.015,"relativeDirection":"LEFT","streetName":"Rue Price Ouest","absoluteDirection":"NORTHWEST","stayOn":false,"area":false,"bogusName":false,"lon":-71.07442610000001,"lat":48.425381900000005,"elevation":[]}]}],"tooSloped":false}]},"debugOutput":{"precalculationTime":28,"pathCalculationTime":49,"pathTimes":[22,13,14],"renderingTime":1,"totalTime":78,"timedOut":false},"elevationMetadata":{"ellipsoidToGeoidDifference":-28.885904201182168,"geoidElevation":false}}