{"requestParameters":{"date":"2018/04/02","walkSpeed":"1.33","walkReluctance":"2.0","fromPlace":"48.427865,-71.061025","maxWalkDistance":"3000","waitReluctance":"1.0","carSpeed":"33","numItineraries":"3","waitAtBeginningFactor":"0.4","mode":"TRANSIT,WALK","ignoreRealtimeUpdates":"false","stairsReluctance":"2.0","toPlace":"48.422081,-71.062527","time":"10:15:00"},"plan":{"date":1522678500000,"from":{"name":"Origin","lon":-71.061025,"lat":48.427865,"orig":"","vertexType":"NORMAL"},"to":{"name":"Destination","lon":-71.062527,"lat":48.422081,"orig":"","vertexType":"NORMAL"},"itineraries":[{"duration":734,"startTime":1522678500000,"endTime":1522679234000,"walkTime":734,"transitTime":0,"waitingTime":0,"walkDistance":935.3990451057462,"walkLimitExceeded":false,"elevationLost":0.0,"elevationGained":0.0,"transfers":0,"legs":[{"startTime":1522678500000,"endTime":1522679234000,"departureDelay":0,"arrivalDelay":0,"realTime":false,"distance":935.181,"pathway":false,"mode":"WALK","route":"","agencyTimeZoneOffset":-14400000,"interlineWithPreviousLeg":false,"from":{"name":"Origin","lon":-71.061025,"lat":48.427865,"departure":1522678500000,"orig":"","vertexType":"NORMAL"},"to":{"name":"Destination","lon":-71.062527,"lat":48.422081,"arrival":1522679234000,"orig":"","vertexType":"NORMAL"},"legGeometry":{"points":"_pqfHpbvpLHoElAD^@fAPROx@EARpGZG~CARB|AFr@Jp@HXH^Ld@LZb@r@tAb@T@~@DnDHLGvAsD","length":25},"rentedBike":false,"transitLeg":false,"duration":734.0,"steps":[{"distance":76.771,"relativeDirection":"DEPART","streetName":"Rue Racine Est","absoluteDirection":"EAST","stayOn":false,"area":false,"bogusName":false,"lon":-71.06104516752244,"lat":48.427683040768365,"elevation":[]},{"distance":101.49900000000001,"relativeDirection":"RIGHT","streetName":"Rue La Fontaine","absoluteDirection":"SOUTH","stayOn":false,"area":false,"bogusName":false,"lon":-71.0600075,"lat":48.4276324,"elevation":[]},{"distance":89.104,"relativeDirection":"SLIGHTLY_LEFT","streetName":"steps","absoluteDirection":"SOUTHEAST","stayOn":false,"area":false,"bogusName":true,"lon":-71.0601336,"lat":48.4267252,"elevation":[]},{"distance":7.727,"relativeDirection":"RIGHT","streetName":"Rue Jacques-Cartier Est","absoluteDirection":"WEST","stayOn":false,"area":false,"bogusName":false,"lon":-71.0600222,"lat":48.4263388,"elevation":[]},{"distance":152.36,"relativeDirection":"LEFT","streetName":"Rue La Fontaine","absoluteDirection":"SOUTH","stayOn":false,"area":false,"bogusName":false,"lon":-71.0601266,"lat":48.426344300000004,"elevation":[]},{"distance":66.85,"relativeDirection":"RIGHT","streetName":"Rue Price Est","absoluteDirection":"WEST","stayOn":false,"area":false,"bogusName":false,"lon":-71.06026100000001,"lat":48.424977000000005,"elevation":[]},{"distance":440.87,"relativeDirection":"CONTINUE","streetName":"Boulevard Saint-Sacrement","absoluteDirection":"WEST","stayOn":false,"area":false,"bogusName":false,"lon":-71.06116440000001,"lat":48.4250223,"elevation":[]}]}],"tooSloped":false},{"duration":902,"startTime":1522678518000,"endTime":1522679420000,"walkTime":597,"transitTime":303,"waitingTime":2,"walkDistance":762.467578944736,"walkLimitExceeded":false,"elevationLost":0.0,"elevationGained":0.0,"transfers":0,"legs":[{"startTime":1522678518000,"endTime":1522678621000,"departureDelay":0,"arrivalDelay":0,"realTime":false,"distance":132.769,"pathway":false,"mode":"WALK","route":"","agencyTimeZoneOffset":-14400000,"interlineWithPreviousLeg":false,"from":{"name":"Origin","lon":-71.061025,"lat":48.427865,"departure":1522678518000,"orig":"","vertexType":"NORMAL"},"to":{"name":"Racine / Havre","stopId":"1:1639","stopCode":"1639","lon":-71.059267,"lat":48.427469,"arrival":1522678621000,"departure":1522678622000,"zoneId":"NA","stopIndex":1,"stopSequence":2,"vertexType":"TRANSIT"},"legGeometry":{"points":"_pqfHpbvpLHoEDuAB_A","length":4},"rentedBike":false,"transitLeg":false,"duration":103.0,"steps":[{"distance":132.769,"relativeDirection":"DEPART","streetName":"Rue Racine Est","absoluteDirection":"EAST","stayOn":false,"area":false,"bogusName":false,"lon":-71.06104516752244,"lat":48.427683040768365,"elevation":[]}]},{"startTime":1522678622000,"endTime":1522678925000,"departureDelay":0,"arrivalDelay":0,"realTime":false,"distance":1328.7000527295938,"pathway":false,"mode":"BUS","route":"175","agencyName":"Société de Transport du Saguenay","agencyUrl":"http://ville.saguenay.ca/fr/services-aux-citoyens/transport-sts","agencyTimeZoneOffset":-14400000,"routeColor":"FF00FF","routeType":3,"routeId":"1:175","routeTextColor":"FFFFFF","interlineWithPreviousLeg":false,"tripBlockId":"7","headsign":"Costco","agencyId":"0","tripId":"1:217328","serviceDate":"20180402","from":{"name":"Racine / Havre","stopId":"1:1639","stopCode":"1639","lon":-71.059267,"lat":48.427469,"arrival":1522678621000,"departure":1522678622000,"zoneId":"NA","stopIndex":1,"stopSequence":2,"vertexType":"TRANSIT"},"to":{"name":"Bégin / Voie Réservé","stopId":"1:74","stopCode":"74","lon":-71.057125,"lat":48.423785,"arrival":1522678925000,"departure":1522678926000,"zoneId":"NA","stopIndex":8,"stopSequence":9,"vertexType":"TRANSIT"},"legGeometry":{"points":"_oqfHlwupLBkAOsHAg@bAYUwMKoE@mB@kJ@iFbEf@xEj@iCtYp@r@z@`ABBvHtHXR","length":18},"routeShortName":"175","routeLongName":"Term. Chic / Costco","rentedBike":false,"transitLeg":true,"duration":303.0,"steps":[]},{"startTime":1522678926000,"endTime":1522679420000,"departureDelay":0,"arrivalDelay":0,"realTime":false,"distance":629.617,"pathway":false,"mode":"WALK","route":"","agencyTimeZoneOffset":-14400000,"interlineWithPreviousLeg":false,"from":{"name":"Bégin / Voie Réservé","stopId":"1:74","stopCode":"74","lon":-71.057125,"lat":48.423785,"arrival":1522678925000,"departure":1522678926000,"zoneId":"NA","stopIndex":8,"stopSequence":9,"vertexType":"TRANSIT"},"to":{"name":"Destination","lon":-71.062527,"lat":48.422081,"arrival":1522679420000,"orig":"","vertexType":"NORMAL"},"legGeometry":{"points":"kwpfHpiupLXVDDJHHHVVRN`AbAhAfAVXdAjAJHbAdAzBzBRPStDcACeDhI","length":18},"rentedBike":false,"transitLeg":false,"duration":494.0,"steps":[{"distance":370.882,"relativeDirection":"DEPART","streetName":"Rue Bégin","absoluteDirection":"SOUTHWEST","stayOn":false,"area":false,"bogusName":false,"lon":-71.05704050802188,"lat":48.42374908473847,"elevation":[]},{"distance":67.849,"relativeDirection":"RIGHT","streetName":"Boulevard de l'Université","absoluteDirection":"WEST","stayOn":false,"area":false,"bogusName":false,"lon":-71.05981580000001,"lat":48.4209693,"elevation":[]},{"distance":38.418,"relativeDirection":"RIGHT","streetName":"Rue La Fontaine","absoluteDirection":"NORTH","stayOn":false,"area":false,"bogusName":false,"lon":-71.06072490000001,"lat":48.4210605,"elevation":[]},{"distance":152.468,"relativeDirection":"LEFT","streetName":"Boulevard Saint-Sacrement","absoluteDirection":"NORTHWEST","stayOn":false,"area":false,"bogusName":false,"lon":-71.0607068,"lat":48.4214058,"elevation":[]}]}],"tooSloped":false}]},"debugOutput":{"precalculationTime":37,"pathCalculationTime":24,"pathTimes":[15,5,4],"renderingTime":0,"totalTime":61,"timedOut":false},"elevationMetadata":{"ellipsoidToGeoidDifference":-28.885904201182168,"geoidElevation":false}}