{"requestParameters":{"date":"2018/04/02","walkSpeed":"1.33","walkReluctance":"2.0","fromPlace":"48.422638,-71.059381","maxWalkDistance":"3000","waitReluctance":"1.0","carSpeed":"33","numItineraries":"3","waitAtBeginningFactor":"0.4","mode":"TRANSIT,WALK","ignoreRealtimeUpdates":"false","stairsReluctance":"2.0","toPlace":"48.422081,-71.062527","time":"15:30:00"},"plan":{"date":1522697400000,"from":{"name":"Origin","lon":-71.059381,"lat":48.422638,"orig":"","vertexType":"NORMAL"},"to":{"name":"Destination","lon":-71.062527,"lat":48.422081,"orig":"","vertexType":"NORMAL"},"itineraries":[{"duration":336,"startTime":1522697400000,"endTime":1522697736000,"walkTime":336,"transitTime":0,"waitingTime":0,"walkDistance":429.15506766668614,"walkLimitExceeded":false,"elevationLost":0.0,"elevationGained":0.0,"transfers":0,"legs":[{"startTime":1522697400000,"endTime":1522697736000,"departureDelay":0,"arrivalDelay":0,"realTime":false,"distance":429.078,"pathway":false,"mode":"WALK","route":"","agencyTimeZoneOffset":-14400000,"interlineWithPreviousLeg":false,"from":{"name":"Origin","lon":-71.059381,"lat":48.422638,"departure":1522697400000,"orig":"","vertexType":"NORMAL"},"to":{"name":"Destination","lon":-71.062527,"lat":48.422081,"arrival":1522697736000,"orig":"","vertexType":"NORMAL"},"legGeometry":{"points":"_npfHzrupL^`@JHbAdAzBzBRPStDcACeDhI","length":9},"rentedBike":false,"transitLeg":false,"duration":336.0,"steps":[{"distance":170.343,"relativeDirection":"DEPART","streetName":"Rue Bégin","absoluteDirection":"SOUTHWEST","stayOn":false,"area":false,"bogusName":false,"lon":-71.05853375745859,"lat":48.42224297166872,"elevation":[]},{"distance":67.849,"relativeDirection":"RIGHT","streetName":"Boulevard de l'Université","absoluteDirection":"WEST","stayOn":false,"area":false,"bogusName":false,"lon":-71.05981580000001,"lat":48.4209693,"elevation":[]},{"distance":38.418,"relativeDirection":"RIGHT","streetName":"Rue La Fontaine","absoluteDirection":"NORTH","stayOn":false,"area":false,"bogusName":false,"lon":-71.06072490000001,"lat":48.4210605,"elevation":[]},{"distance":152.468,"relativeDirection":"LEFT","streetName":"Boulevard Saint-Sacrement","absoluteDirection":"NORTHWEST","stayOn":false,"area":false,"bogusName":false,"lon":-71.0607068,"lat":48.4214058,"elevation":[]}]}],"tooSloped":false},{"duration":385,"startTime":1522698120000,"endTime":1522698505000,"walkTime":326,"transitTime":57,"waitingTime":2,"walkDistance":410.2913684179108,"walkLimitExceeded":false,"elevationLost":0.0,"elevationGained":0.0,"transfers":0,"legs":[{"startTime":1522698120000,"endTime":1522698140000,"departureDelay":0,"arrivalDelay":0,"realTime":false,"distance":26.586,"pathway":false,"mode":"WALK","route":"","agencyTimeZoneOffset":-14400000,"interlineWithPreviousLeg":false,"from":{"name":"Origin","lon":-71.059381,"lat":48.422638,"departure":1522698120000,"orig":"","vertexType":"NORMAL"},"to":{"name":"Bégin / Saint-Thomas","stopId":"1:1998","stopCode":"1998","lon":-71.058439,"lat":48.422491,"arrival":1522698140000,"departure":1522698141000,"zoneId":"NA","stopIndex":3,"stopSequence":4,"vertexType":"TRANSIT"},"legGeometry":{"points":"_npfHzrupLe@i@","length":2},"rentedBike":false,"transitLeg":false,"duration":20.0,"steps":[{"distance":26.586,"relativeDirection":"DEPART","streetName":"Rue Bégin","absoluteDirection":"NORTHEAST","stayOn":false,"area":false,"bogusName":false,"lon":-71.05853375745859,"lat":48.42224297166872,"elevation":[]}]},{"startTime":1522698141000,"endTime":1522698198000,"departureDelay":0,"arrivalDelay":0,"realTime":false,"distance":321.97363459369956,"pathway":false,"mode":"BUS","route":"12","agencyName":"Société de Transport du Saguenay","agencyUrl":"http://ville.saguenay.ca/fr/services-aux-citoyens/transport-sts","agencyTimeZoneOffset":-14400000,"routeColor":"556B2F","routeType":3,"routeId":"1:12","routeTextColor":"FFFFFF","interlineWithPreviousLeg":false,"tripBlockId":"29","headsign":"Terminus Chicoutimi","agencyId":"0","tripId":"1:218070","serviceDate":"20180402","from":{"name":"Bégin / Saint-Thomas","stopId":"1:1998","stopCode":"1998","lon":-71.058439,"lat":48.422491,"arrival":1522698140000,"departure":1522698141000,"zoneId":"NA","stopIndex":3,"stopSequence":4,"vertexType":"TRANSIT"},"to":{"name":"CFP Oasis (Bégin / Université)","stopId":"1:564","stopCode":"564","lon":-71.0609,"lat":48.4201,"arrival":1522698198000,"departure":1522698199000,"zoneId":"NA","stopIndex":4,"stopSequence":5,"vertexType":"TRANSIT"},"legGeometry":{"points":"copfHjqupL~MfN","length":2},"routeShortName":"12","routeLongName":"Rivière du Moulin","rentedBike":false,"transitLeg":true,"duration":57.0,"steps":[]},{"startTime":1522698199000,"endTime":1522698505000,"departureDelay":0,"arrivalDelay":0,"realTime":false,"distance":383.60799999999995,"pathway":false,"mode":"WALK","route":"","agencyTimeZoneOffset":-14400000,"interlineWithPreviousLeg":false,"from":{"name":"CFP Oasis (Bégin / Université)","stopId":"1:564","stopCode":"564","lon":-71.0609,"lat":48.4201,"arrival":1522698198000,"departure":1522698199000,"zoneId":"NA","stopIndex":4,"stopSequence":5,"vertexType":"TRANSIT"},"to":{"name":"Destination","lon":-71.062527,"lat":48.422081,"arrival":1522698505000,"orig":"","vertexType":"NORMAL"},"legGeometry":{"points":"g`pfHz`vpLQSSScAeAg@i@KMYYStDcACeDhI","length":10},"rentedBike":false,"transitLeg":false,"duration":306.0,"steps":[{"distance":124.87299999999999,"relativeDirection":"DEPART","streetName":"Rue Bégin","absoluteDirection":"NORTHEAST","stayOn":false,"area":false,"bogusName":false,"lon":-71.06077082721337,"lat":48.420042537275044,"elevation":[]},{"distance":67.849,"relativeDirection":"LEFT","streetName":"Boulevard de l'Université","absoluteDirection":"WEST","stayOn":false,"area":false,"bogusName":false,"lon":-71.05981580000001,"lat":48.4209693,"elevation":[]},{"distance":38.418,"relativeDirection":"RIGHT","streetName":"Rue La Fontaine","absoluteDirection":"NORTH","stayOn":false,"area":false,"bogusName":false,"lon":-71.06072490000001,"lat":48.4210605,"elevation":[]},{"distance":152.468,"relativeDirection":"LEFT","streetName":"Boulevard Saint-Sacrement","absoluteDirection":"NORTHWEST","stayOn":false,"area":false,"bogusName":false,"lon":-71.0607068,"lat":48.4214058,"elevation":[]}]}],"tooSloped":false}]},"debugOutput":{"precalculationTime":35,"pathCalculationTime":21,"pathTimes":[2,15,4],"renderingTime":0,"totalTime":56,"timedOut":false},"elevationMetadata":{"ellipsoidToGeoidDifference":-28.885904201182168,"geoidElevation":false}}