{"requestParameters":{"date":"2018/04/02","walkSpeed":"1.33","walkReluctance":"2.0","fromPlace":"48.407764,-71.05336099","maxWalkDistance":"3000","waitReluctance":"1.0","carSpeed":"33","numItineraries":"3","waitAtBeginningFactor":"0.4","mode":"TRANSIT,WALK","ignoreRealtimeUpdates":"false","stairsReluctance":"2.0","toPlace":"48.424165,-71.064875","time":"19:25:00"},"plan":{"date":1522711500000,"from":{"name":"Origin","lon":-71.05336099,"lat":48.407764,"orig":"","vertexType":"NORMAL"},"to":{"name":"Destination","lon":-71.064875,"lat":48.424165,"orig":"","vertexType":"NORMAL"},"itineraries":[{"duration":2062,"startTime":1522711500000,"endTime":1522713562000,"walkTime":2062,"transitTime":0,"waitingTime":0,"walkDistance":2653.8915639024967,"walkLimitExceeded":false,"elevationLost":0.0,"elevationGained":0.0,"transfers":0,"legs":[{"startTime":1522711500000,"endTime":1522713562000,"departureDelay":0,"arrivalDelay":0,"realTime":false,"distance":2653.666,"pathway":false,"mode":"WALK","route":"","agencyTimeZoneOffset":-14400000,"interlineWithPreviousLeg":false,"from":{"name":"Origin","lon":-71.05336099,"lat":48.407764,"departure":1522711500000,"orig":"","vertexType":"NORMAL"},"to":{"name":"Destination","lon":-71.064875,"lat":48.424165,"arrival":1522713562000,"orig":"","vertexType":"NORMAL"},"legGeometry":{"points":"iqmfHpttpLOd@s@pBk@~AIRO`@GPm@|A]|@O`@M\\e@`AmCbHa@|@?@o@|Aa@`@wC^iALC?}Fr@C@M@yCb@_ANcAp@_@d@Y`@iAbD??e@pAoAnDcA|FOh@GP??k@jBn@l@kAdDGReAvCu@xBeAT]x@o@nBQEK]Mq@C_BQWQKUE_@Fe@FY@o@Ac@Pk@@c@A_@Uw@k@_@QWFW@U_@c@q@_@]yAKYJGBMAM?qBCs@?O?}@EcAIw@EuAKs@CPkG@[?OCMq@C","length":85},"rentedBike":false,"transitLeg":false,"duration":2062.0,"steps":[{"distance":1357.001,"relativeDirection":"DEPART","streetName":"Rue des Champs-Élysées","absoluteDirection":"NORTHWEST","stayOn":false,"area":false,"bogusName":false,"lon":-71.05368099215146,"lat":48.40741320776311,"elevation":[]},{"distance":30.953,"relativeDirection":"LEFT","streetName":"Rue Bégin","absoluteDirection":"SOUTHWEST","stayOn":false,"area":false,"bogusName":false,"lon":-71.0647342,"lat":48.416021,"elevation":[]},{"distance":205.419,"relativeDirection":"RIGHT","streetName":"Rue Dubé","absoluteDirection":"NORTHWEST","stayOn":false,"area":false,"bogusName":false,"lon":-71.06496530000001,"lat":48.4157887,"elevation":[]},{"distance":613.4630000000001,"relativeDirection":"RIGHT","streetName":"path","absoluteDirection":"NORTH","stayOn":false,"area":false,"bogusName":true,"lon":-71.0672681,"lat":48.416826400000005,"elevation":[]},{"distance":297.632,"relativeDirection":"SLIGHTLY_RIGHT","streetName":"Rue Morin","absoluteDirection":"NORTH","stayOn":false,"area":false,"bogusName":false,"lon":-71.06636540000001,"lat":48.4213,"elevation":[]},{"distance":115.741,"relativeDirection":"RIGHT","streetName":"Rue Arthur-Buies","absoluteDirection":"EAST","stayOn":false,"area":false,"bogusName":false,"lon":-71.06614300000001,"lat":48.423971200000004,"elevation":[]},{"distance":33.457,"relativeDirection":"LEFT","streetName":"Rue de la Place-d'Armes","absoluteDirection":"NORTH","stayOn":false,"area":false,"bogusName":false,"lon":-71.064582,"lat":48.423879400000004,"elevation":[]}]}],"tooSloped":false},{"duration":1538,"startTime":1522712873000,"endTime":1522714411000,"walkTime":1045,"transitTime":491,"waitingTime":2,"walkDistance":1330.0927142764954,"walkLimitExceeded":false,"elevationLost":0.0,"elevationGained":0.0,"transfers":0,"legs":[{"startTime":1522712873000,"endTime":1522713299000,"departureDelay":0,"arrivalDelay":0,"realTime":false,"distance":528.9870000000001,"pathway":false,"mode":"WALK","route":"","agencyTimeZoneOffset":-14400000,"interlineWithPreviousLeg":false,"from":{"name":"Origin","lon":-71.05336099,"lat":48.407764,"departure":1522712873000,"orig":"","vertexType":"NORMAL"},"to":{"name":"Place Royaume","stopId":"1:1801","stopCode":"1801","lon":-71.057017,"lat":48.405588,"arrival":1522713299000,"departure":1522713300000,"zoneId":"NA","stopIndex":10,"stopSequence":11,"vertexType":"TRANSIT"},"legGeometry":{"points":"iqmfHpttpLOd@s@pB^\\~EnEm@|B|DpDDKn@}BZXa@zA","length":11},"rentedBike":false,"transitLeg":false,"duration":426.0,"steps":[{"distance":68.117,"relativeDirection":"DEPART","streetName":"Rue des Champs-Élysées","absoluteDirection":"NORTHWEST","stayOn":false,"area":false,"bogusName":false,"lon":-71.05368099215146,"lat":48.40741320776311,"elevation":[]},{"distance":167.27,"relativeDirection":"LEFT","streetName":"parking aisle","absoluteDirection":"SOUTHWEST","stayOn":false,"area":false,"bogusName":true,"lon":-71.0544462,"lat":48.407755200000004,"elevation":[]},{"distance":53.12,"relativeDirection":"RIGHT","streetName":"service road","absoluteDirection":"NORTHWEST","stayOn":true,"area":false,"bogusName":true,"lon":-71.0556352,"lat":48.4064746,"elevation":[]},{"distance":124.52,"relativeDirection":"LEFT","streetName":"Boulevard Talbot","absoluteDirection":"SOUTHWEST","stayOn":false,"area":false,"bogusName":false,"lon":-71.0562666,"lat":48.4067038,"elevation":[]},{"distance":59.3,"relativeDirection":"LEFT","streetName":"service road","absoluteDirection":"SOUTHEAST","stayOn":false,"area":false,"bogusName":true,"lon":-71.0571583,"lat":48.4057532,"elevation":[]},{"distance":56.66,"relativeDirection":"RIGHT","streetName":"parking aisle","absoluteDirection":"SOUTHWEST","stayOn":true,"area":false,"bogusName":true,"lon":-71.0564657,"lat":48.405483000000004,"elevation":[]}]},{"startTime":1522713300000,"endTime":1522713791000,"departureDelay":0,"arrivalDelay":0,"realTime":false,"distance":2405.659592582449,"pathway":false,"mode":"BUS","route":"175","agencyName":"Société de Transport du Saguenay","agencyUrl":"http://ville.saguenay.ca/fr/services-aux-citoyens/transport-sts","agencyTimeZoneOffset":-14400000,"routeColor":"FF00FF","routeType":3,"routeId":"1:175","routeTextColor":"FFFFFF","interlineWithPreviousLeg":false,"tripBlockId":"11","headsign":"Terminus Chicoutimi","agencyId":"0","tripId":"1:217488","serviceDate":"20180402","from":{"name":"Place Royaume","stopId":"1:1801","stopCode":"1801","lon":-71.057017,"lat":48.405588,"arrival":1522713299000,"departure":1522713300000,"zoneId":"NA","stopIndex":10,"stopSequence":11,"vertexType":"TRANSIT"},"to":{"name":"Cégep de Chicoutimi (Bégin)","stopId":"1:66","stopCode":"66","lon":-71.056314,"lat":48.424377,"arrival":1522713791000,"departure":1522713792000,"zoneId":"NA","stopIndex":17,"stopSequence":18,"vertexType":"TRANSIT"},"legGeometry":{"points":"sfmfH`kupL_U_TcNgNcBcB{E`Jc@x@qG~@{BlAk@XgSrQqB_GAeFiEeEOt@gAeA_A_ATm@yAwAgBeBqDnL@nBF`@f@|C[dCuAfB]xAs@OmCmC","length":28},"routeShortName":"175","routeLongName":"Term. Chic / Costco","rentedBike":false,"transitLeg":true,"duration":491.0,"steps":[]},{"startTime":1522713792000,"endTime":1522714411000,"departureDelay":0,"arrivalDelay":0,"realTime":false,"distance":800.82,"pathway":false,"mode":"WALK","route":"","agencyTimeZoneOffset":-14400000,"interlineWithPreviousLeg":false,"from":{"name":"Cégep de Chicoutimi (Bégin)","stopId":"1:66","stopCode":"66","lon":-71.056314,"lat":48.424377,"arrival":1522713791000,"departure":1522713792000,"zoneId":"NA","stopIndex":17,"stopSequence":18,"vertexType":"TRANSIT"},"to":{"name":"Destination","lon":-71.064875,"lat":48.424165,"arrival":1522714411000,"orig":"","vertexType":"NORMAL"},"legGeometry":{"points":"k{pfH`eupL[[k@q@S@C~ACvCIvFClCBdAGzCG~CARE~BIfEEbBAn@GfDnET","length":18},"rentedBike":false,"transitLeg":false,"duration":619.0,"steps":[{"distance":61.132,"relativeDirection":"DEPART","streetName":"sidewalk","absoluteDirection":"NORTHEAST","stayOn":false,"area":false,"bogusName":true,"lon":-71.0563254039123,"lat":48.42438196430904,"elevation":[]},{"distance":624.1320000000001,"relativeDirection":"LEFT","streetName":"Rue Price Est","absoluteDirection":"WEST","stayOn":false,"area":false,"bogusName":false,"lon":-71.0559435,"lat":48.424848700000005,"elevation":[]},{"distance":115.556,"relativeDirection":"LEFT","streetName":"Rue de la Place-d'Armes","absoluteDirection":"SOUTH","stayOn":false,"area":false,"bogusName":false,"lon":-71.06438200000001,"lat":48.425183800000006,"elevation":[]}]}],"tooSloped":false},{"duration":1896,"startTime":1522712839000,"endTime":1522714735000,"walkTime":574,"transitTime":1320,"waitingTime":2,"walkDistance":728.6624887171101,"walkLimitExceeded":false,"elevationLost":0.0,"elevationGained":0.0,"transfers":0,"legs":[{"startTime":1522712839000,"endTime":1522712939000,"departureDelay":0,"arrivalDelay":0,"realTime":false,"distance":119.736,"pathway":false,"mode":"WALK","route":"","agencyTimeZoneOffset":-14400000,"interlineWithPreviousLeg":false,"from":{"name":"Origin","lon":-71.05336099,"lat":48.407764,"departure":1522712839000,"orig":"","vertexType":"NORMAL"},"to":{"name":"Place du Royaume (Champs-Élysées)","stopId":"1:572","stopCode":"572","lon":-71.053302,"lat":48.407097,"arrival":1522712939000,"departure":1522712940000,"zoneId":"NA","stopIndex":13,"stopSequence":14,"vertexType":"TRANSIT"},"legGeometry":{"points":"iqmfHpttpLp@yBNc@LZT\\]d@","length":6},"rentedBike":false,"transitLeg":false,"duration":100.0,"steps":[{"distance":68.482,"relativeDirection":"DEPART","streetName":"Rue des Champs-Élysées","absoluteDirection":"SOUTHEAST","stayOn":false,"area":false,"bogusName":false,"lon":-71.05368099215146,"lat":48.40741320776311,"elevation":[]},{"distance":51.254000000000005,"relativeDirection":"RIGHT","streetName":"service road","absoluteDirection":"SOUTHWEST","stayOn":false,"area":false,"bogusName":true,"lon":-71.05289400000001,"lat":48.4070874,"elevation":[]}]},{"startTime":1522712940000,"endTime":1522714260000,"departureDelay":0,"arrivalDelay":0,"realTime":false,"distance":8263.211391150631,"pathway":false,"mode":"BUS","route":"12","agencyName":"Société de Transport du Saguenay","agencyUrl":"http://ville.saguenay.ca/fr/services-aux-citoyens/transport-sts","agencyTimeZoneOffset":-14400000,"routeColor":"556B2F","routeType":3,"routeId":"1:12","routeTextColor":"FFFFFF","interlineWithPreviousLeg":false,"tripBlockId":"29","headsign":"Terminus Chicoutimi","agencyId":"0","tripId":"1:218078","serviceDate":"20180402","from":{"name":"Place du Royaume (Champs-Élysées)","stopId":"1:572","stopCode":"572","lon":-71.053302,"lat":48.407097,"arrival":1522712939000,"departure":1522712940000,"zoneId":"NA","stopIndex":13,"stopSequence":14,"vertexType":"TRANSIT"},"to":{"name":"Terminus Chicoutimi","stopId":"1:1289","stopCode":"1289","lon":-71.066163,"lat":48.428677,"arrival":1522714260000,"departure":1522714261000,"zoneId":"NA","stopIndex":33,"stopSequence":34,"vertexType":"TRANSIT"},"legGeometry":{"points":"aomfHlrtpLlCyGa@yFYkD}CyA}KmFgD_BgAgBn@kFD_NoIgrAmD_WcAaLaDHoDJi`@wVoAbDbA|AnBU|B|AfBlAyLtKoGxFcFqDkJaHgEoDmDwC_TqQsBeB{HjWfAvAfM|O|FlHmB`IgA|Cy@`UYzHZvMR~Hr@~ZPvHsCrMFxf@|ApJj@nDDl]BvZdCXJhC","length":49},"routeShortName":"12","routeLongName":"Rivière du Moulin","rentedBike":false,"transitLeg":true,"duration":1320.0,"steps":[]},{"startTime":1522714261000,"endTime":1522714735000,"departureDelay":0,"arrivalDelay":0,"realTime":false,"distance":608.7810000000001,"pathway":false,"mode":"WALK","route":"","agencyTimeZoneOffset":-14400000,"interlineWithPreviousLeg":false,"from":{"name":"Terminus Chicoutimi","stopId":"1:1289","stopCode":"1289","lon":-71.066163,"lat":48.428677,"arrival":1522714260000,"departure":1522714261000,"zoneId":"NA","stopIndex":33,"stopSequence":34,"vertexType":"TRANSIT"},"to":{"name":"Destination","lon":-71.064875,"lat":48.424165,"arrival":1522714735000,"orig":"","vertexType":"NORMAL"},"legGeometry":{"points":"{uqfHb~vpLbAJR@JDb@LrBHP@jCPrAFzBT^BPFR_InET","length":14},"rentedBike":false,"transitLeg":false,"duration":474.0,"steps":[{"distance":374.48300000000006,"relativeDirection":"DEPART","streetName":"Rue Morin","absoluteDirection":"SOUTH","stayOn":false,"area":false,"bogusName":false,"lon":-71.0654590096484,"lat":48.428628638946556,"elevation":[]},{"distance":118.742,"relativeDirection":"LEFT","streetName":"Rue Price Est","absoluteDirection":"EAST","stayOn":false,"area":false,"bogusName":false,"lon":-71.06598410000001,"lat":48.4252842,"elevation":[]},{"distance":115.556,"relativeDirection":"RIGHT","streetName":"Rue de la Place-d'Armes","absoluteDirection":"SOUTH","stayOn":false,"area":false,"bogusName":false,"lon":-71.06438200000001,"lat":48.425183800000006,"elevation":[]}]}],"tooSloped":false}]},"debugOutput":{"precalculationTime":31,"pathCalculationTime":36,"pathTimes":[19,8,9],"renderingTime":1,"totalTime":68,"timedOut":false},"elevationMetadata":{"ellipsoidToGeoidDifference":-28.885904201182168,"geoidElevation":false}}