{"requestParameters":{"date":"2018/04/02","walkSpeed":"1.33","walkReluctance":"2.0","fromPlace":"48.452939,-71.101726","maxWalkDistance":"3000","waitReluctance":"1.0","carSpeed":"33","numItineraries":"3","waitAtBeginningFactor":"0.4","mode":"TRANSIT,WALK","ignoreRealtimeUpdates":"false","stairsReluctance":"2.0","toPlace":"48.421301,-71.07244099","time":"10:45:00"},"plan":{"date":1522680300000,"from":{"name":"Origin","lon":-71.101726,"lat":48.452939,"orig":"","vertexType":"NORMAL"},"to":{"name":"Destination","lon":-71.07244099,"lat":48.421301,"orig":"","vertexType":"NORMAL"},"itineraries":[{"duration":1317,"startTime":1522681248000,"endTime":1522682565000,"walkTime":321,"transitTime":694,"waitingTime":302,"walkDistance":383.7439774358334,"walkLimitExceeded":false,"elevationLost":0.0,"elevationGained":0.0,"transfers":1,"legs":[{"startTime":1522681248000,"endTime":1522681352000,"departureDelay":0,"arrivalDelay":0,"realTime":false,"distance":123.07,"pathway":false,"mode":"WALK","route":"","agencyTimeZoneOffset":-14400000,"interlineWithPreviousLeg":false,"from":{"name":"Origin","lon":-71.101726,"lat":48.452939,"departure":1522681248000,"orig":"","vertexType":"NORMAL"},"to":{"name":"boul. Ste-Geneviève (no. 1425)","stopId":"1:97","stopCode":"97","lon":-71.100593,"lat":48.45294,"arrival":1522681352000,"departure":1522681353000,"zoneId":"NA","stopIndex":25,"stopSequence":26,"vertexType":"TRANSIT"},"legGeometry":{"points":"wmvfHj`~pL{@W^gEPT","length":4},"rentedBike":false,"transitLeg":false,"duration":104.0,"steps":[{"distance":34.578,"relativeDirection":"DEPART","streetName":"path","absoluteDirection":"NORTH","stayOn":false,"area":false,"bogusName":false,"lon":-71.10165006026004,"lat":48.45292583643516,"elevation":[]},{"distance":75.636,"relativeDirection":"RIGHT","streetName":"Boulevard Sainte-Geneviève","absoluteDirection":"EAST","stayOn":false,"area":false,"bogusName":false,"lon":-71.10153150000001,"lat":48.4532267,"elevation":[]},{"distance":12.856,"relativeDirection":"HARD_RIGHT","streetName":"path","absoluteDirection":"SOUTHWEST","stayOn":false,"area":false,"bogusName":true,"lon":-71.10053710000001,"lat":48.4530602,"elevation":[]}]},{"startTime":1522681353000,"endTime":1522681800000,"departureDelay":0,"arrivalDelay":0,"realTime":false,"distance":4047.7871857794808,"pathway":false,"mode":"BUS","route":"21","agencyName":"Société de Transport du Saguenay","agencyUrl":"http://ville.saguenay.ca/fr/services-aux-citoyens/transport-sts","agencyTimeZoneOffset":-14400000,"routeColor":"556B2F","routeType":3,"routeId":"1:21","routeTextColor":"FFFFFF","interlineWithPreviousLeg":false,"tripBlockId":"2","headsign":"Terminus Chicoutimi","agencyId":"0","tripId":"1:217164","serviceDate":"20180402","from":{"name":"boul. Ste-Geneviève (no. 1425)","stopId":"1:97","stopCode":"97","lon":-71.100593,"lat":48.45294,"arrival":1522681352000,"departure":1522681353000,"zoneId":"NA","stopIndex":25,"stopSequence":26,"vertexType":"TRANSIT"},"to":{"name":"Terminus Chicoutimi","stopId":"1:1289","stopCode":"1289","lon":-71.066163,"lat":48.428677,"arrival":1522681800000,"departure":1522682100000,"zoneId":"NA","stopIndex":34,"stopSequence":35,"vertexType":"TRANSIT"},"legGeometry":{"points":"onvfHny}pL~@sJjAyLJqAZyCP_BZuCDi@b@iExAsO@E^qBt@}CJGnAmDx@iBpAcCb@o@Zi@h@o@`AiArFkG`FgGdBwBt@cAbAmBx@eBj@eB`CoHpCyJbAmCtAuCZg@|@gBxAsCrCmFhHqN~@eBr@cAt@_Av@}@RQPMz@k@tAe@REZG^Af@@X@VF`@Jn@XbClAr@Xt\\`PrAb@pA^hBTjAFj@Pb@JPHLLJNJRFXDT?X?ZEVEVKTMNMHMFOB}DWSGOSYcAN}FFkAF}DJyDPwGvAHVyL","length":88},"routeShortName":"21","routeLongName":"Boul. Ste-Geneviève/Élie","rentedBike":false,"transitLeg":true,"duration":447.0,"steps":[]},{"startTime":1522682100000,"endTime":1522682347000,"departureDelay":0,"arrivalDelay":0,"realTime":false,"distance":1250.0687166022503,"pathway":false,"mode":"BUS","route":"11","agencyName":"Société de Transport du Saguenay","agencyUrl":"http://ville.saguenay.ca/fr/services-aux-citoyens/transport-sts","agencyTimeZoneOffset":-14400000,"routeColor":"FF0000","routeType":3,"routeId":"1:11","routeTextColor":"FFFFFF","interlineWithPreviousLeg":false,"tripBlockId":"36","headsign":"Boul.Royaume/St-Pierre","agencyId":"0","tripId":"1:218286","serviceDate":"20180402","from":{"name":"Terminus Chicoutimi","stopId":"1:1289","stopCode":"1289","lon":-71.066163,"lat":48.428677,"arrival":1522681800000,"departure":1522682100000,"zoneId":"NA","stopIndex":0,"stopSequence":1,"vertexType":"TRANSIT"},"to":{"name":"Saint-Paul / Dubuc","stopId":"1:420","stopCode":"420","lon":-71.075186,"lat":48.421664,"arrival":1522682347000,"departure":1522682348000,"zoneId":"NA","stopIndex":7,"stopSequence":8,"vertexType":"TRANSIT"},"legGeometry":{"points":"evqfHzcwpLk@?UhKfIh@dKp@GnDIfDOtEE~@Ff@x@rEF~@CbAALO~ADRNJXBr@DfGRPBPJLN@@FPFTBX?TE`BhBR@?J@NELKFOlAiDL[bA`A","length":38},"routeShortName":"11","routeLongName":"Chic/Faubourg via St-Paul","rentedBike":false,"transitLeg":true,"duration":247.0,"steps":[]},{"startTime":1522682348000,"endTime":1522682565000,"departureDelay":0,"arrivalDelay":0,"realTime":false,"distance":260.433,"pathway":false,"mode":"WALK","route":"","agencyTimeZoneOffset":-14400000,"interlineWithPreviousLeg":false,"from":{"name":"Saint-Paul / Dubuc","stopId":"1:420","stopCode":"420","lon":-71.075186,"lat":48.421664,"arrival":1522682347000,"departure":1522682348000,"zoneId":"NA","stopIndex":7,"stopSequence":8,"vertexType":"TRANSIT"},"to":{"name":"Destination","lon":-71.07244099,"lat":48.421301,"arrival":1522682565000,"orig":"","vertexType":"NORMAL"},"legGeometry":{"points":"_jpfH`zxpLTVf@}AXq@Pa@FEFCDCBG@I@K?MES_@CMGNoG","length":16},"rentedBike":false,"transitLeg":false,"duration":217.0,"steps":[{"distance":14.586,"relativeDirection":"DEPART","streetName":"Rue Saint-Paul","absoluteDirection":"SOUTHWEST","stayOn":false,"area":false,"bogusName":false,"lon":-71.07504861031198,"lat":48.421601719607466,"elevation":[]},{"distance":40.771,"relativeDirection":"LEFT","streetName":"Rue Dubuc","absoluteDirection":"SOUTHEAST","stayOn":false,"area":false,"bogusName":false,"lon":-71.0751601,"lat":48.4214934,"elevation":[]},{"distance":78.343,"relativeDirection":"CONTINUE","streetName":"path","absoluteDirection":"SOUTHEAST","stayOn":false,"area":false,"bogusName":true,"lon":-71.07469880000001,"lat":48.4212916,"elevation":[]},{"distance":26.394,"relativeDirection":"LEFT","streetName":"Rue Saint-Joseph","absoluteDirection":"NORTH","stayOn":false,"area":false,"bogusName":false,"lon":-71.07388590000001,"lat":48.420954200000004,"elevation":[]},{"distance":100.339,"relativeDirection":"RIGHT","streetName":"Rue Saint-Charles","absoluteDirection":"EAST","stayOn":false,"area":false,"bogusName":false,"lon":-71.0738219,"lat":48.421185,"elevation":[]}]}],"tooSloped":false},{"duration":2373,"startTime":1522680500000,"endTime":1522682873000,"walkTime":605,"transitTime":1466,"waitingTime":302,"walkDistance":784.6580300715731,"walkLimitExceeded":false,"elevationLost":0.0,"elevationGained":0.0,"transfers":1,"legs":[{"startTime":1522680500000,"endTime":1522681097000,"departureDelay":0,"arrivalDelay":0,"realTime":false,"distance":774.3380000000001,"pathway":false,"mode":"WALK","route":"","agencyTimeZoneOffset":-14400000,"interlineWithPreviousLeg":false,"from":{"name":"Origin","lon":-71.101726,"lat":48.452939,"departure":1522680500000,"orig":"","vertexType":"NORMAL"},"to":{"name":"Chapleau / Ste-Catherine","stopId":"1:691","stopCode":"691","lon":-71.103068,"lat":48.447954,"arrival":1522681097000,"departure":1522681098000,"zoneId":"NA","stopIndex":15,"stopSequence":16,"vertexType":"TRANSIT"},"legGeometry":{"points":"wmvfHj`~pLD@pAmAb@VAt@BnDQtBnCdAfCd@xBRb@c@|An@`@\\PtARDn@o@zAqA\\OVOPMJEDEFCDGLSPULU?A","length":28},"rentedBike":false,"transitLeg":false,"duration":597.0,"steps":[{"distance":583.8620000000001,"relativeDirection":"DEPART","streetName":"path","absoluteDirection":"SOUTHEAST","stayOn":false,"area":false,"bogusName":false,"lon":-71.10165006026004,"lat":48.45292583643516,"elevation":[]},{"distance":190.476,"relativeDirection":"LEFT","streetName":"Rue Chapleau","absoluteDirection":"SOUTHEAST","stayOn":false,"area":false,"bogusName":false,"lon":-71.10444170000001,"lat":48.449363700000006,"elevation":[]}]},{"startTime":1522681098000,"endTime":1522681800000,"departureDelay":0,"arrivalDelay":0,"realTime":false,"distance":4911.61122931723,"pathway":false,"mode":"BUS","route":"20","agencyName":"Société de Transport du Saguenay","agencyUrl":"http://ville.saguenay.ca/fr/services-aux-citoyens/transport-sts","agencyTimeZoneOffset":-14400000,"routeColor":"0000FF","routeType":3,"routeId":"1:20","routeTextColor":"FFFFFF","interlineWithPreviousLeg":false,"tripBlockId":"3","headsign":"Terminus Chicoutimi","agencyId":"0","tripId":"1:217195","serviceDate":"20180402","from":{"name":"Chapleau / Ste-Catherine","stopId":"1:691","stopCode":"691","lon":-71.103068,"lat":48.447954,"arrival":1522681097000,"departure":1522681098000,"zoneId":"NA","stopIndex":15,"stopSequence":16,"vertexType":"TRANSIT"},"to":{"name":"Terminus Chicoutimi","stopId":"1:1289","stopCode":"1289","lon":-71.066163,"lat":48.428677,"arrival":1522681800000,"departure":1522682100000,"zoneId":"NA","stopIndex":31,"stopSequence":32,"vertexType":"TRANSIT"},"legGeometry":{"points":"mnufHpi~pLQ\\a@d@w@aCCQAO@ODOHQDSDWLoDRgGBMFMHIHAfBNDuA@wA?WGk@Ga@KY_A_CRc@PYNYUk@Q[O]KYC]_AaQYwF?W?Y?UBc@D_@d@{DNaAB]@O@]?}BbA?hA?A}I?iEEcEjBCzBEd@Cf@Gj@MZMb@S`Ag@DClAk@f@Qv@Ov@IlBCnBa@TCTBjBPH@LiCDe@Lw@|@cELo@D[Dk@@[@uC@SBUDQFSt@yAHIr@eAjAaB`AqA^i@p@kAVc@\\cAr@eBv@aB|B_CJSDKLe@NeAJaAHeBBi@F{AaFe@c@IcDeAWtBOfAERGLIHIFMBa@NOQSOUGOCW?UFMHa@XUHQ?QIQOIM[g@rCmFhHqN~@eBr@cAt@_Av@}@RQPMz@k@tAe@REZG^Af@@X@VF`@Jn@XbClAr@Xt\\`PrAb@pA^hBTjAFj@Pb@JPHLLJNJRFXDT?X?ZEVEVKTMNMHMFOB}DWSGOSYcAN}FFkAF}DJyDPwGj@_QjAN~ALIpBGVITe@@","length":186},"routeShortName":"20","routeLongName":"Sainte-Claire","rentedBike":false,"transitLeg":true,"duration":702.0,"steps":[]},{"startTime":1522682100000,"endTime":1522682864000,"departureDelay":0,"arrivalDelay":0,"realTime":false,"distance":3129.9029641556563,"pathway":false,"mode":"BUS","route":"14","agencyName":"Société de Transport du Saguenay","agencyUrl":"http://ville.saguenay.ca/fr/services-aux-citoyens/transport-sts","agencyTimeZoneOffset":-14400000,"routeColor":"C0C000","routeType":3,"routeId":"1:14","routeTextColor":"000000","interlineWithPreviousLeg":false,"tripBlockId":"32","headsign":"Talbot / Barrette","agencyId":"0","tripId":"1:218156","serviceDate":"20180402","from":{"name":"Terminus Chicoutimi","stopId":"1:1289","stopCode":"1289","lon":-71.066163,"lat":48.428677,"arrival":1522681800000,"departure":1522682100000,"zoneId":"NA","stopIndex":0,"stopSequence":1,"vertexType":"TRANSIT"},"to":{"name":"Audet / Saint-Charles","stopId":"1:521","stopCode":"521","lon":-71.072343,"lat":48.420999,"arrival":1522682864000,"departure":1522682865000,"zoneId":"NA","stopIndex":9,"stopSequence":10,"vertexType":"TRANSIT"},"legGeometry":{"points":"qvqfHnbwpLJkClLh@DsDTmSHwFB{I@m@@eBH_AF}A@w@Dq@@i@B}B@Y@e@D]F_@@SHQCKnBnBvIrIn@n@\\iATg@v@_ATg@LmABg@Is@c@iEAm@bAcDTcAtA{DJI|AxAvAvAQv@~@z@dA`ATq@`E~DL`@E`Ex@hDd@`B}FtFaAzAm@xAe@jCa@nDiAbm@SpKM`H]vBhDV","length":59},"routeShortName":"14","routeLongName":"Coopérative","rentedBike":false,"transitLeg":true,"duration":764.0,"steps":[]},{"startTime":1522682865000,"endTime":1522682873000,"departureDelay":0,"arrivalDelay":0,"realTime":false,"distance":10.208,"pathway":false,"mode":"WALK","route":"","agencyTimeZoneOffset":-14400000,"interlineWithPreviousLeg":false,"from":{"name":"Audet / Saint-Charles","stopId":"1:521","stopCode":"521","lon":-71.072343,"lat":48.420999,"arrival":1522682864000,"departure":1522682865000,"zoneId":"NA","stopIndex":9,"stopSequence":10,"vertexType":"TRANSIT"},"to":{"name":"Destination","lon":-71.07244099,"lat":48.421301,"arrival":1522682873000,"orig":"","vertexType":"NORMAL"},"legGeometry":{"points":"yfpfH`ixpLAZ","length":2},"rentedBike":false,"transitLeg":false,"duration":8.0,"steps":[{"distance":10.208,"relativeDirection":"DEPART","streetName":"Rue Saint-Charles","absoluteDirection":"WEST","stayOn":false,"area":false,"bogusName":false,"lon":-71.07232986265892,"lat":48.4210959841372,"elevation":[]}]}],"tooSloped":false},{"duration":1317,"startTime":1522683048000,"endTime":1522684365000,"walkTime":321,"transitTime":694,"waitingTime":302,"walkDistance":383.7439774358334,"walkLimitExceeded":false,"elevationLost":0.0,"elevationGained":0.0,"transfers":1,"legs":[{"startTime":1522683048000,"endTime":1522683152000,"departureDelay":0,"arrivalDelay":0,"realTime":false,"distance":123.07,"pathway":false,"mode":"WALK","route":"","agencyTimeZoneOffset":-14400000,"interlineWithPreviousLeg":false,"from":{"name":"Origin","lon":-71.101726,"lat":48.452939,"departure":1522683048000,"orig":"","vertexType":"NORMAL"},"to":{"name":"boul. Ste-Geneviève (no. 1425)","stopId":"1:97","stopCode":"97","lon":-71.100593,"lat":48.45294,"arrival":1522683152000,"departure":1522683153000,"zoneId":"NA","stopIndex":25,"stopSequence":26,"vertexType":"TRANSIT"},"legGeometry":{"points":"wmvfHj`~pL{@W^gEPT","length":4},"rentedBike":false,"transitLeg":false,"duration":104.0,"steps":[{"distance":34.578,"relativeDirection":"DEPART","streetName":"path","absoluteDirection":"NORTH","stayOn":false,"area":false,"bogusName":false,"lon":-71.10165006026004,"lat":48.45292583643516,"elevation":[]},{"distance":75.636,"relativeDirection":"RIGHT","streetName":"Boulevard Sainte-Geneviève","absoluteDirection":"EAST","stayOn":false,"area":false,"bogusName":false,"lon":-71.10153150000001,"lat":48.4532267,"elevation":[]},{"distance":12.856,"relativeDirection":"HARD_RIGHT","streetName":"path","absoluteDirection":"SOUTHWEST","stayOn":false,"area":false,"bogusName":true,"lon":-71.10053710000001,"lat":48.4530602,"elevation":[]}]},{"startTime":1522683153000,"endTime":1522683600000,"departureDelay":0,"arrivalDelay":0,"realTime":false,"distance":4047.7871857794808,"pathway":false,"mode":"BUS","route":"21","agencyName":"Société de Transport du Saguenay","agencyUrl":"http://ville.saguenay.ca/fr/services-aux-citoyens/transport-sts","agencyTimeZoneOffset":-14400000,"routeColor":"556B2F","routeType":3,"routeId":"1:21","routeTextColor":"FFFFFF","interlineWithPreviousLeg":false,"tripBlockId":"2","headsign":"Terminus Chicoutimi","agencyId":"0","tripId":"1:217165","serviceDate":"20180402","from":{"name":"boul. Ste-Geneviève (no. 1425)","stopId":"1:97","stopCode":"97","lon":-71.100593,"lat":48.45294,"arrival":1522683152000,"departure":1522683153000,"zoneId":"NA","stopIndex":25,"stopSequence":26,"vertexType":"TRANSIT"},"to":{"name":"Terminus Chicoutimi","stopId":"1:1289","stopCode":"1289","lon":-71.066163,"lat":48.428677,"arrival":1522683600000,"departure":1522683900000,"zoneId":"NA","stopIndex":34,"stopSequence":35,"vertexType":"TRANSIT"},"legGeometry":{"points":"onvfHny}pL~@sJjAyLJqAZyCP_BZuCDi@b@iExAsO@E^qBt@}CJGnAmDx@iBpAcCb@o@Zi@h@o@`AiArFkG`FgGdBwBt@cAbAmBx@eBj@eB`CoHpCyJbAmCtAuCZg@|@gBxAsCrCmFhHqN~@eBr@cAt@_Av@}@RQPMz@k@tAe@REZG^Af@@X@VF`@Jn@XbClAr@Xt\\`PrAb@pA^hBTjAFj@Pb@JPHLLJNJRFXDT?X?ZEVEVKTMNMHMFOB}DWSGOSYcAN}FFkAF}DJyDPwGvAHVyL","length":88},"routeShortName":"21","routeLongName":"Boul. Ste-Geneviève/Élie","rentedBike":false,"transitLeg":true,"duration":447.0,"steps":[]},{"startTime":1522683900000,"endTime":1522684147000,"departureDelay":0,"arrivalDelay":0,"realTime":false,"distance":1250.0687166022503,"pathway":false,"mode":"BUS","route":"11","agencyName":"Société de Transport du Saguenay","agencyUrl":"http://ville.saguenay.ca/fr/services-aux-citoyens/transport-sts","agencyTimeZoneOffset":-14400000,"routeColor":"FF0000","routeType":3,"routeId":"1:11","routeTextColor":"FFFFFF","interlineWithPreviousLeg":false,"tripBlockId":"35","headsign":"Boul.Royaume/St-Pierre","agencyId":"0","tripId":"1:218252","serviceDate":"20180402","from":{"name":"Terminus Chicoutimi","stopId":"1:1289","stopCode":"1289","lon":-71.066163,"lat":48.428677,"arrival":1522683600000,"departure":1522683900000,"zoneId":"NA","stopIndex":0,"stopSequence":1,"vertexType":"TRANSIT"},"to":{"name":"Saint-Paul / Dubuc","stopId":"1:420","stopCode":"420","lon":-71.075186,"lat":48.421664,"arrival":1522684147000,"departure":1522684148000,"zoneId":"NA","stopIndex":7,"stopSequence":8,"vertexType":"TRANSIT"},"legGeometry":{"points":"evqfHzcwpLk@?UhKfIh@dKp@GnDIfDOtEE~@Ff@x@rEF~@CbAALO~ADRNJXBr@DfGRPBPJLN@@FPFTBX?TE`BhBR@?J@NELKFOlAiDL[bA`A","length":38},"routeShortName":"11","routeLongName":"Chic/Faubourg via St-Paul","rentedBike":false,"transitLeg":true,"duration":247.0,"steps":[]},{"startTime":1522684148000,"endTime":1522684365000,"departureDelay":0,"arrivalDelay":0,"realTime":false,"distance":260.433,"pathway":false,"mode":"WALK","route":"","agencyTimeZoneOffset":-14400000,"interlineWithPreviousLeg":false,"from":{"name":"Saint-Paul / Dubuc","stopId":"1:420","stopCode":"420","lon":-71.075186,"lat":48.421664,"arrival":1522684147000,"departure":1522684148000,"zoneId":"NA","stopIndex":7,"stopSequence":8,"vertexType":"TRANSIT"},"to":{"name":"Destination","lon":-71.07244099,"lat":48.421301,"arrival":1522684365000,"orig":"","vertexType":"NORMAL"},"legGeometry":{"points":"_jpfH`zxpLTVf@}AXq@Pa@FEFCDCBG@I@K?MES_@CMGNoG","length":16},"rentedBike":false,"transitLeg":false,"duration":217.0,"steps":[{"distance":14.586,"relativeDirection":"DEPART","streetName":"Rue Saint-Paul","absoluteDirection":"SOUTHWEST","stayOn":false,"area":false,"bogusName":false,"lon":-71.07504861031198,"lat":48.421601719607466,"elevation":[]},{"distance":40.771,"relativeDirection":"LEFT","streetName":"Rue Dubuc","absoluteDirection":"SOUTHEAST","stayOn":false,"area":false,"bogusName":false,"lon":-71.0751601,"lat":48.4214934,"elevation":[]},{"distance":78.343,"relativeDirection":"CONTINUE","streetName":"path","absoluteDirection":"SOUTHEAST","stayOn":false,"area":false,"bogusName":true,"lon":-71.07469880000001,"lat":48.4212916,"elevation":[]},{"distance":26.394,"relativeDirection":"LEFT","streetName":"Rue Saint-Joseph","absoluteDirection":"NORTH","stayOn":false,"area":false,"bogusName":false,"lon":-71.07388590000001,"lat":48.420954200000004,"elevation":[]},{"distance":100.339,"relativeDirection":"RIGHT","streetName":"Rue Saint-Charles","absoluteDirection":"EAST","stayOn":false,"area":false,"bogusName":false,"lon":-71.0738219,"lat":48.421185,"elevation":[]}]}],"tooSloped":false}]},"debugOutput":{"precalculationTime":26,"pathCalculationTime":15,"pathTimes":[8,5,2],"renderingTime":0,"totalTime":41,"timedOut":false},"elevationMetadata":{"ellipsoidToGeoidDifference":-28.885904201182168,"geoidElevation":false}}