{"requestParameters":{"date":"2018/04/02","walkSpeed":"1.33","walkReluctance":"2.0","fromPlace":"48.409481,-71.101398","maxWalkDistance":"3000","waitReluctance":"1.0","carSpeed":"33","numItineraries":"3","waitAtBeginningFactor":"0.4","mode":"TRANSIT,WALK","ignoreRealtimeUpdates":"false","stairsReluctance":"2.0","toPlace":"48.394727,-71.050287","time":"13:0:00"},"plan":{"date":1522688400000,"from":{"name":"Origin","lon":-71.101398,"lat":48.409481,"orig":"","vertexType":"NORMAL"},"to":{"name":"Destination","lon":-71.050287,"lat":48.394727,"orig":"","vertexType":"NORMAL"},"itineraries":[{"duration":1568,"startTime":1522689609000,"endTime":1522691177000,"walkTime":1195,"transitTime":371,"waitingTime":2,"walkDistance":1551.5232481154844,"walkLimitExceeded":false,"elevationLost":0.0,"elevationGained":0.0,"transfers":0,"legs":[{"startTime":1522689609000,"endTime":1522690719000,"departureDelay":0,"arrivalDelay":0,"realTime":false,"distance":1450.6119999999999,"pathway":false,"mode":"WALK","route":"","agencyTimeZoneOffset":-14400000,"interlineWithPreviousLeg":false,"from":{"name":"Origin","lon":-71.101398,"lat":48.409481,"departure":1522689609000,"orig":"","vertexType":"NORMAL"},"to":{"name":"Malraux / Pagnol","stopId":"1:1978","stopCode":"1978","lon":-71.093388,"lat":48.400416,"arrival":1522690719000,"departure":1522690720000,"zoneId":"NA","stopIndex":29,"stopSequence":30,"vertexType":"TRANSIT"},"legGeometry":{"points":"c}mfHj|}pLjAqANh@Rb@b@h@j@n@^\\RJPBVBnCCl@Cl@Bd@FTNfAp@Li@p@kCjCoJt@iBr@mBhB{ErCsHFQx@uBzEwM@?`@kAjFzF","length":29},"rentedBike":false,"transitLeg":false,"duration":1110.0,"steps":[{"distance":51.163,"relativeDirection":"DEPART","streetName":"Rue des Tamis","absoluteDirection":"SOUTHEAST","stayOn":false,"area":false,"bogusName":false,"lon":-71.1010153,"lat":48.4093019,"elevation":[]},{"distance":357.049,"relativeDirection":"RIGHT","streetName":"Rue des Défibreurs","absoluteDirection":"SOUTHWEST","stayOn":false,"area":false,"bogusName":false,"lon":-71.1006088,"lat":48.4089292,"elevation":[]},{"distance":882.099,"relativeDirection":"LEFT","streetName":"Boulevard Barrette","absoluteDirection":"SOUTHEAST","stayOn":false,"area":false,"bogusName":false,"lon":-71.1020482,"lat":48.4060381,"elevation":[]},{"distance":160.301,"relativeDirection":"RIGHT","streetName":"Rue Malraux","absoluteDirection":"SOUTHWEST","stayOn":false,"area":false,"bogusName":false,"lon":-71.0921587,"lat":48.401604500000005,"elevation":[]}]},{"startTime":1522690720000,"endTime":1522690860000,"departureDelay":0,"arrivalDelay":0,"realTime":false,"distance":1970.4615229267838,"pathway":false,"mode":"BUS","route":"14","agencyName":"Société de Transport du Saguenay","agencyUrl":"http://ville.saguenay.ca/fr/services-aux-citoyens/transport-sts","agencyTimeZoneOffset":-14400000,"routeColor":"C0C000","routeType":3,"routeId":"1:14","routeTextColor":"000000","interlineWithPreviousLeg":false,"tripBlockId":"32","headsign":"Talbot / Barrette","agencyId":"0","tripId":"1:218160","serviceDate":"20180402","from":{"name":"Malraux / Pagnol","stopId":"1:1978","stopCode":"1978","lon":-71.093388,"lat":48.400416,"arrival":1522690719000,"departure":1522690720000,"zoneId":"NA","stopIndex":29,"stopSequence":30,"vertexType":"TRANSIT"},"to":{"name":"Roitelets / Sapins","stopId":"1:1543","stopCode":"1543","lon":-71.069553,"lat":48.393375,"arrival":1522690860000,"departure":1522690860000,"zoneId":"NA","stopIndex":35,"stopSequence":36,"vertexType":"TRANSIT"},"legGeometry":{"points":"welfH`m|pLcFsF~CgOtGm[j@oCvEoSl@_CxCmLjAeFpCeKrByHfAqCvH_SLa@","length":14},"routeShortName":"14","routeLongName":"Coopérative","rentedBike":false,"transitLeg":true,"duration":140.0,"steps":[]},{"startTime":1522690860000,"endTime":1522691091000,"departureDelay":0,"arrivalDelay":0,"realTime":false,"distance":1632.9769100757203,"pathway":false,"mode":"BUS","route":"15","agencyName":"Société de Transport du Saguenay","agencyUrl":"http://ville.saguenay.ca/fr/services-aux-citoyens/transport-sts","agencyTimeZoneOffset":-14400000,"routeColor":"FF00FF","routeType":3,"routeId":"1:15","routeTextColor":"FFFFFF","interlineWithPreviousLeg":true,"tripBlockId":"32","headsign":"Terminus Chicoutimi","agencyId":"0","tripId":"1:218161","serviceDate":"20180402","from":{"name":"Roitelets / Sapins","stopId":"1:1543","stopCode":"1543","lon":-71.069553,"lat":48.393375,"arrival":1522690860000,"departure":1522690860000,"zoneId":"NA","stopIndex":0,"stopSequence":1,"vertexType":"TRANSIT"},"to":{"name":"Roitelets / Chardonnerets","stopId":"1:1977","stopCode":"1977","lon":-71.049126,"lat":48.395249,"arrival":1522691091000,"departure":1522691092000,"zoneId":"NA","stopIndex":6,"stopSequence":7,"vertexType":"TRANSIT"},"legGeometry":{"points":"_zjfHfwwpLx@}BHa@NaADq@@y@Cy@I{@Ka@O[Sg@c@mAWwAMyA?EC]?wABuABmFB{@BmDFuH@i@F[FsC@c@TuGEGVsHPuDLuBXsFDoA?W@]Cu@GcAKu@Q_ASo@a@y@a@o@MOUUeCqBiDsD","length":46},"routeShortName":"15","routeLongName":"Term. Chic / Costco","rentedBike":false,"transitLeg":true,"duration":231.0,"steps":[]},{"startTime":1522691092000,"endTime":1522691177000,"departureDelay":0,"arrivalDelay":0,"realTime":false,"distance":100.762,"pathway":false,"mode":"WALK","route":"","agencyTimeZoneOffset":-14400000,"interlineWithPreviousLeg":false,"from":{"name":"Roitelets / Chardonnerets","stopId":"1:1977","stopCode":"1977","lon":-71.049126,"lat":48.395249,"arrival":1522691091000,"departure":1522691092000,"zoneId":"NA","stopIndex":6,"stopSequence":7,"vertexType":"TRANSIT"},"to":{"name":"Destination","lon":-71.050287,"lat":48.394727,"arrival":1522691177000,"orig":"","vertexType":"NORMAL"},"legGeometry":{"points":"iekfHdxspLPRrBzBEJDD","length":5},"rentedBike":false,"transitLeg":false,"duration":85.0,"steps":[{"distance":91.19699999999999,"relativeDirection":"DEPART","streetName":"bike path","absoluteDirection":"SOUTHWEST","stayOn":false,"area":false,"bogusName":true,"lon":-71.04914293530794,"lat":48.39525700945871,"elevation":[]},{"distance":5.82,"relativeDirection":"RIGHT","streetName":"path","absoluteDirection":"NORTHWEST","stayOn":true,"area":false,"bogusName":true,"lon":-71.04986000000001,"lat":48.394589200000006,"elevation":[]},{"distance":3.745,"relativeDirection":"LEFT","streetName":"Rue Des Roitelets","absoluteDirection":"SOUTHWEST","stayOn":false,"area":false,"bogusName":false,"lon":-71.0499278,"lat":48.394615900000005,"elevation":[]}]}],"tooSloped":false},{"duration":2893,"startTime":1522689768000,"endTime":1522692661000,"walkTime":466,"transitTime":2185,"waitingTime":242,"walkDistance":589.5110902211727,"walkLimitExceeded":false,"elevationLost":0.0,"elevationGained":0.0,"transfers":1,"legs":[{"startTime":1522689768000,"endTime":1522690149000,"departureDelay":0,"arrivalDelay":0,"realTime":false,"distance":488.61299999999994,"pathway":false,"mode":"WALK","route":"","agencyTimeZoneOffset":-14400000,"interlineWithPreviousLeg":false,"from":{"name":"Origin","lon":-71.101398,"lat":48.409481,"departure":1522689768000,"orig":"","vertexType":"NORMAL"},"to":{"name":"Estacade / Défibreurs","stopId":"1:1888","stopCode":"1888","lon":-71.096041,"lat":48.406986,"arrival":1522690149000,"departure":1522690150000,"zoneId":"NA","stopIndex":14,"stopSequence":15,"vertexType":"TRANSIT"},"legGeometry":{"points":"c}mfHj|}pLjAqAOu@Ay@@c@L{@Ls@fAgCpD{JlAaDf@j@","length":11},"rentedBike":false,"transitLeg":false,"duration":381.0,"steps":[{"distance":51.163,"relativeDirection":"DEPART","streetName":"Rue des Tamis","absoluteDirection":"SOUTHEAST","stayOn":false,"area":false,"bogusName":false,"lon":-71.1010153,"lat":48.4093019,"elevation":[]},{"distance":410.33399999999995,"relativeDirection":"LEFT","streetName":"Rue des Défibreurs","absoluteDirection":"EAST","stayOn":false,"area":false,"bogusName":false,"lon":-71.1006088,"lat":48.4089292,"elevation":[]},{"distance":27.116,"relativeDirection":"RIGHT","streetName":"Rue de l'Estacade","absoluteDirection":"SOUTHWEST","stayOn":false,"area":false,"bogusName":false,"lon":-71.0959148,"lat":48.4072266,"elevation":[]}]},{"startTime":1522690150000,"endTime":1522690860000,"departureDelay":0,"arrivalDelay":0,"realTime":false,"distance":3825.3125271861118,"pathway":false,"mode":"BUS","route":"11","agencyName":"Société de Transport du Saguenay","agencyUrl":"http://ville.saguenay.ca/fr/services-aux-citoyens/transport-sts","agencyTimeZoneOffset":-14400000,"routeColor":"FF0000","routeType":3,"routeId":"1:11","routeTextColor":"FFFFFF","interlineWithPreviousLeg":false,"tripBlockId":"34","headsign":"Terminus Chicoutimi","agencyId":"0","tripId":"1:218220","serviceDate":"20180402","from":{"name":"Estacade / Défibreurs","stopId":"1:1888","stopCode":"1888","lon":-71.096041,"lat":48.406986,"arrival":1522690149000,"departure":1522690150000,"zoneId":"NA","stopIndex":14,"stopSequence":15,"vertexType":"TRANSIT"},"to":{"name":"Terminus Chicoutimi","stopId":"1:1289","stopCode":"1289","lon":-71.066163,"lat":48.428677,"arrival":1522690860000,"departure":1522691100000,"zoneId":"NA","stopIndex":30,"stopSequence":31,"vertexType":"TRANSIT"},"legGeometry":{"points":"_omfH~}|pL_@g@{FwGOMnA}CnA_DJWu@iAW[S[yI{MmBqC{@wAQUw@gAsDiF_B_CQYa@cA[_AUy@YcBOgAYHu@\\M`@cAiBuAyBkHgL{C{E}AcCc@o@q@gAOWwCyCyGyG_IaIs@rBEHwAtDmBvEOd@[bBK~AIf@YHE@Q@O?OCI_@GMEKI_AB_A?Yo@IKCIEIIKOEKCKe@}BKs@CQAUE_A@yCFcDVsLDaCD_@kBKW?e@Q_BQNuEDuBXmNLgHmKm@}BW{AMCn@o@G??","length":87},"routeShortName":"11","routeLongName":"Chic/Faubourg via St-Paul","rentedBike":false,"transitLeg":true,"duration":710.0,"steps":[]},{"startTime":1522691100000,"endTime":1522692575000,"departureDelay":0,"arrivalDelay":0,"realTime":false,"distance":7147.816398384887,"pathway":false,"mode":"BUS","route":"15","agencyName":"Société de Transport du Saguenay","agencyUrl":"http://ville.saguenay.ca/fr/services-aux-citoyens/transport-sts","agencyTimeZoneOffset":-14400000,"routeColor":"FF00FF","routeType":3,"routeId":"1:15","routeTextColor":"FFFFFF","interlineWithPreviousLeg":false,"tripBlockId":"31","headsign":"Talbot / Barrette","agencyId":"0","tripId":"1:218136","serviceDate":"20180402","from":{"name":"Terminus Chicoutimi","stopId":"1:1289","stopCode":"1289","lon":-71.066163,"lat":48.428677,"arrival":1522690860000,"departure":1522691100000,"zoneId":"NA","stopIndex":0,"stopSequence":1,"vertexType":"TRANSIT"},"to":{"name":"Roitelets / Chardonnerets","stopId":"1:1977","stopCode":"1977","lon":-71.049126,"lat":48.395249,"arrival":1522692575000,"departure":1522692576000,"zoneId":"NA","stopIndex":29,"stopSequence":30,"vertexType":"TRANSIT"},"legGeometry":{"points":"evqfHpbwpLPiCjKx@HiEZkS\\aSN_K^eIrBpBvIpIr@r@\\mBfAaA`@gBOkB_@uF|DyL|DpDQ|@|@z@bA`ATw@dD~Ch@fA@`E~AjGuH`Iy@bBi@dCbEdEjJlJ`HbHlJpJ|J~JdAfALzDNzDrAdBrEKvBEbCv@d@TvFlC|DlBpMlGrB`AM}@hAwEC{B]oBiBmBsH_@_K{H`EgIvCaGfEoItDsH~DeItC{FnBoLbCaO?qLa@uJzF`ApF~@~@PzAgEeDcBf@qAWcKUqEx@Ef@ExDVjDxAFBrBvAfGjG@B","length":79},"routeShortName":"15","routeLongName":"Term. Chic / Costco","rentedBike":false,"transitLeg":true,"duration":1475.0,"steps":[]},{"startTime":1522692576000,"endTime":1522692661000,"departureDelay":0,"arrivalDelay":0,"realTime":false,"distance":100.762,"pathway":false,"mode":"WALK","route":"","agencyTimeZoneOffset":-14400000,"interlineWithPreviousLeg":false,"from":{"name":"Roitelets / Chardonnerets","stopId":"1:1977","stopCode":"1977","lon":-71.049126,"lat":48.395249,"arrival":1522692575000,"departure":1522692576000,"zoneId":"NA","stopIndex":29,"stopSequence":30,"vertexType":"TRANSIT"},"to":{"name":"Destination","lon":-71.050287,"lat":48.394727,"arrival":1522692661000,"orig":"","vertexType":"NORMAL"},"legGeometry":{"points":"iekfHdxspLPRrBzBEJDD","length":5},"rentedBike":false,"transitLeg":false,"duration":85.0,"steps":[{"distance":91.19699999999999,"relativeDirection":"DEPART","streetName":"bike path","absoluteDirection":"SOUTHWEST","stayOn":false,"area":false,"bogusName":true,"lon":-71.04914293530794,"lat":48.39525700945871,"elevation":[]},{"distance":5.82,"relativeDirection":"RIGHT","streetName":"path","absoluteDirection":"NORTHWEST","stayOn":true,"area":false,"bogusName":true,"lon":-71.04986000000001,"lat":48.394589200000006,"elevation":[]},{"distance":3.745,"relativeDirection":"LEFT","streetName":"Rue Des Roitelets","absoluteDirection":"SOUTHWEST","stayOn":false,"area":false,"bogusName":false,"lon":-71.0499278,"lat":48.394615900000005,"elevation":[]}]}],"tooSloped":false},{"duration":1568,"startTime":1522691409000,"endTime":1522692977000,"walkTime":1195,"transitTime":371,"waitingTime":2,"walkDistance":1551.5232481154844,"walkLimitExceeded":false,"elevationLost":0.0,"elevationGained":0.0,"transfers":0,"legs":[{"startTime":1522691409000,"endTime":1522692519000,"departureDelay":0,"arrivalDelay":0,"realTime":false,"distance":1450.6119999999999,"pathway":false,"mode":"WALK","route":"","agencyTimeZoneOffset":-14400000,"interlineWithPreviousLeg":false,"from":{"name":"Origin","lon":-71.101398,"lat":48.409481,"departure":1522691409000,"orig":"","vertexType":"NORMAL"},"to":{"name":"Malraux / Pagnol","stopId":"1:1978","stopCode":"1978","lon":-71.093388,"lat":48.400416,"arrival":1522692519000,"departure":1522692520000,"zoneId":"NA","stopIndex":29,"stopSequence":30,"vertexType":"TRANSIT"},"legGeometry":{"points":"c}mfHj|}pLjAqANh@Rb@b@h@j@n@^\\RJPBVBnCCl@Cl@Bd@FTNfAp@Li@p@kCjCoJt@iBr@mBhB{ErCsHFQx@uBzEwM@?`@kAjFzF","length":29},"rentedBike":false,"transitLeg":false,"duration":1110.0,"steps":[{"distance":51.163,"relativeDirection":"DEPART","streetName":"Rue des Tamis","absoluteDirection":"SOUTHEAST","stayOn":false,"area":false,"bogusName":false,"lon":-71.1010153,"lat":48.4093019,"elevation":[]},{"distance":357.049,"relativeDirection":"RIGHT","streetName":"Rue des Défibreurs","absoluteDirection":"SOUTHWEST","stayOn":false,"area":false,"bogusName":false,"lon":-71.1006088,"lat":48.4089292,"elevation":[]},{"distance":882.099,"relativeDirection":"LEFT","streetName":"Boulevard Barrette","absoluteDirection":"SOUTHEAST","stayOn":false,"area":false,"bogusName":false,"lon":-71.1020482,"lat":48.4060381,"elevation":[]},{"distance":160.301,"relativeDirection":"RIGHT","streetName":"Rue Malraux","absoluteDirection":"SOUTHWEST","stayOn":false,"area":false,"bogusName":false,"lon":-71.0921587,"lat":48.401604500000005,"elevation":[]}]},{"startTime":1522692520000,"endTime":1522692660000,"departureDelay":0,"arrivalDelay":0,"realTime":false,"distance":1970.4615229267838,"pathway":false,"mode":"BUS","route":"14","agencyName":"Société de Transport du Saguenay","agencyUrl":"http://ville.saguenay.ca/fr/services-aux-citoyens/transport-sts","agencyTimeZoneOffset":-14400000,"routeColor":"C0C000","routeType":3,"routeId":"1:14","routeTextColor":"000000","interlineWithPreviousLeg":false,"tripBlockId":"30","headsign":"Talbot / Barrette","agencyId":"0","tripId":"1:218101","serviceDate":"20180402","from":{"name":"Malraux / Pagnol","stopId":"1:1978","stopCode":"1978","lon":-71.093388,"lat":48.400416,"arrival":1522692519000,"departure":1522692520000,"zoneId":"NA","stopIndex":29,"stopSequence":30,"vertexType":"TRANSIT"},"to":{"name":"Roitelets / Sapins","stopId":"1:1543","stopCode":"1543","lon":-71.069553,"lat":48.393375,"arrival":1522692660000,"departure":1522692660000,"zoneId":"NA","stopIndex":35,"stopSequence":36,"vertexType":"TRANSIT"},"legGeometry":{"points":"welfH`m|pLcFsF~CgOtGm[j@oCvEoSl@_CxCmLjAeFpCeKrByHfAqCvH_SLa@","length":14},"routeShortName":"14","routeLongName":"Coopérative","rentedBike":false,"transitLeg":true,"duration":140.0,"steps":[]},{"startTime":1522692660000,"endTime":1522692891000,"departureDelay":0,"arrivalDelay":0,"realTime":false,"distance":1632.9769100757203,"pathway":false,"mode":"BUS","route":"15","agencyName":"Société de Transport du Saguenay","agencyUrl":"http://ville.saguenay.ca/fr/services-aux-citoyens/transport-sts","agencyTimeZoneOffset":-14400000,"routeColor":"FF00FF","routeType":3,"routeId":"1:15","routeTextColor":"FFFFFF","interlineWithPreviousLeg":true,"tripBlockId":"30","headsign":"Terminus Chicoutimi","agencyId":"0","tripId":"1:218102","serviceDate":"20180402","from":{"name":"Roitelets / Sapins","stopId":"1:1543","stopCode":"1543","lon":-71.069553,"lat":48.393375,"arrival":1522692660000,"departure":1522692660000,"zoneId":"NA","stopIndex":0,"stopSequence":1,"vertexType":"TRANSIT"},"to":{"name":"Roitelets / Chardonnerets","stopId":"1:1977","stopCode":"1977","lon":-71.049126,"lat":48.395249,"arrival":1522692891000,"departure":1522692892000,"zoneId":"NA","stopIndex":6,"stopSequence":7,"vertexType":"TRANSIT"},"legGeometry":{"points":"_zjfHfwwpLx@}BHa@NaADq@@y@Cy@I{@Ka@O[Sg@c@mAWwAMyA?EC]?wABuABmFB{@BmDFuH@i@F[FsC@c@TuGEGVsHPuDLuBXsFDoA?W@]Cu@GcAKu@Q_ASo@a@y@a@o@MOUUeCqBiDsD","length":46},"routeShortName":"15","routeLongName":"Term. Chic / Costco","rentedBike":false,"transitLeg":true,"duration":231.0,"steps":[]},{"startTime":1522692892000,"endTime":1522692977000,"departureDelay":0,"arrivalDelay":0,"realTime":false,"distance":100.762,"pathway":false,"mode":"WALK","route":"","agencyTimeZoneOffset":-14400000,"interlineWithPreviousLeg":false,"from":{"name":"Roitelets / Chardonnerets","stopId":"1:1977","stopCode":"1977","lon":-71.049126,"lat":48.395249,"arrival":1522692891000,"departure":1522692892000,"zoneId":"NA","stopIndex":6,"stopSequence":7,"vertexType":"TRANSIT"},"to":{"name":"Destination","lon":-71.050287,"lat":48.394727,"arrival":1522692977000,"orig":"","vertexType":"NORMAL"},"legGeometry":{"points":"iekfHdxspLPRrBzBEJDD","length":5},"rentedBike":false,"transitLeg":false,"duration":85.0,"steps":[{"distance":91.19699999999999,"relativeDirection":"DEPART","streetName":"bike path","absoluteDirection":"SOUTHWEST","stayOn":false,"area":false,"bogusName":true,"lon":-71.04914293530794,"lat":48.39525700945871,"elevation":[]},{"distance":5.82,"relativeDirection":"RIGHT","streetName":"path","absoluteDirection":"NORTHWEST","stayOn":true,"area":false,"bogusName":true,"lon":-71.04986000000001,"lat":48.394589200000006,"elevation":[]},{"distance":3.745,"relativeDirection":"LEFT","streetName":"Rue Des Roitelets","absoluteDirection":"SOUTHWEST","stayOn":false,"area":false,"bogusName":false,"lon":-71.0499278,"lat":48.394615900000005,"elevation":[]}]}],"tooSloped":false}]},"debugOutput":{"precalculationTime":15,"pathCalculationTime":24,"pathTimes":[17,3,4],"renderingTime":1,"totalTime":40,"timedOut":false},"elevationMetadata":{"ellipsoidToGeoidDifference":-28.885904201182168,"geoidElevation":false}}