{"requestParameters":{"date":"2018/04/02","walkSpeed":"1.33","walkReluctance":"2.0","fromPlace":"48.390845,-71.053365","maxWalkDistance":"3000","waitReluctance":"1.0","carSpeed":"33","numItineraries":"3","waitAtBeginningFactor":"0.4","mode":"TRANSIT,WALK","ignoreRealtimeUpdates":"false","stairsReluctance":"2.0","toPlace":"48.392917,-71.071285","time":"16:0:00"},"plan":{"date":1522699200000,"from":{"name":"Origin","lon":-71.053365,"lat":48.390845,"orig":"","vertexType":"NORMAL"},"to":{"name":"Destination","lon":-71.071285,"lat":48.392917,"orig":"","vertexType":"NORMAL"},"itineraries":[{"duration":495,"startTime":1522699586000,"endTime":1522700081000,"walkTime":384,"transitTime":109,"waitingTime":2,"walkDistance":483.9221804471854,"walkLimitExceeded":false,"elevationLost":0.0,"elevationGained":0.0,"transfers":0,"legs":[{"startTime":1522699586000,"endTime":1522699810000,"departureDelay":0,"arrivalDelay":0,"realTime":false,"distance":278.66499999999996,"pathway":false,"mode":"WALK","route":"","agencyTimeZoneOffset":-14400000,"interlineWithPreviousLeg":false,"from":{"name":"Origin","lon":-71.053365,"lat":48.390845,"departure":1522699586000,"orig":"","vertexType":"NORMAL"},"to":{"name":"Roitelets / Faucons","stopId":"1:1545","stopCode":"1545","lon":-71.052988,"lat":48.392905,"arrival":1522699810000,"departure":1522699811000,"zoneId":"NA","stopIndex":31,"stopSequence":32,"vertexType":"TRANSIT"},"legGeometry":{"points":"}hjfHxrtpLFu@aCi@y@Mo@CiALgC^@M","length":8},"rentedBike":false,"transitLeg":false,"duration":224.0,"steps":[{"distance":21.172,"relativeDirection":"DEPART","streetName":"road","absoluteDirection":"EAST","stayOn":false,"area":false,"bogusName":false,"lon":-71.05340964555734,"lat":48.39071694601113,"elevation":[]},{"distance":251.68900000000002,"relativeDirection":"LEFT","streetName":"Rue des Faucons","absoluteDirection":"NORTH","stayOn":false,"area":false,"bogusName":false,"lon":-71.0531303,"lat":48.390674000000004,"elevation":[]},{"distance":5.804,"relativeDirection":"RIGHT","streetName":"bike path","absoluteDirection":"EAST","stayOn":false,"area":false,"bogusName":true,"lon":-71.0530677,"lat":48.392908000000006,"elevation":[]}]},{"startTime":1522699811000,"endTime":1522699920000,"departureDelay":0,"arrivalDelay":0,"realTime":false,"distance":1227.4847917962438,"pathway":false,"mode":"BUS","route":"15","agencyName":"Société de Transport du Saguenay","agencyUrl":"http://ville.saguenay.ca/fr/services-aux-citoyens/transport-sts","agencyTimeZoneOffset":-14400000,"routeColor":"FF00FF","routeType":3,"routeId":"1:15","routeTextColor":"FFFFFF","interlineWithPreviousLeg":false,"tripBlockId":"31","headsign":"Talbot / Barrette","agencyId":"0","tripId":"1:218140","serviceDate":"20180402","from":{"name":"Roitelets / Faucons","stopId":"1:1545","stopCode":"1545","lon":-71.052988,"lat":48.392905,"arrival":1522699810000,"departure":1522699811000,"zoneId":"NA","stopIndex":31,"stopSequence":32,"vertexType":"TRANSIT"},"to":{"name":"Roitelets / Sapins","stopId":"1:1543","stopCode":"1543","lon":-71.069553,"lat":48.393375,"arrival":1522699920000,"departure":1522699921000,"zoneId":"NA","stopIndex":35,"stopSequence":36,"vertexType":"TRANSIT"},"legGeometry":{"points":"wvjfHdptpLsBre@?DWbOAn@?nEGnM@H\\hCzA~ELvAAlAi@jDo@nB","length":14},"routeShortName":"15","routeLongName":"Term. Chic / Costco","rentedBike":false,"transitLeg":true,"duration":109.0,"steps":[]},{"startTime":1522699921000,"endTime":1522700081000,"departureDelay":0,"arrivalDelay":0,"realTime":false,"distance":205.135,"pathway":false,"mode":"WALK","route":"","agencyTimeZoneOffset":-14400000,"interlineWithPreviousLeg":false,"from":{"name":"Roitelets / Sapins","stopId":"1:1543","stopCode":"1543","lon":-71.069553,"lat":48.393375,"arrival":1522699920000,"departure":1522699921000,"zoneId":"NA","stopIndex":35,"stopSequence":36,"vertexType":"TRANSIT"},"to":{"name":"Destination","lon":-71.071285,"lat":48.392917,"arrival":1522700081000,"orig":"","vertexType":"NORMAL"},"legGeometry":{"points":"oyjfHxwwpL?@mAzCMHC@JL`DtD","length":7},"rentedBike":false,"transitLeg":false,"duration":160.0,"steps":[{"distance":84.014,"relativeDirection":"DEPART","streetName":"bike path","absoluteDirection":"NORTHWEST","stayOn":false,"area":false,"bogusName":true,"lon":-71.0695674967601,"lat":48.39336056343373,"elevation":[]},{"distance":121.121,"relativeDirection":"HARD_LEFT","streetName":"Boulevard Talbot","absoluteDirection":"SOUTHWEST","stayOn":false,"area":false,"bogusName":false,"lon":-71.07041720000001,"lat":48.393846,"elevation":[]}]}],"tooSloped":false},{"duration":635,"startTime":1522699925000,"endTime":1522700560000,"walkTime":432,"transitTime":201,"waitingTime":2,"walkDistance":547.847541349623,"walkLimitExceeded":false,"elevationLost":0.0,"elevationGained":0.0,"transfers":0,"legs":[{"startTime":1522699925000,"endTime":1522700190000,"departureDelay":0,"arrivalDelay":0,"realTime":false,"distance":333.941,"pathway":false,"mode":"WALK","route":"","agencyTimeZoneOffset":-14400000,"interlineWithPreviousLeg":false,"from":{"name":"Origin","lon":-71.053365,"lat":48.390845,"departure":1522699925000,"orig":"","vertexType":"NORMAL"},"to":{"name":"Roitelets / Faucons","stopId":"1:1522","stopCode":"1522","lon":-71.053785,"lat":48.393094,"arrival":1522700190000,"departure":1522700191000,"zoneId":"NA","stopIndex":19,"stopSequence":20,"vertexType":"TRANSIT"},"legGeometry":{"points":"}hjfHxrtpLFu@aCi@y@Mo@CiALgC^K?MpC","length":9},"rentedBike":false,"transitLeg":false,"duration":265.0,"steps":[{"distance":21.172,"relativeDirection":"DEPART","streetName":"road","absoluteDirection":"EAST","stayOn":false,"area":false,"bogusName":false,"lon":-71.05340964555734,"lat":48.39071694601113,"elevation":[]},{"distance":258.317,"relativeDirection":"LEFT","streetName":"Rue des Faucons","absoluteDirection":"NORTH","stayOn":false,"area":false,"bogusName":false,"lon":-71.0531303,"lat":48.390674000000004,"elevation":[]},{"distance":54.452,"relativeDirection":"LEFT","streetName":"Rue Des Roitelets","absoluteDirection":"WEST","stayOn":false,"area":false,"bogusName":false,"lon":-71.053066,"lat":48.392967600000006,"elevation":[]}]},{"startTime":1522700191000,"endTime":1522700392000,"departureDelay":0,"arrivalDelay":0,"realTime":false,"distance":1156.8161632984247,"pathway":false,"mode":"BUS","route":"214S","agencyName":"Société de Transport du Saguenay","agencyUrl":"http://ville.saguenay.ca/fr/services-aux-citoyens/transport-sts","agencyTimeZoneOffset":-14400000,"routeColor":"8B0000","routeType":3,"routeId":"1:214S","routeTextColor":"FFFFFF","interlineWithPreviousLeg":false,"headsign":"Carcajous / Martres","agencyId":"0","tripId":"1:218520","serviceDate":"20180402","from":{"name":"Roitelets / Faucons","stopId":"1:1522","stopCode":"1522","lon":-71.053785,"lat":48.393094,"arrival":1522700190000,"departure":1522700191000,"zoneId":"NA","stopIndex":19,"stopSequence":20,"vertexType":"TRANSIT"},"to":{"name":"Roitelets / Sapins","stopId":"1:1513","stopCode":"1513","lon":-71.069396,"lat":48.393523,"arrival":1522700392000,"departure":1522700393000,"zoneId":"NA","stopIndex":21,"stopSequence":22,"vertexType":"TRANSIT"},"legGeometry":{"points":"iwjfHhutpLGfAYbGu@zPKjD?NMzEMxLExKBnC\\zC~AlFHhAEnAO|ASbAo@nBAD","length":18},"routeShortName":"214S","routeLongName":"Séminaire - Chicoutimi Sud","rentedBike":false,"transitLeg":true,"duration":201.0,"steps":[]},{"startTime":1522700393000,"endTime":1522700560000,"departureDelay":0,"arrivalDelay":0,"realTime":false,"distance":213.79,"pathway":false,"mode":"WALK","route":"","agencyTimeZoneOffset":-14400000,"interlineWithPreviousLeg":false,"from":{"name":"Roitelets / Sapins","stopId":"1:1513","stopCode":"1513","lon":-71.069396,"lat":48.393523,"arrival":1522700392000,"departure":1522700393000,"zoneId":"NA","stopIndex":21,"stopSequence":22,"vertexType":"TRANSIT"},"to":{"name":"Destination","lon":-71.071285,"lat":48.392917,"arrival":1522700560000,"orig":"","vertexType":"NORMAL"},"legGeometry":{"points":"ezjfH`wwpLoAzCABGPNNJL`DtD","length":7},"rentedBike":false,"transitLeg":false,"duration":167.0,"steps":[{"distance":81.964,"relativeDirection":"DEPART","streetName":"Rue Des Roitelets","absoluteDirection":"NORTHWEST","stayOn":false,"area":false,"bogusName":false,"lon":-71.06944914116431,"lat":48.393476769189846,"elevation":[]},{"distance":131.826,"relativeDirection":"LEFT","streetName":"Boulevard Talbot","absoluteDirection":"SOUTHWEST","stayOn":false,"area":false,"bogusName":false,"lon":-71.0703318,"lat":48.3939238,"elevation":[]}]}],"tooSloped":false},{"duration":603,"startTime":1522700805000,"endTime":1522701408000,"walkTime":432,"transitTime":169,"waitingTime":2,"walkDistance":547.847541349623,"walkLimitExceeded":false,"elevationLost":0.0,"elevationGained":0.0,"transfers":0,"legs":[{"startTime":1522700805000,"endTime":1522701070000,"departureDelay":0,"arrivalDelay":0,"realTime":false,"distance":333.941,"pathway":false,"mode":"WALK","route":"","agencyTimeZoneOffset":-14400000,"interlineWithPreviousLeg":false,"from":{"name":"Origin","lon":-71.053365,"lat":48.390845,"departure":1522700805000,"orig":"","vertexType":"NORMAL"},"to":{"name":"Roitelets / Faucons","stopId":"1:1522","stopCode":"1522","lon":-71.053785,"lat":48.393094,"arrival":1522701070000,"departure":1522701071000,"zoneId":"NA","stopIndex":28,"stopSequence":29,"vertexType":"TRANSIT"},"legGeometry":{"points":"}hjfHxrtpLFu@aCi@y@Mo@CiALgC^K?MpC","length":9},"rentedBike":false,"transitLeg":false,"duration":265.0,"steps":[{"distance":21.172,"relativeDirection":"DEPART","streetName":"road","absoluteDirection":"EAST","stayOn":false,"area":false,"bogusName":false,"lon":-71.05340964555734,"lat":48.39071694601113,"elevation":[]},{"distance":258.317,"relativeDirection":"LEFT","streetName":"Rue des Faucons","absoluteDirection":"NORTH","stayOn":false,"area":false,"bogusName":false,"lon":-71.0531303,"lat":48.390674000000004,"elevation":[]},{"distance":54.452,"relativeDirection":"LEFT","streetName":"Rue Des Roitelets","absoluteDirection":"WEST","stayOn":false,"area":false,"bogusName":false,"lon":-71.053066,"lat":48.392967600000006,"elevation":[]}]},{"startTime":1522701071000,"endTime":1522701240000,"departureDelay":0,"arrivalDelay":0,"realTime":false,"distance":1156.8161632984247,"pathway":false,"mode":"BUS","route":"415S","agencyName":"Société de Transport du Saguenay","agencyUrl":"http://ville.saguenay.ca/fr/services-aux-citoyens/transport-sts","agencyTimeZoneOffset":-14400000,"routeColor":"8B0000","routeType":3,"routeId":"1:415S","routeTextColor":"FFFFFF","interlineWithPreviousLeg":false,"tripBlockId":"68","headsign":"Costco","agencyId":"0","tripId":"1:218587","serviceDate":"20180402","from":{"name":"Roitelets / Faucons","stopId":"1:1522","stopCode":"1522","lon":-71.053785,"lat":48.393094,"arrival":1522701070000,"departure":1522701071000,"zoneId":"NA","stopIndex":28,"stopSequence":29,"vertexType":"TRANSIT"},"to":{"name":"Roitelets / Sapins","stopId":"1:1513","stopCode":"1513","lon":-71.069396,"lat":48.393523,"arrival":1522701240000,"departure":1522701241000,"zoneId":"NA","stopIndex":30,"stopSequence":31,"vertexType":"TRANSIT"},"legGeometry":{"points":"gwjfHhutpLSvDMtBQtDWrHIDStGCb@ErCD\\Ah@KbNCz@ClFCtA?vABb@LxAVvAb@lARf@NZJ`@Hz@Bx@Ax@Ep@O`AS|@_@`AONEJ","length":32},"routeShortName":"415S","routeLongName":"Term. Chic / Costco","rentedBike":false,"transitLeg":true,"duration":169.0,"steps":[]},{"startTime":1522701241000,"endTime":1522701408000,"departureDelay":0,"arrivalDelay":0,"realTime":false,"distance":213.79,"pathway":false,"mode":"WALK","route":"","agencyTimeZoneOffset":-14400000,"interlineWithPreviousLeg":false,"from":{"name":"Roitelets / Sapins","stopId":"1:1513","stopCode":"1513","lon":-71.069396,"lat":48.393523,"arrival":1522701240000,"departure":1522701241000,"zoneId":"NA","stopIndex":30,"stopSequence":31,"vertexType":"TRANSIT"},"to":{"name":"Destination","lon":-71.071285,"lat":48.392917,"arrival":1522701408000,"orig":"","vertexType":"NORMAL"},"legGeometry":{"points":"ezjfH`wwpLoAzCABGPNNJL`DtD","length":7},"rentedBike":false,"transitLeg":false,"duration":167.0,"steps":[{"distance":81.964,"relativeDirection":"DEPART","streetName":"Rue Des Roitelets","absoluteDirection":"NORTHWEST","stayOn":false,"area":false,"bogusName":false,"lon":-71.06944914116431,"lat":48.393476769189846,"elevation":[]},{"distance":131.826,"relativeDirection":"LEFT","streetName":"Boulevard Talbot","absoluteDirection":"SOUTHWEST","stayOn":false,"area":false,"bogusName":false,"lon":-71.0703318,"lat":48.3939238,"elevation":[]}]}],"tooSloped":false}]},"debugOutput":{"precalculationTime":17,"pathCalculationTime":11,"pathTimes":[3,5,3],"renderingTime":0,"totalTime":28,"timedOut":false},"elevationMetadata":{"ellipsoidToGeoidDifference":-28.885904201182168,"geoidElevation":false}}