{"requestParameters":{"date":"2018/04/02","walkSpeed":"1.33","walkReluctance":"2.0","fromPlace":"48.390845,-71.053365","maxWalkDistance":"3000","waitReluctance":"1.0","carSpeed":"33","numItineraries":"3","waitAtBeginningFactor":"0.4","mode":"TRANSIT,WALK","ignoreRealtimeUpdates":"false","stairsReluctance":"2.0","toPlace":"48.418311,-71.070214","time":"15:0:00"},"plan":{"date":1522695600000,"from":{"name":"Origin","lon":-71.053365,"lat":48.390845,"orig":"","vertexType":"NORMAL"},"to":{"name":"Destination","lon":-71.070214,"lat":48.418311,"orig":"","vertexType":"NORMAL"},"itineraries":[{"duration":1556,"startTime":1522695986000,"endTime":1522697542000,"walkTime":652,"transitTime":902,"waitingTime":2,"walkDistance":826.600255634185,"walkLimitExceeded":false,"elevationLost":0.0,"elevationGained":0.0,"transfers":0,"legs":[{"startTime":1522695986000,"endTime":1522696210000,"departureDelay":0,"arrivalDelay":0,"realTime":false,"distance":278.66499999999996,"pathway":false,"mode":"WALK","route":"","agencyTimeZoneOffset":-14400000,"interlineWithPreviousLeg":false,"from":{"name":"Origin","lon":-71.053365,"lat":48.390845,"departure":1522695986000,"orig":"","vertexType":"NORMAL"},"to":{"name":"Roitelets / Faucons","stopId":"1:1545","stopCode":"1545","lon":-71.052988,"lat":48.392905,"arrival":1522696210000,"departure":1522696211000,"zoneId":"NA","stopIndex":31,"stopSequence":32,"vertexType":"TRANSIT"},"legGeometry":{"points":"}hjfHxrtpLFu@aCi@y@Mo@CiALgC^@M","length":8},"rentedBike":false,"transitLeg":false,"duration":224.0,"steps":[{"distance":21.172,"relativeDirection":"DEPART","streetName":"road","absoluteDirection":"EAST","stayOn":false,"area":false,"bogusName":false,"lon":-71.05340964555734,"lat":48.39071694601113,"elevation":[]},{"distance":251.68900000000002,"relativeDirection":"LEFT","streetName":"Rue des Faucons","absoluteDirection":"NORTH","stayOn":false,"area":false,"bogusName":false,"lon":-71.0531303,"lat":48.390674000000004,"elevation":[]},{"distance":5.804,"relativeDirection":"RIGHT","streetName":"bike path","absoluteDirection":"EAST","stayOn":false,"area":false,"bogusName":true,"lon":-71.0530677,"lat":48.392908000000006,"elevation":[]}]},{"startTime":1522696211000,"endTime":1522696320000,"departureDelay":0,"arrivalDelay":0,"realTime":false,"distance":1227.4847917962438,"pathway":false,"mode":"BUS","route":"15","agencyName":"Société de Transport du Saguenay","agencyUrl":"http://ville.saguenay.ca/fr/services-aux-citoyens/transport-sts","agencyTimeZoneOffset":-14400000,"routeColor":"FF00FF","routeType":3,"routeId":"1:15","routeTextColor":"FFFFFF","interlineWithPreviousLeg":false,"tripBlockId":"31","headsign":"Talbot / Barrette","agencyId":"0","tripId":"1:218138","serviceDate":"20180402","from":{"name":"Roitelets / Faucons","stopId":"1:1545","stopCode":"1545","lon":-71.052988,"lat":48.392905,"arrival":1522696210000,"departure":1522696211000,"zoneId":"NA","stopIndex":31,"stopSequence":32,"vertexType":"TRANSIT"},"to":{"name":"Roitelets / Sapins","stopId":"1:1543","stopCode":"1543","lon":-71.069553,"lat":48.393375,"arrival":1522696320000,"departure":1522696320000,"zoneId":"NA","stopIndex":35,"stopSequence":36,"vertexType":"TRANSIT"},"legGeometry":{"points":"wvjfHdptpLsBre@?DWbOAn@?nEGnM@H\\hCzA~ELvAAlAi@jDo@nB","length":14},"routeShortName":"15","routeLongName":"Term. Chic / Costco","rentedBike":false,"transitLeg":true,"duration":109.0,"steps":[]},{"startTime":1522696320000,"endTime":1522697113000,"departureDelay":0,"arrivalDelay":0,"realTime":false,"distance":6401.5413726287925,"pathway":false,"mode":"BUS","route":"14","agencyName":"Société de Transport du Saguenay","agencyUrl":"http://ville.saguenay.ca/fr/services-aux-citoyens/transport-sts","agencyTimeZoneOffset":-14400000,"routeColor":"C0C000","routeType":3,"routeId":"1:14","routeTextColor":"000000","interlineWithPreviousLeg":true,"tripBlockId":"31","headsign":"Terminus Chicoutimi","agencyId":"0","tripId":"1:218139","serviceDate":"20180402","from":{"name":"Roitelets / Sapins","stopId":"1:1513","stopCode":"1513","lon":-71.069396,"lat":48.393523,"arrival":1522696320000,"departure":1522696320000,"zoneId":"NA","stopIndex":0,"stopSequence":1,"vertexType":"TRANSIT"},"to":{"name":"Jolliet / Audet","stopId":"1:522","stopCode":"522","lon":-71.07278,"lat":48.420244,"arrival":1522697113000,"departure":1522697114000,"zoneId":"NA","stopIndex":27,"stopSequence":28,"vertexType":"TRANSIT"},"legGeometry":{"points":"azjfHfwwpLiEfLuBzFsAnDgGzSWfAcD`Mi@dCgChLmCzMwGd\\aDxOdFtFhCtCdDY|F_On@aB`B_GNoBvAyT|@sNuAyAuF}F}AaB_BkAC@qC\\gAWiBwBiKgMiCwEgEyHCGy@uB}@rAa@nAc@lFEf@mGvUYfAqCs@ICMCqFmDc@s@mAkBuEoESUgAhDiAfD}@zDyAcA_@Um@U{AWgB_Au@s@EEsBkCqFgF{IiI][aBhE}@}@oBmBwE{EwE{Ej@mB","length":68},"routeShortName":"14","routeLongName":"Coopérative","rentedBike":false,"transitLeg":true,"duration":793.0,"steps":[]},{"startTime":1522697114000,"endTime":1522697542000,"departureDelay":0,"arrivalDelay":0,"realTime":false,"distance":547.7829999999999,"pathway":false,"mode":"WALK","route":"","agencyTimeZoneOffset":-14400000,"interlineWithPreviousLeg":false,"from":{"name":"Jolliet / Audet","stopId":"1:522","stopCode":"522","lon":-71.07278,"lat":48.420244,"arrival":1522697113000,"departure":1522697114000,"zoneId":"NA","stopIndex":27,"stopSequence":28,"vertexType":"TRANSIT"},"to":{"name":"Destination","lon":-71.070214,"lat":48.418311,"arrival":1522697542000,"orig":"","vertexType":"NORMAL"},"legGeometry":{"points":"cbpfHfkxpLZ}@bAkCn@}AfBwEZi@PSVa@V[FE\\Y^Y^Kn@MV?b@BN?APGl@Q`@[l@c@zAEV","length":23},"rentedBike":false,"transitLeg":false,"duration":428.0,"steps":[{"distance":435.82499999999993,"relativeDirection":"DEPART","streetName":"Rue Jolliet","absoluteDirection":"SOUTHEAST","stayOn":false,"area":false,"bogusName":false,"lon":-71.07267835560184,"lat":48.420345859294756,"elevation":[]},{"distance":111.958,"relativeDirection":"RIGHT","streetName":"service road","absoluteDirection":"WEST","stayOn":false,"area":false,"bogusName":false,"lon":-71.0690988,"lat":48.4175072,"elevation":[]}]}],"tooSloped":false},{"duration":1535,"startTime":1522696210000,"endTime":1522697745000,"walkTime":741,"transitTime":792,"waitingTime":2,"walkDistance":941.2020526244462,"walkLimitExceeded":false,"elevationLost":0.0,"elevationGained":0.0,"transfers":0,"legs":[{"startTime":1522696210000,"endTime":1522696434000,"departureDelay":0,"arrivalDelay":0,"realTime":false,"distance":278.66499999999996,"pathway":false,"mode":"WALK","route":"","agencyTimeZoneOffset":-14400000,"interlineWithPreviousLeg":false,"from":{"name":"Origin","lon":-71.053365,"lat":48.390845,"departure":1522696210000,"orig":"","vertexType":"NORMAL"},"to":{"name":"Roitelets / Faucons","stopId":"1:1545","stopCode":"1545","lon":-71.052988,"lat":48.392905,"arrival":1522696434000,"departure":1522696435000,"zoneId":"NA","stopIndex":4,"stopSequence":5,"vertexType":"TRANSIT"},"legGeometry":{"points":"}hjfHxrtpLFu@aCi@y@Mo@CiALgC^@M","length":8},"rentedBike":false,"transitLeg":false,"duration":224.0,"steps":[{"distance":21.172,"relativeDirection":"DEPART","streetName":"road","absoluteDirection":"EAST","stayOn":false,"area":false,"bogusName":false,"lon":-71.05340964555734,"lat":48.39071694601113,"elevation":[]},{"distance":251.68900000000002,"relativeDirection":"LEFT","streetName":"Rue des Faucons","absoluteDirection":"NORTH","stayOn":false,"area":false,"bogusName":false,"lon":-71.0531303,"lat":48.390674000000004,"elevation":[]},{"distance":5.804,"relativeDirection":"RIGHT","streetName":"bike path","absoluteDirection":"EAST","stayOn":false,"area":false,"bogusName":true,"lon":-71.0530677,"lat":48.392908000000006,"elevation":[]}]},{"startTime":1522696435000,"endTime":1522697227000,"departureDelay":0,"arrivalDelay":0,"realTime":false,"distance":4758.776865906926,"pathway":false,"mode":"BUS","route":"15","agencyName":"Société de Transport du Saguenay","agencyUrl":"http://ville.saguenay.ca/fr/services-aux-citoyens/transport-sts","agencyTimeZoneOffset":-14400000,"routeColor":"FF00FF","routeType":3,"routeId":"1:15","routeTextColor":"FFFFFF","interlineWithPreviousLeg":false,"tripBlockId":"30","headsign":"Terminus Chicoutimi","agencyId":"0","tripId":"1:218104","serviceDate":"20180402","from":{"name":"Roitelets / Faucons","stopId":"1:1545","stopCode":"1545","lon":-71.052988,"lat":48.392905,"arrival":1522696434000,"departure":1522696435000,"zoneId":"NA","stopIndex":4,"stopSequence":5,"vertexType":"TRANSIT"},"to":{"name":"Bégin / Youville","stopId":"1:581","stopCode":"581","lon":-71.065739,"lat":48.414902,"arrival":1522697227000,"departure":1522697228000,"zoneId":"NA","stopIndex":25,"stopSequence":26,"vertexType":"TRANSIT"},"legGeometry":{"points":"{vjfHdptpL@]Cu@GcAKu@Q_ASo@a@y@a@o@MOUUeCqBiDsDqE{EiAcAcB_AqBgA_AQaBSaBG_@Bu@FG?h@fNKnDpCfBkAzDgA}@y@q@sDy@GAeGT~@~KKrKyAnL[hBUxAm@nCcAlDeCvGmA|CUr@}@~A_@\\_DvCEZcA|@UP_@d@Yl@oBdFeCxG_CfGYVQXS\\dK|HlFZbC\\p@zA\\rB@hBiArG{BNw@FiG}@iDwAECcCcBo@y@sEeGe@o@qAa@m@MoB?C@}BZwAc@oA_Bs@gDCKZ{Di@QECc@_@sAkAoBwB_EcE","length":88},"routeShortName":"15","routeLongName":"Term. Chic / Costco","rentedBike":false,"transitLeg":true,"duration":792.0,"steps":[]},{"startTime":1522697228000,"endTime":1522697745000,"departureDelay":0,"arrivalDelay":0,"realTime":false,"distance":662.316,"pathway":false,"mode":"WALK","route":"","agencyTimeZoneOffset":-14400000,"interlineWithPreviousLeg":false,"from":{"name":"Bégin / Youville","stopId":"1:581","stopCode":"581","lon":-71.065739,"lat":48.414902,"arrival":1522697227000,"departure":1522697228000,"zoneId":"NA","stopIndex":25,"stopSequence":26,"vertexType":"TRANSIT"},"to":{"name":"Destination","lon":-71.070214,"lat":48.418311,"arrival":1522697745000,"orig":"","vertexType":"NORMAL"},"legGeometry":{"points":"i`ofHj`wpLGGsCqCMOkAdDGReAvCu@xBeAT]x@o@nBe@nBYx@V?b@BN?APGl@Q`@[l@c@zAEV","length":22},"rentedBike":false,"transitLeg":false,"duration":517.0,"steps":[{"distance":113.747,"relativeDirection":"DEPART","streetName":"Rue Bégin","absoluteDirection":"NORTHEAST","stayOn":false,"area":false,"bogusName":false,"lon":-71.06581464642983,"lat":48.41493511820995,"elevation":[]},{"distance":205.419,"relativeDirection":"LEFT","streetName":"Rue Dubé","absoluteDirection":"NORTHWEST","stayOn":false,"area":false,"bogusName":false,"lon":-71.06496530000001,"lat":48.4157887,"elevation":[]},{"distance":188.869,"relativeDirection":"RIGHT","streetName":"path","absoluteDirection":"NORTH","stayOn":false,"area":false,"bogusName":true,"lon":-71.0672681,"lat":48.416826400000005,"elevation":[]},{"distance":42.323,"relativeDirection":"HARD_LEFT","streetName":"Rue Jolliet","absoluteDirection":"SOUTH","stayOn":false,"area":false,"bogusName":false,"lon":-71.069079,"lat":48.417887500000006,"elevation":[]},{"distance":111.958,"relativeDirection":"RIGHT","streetName":"service road","absoluteDirection":"WEST","stayOn":false,"area":false,"bogusName":false,"lon":-71.0690988,"lat":48.4175072,"elevation":[]}]}],"tooSloped":false},{"duration":1556,"startTime":1522697786000,"endTime":1522699342000,"walkTime":652,"transitTime":902,"waitingTime":2,"walkDistance":826.600255634185,"walkLimitExceeded":false,"elevationLost":0.0,"elevationGained":0.0,"transfers":0,"legs":[{"startTime":1522697786000,"endTime":1522698010000,"departureDelay":0,"arrivalDelay":0,"realTime":false,"distance":278.66499999999996,"pathway":false,"mode":"WALK","route":"","agencyTimeZoneOffset":-14400000,"interlineWithPreviousLeg":false,"from":{"name":"Origin","lon":-71.053365,"lat":48.390845,"departure":1522697786000,"orig":"","vertexType":"NORMAL"},"to":{"name":"Roitelets / Faucons","stopId":"1:1545","stopCode":"1545","lon":-71.052988,"lat":48.392905,"arrival":1522698010000,"departure":1522698011000,"zoneId":"NA","stopIndex":31,"stopSequence":32,"vertexType":"TRANSIT"},"legGeometry":{"points":"}hjfHxrtpLFu@aCi@y@Mo@CiALgC^@M","length":8},"rentedBike":false,"transitLeg":false,"duration":224.0,"steps":[{"distance":21.172,"relativeDirection":"DEPART","streetName":"road","absoluteDirection":"EAST","stayOn":false,"area":false,"bogusName":false,"lon":-71.05340964555734,"lat":48.39071694601113,"elevation":[]},{"distance":251.68900000000002,"relativeDirection":"LEFT","streetName":"Rue des Faucons","absoluteDirection":"NORTH","stayOn":false,"area":false,"bogusName":false,"lon":-71.0531303,"lat":48.390674000000004,"elevation":[]},{"distance":5.804,"relativeDirection":"RIGHT","streetName":"bike path","absoluteDirection":"EAST","stayOn":false,"area":false,"bogusName":true,"lon":-71.0530677,"lat":48.392908000000006,"elevation":[]}]},{"startTime":1522698011000,"endTime":1522698120000,"departureDelay":0,"arrivalDelay":0,"realTime":false,"distance":1227.4847917962438,"pathway":false,"mode":"BUS","route":"15","agencyName":"Société de Transport du Saguenay","agencyUrl":"http://ville.saguenay.ca/fr/services-aux-citoyens/transport-sts","agencyTimeZoneOffset":-14400000,"routeColor":"FF00FF","routeType":3,"routeId":"1:15","routeTextColor":"FFFFFF","interlineWithPreviousLeg":false,"tripBlockId":"33","headsign":"Talbot / Barrette","agencyId":"0","tripId":"1:218189","serviceDate":"20180402","from":{"name":"Roitelets / Faucons","stopId":"1:1545","stopCode":"1545","lon":-71.052988,"lat":48.392905,"arrival":1522698010000,"departure":1522698011000,"zoneId":"NA","stopIndex":31,"stopSequence":32,"vertexType":"TRANSIT"},"to":{"name":"Roitelets / Sapins","stopId":"1:1543","stopCode":"1543","lon":-71.069553,"lat":48.393375,"arrival":1522698120000,"departure":1522698120000,"zoneId":"NA","stopIndex":35,"stopSequence":36,"vertexType":"TRANSIT"},"legGeometry":{"points":"wvjfHdptpLsBre@?DWbOAn@?nEGnM@H\\hCzA~ELvAAlAi@jDo@nB","length":14},"routeShortName":"15","routeLongName":"Term. Chic / Costco","rentedBike":false,"transitLeg":true,"duration":109.0,"steps":[]},{"startTime":1522698120000,"endTime":1522698913000,"departureDelay":0,"arrivalDelay":0,"realTime":false,"distance":6401.5413726287925,"pathway":false,"mode":"BUS","route":"14","agencyName":"Société de Transport du Saguenay","agencyUrl":"http://ville.saguenay.ca/fr/services-aux-citoyens/transport-sts","agencyTimeZoneOffset":-14400000,"routeColor":"C0C000","routeType":3,"routeId":"1:14","routeTextColor":"000000","interlineWithPreviousLeg":true,"tripBlockId":"33","headsign":"Terminus Chicoutimi","agencyId":"0","tripId":"1:218190","serviceDate":"20180402","from":{"name":"Roitelets / Sapins","stopId":"1:1513","stopCode":"1513","lon":-71.069396,"lat":48.393523,"arrival":1522698120000,"departure":1522698120000,"zoneId":"NA","stopIndex":0,"stopSequence":1,"vertexType":"TRANSIT"},"to":{"name":"Jolliet / Audet","stopId":"1:522","stopCode":"522","lon":-71.07278,"lat":48.420244,"arrival":1522698913000,"departure":1522698914000,"zoneId":"NA","stopIndex":27,"stopSequence":28,"vertexType":"TRANSIT"},"legGeometry":{"points":"azjfHfwwpLiEfLuBzFsAnDgGzSWfAcD`Mi@dCgChLmCzMwGd\\aDxOdFtFhCtCdDY|F_On@aB`B_GNoBvAyT|@sNuAyAuF}F}AaB_BkAC@qC\\gAWiBwBiKgMiCwEgEyHCGy@uB}@rAa@nAc@lFEf@mGvUYfAqCs@ICMCqFmDc@s@mAkBuEoESUgAhDiAfD}@zDyAcA_@Um@U{AWgB_Au@s@EEsBkCqFgF{IiI][aBhE}@}@oBmBwE{EwE{Ej@mB","length":68},"routeShortName":"14","routeLongName":"Coopérative","rentedBike":false,"transitLeg":true,"duration":793.0,"steps":[]},{"startTime":1522698914000,"endTime":1522699342000,"departureDelay":0,"arrivalDelay":0,"realTime":false,"distance":547.7829999999999,"pathway":false,"mode":"WALK","route":"","agencyTimeZoneOffset":-14400000,"interlineWithPreviousLeg":false,"from":{"name":"Jolliet / Audet","stopId":"1:522","stopCode":"522","lon":-71.07278,"lat":48.420244,"arrival":1522698913000,"departure":1522698914000,"zoneId":"NA","stopIndex":27,"stopSequence":28,"vertexType":"TRANSIT"},"to":{"name":"Destination","lon":-71.070214,"lat":48.418311,"arrival":1522699342000,"orig":"","vertexType":"NORMAL"},"legGeometry":{"points":"cbpfHfkxpLZ}@bAkCn@}AfBwEZi@PSVa@V[FE\\Y^Y^Kn@MV?b@BN?APGl@Q`@[l@c@zAEV","length":23},"rentedBike":false,"transitLeg":false,"duration":428.0,"steps":[{"distance":435.82499999999993,"relativeDirection":"DEPART","streetName":"Rue Jolliet","absoluteDirection":"SOUTHEAST","stayOn":false,"area":false,"bogusName":false,"lon":-71.07267835560184,"lat":48.420345859294756,"elevation":[]},{"distance":111.958,"relativeDirection":"RIGHT","streetName":"service road","absoluteDirection":"WEST","stayOn":false,"area":false,"bogusName":false,"lon":-71.0690988,"lat":48.4175072,"elevation":[]}]}],"tooSloped":false}]},"debugOutput":{"precalculationTime":25,"pathCalculationTime":18,"pathTimes":[10,4,4],"renderingTime":0,"totalTime":43,"timedOut":false},"elevationMetadata":{"ellipsoidToGeoidDifference":-28.885904201182168,"geoidElevation":false}}