{"requestParameters":{"date":"2018/04/02","walkSpeed":"1.33","walkReluctance":"2.0","fromPlace":"48.398144,-71.067317","maxWalkDistance":"3000","waitReluctance":"1.0","carSpeed":"33","numItineraries":"3","waitAtBeginningFactor":"0.4","mode":"TRANSIT,WALK","ignoreRealtimeUpdates":"false","stairsReluctance":"2.0","toPlace":"48.388993,-71.047484","time":"21:0:00"},"plan":{"date":1522717200000,"from":{"name":"Origin","lon":-71.067317,"lat":48.398144,"orig":"","vertexType":"NORMAL"},"to":{"name":"Destination","lon":-71.047484,"lat":48.388993,"orig":"","vertexType":"NORMAL"},"itineraries":[{"duration":1555,"startTime":1522718598000,"endTime":1522720153000,"walkTime":1236,"transitTime":317,"waitingTime":2,"walkDistance":1605.5985563870229,"walkLimitExceeded":false,"elevationLost":0.0,"elevationGained":0.0,"transfers":0,"legs":[{"startTime":1522718598000,"endTime":1522719293000,"departureDelay":0,"arrivalDelay":0,"realTime":false,"distance":906.7520000000001,"pathway":false,"mode":"WALK","route":"","agencyTimeZoneOffset":-14400000,"interlineWithPreviousLeg":false,"from":{"name":"Origin","lon":-71.067317,"lat":48.398144,"departure":1522718598000,"orig":"","vertexType":"NORMAL"},"to":{"name":"Saguenéens / Maristes","stopId":"1:1999","stopCode":"1999","lon":-71.06394,"lat":48.405813,"arrival":1522719293000,"departure":1522719294000,"zoneId":"NA","stopIndex":21,"stopSequence":22,"vertexType":"TRANSIT"},"legGeometry":{"points":"qzkfHtnwpLeAeBk@cA{@c@u@AgFn@_BS}CiCgGgFs@[CCaBu@}BaAGEOIiAaDcA~@","length":17},"rentedBike":false,"transitLeg":false,"duration":695.0,"steps":[{"distance":862.48,"relativeDirection":"DEPART","streetName":"Rue Des Maristes","absoluteDirection":"NORTHEAST","stayOn":false,"area":false,"bogusName":false,"lon":-71.068100696125,"lat":48.398659241052954,"elevation":[]},{"distance":44.272,"relativeDirection":"LEFT","streetName":"Rue des Saguenéens","absoluteDirection":"NORTHWEST","stayOn":false,"area":false,"bogusName":false,"lon":-71.0637066,"lat":48.4054395,"elevation":[]}]},{"startTime":1522719294000,"endTime":1522719611000,"departureDelay":0,"arrivalDelay":0,"realTime":false,"distance":2527.2404517188693,"pathway":false,"mode":"BUS","route":"15","agencyName":"Société de Transport du Saguenay","agencyUrl":"http://ville.saguenay.ca/fr/services-aux-citoyens/transport-sts","agencyTimeZoneOffset":-14400000,"routeColor":"FF00FF","routeType":3,"routeId":"1:15","routeTextColor":"FFFFFF","interlineWithPreviousLeg":false,"tripBlockId":"33","headsign":"Talbot / Barrette","agencyId":"0","tripId":"1:218201","serviceDate":"20180402","from":{"name":"Saguenéens / Maristes","stopId":"1:1999","stopCode":"1999","lon":-71.06394,"lat":48.405813,"arrival":1522719293000,"departure":1522719294000,"zoneId":"NA","stopIndex":21,"stopSequence":22,"vertexType":"TRANSIT"},"to":{"name":"Roitelets / Faucons","stopId":"1:1545","stopCode":"1545","lon":-71.052988,"lat":48.392905,"arrival":1522719611000,"departure":1522719612000,"zoneId":"NA","stopIndex":31,"stopSequence":32,"vertexType":"TRANSIT"},"legGeometry":{"points":"{emfHpvvpLtDsH~DeItC{FnBoLbCaO?qLa@uJzF`ApF~@~@PzAgEeDcBf@qAWcKUqEx@Ef@ExDVjDxAFBrBvAfGjG@BjCzC~DxC@@zA~Cb@fCJlC?B","length":31},"routeShortName":"15","routeLongName":"Term. Chic / Costco","rentedBike":false,"transitLeg":true,"duration":317.0,"steps":[]},{"startTime":1522719612000,"endTime":1522720153000,"departureDelay":0,"arrivalDelay":0,"realTime":false,"distance":698.7239999999999,"pathway":false,"mode":"WALK","route":"","agencyTimeZoneOffset":-14400000,"interlineWithPreviousLeg":false,"from":{"name":"Roitelets / Faucons","stopId":"1:1545","stopCode":"1545","lon":-71.052988,"lat":48.392905,"arrival":1522719611000,"departure":1522719612000,"zoneId":"NA","stopIndex":31,"stopSequence":32,"vertexType":"TRANSIT"},"to":{"name":"Destination","lon":-71.047484,"lat":48.388993,"arrival":1522720153000,"orig":"","vertexType":"NORMAL"},"legGeometry":{"points":"qvjfHfptpLALfC_@hAMn@BBoB?kABOFMREbADZCd@Qd@[d@c@d@_AV_AJu@Dc@@{@@O@MRoAn@kEp@cDFSLe@","length":27},"rentedBike":false,"transitLeg":false,"duration":541.0,"steps":[{"distance":5.804,"relativeDirection":"DEPART","streetName":"bike path","absoluteDirection":"WEST","stayOn":false,"area":false,"bogusName":true,"lon":-71.05299114869932,"lat":48.392896082309186,"elevation":[]},{"distance":145.017,"relativeDirection":"LEFT","streetName":"Rue des Faucons","absoluteDirection":"SOUTH","stayOn":false,"area":false,"bogusName":false,"lon":-71.0530677,"lat":48.392908000000006,"elevation":[]},{"distance":547.903,"relativeDirection":"LEFT","streetName":"Rue des Jaseurs","absoluteDirection":"EAST","stayOn":false,"area":false,"bogusName":false,"lon":-71.0528563,"lat":48.3916157,"elevation":[]}]}],"tooSloped":false},{"duration":2089,"startTime":1522720088000,"endTime":1522722177000,"walkTime":1612,"transitTime":475,"waitingTime":2,"walkDistance":2082.948466156171,"walkLimitExceeded":false,"elevationLost":0.0,"elevationGained":0.0,"transfers":0,"legs":[{"startTime":1522720088000,"endTime":1522721159000,"departureDelay":0,"arrivalDelay":0,"realTime":false,"distance":1383.938,"pathway":false,"mode":"WALK","route":"","agencyTimeZoneOffset":-14400000,"interlineWithPreviousLeg":false,"from":{"name":"Origin","lon":-71.067317,"lat":48.398144,"departure":1522720088000,"orig":"","vertexType":"NORMAL"},"to":{"name":"Ballantyne / Garon","stopId":"1:539","stopCode":"539","lon":-71.076506,"lat":48.404894,"arrival":1522721159000,"departure":1522721160000,"zoneId":"NA","stopIndex":20,"stopSequence":21,"vertexType":"TRANSIT"},"legGeometry":{"points":"qzkfHtnwpLeAeBk@cA{@c@u@AgFn@_BS}CiCmA`DYr@kB`Fc@hAkB~EX`@t@jA`@hAB\\Fr@BjA?RUl@aA\\gAQ_A`F@v@BpAXr@HTU\\g@p@a@pAMzAUpC","length":33},"rentedBike":false,"transitLeg":false,"duration":1071.0,"steps":[{"distance":439.309,"relativeDirection":"DEPART","streetName":"Rue Des Maristes","absoluteDirection":"NORTHEAST","stayOn":false,"area":false,"bogusName":false,"lon":-71.068100696125,"lat":48.398659241052954,"elevation":[]},{"distance":337.264,"relativeDirection":"LEFT","streetName":"Rue Saint-Siméon","absoluteDirection":"NORTHWEST","stayOn":false,"area":false,"bogusName":false,"lon":-71.066518,"lat":48.4022202,"elevation":[]},{"distance":259.696,"relativeDirection":"LEFT","streetName":"Rue Des Éboulements","absoluteDirection":"SOUTHWEST","stayOn":false,"area":false,"bogusName":false,"lon":-71.0702093,"lat":48.404007400000005,"elevation":[]},{"distance":176.20199999999997,"relativeDirection":"LEFT","streetName":"Rue Bégin","absoluteDirection":"NORTHWEST","stayOn":false,"area":false,"bogusName":false,"lon":-71.0723037,"lat":48.4041535,"elevation":[]},{"distance":171.46699999999998,"relativeDirection":"RIGHT","streetName":"Rue Ballantyne","absoluteDirection":"NORTHWEST","stayOn":false,"area":false,"bogusName":false,"lon":-71.07449910000001,"lat":48.4042602,"elevation":[]}]},{"startTime":1522721160000,"endTime":1522721460000,"departureDelay":0,"arrivalDelay":0,"realTime":false,"distance":4054.0750637910855,"pathway":false,"mode":"BUS","route":"14","agencyName":"Société de Transport du Saguenay","agencyUrl":"http://ville.saguenay.ca/fr/services-aux-citoyens/transport-sts","agencyTimeZoneOffset":-14400000,"routeColor":"C0C000","routeType":3,"routeId":"1:14","routeTextColor":"000000","interlineWithPreviousLeg":false,"tripBlockId":"30","headsign":"Talbot / Barrette","agencyId":"0","tripId":"1:218117","serviceDate":"20180402","from":{"name":"Ballantyne / Garon","stopId":"1:539","stopCode":"539","lon":-71.076506,"lat":48.404894,"arrival":1522721159000,"departure":1522721160000,"zoneId":"NA","stopIndex":20,"stopSequence":21,"vertexType":"TRANSIT"},"to":{"name":"Roitelets / Sapins","stopId":"1:1543","stopCode":"1543","lon":-71.069553,"lat":48.393375,"arrival":1522721460000,"departure":1522721460000,"zoneId":"NA","stopIndex":35,"stopSequence":36,"vertexType":"TRANSIT"},"legGeometry":{"points":"{amfHbcypLb@gFd@_B`A}@tEvJBDvC`FtJ|LLNlClC|@^hCYVExCjCb@d@vE`F`BhB?pHaBhRqAbLK~@qBxFqB|FcC~GyC\\aDkDcFsF~CgOtGm[j@oCvEoSl@_CxCmLjAeFpCeKrByHfAqCvH_SLa@","length":39},"routeShortName":"14","routeLongName":"Coopérative","rentedBike":false,"transitLeg":true,"duration":300.0,"steps":[]},{"startTime":1522721460000,"endTime":1522721635000,"departureDelay":0,"arrivalDelay":0,"realTime":false,"distance":1227.4847917962775,"pathway":false,"mode":"BUS","route":"15","agencyName":"Société de Transport du Saguenay","agencyUrl":"http://ville.saguenay.ca/fr/services-aux-citoyens/transport-sts","agencyTimeZoneOffset":-14400000,"routeColor":"FF00FF","routeType":3,"routeId":"1:15","routeTextColor":"FFFFFF","interlineWithPreviousLeg":true,"tripBlockId":"30","headsign":"Terminus Chicoutimi","agencyId":"0","tripId":"1:218118","serviceDate":"20180402","from":{"name":"Roitelets / Sapins","stopId":"1:1543","stopCode":"1543","lon":-71.069553,"lat":48.393375,"arrival":1522721460000,"departure":1522721460000,"zoneId":"NA","stopIndex":0,"stopSequence":1,"vertexType":"TRANSIT"},"to":{"name":"Roitelets / Faucons","stopId":"1:1545","stopCode":"1545","lon":-71.052988,"lat":48.392905,"arrival":1522721635000,"departure":1522721636000,"zoneId":"NA","stopIndex":4,"stopSequence":5,"vertexType":"TRANSIT"},"legGeometry":{"points":"_zjfHfwwpLx@}BHa@NaADq@@y@Cy@I{@Ka@O[Sg@c@mAWwAMyA?EC]?wABuABmFB{@BmDFuH@i@F[FsC@c@TuGEGVsHPuDLuBXsFDoA?W","length":34},"routeShortName":"15","routeLongName":"Term. Chic / Costco","rentedBike":false,"transitLeg":true,"duration":175.0,"steps":[]},{"startTime":1522721636000,"endTime":1522722177000,"departureDelay":0,"arrivalDelay":0,"realTime":false,"distance":698.7239999999999,"pathway":false,"mode":"WALK","route":"","agencyTimeZoneOffset":-14400000,"interlineWithPreviousLeg":false,"from":{"name":"Roitelets / Faucons","stopId":"1:1545","stopCode":"1545","lon":-71.052988,"lat":48.392905,"arrival":1522721635000,"departure":1522721636000,"zoneId":"NA","stopIndex":4,"stopSequence":5,"vertexType":"TRANSIT"},"to":{"name":"Destination","lon":-71.047484,"lat":48.388993,"arrival":1522722177000,"orig":"","vertexType":"NORMAL"},"legGeometry":{"points":"qvjfHfptpLALfC_@hAMn@BBoB?kABOFMREbADZCd@Qd@[d@c@d@_AV_AJu@Dc@@{@@O@MRoAn@kEp@cDFSLe@","length":27},"rentedBike":false,"transitLeg":false,"duration":541.0,"steps":[{"distance":5.804,"relativeDirection":"DEPART","streetName":"bike path","absoluteDirection":"WEST","stayOn":false,"area":false,"bogusName":true,"lon":-71.05299114869932,"lat":48.392896082309186,"elevation":[]},{"distance":145.017,"relativeDirection":"LEFT","streetName":"Rue des Faucons","absoluteDirection":"SOUTH","stayOn":false,"area":false,"bogusName":false,"lon":-71.0530677,"lat":48.392908000000006,"elevation":[]},{"distance":547.903,"relativeDirection":"LEFT","streetName":"Rue des Jaseurs","absoluteDirection":"EAST","stayOn":false,"area":false,"bogusName":false,"lon":-71.0528563,"lat":48.3916157,"elevation":[]}]}],"tooSloped":false},{"duration":1555,"startTime":1522722198000,"endTime":1522723753000,"walkTime":1236,"transitTime":317,"waitingTime":2,"walkDistance":1605.5985563870229,"walkLimitExceeded":false,"elevationLost":0.0,"elevationGained":0.0,"transfers":0,"legs":[{"startTime":1522722198000,"endTime":1522722893000,"departureDelay":0,"arrivalDelay":0,"realTime":false,"distance":906.7520000000001,"pathway":false,"mode":"WALK","route":"","agencyTimeZoneOffset":-14400000,"interlineWithPreviousLeg":false,"from":{"name":"Origin","lon":-71.067317,"lat":48.398144,"departure":1522722198000,"orig":"","vertexType":"NORMAL"},"to":{"name":"Saguenéens / Maristes","stopId":"1:1999","stopCode":"1999","lon":-71.06394,"lat":48.405813,"arrival":1522722893000,"departure":1522722894000,"zoneId":"NA","stopIndex":21,"stopSequence":22,"vertexType":"TRANSIT"},"legGeometry":{"points":"qzkfHtnwpLeAeBk@cA{@c@u@AgFn@_BS}CiCgGgFs@[CCaBu@}BaAGEOIiAaDcA~@","length":17},"rentedBike":false,"transitLeg":false,"duration":695.0,"steps":[{"distance":862.48,"relativeDirection":"DEPART","streetName":"Rue Des Maristes","absoluteDirection":"NORTHEAST","stayOn":false,"area":false,"bogusName":false,"lon":-71.068100696125,"lat":48.398659241052954,"elevation":[]},{"distance":44.272,"relativeDirection":"LEFT","streetName":"Rue des Saguenéens","absoluteDirection":"NORTHWEST","stayOn":false,"area":false,"bogusName":false,"lon":-71.0637066,"lat":48.4054395,"elevation":[]}]},{"startTime":1522722894000,"endTime":1522723211000,"departureDelay":0,"arrivalDelay":0,"realTime":false,"distance":2527.2404517188693,"pathway":false,"mode":"BUS","route":"15","agencyName":"Société de Transport du Saguenay","agencyUrl":"http://ville.saguenay.ca/fr/services-aux-citoyens/transport-sts","agencyTimeZoneOffset":-14400000,"routeColor":"FF00FF","routeType":3,"routeId":"1:15","routeTextColor":"FFFFFF","interlineWithPreviousLeg":false,"tripBlockId":"33","headsign":"Talbot / Barrette","agencyId":"0","tripId":"1:218203","serviceDate":"20180402","from":{"name":"Saguenéens / Maristes","stopId":"1:1999","stopCode":"1999","lon":-71.06394,"lat":48.405813,"arrival":1522722893000,"departure":1522722894000,"zoneId":"NA","stopIndex":21,"stopSequence":22,"vertexType":"TRANSIT"},"to":{"name":"Roitelets / Faucons","stopId":"1:1545","stopCode":"1545","lon":-71.052988,"lat":48.392905,"arrival":1522723211000,"departure":1522723212000,"zoneId":"NA","stopIndex":31,"stopSequence":32,"vertexType":"TRANSIT"},"legGeometry":{"points":"{emfHpvvpLtDsH~DeItC{FnBoLbCaO?qLa@uJzF`ApF~@~@PzAgEeDcBf@qAWcKUqEx@Ef@ExDVjDxAFBrBvAfGjG@BjCzC~DxC@@zA~Cb@fCJlC?B","length":31},"routeShortName":"15","routeLongName":"Term. Chic / Costco","rentedBike":false,"transitLeg":true,"duration":317.0,"steps":[]},{"startTime":1522723212000,"endTime":1522723753000,"departureDelay":0,"arrivalDelay":0,"realTime":false,"distance":698.7239999999999,"pathway":false,"mode":"WALK","route":"","agencyTimeZoneOffset":-14400000,"interlineWithPreviousLeg":false,"from":{"name":"Roitelets / Faucons","stopId":"1:1545","stopCode":"1545","lon":-71.052988,"lat":48.392905,"arrival":1522723211000,"departure":1522723212000,"zoneId":"NA","stopIndex":31,"stopSequence":32,"vertexType":"TRANSIT"},"to":{"name":"Destination","lon":-71.047484,"lat":48.388993,"arrival":1522723753000,"orig":"","vertexType":"NORMAL"},"legGeometry":{"points":"qvjfHfptpLALfC_@hAMn@BBoB?kABOFMREbADZCd@Qd@[d@c@d@_AV_AJu@Dc@@{@@O@MRoAn@kEp@cDFSLe@","length":27},"rentedBike":false,"transitLeg":false,"duration":541.0,"steps":[{"distance":5.804,"relativeDirection":"DEPART","streetName":"bike path","absoluteDirection":"WEST","stayOn":false,"area":false,"bogusName":true,"lon":-71.05299114869932,"lat":48.392896082309186,"elevation":[]},{"distance":145.017,"relativeDirection":"LEFT","streetName":"Rue des Faucons","absoluteDirection":"SOUTH","stayOn":false,"area":false,"bogusName":false,"lon":-71.0530677,"lat":48.392908000000006,"elevation":[]},{"distance":547.903,"relativeDirection":"LEFT","streetName":"Rue des Jaseurs","absoluteDirection":"EAST","stayOn":false,"area":false,"bogusName":false,"lon":-71.0528563,"lat":48.3916157,"elevation":[]}]}],"tooSloped":false}]},"debugOutput":{"precalculationTime":26,"pathCalculationTime":65,"pathTimes":[32,17,16],"renderingTime":1,"totalTime":92,"timedOut":false},"elevationMetadata":{"ellipsoidToGeoidDifference":-28.885904201182168,"geoidElevation":false}}