{"requestParameters":{"date":"2018/04/02","walkSpeed":"1.33","walkReluctance":"2.0","fromPlace":"48.393944,-71.065148","maxWalkDistance":"3000","waitReluctance":"1.0","carSpeed":"33","numItineraries":"3","waitAtBeginningFactor":"0.4","mode":"TRANSIT,WALK","ignoreRealtimeUpdates":"false","stairsReluctance":"2.0","toPlace":"48.394631,-71.073569","time":"11:0:00"},"plan":{"date":1522681200000,"from":{"name":"Origin","lon":-71.065148,"lat":48.393944,"orig":"","vertexType":"NORMAL"},"to":{"name":"Destination","lon":-71.073569,"lat":48.394631,"orig":"","vertexType":"NORMAL"},"itineraries":[{"duration":529,"startTime":1522681200000,"endTime":1522681729000,"walkTime":529,"transitTime":0,"waitingTime":0,"walkDistance":687.5621578926989,"walkLimitExceeded":false,"elevationLost":0.0,"elevationGained":0.0,"transfers":0,"legs":[{"startTime":1522681200000,"endTime":1522681729000,"departureDelay":0,"arrivalDelay":0,"realTime":false,"distance":687.499,"pathway":false,"mode":"WALK","route":"","agencyTimeZoneOffset":-14400000,"interlineWithPreviousLeg":false,"from":{"name":"Origin","lon":-71.065148,"lat":48.393944,"departure":1522681200000,"orig":"","vertexType":"NORMAL"},"to":{"name":"Destination","lon":-71.073569,"lat":48.394631,"arrival":1522681729000,"orig":"","vertexType":"NORMAL"},"legGeometry":{"points":"}|jfHb~vpLp@K\\lCv@hCDN`@tAJhAErAOzAWlA[|@Eh@}A|DQb@?H?PuCvH{@bCOb@","length":19},"rentedBike":false,"transitLeg":false,"duration":529.0,"steps":[{"distance":28.108,"relativeDirection":"DEPART","streetName":"Rue des Merlebleus","absoluteDirection":"SOUTH","stayOn":false,"area":false,"bogusName":false,"lon":-71.06545172008987,"lat":48.39391306597579,"elevation":[]},{"distance":415.756,"relativeDirection":"RIGHT","streetName":"Rue Des Roitelets","absoluteDirection":"WEST","stayOn":false,"area":false,"bogusName":false,"lon":-71.065394,"lat":48.393663200000006,"elevation":[]},{"distance":16.674,"relativeDirection":"CONTINUE","streetName":"Boulevard Barrette","absoluteDirection":"NORTHWEST","stayOn":false,"area":false,"bogusName":false,"lon":-71.07041720000001,"lat":48.393846,"elevation":[]},{"distance":226.96099999999998,"relativeDirection":"SLIGHTLY_LEFT","streetName":"bike path","absoluteDirection":"WEST","stayOn":false,"area":false,"bogusName":true,"lon":-71.0705975,"lat":48.3939363,"elevation":[]}]}],"tooSloped":false},{"duration":316,"startTime":1522681854000,"endTime":1522682170000,"walkTime":285,"transitTime":29,"waitingTime":2,"walkDistance":365.2351278178991,"walkLimitExceeded":false,"elevationLost":0.0,"elevationGained":0.0,"transfers":0,"legs":[{"startTime":1522681854000,"endTime":1522681890000,"departureDelay":0,"arrivalDelay":0,"realTime":false,"distance":37.535000000000004,"pathway":false,"mode":"WALK","route":"","agencyTimeZoneOffset":-14400000,"interlineWithPreviousLeg":false,"from":{"name":"Origin","lon":-71.065148,"lat":48.393944,"departure":1522681854000,"orig":"","vertexType":"NORMAL"},"to":{"name":"Roitelets / Merlebleus","stopId":"1:39","stopCode":"39","lon":-71.065369,"lat":48.393546,"arrival":1522681890000,"departure":1522681891000,"zoneId":"NA","stopIndex":34,"stopSequence":35,"vertexType":"TRANSIT"},"legGeometry":{"points":"}|jfHb~vpLp@KLE?D","length":4},"rentedBike":false,"transitLeg":false,"duration":36.0,"steps":[{"distance":28.108,"relativeDirection":"DEPART","streetName":"Rue des Merlebleus","absoluteDirection":"SOUTH","stayOn":false,"area":false,"bogusName":false,"lon":-71.06545172008987,"lat":48.39391306597579,"elevation":[]},{"distance":7.54,"relativeDirection":"CONTINUE","streetName":"path","absoluteDirection":"SOUTH","stayOn":false,"area":false,"bogusName":true,"lon":-71.065394,"lat":48.393663200000006,"elevation":[]},{"distance":1.887,"relativeDirection":"RIGHT","streetName":"bike path","absoluteDirection":"WEST","stayOn":true,"area":false,"bogusName":true,"lon":-71.06536870000001,"lat":48.393597500000006,"elevation":[]}]},{"startTime":1522681891000,"endTime":1522681920000,"departureDelay":0,"arrivalDelay":0,"realTime":false,"distance":309.50955384693896,"pathway":false,"mode":"BUS","route":"15","agencyName":"Société de Transport du Saguenay","agencyUrl":"http://ville.saguenay.ca/fr/services-aux-citoyens/transport-sts","agencyTimeZoneOffset":-14400000,"routeColor":"FF00FF","routeType":3,"routeId":"1:15","routeTextColor":"FFFFFF","interlineWithPreviousLeg":false,"tripBlockId":"31","headsign":"Talbot / Barrette","agencyId":"0","tripId":"1:218130","serviceDate":"20180402","from":{"name":"Roitelets / Merlebleus","stopId":"1:39","stopCode":"39","lon":-71.065369,"lat":48.393546,"arrival":1522681890000,"departure":1522681891000,"zoneId":"NA","stopIndex":34,"stopSequence":35,"vertexType":"TRANSIT"},"to":{"name":"Roitelets / Sapins","stopId":"1:1543","stopCode":"1543","lon":-71.069553,"lat":48.393375,"arrival":1522681920000,"departure":1522681921000,"zoneId":"NA","stopIndex":35,"stopSequence":36,"vertexType":"TRANSIT"},"legGeometry":{"points":"k{jfH|}vpL\\hCzA~ELvAAlAi@jDo@nB","length":7},"routeShortName":"15","routeLongName":"Term. Chic / Costco","rentedBike":false,"transitLeg":true,"duration":29.0,"steps":[]},{"startTime":1522681921000,"endTime":1522682170000,"departureDelay":0,"arrivalDelay":0,"realTime":false,"distance":327.64899999999994,"pathway":false,"mode":"WALK","route":"","agencyTimeZoneOffset":-14400000,"interlineWithPreviousLeg":false,"from":{"name":"Roitelets / Sapins","stopId":"1:1543","stopCode":"1543","lon":-71.069553,"lat":48.393375,"arrival":1522681920000,"departure":1522681921000,"zoneId":"NA","stopIndex":35,"stopSequence":36,"vertexType":"TRANSIT"},"to":{"name":"Destination","lon":-71.073569,"lat":48.394631,"arrival":1522682170000,"orig":"","vertexType":"NORMAL"},"legGeometry":{"points":"oyjfHxwwpL?@mAzCMHC@Qb@?H?PuCvH{@bCOb@","length":11},"rentedBike":false,"transitLeg":false,"duration":249.0,"steps":[{"distance":327.64899999999994,"relativeDirection":"DEPART","streetName":"bike path","absoluteDirection":"NORTHWEST","stayOn":false,"area":false,"bogusName":true,"lon":-71.0695674967601,"lat":48.39336056343373,"elevation":[]}]}],"tooSloped":false}]},"debugOutput":{"precalculationTime":28,"pathCalculationTime":20,"pathTimes":[4,12,4],"renderingTime":0,"totalTime":48,"timedOut":false},"elevationMetadata":{"ellipsoidToGeoidDifference":-28.885904201182168,"geoidElevation":false}}