{"requestParameters":{"date":"2018/04/02","walkSpeed":"1.33","walkReluctance":"2.0","fromPlace":"48.420356,-71.045389","maxWalkDistance":"3000","waitReluctance":"1.0","carSpeed":"33","numItineraries":"3","waitAtBeginningFactor":"0.4","mode":"TRANSIT,WALK","ignoreRealtimeUpdates":"false","stairsReluctance":"2.0","toPlace":"48.423148,-71.052406","time":"16:0:00"},"plan":{"date":1522699200000,"from":{"name":"Origin","lon":-71.045389,"lat":48.420356,"orig":"","vertexType":"NORMAL"},"to":{"name":"Destination","lon":-71.052406,"lat":48.423148,"orig":"","vertexType":"NORMAL"},"itineraries":[{"duration":582,"startTime":1522699200000,"endTime":1522699782000,"walkTime":582,"transitTime":0,"waitingTime":0,"walkDistance":745.1074511236104,"walkLimitExceeded":false,"elevationLost":0.0,"elevationGained":0.0,"transfers":0,"legs":[{"startTime":1522699200000,"endTime":1522699782000,"departureDelay":0,"arrivalDelay":0,"realTime":false,"distance":744.9770000000002,"pathway":false,"mode":"WALK","route":"","agencyTimeZoneOffset":-14400000,"interlineWithPreviousLeg":false,"from":{"name":"Origin","lon":-71.045389,"lat":48.420356,"departure":1522699200000,"orig":"","vertexType":"NORMAL"},"to":{"name":"Destination","lon":-71.052406,"lat":48.423148,"arrival":1522699782000,"orig":"","vertexType":"NORMAL"},"legGeometry":{"points":"mcpfHj_spLeAvCoBnFSj@o@bBm@dBo@vA]`@aA~@GDi@f@}@Xs@DSx@I`@Cf@JHd@ZJFYbC\\PZPLb@HTBbB?f@","length":26},"rentedBike":false,"transitLeg":false,"duration":582.0,"steps":[{"distance":491.25800000000004,"relativeDirection":"DEPART","streetName":"Chemin Sydenham","absoluteDirection":"NORTHWEST","stayOn":false,"area":false,"bogusName":false,"lon":-71.04517840074834,"lat":48.420551114753,"elevation":[]},{"distance":52.897,"relativeDirection":"LEFT","streetName":"path","absoluteDirection":"NORTHWEST","stayOn":false,"area":false,"bogusName":true,"lon":-71.0496871,"lat":48.42357620000001,"elevation":[]},{"distance":37.986,"relativeDirection":"LEFT","streetName":"road","absoluteDirection":"SOUTHWEST","stayOn":true,"area":false,"bogusName":true,"lon":-71.0503491,"lat":48.423747000000006,"elevation":[]},{"distance":162.83599999999998,"relativeDirection":"RIGHT","streetName":"service road","absoluteDirection":"WEST","stayOn":true,"area":false,"bogusName":true,"lon":-71.0505725,"lat":48.4234394,"elevation":[]}]}],"tooSloped":false},{"duration":486,"startTime":1522699348000,"endTime":1522699834000,"walkTime":454,"transitTime":30,"waitingTime":2,"walkDistance":576.1994511236103,"walkLimitExceeded":false,"elevationLost":0.0,"elevationGained":0.0,"transfers":0,"legs":[{"startTime":1522699348000,"endTime":1522699354000,"departureDelay":0,"arrivalDelay":0,"realTime":false,"distance":7.89,"pathway":false,"mode":"WALK","route":"","agencyTimeZoneOffset":-14400000,"interlineWithPreviousLeg":false,"from":{"name":"Origin","lon":-71.045389,"lat":48.420356,"departure":1522699348000,"orig":"","vertexType":"NORMAL"},"to":{"name":"nouveau","stopId":"1:2287","stopCode":"2287","lon":-71.044979,"lat":48.420614,"arrival":1522699354000,"departure":1522699355000,"zoneId":"NA","stopIndex":12,"stopSequence":13,"vertexType":"TRANSIT"},"legGeometry":{"points":"mcpfHj_spLHO","length":2},"rentedBike":false,"transitLeg":false,"duration":6.0,"steps":[{"distance":7.89,"relativeDirection":"DEPART","streetName":"Chemin Sydenham","absoluteDirection":"SOUTHEAST","stayOn":false,"area":false,"bogusName":false,"lon":-71.04517840074834,"lat":48.420551114753,"elevation":[]}]},{"startTime":1522699355000,"endTime":1522699385000,"departureDelay":0,"arrivalDelay":0,"realTime":false,"distance":184.89163916433773,"pathway":false,"mode":"BUS","route":"10","agencyName":"Société de Transport du Saguenay","agencyUrl":"http://ville.saguenay.ca/fr/services-aux-citoyens/transport-sts","agencyTimeZoneOffset":-14400000,"routeColor":"0000FF","routeType":3,"routeId":"1:10","routeTextColor":"FFFFFF","interlineWithPreviousLeg":false,"tripBlockId":"28","headsign":"Terminus Chicoutimi","agencyId":"0","tripId":"1:218044","serviceDate":"20180402","from":{"name":"nouveau","stopId":"1:2287","stopCode":"2287","lon":-71.044979,"lat":48.420614,"arrival":1522699354000,"departure":1522699355000,"zoneId":"NA","stopIndex":12,"stopSequence":13,"vertexType":"TRANSIT"},"to":{"name":"nouveau","stopId":"1:2285","stopCode":"2285","lon":-71.04706,"lat":48.42154,"arrival":1522699385000,"departure":1522699386000,"zoneId":"NA","stopIndex":13,"stopSequence":14,"vertexType":"TRANSIT"},"legGeometry":{"points":"_cpfH~~rpLaEvK","length":2},"routeShortName":"10","routeLongName":"Notre-Dame du Saguenay","rentedBike":false,"transitLeg":true,"duration":30.0,"steps":[]},{"startTime":1522699386000,"endTime":1522699834000,"departureDelay":0,"arrivalDelay":0,"realTime":false,"distance":568.179,"pathway":false,"mode":"WALK","route":"","agencyTimeZoneOffset":-14400000,"interlineWithPreviousLeg":false,"from":{"name":"nouveau","stopId":"1:2285","stopCode":"2285","lon":-71.04706,"lat":48.42154,"arrival":1522699385000,"departure":1522699386000,"zoneId":"NA","stopIndex":13,"stopSequence":14,"vertexType":"TRANSIT"},"to":{"name":"Destination","lon":-71.052406,"lat":48.423148,"arrival":1522699834000,"orig":"","vertexType":"NORMAL"},"legGeometry":{"points":"cipfHrkspLSj@o@bBm@dBo@vA]`@aA~@GDi@f@}@Xs@DSx@I`@Cf@JHd@ZJFYbC\\PZPLb@HTBbB?f@","length":24},"rentedBike":false,"transitLeg":false,"duration":448.0,"steps":[{"distance":314.46000000000004,"relativeDirection":"DEPART","streetName":"Chemin Sydenham","absoluteDirection":"NORTHWEST","stayOn":false,"area":false,"bogusName":false,"lon":-71.04713656370923,"lat":48.42146718345403,"elevation":[]},{"distance":52.897,"relativeDirection":"LEFT","streetName":"path","absoluteDirection":"NORTHWEST","stayOn":false,"area":false,"bogusName":true,"lon":-71.0496871,"lat":48.42357620000001,"elevation":[]},{"distance":37.986,"relativeDirection":"LEFT","streetName":"road","absoluteDirection":"SOUTHWEST","stayOn":true,"area":false,"bogusName":true,"lon":-71.0503491,"lat":48.423747000000006,"elevation":[]},{"distance":162.83599999999998,"relativeDirection":"RIGHT","streetName":"service road","absoluteDirection":"WEST","stayOn":true,"area":false,"bogusName":true,"lon":-71.0505725,"lat":48.4234394,"elevation":[]}]}],"tooSloped":false},{"duration":486,"startTime":1522701148000,"endTime":1522701634000,"walkTime":454,"transitTime":30,"waitingTime":2,"walkDistance":576.1994511236103,"walkLimitExceeded":false,"elevationLost":0.0,"elevationGained":0.0,"transfers":0,"legs":[{"startTime":1522701148000,"endTime":1522701154000,"departureDelay":0,"arrivalDelay":0,"realTime":false,"distance":7.89,"pathway":false,"mode":"WALK","route":"","agencyTimeZoneOffset":-14400000,"interlineWithPreviousLeg":false,"from":{"name":"Origin","lon":-71.045389,"lat":48.420356,"departure":1522701148000,"orig":"","vertexType":"NORMAL"},"to":{"name":"nouveau","stopId":"1:2287","stopCode":"2287","lon":-71.044979,"lat":48.420614,"arrival":1522701154000,"departure":1522701155000,"zoneId":"NA","stopIndex":12,"stopSequence":13,"vertexType":"TRANSIT"},"legGeometry":{"points":"mcpfHj_spLHO","length":2},"rentedBike":false,"transitLeg":false,"duration":6.0,"steps":[{"distance":7.89,"relativeDirection":"DEPART","streetName":"Chemin Sydenham","absoluteDirection":"SOUTHEAST","stayOn":false,"area":false,"bogusName":false,"lon":-71.04517840074834,"lat":48.420551114753,"elevation":[]}]},{"startTime":1522701155000,"endTime":1522701185000,"departureDelay":0,"arrivalDelay":0,"realTime":false,"distance":184.89163916433773,"pathway":false,"mode":"BUS","route":"10","agencyName":"Société de Transport du Saguenay","agencyUrl":"http://ville.saguenay.ca/fr/services-aux-citoyens/transport-sts","agencyTimeZoneOffset":-14400000,"routeColor":"0000FF","routeType":3,"routeId":"1:10","routeTextColor":"FFFFFF","interlineWithPreviousLeg":false,"tripBlockId":"27","headsign":"Terminus Chicoutimi","agencyId":"0","tripId":"1:218019","serviceDate":"20180402","from":{"name":"nouveau","stopId":"1:2287","stopCode":"2287","lon":-71.044979,"lat":48.420614,"arrival":1522701154000,"departure":1522701155000,"zoneId":"NA","stopIndex":12,"stopSequence":13,"vertexType":"TRANSIT"},"to":{"name":"nouveau","stopId":"1:2285","stopCode":"2285","lon":-71.04706,"lat":48.42154,"arrival":1522701185000,"departure":1522701186000,"zoneId":"NA","stopIndex":13,"stopSequence":14,"vertexType":"TRANSIT"},"legGeometry":{"points":"_cpfH~~rpLaEvK","length":2},"routeShortName":"10","routeLongName":"Notre-Dame du Saguenay","rentedBike":false,"transitLeg":true,"duration":30.0,"steps":[]},{"startTime":1522701186000,"endTime":1522701634000,"departureDelay":0,"arrivalDelay":0,"realTime":false,"distance":568.179,"pathway":false,"mode":"WALK","route":"","agencyTimeZoneOffset":-14400000,"interlineWithPreviousLeg":false,"from":{"name":"nouveau","stopId":"1:2285","stopCode":"2285","lon":-71.04706,"lat":48.42154,"arrival":1522701185000,"departure":1522701186000,"zoneId":"NA","stopIndex":13,"stopSequence":14,"vertexType":"TRANSIT"},"to":{"name":"Destination","lon":-71.052406,"lat":48.423148,"arrival":1522701634000,"orig":"","vertexType":"NORMAL"},"legGeometry":{"points":"cipfHrkspLSj@o@bBm@dBo@vA]`@aA~@GDi@f@}@Xs@DSx@I`@Cf@JHd@ZJFYbC\\PZPLb@HTBbB?f@","length":24},"rentedBike":false,"transitLeg":false,"duration":448.0,"steps":[{"distance":314.46000000000004,"relativeDirection":"DEPART","streetName":"Chemin Sydenham","absoluteDirection":"NORTHWEST","stayOn":false,"area":false,"bogusName":false,"lon":-71.04713656370923,"lat":48.42146718345403,"elevation":[]},{"distance":52.897,"relativeDirection":"LEFT","streetName":"path","absoluteDirection":"NORTHWEST","stayOn":false,"area":false,"bogusName":true,"lon":-71.0496871,"lat":48.42357620000001,"elevation":[]},{"distance":37.986,"relativeDirection":"LEFT","streetName":"road","absoluteDirection":"SOUTHWEST","stayOn":true,"area":false,"bogusName":true,"lon":-71.0503491,"lat":48.423747000000006,"elevation":[]},{"distance":162.83599999999998,"relativeDirection":"RIGHT","streetName":"service road","absoluteDirection":"WEST","stayOn":true,"area":false,"bogusName":true,"lon":-71.0505725,"lat":48.4234394,"elevation":[]}]}],"tooSloped":false}]},"debugOutput":{"precalculationTime":32,"pathCalculationTime":18,"pathTimes":[6,8,4],"renderingTime":1,"totalTime":51,"timedOut":false},"elevationMetadata":{"ellipsoidToGeoidDifference":-28.885904201182168,"geoidElevation":false}}