{"requestParameters":{"date":"2018/04/02","walkSpeed":"1.33","walkReluctance":"2.0","fromPlace":"48.388963,-71.046571","maxWalkDistance":"3000","waitReluctance":"1.0","carSpeed":"33","numItineraries":"3","waitAtBeginningFactor":"0.4","mode":"TRANSIT,WALK","ignoreRealtimeUpdates":"false","stairsReluctance":"2.0","toPlace":"48.395972,-71.10208799","time":"11:0:00"},"plan":{"date":1522681200000,"from":{"name":"Origin","lon":-71.046571,"lat":48.388963,"orig":"","vertexType":"NORMAL"},"to":{"name":"Destination","lon":-71.10208799,"lat":48.395972,"orig":"","vertexType":"NORMAL"},"itineraries":[{"duration":2554,"startTime":1522681222000,"endTime":1522683776000,"walkTime":2297,"transitTime":255,"waitingTime":2,"walkDistance":2975.8431729252593,"walkLimitExceeded":false,"elevationLost":0.0,"elevationGained":0.0,"transfers":0,"legs":[{"startTime":1522681222000,"endTime":1522681810000,"departureDelay":0,"arrivalDelay":0,"realTime":false,"distance":759.359,"pathway":false,"mode":"WALK","route":"","agencyTimeZoneOffset":-14400000,"interlineWithPreviousLeg":false,"from":{"name":"Origin","lon":-71.046571,"lat":48.388963,"departure":1522681222000,"orig":"","vertexType":"NORMAL"},"to":{"name":"Roitelets / Faucons","stopId":"1:1545","stopCode":"1545","lon":-71.052988,"lat":48.392905,"arrival":1522681810000,"departure":1522681811000,"zoneId":"NA","stopIndex":31,"stopSequence":32,"vertexType":"TRANSIT"},"legGeometry":{"points":"e~ifH|gspLAB_ApDGRq@bDo@jESnAALANAz@Eb@Kt@W~@e@~@e@b@e@Ze@P[BcAESDGLCN?jACnBo@CiALgC^@M","length":28},"rentedBike":false,"transitLeg":false,"duration":588.0,"steps":[{"distance":608.538,"relativeDirection":"DEPART","streetName":"Rue des Jaseurs","absoluteDirection":"NORTHWEST","stayOn":false,"area":false,"bogusName":false,"lon":-71.04654485247362,"lat":48.38899129747366,"elevation":[]},{"distance":145.017,"relativeDirection":"RIGHT","streetName":"Rue des Faucons","absoluteDirection":"NORTH","stayOn":false,"area":false,"bogusName":false,"lon":-71.0528563,"lat":48.3916157,"elevation":[]},{"distance":5.804,"relativeDirection":"RIGHT","streetName":"bike path","absoluteDirection":"EAST","stayOn":false,"area":false,"bogusName":true,"lon":-71.0530677,"lat":48.392908000000006,"elevation":[]}]},{"startTime":1522681811000,"endTime":1522681920000,"departureDelay":0,"arrivalDelay":0,"realTime":false,"distance":1227.4847917962438,"pathway":false,"mode":"BUS","route":"15","agencyName":"Société de Transport du Saguenay","agencyUrl":"http://ville.saguenay.ca/fr/services-aux-citoyens/transport-sts","agencyTimeZoneOffset":-14400000,"routeColor":"FF00FF","routeType":3,"routeId":"1:15","routeTextColor":"FFFFFF","interlineWithPreviousLeg":false,"tripBlockId":"31","headsign":"Talbot / Barrette","agencyId":"0","tripId":"1:218130","serviceDate":"20180402","from":{"name":"Roitelets / Faucons","stopId":"1:1545","stopCode":"1545","lon":-71.052988,"lat":48.392905,"arrival":1522681810000,"departure":1522681811000,"zoneId":"NA","stopIndex":31,"stopSequence":32,"vertexType":"TRANSIT"},"to":{"name":"Roitelets / Sapins","stopId":"1:1543","stopCode":"1543","lon":-71.069553,"lat":48.393375,"arrival":1522681920000,"departure":1522681920000,"zoneId":"NA","stopIndex":35,"stopSequence":36,"vertexType":"TRANSIT"},"legGeometry":{"points":"wvjfHdptpLsBre@?DWbOAn@?nEGnM@H\\hCzA~ELvAAlAi@jDo@nB","length":14},"routeShortName":"15","routeLongName":"Term. Chic / Costco","rentedBike":false,"transitLeg":true,"duration":109.0,"steps":[]},{"startTime":1522681920000,"endTime":1522682066000,"departureDelay":0,"arrivalDelay":0,"realTime":false,"distance":2001.932967403964,"pathway":false,"mode":"BUS","route":"14","agencyName":"Société de Transport du Saguenay","agencyUrl":"http://ville.saguenay.ca/fr/services-aux-citoyens/transport-sts","agencyTimeZoneOffset":-14400000,"routeColor":"C0C000","routeType":3,"routeId":"1:14","routeTextColor":"000000","interlineWithPreviousLeg":true,"tripBlockId":"31","headsign":"Terminus Chicoutimi","agencyId":"0","tripId":"1:218131","serviceDate":"20180402","from":{"name":"Roitelets / Sapins","stopId":"1:1513","stopCode":"1513","lon":-71.069396,"lat":48.393523,"arrival":1522681920000,"departure":1522681920000,"zoneId":"NA","stopIndex":0,"stopSequence":1,"vertexType":"TRANSIT"},"to":{"name":"Malraux / Pagnol","stopId":"1:441","stopCode":"441","lon":-71.09356,"lat":48.400447,"arrival":1522682066000,"departure":1522682067000,"zoneId":"NA","stopIndex":6,"stopSequence":7,"vertexType":"TRANSIT"},"legGeometry":{"points":"azjfHfwwpLiEfLuBzFsAnDgGzSWfAcD`Mi@dCgChLmCzMwGd\\aDxOdFtF","length":13},"routeShortName":"14","routeLongName":"Coopérative","rentedBike":false,"transitLeg":true,"duration":146.0,"steps":[]},{"startTime":1522682067000,"endTime":1522683776000,"departureDelay":0,"arrivalDelay":0,"realTime":false,"distance":2216.265,"pathway":false,"mode":"WALK","route":"","agencyTimeZoneOffset":-14400000,"interlineWithPreviousLeg":false,"from":{"name":"Malraux / Pagnol","stopId":"1:441","stopCode":"441","lon":-71.09356,"lat":48.400447,"arrival":1522682066000,"departure":1522682067000,"zoneId":"NA","stopIndex":6,"stopSequence":7,"vertexType":"TRANSIT"},"to":{"name":"Destination","lon":-71.10208799,"lat":48.395972,"arrival":1522683776000,"orig":"","vertexType":"NORMAL"},"legGeometry":{"points":"melfH`m|pLEEkF{Fa@jAA?{EvMy@tBGPsCrHpA~AbAjAf@h@z@dA~@dAf@j@HJvA`BLNf@l@hAnAvAbBxAdBFFd@h@NPPRBDfF`GRVHJjBrBBBBDv@~@^`@`ChCz@bA|CnDvBkG`@{Al@eCX_A{CyDM[Me@Au@cBL","length":47},"rentedBike":false,"transitLeg":false,"duration":1709.0,"steps":[{"distance":164.807,"relativeDirection":"DEPART","streetName":"Rue Malraux","absoluteDirection":"NORTHEAST","stayOn":false,"area":false,"bogusName":false,"lon":-71.0934459868607,"lat":48.400393574945504,"elevation":[]},{"distance":449.30899999999997,"relativeDirection":"LEFT","streetName":"Boulevard Barrette","absoluteDirection":"NORTHWEST","stayOn":false,"area":false,"bogusName":false,"lon":-71.0921587,"lat":48.401604500000005,"elevation":[]},{"distance":1145.264,"relativeDirection":"LEFT","streetName":"Boulevard Saint-Paul","absoluteDirection":"SOUTHWEST","stayOn":false,"area":false,"bogusName":false,"lon":-71.0971116,"lat":48.4039529,"elevation":[]},{"distance":241.414,"relativeDirection":"LEFT","streetName":"Rue de la Rupert","absoluteDirection":"SOUTHEAST","stayOn":false,"area":false,"bogusName":false,"lon":-71.1063412,"lat":48.395675000000004,"elevation":[]},{"distance":159.945,"relativeDirection":"LEFT","streetName":"Rue Brisay","absoluteDirection":"NORTHEAST","stayOn":false,"area":false,"bogusName":false,"lon":-71.1035583,"lat":48.394541000000004,"elevation":[]},{"distance":55.526,"relativeDirection":"LEFT","streetName":"Rue de la Caniapiscau","absoluteDirection":"NORTH","stayOn":false,"area":false,"bogusName":false,"lon":-71.10202290000001,"lat":48.395474500000006,"elevation":[]}]}],"tooSloped":false},{"duration":4087,"startTime":1522681446000,"endTime":1522685533000,"walkTime":1253,"transitTime":2412,"waitingTime":422,"walkDistance":1616.6677142797218,"walkLimitExceeded":false,"elevationLost":0.0,"elevationGained":0.0,"transfers":1,"legs":[{"startTime":1522681446000,"endTime":1522682034000,"departureDelay":0,"arrivalDelay":0,"realTime":false,"distance":759.359,"pathway":false,"mode":"WALK","route":"","agencyTimeZoneOffset":-14400000,"interlineWithPreviousLeg":false,"from":{"name":"Origin","lon":-71.046571,"lat":48.388963,"departure":1522681446000,"orig":"","vertexType":"NORMAL"},"to":{"name":"Roitelets / Faucons","stopId":"1:1545","stopCode":"1545","lon":-71.052988,"lat":48.392905,"arrival":1522682034000,"departure":1522682035000,"zoneId":"NA","stopIndex":4,"stopSequence":5,"vertexType":"TRANSIT"},"legGeometry":{"points":"e~ifH|gspLAB_ApDGRq@bDo@jESnAALANAz@Eb@Kt@W~@e@~@e@b@e@Ze@P[BcAESDGLCN?jACnBo@CiALgC^@M","length":28},"rentedBike":false,"transitLeg":false,"duration":588.0,"steps":[{"distance":608.538,"relativeDirection":"DEPART","streetName":"Rue des Jaseurs","absoluteDirection":"NORTHWEST","stayOn":false,"area":false,"bogusName":false,"lon":-71.04654485247362,"lat":48.38899129747366,"elevation":[]},{"distance":145.017,"relativeDirection":"RIGHT","streetName":"Rue des Faucons","absoluteDirection":"NORTH","stayOn":false,"area":false,"bogusName":false,"lon":-71.0528563,"lat":48.3916157,"elevation":[]},{"distance":5.804,"relativeDirection":"RIGHT","streetName":"bike path","absoluteDirection":"EAST","stayOn":false,"area":false,"bogusName":true,"lon":-71.0530677,"lat":48.392908000000006,"elevation":[]}]},{"startTime":1522682035000,"endTime":1522683480000,"departureDelay":0,"arrivalDelay":0,"realTime":false,"distance":7944.997750588074,"pathway":false,"mode":"BUS","route":"15","agencyName":"Société de Transport du Saguenay","agencyUrl":"http://ville.saguenay.ca/fr/services-aux-citoyens/transport-sts","agencyTimeZoneOffset":-14400000,"routeColor":"FF00FF","routeType":3,"routeId":"1:15","routeTextColor":"FFFFFF","interlineWithPreviousLeg":false,"tripBlockId":"30","headsign":"Terminus Chicoutimi","agencyId":"0","tripId":"1:218096","serviceDate":"20180402","from":{"name":"Roitelets / Faucons","stopId":"1:1545","stopCode":"1545","lon":-71.052988,"lat":48.392905,"arrival":1522682034000,"departure":1522682035000,"zoneId":"NA","stopIndex":4,"stopSequence":5,"vertexType":"TRANSIT"},"to":{"name":"Terminus Chicoutimi","stopId":"1:1289","stopCode":"1289","lon":-71.066163,"lat":48.428677,"arrival":1522683480000,"departure":1522683900000,"zoneId":"NA","stopIndex":39,"stopSequence":40,"vertexType":"TRANSIT"},"legGeometry":{"points":"{vjfHdptpL@]Cu@GcAKu@Q_ASo@a@y@a@o@MOUUeCqBiDsDqE{EiAcAcB_AqBgA_AQaBSaBG_@Bu@FG?h@fNKnDpCfBkAzDgA}@y@q@sDy@GAeGT~@~KKrKyAnL[hBUxAm@nCcAlDeCvGmA|CUr@}@~A_@\\_DvCEZcA|@UP_@d@Yl@oBdFeCxG_CfGYVQXS\\dK|HlFZbC\\p@zA\\rB@hBiArG{BNw@FiG}@iDwAECcCcBo@y@sEeGe@o@qAa@m@MoB?C@}BZwAc@oA_Bs@gDCKZ{Di@QECc@_@sAkAoBwB_EcE{A_BoAmAk@o@cCaCkIkIaJaJUUwBaCj@wCjAsCzGoG_CoHL{D_@kAqD{CQr@iAcAy@w@L{@wAuA_B_B_EpLDh@NbBVvCIxBg@`Am@l@Sb@a@rAqDqDmEkE]a@kAqAU|@WnKG|DGxDOdPKvJU|F?XQlJC~@ChAIzEcCOaIi@VwL","length":137},"routeShortName":"15","routeLongName":"Term. Chic / Costco","rentedBike":false,"transitLeg":true,"duration":1445.0,"steps":[]},{"startTime":1522683900000,"endTime":1522684867000,"departureDelay":0,"arrivalDelay":0,"realTime":false,"distance":5105.026131228896,"pathway":false,"mode":"BUS","route":"11","agencyName":"Société de Transport du Saguenay","agencyUrl":"http://ville.saguenay.ca/fr/services-aux-citoyens/transport-sts","agencyTimeZoneOffset":-14400000,"routeColor":"FF0000","routeType":3,"routeId":"1:11","routeTextColor":"FFFFFF","interlineWithPreviousLeg":false,"tripBlockId":"35","headsign":"Boul.Royaume/St-Pierre","agencyId":"0","tripId":"1:218252","serviceDate":"20180402","from":{"name":"Terminus Chicoutimi","stopId":"1:1289","stopCode":"1289","lon":-71.066163,"lat":48.428677,"arrival":1522683480000,"departure":1522683900000,"zoneId":"NA","stopIndex":0,"stopSequence":1,"vertexType":"TRANSIT"},"to":{"name":"St-Paul / Cossette","stopId":"1:122","stopCode":"122","lon":-71.103306,"lat":48.398662,"arrival":1522684867000,"departure":1522684868000,"zoneId":"NA","stopIndex":19,"stopSequence":20,"vertexType":"TRANSIT"},"legGeometry":{"points":"evqfHzcwpLk@?UhKfIh@dKp@GnDIfDOtEE~@Ff@x@rEF~@CbAALO~ADRNJXBr@DfGRPBPJLN@@FPFTBX?TE`BhBR@?J@NELKFOlAiDL[bA`AfIjIbGdGzDzD`A~An@`ApApBpClEvJrOR\\bAfBLa@t@]LjAVvAVbAVv@^bAXj@b@t@xEtGh@r@n@x@FDjA|AlBpCnJ|NNTX`@V`@eCtHpFjH{FhPcB|Ft@|CEAdCnEdHKrBz@lGiQ|CyI~IrJtAzAmKrWsE`LzJjL|P}d@Ri@hCpEpBdC","length":87},"routeShortName":"11","routeLongName":"Chic/Faubourg via St-Paul","rentedBike":false,"transitLeg":true,"duration":967.0,"steps":[]},{"startTime":1522684868000,"endTime":1522685533000,"departureDelay":0,"arrivalDelay":0,"realTime":false,"distance":857.1229999999999,"pathway":false,"mode":"WALK","route":"","agencyTimeZoneOffset":-14400000,"interlineWithPreviousLeg":false,"from":{"name":"St-Paul / Cossette","stopId":"1:122","stopCode":"122","lon":-71.103306,"lat":48.398662,"arrival":1522684867000,"departure":1522684868000,"zoneId":"NA","stopIndex":19,"stopSequence":20,"vertexType":"TRANSIT"},"to":{"name":"Destination","lon":-71.10208799,"lat":48.395972,"arrival":1522685533000,"orig":"","vertexType":"NORMAL"},"legGeometry":{"points":"{ykfHjk~pLJ_@HJjBrBBBBDv@~@^`@`ChCz@bA|CnDvBkG`@{Al@eCX_A{CyDM[Me@Au@cBL","length":20},"rentedBike":false,"transitLeg":false,"duration":665.0,"steps":[{"distance":13.735,"relativeDirection":"DEPART","streetName":"Rue Cossette","absoluteDirection":"SOUTHEAST","stayOn":false,"area":false,"bogusName":false,"lon":-71.10341204586585,"lat":48.398545146160764,"elevation":[]},{"distance":386.503,"relativeDirection":"RIGHT","streetName":"Boulevard Saint-Paul","absoluteDirection":"SOUTHWEST","stayOn":false,"area":false,"bogusName":false,"lon":-71.1032527,"lat":48.3984814,"elevation":[]},{"distance":241.414,"relativeDirection":"LEFT","streetName":"Rue de la Rupert","absoluteDirection":"SOUTHEAST","stayOn":false,"area":false,"bogusName":false,"lon":-71.1063412,"lat":48.395675000000004,"elevation":[]},{"distance":159.945,"relativeDirection":"LEFT","streetName":"Rue Brisay","absoluteDirection":"NORTHEAST","stayOn":false,"area":false,"bogusName":false,"lon":-71.1035583,"lat":48.394541000000004,"elevation":[]},{"distance":55.526,"relativeDirection":"LEFT","streetName":"Rue de la Caniapiscau","absoluteDirection":"NORTH","stayOn":false,"area":false,"bogusName":false,"lon":-71.10202290000001,"lat":48.395474500000006,"elevation":[]}]}],"tooSloped":false},{"duration":2554,"startTime":1522683022000,"endTime":1522685576000,"walkTime":2297,"transitTime":255,"waitingTime":2,"walkDistance":2975.8431729252593,"walkLimitExceeded":false,"elevationLost":0.0,"elevationGained":0.0,"transfers":0,"legs":[{"startTime":1522683022000,"endTime":1522683610000,"departureDelay":0,"arrivalDelay":0,"realTime":false,"distance":759.359,"pathway":false,"mode":"WALK","route":"","agencyTimeZoneOffset":-14400000,"interlineWithPreviousLeg":false,"from":{"name":"Origin","lon":-71.046571,"lat":48.388963,"departure":1522683022000,"orig":"","vertexType":"NORMAL"},"to":{"name":"Roitelets / Faucons","stopId":"1:1545","stopCode":"1545","lon":-71.052988,"lat":48.392905,"arrival":1522683610000,"departure":1522683611000,"zoneId":"NA","stopIndex":31,"stopSequence":32,"vertexType":"TRANSIT"},"legGeometry":{"points":"e~ifH|gspLAB_ApDGRq@bDo@jESnAALANAz@Eb@Kt@W~@e@~@e@b@e@Ze@P[BcAESDGLCN?jACnBo@CiALgC^@M","length":28},"rentedBike":false,"transitLeg":false,"duration":588.0,"steps":[{"distance":608.538,"relativeDirection":"DEPART","streetName":"Rue des Jaseurs","absoluteDirection":"NORTHWEST","stayOn":false,"area":false,"bogusName":false,"lon":-71.04654485247362,"lat":48.38899129747366,"elevation":[]},{"distance":145.017,"relativeDirection":"RIGHT","streetName":"Rue des Faucons","absoluteDirection":"NORTH","stayOn":false,"area":false,"bogusName":false,"lon":-71.0528563,"lat":48.3916157,"elevation":[]},{"distance":5.804,"relativeDirection":"RIGHT","streetName":"bike path","absoluteDirection":"EAST","stayOn":false,"area":false,"bogusName":true,"lon":-71.0530677,"lat":48.392908000000006,"elevation":[]}]},{"startTime":1522683611000,"endTime":1522683720000,"departureDelay":0,"arrivalDelay":0,"realTime":false,"distance":1227.4847917962438,"pathway":false,"mode":"BUS","route":"15","agencyName":"Société de Transport du Saguenay","agencyUrl":"http://ville.saguenay.ca/fr/services-aux-citoyens/transport-sts","agencyTimeZoneOffset":-14400000,"routeColor":"FF00FF","routeType":3,"routeId":"1:15","routeTextColor":"FFFFFF","interlineWithPreviousLeg":false,"tripBlockId":"33","headsign":"Talbot / Barrette","agencyId":"0","tripId":"1:218181","serviceDate":"20180402","from":{"name":"Roitelets / Faucons","stopId":"1:1545","stopCode":"1545","lon":-71.052988,"lat":48.392905,"arrival":1522683610000,"departure":1522683611000,"zoneId":"NA","stopIndex":31,"stopSequence":32,"vertexType":"TRANSIT"},"to":{"name":"Roitelets / Sapins","stopId":"1:1543","stopCode":"1543","lon":-71.069553,"lat":48.393375,"arrival":1522683720000,"departure":1522683720000,"zoneId":"NA","stopIndex":35,"stopSequence":36,"vertexType":"TRANSIT"},"legGeometry":{"points":"wvjfHdptpLsBre@?DWbOAn@?nEGnM@H\\hCzA~ELvAAlAi@jDo@nB","length":14},"routeShortName":"15","routeLongName":"Term. Chic / Costco","rentedBike":false,"transitLeg":true,"duration":109.0,"steps":[]},{"startTime":1522683720000,"endTime":1522683866000,"departureDelay":0,"arrivalDelay":0,"realTime":false,"distance":2001.932967403964,"pathway":false,"mode":"BUS","route":"14","agencyName":"Société de Transport du Saguenay","agencyUrl":"http://ville.saguenay.ca/fr/services-aux-citoyens/transport-sts","agencyTimeZoneOffset":-14400000,"routeColor":"C0C000","routeType":3,"routeId":"1:14","routeTextColor":"000000","interlineWithPreviousLeg":true,"tripBlockId":"33","headsign":"Terminus Chicoutimi","agencyId":"0","tripId":"1:218182","serviceDate":"20180402","from":{"name":"Roitelets / Sapins","stopId":"1:1513","stopCode":"1513","lon":-71.069396,"lat":48.393523,"arrival":1522683720000,"departure":1522683720000,"zoneId":"NA","stopIndex":0,"stopSequence":1,"vertexType":"TRANSIT"},"to":{"name":"Malraux / Pagnol","stopId":"1:441","stopCode":"441","lon":-71.09356,"lat":48.400447,"arrival":1522683866000,"departure":1522683867000,"zoneId":"NA","stopIndex":6,"stopSequence":7,"vertexType":"TRANSIT"},"legGeometry":{"points":"azjfHfwwpLiEfLuBzFsAnDgGzSWfAcD`Mi@dCgChLmCzMwGd\\aDxOdFtF","length":13},"routeShortName":"14","routeLongName":"Coopérative","rentedBike":false,"transitLeg":true,"duration":146.0,"steps":[]},{"startTime":1522683867000,"endTime":1522685576000,"departureDelay":0,"arrivalDelay":0,"realTime":false,"distance":2216.265,"pathway":false,"mode":"WALK","route":"","agencyTimeZoneOffset":-14400000,"interlineWithPreviousLeg":false,"from":{"name":"Malraux / Pagnol","stopId":"1:441","stopCode":"441","lon":-71.09356,"lat":48.400447,"arrival":1522683866000,"departure":1522683867000,"zoneId":"NA","stopIndex":6,"stopSequence":7,"vertexType":"TRANSIT"},"to":{"name":"Destination","lon":-71.10208799,"lat":48.395972,"arrival":1522685576000,"orig":"","vertexType":"NORMAL"},"legGeometry":{"points":"melfH`m|pLEEkF{Fa@jAA?{EvMy@tBGPsCrHpA~AbAjAf@h@z@dA~@dAf@j@HJvA`BLNf@l@hAnAvAbBxAdBFFd@h@NPPRBDfF`GRVHJjBrBBBBDv@~@^`@`ChCz@bA|CnDvBkG`@{Al@eCX_A{CyDM[Me@Au@cBL","length":47},"rentedBike":false,"transitLeg":false,"duration":1709.0,"steps":[{"distance":164.807,"relativeDirection":"DEPART","streetName":"Rue Malraux","absoluteDirection":"NORTHEAST","stayOn":false,"area":false,"bogusName":false,"lon":-71.0934459868607,"lat":48.400393574945504,"elevation":[]},{"distance":449.30899999999997,"relativeDirection":"LEFT","streetName":"Boulevard Barrette","absoluteDirection":"NORTHWEST","stayOn":false,"area":false,"bogusName":false,"lon":-71.0921587,"lat":48.401604500000005,"elevation":[]},{"distance":1145.264,"relativeDirection":"LEFT","streetName":"Boulevard Saint-Paul","absoluteDirection":"SOUTHWEST","stayOn":false,"area":false,"bogusName":false,"lon":-71.0971116,"lat":48.4039529,"elevation":[]},{"distance":241.414,"relativeDirection":"LEFT","streetName":"Rue de la Rupert","absoluteDirection":"SOUTHEAST","stayOn":false,"area":false,"bogusName":false,"lon":-71.1063412,"lat":48.395675000000004,"elevation":[]},{"distance":159.945,"relativeDirection":"LEFT","streetName":"Rue Brisay","absoluteDirection":"NORTHEAST","stayOn":false,"area":false,"bogusName":false,"lon":-71.1035583,"lat":48.394541000000004,"elevation":[]},{"distance":55.526,"relativeDirection":"LEFT","streetName":"Rue de la Caniapiscau","absoluteDirection":"NORTH","stayOn":false,"area":false,"bogusName":false,"lon":-71.10202290000001,"lat":48.395474500000006,"elevation":[]}]}],"tooSloped":false}]},"debugOutput":{"precalculationTime":11,"pathCalculationTime":35,"pathTimes":[21,7,7],"renderingTime":1,"totalTime":47,"timedOut":false},"elevationMetadata":{"ellipsoidToGeoidDifference":-28.885904201182168,"geoidElevation":false}}