{"requestParameters":{"date":"2018/04/02","walkSpeed":"1.33","walkReluctance":"2.0","fromPlace":"48.395972,-71.10208799","maxWalkDistance":"3000","waitReluctance":"1.0","carSpeed":"33","numItineraries":"3","waitAtBeginningFactor":"0.4","mode":"TRANSIT,WALK","ignoreRealtimeUpdates":"false","stairsReluctance":"2.0","toPlace":"48.39099,-71.054879","time":"11:30:00"},"plan":{"date":1522683000000,"from":{"name":"Origin","lon":-71.10208799,"lat":48.395972,"orig":"","vertexType":"NORMAL"},"to":{"name":"Destination","lon":-71.054879,"lat":48.39099,"orig":"","vertexType":"NORMAL"},"itineraries":[{"duration":2436,"startTime":1522683613000,"endTime":1522686049000,"walkTime":2119,"transitTime":315,"waitingTime":2,"walkDistance":2734.313969915521,"walkLimitExceeded":false,"elevationLost":0.0,"elevationGained":0.0,"transfers":0,"legs":[{"startTime":1522683613000,"endTime":1522685319000,"departureDelay":0,"arrivalDelay":0,"realTime":false,"distance":2211.7590000000005,"pathway":false,"mode":"WALK","route":"","agencyTimeZoneOffset":-14400000,"interlineWithPreviousLeg":false,"from":{"name":"Origin","lon":-71.10208799,"lat":48.395972,"departure":1522683613000,"orig":"","vertexType":"NORMAL"},"to":{"name":"Malraux / Pagnol","stopId":"1:1978","stopCode":"1978","lon":-71.093388,"lat":48.400416,"arrival":1522685319000,"departure":1522685320000,"zoneId":"NA","stopIndex":29,"stopSequence":30,"vertexType":"TRANSIT"},"legGeometry":{"points":"yikfHbc~pLbBM@t@Ld@LZzCxDY~@m@dCa@zAwBjG}CoD{@cAaCiC_@a@w@_ACECCkBsBIKSWgFaGCEQSOQe@i@GGyAeBwAcBiAoAg@m@MOwAaBIKg@k@_AeA{@eAg@i@cAkAqA_BrCsHFQx@uBzEwM@?`@kAjFzF","length":46},"rentedBike":false,"transitLeg":false,"duration":1706.0,"steps":[{"distance":55.526,"relativeDirection":"DEPART","streetName":"Rue de la Caniapiscau","absoluteDirection":"SOUTH","stayOn":false,"area":false,"bogusName":false,"lon":-71.10209271241152,"lat":48.39597170767426,"elevation":[]},{"distance":159.945,"relativeDirection":"RIGHT","streetName":"Rue Brisay","absoluteDirection":"WEST","stayOn":false,"area":false,"bogusName":false,"lon":-71.10202290000001,"lat":48.395474500000006,"elevation":[]},{"distance":241.414,"relativeDirection":"RIGHT","streetName":"Rue de la Rupert","absoluteDirection":"NORTHWEST","stayOn":false,"area":false,"bogusName":false,"lon":-71.1035583,"lat":48.394541000000004,"elevation":[]},{"distance":1145.264,"relativeDirection":"RIGHT","streetName":"Boulevard Saint-Paul","absoluteDirection":"NORTHEAST","stayOn":false,"area":false,"bogusName":false,"lon":-71.1063412,"lat":48.395675000000004,"elevation":[]},{"distance":449.30899999999997,"relativeDirection":"RIGHT","streetName":"Boulevard Barrette","absoluteDirection":"SOUTHEAST","stayOn":false,"area":false,"bogusName":false,"lon":-71.0971116,"lat":48.4039529,"elevation":[]},{"distance":160.301,"relativeDirection":"RIGHT","streetName":"Rue Malraux","absoluteDirection":"SOUTHWEST","stayOn":false,"area":false,"bogusName":false,"lon":-71.0921587,"lat":48.401604500000005,"elevation":[]}]},{"startTime":1522685320000,"endTime":1522685460000,"departureDelay":0,"arrivalDelay":0,"realTime":false,"distance":1970.4615229267838,"pathway":false,"mode":"BUS","route":"14","agencyName":"Société de Transport du Saguenay","agencyUrl":"http://ville.saguenay.ca/fr/services-aux-citoyens/transport-sts","agencyTimeZoneOffset":-14400000,"routeColor":"C0C000","routeType":3,"routeId":"1:14","routeTextColor":"000000","interlineWithPreviousLeg":false,"tripBlockId":"30","headsign":"Talbot / Barrette","agencyId":"0","tripId":"1:218097","serviceDate":"20180402","from":{"name":"Malraux / Pagnol","stopId":"1:1978","stopCode":"1978","lon":-71.093388,"lat":48.400416,"arrival":1522685319000,"departure":1522685320000,"zoneId":"NA","stopIndex":29,"stopSequence":30,"vertexType":"TRANSIT"},"to":{"name":"Roitelets / Sapins","stopId":"1:1543","stopCode":"1543","lon":-71.069553,"lat":48.393375,"arrival":1522685460000,"departure":1522685460000,"zoneId":"NA","stopIndex":35,"stopSequence":36,"vertexType":"TRANSIT"},"legGeometry":{"points":"welfH`m|pLcFsF~CgOtGm[j@oCvEoSl@_CxCmLjAeFpCeKrByHfAqCvH_SLa@","length":14},"routeShortName":"14","routeLongName":"Coopérative","rentedBike":false,"transitLeg":true,"duration":140.0,"steps":[]},{"startTime":1522685460000,"endTime":1522685635000,"departureDelay":0,"arrivalDelay":0,"realTime":false,"distance":1227.4847917962775,"pathway":false,"mode":"BUS","route":"15","agencyName":"Société de Transport du Saguenay","agencyUrl":"http://ville.saguenay.ca/fr/services-aux-citoyens/transport-sts","agencyTimeZoneOffset":-14400000,"routeColor":"FF00FF","routeType":3,"routeId":"1:15","routeTextColor":"FFFFFF","interlineWithPreviousLeg":true,"tripBlockId":"30","headsign":"Terminus Chicoutimi","agencyId":"0","tripId":"1:218098","serviceDate":"20180402","from":{"name":"Roitelets / Sapins","stopId":"1:1543","stopCode":"1543","lon":-71.069553,"lat":48.393375,"arrival":1522685460000,"departure":1522685460000,"zoneId":"NA","stopIndex":0,"stopSequence":1,"vertexType":"TRANSIT"},"to":{"name":"Roitelets / Faucons","stopId":"1:1545","stopCode":"1545","lon":-71.052988,"lat":48.392905,"arrival":1522685635000,"departure":1522685636000,"zoneId":"NA","stopIndex":4,"stopSequence":5,"vertexType":"TRANSIT"},"legGeometry":{"points":"_zjfHfwwpLx@}BHa@NaADq@@y@Cy@I{@Ka@O[Sg@c@mAWwAMyA?EC]?wABuABmFB{@BmDFuH@i@F[FsC@c@TuGEGVsHPuDLuBXsFDoA?W","length":34},"routeShortName":"15","routeLongName":"Term. Chic / Costco","rentedBike":false,"transitLeg":true,"duration":175.0,"steps":[]},{"startTime":1522685636000,"endTime":1522686049000,"departureDelay":0,"arrivalDelay":0,"realTime":false,"distance":522.267,"pathway":false,"mode":"WALK","route":"","agencyTimeZoneOffset":-14400000,"interlineWithPreviousLeg":false,"from":{"name":"Roitelets / Faucons","stopId":"1:1545","stopCode":"1545","lon":-71.052988,"lat":48.392905,"arrival":1522685635000,"departure":1522685636000,"zoneId":"NA","stopIndex":4,"stopSequence":5,"vertexType":"TRANSIT"},"to":{"name":"Destination","lon":-71.054879,"lat":48.39099,"arrival":1522686049000,"orig":"","vertexType":"NORMAL"},"legGeometry":{"points":"qvjfHfptpLALfC_@CdFKbAUlCWlEAPpBEl@I`@Y`@k@\\q@FWNYLC","length":16},"rentedBike":false,"transitLeg":false,"duration":413.0,"steps":[{"distance":5.804,"relativeDirection":"DEPART","streetName":"bike path","absoluteDirection":"WEST","stayOn":false,"area":false,"bogusName":true,"lon":-71.05299114869932,"lat":48.392896082309186,"elevation":[]},{"distance":76.462,"relativeDirection":"LEFT","streetName":"Rue des Faucons","absoluteDirection":"SOUTH","stayOn":false,"area":false,"bogusName":false,"lon":-71.0530677,"lat":48.392908000000006,"elevation":[]},{"distance":248.77,"relativeDirection":"RIGHT","streetName":"Rue des Hirondelles","absoluteDirection":"WEST","stayOn":false,"area":false,"bogusName":false,"lon":-71.0529059,"lat":48.392228800000005,"elevation":[]},{"distance":191.231,"relativeDirection":"LEFT","streetName":"Rue des Arlequins","absoluteDirection":"SOUTH","stayOn":false,"area":false,"bogusName":false,"lon":-71.0562262,"lat":48.3925454,"elevation":[]}]}],"tooSloped":false},{"duration":2651,"startTime":1522684597000,"endTime":1522687248000,"walkTime":1734,"transitTime":904,"waitingTime":13,"walkDistance":2233.5083007415446,"walkLimitExceeded":false,"elevationLost":0.0,"elevationGained":0.0,"transfers":1,"legs":[{"startTime":1522684597000,"endTime":1522685131000,"departureDelay":0,"arrivalDelay":0,"realTime":false,"distance":691.284,"pathway":false,"mode":"WALK","route":"","agencyTimeZoneOffset":-14400000,"interlineWithPreviousLeg":false,"from":{"name":"Origin","lon":-71.10208799,"lat":48.395972,"departure":1522684597000,"orig":"","vertexType":"NORMAL"},"to":{"name":"Bersimis / boul. St-Paul","stopId":"1:1625","stopCode":"1625","lon":-71.108501,"lat":48.39464,"arrival":1522685131000,"departure":1522685132000,"zoneId":"NA","stopIndex":25,"stopSequence":26,"vertexType":"TRANSIT"},"legGeometry":{"points":"yikfHbc~pLbBM@t@Ld@LZzCxDY~@m@dCa@zAwBjGNd@vEhFPRERm@nB","length":15},"rentedBike":false,"transitLeg":false,"duration":534.0,"steps":[{"distance":55.526,"relativeDirection":"DEPART","streetName":"Rue de la Caniapiscau","absoluteDirection":"SOUTH","stayOn":false,"area":false,"bogusName":false,"lon":-71.10209271241152,"lat":48.39597170767426,"elevation":[]},{"distance":159.945,"relativeDirection":"RIGHT","streetName":"Rue Brisay","absoluteDirection":"WEST","stayOn":false,"area":false,"bogusName":false,"lon":-71.10202290000001,"lat":48.395474500000006,"elevation":[]},{"distance":241.414,"relativeDirection":"RIGHT","streetName":"Rue de la Rupert","absoluteDirection":"NORTHWEST","stayOn":false,"area":false,"bogusName":false,"lon":-71.1035583,"lat":48.394541000000004,"elevation":[]},{"distance":177.792,"relativeDirection":"LEFT","streetName":"Boulevard Saint-Paul","absoluteDirection":"SOUTHWEST","stayOn":false,"area":false,"bogusName":false,"lon":-71.1063412,"lat":48.395675000000004,"elevation":[]},{"distance":56.607,"relativeDirection":"RIGHT","streetName":"Rue Bersimis","absoluteDirection":"NORTHWEST","stayOn":false,"area":false,"bogusName":false,"lon":-71.1078057,"lat":48.394420100000005,"elevation":[]}]},{"startTime":1522685132000,"endTime":1522685216000,"departureDelay":0,"arrivalDelay":0,"realTime":false,"distance":1013.2661395501002,"pathway":false,"mode":"BUS","route":"11","agencyName":"Société de Transport du Saguenay","agencyUrl":"http://ville.saguenay.ca/fr/services-aux-citoyens/transport-sts","agencyTimeZoneOffset":-14400000,"routeColor":"FF0000","routeType":3,"routeId":"1:11","routeTextColor":"FFFFFF","interlineWithPreviousLeg":false,"tripBlockId":"35","headsign":"Boul.Royaume/St-Pierre","agencyId":"0","tripId":"1:218252","serviceDate":"20180402","from":{"name":"Bersimis / boul. St-Paul","stopId":"1:1625","stopCode":"1625","lon":-71.108501,"lat":48.39464,"arrival":1522685131000,"departure":1522685132000,"zoneId":"NA","stopIndex":25,"stopSequence":26,"vertexType":"TRANSIT"},"to":{"name":"boul. Royaume (no. 1409)","stopId":"1:264","stopCode":"264","lon":-71.118186,"lat":48.388875,"arrival":1522685216000,"departure":1522685216000,"zoneId":"NA","stopIndex":28,"stopSequence":29,"vertexType":"TRANSIT"},"legGeometry":{"points":"{akfHxj_qLBMl@iBlHjJxEtGPRbBdBp@r@xDpDrL`LlAtAiBdFOd@oCrH","length":14},"routeShortName":"11","routeLongName":"Chic/Faubourg via St-Paul","rentedBike":false,"transitLeg":true,"duration":84.0,"steps":[]},{"startTime":1522685216000,"endTime":1522685229000,"departureDelay":0,"arrivalDelay":0,"realTime":false,"distance":13.493,"pathway":false,"mode":"WALK","route":"","agencyTimeZoneOffset":-14400000,"interlineWithPreviousLeg":false,"from":{"name":"boul. Royaume (no. 1409)","stopId":"1:264","stopCode":"264","lon":-71.118186,"lat":48.388875,"arrival":1522685216000,"departure":1522685216000,"zoneId":"NA","stopIndex":28,"stopSequence":29,"vertexType":"TRANSIT"},"to":{"name":"boul. Royaume (no. 1460)","stopId":"1:267","stopCode":"267","lon":-71.1185,"lat":48.388791,"arrival":1522685229000,"departure":1522685240000,"zoneId":"NA","stopIndex":23,"stopSequence":24,"vertexType":"TRANSIT"},"legGeometry":{"points":"a}ifHbhaqLMZ","length":2},"rentedBike":false,"transitLeg":false,"duration":13.0,"steps":[{"distance":13.493,"relativeDirection":"DEPART","streetName":"Boulevard du Royaume Ouest","absoluteDirection":"NORTHWEST","stayOn":false,"area":false,"bogusName":false,"lon":-71.11825025873861,"lat":48.3888149249102,"elevation":[]}]},{"startTime":1522685240000,"endTime":1522685460000,"departureDelay":0,"arrivalDelay":0,"realTime":false,"distance":2570.2679685702965,"pathway":false,"mode":"BUS","route":"2","agencyName":"Société de Transport du Saguenay","agencyUrl":"http://ville.saguenay.ca/fr/services-aux-citoyens/transport-sts","agencyTimeZoneOffset":-14400000,"routeColor":"FF0000","routeType":3,"routeId":"1:2","routeTextColor":"FFFFFF","interlineWithPreviousLeg":false,"tripBlockId":"11","headsign":"Costco","agencyId":"0","tripId":"1:217472","serviceDate":"20180402","from":{"name":"boul. Royaume (no. 1460)","stopId":"1:267","stopCode":"267","lon":-71.1185,"lat":48.388791,"arrival":1522685229000,"departure":1522685240000,"zoneId":"NA","stopIndex":23,"stopSequence":24,"vertexType":"TRANSIT"},"to":{"name":"COSTCO","stopId":"1:1710","stopCode":"1710","lon":-71.085767,"lat":48.382333,"arrival":1522685460000,"departure":1522685700000,"zoneId":"NA","stopIndex":28,"stopSequence":29,"vertexType":"TRANSIT"},"legGeometry":{"points":"e}ifHjiaqL|BaGbDgIz@{B|G}WVyBfB_OrBsTDa]?sD`@uc@tBcJz@yDtI}UaCcC","length":15},"routeShortName":"2","routeLongName":"Chic/Jonq via Boul. Royaume","rentedBike":false,"transitLeg":true,"duration":220.0,"steps":[]},{"startTime":1522685700000,"endTime":1522686060000,"departureDelay":0,"arrivalDelay":0,"realTime":false,"distance":1990.475444549822,"pathway":false,"mode":"BUS","route":"175","agencyName":"Société de Transport du Saguenay","agencyUrl":"http://ville.saguenay.ca/fr/services-aux-citoyens/transport-sts","agencyTimeZoneOffset":-14400000,"routeColor":"FF00FF","routeType":3,"routeId":"1:175","routeTextColor":"FFFFFF","interlineWithPreviousLeg":true,"tripBlockId":"11","headsign":"Terminus Chicoutimi","agencyId":"0","tripId":"1:217473","serviceDate":"20180402","from":{"name":"COSTCO","stopId":"1:1710","stopCode":"1710","lon":-71.085767,"lat":48.382333,"arrival":1522685460000,"departure":1522685700000,"zoneId":"NA","stopIndex":0,"stopSequence":1,"vertexType":"TRANSIT"},"to":{"name":"boul. Talbot / boul. Barrette","stopId":"1:49","stopCode":"49","lon":-71.069502,"lat":48.394497,"arrival":1522686060000,"departure":1522686061000,"zoneId":"NA","stopIndex":7,"stopSequence":8,"vertexType":"TRANSIT"},"legGeometry":{"points":"euhfHt|zpL_BiBsCoDwCqDrCsGN_@uEoFoEiFUWSUqCwC]a@{ByC{@cAkJuKoAwA_CeCeExJ~AlB`@mAu@k@}@q@|C}Iw@}@aO_QkEsE","length":26},"routeShortName":"175","routeLongName":"Term. Chic / Costco","rentedBike":false,"transitLeg":true,"duration":360.0,"steps":[]},{"startTime":1522686061000,"endTime":1522687248000,"departureDelay":0,"arrivalDelay":0,"realTime":false,"distance":1528.4109999999998,"pathway":false,"mode":"WALK","route":"","agencyTimeZoneOffset":-14400000,"interlineWithPreviousLeg":false,"from":{"name":"boul. Talbot / boul. Barrette","stopId":"1:49","stopCode":"49","lon":-71.069502,"lat":48.394497,"arrival":1522686060000,"departure":1522686061000,"zoneId":"NA","stopIndex":7,"stopSequence":8,"vertexType":"TRANSIT"},"to":{"name":"Destination","lon":-71.054879,"lat":48.39099,"arrival":1522687248000,"orig":"","vertexType":"NORMAL"},"legGeometry":{"points":"}`kfHdxwpL|BlCFQ@CnA{C@EV_@Z}@VmAN{ADsAKiAa@uAEOFIGOk@wBSaBGc@?EEqCBaF?eC?m@BuB?k@HwGlD`@jACAs@BwABu@JyBAcC_@kCKsASeBCyApBEl@I`@Y`@k@\\q@FWNYLC","length":46},"rentedBike":false,"transitLeg":false,"duration":1187.0,"steps":[{"distance":87.727,"relativeDirection":"DEPART","streetName":"Boulevard Talbot","absoluteDirection":"SOUTHWEST","stayOn":false,"area":false,"bogusName":false,"lon":-71.06962085488986,"lat":48.394555935445034,"elevation":[]},{"distance":299.824,"relativeDirection":"LEFT","streetName":"Rue Des Roitelets","absoluteDirection":"SOUTHEAST","stayOn":false,"area":false,"bogusName":false,"lon":-71.0703318,"lat":48.3939238,"elevation":[]},{"distance":5.699,"relativeDirection":"RIGHT","streetName":"service road","absoluteDirection":"SOUTHEAST","stayOn":false,"area":false,"bogusName":true,"lon":-71.0667954,"lat":48.3932324,"elevation":[]},{"distance":479.46400000000006,"relativeDirection":"LEFT","streetName":"bike path","absoluteDirection":"NORTHEAST","stayOn":true,"area":false,"bogusName":true,"lon":-71.0667475,"lat":48.3931922,"elevation":[]},{"distance":139.498,"relativeDirection":"RIGHT","streetName":"Rue des Comorans","absoluteDirection":"SOUTH","stayOn":false,"area":false,"bogusName":false,"lon":-71.0603964,"lat":48.3935308,"elevation":[]},{"distance":324.968,"relativeDirection":"LEFT","streetName":"Rue des Hirondelles","absoluteDirection":"EAST","stayOn":false,"area":false,"bogusName":false,"lon":-71.06054300000001,"lat":48.392283600000006,"elevation":[]},{"distance":191.231,"relativeDirection":"RIGHT","streetName":"Rue des Arlequins","absoluteDirection":"SOUTH","stayOn":false,"area":false,"bogusName":false,"lon":-71.0562262,"lat":48.3925454,"elevation":[]}]}],"tooSloped":false},{"duration":2436,"startTime":1522685413000,"endTime":1522687849000,"walkTime":2119,"transitTime":315,"waitingTime":2,"walkDistance":2734.313969915521,"walkLimitExceeded":false,"elevationLost":0.0,"elevationGained":0.0,"transfers":0,"legs":[{"startTime":1522685413000,"endTime":1522687119000,"departureDelay":0,"arrivalDelay":0,"realTime":false,"distance":2211.7590000000005,"pathway":false,"mode":"WALK","route":"","agencyTimeZoneOffset":-14400000,"interlineWithPreviousLeg":false,"from":{"name":"Origin","lon":-71.10208799,"lat":48.395972,"departure":1522685413000,"orig":"","vertexType":"NORMAL"},"to":{"name":"Malraux / Pagnol","stopId":"1:1978","stopCode":"1978","lon":-71.093388,"lat":48.400416,"arrival":1522687119000,"departure":1522687120000,"zoneId":"NA","stopIndex":29,"stopSequence":30,"vertexType":"TRANSIT"},"legGeometry":{"points":"yikfHbc~pLbBM@t@Ld@LZzCxDY~@m@dCa@zAwBjG}CoD{@cAaCiC_@a@w@_ACECCkBsBIKSWgFaGCEQSOQe@i@GGyAeBwAcBiAoAg@m@MOwAaBIKg@k@_AeA{@eAg@i@cAkAqA_BrCsHFQx@uBzEwM@?`@kAjFzF","length":46},"rentedBike":false,"transitLeg":false,"duration":1706.0,"steps":[{"distance":55.526,"relativeDirection":"DEPART","streetName":"Rue de la Caniapiscau","absoluteDirection":"SOUTH","stayOn":false,"area":false,"bogusName":false,"lon":-71.10209271241152,"lat":48.39597170767426,"elevation":[]},{"distance":159.945,"relativeDirection":"RIGHT","streetName":"Rue Brisay","absoluteDirection":"WEST","stayOn":false,"area":false,"bogusName":false,"lon":-71.10202290000001,"lat":48.395474500000006,"elevation":[]},{"distance":241.414,"relativeDirection":"RIGHT","streetName":"Rue de la Rupert","absoluteDirection":"NORTHWEST","stayOn":false,"area":false,"bogusName":false,"lon":-71.1035583,"lat":48.394541000000004,"elevation":[]},{"distance":1145.264,"relativeDirection":"RIGHT","streetName":"Boulevard Saint-Paul","absoluteDirection":"NORTHEAST","stayOn":false,"area":false,"bogusName":false,"lon":-71.1063412,"lat":48.395675000000004,"elevation":[]},{"distance":449.30899999999997,"relativeDirection":"RIGHT","streetName":"Boulevard Barrette","absoluteDirection":"SOUTHEAST","stayOn":false,"area":false,"bogusName":false,"lon":-71.0971116,"lat":48.4039529,"elevation":[]},{"distance":160.301,"relativeDirection":"RIGHT","streetName":"Rue Malraux","absoluteDirection":"SOUTHWEST","stayOn":false,"area":false,"bogusName":false,"lon":-71.0921587,"lat":48.401604500000005,"elevation":[]}]},{"startTime":1522687120000,"endTime":1522687260000,"departureDelay":0,"arrivalDelay":0,"realTime":false,"distance":1970.4615229267838,"pathway":false,"mode":"BUS","route":"14","agencyName":"Société de Transport du Saguenay","agencyUrl":"http://ville.saguenay.ca/fr/services-aux-citoyens/transport-sts","agencyTimeZoneOffset":-14400000,"routeColor":"C0C000","routeType":3,"routeId":"1:14","routeTextColor":"000000","interlineWithPreviousLeg":false,"tripBlockId":"32","headsign":"Talbot / Barrette","agencyId":"0","tripId":"1:218158","serviceDate":"20180402","from":{"name":"Malraux / Pagnol","stopId":"1:1978","stopCode":"1978","lon":-71.093388,"lat":48.400416,"arrival":1522687119000,"departure":1522687120000,"zoneId":"NA","stopIndex":29,"stopSequence":30,"vertexType":"TRANSIT"},"to":{"name":"Roitelets / Sapins","stopId":"1:1543","stopCode":"1543","lon":-71.069553,"lat":48.393375,"arrival":1522687260000,"departure":1522687260000,"zoneId":"NA","stopIndex":35,"stopSequence":36,"vertexType":"TRANSIT"},"legGeometry":{"points":"welfH`m|pLcFsF~CgOtGm[j@oCvEoSl@_CxCmLjAeFpCeKrByHfAqCvH_SLa@","length":14},"routeShortName":"14","routeLongName":"Coopérative","rentedBike":false,"transitLeg":true,"duration":140.0,"steps":[]},{"startTime":1522687260000,"endTime":1522687435000,"departureDelay":0,"arrivalDelay":0,"realTime":false,"distance":1227.4847917962775,"pathway":false,"mode":"BUS","route":"15","agencyName":"Société de Transport du Saguenay","agencyUrl":"http://ville.saguenay.ca/fr/services-aux-citoyens/transport-sts","agencyTimeZoneOffset":-14400000,"routeColor":"FF00FF","routeType":3,"routeId":"1:15","routeTextColor":"FFFFFF","interlineWithPreviousLeg":true,"tripBlockId":"32","headsign":"Terminus Chicoutimi","agencyId":"0","tripId":"1:218159","serviceDate":"20180402","from":{"name":"Roitelets / Sapins","stopId":"1:1543","stopCode":"1543","lon":-71.069553,"lat":48.393375,"arrival":1522687260000,"departure":1522687260000,"zoneId":"NA","stopIndex":0,"stopSequence":1,"vertexType":"TRANSIT"},"to":{"name":"Roitelets / Faucons","stopId":"1:1545","stopCode":"1545","lon":-71.052988,"lat":48.392905,"arrival":1522687435000,"departure":1522687436000,"zoneId":"NA","stopIndex":4,"stopSequence":5,"vertexType":"TRANSIT"},"legGeometry":{"points":"_zjfHfwwpLx@}BHa@NaADq@@y@Cy@I{@Ka@O[Sg@c@mAWwAMyA?EC]?wABuABmFB{@BmDFuH@i@F[FsC@c@TuGEGVsHPuDLuBXsFDoA?W","length":34},"routeShortName":"15","routeLongName":"Term. Chic / Costco","rentedBike":false,"transitLeg":true,"duration":175.0,"steps":[]},{"startTime":1522687436000,"endTime":1522687849000,"departureDelay":0,"arrivalDelay":0,"realTime":false,"distance":522.267,"pathway":false,"mode":"WALK","route":"","agencyTimeZoneOffset":-14400000,"interlineWithPreviousLeg":false,"from":{"name":"Roitelets / Faucons","stopId":"1:1545","stopCode":"1545","lon":-71.052988,"lat":48.392905,"arrival":1522687435000,"departure":1522687436000,"zoneId":"NA","stopIndex":4,"stopSequence":5,"vertexType":"TRANSIT"},"to":{"name":"Destination","lon":-71.054879,"lat":48.39099,"arrival":1522687849000,"orig":"","vertexType":"NORMAL"},"legGeometry":{"points":"qvjfHfptpLALfC_@CdFKbAUlCWlEAPpBEl@I`@Y`@k@\\q@FWNYLC","length":16},"rentedBike":false,"transitLeg":false,"duration":413.0,"steps":[{"distance":5.804,"relativeDirection":"DEPART","streetName":"bike path","absoluteDirection":"WEST","stayOn":false,"area":false,"bogusName":true,"lon":-71.05299114869932,"lat":48.392896082309186,"elevation":[]},{"distance":76.462,"relativeDirection":"LEFT","streetName":"Rue des Faucons","absoluteDirection":"SOUTH","stayOn":false,"area":false,"bogusName":false,"lon":-71.0530677,"lat":48.392908000000006,"elevation":[]},{"distance":248.77,"relativeDirection":"RIGHT","streetName":"Rue des Hirondelles","absoluteDirection":"WEST","stayOn":false,"area":false,"bogusName":false,"lon":-71.0529059,"lat":48.392228800000005,"elevation":[]},{"distance":191.231,"relativeDirection":"LEFT","streetName":"Rue des Arlequins","absoluteDirection":"SOUTH","stayOn":false,"area":false,"bogusName":false,"lon":-71.0562262,"lat":48.3925454,"elevation":[]}]}],"tooSloped":false}]},"debugOutput":{"precalculationTime":9,"pathCalculationTime":18,"pathTimes":[12,3,3],"renderingTime":1,"totalTime":28,"timedOut":false},"elevationMetadata":{"ellipsoidToGeoidDifference":-28.885904201182168,"geoidElevation":false}}