{"requestParameters":{"date":"2018/04/02","walkSpeed":"1.33","walkReluctance":"2.0","fromPlace":"48.401958,-71.059944","maxWalkDistance":"3000","waitReluctance":"1.0","carSpeed":"33","numItineraries":"3","waitAtBeginningFactor":"0.4","mode":"TRANSIT,WALK","ignoreRealtimeUpdates":"false","stairsReluctance":"2.0","toPlace":"48.39575,-71.062943","time":"10:0:00"},"plan":{"date":1522677600000,"from":{"name":"Origin","lon":-71.059944,"lat":48.401958,"orig":"","vertexType":"NORMAL"},"to":{"name":"Destination","lon":-71.062943,"lat":48.39575,"orig":"","vertexType":"NORMAL"},"itineraries":[{"duration":855,"startTime":1522677701000,"endTime":1522678556000,"walkTime":543,"transitTime":310,"waitingTime":2,"walkDistance":686.8405563854095,"walkLimitExceeded":false,"elevationLost":0.0,"elevationGained":0.0,"transfers":0,"legs":[{"startTime":1522677701000,"endTime":1522677958000,"departureDelay":0,"arrivalDelay":0,"realTime":false,"distance":326.68500000000006,"pathway":false,"mode":"WALK","route":"","agencyTimeZoneOffset":-14400000,"interlineWithPreviousLeg":false,"from":{"name":"Origin","lon":-71.059944,"lat":48.401958,"departure":1522677701000,"orig":"","vertexType":"NORMAL"},"to":{"name":"Saguenéens  / Bach","stopId":"1:575","stopCode":"575","lon":-71.061104,"lat":48.403689,"arrival":1522677958000,"departure":1522677959000,"zoneId":"NA","stopIndex":23,"stopSequence":24,"vertexType":"TRANSIT"},"legGeometry":{"points":"amlfHn}upLk@vB{DqDMKWWADKVyBvF","length":8},"rentedBike":false,"transitLeg":false,"duration":257.0,"steps":[{"distance":50.93,"relativeDirection":"DEPART","streetName":"path","absoluteDirection":"NORTHWEST","stayOn":false,"area":false,"bogusName":false,"lon":-71.06023513393838,"lat":48.401610137658054,"elevation":[]},{"distance":148.77100000000002,"relativeDirection":"RIGHT","streetName":"Boulevard Talbot","absoluteDirection":"NORTHEAST","stayOn":false,"area":false,"bogusName":false,"lon":-71.0608382,"lat":48.401832600000006,"elevation":[]},{"distance":126.98400000000001,"relativeDirection":"LEFT","streetName":"Rue des Saguenéens","absoluteDirection":"NORTHWEST","stayOn":false,"area":false,"bogusName":false,"lon":-71.0597697,"lat":48.402967000000004,"elevation":[]}]},{"startTime":1522677959000,"endTime":1522678269000,"departureDelay":0,"arrivalDelay":0,"realTime":false,"distance":2878.9128468748763,"pathway":false,"mode":"BUS","route":"15","agencyName":"Société de Transport du Saguenay","agencyUrl":"http://ville.saguenay.ca/fr/services-aux-citoyens/transport-sts","agencyTimeZoneOffset":-14400000,"routeColor":"FF00FF","routeType":3,"routeId":"1:15","routeTextColor":"FFFFFF","interlineWithPreviousLeg":false,"tripBlockId":"31","headsign":"Talbot / Barrette","agencyId":"0","tripId":"1:218128","serviceDate":"20180402","from":{"name":"Saguenéens  / Bach","stopId":"1:575","stopCode":"575","lon":-71.061104,"lat":48.403689,"arrival":1522677958000,"departure":1522677959000,"zoneId":"NA","stopIndex":23,"stopSequence":24,"vertexType":"TRANSIT"},"to":{"name":"Roitelets / Harfangs","stopId":"1:41","stopCode":"41","lon":-71.062016,"lat":48.393522,"arrival":1522678269000,"departure":1522678270000,"zoneId":"NA","stopIndex":33,"stopSequence":34,"vertexType":"TRANSIT"},"legGeometry":{"points":"ezlfHvbvpLtC{FnBoLbCaO?qLa@uJzF`ApF~@~@PzAgEeDcBf@qAWcKUqEx@Ef@ExDVjDxAFBrBvAfGjG@BjCzC~DxC@@zA~Cb@fCJlC?BsBre@?DWbOAn@","length":33},"routeShortName":"15","routeLongName":"Term. Chic / Costco","rentedBike":false,"transitLeg":true,"duration":310.0,"steps":[]},{"startTime":1522678270000,"endTime":1522678556000,"departureDelay":0,"arrivalDelay":0,"realTime":false,"distance":359.98300000000006,"pathway":false,"mode":"WALK","route":"","agencyTimeZoneOffset":-14400000,"interlineWithPreviousLeg":false,"from":{"name":"Roitelets / Harfangs","stopId":"1:41","stopCode":"41","lon":-71.062016,"lat":48.393522,"arrival":1522678269000,"departure":1522678270000,"zoneId":"NA","stopIndex":33,"stopSequence":34,"vertexType":"TRANSIT"},"to":{"name":"Destination","lon":-71.062943,"lat":48.39575,"arrival":1522678556000,"orig":"","vertexType":"NORMAL"},"legGeometry":{"points":"{zjfHrhvpLCtB?l@ICqFC_@nBW`AaBqAc@e@","length":9},"rentedBike":false,"transitLeg":false,"duration":286.0,"steps":[{"distance":60.612,"relativeDirection":"DEPART","streetName":"bike path","absoluteDirection":"WEST","stayOn":false,"area":false,"bogusName":true,"lon":-71.06201246040693,"lat":48.39358810555136,"elevation":[]},{"distance":5.738,"relativeDirection":"RIGHT","streetName":"path","absoluteDirection":"NORTH","stayOn":true,"area":false,"bogusName":true,"lon":-71.062833,"lat":48.393602200000004,"elevation":[]},{"distance":134.231,"relativeDirection":"CONTINUE","streetName":"Rue des Passerins","absoluteDirection":"NORTH","stayOn":false,"area":false,"bogusName":false,"lon":-71.0628185,"lat":48.393652900000006,"elevation":[]},{"distance":73.098,"relativeDirection":"LEFT","streetName":"Rue des Merlebleus","absoluteDirection":"NORTHWEST","stayOn":false,"area":false,"bogusName":false,"lon":-71.0627992,"lat":48.39486,"elevation":[]},{"distance":86.304,"relativeDirection":"RIGHT","streetName":"Rue des Cygnes","absoluteDirection":"NORTHEAST","stayOn":false,"area":false,"bogusName":false,"lon":-71.06368690000001,"lat":48.395149800000006,"elevation":[]}]}],"tooSloped":false},{"duration":1496,"startTime":1522677600000,"endTime":1522679096000,"walkTime":1496,"transitTime":0,"waitingTime":0,"walkDistance":1948.3654360845974,"walkLimitExceeded":false,"elevationLost":0.0,"elevationGained":0.0,"transfers":0,"legs":[{"startTime":1522677600000,"endTime":1522679096000,"departureDelay":0,"arrivalDelay":0,"realTime":false,"distance":1948.1910000000003,"pathway":false,"mode":"WALK","route":"","agencyTimeZoneOffset":-14400000,"interlineWithPreviousLeg":false,"from":{"name":"Origin","lon":-71.059944,"lat":48.401958,"departure":1522677600000,"orig":"","vertexType":"NORMAL"},"to":{"name":"Destination","lon":-71.062943,"lat":48.39575,"arrival":1522679096000,"orig":"","vertexType":"NORMAL"},"legGeometry":{"points":"amlfHn}upLk@vBpH~GnCpDdB~BV\\FHNPvIzMvAzB`HbJdCtC|BlCFQ@CnA{C@EV_@Z}@VmAN{ADsAKiAa@uAEOw@iC]mCgBVuB{BgAiAo@o@Ru@XaAaBqAc@e@","length":35},"rentedBike":false,"transitLeg":false,"duration":1496.0,"steps":[{"distance":50.93,"relativeDirection":"DEPART","streetName":"path","absoluteDirection":"NORTHWEST","stayOn":false,"area":false,"bogusName":false,"lon":-71.06023513393838,"lat":48.401610137658054,"elevation":[]},{"distance":1126.8100000000002,"relativeDirection":"LEFT","streetName":"Boulevard Talbot","absoluteDirection":"SOUTHWEST","stayOn":false,"area":false,"bogusName":false,"lon":-71.0608382,"lat":48.401832600000006,"elevation":[]},{"distance":414.76800000000003,"relativeDirection":"LEFT","streetName":"Rue Des Roitelets","absoluteDirection":"SOUTHEAST","stayOn":false,"area":false,"bogusName":false,"lon":-71.0703318,"lat":48.3939238,"elevation":[]},{"distance":269.379,"relativeDirection":"LEFT","streetName":"Rue des Merlebleus","absoluteDirection":"NORTH","stayOn":false,"area":false,"bogusName":false,"lon":-71.065394,"lat":48.393663200000006,"elevation":[]},{"distance":86.304,"relativeDirection":"LEFT","streetName":"Rue des Cygnes","absoluteDirection":"NORTHEAST","stayOn":false,"area":false,"bogusName":false,"lon":-71.06368690000001,"lat":48.395149800000006,"elevation":[]}]}],"tooSloped":false},{"duration":855,"startTime":1522679501000,"endTime":1522680356000,"walkTime":543,"transitTime":310,"waitingTime":2,"walkDistance":686.8405563854095,"walkLimitExceeded":false,"elevationLost":0.0,"elevationGained":0.0,"transfers":0,"legs":[{"startTime":1522679501000,"endTime":1522679758000,"departureDelay":0,"arrivalDelay":0,"realTime":false,"distance":326.68500000000006,"pathway":false,"mode":"WALK","route":"","agencyTimeZoneOffset":-14400000,"interlineWithPreviousLeg":false,"from":{"name":"Origin","lon":-71.059944,"lat":48.401958,"departure":1522679501000,"orig":"","vertexType":"NORMAL"},"to":{"name":"Saguenéens  / Bach","stopId":"1:575","stopCode":"575","lon":-71.061104,"lat":48.403689,"arrival":1522679758000,"departure":1522679759000,"zoneId":"NA","stopIndex":23,"stopSequence":24,"vertexType":"TRANSIT"},"legGeometry":{"points":"amlfHn}upLk@vB{DqDMKWWADKVyBvF","length":8},"rentedBike":false,"transitLeg":false,"duration":257.0,"steps":[{"distance":50.93,"relativeDirection":"DEPART","streetName":"path","absoluteDirection":"NORTHWEST","stayOn":false,"area":false,"bogusName":false,"lon":-71.06023513393838,"lat":48.401610137658054,"elevation":[]},{"distance":148.77100000000002,"relativeDirection":"RIGHT","streetName":"Boulevard Talbot","absoluteDirection":"NORTHEAST","stayOn":false,"area":false,"bogusName":false,"lon":-71.0608382,"lat":48.401832600000006,"elevation":[]},{"distance":126.98400000000001,"relativeDirection":"LEFT","streetName":"Rue des Saguenéens","absoluteDirection":"NORTHWEST","stayOn":false,"area":false,"bogusName":false,"lon":-71.0597697,"lat":48.402967000000004,"elevation":[]}]},{"startTime":1522679759000,"endTime":1522680069000,"departureDelay":0,"arrivalDelay":0,"realTime":false,"distance":2878.9128468748763,"pathway":false,"mode":"BUS","route":"15","agencyName":"Société de Transport du Saguenay","agencyUrl":"http://ville.saguenay.ca/fr/services-aux-citoyens/transport-sts","agencyTimeZoneOffset":-14400000,"routeColor":"FF00FF","routeType":3,"routeId":"1:15","routeTextColor":"FFFFFF","interlineWithPreviousLeg":false,"tripBlockId":"33","headsign":"Talbot / Barrette","agencyId":"0","tripId":"1:218179","serviceDate":"20180402","from":{"name":"Saguenéens  / Bach","stopId":"1:575","stopCode":"575","lon":-71.061104,"lat":48.403689,"arrival":1522679758000,"departure":1522679759000,"zoneId":"NA","stopIndex":23,"stopSequence":24,"vertexType":"TRANSIT"},"to":{"name":"Roitelets / Harfangs","stopId":"1:41","stopCode":"41","lon":-71.062016,"lat":48.393522,"arrival":1522680069000,"departure":1522680070000,"zoneId":"NA","stopIndex":33,"stopSequence":34,"vertexType":"TRANSIT"},"legGeometry":{"points":"ezlfHvbvpLtC{FnBoLbCaO?qLa@uJzF`ApF~@~@PzAgEeDcBf@qAWcKUqEx@Ef@ExDVjDxAFBrBvAfGjG@BjCzC~DxC@@zA~Cb@fCJlC?BsBre@?DWbOAn@","length":33},"routeShortName":"15","routeLongName":"Term. Chic / Costco","rentedBike":false,"transitLeg":true,"duration":310.0,"steps":[]},{"startTime":1522680070000,"endTime":1522680356000,"departureDelay":0,"arrivalDelay":0,"realTime":false,"distance":359.98300000000006,"pathway":false,"mode":"WALK","route":"","agencyTimeZoneOffset":-14400000,"interlineWithPreviousLeg":false,"from":{"name":"Roitelets / Harfangs","stopId":"1:41","stopCode":"41","lon":-71.062016,"lat":48.393522,"arrival":1522680069000,"departure":1522680070000,"zoneId":"NA","stopIndex":33,"stopSequence":34,"vertexType":"TRANSIT"},"to":{"name":"Destination","lon":-71.062943,"lat":48.39575,"arrival":1522680356000,"orig":"","vertexType":"NORMAL"},"legGeometry":{"points":"{zjfHrhvpLCtB?l@ICqFC_@nBW`AaBqAc@e@","length":9},"rentedBike":false,"transitLeg":false,"duration":286.0,"steps":[{"distance":60.612,"relativeDirection":"DEPART","streetName":"bike path","absoluteDirection":"WEST","stayOn":false,"area":false,"bogusName":true,"lon":-71.06201246040693,"lat":48.39358810555136,"elevation":[]},{"distance":5.738,"relativeDirection":"RIGHT","streetName":"path","absoluteDirection":"NORTH","stayOn":true,"area":false,"bogusName":true,"lon":-71.062833,"lat":48.393602200000004,"elevation":[]},{"distance":134.231,"relativeDirection":"CONTINUE","streetName":"Rue des Passerins","absoluteDirection":"NORTH","stayOn":false,"area":false,"bogusName":false,"lon":-71.0628185,"lat":48.393652900000006,"elevation":[]},{"distance":73.098,"relativeDirection":"LEFT","streetName":"Rue des Merlebleus","absoluteDirection":"NORTHWEST","stayOn":false,"area":false,"bogusName":false,"lon":-71.0627992,"lat":48.39486,"elevation":[]},{"distance":86.304,"relativeDirection":"RIGHT","streetName":"Rue des Cygnes","absoluteDirection":"NORTHEAST","stayOn":false,"area":false,"bogusName":false,"lon":-71.06368690000001,"lat":48.395149800000006,"elevation":[]}]}],"tooSloped":false}]},"debugOutput":{"precalculationTime":26,"pathCalculationTime":28,"pathTimes":[17,5,6],"renderingTime":0,"totalTime":54,"timedOut":false},"elevationMetadata":{"ellipsoidToGeoidDifference":-28.885904201182168,"geoidElevation":false}}