{"requestParameters":{"date":"2018/04/02","walkSpeed":"1.33","walkReluctance":"2.0","fromPlace":"48.39575,-71.062943","maxWalkDistance":"3000","waitReluctance":"1.0","carSpeed":"33","numItineraries":"3","waitAtBeginningFactor":"0.4","mode":"TRANSIT,WALK","ignoreRealtimeUpdates":"false","stairsReluctance":"2.0","toPlace":"48.401958,-71.059944","time":"9:0:00"},"plan":{"date":1522674000000,"from":{"name":"Origin","lon":-71.062943,"lat":48.39575,"orig":"","vertexType":"NORMAL"},"to":{"name":"Destination","lon":-71.059944,"lat":48.401958,"orig":"","vertexType":"NORMAL"},"itineraries":[{"duration":989,"startTime":1522674454000,"endTime":1522675443000,"walkTime":543,"transitTime":444,"waitingTime":2,"walkDistance":686.8371729268721,"walkLimitExceeded":false,"elevationLost":0.0,"elevationGained":0.0,"transfers":0,"legs":[{"startTime":1522674454000,"endTime":1522674740000,"departureDelay":0,"arrivalDelay":0,"realTime":false,"distance":359.983,"pathway":false,"mode":"WALK","route":"","agencyTimeZoneOffset":-14400000,"interlineWithPreviousLeg":false,"from":{"name":"Origin","lon":-71.062943,"lat":48.39575,"departure":1522674454000,"orig":"","vertexType":"NORMAL"},"to":{"name":"Roitelets / Harfangs","stopId":"1:41","stopCode":"41","lon":-71.062016,"lat":48.393522,"arrival":1522674740000,"departure":1522674741000,"zoneId":"NA","stopIndex":2,"stopSequence":3,"vertexType":"TRANSIT"},"legGeometry":{"points":"yhkfHhovpLb@d@`BpAVaA^oBpFBHB?m@BuB","length":9},"rentedBike":false,"transitLeg":false,"duration":286.0,"steps":[{"distance":86.304,"relativeDirection":"DEPART","streetName":"Rue des Cygnes","absoluteDirection":"SOUTHWEST","stayOn":false,"area":false,"bogusName":false,"lon":-71.0630844471625,"lat":48.39581431589622,"elevation":[]},{"distance":73.098,"relativeDirection":"LEFT","streetName":"Rue des Merlebleus","absoluteDirection":"SOUTHEAST","stayOn":false,"area":false,"bogusName":false,"lon":-71.06368690000001,"lat":48.395149800000006,"elevation":[]},{"distance":134.231,"relativeDirection":"RIGHT","streetName":"Rue des Passerins","absoluteDirection":"SOUTH","stayOn":false,"area":false,"bogusName":false,"lon":-71.0627992,"lat":48.39486,"elevation":[]},{"distance":5.738,"relativeDirection":"CONTINUE","streetName":"path","absoluteDirection":"SOUTH","stayOn":false,"area":false,"bogusName":true,"lon":-71.0628185,"lat":48.393652900000006,"elevation":[]},{"distance":60.612,"relativeDirection":"LEFT","streetName":"bike path","absoluteDirection":"EAST","stayOn":true,"area":false,"bogusName":true,"lon":-71.062833,"lat":48.393602200000004,"elevation":[]}]},{"startTime":1522674741000,"endTime":1522675185000,"departureDelay":0,"arrivalDelay":0,"realTime":false,"distance":2878.9128468752824,"pathway":false,"mode":"BUS","route":"15","agencyName":"Société de Transport du Saguenay","agencyUrl":"http://ville.saguenay.ca/fr/services-aux-citoyens/transport-sts","agencyTimeZoneOffset":-14400000,"routeColor":"FF00FF","routeType":3,"routeId":"1:15","routeTextColor":"FFFFFF","interlineWithPreviousLeg":false,"tripBlockId":"30","headsign":"Terminus Chicoutimi","agencyId":"0","tripId":"1:218092","serviceDate":"20180402","from":{"name":"Roitelets / Harfangs","stopId":"1:41","stopCode":"41","lon":-71.062016,"lat":48.393522,"arrival":1522674740000,"departure":1522674741000,"zoneId":"NA","stopIndex":2,"stopSequence":3,"vertexType":"TRANSIT"},"to":{"name":"Saguenéens  / Bach","stopId":"1:575","stopCode":"575","lon":-71.061104,"lat":48.403689,"arrival":1522675185000,"departure":1522675186000,"zoneId":"NA","stopIndex":12,"stopSequence":13,"vertexType":"TRANSIT"},"legGeometry":{"points":"_{jfHrhvpLFuH@i@F[FsC@c@TuGEGVsHPuDLuBXsFDoA?W@]Cu@GcAKu@Q_ASo@a@y@a@o@MOUUeCqBiDsDqE{EiAcAcB_AqBgA_AQaBSaBG_@Bu@FG?h@fNKnDpCfBkAzDgA}@y@q@sDy@GAeGT~@~KKrKyAnL[hBUxAm@nCcAlDeCvG","length":53},"routeShortName":"15","routeLongName":"Term. Chic / Costco","rentedBike":false,"transitLeg":true,"duration":444.0,"steps":[]},{"startTime":1522675186000,"endTime":1522675443000,"departureDelay":0,"arrivalDelay":0,"realTime":false,"distance":326.685,"pathway":false,"mode":"WALK","route":"","agencyTimeZoneOffset":-14400000,"interlineWithPreviousLeg":false,"from":{"name":"Saguenéens  / Bach","stopId":"1:575","stopCode":"575","lon":-71.061104,"lat":48.403689,"arrival":1522675185000,"departure":1522675186000,"zoneId":"NA","stopIndex":12,"stopSequence":13,"vertexType":"TRANSIT"},"to":{"name":"Destination","lon":-71.059944,"lat":48.401958,"arrival":1522675443000,"orig":"","vertexType":"NORMAL"},"legGeometry":{"points":"wylfHfcvpLxBwFJW@EVVLJzDpDj@wB","length":8},"rentedBike":false,"transitLeg":false,"duration":257.0,"steps":[{"distance":126.98400000000001,"relativeDirection":"DEPART","streetName":"Rue des Saguenéens","absoluteDirection":"SOUTHEAST","stayOn":false,"area":false,"bogusName":false,"lon":-71.0611521754673,"lat":48.403646208471976,"elevation":[]},{"distance":148.77100000000002,"relativeDirection":"RIGHT","streetName":"Boulevard Talbot","absoluteDirection":"SOUTHWEST","stayOn":false,"area":false,"bogusName":false,"lon":-71.0597697,"lat":48.402967000000004,"elevation":[]},{"distance":50.93,"relativeDirection":"LEFT","streetName":"path","absoluteDirection":"SOUTHEAST","stayOn":false,"area":false,"bogusName":false,"lon":-71.0608382,"lat":48.401832600000006,"elevation":[]}]}],"tooSloped":false},{"duration":1496,"startTime":1522674000000,"endTime":1522675496000,"walkTime":1496,"transitTime":0,"waitingTime":0,"walkDistance":1948.3654360845971,"walkLimitExceeded":false,"elevationLost":0.0,"elevationGained":0.0,"transfers":0,"legs":[{"startTime":1522674000000,"endTime":1522675496000,"departureDelay":0,"arrivalDelay":0,"realTime":false,"distance":1948.191,"pathway":false,"mode":"WALK","route":"","agencyTimeZoneOffset":-14400000,"interlineWithPreviousLeg":false,"from":{"name":"Origin","lon":-71.062943,"lat":48.39575,"departure":1522674000000,"orig":"","vertexType":"NORMAL"},"to":{"name":"Destination","lon":-71.059944,"lat":48.401958,"arrival":1522675496000,"orig":"","vertexType":"NORMAL"},"legGeometry":{"points":"yhkfHhovpLb@d@`BpAY`ASt@n@n@fAhAtBzBfBW\\lCv@hCDN`@tAJhAErAOzAWlA[|@W^ADoAzCABGP}BmCeCuCaHcJwA{BwI{MOQGIW]eB_CoCqDqH_Hj@wB","length":35},"rentedBike":false,"transitLeg":false,"duration":1496.0,"steps":[{"distance":86.304,"relativeDirection":"DEPART","streetName":"Rue des Cygnes","absoluteDirection":"SOUTHWEST","stayOn":false,"area":false,"bogusName":false,"lon":-71.0630844471625,"lat":48.39581431589622,"elevation":[]},{"distance":269.379,"relativeDirection":"RIGHT","streetName":"Rue des Merlebleus","absoluteDirection":"NORTHWEST","stayOn":false,"area":false,"bogusName":false,"lon":-71.06368690000001,"lat":48.395149800000006,"elevation":[]},{"distance":414.768,"relativeDirection":"RIGHT","streetName":"Rue Des Roitelets","absoluteDirection":"WEST","stayOn":false,"area":false,"bogusName":false,"lon":-71.065394,"lat":48.393663200000006,"elevation":[]},{"distance":1126.81,"relativeDirection":"RIGHT","streetName":"Boulevard Talbot","absoluteDirection":"NORTHEAST","stayOn":false,"area":false,"bogusName":false,"lon":-71.0703318,"lat":48.3939238,"elevation":[]},{"distance":50.93,"relativeDirection":"RIGHT","streetName":"path","absoluteDirection":"SOUTHEAST","stayOn":false,"area":false,"bogusName":false,"lon":-71.0608382,"lat":48.401832600000006,"elevation":[]}]}],"tooSloped":false},{"duration":1116,"startTime":1522674592000,"endTime":1522675708000,"walkTime":1015,"transitTime":99,"waitingTime":2,"walkDistance":1310.3784360845968,"walkLimitExceeded":false,"elevationLost":0.0,"elevationGained":0.0,"transfers":0,"legs":[{"startTime":1522674592000,"endTime":1522675259000,"departureDelay":0,"arrivalDelay":0,"realTime":false,"distance":858.178,"pathway":false,"mode":"WALK","route":"","agencyTimeZoneOffset":-14400000,"interlineWithPreviousLeg":false,"from":{"name":"Origin","lon":-71.062943,"lat":48.39575,"departure":1522674592000,"orig":"","vertexType":"NORMAL"},"to":{"name":"boul. Talbot / boul. Barrette","stopId":"1:49","stopCode":"49","lon":-71.069502,"lat":48.394497,"arrival":1522675259000,"departure":1522675260000,"zoneId":"NA","stopIndex":7,"stopSequence":8,"vertexType":"TRANSIT"},"legGeometry":{"points":"yhkfHhovpLb@d@`BpAY`ASt@n@n@fAhAtBzBfBW\\lCv@hCDN`@tAJhAErAOzAWlA[|@W^ADoAzCABGP}BmC","length":24},"rentedBike":false,"transitLeg":false,"duration":667.0,"steps":[{"distance":86.304,"relativeDirection":"DEPART","streetName":"Rue des Cygnes","absoluteDirection":"SOUTHWEST","stayOn":false,"area":false,"bogusName":false,"lon":-71.0630844471625,"lat":48.39581431589622,"elevation":[]},{"distance":269.379,"relativeDirection":"RIGHT","streetName":"Rue des Merlebleus","absoluteDirection":"NORTHWEST","stayOn":false,"area":false,"bogusName":false,"lon":-71.06368690000001,"lat":48.395149800000006,"elevation":[]},{"distance":414.768,"relativeDirection":"RIGHT","streetName":"Rue Des Roitelets","absoluteDirection":"WEST","stayOn":false,"area":false,"bogusName":false,"lon":-71.065394,"lat":48.393663200000006,"elevation":[]},{"distance":87.727,"relativeDirection":"RIGHT","streetName":"Boulevard Talbot","absoluteDirection":"NORTHEAST","stayOn":false,"area":false,"bogusName":false,"lon":-71.0703318,"lat":48.3939238,"elevation":[]}]},{"startTime":1522675260000,"endTime":1522675359000,"departureDelay":0,"arrivalDelay":0,"realTime":false,"distance":637.0239483489204,"pathway":false,"mode":"BUS","route":"175","agencyName":"Société de Transport du Saguenay","agencyUrl":"http://ville.saguenay.ca/fr/services-aux-citoyens/transport-sts","agencyTimeZoneOffset":-14400000,"routeColor":"FF00FF","routeType":3,"routeId":"1:175","routeTextColor":"FFFFFF","interlineWithPreviousLeg":false,"tripBlockId":"11","headsign":"Terminus Chicoutimi","agencyId":"0","tripId":"1:217467","serviceDate":"20180402","from":{"name":"boul. Talbot / boul. Barrette","stopId":"1:49","stopCode":"49","lon":-71.069502,"lat":48.394497,"arrival":1522675259000,"departure":1522675260000,"zoneId":"NA","stopIndex":7,"stopSequence":8,"vertexType":"TRANSIT"},"to":{"name":"boul. Talbot / Laurentides","stopId":"1:51","stopCode":"51","lon":-71.063914,"lat":48.398861,"arrival":1522675359000,"departure":1522675360000,"zoneId":"NA","stopIndex":9,"stopSequence":10,"vertexType":"TRANSIT"},"legGeometry":{"points":"aakfHlxwpLiAoAgEsFkFsHqJ_N","length":5},"routeShortName":"175","routeLongName":"Term. Chic / Costco","rentedBike":false,"transitLeg":true,"duration":99.0,"steps":[]},{"startTime":1522675360000,"endTime":1522675708000,"departureDelay":0,"arrivalDelay":0,"realTime":false,"distance":452.026,"pathway":false,"mode":"WALK","route":"","agencyTimeZoneOffset":-14400000,"interlineWithPreviousLeg":false,"from":{"name":"boul. Talbot / Laurentides","stopId":"1:51","stopCode":"51","lon":-71.063914,"lat":48.398861,"arrival":1522675359000,"departure":1522675360000,"zoneId":"NA","stopIndex":9,"stopSequence":10,"vertexType":"TRANSIT"},"to":{"name":"Destination","lon":-71.059944,"lat":48.401958,"arrival":1522675708000,"orig":"","vertexType":"NORMAL"},"legGeometry":{"points":"e|kfH`uvpLGIW]eB_CoCqDqH_Hj@wB","length":7},"rentedBike":false,"transitLeg":false,"duration":348.0,"steps":[{"distance":401.096,"relativeDirection":"DEPART","streetName":"Boulevard Talbot","absoluteDirection":"NORTHEAST","stayOn":false,"area":false,"bogusName":false,"lon":-71.06400548628389,"lat":48.398911410972886,"elevation":[]},{"distance":50.93,"relativeDirection":"RIGHT","streetName":"path","absoluteDirection":"SOUTHEAST","stayOn":false,"area":false,"bogusName":false,"lon":-71.0608382,"lat":48.401832600000006,"elevation":[]}]}],"tooSloped":false}]},"debugOutput":{"precalculationTime":24,"pathCalculationTime":18,"pathTimes":[10,5,3],"renderingTime":0,"totalTime":42,"timedOut":false},"elevationMetadata":{"ellipsoidToGeoidDifference":-28.885904201182168,"geoidElevation":false}}