{"requestParameters":{"date":"2018/04/02","walkSpeed":"1.33","walkReluctance":"2.0","fromPlace":"48.399381,-71.056942","maxWalkDistance":"3000","waitReluctance":"1.0","carSpeed":"33","numItineraries":"3","waitAtBeginningFactor":"0.4","mode":"TRANSIT,WALK","ignoreRealtimeUpdates":"false","stairsReluctance":"2.0","toPlace":"48.417941,-71.070198","time":"10:0:00"},"plan":{"date":1522677600000,"from":{"name":"Origin","lon":-71.056942,"lat":48.399381,"orig":"","vertexType":"NORMAL"},"to":{"name":"Destination","lon":-71.070198,"lat":48.417941,"orig":"","vertexType":"NORMAL"},"itineraries":[{"duration":1864,"startTime":1522677666000,"endTime":1522679530000,"walkTime":769,"transitTime":1093,"waitingTime":2,"walkDistance":973.4637744293213,"walkLimitExceeded":false,"elevationLost":0.0,"elevationGained":0.0,"transfers":0,"legs":[{"startTime":1522677666000,"endTime":1522678019000,"departureDelay":0,"arrivalDelay":0,"realTime":false,"distance":441.26300000000003,"pathway":false,"mode":"WALK","route":"","agencyTimeZoneOffset":-14400000,"interlineWithPreviousLeg":false,"from":{"name":"Origin","lon":-71.056942,"lat":48.399381,"departure":1522677666000,"orig":"","vertexType":"NORMAL"},"to":{"name":"Place du Royaume (Saguenéens)","stopId":"1:1294","stopCode":"1294","lon":-71.057691,"lat":48.402355,"arrival":1522678019000,"departure":1522678020000,"zoneId":"NA","stopIndex":24,"stopSequence":25,"vertexType":"TRANSIT"},"legGeometry":{"points":"s_lfH|iupLmAwAiAmAQ?[Zw@tBQXaAxAa@m@EG]_@c@Yu@]WMk@vD","length":15},"rentedBike":false,"transitLeg":false,"duration":353.0,"steps":[{"distance":114.578,"relativeDirection":"DEPART","streetName":"Rue des Sizerins","absoluteDirection":"NORTHEAST","stayOn":false,"area":false,"bogusName":false,"lon":-71.057104481999,"lat":48.39946123354315,"elevation":[]},{"distance":135.743,"relativeDirection":"LEFT","streetName":"Rue des Pinsons","absoluteDirection":"NORTHWEST","stayOn":false,"area":false,"bogusName":false,"lon":-71.0562713,"lat":48.4003127,"elevation":[]},{"distance":118.646,"relativeDirection":"RIGHT","streetName":"Rue des Grands-Ducs","absoluteDirection":"NORTHEAST","stayOn":false,"area":false,"bogusName":false,"lon":-71.0575855,"lat":48.401151000000006,"elevation":[]},{"distance":72.296,"relativeDirection":"LEFT","streetName":"Rue des Saguenéens","absoluteDirection":"WEST","stayOn":false,"area":false,"bogusName":false,"lon":-71.0568056,"lat":48.4020704,"elevation":[]}]},{"startTime":1522678020000,"endTime":1522678320000,"departureDelay":0,"arrivalDelay":0,"realTime":false,"distance":3143.631018514618,"pathway":false,"mode":"BUS","route":"15","agencyName":"Société de Transport du Saguenay","agencyUrl":"http://ville.saguenay.ca/fr/services-aux-citoyens/transport-sts","agencyTimeZoneOffset":-14400000,"routeColor":"FF00FF","routeType":3,"routeId":"1:15","routeTextColor":"FFFFFF","interlineWithPreviousLeg":false,"tripBlockId":"31","headsign":"Talbot / Barrette","agencyId":"0","tripId":"1:218128","serviceDate":"20180402","from":{"name":"Place du Royaume (Saguenéens)","stopId":"1:1294","stopCode":"1294","lon":-71.057691,"lat":48.402355,"arrival":1522678019000,"departure":1522678020000,"zoneId":"NA","stopIndex":24,"stopSequence":25,"vertexType":"TRANSIT"},"to":{"name":"Roitelets / Sapins","stopId":"1:1543","stopCode":"1543","lon":-71.069553,"lat":48.393375,"arrival":1522678320000,"departure":1522678320000,"zoneId":"NA","stopIndex":35,"stopSequence":36,"vertexType":"TRANSIT"},"legGeometry":{"points":"_rlfHjmupLbCaO?qLa@uJzF`ApF~@~@PzAgEeDcBf@qAWcKUqEx@Ef@ExDVjDxAFBrBvAfGjG@BjCzC~DxC@@zA~Cb@fCJlC?BsBre@?DWbOAn@?nEGnM@H\\hCzA~ELvAAlAi@jDo@nB","length":40},"routeShortName":"15","routeLongName":"Term. Chic / Costco","rentedBike":false,"transitLeg":true,"duration":300.0,"steps":[]},{"startTime":1522678320000,"endTime":1522679113000,"departureDelay":0,"arrivalDelay":0,"realTime":false,"distance":6401.5413726287925,"pathway":false,"mode":"BUS","route":"14","agencyName":"Société de Transport du Saguenay","agencyUrl":"http://ville.saguenay.ca/fr/services-aux-citoyens/transport-sts","agencyTimeZoneOffset":-14400000,"routeColor":"C0C000","routeType":3,"routeId":"1:14","routeTextColor":"000000","interlineWithPreviousLeg":true,"tripBlockId":"31","headsign":"Terminus Chicoutimi","agencyId":"0","tripId":"1:218129","serviceDate":"20180402","from":{"name":"Roitelets / Sapins","stopId":"1:1513","stopCode":"1513","lon":-71.069396,"lat":48.393523,"arrival":1522678320000,"departure":1522678320000,"zoneId":"NA","stopIndex":0,"stopSequence":1,"vertexType":"TRANSIT"},"to":{"name":"Jolliet / Audet","stopId":"1:522","stopCode":"522","lon":-71.07278,"lat":48.420244,"arrival":1522679113000,"departure":1522679114000,"zoneId":"NA","stopIndex":27,"stopSequence":28,"vertexType":"TRANSIT"},"legGeometry":{"points":"azjfHfwwpLiEfLuBzFsAnDgGzSWfAcD`Mi@dCgChLmCzMwGd\\aDxOdFtFhCtCdDY|F_On@aB`B_GNoBvAyT|@sNuAyAuF}F}AaB_BkAC@qC\\gAWiBwBiKgMiCwEgEyHCGy@uB}@rAa@nAc@lFEf@mGvUYfAqCs@ICMCqFmDc@s@mAkBuEoESUgAhDiAfD}@zDyAcA_@Um@U{AWgB_Au@s@EEsBkCqFgF{IiI][aBhE}@}@oBmBwE{EwE{Ej@mB","length":68},"routeShortName":"14","routeLongName":"Coopérative","rentedBike":false,"transitLeg":true,"duration":793.0,"steps":[]},{"startTime":1522679114000,"endTime":1522679530000,"departureDelay":0,"arrivalDelay":0,"realTime":false,"distance":531.991,"pathway":false,"mode":"WALK","route":"","agencyTimeZoneOffset":-14400000,"interlineWithPreviousLeg":false,"from":{"name":"Jolliet / Audet","stopId":"1:522","stopCode":"522","lon":-71.07278,"lat":48.420244,"arrival":1522679113000,"departure":1522679114000,"zoneId":"NA","stopIndex":27,"stopSequence":28,"vertexType":"TRANSIT"},"to":{"name":"Destination","lon":-71.070198,"lat":48.417941,"arrival":1522679530000,"orig":"","vertexType":"NORMAL"},"legGeometry":{"points":"cbpfHfkxpLZ}@bAkCn@}AfBwEZi@PSVa@V[FE\\Y^Y^Kn@MV?b@BN?APGl@Q`@[l@]lA","length":22},"rentedBike":false,"transitLeg":false,"duration":416.0,"steps":[{"distance":435.82499999999993,"relativeDirection":"DEPART","streetName":"Rue Jolliet","absoluteDirection":"SOUTHEAST","stayOn":false,"area":false,"bogusName":false,"lon":-71.07267835560184,"lat":48.420345859294756,"elevation":[]},{"distance":96.166,"relativeDirection":"RIGHT","streetName":"service road","absoluteDirection":"WEST","stayOn":false,"area":false,"bogusName":false,"lon":-71.0690988,"lat":48.4175072,"elevation":[]}]}],"tooSloped":false},{"duration":1347,"startTime":1522678386000,"endTime":1522679733000,"walkTime":858,"transitTime":487,"waitingTime":2,"walkDistance":1088.0655714195827,"walkLimitExceeded":false,"elevationLost":0.0,"elevationGained":0.0,"transfers":0,"legs":[{"startTime":1522678386000,"endTime":1522678739000,"departureDelay":0,"arrivalDelay":0,"realTime":false,"distance":441.26300000000003,"pathway":false,"mode":"WALK","route":"","agencyTimeZoneOffset":-14400000,"interlineWithPreviousLeg":false,"from":{"name":"Origin","lon":-71.056942,"lat":48.399381,"departure":1522678386000,"orig":"","vertexType":"NORMAL"},"to":{"name":"Place du Royaume (Saguenéens)","stopId":"1:1294","stopCode":"1294","lon":-71.057691,"lat":48.402355,"arrival":1522678739000,"departure":1522678740000,"zoneId":"NA","stopIndex":11,"stopSequence":12,"vertexType":"TRANSIT"},"legGeometry":{"points":"s_lfH|iupLmAwAiAmAQ?[Zw@tBQXaAxAa@m@EG]_@c@Yu@]WMk@vD","length":15},"rentedBike":false,"transitLeg":false,"duration":353.0,"steps":[{"distance":114.578,"relativeDirection":"DEPART","streetName":"Rue des Sizerins","absoluteDirection":"NORTHEAST","stayOn":false,"area":false,"bogusName":false,"lon":-71.057104481999,"lat":48.39946123354315,"elevation":[]},{"distance":135.743,"relativeDirection":"LEFT","streetName":"Rue des Pinsons","absoluteDirection":"NORTHWEST","stayOn":false,"area":false,"bogusName":false,"lon":-71.0562713,"lat":48.4003127,"elevation":[]},{"distance":118.646,"relativeDirection":"RIGHT","streetName":"Rue des Grands-Ducs","absoluteDirection":"NORTHEAST","stayOn":false,"area":false,"bogusName":false,"lon":-71.0575855,"lat":48.401151000000006,"elevation":[]},{"distance":72.296,"relativeDirection":"LEFT","streetName":"Rue des Saguenéens","absoluteDirection":"WEST","stayOn":false,"area":false,"bogusName":false,"lon":-71.0568056,"lat":48.4020704,"elevation":[]}]},{"startTime":1522678740000,"endTime":1522679227000,"departureDelay":0,"arrivalDelay":0,"realTime":false,"distance":2842.630639188052,"pathway":false,"mode":"BUS","route":"15","agencyName":"Société de Transport du Saguenay","agencyUrl":"http://ville.saguenay.ca/fr/services-aux-citoyens/transport-sts","agencyTimeZoneOffset":-14400000,"routeColor":"FF00FF","routeType":3,"routeId":"1:15","routeTextColor":"FFFFFF","interlineWithPreviousLeg":false,"tripBlockId":"30","headsign":"Terminus Chicoutimi","agencyId":"0","tripId":"1:218094","serviceDate":"20180402","from":{"name":"Place du Royaume (Saguenéens)","stopId":"1:1294","stopCode":"1294","lon":-71.057691,"lat":48.402355,"arrival":1522678739000,"departure":1522678740000,"zoneId":"NA","stopIndex":11,"stopSequence":12,"vertexType":"TRANSIT"},"to":{"name":"Bégin / Youville","stopId":"1:581","stopCode":"581","lon":-71.065739,"lat":48.414902,"arrival":1522679227000,"departure":1522679228000,"zoneId":"NA","stopIndex":25,"stopSequence":26,"vertexType":"TRANSIT"},"legGeometry":{"points":"eqlfHzmupLUxAm@nCcAlDeCvGmA|CUr@}@~A_@\\_DvCEZcA|@UP_@d@Yl@oBdFeCxG_CfGYVQXS\\dK|HlFZbC\\p@zA\\rB@hBiArG{BNw@FiG}@iDwAECcCcBo@y@sEeGe@o@qAa@m@MoB?C@}BZwAc@oA_Bs@gDCKZ{Di@QECc@_@sAkAoBwB_EcE","length":53},"routeShortName":"15","routeLongName":"Term. Chic / Costco","rentedBike":false,"transitLeg":true,"duration":487.0,"steps":[]},{"startTime":1522679228000,"endTime":1522679733000,"departureDelay":0,"arrivalDelay":0,"realTime":false,"distance":646.5240000000001,"pathway":false,"mode":"WALK","route":"","agencyTimeZoneOffset":-14400000,"interlineWithPreviousLeg":false,"from":{"name":"Bégin / Youville","stopId":"1:581","stopCode":"581","lon":-71.065739,"lat":48.414902,"arrival":1522679227000,"departure":1522679228000,"zoneId":"NA","stopIndex":25,"stopSequence":26,"vertexType":"TRANSIT"},"to":{"name":"Destination","lon":-71.070198,"lat":48.417941,"arrival":1522679733000,"orig":"","vertexType":"NORMAL"},"legGeometry":{"points":"i`ofHj`wpLGGsCqCMOkAdDGReAvCu@xBeAT]x@o@nBe@nBYx@V?b@BN?APGl@Q`@[l@]lA","length":21},"rentedBike":false,"transitLeg":false,"duration":505.0,"steps":[{"distance":113.747,"relativeDirection":"DEPART","streetName":"Rue Bégin","absoluteDirection":"NORTHEAST","stayOn":false,"area":false,"bogusName":false,"lon":-71.06581464642983,"lat":48.41493511820995,"elevation":[]},{"distance":205.419,"relativeDirection":"LEFT","streetName":"Rue Dubé","absoluteDirection":"NORTHWEST","stayOn":false,"area":false,"bogusName":false,"lon":-71.06496530000001,"lat":48.4157887,"elevation":[]},{"distance":188.869,"relativeDirection":"RIGHT","streetName":"path","absoluteDirection":"NORTH","stayOn":false,"area":false,"bogusName":true,"lon":-71.0672681,"lat":48.416826400000005,"elevation":[]},{"distance":42.323,"relativeDirection":"HARD_LEFT","streetName":"Rue Jolliet","absoluteDirection":"SOUTH","stayOn":false,"area":false,"bogusName":false,"lon":-71.069079,"lat":48.417887500000006,"elevation":[]},{"distance":96.166,"relativeDirection":"RIGHT","streetName":"service road","absoluteDirection":"WEST","stayOn":false,"area":false,"bogusName":false,"lon":-71.0690988,"lat":48.4175072,"elevation":[]}]}],"tooSloped":false},{"duration":1347,"startTime":1522680186000,"endTime":1522681533000,"walkTime":858,"transitTime":487,"waitingTime":2,"walkDistance":1088.0655714195827,"walkLimitExceeded":false,"elevationLost":0.0,"elevationGained":0.0,"transfers":0,"legs":[{"startTime":1522680186000,"endTime":1522680539000,"departureDelay":0,"arrivalDelay":0,"realTime":false,"distance":441.26300000000003,"pathway":false,"mode":"WALK","route":"","agencyTimeZoneOffset":-14400000,"interlineWithPreviousLeg":false,"from":{"name":"Origin","lon":-71.056942,"lat":48.399381,"departure":1522680186000,"orig":"","vertexType":"NORMAL"},"to":{"name":"Place du Royaume (Saguenéens)","stopId":"1:1294","stopCode":"1294","lon":-71.057691,"lat":48.402355,"arrival":1522680539000,"departure":1522680540000,"zoneId":"NA","stopIndex":11,"stopSequence":12,"vertexType":"TRANSIT"},"legGeometry":{"points":"s_lfH|iupLmAwAiAmAQ?[Zw@tBQXaAxAa@m@EG]_@c@Yu@]WMk@vD","length":15},"rentedBike":false,"transitLeg":false,"duration":353.0,"steps":[{"distance":114.578,"relativeDirection":"DEPART","streetName":"Rue des Sizerins","absoluteDirection":"NORTHEAST","stayOn":false,"area":false,"bogusName":false,"lon":-71.057104481999,"lat":48.39946123354315,"elevation":[]},{"distance":135.743,"relativeDirection":"LEFT","streetName":"Rue des Pinsons","absoluteDirection":"NORTHWEST","stayOn":false,"area":false,"bogusName":false,"lon":-71.0562713,"lat":48.4003127,"elevation":[]},{"distance":118.646,"relativeDirection":"RIGHT","streetName":"Rue des Grands-Ducs","absoluteDirection":"NORTHEAST","stayOn":false,"area":false,"bogusName":false,"lon":-71.0575855,"lat":48.401151000000006,"elevation":[]},{"distance":72.296,"relativeDirection":"LEFT","streetName":"Rue des Saguenéens","absoluteDirection":"WEST","stayOn":false,"area":false,"bogusName":false,"lon":-71.0568056,"lat":48.4020704,"elevation":[]}]},{"startTime":1522680540000,"endTime":1522681027000,"departureDelay":0,"arrivalDelay":0,"realTime":false,"distance":2842.630639188052,"pathway":false,"mode":"BUS","route":"15","agencyName":"Société de Transport du Saguenay","agencyUrl":"http://ville.saguenay.ca/fr/services-aux-citoyens/transport-sts","agencyTimeZoneOffset":-14400000,"routeColor":"FF00FF","routeType":3,"routeId":"1:15","routeTextColor":"FFFFFF","interlineWithPreviousLeg":false,"tripBlockId":"32","headsign":"Terminus Chicoutimi","agencyId":"0","tripId":"1:218155","serviceDate":"20180402","from":{"name":"Place du Royaume (Saguenéens)","stopId":"1:1294","stopCode":"1294","lon":-71.057691,"lat":48.402355,"arrival":1522680539000,"departure":1522680540000,"zoneId":"NA","stopIndex":11,"stopSequence":12,"vertexType":"TRANSIT"},"to":{"name":"Bégin / Youville","stopId":"1:581","stopCode":"581","lon":-71.065739,"lat":48.414902,"arrival":1522681027000,"departure":1522681028000,"zoneId":"NA","stopIndex":25,"stopSequence":26,"vertexType":"TRANSIT"},"legGeometry":{"points":"eqlfHzmupLUxAm@nCcAlDeCvGmA|CUr@}@~A_@\\_DvCEZcA|@UP_@d@Yl@oBdFeCxG_CfGYVQXS\\dK|HlFZbC\\p@zA\\rB@hBiArG{BNw@FiG}@iDwAECcCcBo@y@sEeGe@o@qAa@m@MoB?C@}BZwAc@oA_Bs@gDCKZ{Di@QECc@_@sAkAoBwB_EcE","length":53},"routeShortName":"15","routeLongName":"Term. Chic / Costco","rentedBike":false,"transitLeg":true,"duration":487.0,"steps":[]},{"startTime":1522681028000,"endTime":1522681533000,"departureDelay":0,"arrivalDelay":0,"realTime":false,"distance":646.5240000000001,"pathway":false,"mode":"WALK","route":"","agencyTimeZoneOffset":-14400000,"interlineWithPreviousLeg":false,"from":{"name":"Bégin / Youville","stopId":"1:581","stopCode":"581","lon":-71.065739,"lat":48.414902,"arrival":1522681027000,"departure":1522681028000,"zoneId":"NA","stopIndex":25,"stopSequence":26,"vertexType":"TRANSIT"},"to":{"name":"Destination","lon":-71.070198,"lat":48.417941,"arrival":1522681533000,"orig":"","vertexType":"NORMAL"},"legGeometry":{"points":"i`ofHj`wpLGGsCqCMOkAdDGReAvCu@xBeAT]x@o@nBe@nBYx@V?b@BN?APGl@Q`@[l@]lA","length":21},"rentedBike":false,"transitLeg":false,"duration":505.0,"steps":[{"distance":113.747,"relativeDirection":"DEPART","streetName":"Rue Bégin","absoluteDirection":"NORTHEAST","stayOn":false,"area":false,"bogusName":false,"lon":-71.06581464642983,"lat":48.41493511820995,"elevation":[]},{"distance":205.419,"relativeDirection":"LEFT","streetName":"Rue Dubé","absoluteDirection":"NORTHWEST","stayOn":false,"area":false,"bogusName":false,"lon":-71.06496530000001,"lat":48.4157887,"elevation":[]},{"distance":188.869,"relativeDirection":"RIGHT","streetName":"path","absoluteDirection":"NORTH","stayOn":false,"area":false,"bogusName":true,"lon":-71.0672681,"lat":48.416826400000005,"elevation":[]},{"distance":42.323,"relativeDirection":"HARD_LEFT","streetName":"Rue Jolliet","absoluteDirection":"SOUTH","stayOn":false,"area":false,"bogusName":false,"lon":-71.069079,"lat":48.417887500000006,"elevation":[]},{"distance":96.166,"relativeDirection":"RIGHT","streetName":"service road","absoluteDirection":"WEST","stayOn":false,"area":false,"bogusName":false,"lon":-71.0690988,"lat":48.4175072,"elevation":[]}]}],"tooSloped":false}]},"debugOutput":{"precalculationTime":35,"pathCalculationTime":43,"pathTimes":[24,9,10],"renderingTime":1,"totalTime":79,"timedOut":false},"elevationMetadata":{"ellipsoidToGeoidDifference":-28.885904201182168,"geoidElevation":false}}