{"requestParameters":{"date":"2018/04/02","walkSpeed":"1.33","walkReluctance":"2.0","fromPlace":"48.399498,-71.058672","maxWalkDistance":"3000","waitReluctance":"1.0","carSpeed":"33","numItineraries":"3","waitAtBeginningFactor":"0.4","mode":"TRANSIT,WALK","ignoreRealtimeUpdates":"false","stairsReluctance":"2.0","toPlace":"48.425003,-71.073762","time":"9:0:00"},"plan":{"date":1522674000000,"from":{"name":"Origin","lon":-71.058672,"lat":48.399498,"orig":"","vertexType":"NORMAL"},"to":{"name":"Destination","lon":-71.073762,"lat":48.425003,"orig":"","vertexType":"NORMAL"},"itineraries":[{"duration":1981,"startTime":1522674074000,"endTime":1522676055000,"walkTime":853,"transitTime":1126,"waitingTime":2,"walkDistance":1072.0840826976325,"walkLimitExceeded":false,"elevationLost":0.0,"elevationGained":0.0,"transfers":0,"legs":[{"startTime":1522674074000,"endTime":1522674419000,"departureDelay":0,"arrivalDelay":0,"realTime":false,"distance":437.443,"pathway":false,"mode":"WALK","route":"","agencyTimeZoneOffset":-14400000,"interlineWithPreviousLeg":false,"from":{"name":"Origin","lon":-71.058672,"lat":48.399498,"departure":1522674074000,"orig":"","vertexType":"NORMAL"},"to":{"name":"Place du Royaume (Saguenéens)","stopId":"1:1294","stopCode":"1294","lon":-71.057691,"lat":48.402355,"arrival":1522674419000,"departure":1522674420000,"zoneId":"NA","stopIndex":24,"stopSequence":25,"vertexType":"TRANSIT"},"legGeometry":{"points":"__lfH|qupLq@u@_F}EQXaAxAa@m@EG]_@c@Yu@]WMk@vD","length":12},"rentedBike":false,"transitLeg":false,"duration":345.0,"steps":[{"distance":183.28199999999998,"relativeDirection":"DEPART","streetName":"Rue des Sarcelles","absoluteDirection":"NORTHEAST","stayOn":false,"area":false,"bogusName":false,"lon":-71.05838994631857,"lat":48.399362466838696,"elevation":[]},{"distance":63.219,"relativeDirection":"LEFT","streetName":"Rue des Pinsons","absoluteDirection":"NORTHWEST","stayOn":false,"area":false,"bogusName":false,"lon":-71.05700780000001,"lat":48.400731400000005,"elevation":[]},{"distance":118.646,"relativeDirection":"RIGHT","streetName":"Rue des Grands-Ducs","absoluteDirection":"NORTHEAST","stayOn":false,"area":false,"bogusName":false,"lon":-71.0575855,"lat":48.401151000000006,"elevation":[]},{"distance":72.296,"relativeDirection":"LEFT","streetName":"Rue des Saguenéens","absoluteDirection":"WEST","stayOn":false,"area":false,"bogusName":false,"lon":-71.0568056,"lat":48.4020704,"elevation":[]}]},{"startTime":1522674420000,"endTime":1522674720000,"departureDelay":0,"arrivalDelay":0,"realTime":false,"distance":3143.631018514618,"pathway":false,"mode":"BUS","route":"15","agencyName":"Société de Transport du Saguenay","agencyUrl":"http://ville.saguenay.ca/fr/services-aux-citoyens/transport-sts","agencyTimeZoneOffset":-14400000,"routeColor":"FF00FF","routeType":3,"routeId":"1:15","routeTextColor":"FFFFFF","interlineWithPreviousLeg":false,"tripBlockId":"31","headsign":"Talbot / Barrette","agencyId":"0","tripId":"1:218126","serviceDate":"20180402","from":{"name":"Place du Royaume (Saguenéens)","stopId":"1:1294","stopCode":"1294","lon":-71.057691,"lat":48.402355,"arrival":1522674419000,"departure":1522674420000,"zoneId":"NA","stopIndex":24,"stopSequence":25,"vertexType":"TRANSIT"},"to":{"name":"Roitelets / Sapins","stopId":"1:1543","stopCode":"1543","lon":-71.069553,"lat":48.393375,"arrival":1522674720000,"departure":1522674720000,"zoneId":"NA","stopIndex":35,"stopSequence":36,"vertexType":"TRANSIT"},"legGeometry":{"points":"_rlfHjmupLbCaO?qLa@uJzF`ApF~@~@PzAgEeDcBf@qAWcKUqEx@Ef@ExDVjDxAFBrBvAfGjG@BjCzC~DxC@@zA~Cb@fCJlC?BsBre@?DWbOAn@?nEGnM@H\\hCzA~ELvAAlAi@jDo@nB","length":40},"routeShortName":"15","routeLongName":"Term. Chic / Costco","rentedBike":false,"transitLeg":true,"duration":300.0,"steps":[]},{"startTime":1522674720000,"endTime":1522675546000,"departureDelay":0,"arrivalDelay":0,"realTime":false,"distance":6551.224729218953,"pathway":false,"mode":"BUS","route":"14","agencyName":"Société de Transport du Saguenay","agencyUrl":"http://ville.saguenay.ca/fr/services-aux-citoyens/transport-sts","agencyTimeZoneOffset":-14400000,"routeColor":"C0C000","routeType":3,"routeId":"1:14","routeTextColor":"000000","interlineWithPreviousLeg":true,"tripBlockId":"31","headsign":"Terminus Chicoutimi","agencyId":"0","tripId":"1:218127","serviceDate":"20180402","from":{"name":"Roitelets / Sapins","stopId":"1:1513","stopCode":"1513","lon":-71.069396,"lat":48.393523,"arrival":1522674720000,"departure":1522674720000,"zoneId":"NA","stopIndex":0,"stopSequence":1,"vertexType":"TRANSIT"},"to":{"name":"Audet / boul. Université","stopId":"1:553","stopCode":"553","lon":-71.072005,"lat":48.421488,"arrival":1522675546000,"departure":1522675547000,"zoneId":"NA","stopIndex":28,"stopSequence":29,"vertexType":"TRANSIT"},"legGeometry":{"points":"azjfHfwwpLiEfLuBzFsAnDgGzSWfAcD`Mi@dCgChLmCzMwGd\\aDxOdFtFhCtCdDY|F_On@aB`B_GNoBvAyT|@sNuAyAuF}F}AaB_BkAC@qC\\gAWiBwBiKgMiCwEgEyHCGy@uB}@rAa@nAc@lFEf@mGvUYfAqCs@ICMCqFmDc@s@mAkBuEoESUgAhDiAfD}@zDyAcA_@Um@U{AWgB_Au@s@EEsBkCqFgF{IiI][aBhE}@}@oBmBwE{EwE{Ej@mBZeAa@SyEQ","length":71},"routeShortName":"14","routeLongName":"Coopérative","rentedBike":false,"transitLeg":true,"duration":826.0,"steps":[]},{"startTime":1522675547000,"endTime":1522676055000,"departureDelay":0,"arrivalDelay":0,"realTime":false,"distance":634.3580000000001,"pathway":false,"mode":"WALK","route":"","agencyTimeZoneOffset":-14400000,"interlineWithPreviousLeg":false,"from":{"name":"Audet / boul. Université","stopId":"1:553","stopCode":"553","lon":-71.072005,"lat":48.421488,"arrival":1522675546000,"departure":1522675547000,"zoneId":"NA","stopIndex":28,"stopSequence":29,"vertexType":"TRANSIT"},"to":{"name":"Destination","lon":-71.073762,"lat":48.425003,"arrival":1522676055000,"orig":"","vertexType":"NORMAL"},"legGeometry":{"points":"iipfHvgxpLg@CWbAy@dCG`@S[KHe@`@Kt@cBKGnA?j@CLIl@Ov@y@][?{CBeCSs@UFk@Fi@@S?A@a@","length":25},"rentedBike":false,"transitLeg":false,"duration":508.0,"steps":[{"distance":23.119,"relativeDirection":"DEPART","streetName":"Rue Audet","absoluteDirection":"NORTH","stayOn":false,"area":false,"bogusName":false,"lon":-71.07211324351135,"lat":48.42149143047572,"elevation":[]},{"distance":100.466,"relativeDirection":"LEFT","streetName":"Boulevard de l'Université","absoluteDirection":"NORTHWEST","stayOn":false,"area":false,"bogusName":false,"lon":-71.07209830000001,"lat":48.421699100000005,"elevation":[]},{"distance":15.283,"relativeDirection":"RIGHT","streetName":"Boulevard Saint-Paul","absoluteDirection":"NORTHEAST","stayOn":false,"area":false,"bogusName":false,"lon":-71.0732783,"lat":48.4221458,"elevation":[]},{"distance":32.267,"relativeDirection":"LEFT","streetName":"path","absoluteDirection":"NORTHWEST","stayOn":false,"area":false,"bogusName":true,"lon":-71.0731375,"lat":48.4222466,"elevation":[]},{"distance":76.89,"relativeDirection":"LEFT","streetName":"Rue Delage","absoluteDirection":"WEST","stayOn":false,"area":false,"bogusName":false,"lon":-71.07335160000001,"lat":48.4224996,"elevation":[]},{"distance":91.933,"relativeDirection":"LEFT","streetName":"Rue Gilbert","absoluteDirection":"WEST","stayOn":false,"area":false,"bogusName":false,"lon":-71.0735622,"lat":48.423054300000004,"elevation":[]},{"distance":240.725,"relativeDirection":"RIGHT","streetName":"Rue Sainte-Marthe","absoluteDirection":"NORTH","stayOn":false,"area":false,"bogusName":false,"lon":-71.0747607,"lat":48.4232457,"elevation":[]},{"distance":53.675000000000004,"relativeDirection":"RIGHT","streetName":"Rue Price Ouest","absoluteDirection":"EAST","stayOn":false,"area":false,"bogusName":false,"lon":-71.07442610000001,"lat":48.425381900000005,"elevation":[]}]}],"tooSloped":false},{"duration":1854,"startTime":1522674794000,"endTime":1522676648000,"walkTime":799,"transitTime":1053,"waitingTime":2,"walkDistance":1013.7820676634593,"walkLimitExceeded":false,"elevationLost":0.0,"elevationGained":0.0,"transfers":0,"legs":[{"startTime":1522674794000,"endTime":1522675139000,"departureDelay":0,"arrivalDelay":0,"realTime":false,"distance":437.443,"pathway":false,"mode":"WALK","route":"","agencyTimeZoneOffset":-14400000,"interlineWithPreviousLeg":false,"from":{"name":"Origin","lon":-71.058672,"lat":48.399498,"departure":1522674794000,"orig":"","vertexType":"NORMAL"},"to":{"name":"Place du Royaume (Saguenéens)","stopId":"1:1294","stopCode":"1294","lon":-71.057691,"lat":48.402355,"arrival":1522675139000,"departure":1522675140000,"zoneId":"NA","stopIndex":11,"stopSequence":12,"vertexType":"TRANSIT"},"legGeometry":{"points":"__lfH|qupLq@u@_F}EQXaAxAa@m@EG]_@c@Yu@]WMk@vD","length":12},"rentedBike":false,"transitLeg":false,"duration":345.0,"steps":[{"distance":183.28199999999998,"relativeDirection":"DEPART","streetName":"Rue des Sarcelles","absoluteDirection":"NORTHEAST","stayOn":false,"area":false,"bogusName":false,"lon":-71.05838994631857,"lat":48.399362466838696,"elevation":[]},{"distance":63.219,"relativeDirection":"LEFT","streetName":"Rue des Pinsons","absoluteDirection":"NORTHWEST","stayOn":false,"area":false,"bogusName":false,"lon":-71.05700780000001,"lat":48.400731400000005,"elevation":[]},{"distance":118.646,"relativeDirection":"RIGHT","streetName":"Rue des Grands-Ducs","absoluteDirection":"NORTHEAST","stayOn":false,"area":false,"bogusName":false,"lon":-71.0575855,"lat":48.401151000000006,"elevation":[]},{"distance":72.296,"relativeDirection":"LEFT","streetName":"Rue des Saguenéens","absoluteDirection":"WEST","stayOn":false,"area":false,"bogusName":false,"lon":-71.0568056,"lat":48.4020704,"elevation":[]}]},{"startTime":1522675140000,"endTime":1522676193000,"departureDelay":0,"arrivalDelay":0,"realTime":false,"distance":5708.981892907111,"pathway":false,"mode":"BUS","route":"15","agencyName":"Société de Transport du Saguenay","agencyUrl":"http://ville.saguenay.ca/fr/services-aux-citoyens/transport-sts","agencyTimeZoneOffset":-14400000,"routeColor":"FF00FF","routeType":3,"routeId":"1:15","routeTextColor":"FFFFFF","interlineWithPreviousLeg":false,"tripBlockId":"30","headsign":"Terminus Chicoutimi","agencyId":"0","tripId":"1:218092","serviceDate":"20180402","from":{"name":"Place du Royaume (Saguenéens)","stopId":"1:1294","stopCode":"1294","lon":-71.057691,"lat":48.402355,"arrival":1522675139000,"departure":1522675140000,"zoneId":"NA","stopIndex":11,"stopSequence":12,"vertexType":"TRANSIT"},"to":{"name":"Jacques-Cartier / Tessier","stopId":"1:62","stopCode":"62","lon":-71.067531,"lat":48.426736,"arrival":1522676193000,"departure":1522676194000,"zoneId":"NA","stopIndex":37,"stopSequence":38,"vertexType":"TRANSIT"},"legGeometry":{"points":"eqlfHzmupLUxAm@nCcAlDeCvGmA|CUr@}@~A_@\\_DvCEZcA|@UP_@d@Yl@oBdFeCxG_CfGYVQXS\\dK|HlFZbC\\p@zA\\rB@hBiArG{BNw@FiG}@iDwAECcCcBo@y@sEeGe@o@qAa@m@MoB?C@}BZwAc@oA_Bs@gDCKZ{Di@QECc@_@sAkAoBwB_EcE{A_BoAmAk@o@cCaCkIkIaJaJUUwBaCj@wCjAsCzGoG_CoHL{D_@kAqD{CQr@iAcAy@w@L{@wAuA_B_B_EpLDh@NbBVvCIxBg@`Am@l@Sb@a@rAqDqDmEkE]a@kAqAU|@WnKG|DGxDOdPKvJU|F?XQlJC~@ChA","length":98},"routeShortName":"15","routeLongName":"Term. Chic / Costco","rentedBike":false,"transitLeg":true,"duration":1053.0,"steps":[]},{"startTime":1522676194000,"endTime":1522676648000,"departureDelay":0,"arrivalDelay":0,"realTime":false,"distance":576.162,"pathway":false,"mode":"WALK","route":"","agencyTimeZoneOffset":-14400000,"interlineWithPreviousLeg":false,"from":{"name":"Jacques-Cartier / Tessier","stopId":"1:62","stopCode":"62","lon":-71.067531,"lat":48.426736,"arrival":1522676193000,"departure":1522676194000,"zoneId":"NA","stopIndex":37,"stopSequence":38,"vertexType":"TRANSIT"},"to":{"name":"Destination","lon":-71.073762,"lat":48.425003,"arrival":1522676648000,"orig":"","vertexType":"NORMAL"},"legGeometry":{"points":"uiqfHbkwpLEnBC~AMrEInCAj@A`DjAJVJRXJRFFJBJEBG`AXNLDb@@Zp@hDF|@BZC`@","length":23},"rentedBike":false,"transitLeg":false,"duration":454.0,"steps":[{"distance":76.392,"relativeDirection":"DEPART","streetName":"Rue Jacques-Cartier Est","absoluteDirection":"WEST","stayOn":false,"area":false,"bogusName":false,"lon":-71.0675380239516,"lat":48.42667414840684,"elevation":[]},{"distance":208.179,"relativeDirection":"CONTINUE","streetName":"Rue Jacques-Cartier Ouest","absoluteDirection":"WEST","stayOn":false,"area":false,"bogusName":false,"lon":-71.0685709,"lat":48.426721,"elevation":[]},{"distance":103.339,"relativeDirection":"LEFT","streetName":"Rue Montcalm","absoluteDirection":"SOUTH","stayOn":false,"area":false,"bogusName":false,"lon":-71.0713817,"lat":48.426863100000006,"elevation":[]},{"distance":48.492,"relativeDirection":"SLIGHTLY_RIGHT","streetName":"path","absoluteDirection":"SOUTH","stayOn":false,"area":false,"bogusName":true,"lon":-71.0717267,"lat":48.426028200000005,"elevation":[]},{"distance":139.76,"relativeDirection":"RIGHT","streetName":"Rue Price Ouest","absoluteDirection":"WEST","stayOn":false,"area":false,"bogusName":false,"lon":-71.0719217,"lat":48.425614800000005,"elevation":[]}]}],"tooSloped":false},{"duration":1901,"startTime":1522674964000,"endTime":1522676865000,"walkTime":404,"transitTime":1195,"waitingTime":302,"walkDistance":516.0644661626236,"walkLimitExceeded":false,"elevationLost":0.0,"elevationGained":0.0,"transfers":1,"legs":[{"startTime":1522674964000,"endTime":1522675358000,"departureDelay":0,"arrivalDelay":0,"realTime":false,"distance":503.569,"pathway":false,"mode":"WALK","route":"","agencyTimeZoneOffset":-14400000,"interlineWithPreviousLeg":false,"from":{"name":"Origin","lon":-71.058672,"lat":48.399498,"departure":1522674964000,"orig":"","vertexType":"NORMAL"},"to":{"name":"boul. Talbot / Laurentides","stopId":"1:51","stopCode":"51","lon":-71.063914,"lat":48.398861,"arrival":1522675358000,"departure":1522675359000,"zoneId":"NA","stopIndex":9,"stopSequence":10,"vertexType":"TRANSIT"},"legGeometry":{"points":"__lfH|qupL|@bAo@`BIVO^d@zCJ|@VbCErCm@rBUn@_@fAdB~BV\\FH","length":15},"rentedBike":false,"transitLeg":false,"duration":394.0,"steps":[{"distance":41.723,"relativeDirection":"DEPART","streetName":"Rue des Sarcelles","absoluteDirection":"SOUTHWEST","stayOn":false,"area":false,"bogusName":false,"lon":-71.05838994631857,"lat":48.399362466838696,"elevation":[]},{"distance":69.782,"relativeDirection":"RIGHT","streetName":"Rue des Crécerelles","absoluteDirection":"NORTHWEST","stayOn":false,"area":false,"bogusName":false,"lon":-71.0587213,"lat":48.3990585,"elevation":[]},{"distance":85.619,"relativeDirection":"LEFT","streetName":"Rue des Grands-Ducs","absoluteDirection":"WEST","stayOn":false,"area":false,"bogusName":false,"lon":-71.05949000000001,"lat":48.3994237,"elevation":[]},{"distance":208.717,"relativeDirection":"CONTINUE","streetName":"path","absoluteDirection":"WEST","stayOn":false,"area":false,"bogusName":true,"lon":-71.0605886,"lat":48.3991787,"elevation":[]},{"distance":97.728,"relativeDirection":"LEFT","streetName":"Boulevard Talbot","absoluteDirection":"SOUTHWEST","stayOn":false,"area":false,"bogusName":false,"lon":-71.0631635,"lat":48.399589600000006,"elevation":[]}]},{"startTime":1522675359000,"endTime":1522676400000,"departureDelay":0,"arrivalDelay":0,"realTime":false,"distance":5092.8861536202185,"pathway":false,"mode":"BUS","route":"175","agencyName":"Société de Transport du Saguenay","agencyUrl":"http://ville.saguenay.ca/fr/services-aux-citoyens/transport-sts","agencyTimeZoneOffset":-14400000,"routeColor":"FF00FF","routeType":3,"routeId":"1:175","routeTextColor":"FFFFFF","interlineWithPreviousLeg":false,"tripBlockId":"11","headsign":"Terminus Chicoutimi","agencyId":"0","tripId":"1:217467","serviceDate":"20180402","from":{"name":"boul. Talbot / Laurentides","stopId":"1:51","stopCode":"51","lon":-71.063914,"lat":48.398861,"arrival":1522675358000,"departure":1522675359000,"zoneId":"NA","stopIndex":9,"stopSequence":10,"vertexType":"TRANSIT"},"to":{"name":"Terminus Chicoutimi","stopId":"1:1289","stopCode":"1289","lon":-71.066163,"lat":48.428677,"arrival":1522676400000,"departure":1522676700000,"zoneId":"NA","stopIndex":27,"stopSequence":28,"vertexType":"TRANSIT"},"legGeometry":{"points":"q|kfHtuvpL}FkImPkOuO{N_U_TcNgNcBcB{E`Jc@x@qG~@{BlAk@XgSrQqB_GAeFiEeEOt@gAeA_A_ATm@yAwAgBeBqDnL@nBF`@f@|C[dCuAfB]xAs@OmCmCmEkE]a@g@i@ZiGTmEl@oLaEe@cFk@?pH?tJDvBPjMB~Bo@PQDRbFKdGMhIOvIK|EQpHoCQEdC","length":54},"routeShortName":"175","routeLongName":"Term. Chic / Costco","rentedBike":false,"transitLeg":true,"duration":1041.0,"steps":[]},{"startTime":1522676700000,"endTime":1522676854000,"departureDelay":0,"arrivalDelay":0,"realTime":false,"distance":763.2357621895715,"pathway":false,"mode":"BUS","route":"11","agencyName":"Société de Transport du Saguenay","agencyUrl":"http://ville.saguenay.ca/fr/services-aux-citoyens/transport-sts","agencyTimeZoneOffset":-14400000,"routeColor":"FF0000","routeType":3,"routeId":"1:11","routeTextColor":"FFFFFF","interlineWithPreviousLeg":false,"tripBlockId":"35","headsign":"Boul.Royaume/St-Pierre","agencyId":"0","tripId":"1:218248","serviceDate":"20180402","from":{"name":"Terminus Chicoutimi","stopId":"1:1289","stopCode":"1289","lon":-71.066163,"lat":48.428677,"arrival":1522676400000,"departure":1522676700000,"zoneId":"NA","stopIndex":0,"stopSequence":1,"vertexType":"TRANSIT"},"to":{"name":"Price / Sainte-Marthe","stopId":"1:416","stopCode":"416","lon":-71.073879,"lat":48.425333,"arrival":1522676854000,"departure":1522676855000,"zoneId":"NA","stopIndex":3,"stopSequence":4,"vertexType":"TRANSIT"},"legGeometry":{"points":"evqfHzcwpLk@?UhKfIh@dKp@GnDIfDOtEE~@Ff@x@rEF~@CbAAL","length":14},"routeShortName":"11","routeLongName":"Chic/Faubourg via St-Paul","rentedBike":false,"transitLeg":true,"duration":154.0,"steps":[]},{"startTime":1522676855000,"endTime":1522676865000,"departureDelay":0,"arrivalDelay":0,"realTime":false,"distance":12.409,"pathway":false,"mode":"WALK","route":"","agencyTimeZoneOffset":-14400000,"interlineWithPreviousLeg":false,"from":{"name":"Price / Sainte-Marthe","stopId":"1:416","stopCode":"416","lon":-71.073879,"lat":48.425333,"arrival":1522676854000,"departure":1522676855000,"zoneId":"NA","stopIndex":3,"stopSequence":4,"vertexType":"TRANSIT"},"to":{"name":"Destination","lon":-71.073762,"lat":48.425003,"arrival":1522676865000,"orig":"","vertexType":"NORMAL"},"legGeometry":{"points":"aaqfHxrxpL@a@","length":2},"rentedBike":false,"transitLeg":false,"duration":10.0,"steps":[{"distance":12.409,"relativeDirection":"DEPART","streetName":"Rue Price Ouest","absoluteDirection":"EAST","stayOn":false,"area":false,"bogusName":false,"lon":-71.07388546753897,"lat":48.425292036907,"elevation":[]}]}],"tooSloped":false}]},"debugOutput":{"precalculationTime":43,"pathCalculationTime":49,"pathTimes":[23,13,12],"renderingTime":0,"totalTime":92,"timedOut":false},"elevationMetadata":{"ellipsoidToGeoidDifference":-28.885904201182168,"geoidElevation":false}}