{"requestParameters":{"date":"2018/04/02","walkSpeed":"1.33","walkReluctance":"2.0","fromPlace":"48.402336,-71.048411","maxWalkDistance":"3000","waitReluctance":"1.0","carSpeed":"33","numItineraries":"3","waitAtBeginningFactor":"0.4","mode":"TRANSIT,WALK","ignoreRealtimeUpdates":"false","stairsReluctance":"2.0","toPlace":"48.40513,-71.06202999","time":"13:40:00"},"plan":{"date":1522690800000,"from":{"name":"Origin","lon":-71.048411,"lat":48.402336,"orig":"","vertexType":"NORMAL"},"to":{"name":"Destination","lon":-71.06202999,"lat":48.40513,"orig":"","vertexType":"NORMAL"},"itineraries":[{"duration":628,"startTime":1522690984000,"endTime":1522691612000,"walkTime":439,"transitTime":187,"waitingTime":2,"walkDistance":571.4896315772492,"walkLimitExceeded":false,"elevationLost":0.0,"elevationGained":0.0,"transfers":0,"legs":[{"startTime":1522690984000,"endTime":1522691246000,"departureDelay":0,"arrivalDelay":0,"realTime":false,"distance":342.622,"pathway":false,"mode":"WALK","route":"","agencyTimeZoneOffset":-14400000,"interlineWithPreviousLeg":false,"from":{"name":"Origin","lon":-71.048411,"lat":48.402336,"departure":1522690984000,"orig":"","vertexType":"NORMAL"},"to":{"name":"Engoulevents / Sternes","stopId":"1:1568","stopCode":"1568","lon":-71.050864,"lat":48.400594,"arrival":1522691246000,"departure":1522691247000,"zoneId":"NA","stopIndex":10,"stopSequence":11,"vertexType":"TRANSIT"},"legGeometry":{"points":"{qlfHvsspLd@dDl@jEXzCp@U|AOf@D|@D@?","length":9},"rentedBike":false,"transitLeg":false,"duration":262.0,"steps":[{"distance":203.306,"relativeDirection":"DEPART","streetName":"Rue des Saguenéens","absoluteDirection":"WEST","stayOn":false,"area":false,"bogusName":false,"lon":-71.0484339615784,"lat":48.40238141505699,"elevation":[]},{"distance":139.316,"relativeDirection":"LEFT","streetName":"Rue des Engoulevents","absoluteDirection":"SOUTH","stayOn":false,"area":false,"bogusName":false,"lon":-71.0510608,"lat":48.401836200000005,"elevation":[]}]},{"startTime":1522691247000,"endTime":1522691434000,"departureDelay":0,"arrivalDelay":0,"realTime":false,"distance":1151.7884807397313,"pathway":false,"mode":"BUS","route":"15","agencyName":"Société de Transport du Saguenay","agencyUrl":"http://ville.saguenay.ca/fr/services-aux-citoyens/transport-sts","agencyTimeZoneOffset":-14400000,"routeColor":"FF00FF","routeType":3,"routeId":"1:15","routeTextColor":"FFFFFF","interlineWithPreviousLeg":false,"tripBlockId":"32","headsign":"Terminus Chicoutimi","agencyId":"0","tripId":"1:218161","serviceDate":"20180402","from":{"name":"Engoulevents / Sternes","stopId":"1:1568","stopCode":"1568","lon":-71.050864,"lat":48.400594,"arrival":1522691246000,"departure":1522691247000,"zoneId":"NA","stopIndex":10,"stopSequence":11,"vertexType":"TRANSIT"},"to":{"name":"Saguenéens / Maristes","stopId":"1:1999","stopCode":"1999","lon":-71.06394,"lat":48.405813,"arrival":1522691434000,"departure":1522691435000,"zoneId":"NA","stopIndex":14,"stopSequence":15,"vertexType":"TRANSIT"},"legGeometry":{"points":"uflfHxbtpLGAeGT~@~KKrKyAnL[hBUxAm@nCcAlDeCvGmA|CUr@}@~A_@\\_DvCEZcA|@","length":18},"routeShortName":"15","routeLongName":"Term. Chic / Costco","rentedBike":false,"transitLeg":true,"duration":187.0,"steps":[]},{"startTime":1522691435000,"endTime":1522691612000,"departureDelay":0,"arrivalDelay":0,"realTime":false,"distance":228.815,"pathway":false,"mode":"WALK","route":"","agencyTimeZoneOffset":-14400000,"interlineWithPreviousLeg":false,"from":{"name":"Saguenéens / Maristes","stopId":"1:1999","stopCode":"1999","lon":-71.06394,"lat":48.405813,"arrival":1522691434000,"departure":1522691435000,"zoneId":"NA","stopIndex":14,"stopSequence":15,"vertexType":"TRANSIT"},"to":{"name":"Destination","lon":-71.06202999,"lat":48.40513,"arrival":1522691612000,"orig":"","vertexType":"NORMAL"},"legGeometry":{"points":"agmfHduvpLbA_AcBmFPe@bAkC","length":5},"rentedBike":false,"transitLeg":false,"duration":177.0,"steps":[{"distance":44.272,"relativeDirection":"DEPART","streetName":"Rue des Saguenéens","absoluteDirection":"SOUTHEAST","stayOn":false,"area":false,"bogusName":false,"lon":-71.06402958721657,"lat":48.40577499056331,"elevation":[]},{"distance":184.543,"relativeDirection":"LEFT","streetName":"Rue Des Maristes","absoluteDirection":"NORTHEAST","stayOn":false,"area":false,"bogusName":false,"lon":-71.0637066,"lat":48.4054395,"elevation":[]}]}],"tooSloped":false},{"duration":1007,"startTime":1522690800000,"endTime":1522691807000,"walkTime":1007,"transitTime":0,"waitingTime":0,"walkDistance":1299.00852631061,"walkLimitExceeded":false,"elevationLost":0.0,"elevationGained":0.0,"transfers":0,"legs":[{"startTime":1522690800000,"endTime":1522691807000,"departureDelay":0,"arrivalDelay":0,"realTime":false,"distance":1298.8480000000002,"pathway":false,"mode":"WALK","route":"","agencyTimeZoneOffset":-14400000,"interlineWithPreviousLeg":false,"from":{"name":"Origin","lon":-71.048411,"lat":48.402336,"departure":1522690800000,"orig":"","vertexType":"NORMAL"},"to":{"name":"Destination","lon":-71.06202999,"lat":48.40513,"arrival":1522691807000,"orig":"","vertexType":"NORMAL"},"legGeometry":{"points":"{qlfHvsspLd@dDl@jEXzCUF`@~FJdGOpG[fEEj@UfBk@vDa@dCMh@mArEGRADKVyBvFgAnC}EuEO`@}@`C","length":23},"rentedBike":false,"transitLeg":false,"duration":1007.0,"steps":[{"distance":1078.218,"relativeDirection":"DEPART","streetName":"Rue des Saguenéens","absoluteDirection":"WEST","stayOn":false,"area":false,"bogusName":false,"lon":-71.0484339615784,"lat":48.40238141505699,"elevation":[]},{"distance":146.751,"relativeDirection":"RIGHT","streetName":"Rue Bach","absoluteDirection":"NORTHEAST","stayOn":false,"area":false,"bogusName":false,"lon":-71.06187870000001,"lat":48.404006700000004,"elevation":[]},{"distance":73.87899999999999,"relativeDirection":"LEFT","streetName":"Rue Des Maristes","absoluteDirection":"NORTHWEST","stayOn":false,"area":false,"bogusName":false,"lon":-71.06080990000001,"lat":48.405119500000005,"elevation":[]}]}],"tooSloped":false},{"duration":713,"startTime":1522691875000,"endTime":1522692588000,"walkTime":594,"transitTime":117,"waitingTime":2,"walkDistance":760.7068646569476,"walkLimitExceeded":false,"elevationLost":0.0,"elevationGained":0.0,"transfers":0,"legs":[{"startTime":1522691875000,"endTime":1522692058000,"departureDelay":0,"arrivalDelay":0,"realTime":false,"distance":234.47100000000003,"pathway":false,"mode":"WALK","route":"","agencyTimeZoneOffset":-14400000,"interlineWithPreviousLeg":false,"from":{"name":"Origin","lon":-71.048411,"lat":48.402336,"departure":1522691875000,"orig":"","vertexType":"NORMAL"},"to":{"name":"Champs-Élysées / Saguenéens","stopId":"1:84","stopCode":"84","lon":-71.05132,"lat":48.402083,"arrival":1522692058000,"departure":1522692059000,"zoneId":"NA","stopIndex":19,"stopSequence":20,"vertexType":"TRANSIT"},"legGeometry":{"points":"{qlfHvsspLd@dDl@jEXzCUF_@J","length":6},"rentedBike":false,"transitLeg":false,"duration":183.0,"steps":[{"distance":203.306,"relativeDirection":"DEPART","streetName":"Rue des Saguenéens","absoluteDirection":"WEST","stayOn":false,"area":false,"bogusName":false,"lon":-71.0484339615784,"lat":48.40238141505699,"elevation":[]},{"distance":12.973,"relativeDirection":"RIGHT","streetName":"Rue des Engoulevents","absoluteDirection":"NORTH","stayOn":false,"area":false,"bogusName":false,"lon":-71.0510608,"lat":48.401836200000005,"elevation":[]},{"distance":18.192,"relativeDirection":"CONTINUE","streetName":"Rue des Champs-Élysées","absoluteDirection":"NORTH","stayOn":false,"area":false,"bogusName":false,"lon":-71.0511074,"lat":48.401948700000005,"elevation":[]}]},{"startTime":1522692059000,"endTime":1522692176000,"departureDelay":0,"arrivalDelay":0,"realTime":false,"distance":712.6570320758143,"pathway":false,"mode":"BUS","route":"175","agencyName":"Société de Transport du Saguenay","agencyUrl":"http://ville.saguenay.ca/fr/services-aux-citoyens/transport-sts","agencyTimeZoneOffset":-14400000,"routeColor":"FF00FF","routeType":3,"routeId":"1:175","routeTextColor":"FFFFFF","interlineWithPreviousLeg":false,"tripBlockId":"8","headsign":"Costco","agencyId":"0","tripId":"1:217371","serviceDate":"20180402","from":{"name":"Champs-Élysées / Saguenéens","stopId":"1:84","stopCode":"84","lon":-71.05132,"lat":48.402083,"arrival":1522692058000,"departure":1522692059000,"zoneId":"NA","stopIndex":19,"stopSequence":20,"vertexType":"TRANSIT"},"to":{"name":"boul. Talbot (no. 1494) (Tim-Horton)","stopId":"1:1854","stopCode":"1854","lon":-71.060941,"lat":48.402118,"arrival":1522692176000,"departure":1522692177000,"zoneId":"NA","stopIndex":21,"stopSequence":22,"vertexType":"TRANSIT"},"legGeometry":{"points":"aplfHbetpL^KZ|DJpII~Fa@rFUzBi@bDUxAm@nCcAlDM^RTfD`D","length":14},"routeShortName":"175","routeLongName":"Term. Chic / Costco","rentedBike":false,"transitLeg":true,"duration":117.0,"steps":[]},{"startTime":1522692177000,"endTime":1522692588000,"departureDelay":0,"arrivalDelay":0,"realTime":false,"distance":526.09,"pathway":false,"mode":"WALK","route":"","agencyTimeZoneOffset":-14400000,"interlineWithPreviousLeg":false,"from":{"name":"boul. Talbot (no. 1494) (Tim-Horton)","stopId":"1:1854","stopCode":"1854","lon":-71.060941,"lat":48.402118,"arrival":1522692176000,"departure":1522692177000,"zoneId":"NA","stopIndex":21,"stopSequence":22,"vertexType":"TRANSIT"},"to":{"name":"Destination","lon":-71.06202999,"lat":48.40513,"arrival":1522692588000,"orig":"","vertexType":"NORMAL"},"legGeometry":{"points":"}olfHhavpLgDcDMV_ArBwBxFSS}EuEO`@}@`C","length":9},"rentedBike":false,"transitLeg":false,"duration":411.0,"steps":[{"distance":111.149,"relativeDirection":"DEPART","streetName":"Boulevard Talbot","absoluteDirection":"NORTHEAST","stayOn":false,"area":false,"bogusName":false,"lon":-71.06084575275527,"lat":48.40207691199218,"elevation":[]},{"distance":181.411,"relativeDirection":"LEFT","streetName":"Rue des Saguenéens","absoluteDirection":"NORTHWEST","stayOn":false,"area":false,"bogusName":false,"lon":-71.0600254,"lat":48.4029151,"elevation":[]},{"distance":159.651,"relativeDirection":"RIGHT","streetName":"Rue Bach","absoluteDirection":"NORTHEAST","stayOn":false,"area":false,"bogusName":false,"lon":-71.0619727,"lat":48.403908900000005,"elevation":[]},{"distance":73.87899999999999,"relativeDirection":"LEFT","streetName":"Rue Des Maristes","absoluteDirection":"NORTHWEST","stayOn":false,"area":false,"bogusName":false,"lon":-71.06080990000001,"lat":48.405119500000005,"elevation":[]}]}],"tooSloped":false}]},"debugOutput":{"precalculationTime":29,"pathCalculationTime":25,"pathTimes":[16,4,5],"renderingTime":0,"totalTime":54,"timedOut":false},"elevationMetadata":{"ellipsoidToGeoidDifference":-28.885904201182168,"geoidElevation":false}}