{"requestParameters":{"date":"2018/04/02","walkSpeed":"1.33","walkReluctance":"2.0","fromPlace":"48.40001,-71.044398","maxWalkDistance":"3000","waitReluctance":"1.0","carSpeed":"33","numItineraries":"3","waitAtBeginningFactor":"0.4","mode":"TRANSIT,WALK","ignoreRealtimeUpdates":"false","stairsReluctance":"2.0","toPlace":"48.400681,-71.05389","time":"15:30:00"},"plan":{"date":1522697400000,"from":{"name":"Origin","lon":-71.044398,"lat":48.40001,"orig":"","vertexType":"NORMAL"},"to":{"name":"Destination","lon":-71.05389,"lat":48.400681,"orig":"","vertexType":"NORMAL"},"itineraries":[{"duration":3330,"startTime":1522698795000,"endTime":1522702125000,"walkTime":3019,"transitTime":309,"waitingTime":2,"walkDistance":3922.4313232944187,"walkLimitExceeded":false,"elevationLost":0.0,"elevationGained":0.0,"transfers":0,"legs":[{"startTime":1522698795000,"endTime":1522701082000,"departureDelay":0,"arrivalDelay":0,"realTime":false,"distance":2977.9049999999997,"pathway":false,"mode":"WALK","route":"","agencyTimeZoneOffset":-14400000,"interlineWithPreviousLeg":false,"from":{"name":"Origin","lon":-71.044398,"lat":48.40001,"departure":1522698795000,"orig":"","vertexType":"NORMAL"},"to":{"name":"nouveau","stopId":"1:2297","stopCode":"2297","lon":-71.02468,"lat":48.413593,"arrival":1522701082000,"departure":1522701083000,"zoneId":"NA","stopIndex":25,"stopSequence":26,"vertexType":"TRANSIT"},"legGeometry":{"points":"}clfH|wrpLA@SNg@Pw@UUs@GcAAaAo@cAkCmDs@uASe@k@}@y@aAMkGSmBDmCOoCa@aCIQUAUN]dAyBxEQt@Ev@?`AIn@YN[Ce@Eq@kCM}AcAiA{@c@q@e@}Ba@Us@Qm@Uc@Q_@[I[OQc@_@[S[Ug@B_ADa@?QQg@Kk@MGOeAc@]_@SSOULSI?YGO[KOc@KGG]@GBEt@_@EqACWGiB[UKdA_@b@SRYLu@d@}@Ni@A]Jw@Cc@N}AAg@r@y@NIqA[wEA_@Ei@MaCC]g@yEUsAIm@yB}Mk@uKq@JUD","length":98},"alerts":[{"alertHeaderText":"Unpaved surface"}],"rentedBike":false,"transitLeg":false,"duration":2287.0,"steps":[{"distance":1750.5240000000001,"relativeDirection":"DEPART","streetName":"path","absoluteDirection":"NORTHWEST","stayOn":false,"area":false,"bogusName":false,"lon":-71.0439825575643,"lat":48.40015161754005,"elevation":[]},{"distance":63.259,"relativeDirection":"RIGHT","streetName":"steps","absoluteDirection":"SOUTH","stayOn":false,"area":false,"bogusName":true,"lon":-71.0331419,"lat":48.4089727,"elevation":[]},{"distance":386.934,"relativeDirection":"LEFT","streetName":"Sentier des Moulins","absoluteDirection":"EAST","stayOn":false,"area":false,"bogusName":false,"lon":-71.03298500000001,"lat":48.408708000000004,"elevation":[],"alerts":[{"alertHeaderText":"Unpaved surface"}]},{"distance":62.209,"relativeDirection":"LEFT","streetName":"path","absoluteDirection":"NORTHWEST","stayOn":false,"area":false,"bogusName":true,"lon":-71.0328834,"lat":48.4112566,"elevation":[],"alerts":[{"alertHeaderText":"Unpaved surface"}]},{"distance":674.7560000000001,"relativeDirection":"RIGHT","streetName":"Boulevard de l'Université","absoluteDirection":"EAST","stayOn":false,"area":false,"bogusName":false,"lon":-71.0332252,"lat":48.411744500000005,"elevation":[]},{"distance":40.223,"relativeDirection":"LEFT","streetName":"Boulevard du Saguenay Est","absoluteDirection":"NORTH","stayOn":false,"area":false,"bogusName":false,"lon":-71.0244078,"lat":48.413254800000004,"elevation":[]}]},{"startTime":1522701083000,"endTime":1522701392000,"departureDelay":0,"arrivalDelay":0,"realTime":false,"distance":2177.551581854706,"pathway":false,"mode":"BUS","route":"12","agencyName":"Société de Transport du Saguenay","agencyUrl":"http://ville.saguenay.ca/fr/services-aux-citoyens/transport-sts","agencyTimeZoneOffset":-14400000,"routeColor":"556B2F","routeType":3,"routeId":"1:12","routeTextColor":"FFFFFF","interlineWithPreviousLeg":false,"tripBlockId":"28","headsign":"Terminus UQAC","agencyId":"0","tripId":"1:218045","serviceDate":"20180402","from":{"name":"nouveau","stopId":"1:2297","stopCode":"2297","lon":-71.02468,"lat":48.413593,"arrival":1522701082000,"departure":1522701083000,"zoneId":"NA","stopIndex":25,"stopSequence":26,"vertexType":"TRANSIT"},"to":{"name":"Émile Girardin / Roitelets","stopId":"1:253","stopCode":"253","lon":-71.050677,"lat":48.406726,"arrival":1522701392000,"departure":1522701393000,"zoneId":"NA","stopIndex":27,"stopSequence":28,"vertexType":"TRANSIT"},"legGeometry":{"points":"}wnfHf_opLvVvrCdRvM","length":3},"routeShortName":"12","routeLongName":"Rivière du Moulin","rentedBike":false,"transitLeg":true,"duration":309.0,"steps":[]},{"startTime":1522701393000,"endTime":1522702125000,"departureDelay":0,"arrivalDelay":0,"realTime":false,"distance":944.097,"pathway":false,"mode":"WALK","route":"","agencyTimeZoneOffset":-14400000,"interlineWithPreviousLeg":false,"from":{"name":"Émile Girardin / Roitelets","stopId":"1:253","stopCode":"253","lon":-71.050677,"lat":48.406726,"arrival":1522701392000,"departure":1522701393000,"zoneId":"NA","stopIndex":27,"stopSequence":28,"vertexType":"TRANSIT"},"to":{"name":"Destination","lon":-71.05389,"lat":48.400681,"arrival":1522702125000,"orig":"","vertexType":"NORMAL"},"legGeometry":{"points":"qlmfHnatpL@J@FFn@z@pEt@]l@Qp@E|@B|@LtAJfA?^Ed@MNGrBm@jEiA^KTGp@U|AOf@DClEBzDHnE","length":25},"rentedBike":false,"transitLeg":false,"duration":732.0,"steps":[{"distance":110.098,"relativeDirection":"DEPART","streetName":"Rue Émile-Girardin","absoluteDirection":"WEST","stayOn":false,"area":false,"bogusName":false,"lon":-71.05063801296859,"lat":48.406654574894674,"elevation":[]},{"distance":494.333,"relativeDirection":"LEFT","streetName":"Rue des Champs-Élysées","absoluteDirection":"SOUTH","stayOn":false,"area":false,"bogusName":false,"lon":-71.05202630000001,"lat":48.4062974,"elevation":[]},{"distance":117.181,"relativeDirection":"CONTINUE","streetName":"Rue des Engoulevents","absoluteDirection":"SOUTH","stayOn":false,"area":false,"bogusName":false,"lon":-71.0511074,"lat":48.401948700000005,"elevation":[]},{"distance":222.485,"relativeDirection":"RIGHT","streetName":"Rue des Sternes","absoluteDirection":"WEST","stayOn":false,"area":false,"bogusName":false,"lon":-71.0509011,"lat":48.400912500000004,"elevation":[]}]}],"tooSloped":false},{"duration":3330,"startTime":1522700595000,"endTime":1522703925000,"walkTime":3019,"transitTime":309,"waitingTime":2,"walkDistance":3922.4313232944187,"walkLimitExceeded":false,"elevationLost":0.0,"elevationGained":0.0,"transfers":0,"legs":[{"startTime":1522700595000,"endTime":1522702882000,"departureDelay":0,"arrivalDelay":0,"realTime":false,"distance":2977.9049999999997,"pathway":false,"mode":"WALK","route":"","agencyTimeZoneOffset":-14400000,"interlineWithPreviousLeg":false,"from":{"name":"Origin","lon":-71.044398,"lat":48.40001,"departure":1522700595000,"orig":"","vertexType":"NORMAL"},"to":{"name":"nouveau","stopId":"1:2297","stopCode":"2297","lon":-71.02468,"lat":48.413593,"arrival":1522702882000,"departure":1522702883000,"zoneId":"NA","stopIndex":25,"stopSequence":26,"vertexType":"TRANSIT"},"legGeometry":{"points":"}clfH|wrpLA@SNg@Pw@UUs@GcAAaAo@cAkCmDs@uASe@k@}@y@aAMkGSmBDmCOoCa@aCIQUAUN]dAyBxEQt@Ev@?`AIn@YN[Ce@Eq@kCM}AcAiA{@c@q@e@}Ba@Us@Qm@Uc@Q_@[I[OQc@_@[S[Ug@B_ADa@?QQg@Kk@MGOeAc@]_@SSOULSI?YGO[KOc@KGG]@GBEt@_@EqACWGiB[UKdA_@b@SRYLu@d@}@Ni@A]Jw@Cc@N}AAg@r@y@NIqA[wEA_@Ei@MaCC]g@yEUsAIm@yB}Mk@uKq@JUD","length":98},"alerts":[{"alertHeaderText":"Unpaved surface"}],"rentedBike":false,"transitLeg":false,"duration":2287.0,"steps":[{"distance":1750.5240000000001,"relativeDirection":"DEPART","streetName":"path","absoluteDirection":"NORTHWEST","stayOn":false,"area":false,"bogusName":false,"lon":-71.0439825575643,"lat":48.40015161754005,"elevation":[]},{"distance":63.259,"relativeDirection":"RIGHT","streetName":"steps","absoluteDirection":"SOUTH","stayOn":false,"area":false,"bogusName":true,"lon":-71.0331419,"lat":48.4089727,"elevation":[]},{"distance":386.934,"relativeDirection":"LEFT","streetName":"Sentier des Moulins","absoluteDirection":"EAST","stayOn":false,"area":false,"bogusName":false,"lon":-71.03298500000001,"lat":48.408708000000004,"elevation":[],"alerts":[{"alertHeaderText":"Unpaved surface"}]},{"distance":62.209,"relativeDirection":"LEFT","streetName":"path","absoluteDirection":"NORTHWEST","stayOn":false,"area":false,"bogusName":true,"lon":-71.0328834,"lat":48.4112566,"elevation":[],"alerts":[{"alertHeaderText":"Unpaved surface"}]},{"distance":674.7560000000001,"relativeDirection":"RIGHT","streetName":"Boulevard de l'Université","absoluteDirection":"EAST","stayOn":false,"area":false,"bogusName":false,"lon":-71.0332252,"lat":48.411744500000005,"elevation":[]},{"distance":40.223,"relativeDirection":"LEFT","streetName":"Boulevard du Saguenay Est","absoluteDirection":"NORTH","stayOn":false,"area":false,"bogusName":false,"lon":-71.0244078,"lat":48.413254800000004,"elevation":[]}]},{"startTime":1522702883000,"endTime":1522703192000,"departureDelay":0,"arrivalDelay":0,"realTime":false,"distance":2177.551581854706,"pathway":false,"mode":"BUS","route":"12","agencyName":"Société de Transport du Saguenay","agencyUrl":"http://ville.saguenay.ca/fr/services-aux-citoyens/transport-sts","agencyTimeZoneOffset":-14400000,"routeColor":"556B2F","routeType":3,"routeId":"1:12","routeTextColor":"FFFFFF","interlineWithPreviousLeg":false,"tripBlockId":"27","headsign":"Terminus UQAC","agencyId":"0","tripId":"1:218020","serviceDate":"20180402","from":{"name":"nouveau","stopId":"1:2297","stopCode":"2297","lon":-71.02468,"lat":48.413593,"arrival":1522702882000,"departure":1522702883000,"zoneId":"NA","stopIndex":25,"stopSequence":26,"vertexType":"TRANSIT"},"to":{"name":"Émile Girardin / Roitelets","stopId":"1:253","stopCode":"253","lon":-71.050677,"lat":48.406726,"arrival":1522703192000,"departure":1522703193000,"zoneId":"NA","stopIndex":27,"stopSequence":28,"vertexType":"TRANSIT"},"legGeometry":{"points":"}wnfHf_opLvVvrCdRvM","length":3},"routeShortName":"12","routeLongName":"Rivière du Moulin","rentedBike":false,"transitLeg":true,"duration":309.0,"steps":[]},{"startTime":1522703193000,"endTime":1522703925000,"departureDelay":0,"arrivalDelay":0,"realTime":false,"distance":944.097,"pathway":false,"mode":"WALK","route":"","agencyTimeZoneOffset":-14400000,"interlineWithPreviousLeg":false,"from":{"name":"Émile Girardin / Roitelets","stopId":"1:253","stopCode":"253","lon":-71.050677,"lat":48.406726,"arrival":1522703192000,"departure":1522703193000,"zoneId":"NA","stopIndex":27,"stopSequence":28,"vertexType":"TRANSIT"},"to":{"name":"Destination","lon":-71.05389,"lat":48.400681,"arrival":1522703925000,"orig":"","vertexType":"NORMAL"},"legGeometry":{"points":"qlmfHnatpL@J@FFn@z@pEt@]l@Qp@E|@B|@LtAJfA?^Ed@MNGrBm@jEiA^KTGp@U|AOf@DClEBzDHnE","length":25},"rentedBike":false,"transitLeg":false,"duration":732.0,"steps":[{"distance":110.098,"relativeDirection":"DEPART","streetName":"Rue Émile-Girardin","absoluteDirection":"WEST","stayOn":false,"area":false,"bogusName":false,"lon":-71.05063801296859,"lat":48.406654574894674,"elevation":[]},{"distance":494.333,"relativeDirection":"LEFT","streetName":"Rue des Champs-Élysées","absoluteDirection":"SOUTH","stayOn":false,"area":false,"bogusName":false,"lon":-71.05202630000001,"lat":48.4062974,"elevation":[]},{"distance":117.181,"relativeDirection":"CONTINUE","streetName":"Rue des Engoulevents","absoluteDirection":"SOUTH","stayOn":false,"area":false,"bogusName":false,"lon":-71.0511074,"lat":48.401948700000005,"elevation":[]},{"distance":222.485,"relativeDirection":"RIGHT","streetName":"Rue des Sternes","absoluteDirection":"WEST","stayOn":false,"area":false,"bogusName":false,"lon":-71.0509011,"lat":48.400912500000004,"elevation":[]}]}],"tooSloped":false},{"duration":3330,"startTime":1522702395000,"endTime":1522705725000,"walkTime":3019,"transitTime":309,"waitingTime":2,"walkDistance":3922.4313232944187,"walkLimitExceeded":false,"elevationLost":0.0,"elevationGained":0.0,"transfers":0,"legs":[{"startTime":1522702395000,"endTime":1522704682000,"departureDelay":0,"arrivalDelay":0,"realTime":false,"distance":2977.9049999999997,"pathway":false,"mode":"WALK","route":"","agencyTimeZoneOffset":-14400000,"interlineWithPreviousLeg":false,"from":{"name":"Origin","lon":-71.044398,"lat":48.40001,"departure":1522702395000,"orig":"","vertexType":"NORMAL"},"to":{"name":"nouveau","stopId":"1:2297","stopCode":"2297","lon":-71.02468,"lat":48.413593,"arrival":1522704682000,"departure":1522704683000,"zoneId":"NA","stopIndex":25,"stopSequence":26,"vertexType":"TRANSIT"},"legGeometry":{"points":"}clfH|wrpLA@SNg@Pw@UUs@GcAAaAo@cAkCmDs@uASe@k@}@y@aAMkGSmBDmCOoCa@aCIQUAUN]dAyBxEQt@Ev@?`AIn@YN[Ce@Eq@kCM}AcAiA{@c@q@e@}Ba@Us@Qm@Uc@Q_@[I[OQc@_@[S[Ug@B_ADa@?QQg@Kk@MGOeAc@]_@SSOULSI?YGO[KOc@KGG]@GBEt@_@EqACWGiB[UKdA_@b@SRYLu@d@}@Ni@A]Jw@Cc@N}AAg@r@y@NIqA[wEA_@Ei@MaCC]g@yEUsAIm@yB}Mk@uKq@JUD","length":98},"alerts":[{"alertHeaderText":"Unpaved surface"}],"rentedBike":false,"transitLeg":false,"duration":2287.0,"steps":[{"distance":1750.5240000000001,"relativeDirection":"DEPART","streetName":"path","absoluteDirection":"NORTHWEST","stayOn":false,"area":false,"bogusName":false,"lon":-71.0439825575643,"lat":48.40015161754005,"elevation":[]},{"distance":63.259,"relativeDirection":"RIGHT","streetName":"steps","absoluteDirection":"SOUTH","stayOn":false,"area":false,"bogusName":true,"lon":-71.0331419,"lat":48.4089727,"elevation":[]},{"distance":386.934,"relativeDirection":"LEFT","streetName":"Sentier des Moulins","absoluteDirection":"EAST","stayOn":false,"area":false,"bogusName":false,"lon":-71.03298500000001,"lat":48.408708000000004,"elevation":[],"alerts":[{"alertHeaderText":"Unpaved surface"}]},{"distance":62.209,"relativeDirection":"LEFT","streetName":"path","absoluteDirection":"NORTHWEST","stayOn":false,"area":false,"bogusName":true,"lon":-71.0328834,"lat":48.4112566,"elevation":[],"alerts":[{"alertHeaderText":"Unpaved surface"}]},{"distance":674.7560000000001,"relativeDirection":"RIGHT","streetName":"Boulevard de l'Université","absoluteDirection":"EAST","stayOn":false,"area":false,"bogusName":false,"lon":-71.0332252,"lat":48.411744500000005,"elevation":[]},{"distance":40.223,"relativeDirection":"LEFT","streetName":"Boulevard du Saguenay Est","absoluteDirection":"NORTH","stayOn":false,"area":false,"bogusName":false,"lon":-71.0244078,"lat":48.413254800000004,"elevation":[]}]},{"startTime":1522704683000,"endTime":1522704992000,"departureDelay":0,"arrivalDelay":0,"realTime":false,"distance":2177.551581854706,"pathway":false,"mode":"BUS","route":"12","agencyName":"Société de Transport du Saguenay","agencyUrl":"http://ville.saguenay.ca/fr/services-aux-citoyens/transport-sts","agencyTimeZoneOffset":-14400000,"routeColor":"556B2F","routeType":3,"routeId":"1:12","routeTextColor":"FFFFFF","interlineWithPreviousLeg":false,"tripBlockId":"28","headsign":"Terminus UQAC","agencyId":"0","tripId":"1:218047","serviceDate":"20180402","from":{"name":"nouveau","stopId":"1:2297","stopCode":"2297","lon":-71.02468,"lat":48.413593,"arrival":1522704682000,"departure":1522704683000,"zoneId":"NA","stopIndex":25,"stopSequence":26,"vertexType":"TRANSIT"},"to":{"name":"Émile Girardin / Roitelets","stopId":"1:253","stopCode":"253","lon":-71.050677,"lat":48.406726,"arrival":1522704992000,"departure":1522704993000,"zoneId":"NA","stopIndex":27,"stopSequence":28,"vertexType":"TRANSIT"},"legGeometry":{"points":"}wnfHf_opLvVvrCdRvM","length":3},"routeShortName":"12","routeLongName":"Rivière du Moulin","rentedBike":false,"transitLeg":true,"duration":309.0,"steps":[]},{"startTime":1522704993000,"endTime":1522705725000,"departureDelay":0,"arrivalDelay":0,"realTime":false,"distance":944.097,"pathway":false,"mode":"WALK","route":"","agencyTimeZoneOffset":-14400000,"interlineWithPreviousLeg":false,"from":{"name":"Émile Girardin / Roitelets","stopId":"1:253","stopCode":"253","lon":-71.050677,"lat":48.406726,"arrival":1522704992000,"departure":1522704993000,"zoneId":"NA","stopIndex":27,"stopSequence":28,"vertexType":"TRANSIT"},"to":{"name":"Destination","lon":-71.05389,"lat":48.400681,"arrival":1522705725000,"orig":"","vertexType":"NORMAL"},"legGeometry":{"points":"qlmfHnatpL@J@FFn@z@pEt@]l@Qp@E|@B|@LtAJfA?^Ed@MNGrBm@jEiA^KTGp@U|AOf@DClEBzDHnE","length":25},"rentedBike":false,"transitLeg":false,"duration":732.0,"steps":[{"distance":110.098,"relativeDirection":"DEPART","streetName":"Rue Émile-Girardin","absoluteDirection":"WEST","stayOn":false,"area":false,"bogusName":false,"lon":-71.05063801296859,"lat":48.406654574894674,"elevation":[]},{"distance":494.333,"relativeDirection":"LEFT","streetName":"Rue des Champs-Élysées","absoluteDirection":"SOUTH","stayOn":false,"area":false,"bogusName":false,"lon":-71.05202630000001,"lat":48.4062974,"elevation":[]},{"distance":117.181,"relativeDirection":"CONTINUE","streetName":"Rue des Engoulevents","absoluteDirection":"SOUTH","stayOn":false,"area":false,"bogusName":false,"lon":-71.0511074,"lat":48.401948700000005,"elevation":[]},{"distance":222.485,"relativeDirection":"RIGHT","streetName":"Rue des Sternes","absoluteDirection":"WEST","stayOn":false,"area":false,"bogusName":false,"lon":-71.0509011,"lat":48.400912500000004,"elevation":[]}]}],"tooSloped":false}]},"debugOutput":{"precalculationTime":18,"pathCalculationTime":4,"pathTimes":[2,1,1],"renderingTime":0,"totalTime":22,"timedOut":false},"elevationMetadata":{"ellipsoidToGeoidDifference":-28.885904201182168,"geoidElevation":false}}