{"requestParameters":{"date":"2018/04/02","walkSpeed":"1.33","walkReluctance":"2.0","fromPlace":"48.40513,-71.06202998","maxWalkDistance":"3000","waitReluctance":"1.0","carSpeed":"33","numItineraries":"3","waitAtBeginningFactor":"0.4","mode":"TRANSIT,WALK","ignoreRealtimeUpdates":"false","stairsReluctance":"2.0","toPlace":"48.406641,-71.058372","time":"14:0:00"},"plan":{"date":1522692000000,"from":{"name":"Origin","lon":-71.06202998,"lat":48.40513,"orig":"","vertexType":"NORMAL"},"to":{"name":"Destination","lon":-71.058372,"lat":48.406641,"orig":"","vertexType":"NORMAL"},"itineraries":[{"duration":639,"startTime":1522692000000,"endTime":1522692639000,"walkTime":639,"transitTime":0,"waitingTime":0,"walkDistance":826.4655639073362,"walkLimitExceeded":false,"elevationLost":0.0,"elevationGained":0.0,"transfers":0,"legs":[{"startTime":1522692000000,"endTime":1522692639000,"departureDelay":0,"arrivalDelay":0,"realTime":false,"distance":826.3900000000001,"pathway":false,"mode":"WALK","route":"","agencyTimeZoneOffset":-14400000,"interlineWithPreviousLeg":false,"from":{"name":"Origin","lon":-71.06202998,"lat":48.40513,"departure":1522692000000,"orig":"","vertexType":"NORMAL"},"to":{"name":"Destination","lon":-71.058372,"lat":48.406641,"arrival":1522692639000,"orig":"","vertexType":"NORMAL"},"legGeometry":{"points":"kemfHdfvpL|@aCNa@eE}Dw@q@wAoAgGsF][YWMKbAwCb@XXRLHPe@\\w@B@\\TjAnAh@h@Lr@n@j@","length":22},"rentedBike":false,"transitLeg":false,"duration":639.0,"steps":[{"distance":73.878,"relativeDirection":"DEPART","streetName":"Rue Des Maristes","absoluteDirection":"SOUTHEAST","stayOn":false,"area":false,"bogusName":false,"lon":-71.0616233166073,"lat":48.40550659853055,"elevation":[]},{"distance":440.94200000000006,"relativeDirection":"LEFT","streetName":"Rue Bach","absoluteDirection":"NORTHEAST","stayOn":false,"area":false,"bogusName":false,"lon":-71.06080990000001,"lat":48.405119500000005,"elevation":[]},{"distance":67.359,"relativeDirection":"RIGHT","streetName":"Rue Plamondon","absoluteDirection":"SOUTHEAST","stayOn":false,"area":false,"bogusName":false,"lon":-71.05766410000001,"lat":48.408490300000004,"elevation":[]},{"distance":244.211,"relativeDirection":"RIGHT","streetName":"parking aisle","absoluteDirection":"SOUTHWEST","stayOn":false,"area":false,"bogusName":true,"lon":-71.05690750000001,"lat":48.408151600000004,"elevation":[]}]}],"tooSloped":false},{"duration":685,"startTime":1522692119000,"endTime":1522692804000,"walkTime":618,"transitTime":65,"waitingTime":2,"walkDistance":808.3895263138365,"walkLimitExceeded":false,"elevationLost":0.0,"elevationGained":0.0,"transfers":0,"legs":[{"startTime":1522692119000,"endTime":1522692293000,"departureDelay":0,"arrivalDelay":0,"realTime":false,"distance":228.816,"pathway":false,"mode":"WALK","route":"","agencyTimeZoneOffset":-14400000,"interlineWithPreviousLeg":false,"from":{"name":"Origin","lon":-71.06202998,"lat":48.40513,"departure":1522692119000,"orig":"","vertexType":"NORMAL"},"to":{"name":"Saguenéens / Maristes","stopId":"1:1999","stopCode":"1999","lon":-71.06394,"lat":48.405813,"arrival":1522692293000,"departure":1522692294000,"zoneId":"NA","stopIndex":21,"stopSequence":22,"vertexType":"TRANSIT"},"legGeometry":{"points":"kemfHdfvpLcAjCQd@bBlFcA~@","length":5},"rentedBike":false,"transitLeg":false,"duration":174.0,"steps":[{"distance":184.544,"relativeDirection":"DEPART","streetName":"Rue Des Maristes","absoluteDirection":"NORTHWEST","stayOn":false,"area":false,"bogusName":false,"lon":-71.0616233166073,"lat":48.40550659853055,"elevation":[]},{"distance":44.272,"relativeDirection":"RIGHT","streetName":"Rue des Saguenéens","absoluteDirection":"NORTHWEST","stayOn":false,"area":false,"bogusName":false,"lon":-71.0637066,"lat":48.4054395,"elevation":[]}]},{"startTime":1522692294000,"endTime":1522692359000,"departureDelay":0,"arrivalDelay":0,"realTime":false,"distance":318.72062391189434,"pathway":false,"mode":"BUS","route":"15","agencyName":"Société de Transport du Saguenay","agencyUrl":"http://ville.saguenay.ca/fr/services-aux-citoyens/transport-sts","agencyTimeZoneOffset":-14400000,"routeColor":"FF00FF","routeType":3,"routeId":"1:15","routeTextColor":"FFFFFF","interlineWithPreviousLeg":false,"tripBlockId":"31","headsign":"Talbot / Barrette","agencyId":"0","tripId":"1:218136","serviceDate":"20180402","from":{"name":"Saguenéens / Maristes","stopId":"1:1999","stopCode":"1999","lon":-71.06394,"lat":48.405813,"arrival":1522692293000,"departure":1522692294000,"zoneId":"NA","stopIndex":21,"stopSequence":22,"vertexType":"TRANSIT"},"to":{"name":"Saguenéens  / Bach","stopId":"1:575","stopCode":"575","lon":-71.061104,"lat":48.403689,"arrival":1522692359000,"departure":1522692360000,"zoneId":"NA","stopIndex":23,"stopSequence":24,"vertexType":"TRANSIT"},"legGeometry":{"points":"{emfHpvvpLtDsH~DeI","length":3},"routeShortName":"15","routeLongName":"Term. Chic / Costco","rentedBike":false,"transitLeg":true,"duration":65.0,"steps":[]},{"startTime":1522692360000,"endTime":1522692804000,"departureDelay":0,"arrivalDelay":0,"realTime":false,"distance":579.513,"pathway":false,"mode":"WALK","route":"","agencyTimeZoneOffset":-14400000,"interlineWithPreviousLeg":false,"from":{"name":"Saguenéens  / Bach","stopId":"1:575","stopCode":"575","lon":-71.061104,"lat":48.403689,"arrival":1522692359000,"departure":1522692360000,"zoneId":"NA","stopIndex":23,"stopSequence":24,"vertexType":"TRANSIT"},"to":{"name":"Destination","lon":-71.058372,"lat":48.406641,"arrival":1522692804000,"orig":"","vertexType":"NORMAL"},"legGeometry":{"points":"wylfHfcvpLxBwFQQkF_Fs@~B[Y{BmByAkAaAy@EH]B_@WCC","length":13},"rentedBike":false,"transitLeg":false,"duration":444.0,"steps":[{"distance":114.286,"relativeDirection":"DEPART","streetName":"Rue des Saguenéens","absoluteDirection":"SOUTHEAST","stayOn":false,"area":false,"bogusName":false,"lon":-71.0611521754673,"lat":48.403646208471976,"elevation":[]},{"distance":167.019,"relativeDirection":"LEFT","streetName":"Boulevard Talbot","absoluteDirection":"NORTHEAST","stayOn":false,"area":false,"bogusName":false,"lon":-71.0599121,"lat":48.403030900000005,"elevation":[]},{"distance":298.208,"relativeDirection":"LEFT","streetName":"parking aisle","absoluteDirection":"NORTHWEST","stayOn":false,"area":false,"bogusName":true,"lon":-71.0587038,"lat":48.4043008,"elevation":[]}]}],"tooSloped":false}]},"debugOutput":{"precalculationTime":37,"pathCalculationTime":30,"pathTimes":[18,6,6],"renderingTime":1,"totalTime":68,"timedOut":false},"elevationMetadata":{"ellipsoidToGeoidDifference":-28.885904201182168,"geoidElevation":false}}