{"requestParameters":{"date":"2018/04/02","walkSpeed":"1.33","walkReluctance":"2.0","fromPlace":"48.383492,-71.08352999","maxWalkDistance":"3000","waitReluctance":"1.0","carSpeed":"33","numItineraries":"3","waitAtBeginningFactor":"0.4","mode":"TRANSIT,WALK","ignoreRealtimeUpdates":"false","stairsReluctance":"2.0","toPlace":"48.40513,-71.06202998","time":"13:30:00"},"plan":{"date":1522690200000,"from":{"name":"Origin","lon":-71.08352999,"lat":48.383492,"orig":"","vertexType":"NORMAL"},"to":{"name":"Destination","lon":-71.06202998,"lat":48.40513,"orig":"","vertexType":"NORMAL"},"itineraries":[{"duration":1271,"startTime":1522691108000,"endTime":1522692379000,"walkTime":696,"transitTime":573,"waitingTime":2,"walkDistance":879.459639091109,"walkLimitExceeded":false,"elevationLost":0.0,"elevationGained":0.0,"transfers":0,"legs":[{"startTime":1522691108000,"endTime":1522691126000,"departureDelay":0,"arrivalDelay":0,"realTime":false,"distance":23.36,"pathway":false,"mode":"WALK","route":"","agencyTimeZoneOffset":-14400000,"interlineWithPreviousLeg":false,"from":{"name":"Origin","lon":-71.08352999,"lat":48.383492,"departure":1522691108000,"orig":"","vertexType":"NORMAL"},"to":{"name":"COSTCO","stopId":"1:1542","stopCode":"1542","lon":-71.084272,"lat":48.383644,"arrival":1522691126000,"departure":1522691127000,"zoneId":"NA","stopIndex":1,"stopSequence":2,"vertexType":"TRANSIT"},"legGeometry":{"points":"_~hfH|rzpLTZJJ","length":3},"rentedBike":false,"transitLeg":false,"duration":18.0,"steps":[{"distance":23.36,"relativeDirection":"DEPART","streetName":"service road","absoluteDirection":"SOUTHWEST","stayOn":false,"area":false,"bogusName":false,"lon":-71.08414271500874,"lat":48.383841239633476,"elevation":[]}]},{"startTime":1522691127000,"endTime":1522691700000,"departureDelay":0,"arrivalDelay":0,"realTime":false,"distance":3349.4821877715963,"pathway":false,"mode":"BUS","route":"175","agencyName":"Société de Transport du Saguenay","agencyUrl":"http://ville.saguenay.ca/fr/services-aux-citoyens/transport-sts","agencyTimeZoneOffset":-14400000,"routeColor":"FF00FF","routeType":3,"routeId":"1:175","routeTextColor":"FFFFFF","interlineWithPreviousLeg":false,"tripBlockId":"11","headsign":"Terminus Chicoutimi","agencyId":"0","tripId":"1:217476","serviceDate":"20180402","from":{"name":"COSTCO","stopId":"1:1542","stopCode":"1542","lon":-71.084272,"lat":48.383644,"arrival":1522691126000,"departure":1522691127000,"zoneId":"NA","stopIndex":1,"stopSequence":2,"vertexType":"TRANSIT"},"to":{"name":"Place Royaume","stopId":"1:1801","stopCode":"1801","lon":-71.057017,"lat":48.405588,"arrival":1522691700000,"departure":1522691701000,"zoneId":"NA","stopIndex":10,"stopSequence":11,"vertexType":"TRANSIT"},"legGeometry":{"points":"y|hfHzszpLwCqDrCsGN_@uEoFoEiFUWSUqCwC]a@{ByC{@cAkJuKoAwA_CeCeExJ~AlB`@mAu@k@}@q@|C}Iw@}@aO_QkEsEiAoAgEsFkFsHqJ_N}FkImPkOuO{N","length":31},"routeShortName":"175","routeLongName":"Term. Chic / Costco","rentedBike":false,"transitLeg":true,"duration":573.0,"steps":[]},{"startTime":1522691701000,"endTime":1522692379000,"departureDelay":0,"arrivalDelay":0,"realTime":false,"distance":855.894,"pathway":false,"mode":"WALK","route":"","agencyTimeZoneOffset":-14400000,"interlineWithPreviousLeg":false,"from":{"name":"Place Royaume","stopId":"1:1801","stopCode":"1801","lon":-71.057017,"lat":48.405588,"arrival":1522691700000,"departure":1522691701000,"zoneId":"NA","stopIndex":10,"stopSequence":11,"vertexType":"TRANSIT"},"to":{"name":"Destination","lon":-71.06202998,"lat":48.40513,"arrival":1522692379000,"orig":"","vertexType":"NORMAL"},"legGeometry":{"points":"memfHriupLZXXZXV\\ZXXVV`@wAZXu@`ChFvEjBdBADKVyBvFgAnC}EuEO`@}@`C","length":19},"rentedBike":false,"transitLeg":false,"duration":678.0,"steps":[{"distance":218.012,"relativeDirection":"DEPART","streetName":"parking aisle","absoluteDirection":"SOUTHWEST","stayOn":false,"area":false,"bogusName":true,"lon":-71.0570537,"lat":48.405519700000006,"elevation":[]},{"distance":223.313,"relativeDirection":"LEFT","streetName":"Boulevard Talbot","absoluteDirection":"SOUTHWEST","stayOn":false,"area":false,"bogusName":false,"lon":-71.0581722,"lat":48.4046724,"elevation":[]},{"distance":193.94,"relativeDirection":"RIGHT","streetName":"Rue des Saguenéens","absoluteDirection":"NORTHWEST","stayOn":false,"area":false,"bogusName":false,"lon":-71.0597697,"lat":48.402967000000004,"elevation":[]},{"distance":146.751,"relativeDirection":"RIGHT","streetName":"Rue Bach","absoluteDirection":"NORTHEAST","stayOn":false,"area":false,"bogusName":false,"lon":-71.06187870000001,"lat":48.404006700000004,"elevation":[]},{"distance":73.878,"relativeDirection":"LEFT","streetName":"Rue Des Maristes","absoluteDirection":"NORTHWEST","stayOn":false,"area":false,"bogusName":false,"lon":-71.06080990000001,"lat":48.405119500000005,"elevation":[]}]}],"tooSloped":false},{"duration":1271,"startTime":1522692908000,"endTime":1522694179000,"walkTime":696,"transitTime":573,"waitingTime":2,"walkDistance":879.459639091109,"walkLimitExceeded":false,"elevationLost":0.0,"elevationGained":0.0,"transfers":0,"legs":[{"startTime":1522692908000,"endTime":1522692926000,"departureDelay":0,"arrivalDelay":0,"realTime":false,"distance":23.36,"pathway":false,"mode":"WALK","route":"","agencyTimeZoneOffset":-14400000,"interlineWithPreviousLeg":false,"from":{"name":"Origin","lon":-71.08352999,"lat":48.383492,"departure":1522692908000,"orig":"","vertexType":"NORMAL"},"to":{"name":"COSTCO","stopId":"1:1542","stopCode":"1542","lon":-71.084272,"lat":48.383644,"arrival":1522692926000,"departure":1522692927000,"zoneId":"NA","stopIndex":1,"stopSequence":2,"vertexType":"TRANSIT"},"legGeometry":{"points":"_~hfH|rzpLTZJJ","length":3},"rentedBike":false,"transitLeg":false,"duration":18.0,"steps":[{"distance":23.36,"relativeDirection":"DEPART","streetName":"service road","absoluteDirection":"SOUTHWEST","stayOn":false,"area":false,"bogusName":false,"lon":-71.08414271500874,"lat":48.383841239633476,"elevation":[]}]},{"startTime":1522692927000,"endTime":1522693500000,"departureDelay":0,"arrivalDelay":0,"realTime":false,"distance":3349.4821877715963,"pathway":false,"mode":"BUS","route":"175","agencyName":"Société de Transport du Saguenay","agencyUrl":"http://ville.saguenay.ca/fr/services-aux-citoyens/transport-sts","agencyTimeZoneOffset":-14400000,"routeColor":"FF00FF","routeType":3,"routeId":"1:175","routeTextColor":"FFFFFF","interlineWithPreviousLeg":false,"tripBlockId":"10","headsign":"Terminus Chicoutimi","agencyId":"0","tripId":"1:217442","serviceDate":"20180402","from":{"name":"COSTCO","stopId":"1:1542","stopCode":"1542","lon":-71.084272,"lat":48.383644,"arrival":1522692926000,"departure":1522692927000,"zoneId":"NA","stopIndex":1,"stopSequence":2,"vertexType":"TRANSIT"},"to":{"name":"Place Royaume","stopId":"1:1801","stopCode":"1801","lon":-71.057017,"lat":48.405588,"arrival":1522693500000,"departure":1522693501000,"zoneId":"NA","stopIndex":10,"stopSequence":11,"vertexType":"TRANSIT"},"legGeometry":{"points":"y|hfHzszpLwCqDrCsGN_@uEoFoEiFUWSUqCwC]a@{ByC{@cAkJuKoAwA_CeCeExJ~AlB`@mAu@k@}@q@|C}Iw@}@aO_QkEsEiAoAgEsFkFsHqJ_N}FkImPkOuO{N","length":31},"routeShortName":"175","routeLongName":"Term. Chic / Costco","rentedBike":false,"transitLeg":true,"duration":573.0,"steps":[]},{"startTime":1522693501000,"endTime":1522694179000,"departureDelay":0,"arrivalDelay":0,"realTime":false,"distance":855.894,"pathway":false,"mode":"WALK","route":"","agencyTimeZoneOffset":-14400000,"interlineWithPreviousLeg":false,"from":{"name":"Place Royaume","stopId":"1:1801","stopCode":"1801","lon":-71.057017,"lat":48.405588,"arrival":1522693500000,"departure":1522693501000,"zoneId":"NA","stopIndex":10,"stopSequence":11,"vertexType":"TRANSIT"},"to":{"name":"Destination","lon":-71.06202998,"lat":48.40513,"arrival":1522694179000,"orig":"","vertexType":"NORMAL"},"legGeometry":{"points":"memfHriupLZXXZXV\\ZXXVV`@wAZXu@`ChFvEjBdBADKVyBvFgAnC}EuEO`@}@`C","length":19},"rentedBike":false,"transitLeg":false,"duration":678.0,"steps":[{"distance":218.012,"relativeDirection":"DEPART","streetName":"parking aisle","absoluteDirection":"SOUTHWEST","stayOn":false,"area":false,"bogusName":true,"lon":-71.0570537,"lat":48.405519700000006,"elevation":[]},{"distance":223.313,"relativeDirection":"LEFT","streetName":"Boulevard Talbot","absoluteDirection":"SOUTHWEST","stayOn":false,"area":false,"bogusName":false,"lon":-71.0581722,"lat":48.4046724,"elevation":[]},{"distance":193.94,"relativeDirection":"RIGHT","streetName":"Rue des Saguenéens","absoluteDirection":"NORTHWEST","stayOn":false,"area":false,"bogusName":false,"lon":-71.0597697,"lat":48.402967000000004,"elevation":[]},{"distance":146.751,"relativeDirection":"RIGHT","streetName":"Rue Bach","absoluteDirection":"NORTHEAST","stayOn":false,"area":false,"bogusName":false,"lon":-71.06187870000001,"lat":48.404006700000004,"elevation":[]},{"distance":73.878,"relativeDirection":"LEFT","streetName":"Rue Des Maristes","absoluteDirection":"NORTHWEST","stayOn":false,"area":false,"bogusName":false,"lon":-71.06080990000001,"lat":48.405119500000005,"elevation":[]}]}],"tooSloped":false},{"duration":1271,"startTime":1522694708000,"endTime":1522695979000,"walkTime":696,"transitTime":573,"waitingTime":2,"walkDistance":879.459639091109,"walkLimitExceeded":false,"elevationLost":0.0,"elevationGained":0.0,"transfers":0,"legs":[{"startTime":1522694708000,"endTime":1522694726000,"departureDelay":0,"arrivalDelay":0,"realTime":false,"distance":23.36,"pathway":false,"mode":"WALK","route":"","agencyTimeZoneOffset":-14400000,"interlineWithPreviousLeg":false,"from":{"name":"Origin","lon":-71.08352999,"lat":48.383492,"departure":1522694708000,"orig":"","vertexType":"NORMAL"},"to":{"name":"COSTCO","stopId":"1:1542","stopCode":"1542","lon":-71.084272,"lat":48.383644,"arrival":1522694726000,"departure":1522694727000,"zoneId":"NA","stopIndex":1,"stopSequence":2,"vertexType":"TRANSIT"},"legGeometry":{"points":"_~hfH|rzpLTZJJ","length":3},"rentedBike":false,"transitLeg":false,"duration":18.0,"steps":[{"distance":23.36,"relativeDirection":"DEPART","streetName":"service road","absoluteDirection":"SOUTHWEST","stayOn":false,"area":false,"bogusName":false,"lon":-71.08414271500874,"lat":48.383841239633476,"elevation":[]}]},{"startTime":1522694727000,"endTime":1522695300000,"departureDelay":0,"arrivalDelay":0,"realTime":false,"distance":3349.4821877715963,"pathway":false,"mode":"BUS","route":"175","agencyName":"Société de Transport du Saguenay","agencyUrl":"http://ville.saguenay.ca/fr/services-aux-citoyens/transport-sts","agencyTimeZoneOffset":-14400000,"routeColor":"FF00FF","routeType":3,"routeId":"1:175","routeTextColor":"FFFFFF","interlineWithPreviousLeg":false,"tripBlockId":"9","headsign":"Terminus Chicoutimi","agencyId":"0","tripId":"1:217408","serviceDate":"20180402","from":{"name":"COSTCO","stopId":"1:1542","stopCode":"1542","lon":-71.084272,"lat":48.383644,"arrival":1522694726000,"departure":1522694727000,"zoneId":"NA","stopIndex":1,"stopSequence":2,"vertexType":"TRANSIT"},"to":{"name":"Place Royaume","stopId":"1:1801","stopCode":"1801","lon":-71.057017,"lat":48.405588,"arrival":1522695300000,"departure":1522695301000,"zoneId":"NA","stopIndex":10,"stopSequence":11,"vertexType":"TRANSIT"},"legGeometry":{"points":"y|hfHzszpLwCqDrCsGN_@uEoFoEiFUWSUqCwC]a@{ByC{@cAkJuKoAwA_CeCeExJ~AlB`@mAu@k@}@q@|C}Iw@}@aO_QkEsEiAoAgEsFkFsHqJ_N}FkImPkOuO{N","length":31},"routeShortName":"175","routeLongName":"Term. Chic / Costco","rentedBike":false,"transitLeg":true,"duration":573.0,"steps":[]},{"startTime":1522695301000,"endTime":1522695979000,"departureDelay":0,"arrivalDelay":0,"realTime":false,"distance":855.894,"pathway":false,"mode":"WALK","route":"","agencyTimeZoneOffset":-14400000,"interlineWithPreviousLeg":false,"from":{"name":"Place Royaume","stopId":"1:1801","stopCode":"1801","lon":-71.057017,"lat":48.405588,"arrival":1522695300000,"departure":1522695301000,"zoneId":"NA","stopIndex":10,"stopSequence":11,"vertexType":"TRANSIT"},"to":{"name":"Destination","lon":-71.06202998,"lat":48.40513,"arrival":1522695979000,"orig":"","vertexType":"NORMAL"},"legGeometry":{"points":"memfHriupLZXXZXV\\ZXXVV`@wAZXu@`ChFvEjBdBADKVyBvFgAnC}EuEO`@}@`C","length":19},"rentedBike":false,"transitLeg":false,"duration":678.0,"steps":[{"distance":218.012,"relativeDirection":"DEPART","streetName":"parking aisle","absoluteDirection":"SOUTHWEST","stayOn":false,"area":false,"bogusName":true,"lon":-71.0570537,"lat":48.405519700000006,"elevation":[]},{"distance":223.313,"relativeDirection":"LEFT","streetName":"Boulevard Talbot","absoluteDirection":"SOUTHWEST","stayOn":false,"area":false,"bogusName":false,"lon":-71.0581722,"lat":48.4046724,"elevation":[]},{"distance":193.94,"relativeDirection":"RIGHT","streetName":"Rue des Saguenéens","absoluteDirection":"NORTHWEST","stayOn":false,"area":false,"bogusName":false,"lon":-71.0597697,"lat":48.402967000000004,"elevation":[]},{"distance":146.751,"relativeDirection":"RIGHT","streetName":"Rue Bach","absoluteDirection":"NORTHEAST","stayOn":false,"area":false,"bogusName":false,"lon":-71.06187870000001,"lat":48.404006700000004,"elevation":[]},{"distance":73.878,"relativeDirection":"LEFT","streetName":"Rue Des Maristes","absoluteDirection":"NORTHWEST","stayOn":false,"area":false,"bogusName":false,"lon":-71.06080990000001,"lat":48.405119500000005,"elevation":[]}]}],"tooSloped":false}]},"debugOutput":{"precalculationTime":17,"pathCalculationTime":13,"pathTimes":[6,3,4],"renderingTime":0,"totalTime":30,"timedOut":false},"elevationMetadata":{"ellipsoidToGeoidDifference":-28.885904201182168,"geoidElevation":false}}