{"requestParameters":{"date":"2018/04/02","walkSpeed":"1.33","walkReluctance":"2.0","fromPlace":"48.406641,-71.058372","maxWalkDistance":"3000","waitReluctance":"1.0","carSpeed":"33","numItineraries":"3","waitAtBeginningFactor":"0.4","mode":"TRANSIT,WALK","ignoreRealtimeUpdates":"false","stairsReluctance":"2.0","toPlace":"48.401546,-71.062841","time":"15:0:00"},"plan":{"date":1522695600000,"from":{"name":"Origin","lon":-71.058372,"lat":48.406641,"orig":"","vertexType":"NORMAL"},"to":{"name":"Destination","lon":-71.062841,"lat":48.401546,"orig":"","vertexType":"NORMAL"},"itineraries":[{"duration":624,"startTime":1522695600000,"endTime":1522696224000,"walkTime":624,"transitTime":0,"waitingTime":0,"walkDistance":813.3296766894488,"walkLimitExceeded":false,"elevationLost":0.0,"elevationGained":0.0,"transfers":0,"legs":[{"startTime":1522695600000,"endTime":1522696224000,"departureDelay":0,"arrivalDelay":0,"realTime":false,"distance":813.259,"pathway":false,"mode":"WALK","route":"","agencyTimeZoneOffset":-14400000,"interlineWithPreviousLeg":false,"from":{"name":"Origin","lon":-71.058372,"lat":48.406641,"departure":1522695600000,"orig":"","vertexType":"NORMAL"},"to":{"name":"Destination","lon":-71.062841,"lat":48.401546,"arrival":1522696224000,"orig":"","vertexType":"NORMAL"},"legGeometry":{"points":"kkmfH`oupLBB^V\\CDI`Ax@xAjAzBlBZXr@_CjF~EPPVTfDbDjAhAvBtB}AhE","length":17},"rentedBike":false,"transitLeg":false,"duration":624.0,"steps":[{"distance":298.208,"relativeDirection":"DEPART","streetName":"parking aisle","absoluteDirection":"SOUTHWEST","stayOn":false,"area":false,"bogusName":false,"lon":-71.05792823187457,"lat":48.40646381876084,"elevation":[]},{"distance":423.762,"relativeDirection":"RIGHT","streetName":"Boulevard Talbot","absoluteDirection":"SOUTHWEST","stayOn":false,"area":false,"bogusName":false,"lon":-71.0587038,"lat":48.4043008,"elevation":[]},{"distance":91.289,"relativeDirection":"RIGHT","streetName":"road","absoluteDirection":"NORTHWEST","stayOn":false,"area":false,"bogusName":false,"lon":-71.06180710000001,"lat":48.4010948,"elevation":[]}]}],"tooSloped":false},{"duration":649,"startTime":1522696685000,"endTime":1522697334000,"walkTime":618,"transitTime":29,"waitingTime":2,"walkDistance":804.0534285691238,"walkLimitExceeded":false,"elevationLost":0.0,"elevationGained":0.0,"transfers":0,"legs":[{"startTime":1522696685000,"endTime":1522697137000,"departureDelay":0,"arrivalDelay":0,"realTime":false,"distance":591.73,"pathway":false,"mode":"WALK","route":"","agencyTimeZoneOffset":-14400000,"interlineWithPreviousLeg":false,"from":{"name":"Origin","lon":-71.058372,"lat":48.406641,"departure":1522696685000,"orig":"","vertexType":"NORMAL"},"to":{"name":"boul. Talbot (no. 1494) (Tim-Horton)","stopId":"1:1854","stopCode":"1854","lon":-71.060941,"lat":48.402118,"arrival":1522697137000,"departure":1522697138000,"zoneId":"NA","stopIndex":2,"stopSequence":3,"vertexType":"TRANSIT"},"legGeometry":{"points":"kkmfH`oupLBB^V\\CDI`Ax@xAjAzBlBZXr@_CjF~EPPVTfDbD","length":14},"rentedBike":false,"transitLeg":false,"duration":452.0,"steps":[{"distance":298.208,"relativeDirection":"DEPART","streetName":"parking aisle","absoluteDirection":"SOUTHWEST","stayOn":false,"area":false,"bogusName":false,"lon":-71.05792823187457,"lat":48.40646381876084,"elevation":[]},{"distance":293.522,"relativeDirection":"RIGHT","streetName":"Boulevard Talbot","absoluteDirection":"SOUTHWEST","stayOn":false,"area":false,"bogusName":false,"lon":-71.0587038,"lat":48.4043008,"elevation":[]}]},{"startTime":1522697138000,"endTime":1522697167000,"departureDelay":0,"arrivalDelay":0,"realTime":false,"distance":250.18303720442486,"pathway":false,"mode":"BUS","route":"204S","agencyName":"Société de Transport du Saguenay","agencyUrl":"http://ville.saguenay.ca/fr/services-aux-citoyens/transport-sts","agencyTimeZoneOffset":-14400000,"routeColor":"8B0000","routeType":3,"routeId":"1:204S","routeTextColor":"FFFFFF","interlineWithPreviousLeg":false,"tripBlockId":"102","headsign":"Dominique-Racine","agencyId":"0","tripId":"1:218772","serviceDate":"20180402","from":{"name":"boul. Talbot (no. 1494) (Tim-Horton)","stopId":"1:1854","stopCode":"1854","lon":-71.060941,"lat":48.402118,"arrival":1522697137000,"departure":1522697138000,"zoneId":"NA","stopIndex":2,"stopSequence":3,"vertexType":"TRANSIT"},"to":{"name":"boul. Talbot (no.1600) (mode Choc)","stopId":"1:86","stopCode":"86","lon":-71.06283,"lat":48.40025,"arrival":1522697167000,"departure":1522697168000,"zoneId":"NA","stopIndex":3,"stopSequence":4,"vertexType":"TRANSIT"},"legGeometry":{"points":"_plfHjavpLjF`FjCrC","length":3},"routeShortName":"204S","routeLongName":"Séminaire - Domaine du Royaume","rentedBike":false,"transitLeg":true,"duration":29.0,"steps":[]},{"startTime":1522697168000,"endTime":1522697334000,"departureDelay":0,"arrivalDelay":0,"realTime":false,"distance":212.252,"pathway":false,"mode":"WALK","route":"","agencyTimeZoneOffset":-14400000,"interlineWithPreviousLeg":false,"from":{"name":"boul. Talbot (no.1600) (mode Choc)","stopId":"1:86","stopCode":"86","lon":-71.06283,"lat":48.40025,"arrival":1522697167000,"departure":1522697168000,"zoneId":"NA","stopIndex":3,"stopSequence":4,"vertexType":"TRANSIT"},"to":{"name":"Destination","lon":-71.062841,"lat":48.401546,"arrival":1522697334000,"orig":"","vertexType":"NORMAL"},"legGeometry":{"points":"edlfHbmvpLo@w@cCaC}AhE","length":4},"rentedBike":false,"transitLeg":false,"duration":166.0,"steps":[{"distance":120.963,"relativeDirection":"DEPART","streetName":"Boulevard Talbot","absoluteDirection":"NORTHEAST","stayOn":false,"area":false,"bogusName":false,"lon":-71.06273598252479,"lat":48.400199941215426,"elevation":[]},{"distance":91.289,"relativeDirection":"LEFT","streetName":"road","absoluteDirection":"NORTHWEST","stayOn":false,"area":false,"bogusName":false,"lon":-71.06180710000001,"lat":48.4010948,"elevation":[]}]}],"tooSloped":false},{"duration":649,"startTime":1522696685000,"endTime":1522697334000,"walkTime":618,"transitTime":29,"waitingTime":2,"walkDistance":804.0534285691238,"walkLimitExceeded":false,"elevationLost":0.0,"elevationGained":0.0,"transfers":0,"legs":[{"startTime":1522696685000,"endTime":1522697137000,"departureDelay":0,"arrivalDelay":0,"realTime":false,"distance":591.73,"pathway":false,"mode":"WALK","route":"","agencyTimeZoneOffset":-14400000,"interlineWithPreviousLeg":false,"from":{"name":"Origin","lon":-71.058372,"lat":48.406641,"departure":1522696685000,"orig":"","vertexType":"NORMAL"},"to":{"name":"boul. Talbot (no. 1494) (Tim-Horton)","stopId":"1:1854","stopCode":"1854","lon":-71.060941,"lat":48.402118,"arrival":1522697137000,"departure":1522697138000,"zoneId":"NA","stopIndex":5,"stopSequence":6,"vertexType":"TRANSIT"},"legGeometry":{"points":"kkmfH`oupLBB^V\\CDI`Ax@xAjAzBlBZXr@_CjF~EPPVTfDbD","length":14},"rentedBike":false,"transitLeg":false,"duration":452.0,"steps":[{"distance":298.208,"relativeDirection":"DEPART","streetName":"parking aisle","absoluteDirection":"SOUTHWEST","stayOn":false,"area":false,"bogusName":false,"lon":-71.05792823187457,"lat":48.40646381876084,"elevation":[]},{"distance":293.522,"relativeDirection":"RIGHT","streetName":"Boulevard Talbot","absoluteDirection":"SOUTHWEST","stayOn":false,"area":false,"bogusName":false,"lon":-71.0587038,"lat":48.4043008,"elevation":[]}]},{"startTime":1522697138000,"endTime":1522697167000,"departureDelay":0,"arrivalDelay":0,"realTime":false,"distance":250.18303720442486,"pathway":false,"mode":"BUS","route":"211S","agencyName":"Société de Transport du Saguenay","agencyUrl":"http://ville.saguenay.ca/fr/services-aux-citoyens/transport-sts","agencyTimeZoneOffset":-14400000,"routeColor":"8B0000","routeType":3,"routeId":"1:211S","routeTextColor":"FFFFFF","interlineWithPreviousLeg":false,"tripBlockId":"104","headsign":"Faubourg Sagamie","agencyId":"0","tripId":"1:218800","serviceDate":"20180402","from":{"name":"boul. Talbot (no. 1494) (Tim-Horton)","stopId":"1:1854","stopCode":"1854","lon":-71.060941,"lat":48.402118,"arrival":1522697137000,"departure":1522697138000,"zoneId":"NA","stopIndex":5,"stopSequence":6,"vertexType":"TRANSIT"},"to":{"name":"boul. Talbot (no.1600) (mode Choc)","stopId":"1:86","stopCode":"86","lon":-71.06283,"lat":48.40025,"arrival":1522697167000,"departure":1522697168000,"zoneId":"NA","stopIndex":6,"stopSequence":7,"vertexType":"TRANSIT"},"legGeometry":{"points":"_plfHjavpLjF`FjCrC","length":3},"routeShortName":"211S","routeLongName":"Séminaire - Arvida / Kénogami","rentedBike":false,"transitLeg":true,"duration":29.0,"steps":[]},{"startTime":1522697168000,"endTime":1522697334000,"departureDelay":0,"arrivalDelay":0,"realTime":false,"distance":212.252,"pathway":false,"mode":"WALK","route":"","agencyTimeZoneOffset":-14400000,"interlineWithPreviousLeg":false,"from":{"name":"boul. Talbot (no.1600) (mode Choc)","stopId":"1:86","stopCode":"86","lon":-71.06283,"lat":48.40025,"arrival":1522697167000,"departure":1522697168000,"zoneId":"NA","stopIndex":6,"stopSequence":7,"vertexType":"TRANSIT"},"to":{"name":"Destination","lon":-71.062841,"lat":48.401546,"arrival":1522697334000,"orig":"","vertexType":"NORMAL"},"legGeometry":{"points":"edlfHbmvpLo@w@cCaC}AhE","length":4},"rentedBike":false,"transitLeg":false,"duration":166.0,"steps":[{"distance":120.963,"relativeDirection":"DEPART","streetName":"Boulevard Talbot","absoluteDirection":"NORTHEAST","stayOn":false,"area":false,"bogusName":false,"lon":-71.06273598252479,"lat":48.400199941215426,"elevation":[]},{"distance":91.289,"relativeDirection":"LEFT","streetName":"road","absoluteDirection":"NORTHWEST","stayOn":false,"area":false,"bogusName":false,"lon":-71.06180710000001,"lat":48.4010948,"elevation":[]}]}],"tooSloped":false}]},"debugOutput":{"precalculationTime":34,"pathCalculationTime":22,"pathTimes":[13,5,4],"renderingTime":1,"totalTime":57,"timedOut":false},"elevationMetadata":{"ellipsoidToGeoidDifference":-28.885904201182168,"geoidElevation":false}}