{"requestParameters":{"date":"2018/04/02","walkSpeed":"1.33","walkReluctance":"2.0","fromPlace":"48.399223,-71.054307","maxWalkDistance":"3000","waitReluctance":"1.0","carSpeed":"33","numItineraries":"3","waitAtBeginningFactor":"0.4","mode":"TRANSIT,WALK","ignoreRealtimeUpdates":"false","stairsReluctance":"2.0","toPlace":"48.306162,-71.110484","time":"12:0:00"},"plan":{"date":1522684800000,"from":{"name":"Origin","lon":-71.054307,"lat":48.399223,"orig":"","vertexType":"NORMAL"},"to":{"name":"Destination","lon":-71.110484,"lat":48.306162,"orig":"","vertexType":"NORMAL"},"itineraries":[{"duration":2811,"startTime":1522685300000,"endTime":1522688111000,"walkTime":589,"transitTime":1440,"waitingTime":782,"walkDistance":758.9172255609985,"walkLimitExceeded":false,"elevationLost":0.0,"elevationGained":0.0,"transfers":1,"legs":[{"startTime":1522685300000,"endTime":1522685758000,"departureDelay":0,"arrivalDelay":0,"realTime":false,"distance":590.482,"pathway":false,"mode":"WALK","route":"","agencyTimeZoneOffset":-14400000,"interlineWithPreviousLeg":false,"from":{"name":"Origin","lon":-71.054307,"lat":48.399223,"departure":1522685300000,"orig":"","vertexType":"NORMAL"},"to":{"name":"Champs-Élysées / Saguenéens","stopId":"1:84","stopCode":"84","lon":-71.05132,"lat":48.402083,"arrival":1522685758000,"departure":1522685759000,"zoneId":"NA","stopIndex":19,"stopSequence":20,"vertexType":"TRANSIT"},"legGeometry":{"points":"}~kfHpwtpLvA}DjAkDmByBm@o@SOCAuA}@}A[s@EA?}@Eg@E}ANq@TUF_@J","length":17},"rentedBike":false,"transitLeg":false,"duration":458.0,"steps":[{"distance":161.88299999999998,"relativeDirection":"DEPART","streetName":"Rue des Pluviers","absoluteDirection":"SOUTHEAST","stayOn":false,"area":false,"bogusName":false,"lon":-71.05416564277056,"lat":48.39935702674638,"elevation":[]},{"distance":410.407,"relativeDirection":"LEFT","streetName":"Rue des Engoulevents","absoluteDirection":"NORTHEAST","stayOn":false,"area":false,"bogusName":false,"lon":-71.0523599,"lat":48.3985312,"elevation":[]},{"distance":18.192,"relativeDirection":"CONTINUE","streetName":"Rue des Champs-Élysées","absoluteDirection":"NORTH","stayOn":false,"area":false,"bogusName":false,"lon":-71.0511074,"lat":48.401948700000005,"elevation":[]}]},{"startTime":1522685759000,"endTime":1522686420000,"departureDelay":0,"arrivalDelay":0,"realTime":false,"distance":3670.3511602228764,"pathway":false,"mode":"BUS","route":"175","agencyName":"Société de Transport du Saguenay","agencyUrl":"http://ville.saguenay.ca/fr/services-aux-citoyens/transport-sts","agencyTimeZoneOffset":-14400000,"routeColor":"FF00FF","routeType":3,"routeId":"1:175","routeTextColor":"FFFFFF","interlineWithPreviousLeg":false,"tripBlockId":"78","headsign":"Costco","agencyId":"0","tripId":"1:218643","serviceDate":"20180402","from":{"name":"Champs-Élysées / Saguenéens","stopId":"1:84","stopCode":"84","lon":-71.05132,"lat":48.402083,"arrival":1522685758000,"departure":1522685759000,"zoneId":"NA","stopIndex":19,"stopSequence":20,"vertexType":"TRANSIT"},"to":{"name":"COSTCO","stopId":"1:1710","stopCode":"1710","lon":-71.085767,"lat":48.382333,"arrival":1522686420000,"departure":1522687200000,"zoneId":"NA","stopIndex":30,"stopSequence":31,"vertexType":"TRANSIT"},"legGeometry":{"points":"aplfHbetpL^KZ|DJpII~Fa@rFUzBi@bDUxAm@nCcAlDM^RTfD`DjF`FjCrCrAvAbCfDjIfMdAzAfFpHd@n@nC`DlXv[b@f@mCtHv@v@p@r@_@p@uAcBjDoJhAzApBrBrFvGjDdEbD|DZb@~DrEbDfDrA~ApLbNpG|GyCtHwBcC","length":44},"routeShortName":"175","routeLongName":"Term. Chic / Costco","rentedBike":false,"transitLeg":true,"duration":661.0,"steps":[]},{"startTime":1522687200000,"endTime":1522687979000,"departureDelay":0,"arrivalDelay":0,"realTime":false,"distance":12977.984906380389,"pathway":false,"mode":"BUS","route":"60","agencyName":"Société de Transport du Saguenay","agencyUrl":"http://ville.saguenay.ca/fr/services-aux-citoyens/transport-sts","agencyTimeZoneOffset":-14400000,"routeColor":"00FFFF","routeType":3,"routeId":"1:60","routeTextColor":"000000","interlineWithPreviousLeg":false,"tripBlockId":"73","headsign":"Costco","agencyId":"0","tripId":"1:218620","serviceDate":"20180402","from":{"name":"COSTCO","stopId":"1:1710","stopCode":"1710","lon":-71.085767,"lat":48.382333,"arrival":1522686420000,"departure":1522687200000,"zoneId":"NA","stopIndex":0,"stopSequence":1,"vertexType":"TRANSIT"},"to":{"name":"Notre-Dame / Gauthier","stopId":"1:1737","stopCode":"1737","lon":-71.110501,"lat":48.307493,"arrival":1522687979000,"departure":1522687980000,"zoneId":"NA","stopIndex":13,"stopSequence":14,"vertexType":"TRANSIT"},"legGeometry":{"points":"uthfHh}zpLoB}Bs@`BjChDZbB`@x@iDvI}@fC_AvC[jAi@`CUbBUxBUdCIlD]to@K`IEt@ElBQlEMrBWvDa@jEq@nFa@rC_AnFi@bCo@pCiAbEEFsC|INZxAfB~DjFxFfFzAdBbA`BlA|Bt@z@z@x@zAhAbBjAfKlGz@~@vApBbApAbDdDdExDLJpIjIvAzBlBdDbAbBfAtAt@|@|@~@tHhHhBlCrCfFx@fAT^bA`AjC~BdI~JpGjHt@bA`AdAvb@xf@`EvEjFjFxAtAd@j@l@z@xC`Fn@v@NNNJ^Xj@Xv@Zz@ZND`@Lx@Rp@LXDrDH|@?p@?VCN?D?VK`@ONIZUVS^]Zc@t@wATs@P}@F_@Jm@JcA@QPsA\\uBXuAdAqDLe@H]zAuHd@kBzAuFXy@NYXg@f@g@|@{@dAy@vC{Br@m@RQRWVa@b@_AdC}Gn@aBl@{Aj@oATe@b@i@\\Y\\Qd@QvDy@r@Ud@Up@i@Z[X]^i@LUL_@^gAxGgUVaAPq@PaAL{@Fq@@eACoBKwFAiCD_AFe@V_AbVqq@Pw@bl@bm@~A|AtE|DnEnDjDdCf`@vVbCdBnAfAjClCpDkJjAgD`KqYbDiJpIeV|IcWv@{Bh@cAf@u@Z]l@e@dBsAjCwBv@u@nA{BdCaGOOqAoBwA{B[i@","length":190},"routeShortName":"60","routeLongName":"Portage des Roches Nord","rentedBike":false,"transitLeg":true,"duration":779.0,"steps":[]},{"startTime":1522687980000,"endTime":1522688111000,"departureDelay":0,"arrivalDelay":0,"realTime":false,"distance":168.34500000000003,"pathway":false,"mode":"WALK","route":"","agencyTimeZoneOffset":-14400000,"interlineWithPreviousLeg":false,"from":{"name":"Notre-Dame / Gauthier","stopId":"1:1737","stopCode":"1737","lon":-71.110501,"lat":48.307493,"arrival":1522687979000,"departure":1522687980000,"zoneId":"NA","stopIndex":13,"stopSequence":14,"vertexType":"TRANSIT"},"to":{"name":"Destination","lon":-71.110484,"lat":48.306162,"arrival":1522688111000,"orig":"","vertexType":"NORMAL"},"legGeometry":{"points":"cazeHdx_qLFLNVt@}@~@w@tAi@b@I","length":7},"rentedBike":false,"transitLeg":false,"duration":131.0,"steps":[{"distance":19.652,"relativeDirection":"DEPART","streetName":"Rue Notre-Dame","absoluteDirection":"SOUTHWEST","stayOn":false,"area":false,"bogusName":false,"lon":-71.11058814414332,"lat":48.30754888257977,"elevation":[]},{"distance":148.693,"relativeDirection":"LEFT","streetName":"Rue Gauthier","absoluteDirection":"SOUTHEAST","stayOn":false,"area":false,"bogusName":false,"lon":-71.1107748,"lat":48.3074231,"elevation":[]}]}],"tooSloped":false},{"duration":3192,"startTime":1522696519000,"endTime":1522699711000,"walkTime":1226,"transitTime":1964,"waitingTime":2,"walkDistance":1568.1484135236567,"walkLimitExceeded":false,"elevationLost":0.0,"elevationGained":0.0,"transfers":0,"legs":[{"startTime":1522696519000,"endTime":1522697235000,"departureDelay":0,"arrivalDelay":0,"realTime":false,"distance":904.3979999999999,"pathway":false,"mode":"WALK","route":"","agencyTimeZoneOffset":-14400000,"interlineWithPreviousLeg":false,"from":{"name":"Origin","lon":-71.054307,"lat":48.399223,"departure":1522696519000,"orig":"","vertexType":"NORMAL"},"to":{"name":"boul. Talbot (no. 1494) (Tim-Horton)","stopId":"1:1854","stopCode":"1854","lon":-71.060941,"lat":48.402118,"arrival":1522697235000,"departure":1522697236000,"zoneId":"NA","stopIndex":2,"stopSequence":3,"vertexType":"TRANSIT"},"legGeometry":{"points":"}~kfHpwtpL{AdEEPE^DXNPt@t@gAxCiAmAQ?[Zw@tBQXaAxAa@m@EG]_@c@Yu@]k@fEGTi@lCa@bBq@hCMZfDbD","length":26},"rentedBike":false,"transitLeg":false,"duration":716.0,"steps":[{"distance":108.587,"relativeDirection":"DEPART","streetName":"Rue des Pluviers","absoluteDirection":"NORTHWEST","stayOn":false,"area":false,"bogusName":false,"lon":-71.05416564277056,"lat":48.39935702674638,"elevation":[]},{"distance":58.058,"relativeDirection":"SLIGHTLY_LEFT","streetName":"Rue des Sittelles","absoluteDirection":"WEST","stayOn":false,"area":false,"bogusName":false,"lon":-71.05540260000001,"lat":48.3998749,"elevation":[]},{"distance":69.433,"relativeDirection":"RIGHT","streetName":"path","absoluteDirection":"NORTHWEST","stayOn":false,"area":false,"bogusName":true,"lon":-71.0558986,"lat":48.399491600000005,"elevation":[]},{"distance":60.15,"relativeDirection":"RIGHT","streetName":"Rue des Sizerins","absoluteDirection":"NORTHEAST","stayOn":false,"area":false,"bogusName":false,"lon":-71.05666450000001,"lat":48.399854000000005,"elevation":[]},{"distance":135.743,"relativeDirection":"LEFT","streetName":"Rue des Pinsons","absoluteDirection":"NORTHWEST","stayOn":false,"area":false,"bogusName":false,"lon":-71.0562713,"lat":48.4003127,"elevation":[]},{"distance":104.507,"relativeDirection":"RIGHT","streetName":"Rue des Grands-Ducs","absoluteDirection":"NORTHEAST","stayOn":false,"area":false,"bogusName":false,"lon":-71.0575855,"lat":48.401151000000006,"elevation":[]},{"distance":256.771,"relativeDirection":"LEFT","streetName":"Rue des Saguenéens","absoluteDirection":"WEST","stayOn":false,"area":false,"bogusName":false,"lon":-71.05687660000001,"lat":48.401952300000005,"elevation":[]},{"distance":111.149,"relativeDirection":"LEFT","streetName":"Boulevard Talbot","absoluteDirection":"SOUTHWEST","stayOn":false,"area":false,"bogusName":false,"lon":-71.0600254,"lat":48.4029151,"elevation":[]}]},{"startTime":1522697236000,"endTime":1522697700000,"departureDelay":0,"arrivalDelay":0,"realTime":false,"distance":2880.056948678177,"pathway":false,"mode":"BUS","route":"208S","agencyName":"Société de Transport du Saguenay","agencyUrl":"http://ville.saguenay.ca/fr/services-aux-citoyens/transport-sts","agencyTimeZoneOffset":-14400000,"routeColor":"8B0000","routeType":3,"routeId":"1:208S","routeTextColor":"FFFFFF","interlineWithPreviousLeg":false,"tripBlockId":"107","headsign":"Costco","agencyId":"0","tripId":"1:218820","serviceDate":"20180402","from":{"name":"boul. Talbot (no. 1494) (Tim-Horton)","stopId":"1:1854","stopCode":"1854","lon":-71.060941,"lat":48.402118,"arrival":1522697235000,"departure":1522697236000,"zoneId":"NA","stopIndex":2,"stopSequence":3,"vertexType":"TRANSIT"},"to":{"name":"COSTCO","stopId":"1:1710","stopCode":"1710","lon":-71.085767,"lat":48.382333,"arrival":1522697700000,"departure":1522698000000,"zoneId":"NA","stopIndex":10,"stopSequence":11,"vertexType":"TRANSIT"},"legGeometry":{"points":"_plfHjavpLjF`FjCrCrAvAbCfDjIfMdAzAfFpHd@n@nC`DlXv[j@n@dEfErFvGjDdEbD|DZb@~DrEbDfDrA~AhD~DfGbHpG|GyCtHwBcC","length":25},"routeShortName":"208S","routeLongName":"Séminaire - Laterrière","rentedBike":false,"transitLeg":true,"duration":464.0,"steps":[]},{"startTime":1522698000000,"endTime":1522699200000,"departureDelay":0,"arrivalDelay":0,"realTime":false,"distance":14587.470779787487,"pathway":false,"mode":"BUS","route":"62","agencyName":"Société de Transport du Saguenay","agencyUrl":"http://ville.saguenay.ca/fr/services-aux-citoyens/transport-sts","agencyTimeZoneOffset":-14400000,"routeColor":"00FFFF","routeType":3,"routeId":"1:62","routeTextColor":"000000","interlineWithPreviousLeg":true,"tripBlockId":"107","headsign":"Barrage Port. Roches","agencyId":"0","tripId":"1:218821","serviceDate":"20180402","from":{"name":"COSTCO","stopId":"1:1710","stopCode":"1710","lon":-71.085767,"lat":48.382333,"arrival":1522697700000,"departure":1522698000000,"zoneId":"NA","stopIndex":0,"stopSequence":1,"vertexType":"TRANSIT"},"to":{"name":"Boulevard (no. 1017)","stopId":"1:1723","stopCode":"1723","lon":-71.115166,"lat":48.309087,"arrival":1522699200000,"departure":1522699201000,"zoneId":"NA","stopIndex":15,"stopSequence":16,"vertexType":"TRANSIT"},"legGeometry":{"points":"uthfHh}zpLoB}Bs@`BjChDZbB`@x@PNlFwMHWbFmMBc@~d@skANe@Jk@H_AD_ABuADs@Hk@Lc@N_@X_@ZYbAq@pA]hDuA~UqLAEjJ_EjRiIrJeEdCmAbAs@rAkAbCyC|@cB|@sBpEkN|cA}`D~@wCz@~@~GjH|^d`@fNxNng@di@dJrJ`aAtcA`@d@RZJVNn@Dr@nAp_@HzAHx@ZxAlDzN|DlPjIn]P~@JbB@b@?b@IdAiA|KObAU`A_HfTCDt_AzaA^h@BFDTBV?VATADwBlGCPCl@Jt@pBnG^pBFd@DlAEdCGhCElAg@pG?nAF~@PnAVxAp@lF^`B^dAxAnC@@pAzAr@lAPp@Lj@Dh@HjB@fAWzFA~BQAOAQGWMk@k@QSM[M_@IY_@_AQWSO_DcBUEYLa@VWLYPyGrNeC`GoAzBw@t@kCvBkBvA","length":131},"routeShortName":"62","routeLongName":"Portage des Roches Sud","rentedBike":false,"transitLeg":true,"duration":1200.0,"steps":[]},{"startTime":1522699201000,"endTime":1522699711000,"departureDelay":0,"arrivalDelay":0,"realTime":false,"distance":663.435,"pathway":false,"mode":"WALK","route":"","agencyTimeZoneOffset":-14400000,"interlineWithPreviousLeg":false,"from":{"name":"Boulevard (no. 1017)","stopId":"1:1723","stopCode":"1723","lon":-71.115166,"lat":48.309087,"arrival":1522699200000,"departure":1522699201000,"zoneId":"NA","stopIndex":15,"stopSequence":16,"vertexType":"TRANSIT"},"to":{"name":"Destination","lon":-71.110484,"lat":48.306162,"arrival":1522699711000,"orig":"","vertexType":"NORMAL"},"legGeometry":{"points":"qjzeHhu`qLBCjGcFp@y@d@u@jAwC^w@h@qAwDcGt@}@~@w@tAi@b@I","length":13},"rentedBike":false,"transitLeg":false,"duration":510.0,"steps":[{"distance":374.363,"relativeDirection":"DEPART","streetName":"Rue du Boulevard","absoluteDirection":"SOUTHEAST","stayOn":false,"area":false,"bogusName":false,"lon":-71.11524463993662,"lat":48.30905749725426,"elevation":[]},{"distance":140.379,"relativeDirection":"LEFT","streetName":"Rue Notre-Dame","absoluteDirection":"NORTHEAST","stayOn":false,"area":false,"bogusName":false,"lon":-71.1120744,"lat":48.306503000000006,"elevation":[]},{"distance":148.693,"relativeDirection":"RIGHT","streetName":"Rue Gauthier","absoluteDirection":"SOUTHEAST","stayOn":false,"area":false,"bogusName":false,"lon":-71.1107748,"lat":48.3074231,"elevation":[]}]}],"tooSloped":false},{"duration":6209,"startTime":1522702502000,"endTime":1522708711000,"walkTime":1970,"transitTime":3429,"waitingTime":810,"walkDistance":2542.405142848846,"walkLimitExceeded":false,"elevationLost":0.0,"elevationGained":0.0,"transfers":1,"legs":[{"startTime":1522702502000,"endTime":1522703959000,"departureDelay":0,"arrivalDelay":0,"realTime":false,"distance":1878.2080000000003,"pathway":false,"mode":"WALK","route":"","agencyTimeZoneOffset":-14400000,"interlineWithPreviousLeg":false,"from":{"name":"Origin","lon":-71.054307,"lat":48.399223,"departure":1522702502000,"orig":"","vertexType":"NORMAL"},"to":{"name":"boul. Université / Murdock","stopId":"1:80","stopCode":"80","lon":-71.050111,"lat":48.411498,"arrival":1522703959000,"departure":1522703960000,"zoneId":"NA","stopIndex":11,"stopSequence":12,"vertexType":"TRANSIT"},"legGeometry":{"points":"}~kfHpwtpLvA}DjAkDmByBm@o@SOCAuA}@}A[s@EA?}@Eg@E}ANq@TUF_@JkEhAsBl@OFe@L_@DgA?uAK}@M}@Cq@Dm@Pu@\\{@qEGo@AGAKEU?iAGUMYW]mB}@AAm@WqG}CqAq@GCk@Y_Bw@KEe@JYLa@n@G^yBdHUn@","length":53},"rentedBike":false,"transitLeg":false,"duration":1457.0,"steps":[{"distance":161.88299999999998,"relativeDirection":"DEPART","streetName":"Rue des Pluviers","absoluteDirection":"SOUTHEAST","stayOn":false,"area":false,"bogusName":false,"lon":-71.05416564277056,"lat":48.39935702674638,"elevation":[]},{"distance":410.407,"relativeDirection":"LEFT","streetName":"Rue des Engoulevents","absoluteDirection":"NORTHEAST","stayOn":false,"area":false,"bogusName":false,"lon":-71.0523599,"lat":48.3985312,"elevation":[]},{"distance":494.33299999999997,"relativeDirection":"CONTINUE","streetName":"Rue des Champs-Élysées","absoluteDirection":"NORTH","stayOn":false,"area":false,"bogusName":false,"lon":-71.0511074,"lat":48.401948700000005,"elevation":[]},{"distance":146.36399999999998,"relativeDirection":"RIGHT","streetName":"Rue Émile-Girardin","absoluteDirection":"NORTHEAST","stayOn":false,"area":false,"bogusName":false,"lon":-71.05202630000001,"lat":48.4062974,"elevation":[]},{"distance":39.358,"relativeDirection":"SLIGHTLY_LEFT","streetName":"link","absoluteDirection":"NORTHEAST","stayOn":false,"area":false,"bogusName":true,"lon":-71.0501541,"lat":48.406688800000005,"elevation":[]},{"distance":400.40400000000005,"relativeDirection":"SLIGHTLY_LEFT","streetName":"Rue Des Roitelets","absoluteDirection":"NORTH","stayOn":false,"area":false,"bogusName":false,"lon":-71.0497603,"lat":48.406919900000005,"elevation":[]},{"distance":62.949,"relativeDirection":"SLIGHTLY_LEFT","streetName":"link","absoluteDirection":"NORTH","stayOn":false,"area":false,"bogusName":true,"lon":-71.0478246,"lat":48.4102837,"elevation":[]},{"distance":162.51,"relativeDirection":"SLIGHTLY_LEFT","streetName":"Boulevard de l'Université","absoluteDirection":"NORTHWEST","stayOn":false,"area":false,"bogusName":false,"lon":-71.04819570000001,"lat":48.410774100000005,"elevation":[]}]},{"startTime":1522703960000,"endTime":1522706499000,"departureDelay":0,"arrivalDelay":0,"realTime":false,"distance":30418.192582345328,"pathway":false,"mode":"BUS","route":"21S","agencyName":"Société de Transport du Saguenay","agencyUrl":"http://ville.saguenay.ca/fr/services-aux-citoyens/transport-sts","agencyTimeZoneOffset":-14400000,"routeColor":"8B0000","routeType":3,"routeId":"1:21S","routeTextColor":"FFFFFF","interlineWithPreviousLeg":false,"tripBlockId":"53","headsign":"Costco","agencyId":"0","tripId":"1:218475","serviceDate":"20180402","from":{"name":"boul. Université / Murdock","stopId":"1:80","stopCode":"80","lon":-71.050111,"lat":48.411498,"arrival":1522703959000,"departure":1522703960000,"zoneId":"NA","stopIndex":11,"stopSequence":12,"vertexType":"TRANSIT"},"to":{"name":"boul. Royaume (no. 1879)","stopId":"1:1751","stopCode":"1751","lon":-71.061767,"lat":48.362701,"arrival":1522706499000,"departure":1522706499000,"zoneId":"NA","stopIndex":73,"stopSequence":74,"vertexType":"TRANSIT"},"legGeometry":{"points":"cknfH|}spLbB}Eh@sBh@qCPcANoAPqBFyAFsA@q@CeBKkDc@cIsF_{@QqBe@cHc@aEeC_Oa@iDk@iIKWvAo@^WXQdDeD|IqJp@u@l@_Ah@{@f@{@FMn@uAt@iBpAgDpQoe@nKwXlGoPlA_DjAsD~@aENy@jCeO\\{ANi@l@cBt@aBr@kAdAuAlEsFtAwBHM`B}CdAmCvEgMrEaMhCeHhJ}VjH{RpBqFzJcXfAwCfAmCfCqGzHeSjJeVhOe`@xI}TvNc_@`ImS`JqU~HkS~Mo]|JiWdKwWpNy^zJcWfPcb@d@{AxBgHnCoJtEgPJ[jA{DpAyDl@uA?AnAcCnQsYxKqQfAoBx@_B`LsWtEsKzLcYzDaJ\\m@^g@b@_@d@[xDyAbFiBvBw@tAc@nDoAiAcJK_Ag@eCEIEKv@CD@FBBBLf@Jh@?FF~@?JABADA@IF[ZhAbJoDnAuAb@l@fFpC|UH`@^dBv@fEn@rDBLXtBd@fEDVlAtL\\`Ft@dLb@zIz@`Rd@~J@XFz@ZrDvBfP|AjLtDbWXxANbAFdBtEl]L`ANdBJrCBhB?lBElBGhAIjAMrAS~AaBfKOvAOvAEpA?\\Ah@?r@@l@Dp@Dv@Ft@RnAP~@Tz@vKb^f@bBz@~CZrAl@xCXdBPz@j@~E|AvObBfQh@fGTbEJfEChE?^KvGIpBSfDIvAg@zFq@dGi@rCc@`B_@lAu@~Ba@fA_@~@eW`l@aPz^wB|E}A|Eg@rCe@jDk@~IcAtSS|CSbCIx@UvB]bCm@rDoAxFi@rByBpGSl@uRvh@eD`JUt@Qr@YjBIbAG|@E~@CpA?xADvArA`Q`BnThCz\\V|HCBCBCDADCBAFAD?DAF?F?D?F?D@D?F@D@DBD@D@BBDBBB@BBB@B@D@B?B@z@lHjAzOH`BB`CEnBQzBa@jCc@~AcXbs@{@lCmcAv_DeFzO}@rB}@bBcCxCsAjAcAr@eClAqJbE","length":284},"routeShortName":"21S","routeLongName":"Term. Chic -> Cégep / UQAC -> Costco","rentedBike":false,"transitLeg":true,"duration":2539.0,"steps":[]},{"startTime":1522706499000,"endTime":1522706502000,"departureDelay":0,"arrivalDelay":0,"realTime":false,"distance":0.505,"pathway":false,"mode":"WALK","route":"","agencyTimeZoneOffset":-14400000,"interlineWithPreviousLeg":false,"from":{"name":"boul. Royaume (no. 1879)","stopId":"1:1751","stopCode":"1751","lon":-71.061767,"lat":48.362701,"arrival":1522706499000,"departure":1522706499000,"zoneId":"NA","stopIndex":73,"stopSequence":74,"vertexType":"TRANSIT"},"to":{"name":"boul. Royaume (no. 1879)","stopId":"1:2146","stopCode":"2146","lon":-71.062019,"lat":48.362647,"arrival":1522706502000,"departure":1522707310000,"zoneId":"NA","stopIndex":2,"stopSequence":3,"vertexType":"TRANSIT"},"legGeometry":{"points":"uydfHzgvpL??","length":2},"rentedBike":false,"transitLeg":false,"duration":3.0,"steps":[{"distance":0.505,"relativeDirection":"DEPART","streetName":"R 170","absoluteDirection":"NORTH","stayOn":false,"area":false,"bogusName":false,"lon":-71.06189542339712,"lat":48.36267102445249,"elevation":[]}]},{"startTime":1522707310000,"endTime":1522708200000,"departureDelay":0,"arrivalDelay":0,"realTime":false,"distance":11758.892471719677,"pathway":false,"mode":"BUS","route":"62","agencyName":"Société de Transport du Saguenay","agencyUrl":"http://ville.saguenay.ca/fr/services-aux-citoyens/transport-sts","agencyTimeZoneOffset":-14400000,"routeColor":"00FFFF","routeType":3,"routeId":"1:62","routeTextColor":"000000","interlineWithPreviousLeg":false,"tripBlockId":"23","headsign":"Barrage Port. Roches","agencyId":"0","tripId":"1:217895","serviceDate":"20180402","from":{"name":"boul. Royaume (no. 1879)","stopId":"1:2146","stopCode":"2146","lon":-71.062019,"lat":48.362647,"arrival":1522706502000,"departure":1522707310000,"zoneId":"NA","stopIndex":2,"stopSequence":3,"vertexType":"TRANSIT"},"to":{"name":"Boulevard (no. 1017)","stopId":"1:1723","stopCode":"1723","lon":-71.115166,"lat":48.309087,"arrival":1522708200000,"departure":1522708201000,"zoneId":"NA","stopIndex":15,"stopSequence":16,"vertexType":"TRANSIT"},"legGeometry":{"points":"sydfH`hvpLrJeEdCmAbAs@rAkAbCyC|@cB|@sBpEkN|cA}`D~@wCz@~@~GjH|^d`@fNxNng@di@dJrJ`aAtcA`@d@RZJVNn@Dr@nAp_@HzAHx@ZxAlDzN|DlPjIn]P~@JbB@b@?b@IdAiA|KObAU`A_HfTCDt_AzaA^h@BFDTBV?VATADwBlGCPCl@Jt@pBnG^pBFd@DlAEdCGhCElAg@pG?nAF~@PnAVxAp@lF^`B^dAxAnC@@pAzAr@lAPp@Lj@Dh@HjB@fAWzFA~BQAOAQGWMk@k@QSM[M_@IY_@_AQWSO_DcBUEYLa@VWLYPyGrNeC`GoAzBw@t@kCvBkBvA","length":102},"routeShortName":"62","routeLongName":"Portage des Roches Sud","rentedBike":false,"transitLeg":true,"duration":890.0,"steps":[]},{"startTime":1522708201000,"endTime":1522708711000,"departureDelay":0,"arrivalDelay":0,"realTime":false,"distance":663.435,"pathway":false,"mode":"WALK","route":"","agencyTimeZoneOffset":-14400000,"interlineWithPreviousLeg":false,"from":{"name":"Boulevard (no. 1017)","stopId":"1:1723","stopCode":"1723","lon":-71.115166,"lat":48.309087,"arrival":1522708200000,"departure":1522708201000,"zoneId":"NA","stopIndex":15,"stopSequence":16,"vertexType":"TRANSIT"},"to":{"name":"Destination","lon":-71.110484,"lat":48.306162,"arrival":1522708711000,"orig":"","vertexType":"NORMAL"},"legGeometry":{"points":"qjzeHhu`qLBCjGcFp@y@d@u@jAwC^w@h@qAwDcGt@}@~@w@tAi@b@I","length":13},"rentedBike":false,"transitLeg":false,"duration":510.0,"steps":[{"distance":374.363,"relativeDirection":"DEPART","streetName":"Rue du Boulevard","absoluteDirection":"SOUTHEAST","stayOn":false,"area":false,"bogusName":false,"lon":-71.11524463993662,"lat":48.30905749725426,"elevation":[]},{"distance":140.379,"relativeDirection":"LEFT","streetName":"Rue Notre-Dame","absoluteDirection":"NORTHEAST","stayOn":false,"area":false,"bogusName":false,"lon":-71.1120744,"lat":48.306503000000006,"elevation":[]},{"distance":148.693,"relativeDirection":"RIGHT","streetName":"Rue Gauthier","absoluteDirection":"SOUTHEAST","stayOn":false,"area":false,"bogusName":false,"lon":-71.1107748,"lat":48.3074231,"elevation":[]}]}],"tooSloped":false}]},"debugOutput":{"precalculationTime":14,"pathCalculationTime":68,"pathTimes":[19,23,26],"renderingTime":1,"totalTime":83,"timedOut":false},"elevationMetadata":{"ellipsoidToGeoidDifference":-28.885904201182168,"geoidElevation":false}}