{"requestParameters":{"date":"2018/04/02","walkSpeed":"1.33","walkReluctance":"2.0","fromPlace":"48.399223,-71.054307","maxWalkDistance":"3000","waitReluctance":"1.0","carSpeed":"33","numItineraries":"3","waitAtBeginningFactor":"0.4","mode":"TRANSIT,WALK","ignoreRealtimeUpdates":"false","stairsReluctance":"2.0","toPlace":"48.364363,-71.140235","time":"16:0:00"},"plan":{"date":1522699200000,"from":{"name":"Origin","lon":-71.054307,"lat":48.399223,"orig":"","vertexType":"NORMAL"},"to":{"name":"Destination","lon":-71.140235,"lat":48.364363,"orig":"","vertexType":"NORMAL"},"itineraries":[{"duration":2800,"startTime":1522699700000,"endTime":1522702500000,"walkTime":964,"transitTime":1054,"waitingTime":782,"walkDistance":1262.3877744341617,"walkLimitExceeded":false,"elevationLost":0.0,"elevationGained":0.0,"transfers":1,"legs":[{"startTime":1522699700000,"endTime":1522700158000,"departureDelay":0,"arrivalDelay":0,"realTime":false,"distance":590.482,"pathway":false,"mode":"WALK","route":"","agencyTimeZoneOffset":-14400000,"interlineWithPreviousLeg":false,"from":{"name":"Origin","lon":-71.054307,"lat":48.399223,"departure":1522699700000,"orig":"","vertexType":"NORMAL"},"to":{"name":"Champs-Élysées / Saguenéens","stopId":"1:84","stopCode":"84","lon":-71.05132,"lat":48.402083,"arrival":1522700158000,"departure":1522700159000,"zoneId":"NA","stopIndex":19,"stopSequence":20,"vertexType":"TRANSIT"},"legGeometry":{"points":"}~kfHpwtpLvA}DjAkDmByBm@o@SOCAuA}@}A[s@EA?}@Eg@E}ANq@TUF_@J","length":17},"rentedBike":false,"transitLeg":false,"duration":458.0,"steps":[{"distance":161.88299999999998,"relativeDirection":"DEPART","streetName":"Rue des Pluviers","absoluteDirection":"SOUTHEAST","stayOn":false,"area":false,"bogusName":false,"lon":-71.05416564277056,"lat":48.39935702674638,"elevation":[]},{"distance":410.407,"relativeDirection":"LEFT","streetName":"Rue des Engoulevents","absoluteDirection":"NORTHEAST","stayOn":false,"area":false,"bogusName":false,"lon":-71.0523599,"lat":48.3985312,"elevation":[]},{"distance":18.192,"relativeDirection":"CONTINUE","streetName":"Rue des Champs-Élysées","absoluteDirection":"NORTH","stayOn":false,"area":false,"bogusName":false,"lon":-71.0511074,"lat":48.401948700000005,"elevation":[]}]},{"startTime":1522700159000,"endTime":1522700820000,"departureDelay":0,"arrivalDelay":0,"realTime":false,"distance":3670.3511602228764,"pathway":false,"mode":"BUS","route":"175","agencyName":"Société de Transport du Saguenay","agencyUrl":"http://ville.saguenay.ca/fr/services-aux-citoyens/transport-sts","agencyTimeZoneOffset":-14400000,"routeColor":"FF00FF","routeType":3,"routeId":"1:175","routeTextColor":"FFFFFF","interlineWithPreviousLeg":false,"tripBlockId":"80","headsign":"Costco","agencyId":"0","tripId":"1:218654","serviceDate":"20180402","from":{"name":"Champs-Élysées / Saguenéens","stopId":"1:84","stopCode":"84","lon":-71.05132,"lat":48.402083,"arrival":1522700158000,"departure":1522700159000,"zoneId":"NA","stopIndex":19,"stopSequence":20,"vertexType":"TRANSIT"},"to":{"name":"COSTCO","stopId":"1:1710","stopCode":"1710","lon":-71.085767,"lat":48.382333,"arrival":1522700820000,"departure":1522701600000,"zoneId":"NA","stopIndex":30,"stopSequence":31,"vertexType":"TRANSIT"},"legGeometry":{"points":"aplfHbetpL^KZ|DJpII~Fa@rFUzBi@bDUxAm@nCcAlDM^RTfD`DjF`FjCrCrAvAbCfDjIfMdAzAfFpHd@n@nC`DlXv[b@f@mCtHv@v@p@r@_@p@uAcBjDoJhAzApBrBrFvGjDdEbD|DZb@~DrEbDfDrA~ApLbNpG|GyCtHwBcC","length":44},"routeShortName":"175","routeLongName":"Term. Chic / Costco","rentedBike":false,"transitLeg":true,"duration":661.0,"steps":[]},{"startTime":1522701600000,"endTime":1522701993000,"departureDelay":0,"arrivalDelay":0,"realTime":false,"distance":6078.241626365254,"pathway":false,"mode":"BUS","route":"60","agencyName":"Société de Transport du Saguenay","agencyUrl":"http://ville.saguenay.ca/fr/services-aux-citoyens/transport-sts","agencyTimeZoneOffset":-14400000,"routeColor":"00FFFF","routeType":3,"routeId":"1:60","routeTextColor":"000000","interlineWithPreviousLeg":false,"tripBlockId":"107","headsign":"chemin Portageurs","agencyId":"0","tripId":"1:218823","serviceDate":"20180402","from":{"name":"COSTCO","stopId":"1:1710","stopCode":"1710","lon":-71.085767,"lat":48.382333,"arrival":1522700820000,"departure":1522701600000,"zoneId":"NA","stopIndex":0,"stopSequence":1,"vertexType":"TRANSIT"},"to":{"name":"ch. St-Paul (no. 3799)","stopId":"1:1762","stopCode":"1762","lon":-71.145711,"lat":48.359539,"arrival":1522701993000,"departure":1522701994000,"zoneId":"NA","stopIndex":3,"stopSequence":4,"vertexType":"TRANSIT"},"legGeometry":{"points":"uthfHh}zpLoB}Bs@`BjChDZbB`@x@iDvI}@fC_AvC[jAi@`CUbBUxBUdCIlD]to@K`IEt@ElBQlEMrBWvDa@jEq@nFa@rC_AnFi@bCo@pCiAbEyCdJNZPTfApA~DjFxFfFzAdBbA`BlA|Bt@z@z@x@zAhAbBjAfKlGz@~@vApBbApAbDdDdExDLJpIjIvAzBlBdDbAbBfAtAt@|@|@~@tHhHhBlCrCfFx@fAT^bA`AjC~BdI~JpGjHt@bA`AdAvb@xf@","length":68},"routeShortName":"60","routeLongName":"Portage des Roches Nord","rentedBike":false,"transitLeg":true,"duration":393.0,"steps":[]},{"startTime":1522701994000,"endTime":1522702500000,"departureDelay":0,"arrivalDelay":0,"realTime":false,"distance":671.846,"pathway":false,"mode":"WALK","route":"","agencyTimeZoneOffset":-14400000,"interlineWithPreviousLeg":false,"from":{"name":"ch. St-Paul (no. 3799)","stopId":"1:1762","stopCode":"1762","lon":-71.145711,"lat":48.359539,"arrival":1522701993000,"departure":1522701994000,"zoneId":"NA","stopIndex":3,"stopSequence":4,"vertexType":"TRANSIT"},"to":{"name":"Destination","lon":-71.140235,"lat":48.364363,"arrival":1522702500000,"orig":"","vertexType":"NORMAL"},"legGeometry":{"points":"wedfH~rfqLeDwDsEkF_CoCiD}DeHgI","length":6},"rentedBike":false,"transitLeg":false,"duration":506.0,"steps":[{"distance":671.846,"relativeDirection":"DEPART","streetName":"Rue Saint-Paul","absoluteDirection":"NORTHEAST","stayOn":false,"area":false,"bogusName":false,"lon":-71.14559937877407,"lat":48.3594839841168,"elevation":[]}]}],"tooSloped":false},{"duration":5398,"startTime":1522702502000,"endTime":1522707900000,"walkTime":1963,"transitTime":3433,"waitingTime":2,"walkDistance":2550.232195482972,"walkLimitExceeded":false,"elevationLost":0.0,"elevationGained":0.0,"transfers":0,"legs":[{"startTime":1522702502000,"endTime":1522703959000,"departureDelay":0,"arrivalDelay":0,"realTime":false,"distance":1878.2080000000003,"pathway":false,"mode":"WALK","route":"","agencyTimeZoneOffset":-14400000,"interlineWithPreviousLeg":false,"from":{"name":"Origin","lon":-71.054307,"lat":48.399223,"departure":1522702502000,"orig":"","vertexType":"NORMAL"},"to":{"name":"boul. Université / Murdock","stopId":"1:80","stopCode":"80","lon":-71.050111,"lat":48.411498,"arrival":1522703959000,"departure":1522703960000,"zoneId":"NA","stopIndex":11,"stopSequence":12,"vertexType":"TRANSIT"},"legGeometry":{"points":"}~kfHpwtpLvA}DjAkDmByBm@o@SOCAuA}@}A[s@EA?}@Eg@E}ANq@TUF_@JkEhAsBl@OFe@L_@DgA?uAK}@M}@Cq@Dm@Pu@\\{@qEGo@AGAKEU?iAGUMYW]mB}@AAm@WqG}CqAq@GCk@Y_Bw@KEe@JYLa@n@G^yBdHUn@","length":53},"rentedBike":false,"transitLeg":false,"duration":1457.0,"steps":[{"distance":161.88299999999998,"relativeDirection":"DEPART","streetName":"Rue des Pluviers","absoluteDirection":"SOUTHEAST","stayOn":false,"area":false,"bogusName":false,"lon":-71.05416564277056,"lat":48.39935702674638,"elevation":[]},{"distance":410.407,"relativeDirection":"LEFT","streetName":"Rue des Engoulevents","absoluteDirection":"NORTHEAST","stayOn":false,"area":false,"bogusName":false,"lon":-71.0523599,"lat":48.3985312,"elevation":[]},{"distance":494.33299999999997,"relativeDirection":"CONTINUE","streetName":"Rue des Champs-Élysées","absoluteDirection":"NORTH","stayOn":false,"area":false,"bogusName":false,"lon":-71.0511074,"lat":48.401948700000005,"elevation":[]},{"distance":146.36399999999998,"relativeDirection":"RIGHT","streetName":"Rue Émile-Girardin","absoluteDirection":"NORTHEAST","stayOn":false,"area":false,"bogusName":false,"lon":-71.05202630000001,"lat":48.4062974,"elevation":[]},{"distance":39.358,"relativeDirection":"SLIGHTLY_LEFT","streetName":"link","absoluteDirection":"NORTHEAST","stayOn":false,"area":false,"bogusName":true,"lon":-71.0501541,"lat":48.406688800000005,"elevation":[]},{"distance":400.40400000000005,"relativeDirection":"SLIGHTLY_LEFT","streetName":"Rue Des Roitelets","absoluteDirection":"NORTH","stayOn":false,"area":false,"bogusName":false,"lon":-71.0497603,"lat":48.406919900000005,"elevation":[]},{"distance":62.949,"relativeDirection":"SLIGHTLY_LEFT","streetName":"link","absoluteDirection":"NORTH","stayOn":false,"area":false,"bogusName":true,"lon":-71.0478246,"lat":48.4102837,"elevation":[]},{"distance":162.51,"relativeDirection":"SLIGHTLY_LEFT","streetName":"Boulevard de l'Université","absoluteDirection":"NORTHWEST","stayOn":false,"area":false,"bogusName":false,"lon":-71.04819570000001,"lat":48.410774100000005,"elevation":[]}]},{"startTime":1522703960000,"endTime":1522706700000,"departureDelay":0,"arrivalDelay":0,"realTime":false,"distance":33254.18259501158,"pathway":false,"mode":"BUS","route":"21S","agencyName":"Société de Transport du Saguenay","agencyUrl":"http://ville.saguenay.ca/fr/services-aux-citoyens/transport-sts","agencyTimeZoneOffset":-14400000,"routeColor":"8B0000","routeType":3,"routeId":"1:21S","routeTextColor":"FFFFFF","interlineWithPreviousLeg":false,"tripBlockId":"53","headsign":"Costco","agencyId":"0","tripId":"1:218475","serviceDate":"20180402","from":{"name":"boul. Université / Murdock","stopId":"1:80","stopCode":"80","lon":-71.050111,"lat":48.411498,"arrival":1522703959000,"departure":1522703960000,"zoneId":"NA","stopIndex":11,"stopSequence":12,"vertexType":"TRANSIT"},"to":{"name":"COSTCO","stopId":"1:1710","stopCode":"1710","lon":-71.085767,"lat":48.382333,"arrival":1522706700000,"departure":1522707000000,"zoneId":"NA","stopIndex":76,"stopSequence":77,"vertexType":"TRANSIT"},"legGeometry":{"points":"cknfH|}spLbB}Eh@sBh@qCPcANoAPqBFyAFsA@q@CeBKkDc@cIsF_{@QqBe@cHc@aEeC_Oa@iDk@iIKWvAo@^WXQdDeD|IqJp@u@l@_Ah@{@f@{@FMn@uAt@iBpAgDpQoe@nKwXlGoPlA_DjAsD~@aENy@jCeO\\{ANi@l@cBt@aBr@kAdAuAlEsFtAwBHM`B}CdAmCvEgMrEaMhCeHhJ}VjH{RpBqFzJcXfAwCfAmCfCqGzHeSjJeVhOe`@xI}TvNc_@`ImS`JqU~HkS~Mo]|JiWdKwWpNy^zJcWfPcb@d@{AxBgHnCoJtEgPJ[jA{DpAyDl@uA?AnAcCnQsYxKqQfAoBx@_B`LsWtEsKzLcYzDaJ\\m@^g@b@_@d@[xDyAbFiBvBw@tAc@nDoAiAcJK_Ag@eCEIEKv@CD@FBBBLf@Jh@?FF~@?JABADA@IF[ZhAbJoDnAuAb@l@fFpC|UH`@^dBv@fEn@rDBLXtBd@fEDVlAtL\\`Ft@dLb@zIz@`Rd@~J@XFz@ZrDvBfP|AjLtDbWXxANbAFdBtEl]L`ANdBJrCBhB?lBElBGhAIjAMrAS~AaBfKOvAOvAEpA?\\Ah@?r@@l@Dp@Dv@Ft@RnAP~@Tz@vKb^f@bBz@~CZrAl@xCXdBPz@j@~E|AvObBfQh@fGTbEJfEChE?^KvGIpBSfDIvAg@zFq@dGi@rCc@`B_@lAu@~Ba@fA_@~@eW`l@aPz^wB|E}A|Eg@rCe@jDk@~IcAtSS|CSbCIx@UvB]bCm@rDoAxFi@rByBpGSl@uRvh@eD`JUt@Qr@YjBIbAG|@E~@CpA?xADvArA`Q`BnThCz\\V|HCBCBCDADCBAFAD?DAF?F?D?F?D@D?F@D@DBD@D@BBDBBB@BBB@B@D@B?B@z@lHjAzOH`BB`CEnBQzBa@jCc@~AcXbs@{@lCmcAv_DeFzO}@rB}@bBcCxCsAjAcAr@eClAqJbEoF~BsJdEuJdEAC{TpJmHjCiEhAHz@d@pGE~@I`AKh@Od@_e@rkAUReFdMIXyCtHuBaC","length":303},"routeShortName":"21S","routeLongName":"Term. Chic -> Cégep / UQAC -> Costco","rentedBike":false,"transitLeg":true,"duration":2740.0,"steps":[]},{"startTime":1522707000000,"endTime":1522707393000,"departureDelay":0,"arrivalDelay":0,"realTime":false,"distance":6078.241626365254,"pathway":false,"mode":"BUS","route":"60","agencyName":"Société de Transport du Saguenay","agencyUrl":"http://ville.saguenay.ca/fr/services-aux-citoyens/transport-sts","agencyTimeZoneOffset":-14400000,"routeColor":"00FFFF","routeType":3,"routeId":"1:60","routeTextColor":"000000","interlineWithPreviousLeg":true,"tripBlockId":"53","headsign":"Camping Rocaille","agencyId":"0","tripId":"1:218476","serviceDate":"20180402","from":{"name":"COSTCO","stopId":"1:1710","stopCode":"1710","lon":-71.085767,"lat":48.382333,"arrival":1522706700000,"departure":1522707000000,"zoneId":"NA","stopIndex":0,"stopSequence":1,"vertexType":"TRANSIT"},"to":{"name":"ch. St-Paul (no. 3799)","stopId":"1:1762","stopCode":"1762","lon":-71.145711,"lat":48.359539,"arrival":1522707393000,"departure":1522707394000,"zoneId":"NA","stopIndex":3,"stopSequence":4,"vertexType":"TRANSIT"},"legGeometry":{"points":"uthfHh}zpLoB}Bs@`BjChDZbB`@x@iDvI}@fC_AvC[jAi@`CUbBUxBUdCIlD]to@K`IEt@ElBQlEMrBWvDa@jEq@nFa@rC_AnFi@bCo@pCiAbEyCdJNZPTfApA~DjFxFfFzAdBbA`BlA|Bt@z@z@x@zAhAbBjAfKlGz@~@vApBbApAbDdDdExDLJpIjIvAzBlBdDbAbBfAtAt@|@|@~@tHhHhBlCrCfFx@fAT^bA`AjC~BdI~JpGjHt@bA`AdAvb@xf@","length":68},"routeShortName":"60","routeLongName":"Portage des Roches Nord","rentedBike":false,"transitLeg":true,"duration":393.0,"steps":[]},{"startTime":1522707394000,"endTime":1522707900000,"departureDelay":0,"arrivalDelay":0,"realTime":false,"distance":671.846,"pathway":false,"mode":"WALK","route":"","agencyTimeZoneOffset":-14400000,"interlineWithPreviousLeg":false,"from":{"name":"ch. St-Paul (no. 3799)","stopId":"1:1762","stopCode":"1762","lon":-71.145711,"lat":48.359539,"arrival":1522707393000,"departure":1522707394000,"zoneId":"NA","stopIndex":3,"stopSequence":4,"vertexType":"TRANSIT"},"to":{"name":"Destination","lon":-71.140235,"lat":48.364363,"arrival":1522707900000,"orig":"","vertexType":"NORMAL"},"legGeometry":{"points":"wedfH~rfqLeDwDsEkF_CoCiD}DeHgI","length":6},"rentedBike":false,"transitLeg":false,"duration":506.0,"steps":[{"distance":671.846,"relativeDirection":"DEPART","streetName":"Rue Saint-Paul","absoluteDirection":"NORTHEAST","stayOn":false,"area":false,"bogusName":false,"lon":-71.14559937877407,"lat":48.3594839841168,"elevation":[]}]}],"tooSloped":false}]},"debugOutput":{"precalculationTime":12,"pathCalculationTime":62,"pathTimes":[20,19],"renderingTime":0,"totalTime":74,"timedOut":false},"elevationMetadata":{"ellipsoidToGeoidDifference":-28.885904201182168,"geoidElevation":false}}