{"requestParameters":{"date":"2018/04/02","walkSpeed":"1.33","walkReluctance":"2.0","fromPlace":"48.408726,-71.0571","maxWalkDistance":"3000","waitReluctance":"1.0","carSpeed":"33","numItineraries":"3","waitAtBeginningFactor":"0.4","mode":"TRANSIT,WALK","ignoreRealtimeUpdates":"false","stairsReluctance":"2.0","toPlace":"48.401557,-71.05132","time":"14:0:00"},"plan":{"date":1522692000000,"from":{"name":"Origin","lon":-71.0571,"lat":48.408726,"orig":"","vertexType":"NORMAL"},"to":{"name":"Destination","lon":-71.05132,"lat":48.401557,"orig":"","vertexType":"NORMAL"},"itineraries":[{"duration":777,"startTime":1522692000000,"endTime":1522692777000,"walkTime":777,"transitTime":0,"waitingTime":0,"walkDistance":1000.2621879674988,"walkLimitExceeded":false,"elevationLost":0.0,"elevationGained":0.0,"transfers":0,"legs":[{"startTime":1522692000000,"endTime":1522692777000,"departureDelay":0,"arrivalDelay":0,"realTime":false,"distance":1000.1870000000001,"pathway":false,"mode":"WALK","route":"","agencyTimeZoneOffset":-14400000,"interlineWithPreviousLeg":false,"from":{"name":"Origin","lon":-71.0571,"lat":48.408726,"departure":1522692000000,"orig":"","vertexType":"NORMAL"},"to":{"name":"Destination","lon":-71.05132,"lat":48.401557,"arrival":1522692777000,"orig":"","vertexType":"NORMAL"},"legGeometry":{"points":"yzmfHlhupLL]d@aAL]Na@\\}@l@}AFQNa@HSj@_Br@qB`A_DNc@PUfAuAbAaAt@]l@Qp@E|@B|@LtAJfA?^Ed@MNGrBm@jEiA^KTGH`A","length":32},"rentedBike":false,"transitLeg":false,"duration":777.0,"steps":[{"distance":961.6220000000002,"relativeDirection":"DEPART","streetName":"Rue des Champs-Élysées","absoluteDirection":"SOUTHEAST","stayOn":false,"area":false,"bogusName":false,"lon":-71.05686355368793,"lat":48.40893935739527,"elevation":[]},{"distance":12.973,"relativeDirection":"CONTINUE","streetName":"Rue des Engoulevents","absoluteDirection":"SOUTH","stayOn":false,"area":false,"bogusName":false,"lon":-71.0511074,"lat":48.401948700000005,"elevation":[]},{"distance":25.592,"relativeDirection":"RIGHT","streetName":"Rue des Saguenéens","absoluteDirection":"WEST","stayOn":false,"area":false,"bogusName":false,"lon":-71.0510608,"lat":48.401836200000005,"elevation":[]}]}],"tooSloped":false},{"duration":648,"startTime":1522693016000,"endTime":1522693664000,"walkTime":576,"transitTime":70,"waitingTime":2,"walkDistance":739.3079398471737,"walkLimitExceeded":false,"elevationLost":0.0,"elevationGained":0.0,"transfers":0,"legs":[{"startTime":1522693016000,"endTime":1522693098000,"departureDelay":0,"arrivalDelay":0,"realTime":false,"distance":103.51599999999999,"pathway":false,"mode":"WALK","route":"","agencyTimeZoneOffset":-14400000,"interlineWithPreviousLeg":false,"from":{"name":"Origin","lon":-71.0571,"lat":48.408726,"departure":1522693016000,"orig":"","vertexType":"NORMAL"},"to":{"name":"Place du Saguenay (Champs-Élysées)","stopId":"1:571","stopCode":"571","lon":-71.055824,"lat":48.408307,"arrival":1522693098000,"departure":1522693099000,"zoneId":"NA","stopIndex":12,"stopSequence":13,"vertexType":"TRANSIT"},"legGeometry":{"points":"yzmfHlhupLL]d@aAL]Na@\\}@","length":6},"rentedBike":false,"transitLeg":false,"duration":82.0,"steps":[{"distance":103.51599999999999,"relativeDirection":"DEPART","streetName":"Rue des Champs-Élysées","absoluteDirection":"SOUTHEAST","stayOn":false,"area":false,"bogusName":false,"lon":-71.05686355368793,"lat":48.40893935739527,"elevation":[]}]},{"startTime":1522693099000,"endTime":1522693169000,"departureDelay":0,"arrivalDelay":0,"realTime":false,"distance":431.43484422170206,"pathway":false,"mode":"BUS","route":"12","agencyName":"Société de Transport du Saguenay","agencyUrl":"http://ville.saguenay.ca/fr/services-aux-citoyens/transport-sts","agencyTimeZoneOffset":-14400000,"routeColor":"556B2F","routeType":3,"routeId":"1:12","routeTextColor":"FFFFFF","interlineWithPreviousLeg":false,"tripBlockId":"26","headsign":"Terminus Chicoutimi","agencyId":"0","tripId":"1:217979","serviceDate":"20180402","from":{"name":"Place du Saguenay (Champs-Élysées)","stopId":"1:571","stopCode":"571","lon":-71.055824,"lat":48.408307,"arrival":1522693098000,"departure":1522693099000,"zoneId":"NA","stopIndex":12,"stopSequence":13,"vertexType":"TRANSIT"},"to":{"name":"Émile-Girardin / Roitelets","stopId":"1:268","stopCode":"268","lon":-71.050698,"lat":48.406546,"arrival":1522693169000,"departure":1522693170000,"zoneId":"NA","stopIndex":14,"stopSequence":15,"vertexType":"TRANSIT"},"legGeometry":{"points":"{vmfH|aupLxFoNlCyGa@yF","length":4},"routeShortName":"12","routeLongName":"Rivière du Moulin","rentedBike":false,"transitLeg":true,"duration":70.0,"steps":[]},{"startTime":1522693170000,"endTime":1522693664000,"departureDelay":0,"arrivalDelay":0,"realTime":false,"distance":635.716,"pathway":false,"mode":"WALK","route":"","agencyTimeZoneOffset":-14400000,"interlineWithPreviousLeg":false,"from":{"name":"Émile-Girardin / Roitelets","stopId":"1:268","stopCode":"268","lon":-71.050698,"lat":48.406546,"arrival":1522693169000,"departure":1522693170000,"zoneId":"NA","stopIndex":14,"stopSequence":15,"vertexType":"TRANSIT"},"to":{"name":"Destination","lon":-71.05132,"lat":48.401557,"arrival":1522693664000,"orig":"","vertexType":"NORMAL"},"legGeometry":{"points":"mlmfHbbtpLFn@z@pEt@]l@Qp@E|@B|@LtAJfA?^Ed@MNGrBm@jEiA^KTGH`A","length":18},"rentedBike":false,"transitLeg":false,"duration":494.0,"steps":[{"distance":102.818,"relativeDirection":"DEPART","streetName":"Rue Émile-Girardin","absoluteDirection":"WEST","stayOn":false,"area":false,"bogusName":false,"lon":-71.05073193352945,"lat":48.4066347754418,"elevation":[]},{"distance":494.333,"relativeDirection":"LEFT","streetName":"Rue des Champs-Élysées","absoluteDirection":"SOUTH","stayOn":false,"area":false,"bogusName":false,"lon":-71.05202630000001,"lat":48.4062974,"elevation":[]},{"distance":12.973,"relativeDirection":"CONTINUE","streetName":"Rue des Engoulevents","absoluteDirection":"SOUTH","stayOn":false,"area":false,"bogusName":false,"lon":-71.0511074,"lat":48.401948700000005,"elevation":[]},{"distance":25.592,"relativeDirection":"RIGHT","streetName":"Rue des Saguenéens","absoluteDirection":"WEST","stayOn":false,"area":false,"bogusName":false,"lon":-71.0510608,"lat":48.401836200000005,"elevation":[]}]}],"tooSloped":false},{"duration":572,"startTime":1522693337000,"endTime":1522693909000,"walkTime":500,"transitTime":70,"waitingTime":2,"walkDistance":634.2165563886361,"walkLimitExceeded":false,"elevationLost":0.0,"elevationGained":0.0,"transfers":0,"legs":[{"startTime":1522693337000,"endTime":1522693788000,"departureDelay":0,"arrivalDelay":0,"realTime":false,"distance":577.3870000000001,"pathway":false,"mode":"WALK","route":"","agencyTimeZoneOffset":-14400000,"interlineWithPreviousLeg":false,"from":{"name":"Origin","lon":-71.0571,"lat":48.408726,"departure":1522693337000,"orig":"","vertexType":"NORMAL"},"to":{"name":"Émile Girardin / Roitelets","stopId":"1:253","stopCode":"253","lon":-71.050677,"lat":48.406726,"arrival":1522693788000,"departure":1522693789000,"zoneId":"NA","stopIndex":17,"stopSequence":18,"vertexType":"TRANSIT"},"legGeometry":{"points":"yzmfHlhupLL]d@aAL]Na@\\}@l@}AFQNa@HSj@_Br@qB`A_DNc@PUfAuAbAaA{@qEGo@AGAK","length":21},"rentedBike":false,"transitLeg":false,"duration":451.0,"steps":[{"distance":467.28900000000004,"relativeDirection":"DEPART","streetName":"Rue des Champs-Élysées","absoluteDirection":"SOUTHEAST","stayOn":false,"area":false,"bogusName":false,"lon":-71.05686355368793,"lat":48.40893935739527,"elevation":[]},{"distance":110.09799999999998,"relativeDirection":"LEFT","streetName":"Rue Émile-Girardin","absoluteDirection":"NORTHEAST","stayOn":false,"area":false,"bogusName":false,"lon":-71.05202630000001,"lat":48.4062974,"elevation":[]}]},{"startTime":1522693789000,"endTime":1522693859000,"departureDelay":0,"arrivalDelay":0,"realTime":false,"distance":534.3353906916097,"pathway":false,"mode":"BUS","route":"175","agencyName":"Société de Transport du Saguenay","agencyUrl":"http://ville.saguenay.ca/fr/services-aux-citoyens/transport-sts","agencyTimeZoneOffset":-14400000,"routeColor":"FF00FF","routeType":3,"routeId":"1:175","routeTextColor":"FFFFFF","interlineWithPreviousLeg":false,"tripBlockId":"6","headsign":"Costco","agencyId":"0","tripId":"1:217300","serviceDate":"20180402","from":{"name":"Émile Girardin / Roitelets","stopId":"1:253","stopCode":"253","lon":-71.050677,"lat":48.406726,"arrival":1522693788000,"departure":1522693789000,"zoneId":"NA","stopIndex":17,"stopSequence":18,"vertexType":"TRANSIT"},"to":{"name":"Champs-Élysées / Saguenéens","stopId":"1:84","stopCode":"84","lon":-71.05132,"lat":48.402083,"arrival":1522693859000,"departure":1522693860000,"zoneId":"NA","stopIndex":19,"stopSequence":20,"vertexType":"TRANSIT"},"legGeometry":{"points":"_lmfHhatpLr@~Gx@]PEr@ObACn@FrBb@|@Ch@Kx@U~HsB","length":12},"routeShortName":"175","routeLongName":"Term. Chic / Costco","rentedBike":false,"transitLeg":true,"duration":70.0,"steps":[]},{"startTime":1522693860000,"endTime":1522693909000,"departureDelay":0,"arrivalDelay":0,"realTime":false,"distance":56.757,"pathway":false,"mode":"WALK","route":"","agencyTimeZoneOffset":-14400000,"interlineWithPreviousLeg":false,"from":{"name":"Champs-Élysées / Saguenéens","stopId":"1:84","stopCode":"84","lon":-71.05132,"lat":48.402083,"arrival":1522693859000,"departure":1522693860000,"zoneId":"NA","stopIndex":19,"stopSequence":20,"vertexType":"TRANSIT"},"to":{"name":"Destination","lon":-71.05132,"lat":48.401557,"arrival":1522693909000,"orig":"","vertexType":"NORMAL"},"legGeometry":{"points":"cplfHxdtpL^KTGH`A","length":4},"rentedBike":false,"transitLeg":false,"duration":49.0,"steps":[{"distance":18.192,"relativeDirection":"DEPART","streetName":"Rue des Champs-Élysées","absoluteDirection":"SOUTH","stayOn":false,"area":false,"bogusName":false,"lon":-71.05116509910528,"lat":48.402107765696,"elevation":[]},{"distance":12.973,"relativeDirection":"CONTINUE","streetName":"Rue des Engoulevents","absoluteDirection":"SOUTH","stayOn":false,"area":false,"bogusName":false,"lon":-71.0511074,"lat":48.401948700000005,"elevation":[]},{"distance":25.592,"relativeDirection":"RIGHT","streetName":"Rue des Saguenéens","absoluteDirection":"WEST","stayOn":false,"area":false,"bogusName":false,"lon":-71.0510608,"lat":48.401836200000005,"elevation":[]}]}],"tooSloped":false}]},"debugOutput":{"precalculationTime":53,"pathCalculationTime":44,"pathTimes":[22,9,13],"renderingTime":1,"totalTime":98,"timedOut":false},"elevationMetadata":{"ellipsoidToGeoidDifference":-28.885904201182168,"geoidElevation":false}}