{"requestParameters":{"date":"2018/04/02","walkSpeed":"1.33","walkReluctance":"2.0","fromPlace":"48.418436,-71.035021","maxWalkDistance":"3000","waitReluctance":"1.0","carSpeed":"33","numItineraries":"3","waitAtBeginningFactor":"0.4","mode":"TRANSIT,WALK","ignoreRealtimeUpdates":"false","stairsReluctance":"2.0","toPlace":"48.395327,-71.071431","time":"17:10:00"},"plan":{"date":1522703400000,"from":{"name":"Origin","lon":-71.035021,"lat":48.418436,"orig":"","vertexType":"NORMAL"},"to":{"name":"Destination","lon":-71.071431,"lat":48.395327,"orig":"","vertexType":"NORMAL"},"itineraries":[{"duration":1838,"startTime":1522704244000,"endTime":1522706082000,"walkTime":405,"transitTime":1311,"waitingTime":122,"walkDistance":519.4957293203483,"walkLimitExceeded":false,"elevationLost":0.0,"elevationGained":0.0,"transfers":1,"legs":[{"startTime":1522704244000,"endTime":1522704428000,"departureDelay":0,"arrivalDelay":0,"realTime":false,"distance":233.285,"pathway":false,"mode":"WALK","route":"","agencyTimeZoneOffset":-14400000,"interlineWithPreviousLeg":false,"from":{"name":"Origin","lon":-71.035021,"lat":48.418436,"departure":1522704244000,"orig":"","vertexType":"NORMAL"},"to":{"name":"Chabanel (no. 616)","stopId":"1:1640","stopCode":"1640","lon":-71.037069,"lat":48.419408,"arrival":1522704428000,"departure":1522704429000,"zoneId":"NA","stopIndex":14,"stopSequence":15,"vertexType":"TRANSIT"},"legGeometry":{"points":"}wofHh_qpLEf@Cd@B~@FfBBn@Iz@Sn@MRS^IFQNEQIUW[?A","length":16},"rentedBike":false,"transitLeg":false,"duration":184.0,"steps":[{"distance":197.964,"relativeDirection":"DEPART","streetName":"service road","absoluteDirection":"WEST","stayOn":false,"area":false,"bogusName":false,"lon":-71.03492883479979,"lat":48.41871153992348,"elevation":[]},{"distance":35.321,"relativeDirection":"RIGHT","streetName":"Rue Chabanel","absoluteDirection":"NORTHEAST","stayOn":false,"area":false,"bogusName":false,"lon":-71.0373165,"lat":48.419144200000005,"elevation":[]}]},{"startTime":1522704429000,"endTime":1522705020000,"departureDelay":0,"arrivalDelay":0,"realTime":false,"distance":2671.4759159828945,"pathway":false,"mode":"BUS","route":"10","agencyName":"Société de Transport du Saguenay","agencyUrl":"http://ville.saguenay.ca/fr/services-aux-citoyens/transport-sts","agencyTimeZoneOffset":-14400000,"routeColor":"0000FF","routeType":3,"routeId":"1:10","routeTextColor":"FFFFFF","interlineWithPreviousLeg":false,"tripBlockId":"29","headsign":"Terminus UQAC","agencyId":"0","tripId":"1:218073","serviceDate":"20180402","from":{"name":"Chabanel (no. 616)","stopId":"1:1640","stopCode":"1640","lon":-71.037069,"lat":48.419408,"arrival":1522704428000,"departure":1522704429000,"zoneId":"NA","stopIndex":14,"stopSequence":15,"vertexType":"TRANSIT"},"to":{"name":"Terminus UQAC","stopId":"1:1670","stopCode":"1670","lon":-71.053369,"lat":48.420903,"arrival":1522705020000,"departure":1522705140000,"zoneId":"NA","stopIndex":24,"stopSequence":25,"vertexType":"TRANSIT"},"legGeometry":{"points":"}{ofH`lqpLXZt@lCl@tAnBpB~@~@lDjDr@r@zDrDnAlAjBrBl@pBPlBCj@KrAAHSpAe@jB_A|Bz@xAvA~BvB|BdN|Nc@bAuA~C}VeWaEpLeIrU|D~EfDdEwLpKeBgGAsE]gAoD}CUt@a@_@USMM","length":39},"routeShortName":"10","routeLongName":"Notre-Dame du Saguenay","rentedBike":false,"transitLeg":true,"duration":591.0,"steps":[]},{"startTime":1522705140000,"endTime":1522705860000,"departureDelay":0,"arrivalDelay":0,"realTime":false,"distance":4023.9615834747424,"pathway":false,"mode":"BUS","route":"175","agencyName":"Société de Transport du Saguenay","agencyUrl":"http://ville.saguenay.ca/fr/services-aux-citoyens/transport-sts","agencyTimeZoneOffset":-14400000,"routeColor":"FF00FF","routeType":3,"routeId":"1:175","routeTextColor":"FFFFFF","interlineWithPreviousLeg":false,"tripBlockId":"77","headsign":"Costco","agencyId":"0","tripId":"1:218639","serviceDate":"20180402","from":{"name":"Terminus UQAC","stopId":"1:1670","stopCode":"1670","lon":-71.053369,"lat":48.420903,"arrival":1522705020000,"departure":1522705140000,"zoneId":"NA","stopIndex":11,"stopSequence":12,"vertexType":"TRANSIT"},"to":{"name":"boul. Talbot (no. 1870)","stopId":"1:1556","stopCode":"1556","lon":-71.069429,"lat":48.3951,"arrival":1522705860000,"departure":1522705861000,"zoneId":"NA","stopIndex":24,"stopSequence":25,"vertexType":"TRANSIT"},"legGeometry":{"points":"sepfHtrtpL`A~@Xw@~D~DPxFZtA~ApE`N{LpFmEb@[ROl@[vDQXKfA[|@q@fAsBlEmMr@sBhCsKz@dAjB|@dM`GzCvAXrCr@~Gx@]PEr@ObACn@FrBb@|@Ch@Kx@U~HsB^KZ|DJpII~Fa@rFUzBi@bDUxAm@nCcAlDM^RTfD`DjF`FjCrCrAvAbCfDjIfMdAzAfFpHd@n@nC`D","length":58},"routeShortName":"175","routeLongName":"Term. Chic / Costco","rentedBike":false,"transitLeg":true,"duration":720.0,"steps":[]},{"startTime":1522705861000,"endTime":1522706082000,"departureDelay":0,"arrivalDelay":0,"realTime":false,"distance":286.119,"pathway":false,"mode":"WALK","route":"","agencyTimeZoneOffset":-14400000,"interlineWithPreviousLeg":false,"from":{"name":"boul. Talbot (no. 1870)","stopId":"1:1556","stopCode":"1556","lon":-71.069429,"lat":48.3951,"arrival":1522705860000,"departure":1522705861000,"zoneId":"NA","stopIndex":24,"stopSequence":25,"vertexType":"TRANSIT"},"to":{"name":"Destination","lon":-71.071431,"lat":48.395327,"arrival":1522706082000,"orig":"","vertexType":"NORMAL"},"legGeometry":{"points":"adkfHjvwpL~DxENPuCrH","length":4},"rentedBike":false,"transitLeg":false,"duration":221.0,"steps":[{"distance":145.045,"relativeDirection":"DEPART","streetName":"Boulevard Talbot","absoluteDirection":"SOUTHWEST","stayOn":false,"area":false,"bogusName":false,"lon":-71.0693341574882,"lat":48.39505259726926,"elevation":[]},{"distance":141.074,"relativeDirection":"RIGHT","streetName":"Boulevard Barrette","absoluteDirection":"NORTHWEST","stayOn":false,"area":false,"bogusName":false,"lon":-71.0705155,"lat":48.394010400000006,"elevation":[]}]}],"tooSloped":false},{"duration":1975,"startTime":1522705007000,"endTime":1522706982000,"walkTime":1496,"transitTime":477,"waitingTime":2,"walkDistance":1913.8364736764834,"walkLimitExceeded":false,"elevationLost":0.0,"elevationGained":0.0,"transfers":0,"legs":[{"startTime":1522705007000,"endTime":1522706282000,"departureDelay":0,"arrivalDelay":0,"realTime":false,"distance":1627.478,"pathway":false,"mode":"WALK","route":"","agencyTimeZoneOffset":-14400000,"interlineWithPreviousLeg":false,"from":{"name":"Origin","lon":-71.035021,"lat":48.418436,"departure":1522705007000,"orig":"","vertexType":"NORMAL"},"to":{"name":"boul. Université / Murdock","stopId":"1:80","stopCode":"80","lon":-71.050111,"lat":48.411498,"arrival":1522706282000,"departure":1522706283000,"zoneId":"NA","stopIndex":14,"stopSequence":15,"vertexType":"TRANSIT"},"legGeometry":{"points":"}wofHh_qpLEf@Cd@B~@FfBBn@Iz@Sn@MR@\\HNNJPJRFG\\OhAKl@FNLLb@d@z@z@??z@z@vBxBr@p@DD??l@v@bCrBx@v@BBx@v@pAnAHJl@r@f@pBNfBAh@MrAAHSrA[nAcAxCt@hABDn@~@b@lA`ArAl@l@@Bh@j@PRdBlBdEbEnBrBVPUn@","length":57},"rentedBike":false,"transitLeg":false,"duration":1275.0,"steps":[{"distance":275.049,"relativeDirection":"DEPART","streetName":"service road","absoluteDirection":"WEST","stayOn":false,"area":false,"bogusName":false,"lon":-71.03492883479979,"lat":48.41871153992348,"elevation":[]},{"distance":803.306,"relativeDirection":"LEFT","streetName":"Rue Chabanel","absoluteDirection":"SOUTHWEST","stayOn":false,"area":false,"bogusName":false,"lon":-71.0381787,"lat":48.418758600000004,"elevation":[]},{"distance":527.521,"relativeDirection":"LEFT","streetName":"Rue Murdock","absoluteDirection":"SOUTHWEST","stayOn":false,"area":false,"bogusName":false,"lon":-71.0455232,"lat":48.4151863,"elevation":[]},{"distance":21.602,"relativeDirection":"RIGHT","streetName":"Boulevard de l'Université","absoluteDirection":"NORTHWEST","stayOn":false,"area":false,"bogusName":false,"lon":-71.0498268,"lat":48.4114298,"elevation":[]}]},{"startTime":1522706283000,"endTime":1522706760000,"departureDelay":0,"arrivalDelay":0,"realTime":false,"distance":2868.593020858092,"pathway":false,"mode":"BUS","route":"175","agencyName":"Société de Transport du Saguenay","agencyUrl":"http://ville.saguenay.ca/fr/services-aux-citoyens/transport-sts","agencyTimeZoneOffset":-14400000,"routeColor":"FF00FF","routeType":3,"routeId":"1:175","routeTextColor":"FFFFFF","interlineWithPreviousLeg":false,"tripBlockId":"7","headsign":"Costco","agencyId":"0","tripId":"1:217343","serviceDate":"20180402","from":{"name":"boul. Université / Murdock","stopId":"1:80","stopCode":"80","lon":-71.050111,"lat":48.411498,"arrival":1522706282000,"departure":1522706283000,"zoneId":"NA","stopIndex":14,"stopSequence":15,"vertexType":"TRANSIT"},"to":{"name":"boul. Talbot (no. 1870)","stopId":"1:1556","stopCode":"1556","lon":-71.069429,"lat":48.3951,"arrival":1522706760000,"departure":1522706761000,"zoneId":"NA","stopIndex":24,"stopSequence":25,"vertexType":"TRANSIT"},"legGeometry":{"points":"aknfH~}spLr@sBhCsKz@dAjB|@dM`GzCvAXrCr@~Gx@]PEr@ObACn@FrBb@|@Ch@Kx@U~HsB^KZ|DJpII~Fa@rFUzBi@bDUxAm@nCcAlDM^RTfD`DjF`FjCrCrAvAbCfDjIfMdAzAfFpHd@n@nC`D","length":41},"routeShortName":"175","routeLongName":"Term. Chic / Costco","rentedBike":false,"transitLeg":true,"duration":477.0,"steps":[]},{"startTime":1522706761000,"endTime":1522706982000,"departureDelay":0,"arrivalDelay":0,"realTime":false,"distance":286.119,"pathway":false,"mode":"WALK","route":"","agencyTimeZoneOffset":-14400000,"interlineWithPreviousLeg":false,"from":{"name":"boul. Talbot (no. 1870)","stopId":"1:1556","stopCode":"1556","lon":-71.069429,"lat":48.3951,"arrival":1522706760000,"departure":1522706761000,"zoneId":"NA","stopIndex":24,"stopSequence":25,"vertexType":"TRANSIT"},"to":{"name":"Destination","lon":-71.071431,"lat":48.395327,"arrival":1522706982000,"orig":"","vertexType":"NORMAL"},"legGeometry":{"points":"adkfHjvwpL~DxENPuCrH","length":4},"rentedBike":false,"transitLeg":false,"duration":221.0,"steps":[{"distance":145.045,"relativeDirection":"DEPART","streetName":"Boulevard Talbot","absoluteDirection":"SOUTHWEST","stayOn":false,"area":false,"bogusName":false,"lon":-71.0693341574882,"lat":48.39505259726926,"elevation":[]},{"distance":141.074,"relativeDirection":"RIGHT","streetName":"Boulevard Barrette","absoluteDirection":"NORTHWEST","stayOn":false,"area":false,"bogusName":false,"lon":-71.0705155,"lat":48.394010400000006,"elevation":[]}]}],"tooSloped":false},{"duration":2901,"startTime":1522704292000,"endTime":1522707193000,"walkTime":234,"transitTime":2365,"waitingTime":302,"walkDistance":299.787894734974,"walkLimitExceeded":false,"elevationLost":0.0,"elevationGained":0.0,"transfers":1,"legs":[{"startTime":1522704292000,"endTime":1522704475000,"departureDelay":0,"arrivalDelay":0,"realTime":false,"distance":232.123,"pathway":false,"mode":"WALK","route":"","agencyTimeZoneOffset":-14400000,"interlineWithPreviousLeg":false,"from":{"name":"Origin","lon":-71.035021,"lat":48.418436,"departure":1522704292000,"orig":"","vertexType":"NORMAL"},"to":{"name":"nouveau","stopId":"1:2294","stopCode":"2294","lon":-71.03689,"lat":48.419297,"arrival":1522704475000,"departure":1522704476000,"zoneId":"NA","stopIndex":7,"stopSequence":8,"vertexType":"TRANSIT"},"legGeometry":{"points":"}wofHh_qpLEf@Cd@B~@FfBBn@Iz@Sn@MRS^IFQNEQIUW[","length":15},"rentedBike":false,"transitLeg":false,"duration":183.0,"steps":[{"distance":197.964,"relativeDirection":"DEPART","streetName":"service road","absoluteDirection":"WEST","stayOn":false,"area":false,"bogusName":false,"lon":-71.03492883479979,"lat":48.41871153992348,"elevation":[]},{"distance":34.159,"relativeDirection":"RIGHT","streetName":"Rue Chabanel","absoluteDirection":"NORTHEAST","stayOn":false,"area":false,"bogusName":false,"lon":-71.0373165,"lat":48.419144200000005,"elevation":[]}]},{"startTime":1522704476000,"endTime":1522705200000,"departureDelay":0,"arrivalDelay":0,"realTime":false,"distance":3354.673761312412,"pathway":false,"mode":"BUS","route":"10","agencyName":"Société de Transport du Saguenay","agencyUrl":"http://ville.saguenay.ca/fr/services-aux-citoyens/transport-sts","agencyTimeZoneOffset":-14400000,"routeColor":"0000FF","routeType":3,"routeId":"1:10","routeTextColor":"FFFFFF","interlineWithPreviousLeg":false,"tripBlockId":"27","headsign":"Terminus Chicoutimi","agencyId":"0","tripId":"1:218021","serviceDate":"20180402","from":{"name":"nouveau","stopId":"1:2294","stopCode":"2294","lon":-71.03689,"lat":48.419297,"arrival":1522704475000,"departure":1522704476000,"zoneId":"NA","stopIndex":7,"stopSequence":8,"vertexType":"TRANSIT"},"to":{"name":"Terminus Chicoutimi","stopId":"1:1289","stopCode":"1289","lon":-71.066163,"lat":48.428677,"arrival":1522705200000,"departure":1522705500000,"zoneId":"NA","stopIndex":21,"stopSequence":22,"vertexType":"TRANSIT"},"legGeometry":{"points":"y{ofH`lqpLo@y@k@Io@MqC@}@k@_@[aAw@_BoCMOKcAQUu@s@AAu@[k@xGg@pFc@~EO`@KHCVDP?hAa@nEKdAi@pGAr@GXMRG^Bb@`CV~IxB~ElAhChAsBtFaEvK_BhE}AfD{BdByBh@iC]oDq@YbF_Ea@AAuEg@MDENF|GAjJDzBDdDLdHFbCo@RUFRbFG|FApAMvFa@tPOnHqBOIjDc@Q","length":66},"routeShortName":"10","routeLongName":"Notre-Dame du Saguenay","rentedBike":false,"transitLeg":true,"duration":724.0,"steps":[]},{"startTime":1522705500000,"endTime":1522707120000,"departureDelay":0,"arrivalDelay":0,"realTime":false,"distance":8780.793308460485,"pathway":false,"mode":"BUS","route":"15","agencyName":"Société de Transport du Saguenay","agencyUrl":"http://ville.saguenay.ca/fr/services-aux-citoyens/transport-sts","agencyTimeZoneOffset":-14400000,"routeColor":"FF00FF","routeType":3,"routeId":"1:15","routeTextColor":"FFFFFF","interlineWithPreviousLeg":false,"tripBlockId":"31","headsign":"Talbot / Barrette","agencyId":"0","tripId":"1:218144","serviceDate":"20180402","from":{"name":"Terminus Chicoutimi","stopId":"1:1289","stopCode":"1289","lon":-71.066163,"lat":48.428677,"arrival":1522705200000,"departure":1522705500000,"zoneId":"NA","stopIndex":0,"stopSequence":1,"vertexType":"TRANSIT"},"to":{"name":"Roitelets / Sapins","stopId":"1:1543","stopCode":"1543","lon":-71.069553,"lat":48.393375,"arrival":1522707120000,"departure":1522707120000,"zoneId":"NA","stopIndex":35,"stopSequence":36,"vertexType":"TRANSIT"},"legGeometry":{"points":"evqfHpbwpLPiCjKx@HiEZkS\\aSN_K^eIrBpBvIpIr@r@\\mBfAaA`@gBOkB_@uF|DyL|DpDQ|@|@z@bA`ATw@dD~Ch@fA@`E~AjGuH`Iy@bBi@dCbEdEjJlJ`HbHlJpJ|J~JdAfALzDNzDrAdBrEKvBEbCv@d@TvFlC|DlBpMlGrB`AM}@hAwEC{B]oBiBmBsH_@_K{H`EgIvCaGfEoItDsH~DeItC{FnBoLbCaO?qLa@uJzF`ApF~@~@PzAgEeDcBf@qAWcKUqEx@Ef@ExDVjDxAFBrBvAfGjG@BjCzC~DxC@@zA~Cb@fCJlC?BsBre@?DWbOAn@?nEGnM@H\\hCzA~ELvAAlAi@jDo@nB","length":99},"routeShortName":"15","routeLongName":"Term. Chic / Costco","rentedBike":false,"transitLeg":true,"duration":1620.0,"steps":[]},{"startTime":1522707120000,"endTime":1522707141000,"departureDelay":0,"arrivalDelay":0,"realTime":false,"distance":307.4152455172333,"pathway":false,"mode":"BUS","route":"14","agencyName":"Société de Transport du Saguenay","agencyUrl":"http://ville.saguenay.ca/fr/services-aux-citoyens/transport-sts","agencyTimeZoneOffset":-14400000,"routeColor":"C0C000","routeType":3,"routeId":"1:14","routeTextColor":"000000","interlineWithPreviousLeg":true,"tripBlockId":"31","headsign":"Terminus Chicoutimi","agencyId":"0","tripId":"1:218145","serviceDate":"20180402","from":{"name":"Roitelets / Sapins","stopId":"1:1513","stopCode":"1513","lon":-71.069396,"lat":48.393523,"arrival":1522707120000,"departure":1522707120000,"zoneId":"NA","stopIndex":0,"stopSequence":1,"vertexType":"TRANSIT"},"to":{"name":"Familiprix du boul. Barrette","stopId":"1:1931","stopCode":"1931","lon":-71.072721,"lat":48.395187,"arrival":1522707141000,"departure":1522707142000,"zoneId":"NA","stopIndex":1,"stopSequence":2,"vertexType":"TRANSIT"},"legGeometry":{"points":"azjfHfwwpLiEfLuBzF","length":3},"routeShortName":"14","routeLongName":"Coopérative","rentedBike":false,"transitLeg":true,"duration":21.0,"steps":[]},{"startTime":1522707142000,"endTime":1522707193000,"departureDelay":0,"arrivalDelay":0,"realTime":false,"distance":67.607,"pathway":false,"mode":"WALK","route":"","agencyTimeZoneOffset":-14400000,"interlineWithPreviousLeg":false,"from":{"name":"Familiprix du boul. Barrette","stopId":"1:1931","stopCode":"1931","lon":-71.072721,"lat":48.395187,"arrival":1522707141000,"departure":1522707142000,"zoneId":"NA","stopIndex":1,"stopSequence":2,"vertexType":"TRANSIT"},"to":{"name":"Destination","lon":-71.071431,"lat":48.395327,"arrival":1522707193000,"orig":"","vertexType":"NORMAL"},"legGeometry":{"points":"odkfH~kxpLfAsC","length":2},"rentedBike":false,"transitLeg":false,"duration":51.0,"steps":[{"distance":67.607,"relativeDirection":"DEPART","streetName":"Boulevard Barrette","absoluteDirection":"SOUTHEAST","stayOn":false,"area":false,"bogusName":false,"lon":-71.07279494685812,"lat":48.39512002794624,"elevation":[]}]}],"tooSloped":false}]},"debugOutput":{"precalculationTime":34,"pathCalculationTime":52,"pathTimes":[29,10,13],"renderingTime":1,"totalTime":87,"timedOut":false},"elevationMetadata":{"ellipsoidToGeoidDifference":-28.885904201182168,"geoidElevation":false}}