{"requestParameters":{"date":"2018/04/02","walkSpeed":"1.33","walkReluctance":"2.0","fromPlace":"48.425659,-71.06023399","maxWalkDistance":"3000","waitReluctance":"1.0","carSpeed":"33","numItineraries":"3","waitAtBeginningFactor":"0.4","mode":"TRANSIT,WALK","ignoreRealtimeUpdates":"false","stairsReluctance":"2.0","toPlace":"48.428459,-71.034043","time":"14:50:00"},"plan":{"date":1522695000000,"from":{"name":"Origin","lon":-71.06023399,"lat":48.425659,"orig":"","vertexType":"NORMAL"},"to":{"name":"Destination","lon":-71.034043,"lat":48.428459,"orig":"","vertexType":"NORMAL"},"itineraries":[{"duration":673,"startTime":1522696308000,"endTime":1522696981000,"walkTime":427,"transitTime":244,"waitingTime":2,"walkDistance":529.9756842049221,"walkLimitExceeded":false,"elevationLost":0.0,"elevationGained":0.0,"transfers":0,"legs":[{"startTime":1522696308000,"endTime":1522696576000,"departureDelay":0,"arrivalDelay":0,"realTime":false,"distance":330.884,"pathway":false,"mode":"WALK","route":"","agencyTimeZoneOffset":-14400000,"interlineWithPreviousLeg":false,"from":{"name":"Origin","lon":-71.06023399,"lat":48.425659,"departure":1522696308000,"orig":"","vertexType":"NORMAL"},"to":{"name":"Racine / Havre","stopId":"1:1639","stopCode":"1639","lon":-71.059267,"lat":48.427469,"arrival":1522696576000,"departure":1522696577000,"zoneId":"NA","stopIndex":1,"stopSequence":2,"vertexType":"TRANSIT"},"legGeometry":{"points":"icqfHf}upLiCM@Sy@DSNgAQ_@AmAEDuAB_A","length":10},"rentedBike":false,"transitLeg":false,"duration":268.0,"steps":[{"distance":76.556,"relativeDirection":"DEPART","streetName":"Rue La Fontaine","absoluteDirection":"NORTH","stayOn":false,"area":false,"bogusName":false,"lon":-71.06019413177434,"lat":48.425657274739315,"elevation":[]},{"distance":7.727,"relativeDirection":"RIGHT","streetName":"Rue Jacques-Cartier Est","absoluteDirection":"EAST","stayOn":false,"area":false,"bogusName":false,"lon":-71.0601266,"lat":48.426344300000004,"elevation":[]},{"distance":89.104,"relativeDirection":"LEFT","streetName":"steps","absoluteDirection":"NORTH","stayOn":false,"area":false,"bogusName":true,"lon":-71.0600222,"lat":48.4263388,"elevation":[]},{"distance":101.499,"relativeDirection":"SLIGHTLY_RIGHT","streetName":"Rue La Fontaine","absoluteDirection":"NORTH","stayOn":false,"area":false,"bogusName":false,"lon":-71.0601336,"lat":48.4267252,"elevation":[]},{"distance":55.998000000000005,"relativeDirection":"RIGHT","streetName":"Rue Racine Est","absoluteDirection":"EAST","stayOn":false,"area":false,"bogusName":false,"lon":-71.0600075,"lat":48.4276324,"elevation":[]}]},{"startTime":1522696577000,"endTime":1522696821000,"departureDelay":0,"arrivalDelay":0,"realTime":false,"distance":1838.7154765792181,"pathway":false,"mode":"BUS","route":"12","agencyName":"Société de Transport du Saguenay","agencyUrl":"http://ville.saguenay.ca/fr/services-aux-citoyens/transport-sts","agencyTimeZoneOffset":-14400000,"routeColor":"556B2F","routeType":3,"routeId":"1:12","routeTextColor":"FFFFFF","interlineWithPreviousLeg":false,"tripBlockId":"28","headsign":"Terminus UQAC","agencyId":"0","tripId":"1:218043","serviceDate":"20180402","from":{"name":"Racine / Havre","stopId":"1:1639","stopCode":"1639","lon":-71.059267,"lat":48.427469,"arrival":1522696576000,"departure":1522696577000,"zoneId":"NA","stopIndex":1,"stopSequence":2,"vertexType":"TRANSIT"},"to":{"name":"boul. Saguenay / Jean Langevin","stopId":"1:494","stopCode":"494","lon":-71.034926,"lat":48.42987,"arrival":1522696821000,"departure":1522696822000,"zoneId":"NA","stopIndex":8,"stopSequence":9,"vertexType":"TRANSIT"},"legGeometry":{"points":"snqfHlwupLIaKmFy^_DaZz@u]SeV}@aNs@gK","length":8},"routeShortName":"12","routeLongName":"Rivière du Moulin","rentedBike":false,"transitLeg":true,"duration":244.0,"steps":[]},{"startTime":1522696822000,"endTime":1522696981000,"departureDelay":0,"arrivalDelay":0,"realTime":false,"distance":198.918,"pathway":false,"mode":"WALK","route":"","agencyTimeZoneOffset":-14400000,"interlineWithPreviousLeg":false,"from":{"name":"boul. Saguenay / Jean Langevin","stopId":"1:494","stopCode":"494","lon":-71.034926,"lat":48.42987,"arrival":1522696821000,"departure":1522696822000,"zoneId":"NA","stopIndex":8,"stopSequence":9,"vertexType":"TRANSIT"},"to":{"name":"Destination","lon":-71.034043,"lat":48.428459,"arrival":1522696981000,"orig":"","vertexType":"NORMAL"},"legGeometry":{"points":"a~qfHl_qpLGgAjBSx@Of@UDERUr@{@","length":8},"rentedBike":false,"transitLeg":false,"duration":159.0,"steps":[{"distance":27.109,"relativeDirection":"DEPART","streetName":"Boulevard du Saguenay Est","absoluteDirection":"EAST","stayOn":false,"area":false,"bogusName":false,"lon":-71.03494410117992,"lat":48.429935003676384,"elevation":[]},{"distance":171.809,"relativeDirection":"RIGHT","streetName":"Rue Jean-Langevin","absoluteDirection":"SOUTH","stayOn":false,"area":false,"bogusName":false,"lon":-71.03458280000001,"lat":48.42997930000001,"elevation":[]}]}],"tooSloped":false},{"duration":1996,"startTime":1522695879000,"endTime":1522697875000,"walkTime":595,"transitTime":1399,"waitingTime":2,"walkDistance":742.1157593919213,"walkLimitExceeded":false,"elevationLost":0.0,"elevationGained":0.0,"transfers":0,"legs":[{"startTime":1522695879000,"endTime":1522696340000,"departureDelay":0,"arrivalDelay":0,"realTime":false,"distance":570.1029999999998,"pathway":false,"mode":"WALK","route":"","agencyTimeZoneOffset":-14400000,"interlineWithPreviousLeg":false,"from":{"name":"Origin","lon":-71.06023399,"lat":48.425659,"departure":1522695879000,"orig":"","vertexType":"NORMAL"},"to":{"name":"Bégin / Saint-Thomas","stopId":"1:1998","stopCode":"1998","lon":-71.058439,"lat":48.422491,"arrival":1522696340000,"departure":1522696341000,"zoneId":"NA","stopIndex":3,"stopSequence":4,"vertexType":"TRANSIT"},"legGeometry":{"points":"icqfHf}upLfCLF{CCeAx@]f@[@m@@y@H]L]BUJ@F?j@BNDB@RHLMBe@DeANm@JHHHVVRN`AbAhAfAVX","length":28},"rentedBike":false,"transitLeg":false,"duration":461.0,"steps":[{"distance":75.803,"relativeDirection":"DEPART","streetName":"Rue La Fontaine","absoluteDirection":"SOUTH","stayOn":false,"area":false,"bogusName":false,"lon":-71.06019413177434,"lat":48.425657274739315,"elevation":[]},{"distance":83.084,"relativeDirection":"LEFT","streetName":"Rue Price Est","absoluteDirection":"EAST","stayOn":false,"area":false,"bogusName":false,"lon":-71.06026100000001,"lat":48.424977000000005,"elevation":[]},{"distance":131.454,"relativeDirection":"RIGHT","streetName":"path","absoluteDirection":"SOUTH","stayOn":false,"area":false,"bogusName":true,"lon":-71.0591387,"lat":48.424959400000006,"elevation":[]},{"distance":127.559,"relativeDirection":"RIGHT","streetName":"alley","absoluteDirection":"SOUTH","stayOn":true,"area":false,"bogusName":true,"lon":-71.0579166,"lat":48.424303900000005,"elevation":[]},{"distance":152.203,"relativeDirection":"RIGHT","streetName":"Rue Bégin","absoluteDirection":"SOUTHWEST","stayOn":false,"area":false,"bogusName":false,"lon":-71.05719760000001,"lat":48.4235836,"elevation":[]}]},{"startTime":1522696341000,"endTime":1522697740000,"departureDelay":0,"arrivalDelay":0,"realTime":false,"distance":8116.980668954864,"pathway":false,"mode":"BUS","route":"12","agencyName":"Société de Transport du Saguenay","agencyUrl":"http://ville.saguenay.ca/fr/services-aux-citoyens/transport-sts","agencyTimeZoneOffset":-14400000,"routeColor":"556B2F","routeType":3,"routeId":"1:12","routeTextColor":"FFFFFF","interlineWithPreviousLeg":false,"tripBlockId":"26","headsign":"Terminus Chicoutimi","agencyId":"0","tripId":"1:217981","serviceDate":"20180402","from":{"name":"Bégin / Saint-Thomas","stopId":"1:1998","stopCode":"1998","lon":-71.058439,"lat":48.422491,"arrival":1522696340000,"departure":1522696341000,"zoneId":"NA","stopIndex":3,"stopSequence":4,"vertexType":"TRANSIT"},"to":{"name":"boul. Saguenay / Jean-Langevin","stopId":"1:1993","stopCode":"1993","lon":-71.034592,"lat":48.430034,"arrival":1522697740000,"departure":1522697741000,"zoneId":"NA","stopIndex":27,"stopSequence":28,"vertexType":"TRANSIT"},"legGeometry":{"points":"copfHjqupL~MfNjJnJ~GbHnCpCv@iBlAgIdCmFbAqDtBeCjFm@`Gs@hFo@xAmBrGcPxFoNlCyGa@yFYkD}CyA}KmFgD_BgAgBn@kFD_NoIgrAmD_WcAaLaDHoDJi`@wVoAbDbA|AnBU|B|AfBlAyLtKoGxFcFqDkJaHgEoDmDwC_TqQsBeB{HjWfAvAfM|O|FlHmB`IgA|Cy@`UYzH","length":52},"routeShortName":"12","routeLongName":"Rivière du Moulin","rentedBike":false,"transitLeg":true,"duration":1399.0,"steps":[]},{"startTime":1522697741000,"endTime":1522697875000,"departureDelay":0,"arrivalDelay":0,"realTime":false,"distance":171.809,"pathway":false,"mode":"WALK","route":"","agencyTimeZoneOffset":-14400000,"interlineWithPreviousLeg":false,"from":{"name":"boul. Saguenay / Jean-Langevin","stopId":"1:1993","stopCode":"1993","lon":-71.034592,"lat":48.430034,"arrival":1522697740000,"departure":1522697741000,"zoneId":"NA","stopIndex":27,"stopSequence":28,"vertexType":"TRANSIT"},"to":{"name":"Destination","lon":-71.034043,"lat":48.428459,"arrival":1522697875000,"orig":"","vertexType":"NORMAL"},"legGeometry":{"points":"i~qfHd}ppLjBSx@Of@UDERUr@{@","length":7},"rentedBike":false,"transitLeg":false,"duration":134.0,"steps":[{"distance":171.809,"relativeDirection":"DEPART","streetName":"Rue Jean-Langevin","absoluteDirection":"SOUTH","stayOn":false,"area":false,"bogusName":false,"lon":-71.03458280000001,"lat":48.42997930000001,"elevation":[]}]}],"tooSloped":false},{"duration":673,"startTime":1522698108000,"endTime":1522698781000,"walkTime":427,"transitTime":244,"waitingTime":2,"walkDistance":529.9756842049221,"walkLimitExceeded":false,"elevationLost":0.0,"elevationGained":0.0,"transfers":0,"legs":[{"startTime":1522698108000,"endTime":1522698376000,"departureDelay":0,"arrivalDelay":0,"realTime":false,"distance":330.884,"pathway":false,"mode":"WALK","route":"","agencyTimeZoneOffset":-14400000,"interlineWithPreviousLeg":false,"from":{"name":"Origin","lon":-71.06023399,"lat":48.425659,"departure":1522698108000,"orig":"","vertexType":"NORMAL"},"to":{"name":"Racine / Havre","stopId":"1:1639","stopCode":"1639","lon":-71.059267,"lat":48.427469,"arrival":1522698376000,"departure":1522698377000,"zoneId":"NA","stopIndex":1,"stopSequence":2,"vertexType":"TRANSIT"},"legGeometry":{"points":"icqfHf}upLiCM@Sy@DSNgAQ_@AmAEDuAB_A","length":10},"rentedBike":false,"transitLeg":false,"duration":268.0,"steps":[{"distance":76.556,"relativeDirection":"DEPART","streetName":"Rue La Fontaine","absoluteDirection":"NORTH","stayOn":false,"area":false,"bogusName":false,"lon":-71.06019413177434,"lat":48.425657274739315,"elevation":[]},{"distance":7.727,"relativeDirection":"RIGHT","streetName":"Rue Jacques-Cartier Est","absoluteDirection":"EAST","stayOn":false,"area":false,"bogusName":false,"lon":-71.0601266,"lat":48.426344300000004,"elevation":[]},{"distance":89.104,"relativeDirection":"LEFT","streetName":"steps","absoluteDirection":"NORTH","stayOn":false,"area":false,"bogusName":true,"lon":-71.0600222,"lat":48.4263388,"elevation":[]},{"distance":101.499,"relativeDirection":"SLIGHTLY_RIGHT","streetName":"Rue La Fontaine","absoluteDirection":"NORTH","stayOn":false,"area":false,"bogusName":false,"lon":-71.0601336,"lat":48.4267252,"elevation":[]},{"distance":55.998000000000005,"relativeDirection":"RIGHT","streetName":"Rue Racine Est","absoluteDirection":"EAST","stayOn":false,"area":false,"bogusName":false,"lon":-71.0600075,"lat":48.4276324,"elevation":[]}]},{"startTime":1522698377000,"endTime":1522698621000,"departureDelay":0,"arrivalDelay":0,"realTime":false,"distance":1838.7154765792181,"pathway":false,"mode":"BUS","route":"12","agencyName":"Société de Transport du Saguenay","agencyUrl":"http://ville.saguenay.ca/fr/services-aux-citoyens/transport-sts","agencyTimeZoneOffset":-14400000,"routeColor":"556B2F","routeType":3,"routeId":"1:12","routeTextColor":"FFFFFF","interlineWithPreviousLeg":false,"tripBlockId":"27","headsign":"Terminus UQAC","agencyId":"0","tripId":"1:218018","serviceDate":"20180402","from":{"name":"Racine / Havre","stopId":"1:1639","stopCode":"1639","lon":-71.059267,"lat":48.427469,"arrival":1522698376000,"departure":1522698377000,"zoneId":"NA","stopIndex":1,"stopSequence":2,"vertexType":"TRANSIT"},"to":{"name":"boul. Saguenay / Jean Langevin","stopId":"1:494","stopCode":"494","lon":-71.034926,"lat":48.42987,"arrival":1522698621000,"departure":1522698622000,"zoneId":"NA","stopIndex":8,"stopSequence":9,"vertexType":"TRANSIT"},"legGeometry":{"points":"snqfHlwupLIaKmFy^_DaZz@u]SeV}@aNs@gK","length":8},"routeShortName":"12","routeLongName":"Rivière du Moulin","rentedBike":false,"transitLeg":true,"duration":244.0,"steps":[]},{"startTime":1522698622000,"endTime":1522698781000,"departureDelay":0,"arrivalDelay":0,"realTime":false,"distance":198.918,"pathway":false,"mode":"WALK","route":"","agencyTimeZoneOffset":-14400000,"interlineWithPreviousLeg":false,"from":{"name":"boul. Saguenay / Jean Langevin","stopId":"1:494","stopCode":"494","lon":-71.034926,"lat":48.42987,"arrival":1522698621000,"departure":1522698622000,"zoneId":"NA","stopIndex":8,"stopSequence":9,"vertexType":"TRANSIT"},"to":{"name":"Destination","lon":-71.034043,"lat":48.428459,"arrival":1522698781000,"orig":"","vertexType":"NORMAL"},"legGeometry":{"points":"a~qfHl_qpLGgAjBSx@Of@UDERUr@{@","length":8},"rentedBike":false,"transitLeg":false,"duration":159.0,"steps":[{"distance":27.109,"relativeDirection":"DEPART","streetName":"Boulevard du Saguenay Est","absoluteDirection":"EAST","stayOn":false,"area":false,"bogusName":false,"lon":-71.03494410117992,"lat":48.429935003676384,"elevation":[]},{"distance":171.809,"relativeDirection":"RIGHT","streetName":"Rue Jean-Langevin","absoluteDirection":"SOUTH","stayOn":false,"area":false,"bogusName":false,"lon":-71.03458280000001,"lat":48.42997930000001,"elevation":[]}]}],"tooSloped":false}]},"debugOutput":{"precalculationTime":23,"pathCalculationTime":29,"pathTimes":[16,5,8],"renderingTime":1,"totalTime":53,"timedOut":false},"elevationMetadata":{"ellipsoidToGeoidDifference":-28.885904201182168,"geoidElevation":false}}