{"requestParameters":{"date":"2018/04/02","walkSpeed":"1.33","walkReluctance":"2.0","fromPlace":"48.427056,-71.056731","maxWalkDistance":"3000","waitReluctance":"1.0","carSpeed":"33","numItineraries":"3","waitAtBeginningFactor":"0.4","mode":"TRANSIT,WALK","ignoreRealtimeUpdates":"false","stairsReluctance":"2.0","toPlace":"48.414926,-71.05418","time":"14:30:00"},"plan":{"date":1522693800000,"from":{"name":"Origin","lon":-71.056731,"lat":48.427056,"orig":"","vertexType":"NORMAL"},"to":{"name":"Destination","lon":-71.05418,"lat":48.414926,"orig":"","vertexType":"NORMAL"},"itineraries":[{"duration":882,"startTime":1522694520000,"endTime":1522695402000,"walkTime":509,"transitTime":371,"waitingTime":2,"walkDistance":629.7269323252467,"walkLimitExceeded":false,"elevationLost":0.0,"elevationGained":0.0,"transfers":0,"legs":[{"startTime":1522694520000,"endTime":1522695022000,"departureDelay":0,"arrivalDelay":0,"realTime":false,"distance":621.3069999999998,"pathway":false,"mode":"WALK","route":"","agencyTimeZoneOffset":-14400000,"interlineWithPreviousLeg":false,"from":{"name":"Origin","lon":-71.056731,"lat":48.427056,"departure":1522694520000,"orig":"","vertexType":"NORMAL"},"to":{"name":"Cégep de Chicoutimi (voie réservée)","stopId":"1:75","stopCode":"75","lon":-71.055283,"lat":48.422761,"arrival":1522695022000,"departure":1522695023000,"zoneId":"NA","stopIndex":42,"stopSequence":43,"vertexType":"TRANSIT"},"legGeometry":{"points":"akqfH~gupLEd@nCJtAHfBNhA@BwCB_B`@kB^iAXa@L@vBJNFDBRHFBTFF@TBR?JAZELAFh@","length":25},"rentedBike":false,"transitLeg":false,"duration":502.0,"steps":[{"distance":14.234,"relativeDirection":"DEPART","streetName":"Rue Lévis","absoluteDirection":"WEST","stayOn":false,"area":false,"bogusName":false,"lon":-71.0567968079589,"lat":48.42689616300807,"elevation":[]},{"distance":228.01500000000001,"relativeDirection":"LEFT","streetName":"Rue Labrecque","absoluteDirection":"SOUTH","stayOn":false,"area":false,"bogusName":false,"lon":-71.05698290000001,"lat":48.426929900000005,"elevation":[]},{"distance":187.416,"relativeDirection":"LEFT","streetName":"Rue Price Est","absoluteDirection":"EAST","stayOn":false,"area":false,"bogusName":false,"lon":-71.0571863,"lat":48.424884500000005,"elevation":[]},{"distance":7.917,"relativeDirection":"RIGHT","streetName":"Rue Price Est","absoluteDirection":"SOUTH","stayOn":true,"area":false,"bogusName":false,"lon":-71.0548694,"lat":48.4243849,"elevation":[]},{"distance":167.118,"relativeDirection":"CONTINUE","streetName":"service road","absoluteDirection":"SOUTH","stayOn":false,"area":false,"bogusName":true,"lon":-71.0548701,"lat":48.424313700000006,"elevation":[]},{"distance":16.607,"relativeDirection":"RIGHT","streetName":"Chemin Saint Thomas","absoluteDirection":"WEST","stayOn":false,"area":false,"bogusName":false,"lon":-71.0550802,"lat":48.4228351,"elevation":[]}]},{"startTime":1522695023000,"endTime":1522695060000,"departureDelay":0,"arrivalDelay":0,"realTime":false,"distance":354.63646711528844,"pathway":false,"mode":"BUS","route":"5","agencyName":"Société de Transport du Saguenay","agencyUrl":"http://ville.saguenay.ca/fr/services-aux-citoyens/transport-sts","agencyTimeZoneOffset":-14400000,"routeColor":"FF0000","routeType":3,"routeId":"1:5","routeTextColor":"FFFFFF","interlineWithPreviousLeg":false,"tripBlockId":"24","headsign":"Terminus UQAC","agencyId":"0","tripId":"1:217915","serviceDate":"20180402","from":{"name":"Cégep de Chicoutimi (voie réservée)","stopId":"1:75","stopCode":"75","lon":-71.055283,"lat":48.422761,"arrival":1522695022000,"departure":1522695023000,"zoneId":"NA","stopIndex":42,"stopSequence":43,"vertexType":"TRANSIT"},"to":{"name":"Terminus UQAC","stopId":"1:1670","stopCode":"1670","lon":-71.053369,"lat":48.420903,"arrival":1522695060000,"departure":1522695300000,"zoneId":"NA","stopIndex":44,"stopSequence":45,"vertexType":"TRANSIT"},"legGeometry":{"points":"mqpfHr~tpLk@gF|D{L^R`A`ARRX`@h@`@Ox@|@|@","length":10},"routeShortName":"5","routeLongName":"Term. Chic/Term. Baie via St-J.Batiste","rentedBike":false,"transitLeg":true,"duration":37.0,"steps":[]},{"startTime":1522695300000,"endTime":1522695394000,"departureDelay":0,"arrivalDelay":0,"realTime":false,"distance":662.0241712657853,"pathway":false,"mode":"BUS","route":"6","agencyName":"Société de Transport du Saguenay","agencyUrl":"http://ville.saguenay.ca/fr/services-aux-citoyens/transport-sts","agencyTimeZoneOffset":-14400000,"routeColor":"FF0000","routeType":3,"routeId":"1:6","routeTextColor":"FFFFFF","interlineWithPreviousLeg":true,"tripBlockId":"24","headsign":"Terminus La Baie","agencyId":"0","tripId":"1:217916","serviceDate":"20180402","from":{"name":"Terminus UQAC","stopId":"1:1670","stopCode":"1670","lon":-71.053369,"lat":48.420903,"arrival":1522695060000,"departure":1522695300000,"zoneId":"NA","stopIndex":0,"stopSequence":1,"vertexType":"TRANSIT"},"to":{"name":"Polyclinique du Saguenay (boul. Université)","stopId":"1:79","stopCode":"79","lon":-71.053795,"lat":48.414956,"arrival":1522695394000,"departure":1522695395000,"zoneId":"NA","stopIndex":1,"stopSequence":2,"vertexType":"TRANSIT"},"legGeometry":{"points":"sepfHprtpL\\Xd@j@Tw@dEdEJ`@E~Db@pBxAtDdNaLfB}Ad@c@h@i@`@[`@_@XO","length":16},"routeShortName":"6","routeLongName":"Term. Chic/Term. Baie via ch.Plateau","rentedBike":false,"transitLeg":true,"duration":94.0,"steps":[]},{"startTime":1522695395000,"endTime":1522695402000,"departureDelay":0,"arrivalDelay":0,"realTime":false,"distance":8.247,"pathway":false,"mode":"WALK","route":"","agencyTimeZoneOffset":-14400000,"interlineWithPreviousLeg":false,"from":{"name":"Polyclinique du Saguenay (boul. Université)","stopId":"1:79","stopCode":"79","lon":-71.053795,"lat":48.414956,"arrival":1522695394000,"departure":1522695395000,"zoneId":"NA","stopIndex":1,"stopSequence":2,"vertexType":"TRANSIT"},"to":{"name":"Destination","lon":-71.05418,"lat":48.414926,"arrival":1522695402000,"orig":"","vertexType":"NORMAL"},"legGeometry":{"points":"s`ofHtttpLKH","length":2},"rentedBike":false,"transitLeg":false,"duration":7.0,"steps":[{"distance":8.247,"relativeDirection":"DEPART","streetName":"Boulevard de l'Université","absoluteDirection":"NORTHWEST","stayOn":false,"area":false,"bogusName":false,"lon":-71.05370648018611,"lat":48.414981486600546,"elevation":[]}]}],"tooSloped":false},{"duration":649,"startTime":1522694756000,"endTime":1522695405000,"walkTime":103,"transitTime":544,"waitingTime":2,"walkDistance":122.53340601302394,"walkLimitExceeded":false,"elevationLost":0.0,"elevationGained":0.0,"transfers":0,"legs":[{"startTime":1522694756000,"endTime":1522694852000,"departureDelay":0,"arrivalDelay":0,"realTime":false,"distance":114.22399999999999,"pathway":false,"mode":"WALK","route":"","agencyTimeZoneOffset":-14400000,"interlineWithPreviousLeg":false,"from":{"name":"Origin","lon":-71.056731,"lat":48.427056,"departure":1522694756000,"orig":"","vertexType":"NORMAL"},"to":{"name":"Racine / Labrecque","stopId":"1:515","stopCode":"515","lon":-71.057333,"lat":48.427512,"arrival":1522694852000,"departure":1522694853000,"zoneId":"NA","stopIndex":2,"stopSequence":3,"vertexType":"TRANSIT"},"legGeometry":{"points":"akqfH~gupLEd@_@?SBQDo@N]FFj@","length":8},"rentedBike":false,"transitLeg":false,"duration":96.0,"steps":[{"distance":14.234,"relativeDirection":"DEPART","streetName":"Rue Lévis","absoluteDirection":"WEST","stayOn":false,"area":false,"bogusName":false,"lon":-71.0567968079589,"lat":48.42689616300807,"elevation":[]},{"distance":82.783,"relativeDirection":"RIGHT","streetName":"Rue Labrecque","absoluteDirection":"NORTH","stayOn":false,"area":false,"bogusName":false,"lon":-71.05698290000001,"lat":48.426929900000005,"elevation":[]},{"distance":17.207,"relativeDirection":"LEFT","streetName":"Rue Racine Est","absoluteDirection":"WEST","stayOn":false,"area":false,"bogusName":false,"lon":-71.0571547,"lat":48.427663,"elevation":[]}]},{"startTime":1522694853000,"endTime":1522695397000,"departureDelay":0,"arrivalDelay":0,"realTime":false,"distance":2379.8937296735066,"pathway":false,"mode":"BUS","route":"175","agencyName":"Société de Transport du Saguenay","agencyUrl":"http://ville.saguenay.ca/fr/services-aux-citoyens/transport-sts","agencyTimeZoneOffset":-14400000,"routeColor":"FF00FF","routeType":3,"routeId":"1:175","routeTextColor":"FFFFFF","interlineWithPreviousLeg":false,"tripBlockId":"7","headsign":"Costco","agencyId":"0","tripId":"1:217337","serviceDate":"20180402","from":{"name":"Racine / Labrecque","stopId":"1:515","stopCode":"515","lon":-71.057333,"lat":48.427512,"arrival":1522694852000,"departure":1522694853000,"zoneId":"NA","stopIndex":2,"stopSequence":3,"vertexType":"TRANSIT"},"to":{"name":"Polyclinique du Saguenay (boul. Université)","stopId":"1:79","stopCode":"79","lon":-71.053795,"lat":48.414956,"arrival":1522695397000,"departure":1522695398000,"zoneId":"NA","stopIndex":12,"stopSequence":13,"vertexType":"TRANSIT"},"legGeometry":{"points":"koqfHlkupLAg@bAYUwMKoE@mB@kJ@iFbEf@xEj@iCtYp@r@z@`ABBvHtHXRx@l@VwAvAgB\\qBIuAC]g@yEzDuLbBbBvAxAMx@|@v@`A~@Xw@~D~DPxFZtA~ApE`N{LpFmEb@[","length":37},"routeShortName":"175","routeLongName":"Term. Chic / Costco","rentedBike":false,"transitLeg":true,"duration":544.0,"steps":[]},{"startTime":1522695398000,"endTime":1522695405000,"departureDelay":0,"arrivalDelay":0,"realTime":false,"distance":8.247,"pathway":false,"mode":"WALK","route":"","agencyTimeZoneOffset":-14400000,"interlineWithPreviousLeg":false,"from":{"name":"Polyclinique du Saguenay (boul. Université)","stopId":"1:79","stopCode":"79","lon":-71.053795,"lat":48.414956,"arrival":1522695397000,"departure":1522695398000,"zoneId":"NA","stopIndex":12,"stopSequence":13,"vertexType":"TRANSIT"},"to":{"name":"Destination","lon":-71.05418,"lat":48.414926,"arrival":1522695405000,"orig":"","vertexType":"NORMAL"},"legGeometry":{"points":"s`ofHtttpLKH","length":2},"rentedBike":false,"transitLeg":false,"duration":7.0,"steps":[{"distance":8.247,"relativeDirection":"DEPART","streetName":"Boulevard de l'Université","absoluteDirection":"NORTHWEST","stayOn":false,"area":false,"bogusName":false,"lon":-71.05370648018611,"lat":48.414981486600546,"elevation":[]}]}],"tooSloped":false},{"duration":649,"startTime":1522696556000,"endTime":1522697205000,"walkTime":103,"transitTime":544,"waitingTime":2,"walkDistance":122.53340601302394,"walkLimitExceeded":false,"elevationLost":0.0,"elevationGained":0.0,"transfers":0,"legs":[{"startTime":1522696556000,"endTime":1522696652000,"departureDelay":0,"arrivalDelay":0,"realTime":false,"distance":114.22399999999999,"pathway":false,"mode":"WALK","route":"","agencyTimeZoneOffset":-14400000,"interlineWithPreviousLeg":false,"from":{"name":"Origin","lon":-71.056731,"lat":48.427056,"departure":1522696556000,"orig":"","vertexType":"NORMAL"},"to":{"name":"Racine / Labrecque","stopId":"1:515","stopCode":"515","lon":-71.057333,"lat":48.427512,"arrival":1522696652000,"departure":1522696653000,"zoneId":"NA","stopIndex":2,"stopSequence":3,"vertexType":"TRANSIT"},"legGeometry":{"points":"akqfH~gupLEd@_@?SBQDo@N]FFj@","length":8},"rentedBike":false,"transitLeg":false,"duration":96.0,"steps":[{"distance":14.234,"relativeDirection":"DEPART","streetName":"Rue Lévis","absoluteDirection":"WEST","stayOn":false,"area":false,"bogusName":false,"lon":-71.0567968079589,"lat":48.42689616300807,"elevation":[]},{"distance":82.783,"relativeDirection":"RIGHT","streetName":"Rue Labrecque","absoluteDirection":"NORTH","stayOn":false,"area":false,"bogusName":false,"lon":-71.05698290000001,"lat":48.426929900000005,"elevation":[]},{"distance":17.207,"relativeDirection":"LEFT","streetName":"Rue Racine Est","absoluteDirection":"WEST","stayOn":false,"area":false,"bogusName":false,"lon":-71.0571547,"lat":48.427663,"elevation":[]}]},{"startTime":1522696653000,"endTime":1522697197000,"departureDelay":0,"arrivalDelay":0,"realTime":false,"distance":2379.8937296735066,"pathway":false,"mode":"BUS","route":"175","agencyName":"Société de Transport du Saguenay","agencyUrl":"http://ville.saguenay.ca/fr/services-aux-citoyens/transport-sts","agencyTimeZoneOffset":-14400000,"routeColor":"FF00FF","routeType":3,"routeId":"1:175","routeTextColor":"FFFFFF","interlineWithPreviousLeg":false,"tripBlockId":"8","headsign":"Costco","agencyId":"0","tripId":"1:217374","serviceDate":"20180402","from":{"name":"Racine / Labrecque","stopId":"1:515","stopCode":"515","lon":-71.057333,"lat":48.427512,"arrival":1522696652000,"departure":1522696653000,"zoneId":"NA","stopIndex":2,"stopSequence":3,"vertexType":"TRANSIT"},"to":{"name":"Polyclinique du Saguenay (boul. Université)","stopId":"1:79","stopCode":"79","lon":-71.053795,"lat":48.414956,"arrival":1522697197000,"departure":1522697198000,"zoneId":"NA","stopIndex":12,"stopSequence":13,"vertexType":"TRANSIT"},"legGeometry":{"points":"koqfHlkupLAg@bAYUwMKoE@mB@kJ@iFbEf@xEj@iCtYp@r@z@`ABBvHtHXRx@l@VwAvAgB\\qBIuAC]g@yEzDuLbBbBvAxAMx@|@v@`A~@Xw@~D~DPxFZtA~ApE`N{LpFmEb@[","length":37},"routeShortName":"175","routeLongName":"Term. Chic / Costco","rentedBike":false,"transitLeg":true,"duration":544.0,"steps":[]},{"startTime":1522697198000,"endTime":1522697205000,"departureDelay":0,"arrivalDelay":0,"realTime":false,"distance":8.247,"pathway":false,"mode":"WALK","route":"","agencyTimeZoneOffset":-14400000,"interlineWithPreviousLeg":false,"from":{"name":"Polyclinique du Saguenay (boul. Université)","stopId":"1:79","stopCode":"79","lon":-71.053795,"lat":48.414956,"arrival":1522697197000,"departure":1522697198000,"zoneId":"NA","stopIndex":12,"stopSequence":13,"vertexType":"TRANSIT"},"to":{"name":"Destination","lon":-71.05418,"lat":48.414926,"arrival":1522697205000,"orig":"","vertexType":"NORMAL"},"legGeometry":{"points":"s`ofHtttpLKH","length":2},"rentedBike":false,"transitLeg":false,"duration":7.0,"steps":[{"distance":8.247,"relativeDirection":"DEPART","streetName":"Boulevard de l'Université","absoluteDirection":"NORTHWEST","stayOn":false,"area":false,"bogusName":false,"lon":-71.05370648018611,"lat":48.414981486600546,"elevation":[]}]}],"tooSloped":false}]},"debugOutput":{"precalculationTime":32,"pathCalculationTime":27,"pathTimes":[18,4,5],"renderingTime":1,"totalTime":60,"timedOut":false},"elevationMetadata":{"ellipsoidToGeoidDifference":-28.885904201182168,"geoidElevation":false}}