{"requestParameters":{"date":"2018/04/02","walkSpeed":"1.33","walkReluctance":"2.0","fromPlace":"48.409854,-71.06000299","maxWalkDistance":"3000","waitReluctance":"1.0","carSpeed":"33","numItineraries":"3","waitAtBeginningFactor":"0.4","mode":"TRANSIT,WALK","ignoreRealtimeUpdates":"false","stairsReluctance":"2.0","toPlace":"48.39914,-71.050929","time":"17:10:00"},"plan":{"date":1522703400000,"from":{"name":"Origin","lon":-71.06000299,"lat":48.409854,"orig":"","vertexType":"NORMAL"},"to":{"name":"Destination","lon":-71.050929,"lat":48.39914,"orig":"","vertexType":"NORMAL"},"itineraries":[{"duration":1173,"startTime":1522703584000,"endTime":1522704757000,"walkTime":1056,"transitTime":115,"waitingTime":2,"walkDistance":1349.2408345789206,"walkLimitExceeded":false,"elevationLost":0.0,"elevationGained":0.0,"transfers":0,"legs":[{"startTime":1522703584000,"endTime":1522703853000,"departureDelay":0,"arrivalDelay":0,"realTime":false,"distance":335.165,"pathway":false,"mode":"WALK","route":"","agencyTimeZoneOffset":-14400000,"interlineWithPreviousLeg":false,"from":{"name":"Origin","lon":-71.06000299,"lat":48.409854,"departure":1522703584000,"orig":"","vertexType":"NORMAL"},"to":{"name":"Champs-Élysées / Chopin","stopId":"1:570","stopCode":"570","lon":-71.058565,"lat":48.409684,"arrival":1522703853000,"departure":1522703854000,"zoneId":"NA","stopIndex":11,"stopSequence":12,"vertexType":"TRANSIT"},"legGeometry":{"points":"abnfH|~upLjAzAbCmGk@e@ECiAe@}@i@n@}A","length":8},"rentedBike":false,"transitLeg":false,"duration":269.0,"steps":[{"distance":54.336,"relativeDirection":"DEPART","streetName":"Rue Albani","absoluteDirection":"SOUTHWEST","stayOn":false,"area":false,"bogusName":false,"lon":-71.06046583899321,"lat":48.41009673330408,"elevation":[]},{"distance":123.104,"relativeDirection":"LEFT","streetName":"Rue Létondal","absoluteDirection":"SOUTHEAST","stayOn":false,"area":false,"bogusName":false,"lon":-71.06092220000001,"lat":48.4097133,"elevation":[]},{"distance":113.69200000000001,"relativeDirection":"LEFT","streetName":"Rue Bizet","absoluteDirection":"NORTHEAST","stayOn":false,"area":false,"bogusName":false,"lon":-71.0595787,"lat":48.4090573,"elevation":[]},{"distance":44.033,"relativeDirection":"RIGHT","streetName":"Rue des Champs-Élysées","absoluteDirection":"SOUTHEAST","stayOn":false,"area":false,"bogusName":false,"lon":-71.0589618,"lat":48.409989800000005,"elevation":[]}]},{"startTime":1522703854000,"endTime":1522703969000,"departureDelay":0,"arrivalDelay":0,"realTime":false,"distance":685.1622069484969,"pathway":false,"mode":"BUS","route":"12","agencyName":"Société de Transport du Saguenay","agencyUrl":"http://ville.saguenay.ca/fr/services-aux-citoyens/transport-sts","agencyTimeZoneOffset":-14400000,"routeColor":"556B2F","routeType":3,"routeId":"1:12","routeTextColor":"FFFFFF","interlineWithPreviousLeg":false,"tripBlockId":"26","headsign":"Terminus Chicoutimi","agencyId":"0","tripId":"1:217985","serviceDate":"20180402","from":{"name":"Champs-Élysées / Chopin","stopId":"1:570","stopCode":"570","lon":-71.058565,"lat":48.409684,"arrival":1522703853000,"departure":1522703854000,"zoneId":"NA","stopIndex":11,"stopSequence":12,"vertexType":"TRANSIT"},"to":{"name":"Émile-Girardin / Roitelets","stopId":"1:268","stopCode":"268","lon":-71.050698,"lat":48.406546,"arrival":1522703969000,"departure":1522703970000,"zoneId":"NA","stopIndex":14,"stopSequence":15,"vertexType":"TRANSIT"},"legGeometry":{"points":"o_nfH`supLrGcPxFoNlCyGa@yF","length":5},"routeShortName":"12","routeLongName":"Rivière du Moulin","rentedBike":false,"transitLeg":true,"duration":115.0,"steps":[]},{"startTime":1522703970000,"endTime":1522704757000,"departureDelay":0,"arrivalDelay":0,"realTime":false,"distance":1013.8420000000001,"pathway":false,"mode":"WALK","route":"","agencyTimeZoneOffset":-14400000,"interlineWithPreviousLeg":false,"from":{"name":"Émile-Girardin / Roitelets","stopId":"1:268","stopCode":"268","lon":-71.050698,"lat":48.406546,"arrival":1522703969000,"departure":1522703970000,"zoneId":"NA","stopIndex":14,"stopSequence":15,"vertexType":"TRANSIT"},"to":{"name":"Destination","lon":-71.050929,"lat":48.39914,"arrival":1522704757000,"orig":"","vertexType":"NORMAL"},"legGeometry":{"points":"mlmfHbbtpLFn@z@pEt@]l@Qp@E|@B|@LtAJfA?^Ed@MNGrBm@jEiA^KTGp@U|AOf@DB{E~AH`ANXD`Bx@vA~@","length":26},"rentedBike":false,"transitLeg":false,"duration":787.0,"steps":[{"distance":102.818,"relativeDirection":"DEPART","streetName":"Rue Émile-Girardin","absoluteDirection":"WEST","stayOn":false,"area":false,"bogusName":false,"lon":-71.05073193352945,"lat":48.4066347754418,"elevation":[]},{"distance":494.333,"relativeDirection":"LEFT","streetName":"Rue des Champs-Élysées","absoluteDirection":"SOUTH","stayOn":false,"area":false,"bogusName":false,"lon":-71.05202630000001,"lat":48.4062974,"elevation":[]},{"distance":117.181,"relativeDirection":"CONTINUE","streetName":"Rue des Engoulevents","absoluteDirection":"SOUTH","stayOn":false,"area":false,"bogusName":false,"lon":-71.0511074,"lat":48.401948700000005,"elevation":[]},{"distance":81.263,"relativeDirection":"LEFT","streetName":"path","absoluteDirection":"EAST","stayOn":false,"area":false,"bogusName":true,"lon":-71.0509011,"lat":48.400912500000004,"elevation":[]},{"distance":218.247,"relativeDirection":"RIGHT","streetName":"Rue des Martinets","absoluteDirection":"SOUTH","stayOn":false,"area":false,"bogusName":false,"lon":-71.0498006,"lat":48.400896100000004,"elevation":[]}]}],"tooSloped":false},{"duration":1434,"startTime":1522703400000,"endTime":1522704834000,"walkTime":1434,"transitTime":0,"waitingTime":0,"walkDistance":1833.7262405919444,"walkLimitExceeded":false,"elevationLost":0.0,"elevationGained":0.0,"transfers":0,"legs":[{"startTime":1522703400000,"endTime":1522704834000,"departureDelay":0,"arrivalDelay":0,"realTime":false,"distance":1833.4299999999996,"pathway":false,"mode":"WALK","route":"","agencyTimeZoneOffset":-14400000,"interlineWithPreviousLeg":false,"from":{"name":"Origin","lon":-71.06000299,"lat":48.409854,"departure":1522703400000,"orig":"","vertexType":"NORMAL"},"to":{"name":"Destination","lon":-71.050929,"lat":48.39914,"arrival":1522704834000,"orig":"","vertexType":"NORMAL"},"legGeometry":{"points":"abnfH|~upLjAzAbCmGk@e@ECrAsDlA_DbAwCgBgBL]Na@\\}@l@}AFQNa@HSj@_Br@qB`A_DNc@PUfAuAbAaAt@]l@Qp@E|@B|@LtAJfA?^Ed@MNGrBm@jEiA^KTGp@U|AOf@DB{E~AH`ANXD`Bx@vA~@","length":46},"rentedBike":false,"transitLeg":false,"duration":1434.0,"steps":[{"distance":54.336,"relativeDirection":"DEPART","streetName":"Rue Albani","absoluteDirection":"SOUTHWEST","stayOn":false,"area":false,"bogusName":false,"lon":-71.06046583899321,"lat":48.41009673330408,"elevation":[]},{"distance":123.104,"relativeDirection":"LEFT","streetName":"Rue Létondal","absoluteDirection":"SOUTHEAST","stayOn":false,"area":false,"bogusName":false,"lon":-71.06092220000001,"lat":48.4097133,"elevation":[]},{"distance":31.95,"relativeDirection":"LEFT","streetName":"Rue Bizet","absoluteDirection":"NORTHEAST","stayOn":false,"area":false,"bogusName":false,"lon":-71.0595787,"lat":48.4090573,"elevation":[]},{"distance":221.909,"relativeDirection":"RIGHT","streetName":"Rue Plamondon","absoluteDirection":"SOUTHEAST","stayOn":false,"area":false,"bogusName":false,"lon":-71.0593601,"lat":48.4093053,"elevation":[]},{"distance":69.905,"relativeDirection":"LEFT","streetName":"Rue Plamondon","absoluteDirection":"NORTHEAST","stayOn":true,"area":false,"bogusName":false,"lon":-71.05690750000001,"lat":48.408151600000004,"elevation":[]},{"distance":915.5350000000002,"relativeDirection":"RIGHT","streetName":"Rue des Champs-Élysées","absoluteDirection":"SOUTHEAST","stayOn":false,"area":false,"bogusName":false,"lon":-71.0563831,"lat":48.4086751,"elevation":[]},{"distance":117.181,"relativeDirection":"CONTINUE","streetName":"Rue des Engoulevents","absoluteDirection":"SOUTH","stayOn":false,"area":false,"bogusName":false,"lon":-71.0511074,"lat":48.401948700000005,"elevation":[]},{"distance":81.263,"relativeDirection":"LEFT","streetName":"path","absoluteDirection":"EAST","stayOn":false,"area":false,"bogusName":true,"lon":-71.0509011,"lat":48.400912500000004,"elevation":[]},{"distance":218.247,"relativeDirection":"RIGHT","streetName":"Rue des Martinets","absoluteDirection":"SOUTH","stayOn":false,"area":false,"bogusName":false,"lon":-71.0498006,"lat":48.400896100000004,"elevation":[]}]}],"tooSloped":false},{"duration":939,"startTime":1522704286000,"endTime":1522705225000,"walkTime":709,"transitTime":228,"waitingTime":2,"walkDistance":908.0060075122466,"walkLimitExceeded":false,"elevationLost":0.0,"elevationGained":0.0,"transfers":0,"legs":[{"startTime":1522704286000,"endTime":1522704859000,"departureDelay":0,"arrivalDelay":0,"realTime":false,"distance":738.5450000000001,"pathway":false,"mode":"WALK","route":"","agencyTimeZoneOffset":-14400000,"interlineWithPreviousLeg":false,"from":{"name":"Origin","lon":-71.06000299,"lat":48.409854,"departure":1522704286000,"orig":"","vertexType":"NORMAL"},"to":{"name":"Saguenéens / Duchesne","stopId":"1:1598","stopCode":"1598","lon":-71.065637,"lat":48.406803,"arrival":1522704859000,"departure":1522704860000,"zoneId":"NA","stopIndex":20,"stopSequence":21,"vertexType":"TRANSIT"},"legGeometry":{"points":"abnfH|~upLjAzAyAtDOh@@\\LR`@Tj@P`AHCZAvAHr@~@jGlAx@bAcC~HnF","length":16},"rentedBike":false,"transitLeg":false,"duration":573.0,"steps":[{"distance":54.336,"relativeDirection":"DEPART","streetName":"Rue Albani","absoluteDirection":"SOUTHWEST","stayOn":false,"area":false,"bogusName":false,"lon":-71.06046583899321,"lat":48.41009673330408,"elevation":[]},{"distance":206.781,"relativeDirection":"RIGHT","streetName":"Rue Létondal","absoluteDirection":"NORTHWEST","stayOn":false,"area":false,"bogusName":false,"lon":-71.06092220000001,"lat":48.4097133,"elevation":[]},{"distance":217.031,"relativeDirection":"RIGHT","streetName":"Rue Belleau","absoluteDirection":"WEST","stayOn":false,"area":false,"bogusName":false,"lon":-71.0625433,"lat":48.409441300000005,"elevation":[]},{"distance":61.865,"relativeDirection":"LEFT","streetName":"Rue Don Bosco","absoluteDirection":"SOUTHEAST","stayOn":false,"area":false,"bogusName":false,"lon":-71.06501420000001,"lat":48.408712400000006,"elevation":[]},{"distance":198.532,"relativeDirection":"RIGHT","streetName":"service road","absoluteDirection":"SOUTHWEST","stayOn":false,"area":false,"bogusName":true,"lon":-71.064351,"lat":48.4083722,"elevation":[]}]},{"startTime":1522704860000,"endTime":1522705088000,"departureDelay":0,"arrivalDelay":0,"realTime":false,"distance":1455.9443671024067,"pathway":false,"mode":"BUS","route":"15","agencyName":"Société de Transport du Saguenay","agencyUrl":"http://ville.saguenay.ca/fr/services-aux-citoyens/transport-sts","agencyTimeZoneOffset":-14400000,"routeColor":"FF00FF","routeType":3,"routeId":"1:15","routeTextColor":"FFFFFF","interlineWithPreviousLeg":false,"tripBlockId":"33","headsign":"Talbot / Barrette","agencyId":"0","tripId":"1:218193","serviceDate":"20180402","from":{"name":"Saguenéens / Duchesne","stopId":"1:1598","stopCode":"1598","lon":-71.065637,"lat":48.406803,"arrival":1522704859000,"departure":1522704860000,"zoneId":"NA","stopIndex":20,"stopSequence":21,"vertexType":"TRANSIT"},"to":{"name":"Engoulevents / Bernaches","stopId":"1:1509","stopCode":"1509","lon":-71.051416,"lat":48.399414,"arrival":1522705088000,"departure":1522705089000,"zoneId":"NA","stopIndex":26,"stopSequence":27,"vertexType":"TRANSIT"},"legGeometry":{"points":"clmfH`awpLfEoItDsH~DeItC{FnBoLbCaO?qLa@uJzF`ApF~@","length":11},"routeShortName":"15","routeLongName":"Term. Chic / Costco","rentedBike":false,"transitLeg":true,"duration":228.0,"steps":[]},{"startTime":1522705089000,"endTime":1522705225000,"departureDelay":0,"arrivalDelay":0,"realTime":false,"distance":169.25799999999998,"pathway":false,"mode":"WALK","route":"","agencyTimeZoneOffset":-14400000,"interlineWithPreviousLeg":false,"from":{"name":"Engoulevents / Bernaches","stopId":"1:1509","stopCode":"1509","lon":-71.051416,"lat":48.399414,"arrival":1522705088000,"departure":1522705089000,"zoneId":"NA","stopIndex":26,"stopSequence":27,"vertexType":"TRANSIT"},"to":{"name":"Destination","lon":-71.050929,"lat":48.39914,"arrival":1522705225000,"orig":"","vertexType":"NORMAL"},"legGeometry":{"points":"i_lfHlftpLRNl@n@rAsDgAu@","length":5},"rentedBike":false,"transitLeg":false,"duration":136.0,"steps":[{"distance":43.493,"relativeDirection":"DEPART","streetName":"Rue des Engoulevents","absoluteDirection":"SOUTHWEST","stayOn":false,"area":false,"bogusName":false,"lon":-71.051428970226,"lat":48.39941817689361,"elevation":[]},{"distance":81.315,"relativeDirection":"LEFT","streetName":"Rue des Bernaches","absoluteDirection":"SOUTHEAST","stayOn":false,"area":false,"bogusName":false,"lon":-71.0517427,"lat":48.399088400000004,"elevation":[]},{"distance":44.45,"relativeDirection":"LEFT","streetName":"Rue des Martinets","absoluteDirection":"NORTHEAST","stayOn":false,"area":false,"bogusName":false,"lon":-71.05084210000001,"lat":48.3986674,"elevation":[]}]}],"tooSloped":false}]},"debugOutput":{"precalculationTime":30,"pathCalculationTime":31,"pathTimes":[18,6,7],"renderingTime":0,"totalTime":61,"timedOut":false},"elevationMetadata":{"ellipsoidToGeoidDifference":-28.885904201182168,"geoidElevation":false}}