{"requestParameters":{"date":"2018/04/02","walkSpeed":"1.33","walkReluctance":"2.0","fromPlace":"48.412522,-71.05130499","maxWalkDistance":"3000","waitReluctance":"1.0","carSpeed":"33","numItineraries":"3","waitAtBeginningFactor":"0.4","mode":"TRANSIT,WALK","ignoreRealtimeUpdates":"false","stairsReluctance":"2.0","toPlace":"48.402536,-71.060502","time":"7:45:00"},"plan":{"date":1522669500000,"from":{"name":"Origin","lon":-71.05130499,"lat":48.412522,"orig":"","vertexType":"NORMAL"},"to":{"name":"Destination","lon":-71.060502,"lat":48.402536,"orig":"","vertexType":"NORMAL"},"itineraries":[{"duration":996,"startTime":1522669500000,"endTime":1522670496000,"walkTime":996,"transitTime":0,"waitingTime":0,"walkDistance":1308.2565939837496,"walkLimitExceeded":false,"elevationLost":0.0,"elevationGained":0.0,"transfers":0,"legs":[{"startTime":1522669500000,"endTime":1522670496000,"departureDelay":0,"arrivalDelay":0,"realTime":false,"distance":1308.2190000000003,"pathway":false,"mode":"WALK","route":"","agencyTimeZoneOffset":-14400000,"interlineWithPreviousLeg":false,"from":{"name":"Origin","lon":-71.05130499,"lat":48.412522,"departure":1522669500000,"orig":"","vertexType":"NORMAL"},"to":{"name":"Destination","lon":-71.060502,"lat":48.402536,"arrival":1522670496000,"orig":"","vertexType":"NORMAL"},"legGeometry":{"points":"epnfHvftpL^aATVn@r@lGnGlAhANNhD`DdE`ENNjEzD`A~@pD|CJHtAlAtEjEjF~EPPVTpAnA","length":20},"rentedBike":false,"transitLeg":false,"duration":996.0,"steps":[{"distance":30.438,"relativeDirection":"DEPART","streetName":"Boulevard de l'Université","absoluteDirection":"SOUTHEAST","stayOn":false,"area":false,"bogusName":false,"lon":-71.05147948003304,"lat":48.412355007143375,"elevation":[]},{"distance":1277.7810000000002,"relativeDirection":"RIGHT","streetName":"Boulevard Talbot","absoluteDirection":"SOUTHWEST","stayOn":false,"area":false,"bogusName":false,"lon":-71.05114060000001,"lat":48.412199,"elevation":[]}]}],"tooSloped":false},{"duration":462,"startTime":1522670158000,"endTime":1522670620000,"walkTime":167,"transitTime":293,"waitingTime":2,"walkDistance":209.95166917074886,"walkLimitExceeded":false,"elevationLost":0.0,"elevationGained":0.0,"transfers":0,"legs":[{"startTime":1522670158000,"endTime":1522670282000,"departureDelay":0,"arrivalDelay":0,"realTime":false,"distance":153.252,"pathway":false,"mode":"WALK","route":"","agencyTimeZoneOffset":-14400000,"interlineWithPreviousLeg":false,"from":{"name":"Origin","lon":-71.05130499,"lat":48.412522,"departure":1522670158000,"orig":"","vertexType":"NORMAL"},"to":{"name":"boul. Université / Murdock","stopId":"1:80","stopCode":"80","lon":-71.050111,"lat":48.411498,"arrival":1522670282000,"departure":1522670283000,"zoneId":"NA","stopIndex":14,"stopSequence":15,"vertexType":"TRANSIT"},"legGeometry":{"points":"epnfHvftpL^aANc@TX|AmE","length":5},"rentedBike":false,"transitLeg":false,"duration":124.0,"steps":[{"distance":153.252,"relativeDirection":"DEPART","streetName":"Boulevard de l'Université","absoluteDirection":"SOUTHEAST","stayOn":false,"area":false,"bogusName":false,"lon":-71.05147948003304,"lat":48.412355007143375,"elevation":[]}]},{"startTime":1522670283000,"endTime":1522670576000,"departureDelay":0,"arrivalDelay":0,"realTime":false,"distance":1866.5220490795061,"pathway":false,"mode":"BUS","route":"175","agencyName":"Société de Transport du Saguenay","agencyUrl":"http://ville.saguenay.ca/fr/services-aux-citoyens/transport-sts","agencyTimeZoneOffset":-14400000,"routeColor":"FF00FF","routeType":3,"routeId":"1:175","routeTextColor":"FFFFFF","interlineWithPreviousLeg":false,"tripBlockId":"8","headsign":"Costco","agencyId":"0","tripId":"1:217359","serviceDate":"20180402","from":{"name":"boul. Université / Murdock","stopId":"1:80","stopCode":"80","lon":-71.050111,"lat":48.411498,"arrival":1522670282000,"departure":1522670283000,"zoneId":"NA","stopIndex":14,"stopSequence":15,"vertexType":"TRANSIT"},"to":{"name":"boul. Talbot (no. 1494) (Tim-Horton)","stopId":"1:1854","stopCode":"1854","lon":-71.060941,"lat":48.402118,"arrival":1522670576000,"departure":1522670577000,"zoneId":"NA","stopIndex":21,"stopSequence":22,"vertexType":"TRANSIT"},"legGeometry":{"points":"aknfH~}spLr@sBhCsKz@dAjB|@dM`GzCvAXrCr@~Gx@]PEr@ObACn@FrBb@|@Ch@Kx@U~HsB^KZ|DJpII~Fa@rFUzBi@bDUxAm@nCcAlDM^RTfD`D","length":32},"routeShortName":"175","routeLongName":"Term. Chic / Costco","rentedBike":false,"transitLeg":true,"duration":293.0,"steps":[]},{"startTime":1522670577000,"endTime":1522670620000,"departureDelay":0,"arrivalDelay":0,"realTime":false,"distance":56.632,"pathway":false,"mode":"WALK","route":"","agencyTimeZoneOffset":-14400000,"interlineWithPreviousLeg":false,"from":{"name":"boul. Talbot (no. 1494) (Tim-Horton)","stopId":"1:1854","stopCode":"1854","lon":-71.060941,"lat":48.402118,"arrival":1522670576000,"departure":1522670577000,"zoneId":"NA","stopIndex":21,"stopSequence":22,"vertexType":"TRANSIT"},"to":{"name":"Destination","lon":-71.060502,"lat":48.402536,"arrival":1522670620000,"orig":"","vertexType":"NORMAL"},"legGeometry":{"points":"}olfHhavpLuAsA","length":2},"rentedBike":false,"transitLeg":false,"duration":43.0,"steps":[{"distance":56.632,"relativeDirection":"DEPART","streetName":"Boulevard Talbot","absoluteDirection":"NORTHEAST","stayOn":false,"area":false,"bogusName":false,"lon":-71.06084575275527,"lat":48.40207691199218,"elevation":[]}]}],"tooSloped":false},{"duration":462,"startTime":1522671058000,"endTime":1522671520000,"walkTime":167,"transitTime":293,"waitingTime":2,"walkDistance":209.95166917074886,"walkLimitExceeded":false,"elevationLost":0.0,"elevationGained":0.0,"transfers":0,"legs":[{"startTime":1522671058000,"endTime":1522671182000,"departureDelay":0,"arrivalDelay":0,"realTime":false,"distance":153.252,"pathway":false,"mode":"WALK","route":"","agencyTimeZoneOffset":-14400000,"interlineWithPreviousLeg":false,"from":{"name":"Origin","lon":-71.05130499,"lat":48.412522,"departure":1522671058000,"orig":"","vertexType":"NORMAL"},"to":{"name":"boul. Université / Murdock","stopId":"1:80","stopCode":"80","lon":-71.050111,"lat":48.411498,"arrival":1522671182000,"departure":1522671183000,"zoneId":"NA","stopIndex":14,"stopSequence":15,"vertexType":"TRANSIT"},"legGeometry":{"points":"epnfHvftpL^aANc@TX|AmE","length":5},"rentedBike":false,"transitLeg":false,"duration":124.0,"steps":[{"distance":153.252,"relativeDirection":"DEPART","streetName":"Boulevard de l'Université","absoluteDirection":"SOUTHEAST","stayOn":false,"area":false,"bogusName":false,"lon":-71.05147948003304,"lat":48.412355007143375,"elevation":[]}]},{"startTime":1522671183000,"endTime":1522671476000,"departureDelay":0,"arrivalDelay":0,"realTime":false,"distance":1866.5220490795061,"pathway":false,"mode":"BUS","route":"175","agencyName":"Société de Transport du Saguenay","agencyUrl":"http://ville.saguenay.ca/fr/services-aux-citoyens/transport-sts","agencyTimeZoneOffset":-14400000,"routeColor":"FF00FF","routeType":3,"routeId":"1:175","routeTextColor":"FFFFFF","interlineWithPreviousLeg":false,"tripBlockId":"79","headsign":"Costco","agencyId":"0","tripId":"1:218649","serviceDate":"20180402","from":{"name":"boul. Université / Murdock","stopId":"1:80","stopCode":"80","lon":-71.050111,"lat":48.411498,"arrival":1522671182000,"departure":1522671183000,"zoneId":"NA","stopIndex":14,"stopSequence":15,"vertexType":"TRANSIT"},"to":{"name":"boul. Talbot (no. 1494) (Tim-Horton)","stopId":"1:1854","stopCode":"1854","lon":-71.060941,"lat":48.402118,"arrival":1522671476000,"departure":1522671477000,"zoneId":"NA","stopIndex":21,"stopSequence":22,"vertexType":"TRANSIT"},"legGeometry":{"points":"aknfH~}spLr@sBhCsKz@dAjB|@dM`GzCvAXrCr@~Gx@]PEr@ObACn@FrBb@|@Ch@Kx@U~HsB^KZ|DJpII~Fa@rFUzBi@bDUxAm@nCcAlDM^RTfD`D","length":32},"routeShortName":"175","routeLongName":"Term. Chic / Costco","rentedBike":false,"transitLeg":true,"duration":293.0,"steps":[]},{"startTime":1522671477000,"endTime":1522671520000,"departureDelay":0,"arrivalDelay":0,"realTime":false,"distance":56.632,"pathway":false,"mode":"WALK","route":"","agencyTimeZoneOffset":-14400000,"interlineWithPreviousLeg":false,"from":{"name":"boul. Talbot (no. 1494) (Tim-Horton)","stopId":"1:1854","stopCode":"1854","lon":-71.060941,"lat":48.402118,"arrival":1522671476000,"departure":1522671477000,"zoneId":"NA","stopIndex":21,"stopSequence":22,"vertexType":"TRANSIT"},"to":{"name":"Destination","lon":-71.060502,"lat":48.402536,"arrival":1522671520000,"orig":"","vertexType":"NORMAL"},"legGeometry":{"points":"}olfHhavpLuAsA","length":2},"rentedBike":false,"transitLeg":false,"duration":43.0,"steps":[{"distance":56.632,"relativeDirection":"DEPART","streetName":"Boulevard Talbot","absoluteDirection":"NORTHEAST","stayOn":false,"area":false,"bogusName":false,"lon":-71.06084575275527,"lat":48.40207691199218,"elevation":[]}]}],"tooSloped":false}]},"debugOutput":{"precalculationTime":32,"pathCalculationTime":21,"pathTimes":[14,3,4],"renderingTime":0,"totalTime":53,"timedOut":false},"elevationMetadata":{"ellipsoidToGeoidDifference":-28.885904201182168,"geoidElevation":false}}