{"requestParameters":{"date":"2018/04/02","walkSpeed":"1.33","walkReluctance":"2.0","fromPlace":"48.407063,-71.054811","maxWalkDistance":"3000","waitReluctance":"1.0","carSpeed":"33","numItineraries":"3","waitAtBeginningFactor":"0.4","mode":"TRANSIT,WALK","ignoreRealtimeUpdates":"false","stairsReluctance":"2.0","toPlace":"48.398857,-71.051764","time":"10:30:00"},"plan":{"date":1522679400000,"from":{"name":"Origin","lon":-71.054811,"lat":48.407063,"orig":"","vertexType":"NORMAL"},"to":{"name":"Destination","lon":-71.051764,"lat":48.398857,"orig":"","vertexType":"NORMAL"},"itineraries":[{"duration":891,"startTime":1522679400000,"endTime":1522680291000,"walkTime":891,"transitTime":0,"waitingTime":0,"walkDistance":1138.0651127756591,"walkLimitExceeded":false,"elevationLost":0.0,"elevationGained":0.0,"transfers":0,"legs":[{"startTime":1522679400000,"endTime":1522680291000,"departureDelay":0,"arrivalDelay":0,"realTime":false,"distance":1137.8700000000001,"pathway":false,"mode":"WALK","route":"","agencyTimeZoneOffset":-14400000,"interlineWithPreviousLeg":false,"from":{"name":"Origin","lon":-71.054811,"lat":48.407063,"departure":1522679400000,"orig":"","vertexType":"NORMAL"},"to":{"name":"Destination","lon":-71.051764,"lat":48.398857,"arrival":1522680291000,"orig":"","vertexType":"NORMAL"},"legGeometry":{"points":"somfHz|tpLdCzB|@gCb@q@v@WZA`@^\\^zCgKp@{BRH\\EA{Ad@MNGrBm@jEiA^KTGp@U|AOf@D|@D@?r@D|AZtA|@B@RNl@n@\\`@","length":31},"rentedBike":false,"transitLeg":false,"duration":891.0,"steps":[{"distance":87.619,"relativeDirection":"DEPART","streetName":"parking aisle","absoluteDirection":"SOUTHWEST","stayOn":false,"area":false,"bogusName":false,"lon":-71.05501236077725,"lat":48.40714539148127,"elevation":[]},{"distance":178.429,"relativeDirection":"LEFT","streetName":"service road","absoluteDirection":"SOUTHEAST","stayOn":false,"area":false,"bogusName":true,"lon":-71.0556352,"lat":48.4064746,"elevation":[]},{"distance":284.657,"relativeDirection":"LEFT","streetName":"path","absoluteDirection":"SOUTHEAST","stayOn":true,"area":false,"bogusName":true,"lon":-71.054893,"lat":48.4052475,"elevation":[]},{"distance":232.007,"relativeDirection":"RIGHT","streetName":"Rue des Champs-Élysées","absoluteDirection":"SOUTH","stayOn":false,"area":false,"bogusName":false,"lon":-71.0518792,"lat":48.4039711,"elevation":[]},{"distance":355.1580000000001,"relativeDirection":"CONTINUE","streetName":"Rue des Engoulevents","absoluteDirection":"SOUTH","stayOn":false,"area":false,"bogusName":false,"lon":-71.0511074,"lat":48.401948700000005,"elevation":[]}]}],"tooSloped":false},{"duration":702,"startTime":1522680847000,"endTime":1522681549000,"walkTime":630,"transitTime":70,"waitingTime":2,"walkDistance":808.5863458618111,"walkLimitExceeded":false,"elevationLost":0.0,"elevationGained":0.0,"transfers":0,"legs":[{"startTime":1522680847000,"endTime":1522681188000,"departureDelay":0,"arrivalDelay":0,"realTime":false,"distance":435.14799999999997,"pathway":false,"mode":"WALK","route":"","agencyTimeZoneOffset":-14400000,"interlineWithPreviousLeg":false,"from":{"name":"Origin","lon":-71.054811,"lat":48.407063,"departure":1522680847000,"orig":"","vertexType":"NORMAL"},"to":{"name":"Émile Girardin / Roitelets","stopId":"1:253","stopCode":"253","lon":-71.050677,"lat":48.406726,"arrival":1522681188000,"departure":1522681189000,"zoneId":"NA","stopIndex":17,"stopSequence":18,"vertexType":"TRANSIT"},"legGeometry":{"points":"somfHz|tpLyAsA_@]r@qB`A_DNc@PUfAuAbAaA{@qEGo@AGAK","length":13},"rentedBike":false,"transitLeg":false,"duration":341.0,"steps":[{"distance":79.65,"relativeDirection":"DEPART","streetName":"parking aisle","absoluteDirection":"NORTHEAST","stayOn":false,"area":false,"bogusName":false,"lon":-71.05501236077725,"lat":48.40714539148127,"elevation":[]},{"distance":245.39999999999998,"relativeDirection":"RIGHT","streetName":"Rue des Champs-Élysées","absoluteDirection":"SOUTHEAST","stayOn":false,"area":false,"bogusName":false,"lon":-71.0544462,"lat":48.407755200000004,"elevation":[]},{"distance":110.09799999999998,"relativeDirection":"LEFT","streetName":"Rue Émile-Girardin","absoluteDirection":"NORTHEAST","stayOn":false,"area":false,"bogusName":false,"lon":-71.05202630000001,"lat":48.4062974,"elevation":[]}]},{"startTime":1522681189000,"endTime":1522681259000,"departureDelay":0,"arrivalDelay":0,"realTime":false,"distance":534.3353906916097,"pathway":false,"mode":"BUS","route":"175","agencyName":"Société de Transport du Saguenay","agencyUrl":"http://ville.saguenay.ca/fr/services-aux-citoyens/transport-sts","agencyTimeZoneOffset":-14400000,"routeColor":"FF00FF","routeType":3,"routeId":"1:175","routeTextColor":"FFFFFF","interlineWithPreviousLeg":false,"tripBlockId":"8","headsign":"Costco","agencyId":"0","tripId":"1:217365","serviceDate":"20180402","from":{"name":"Émile Girardin / Roitelets","stopId":"1:253","stopCode":"253","lon":-71.050677,"lat":48.406726,"arrival":1522681188000,"departure":1522681189000,"zoneId":"NA","stopIndex":17,"stopSequence":18,"vertexType":"TRANSIT"},"to":{"name":"Champs-Élysées / Saguenéens","stopId":"1:84","stopCode":"84","lon":-71.05132,"lat":48.402083,"arrival":1522681259000,"departure":1522681260000,"zoneId":"NA","stopIndex":19,"stopSequence":20,"vertexType":"TRANSIT"},"legGeometry":{"points":"_lmfHhatpLr@~Gx@]PEr@ObACn@FrBb@|@Ch@Kx@U~HsB","length":12},"routeShortName":"175","routeLongName":"Term. Chic / Costco","rentedBike":false,"transitLeg":true,"duration":70.0,"steps":[]},{"startTime":1522681260000,"endTime":1522681549000,"departureDelay":0,"arrivalDelay":0,"realTime":false,"distance":373.35,"pathway":false,"mode":"WALK","route":"","agencyTimeZoneOffset":-14400000,"interlineWithPreviousLeg":false,"from":{"name":"Champs-Élysées / Saguenéens","stopId":"1:84","stopCode":"84","lon":-71.05132,"lat":48.402083,"arrival":1522681259000,"departure":1522681260000,"zoneId":"NA","stopIndex":19,"stopSequence":20,"vertexType":"TRANSIT"},"to":{"name":"Destination","lon":-71.051764,"lat":48.398857,"arrival":1522681549000,"orig":"","vertexType":"NORMAL"},"legGeometry":{"points":"cplfHxdtpL^KTGp@U|AOf@D|@D@?r@D|AZtA|@B@RNl@n@\\`@","length":15},"rentedBike":false,"transitLeg":false,"duration":289.0,"steps":[{"distance":18.192,"relativeDirection":"DEPART","streetName":"Rue des Champs-Élysées","absoluteDirection":"SOUTH","stayOn":false,"area":false,"bogusName":false,"lon":-71.05116509910528,"lat":48.402107765696,"elevation":[]},{"distance":355.1580000000001,"relativeDirection":"CONTINUE","streetName":"Rue des Engoulevents","absoluteDirection":"SOUTH","stayOn":false,"area":false,"bogusName":false,"lon":-71.0511074,"lat":48.401948700000005,"elevation":[]}]}],"tooSloped":false},{"duration":747,"startTime":1522680993000,"endTime":1522681740000,"walkTime":677,"transitTime":68,"waitingTime":2,"walkDistance":853.5906992423221,"walkLimitExceeded":false,"elevationLost":0.0,"elevationGained":0.0,"transfers":0,"legs":[{"startTime":1522680993000,"endTime":1522681619000,"departureDelay":0,"arrivalDelay":0,"realTime":false,"distance":788.258,"pathway":false,"mode":"WALK","route":"","agencyTimeZoneOffset":-14400000,"interlineWithPreviousLeg":false,"from":{"name":"Origin","lon":-71.054811,"lat":48.407063,"departure":1522680993000,"orig":"","vertexType":"NORMAL"},"to":{"name":"Place du Royaume (Saguenéens)","stopId":"1:1294","stopCode":"1294","lon":-71.057691,"lat":48.402355,"arrival":1522681619000,"departure":1522681620000,"zoneId":"NA","stopIndex":24,"stopSequence":25,"vertexType":"TRANSIT"},"legGeometry":{"points":"somfHz|tpLdCzB|@gCb@q@v@WZA`@^\\^VVN\\?p@c@~AXTXVZX\\XXTBBTBFFXVZZRPVVXXXXr@p@XVXXb@`@h@`AZl@FLLi@`@eC","length":35},"rentedBike":false,"transitLeg":false,"duration":626.0,"steps":[{"distance":87.619,"relativeDirection":"DEPART","streetName":"parking aisle","absoluteDirection":"SOUTHWEST","stayOn":false,"area":false,"bogusName":false,"lon":-71.05501236077725,"lat":48.40714539148127,"elevation":[]},{"distance":630.6310000000001,"relativeDirection":"LEFT","streetName":"service road","absoluteDirection":"SOUTHEAST","stayOn":false,"area":false,"bogusName":true,"lon":-71.0556352,"lat":48.4064746,"elevation":[]},{"distance":70.008,"relativeDirection":"LEFT","streetName":"Rue des Saguenéens","absoluteDirection":"SOUTHEAST","stayOn":false,"area":false,"bogusName":false,"lon":-71.0586019,"lat":48.4025327,"elevation":[]}]},{"startTime":1522681620000,"endTime":1522681688000,"departureDelay":0,"arrivalDelay":0,"realTime":false,"distance":678.0871719205295,"pathway":false,"mode":"BUS","route":"15","agencyName":"Société de Transport du Saguenay","agencyUrl":"http://ville.saguenay.ca/fr/services-aux-citoyens/transport-sts","agencyTimeZoneOffset":-14400000,"routeColor":"FF00FF","routeType":3,"routeId":"1:15","routeTextColor":"FFFFFF","interlineWithPreviousLeg":false,"tripBlockId":"31","headsign":"Talbot / Barrette","agencyId":"0","tripId":"1:218130","serviceDate":"20180402","from":{"name":"Place du Royaume (Saguenéens)","stopId":"1:1294","stopCode":"1294","lon":-71.057691,"lat":48.402355,"arrival":1522681619000,"departure":1522681620000,"zoneId":"NA","stopIndex":24,"stopSequence":25,"vertexType":"TRANSIT"},"to":{"name":"Engoulevents / Bernaches","stopId":"1:1509","stopCode":"1509","lon":-71.051416,"lat":48.399414,"arrival":1522681688000,"departure":1522681689000,"zoneId":"NA","stopIndex":26,"stopSequence":27,"vertexType":"TRANSIT"},"legGeometry":{"points":"_rlfHjmupLbCaO?qLa@uJzF`ApF~@","length":6},"routeShortName":"15","routeLongName":"Term. Chic / Costco","rentedBike":false,"transitLeg":true,"duration":68.0,"steps":[]},{"startTime":1522681689000,"endTime":1522681740000,"departureDelay":0,"arrivalDelay":0,"realTime":false,"distance":65.153,"pathway":false,"mode":"WALK","route":"","agencyTimeZoneOffset":-14400000,"interlineWithPreviousLeg":false,"from":{"name":"Engoulevents / Bernaches","stopId":"1:1509","stopCode":"1509","lon":-71.051416,"lat":48.399414,"arrival":1522681688000,"departure":1522681689000,"zoneId":"NA","stopIndex":26,"stopSequence":27,"vertexType":"TRANSIT"},"to":{"name":"Destination","lon":-71.051764,"lat":48.398857,"arrival":1522681740000,"orig":"","vertexType":"NORMAL"},"legGeometry":{"points":"i_lfHlftpLRNl@n@\\`@","length":4},"rentedBike":false,"transitLeg":false,"duration":51.0,"steps":[{"distance":65.153,"relativeDirection":"DEPART","streetName":"Rue des Engoulevents","absoluteDirection":"SOUTHWEST","stayOn":false,"area":false,"bogusName":false,"lon":-71.051428970226,"lat":48.39941817689361,"elevation":[]}]}],"tooSloped":false}]},"debugOutput":{"precalculationTime":31,"pathCalculationTime":26,"pathTimes":[15,5,6],"renderingTime":1,"totalTime":58,"timedOut":false},"elevationMetadata":{"ellipsoidToGeoidDifference":-28.885904201182168,"geoidElevation":false}}