{"requestParameters":{"date":"2018/04/02","walkSpeed":"1.33","walkReluctance":"2.0","fromPlace":"48.425088,-71.0722","maxWalkDistance":"3000","waitReluctance":"1.0","carSpeed":"33","numItineraries":"3","waitAtBeginningFactor":"0.4","mode":"TRANSIT,WALK","ignoreRealtimeUpdates":"false","stairsReluctance":"2.0","toPlace":"48.400298,-71.047484","time":"18:30:00"},"plan":{"date":1522708200000,"from":{"name":"Origin","lon":-71.0722,"lat":48.425088,"orig":"","vertexType":"NORMAL"},"to":{"name":"Destination","lon":-71.047484,"lat":48.400298,"orig":"","vertexType":"NORMAL"},"itineraries":[{"duration":2122,"startTime":1522708318000,"endTime":1522710440000,"walkTime":887,"transitTime":1233,"waitingTime":2,"walkDistance":1131.9207293171216,"walkLimitExceeded":false,"elevationLost":0.0,"elevationGained":0.0,"transfers":0,"legs":[{"startTime":1522708318000,"endTime":1522708825000,"departureDelay":0,"arrivalDelay":0,"realTime":false,"distance":642.187,"pathway":false,"mode":"WALK","route":"","agencyTimeZoneOffset":-14400000,"interlineWithPreviousLeg":false,"from":{"name":"Origin","lon":-71.0722,"lat":48.425088,"departure":1522708318000,"orig":"","vertexType":"NORMAL"},"to":{"name":"boul. Saguenay / Ste-Anne","stopId":"1:160","stopCode":"160","lon":-71.069701,"lat":48.429464,"arrival":1522708825000,"departure":1522708826000,"zoneId":"NA","stopIndex":31,"stopSequence":32,"vertexType":"TRANSIT"},"legGeometry":{"points":"}_qfHzfxpL}AXEc@OMaAYCFKDKCGGKSSYWKkAK}@B_BHuBHo@BqAPo@Bo@_@MOEEQi@Em@FyE@[","length":26},"rentedBike":false,"transitLeg":false,"duration":507.0,"steps":[{"distance":53.172,"relativeDirection":"DEPART","streetName":"Boulevard Saint-Paul","absoluteDirection":"NORTH","stayOn":false,"area":false,"bogusName":false,"lon":-71.07197625984747,"lat":48.425114829693804,"elevation":[]},{"distance":13.871,"relativeDirection":"RIGHT","streetName":"Rue Price Ouest","absoluteDirection":"EAST","stayOn":false,"area":false,"bogusName":false,"lon":-71.0721044,"lat":48.4255854,"elevation":[]},{"distance":48.492,"relativeDirection":"LEFT","streetName":"path","absoluteDirection":"NORTH","stayOn":false,"area":false,"bogusName":true,"lon":-71.0719217,"lat":48.425614800000005,"elevation":[]},{"distance":356.79900000000004,"relativeDirection":"SLIGHTLY_LEFT","streetName":"Rue Montcalm","absoluteDirection":"NORTH","stayOn":false,"area":false,"bogusName":false,"lon":-71.0717267,"lat":48.426028200000005,"elevation":[]},{"distance":78.91,"relativeDirection":"SLIGHTLY_RIGHT","streetName":"link","absoluteDirection":"NORTHEAST","stayOn":false,"area":false,"bogusName":true,"lon":-71.07163890000001,"lat":48.4291351,"elevation":[]},{"distance":90.943,"relativeDirection":"CONTINUE","streetName":"Boulevard du Saguenay Ouest","absoluteDirection":"EAST","stayOn":false,"area":false,"bogusName":false,"lon":-71.07092130000001,"lat":48.429599100000004,"elevation":[]}]},{"startTime":1522708826000,"endTime":1522708860000,"departureDelay":0,"arrivalDelay":0,"realTime":false,"distance":275.32247205812763,"pathway":false,"mode":"BUS","route":"3","agencyName":"Société de Transport du Saguenay","agencyUrl":"http://ville.saguenay.ca/fr/services-aux-citoyens/transport-sts","agencyTimeZoneOffset":-14400000,"routeColor":"FF0000","routeType":3,"routeId":"1:3","routeTextColor":"FFFFFF","interlineWithPreviousLeg":false,"tripBlockId":"6","headsign":"Terminus Chicoutimi","agencyId":"0","tripId":"1:217308","serviceDate":"20180402","from":{"name":"boul. Saguenay / Ste-Anne","stopId":"1:160","stopCode":"160","lon":-71.069701,"lat":48.429464,"arrival":1522708825000,"departure":1522708826000,"zoneId":"NA","stopIndex":31,"stopSequence":32,"vertexType":"TRANSIT"},"to":{"name":"Terminus Chicoutimi","stopId":"1:1289","stopCode":"1289","lon":-71.066163,"lat":48.428677,"arrival":1522708860000,"departure":1522709100000,"zoneId":"NA","stopIndex":32,"stopSequence":33,"vertexType":"TRANSIT"},"legGeometry":{"points":"o{qfHrxwpLPwGvAHVyL","length":4},"routeShortName":"3","routeLongName":"Chic/Jonq via Boul. Saguenay","rentedBike":false,"transitLeg":true,"duration":34.0,"steps":[]},{"startTime":1522709100000,"endTime":1522710059000,"departureDelay":0,"arrivalDelay":0,"realTime":false,"distance":4696.134353449392,"pathway":false,"mode":"BUS","route":"175","agencyName":"Société de Transport du Saguenay","agencyUrl":"http://ville.saguenay.ca/fr/services-aux-citoyens/transport-sts","agencyTimeZoneOffset":-14400000,"routeColor":"FF00FF","routeType":3,"routeId":"1:175","routeTextColor":"FFFFFF","interlineWithPreviousLeg":true,"tripBlockId":"6","headsign":"Costco","agencyId":"0","tripId":"1:217309","serviceDate":"20180402","from":{"name":"Terminus Chicoutimi","stopId":"1:1289","stopCode":"1289","lon":-71.066163,"lat":48.428677,"arrival":1522708860000,"departure":1522709100000,"zoneId":"NA","stopIndex":0,"stopSequence":1,"vertexType":"TRANSIT"},"to":{"name":"Champs-Élysées / Saguenéens","stopId":"1:84","stopCode":"84","lon":-71.05132,"lat":48.402083,"arrival":1522710059000,"departure":1522710060000,"zoneId":"NA","stopIndex":19,"stopSequence":20,"vertexType":"TRANSIT"},"legGeometry":{"points":"kvqfH~awpL~CgBbAqa@FwCBkAOsHAg@bAYUwMKoE@mB@kJ@iFbEf@xEj@iCtYp@r@z@`ABBvHtHXRx@l@VwAvAgB\\qBIuAC]g@yEzDuLbBbBvAxAMx@|@v@`A~@Xw@~D~DPxFZtA~ApE`N{LpFmEb@[ROl@[vDQXKfA[|@q@fAsBlEmMr@sBhCsKz@dAjB|@dM`GzCvAXrCr@~Gx@]PEr@ObACn@FrBb@|@Ch@Kx@U~HsB","length":68},"routeShortName":"175","routeLongName":"Term. Chic / Costco","rentedBike":false,"transitLeg":true,"duration":959.0,"steps":[]},{"startTime":1522710060000,"endTime":1522710440000,"departureDelay":0,"arrivalDelay":0,"realTime":false,"distance":489.542,"pathway":false,"mode":"WALK","route":"","agencyTimeZoneOffset":-14400000,"interlineWithPreviousLeg":false,"from":{"name":"Champs-Élysées / Saguenéens","stopId":"1:84","stopCode":"84","lon":-71.05132,"lat":48.402083,"arrival":1522710059000,"departure":1522710060000,"zoneId":"NA","stopIndex":19,"stopSequence":20,"vertexType":"TRANSIT"},"to":{"name":"Destination","lon":-71.047484,"lat":48.400298,"arrival":1522710440000,"orig":"","vertexType":"NORMAL"},"legGeometry":{"points":"cplfHxdtpL^Kc@aDE_@gAsIBc@bDsAj@WxCuA~@[","length":10},"rentedBike":false,"transitLeg":false,"duration":380.0,"steps":[{"distance":18.192,"relativeDirection":"DEPART","streetName":"Rue des Champs-Élysées","absoluteDirection":"SOUTH","stayOn":false,"area":false,"bogusName":false,"lon":-71.05116509910528,"lat":48.402107765696,"elevation":[]},{"distance":220.349,"relativeDirection":"LEFT","streetName":"Rue des Saguenéens","absoluteDirection":"EAST","stayOn":false,"area":false,"bogusName":false,"lon":-71.0511074,"lat":48.401948700000005,"elevation":[]},{"distance":251.001,"relativeDirection":"RIGHT","streetName":"Rue Des Roitelets","absoluteDirection":"SOUTH","stayOn":false,"area":false,"bogusName":false,"lon":-71.0482563,"lat":48.4024969,"elevation":[]}]}],"tooSloped":false},{"duration":1639,"startTime":1522709434000,"endTime":1522711073000,"walkTime":543,"transitTime":1094,"waitingTime":2,"walkDistance":677.8232556325715,"walkLimitExceeded":false,"elevationLost":0.0,"elevationGained":0.0,"transfers":0,"legs":[{"startTime":1522709434000,"endTime":1522709863000,"departureDelay":0,"arrivalDelay":0,"realTime":false,"distance":540.5540000000001,"pathway":false,"mode":"WALK","route":"","agencyTimeZoneOffset":-14400000,"interlineWithPreviousLeg":false,"from":{"name":"Origin","lon":-71.0722,"lat":48.425088,"departure":1522709434000,"orig":"","vertexType":"NORMAL"},"to":{"name":"Audet / Saint-Charles","stopId":"1:521","stopCode":"521","lon":-71.072343,"lat":48.420999,"arrival":1522709863000,"departure":1522709864000,"zoneId":"NA","stopIndex":9,"stopSequence":10,"vertexType":"TRANSIT"},"legGeometry":{"points":"}_qfHzfxpLZGf@?jAJPBnBJ|@Hf@Fb@PZTLHj@t@~@jAJLRZFa@x@eCVcAf@BD?jADAb@","length":22},"rentedBike":false,"transitLeg":false,"duration":429.0,"steps":[{"distance":357.81500000000005,"relativeDirection":"DEPART","streetName":"Boulevard Saint-Paul","absoluteDirection":"SOUTH","stayOn":false,"area":false,"bogusName":false,"lon":-71.07197625984747,"lat":48.425114829693804,"elevation":[]},{"distance":100.466,"relativeDirection":"LEFT","streetName":"Boulevard de l'Université","absoluteDirection":"EAST","stayOn":false,"area":false,"bogusName":false,"lon":-71.0732783,"lat":48.4221458,"elevation":[]},{"distance":68.384,"relativeDirection":"RIGHT","streetName":"Rue Audet","absoluteDirection":"SOUTH","stayOn":false,"area":false,"bogusName":false,"lon":-71.07209830000001,"lat":48.421699100000005,"elevation":[]},{"distance":13.889,"relativeDirection":"RIGHT","streetName":"Rue Saint-Charles","absoluteDirection":"WEST","stayOn":false,"area":false,"bogusName":false,"lon":-71.0721424,"lat":48.4210848,"elevation":[]}]},{"startTime":1522709864000,"endTime":1522710660000,"departureDelay":0,"arrivalDelay":0,"realTime":false,"distance":6316.118133627162,"pathway":false,"mode":"BUS","route":"14","agencyName":"Société de Transport du Saguenay","agencyUrl":"http://ville.saguenay.ca/fr/services-aux-citoyens/transport-sts","agencyTimeZoneOffset":-14400000,"routeColor":"C0C000","routeType":3,"routeId":"1:14","routeTextColor":"000000","interlineWithPreviousLeg":false,"tripBlockId":"30","headsign":"Talbot / Barrette","agencyId":"0","tripId":"1:218111","serviceDate":"20180402","from":{"name":"Audet / Saint-Charles","stopId":"1:521","stopCode":"521","lon":-71.072343,"lat":48.420999,"arrival":1522709863000,"departure":1522709864000,"zoneId":"NA","stopIndex":9,"stopSequence":10,"vertexType":"TRANSIT"},"to":{"name":"Roitelets / Sapins","stopId":"1:1543","stopCode":"1543","lon":-71.069553,"lat":48.393375,"arrival":1522710660000,"departure":1522710660000,"zoneId":"NA","stopIndex":35,"stopSequence":36,"vertexType":"TRANSIT"},"legGeometry":{"points":"cfpfHbhxpLzCTcAvCO^bEbEzK`LfBeEtK`KhAdAnCbCvBpCNR~BxAxBf@z@h@vAz@z@{DrCoITTlElEtAnB`@l@pFrD@?fDr@XgAjFuR\\yADm@b@gFd@_B`A}@tEvJBDvC`FtJ|LLNlClC|@^hCYVExCjCb@d@vE`F`BhB?pHaBhRqAbLK~@qBxFqB|FcC~GyC\\aDkDcFsF~CgOtGm[j@oCvEoSl@_CxCmLjAeFpCeKrByHfAqCvH_SLa@","length":67},"routeShortName":"14","routeLongName":"Coopérative","rentedBike":false,"transitLeg":true,"duration":796.0,"steps":[]},{"startTime":1522710660000,"endTime":1522710958000,"departureDelay":0,"arrivalDelay":0,"realTime":false,"distance":2120.336912550914,"pathway":false,"mode":"BUS","route":"15","agencyName":"Société de Transport du Saguenay","agencyUrl":"http://ville.saguenay.ca/fr/services-aux-citoyens/transport-sts","agencyTimeZoneOffset":-14400000,"routeColor":"FF00FF","routeType":3,"routeId":"1:15","routeTextColor":"FFFFFF","interlineWithPreviousLeg":true,"tripBlockId":"30","headsign":"Terminus Chicoutimi","agencyId":"0","tripId":"1:218112","serviceDate":"20180402","from":{"name":"Roitelets / Sapins","stopId":"1:1543","stopCode":"1543","lon":-71.069553,"lat":48.393375,"arrival":1522710660000,"departure":1522710660000,"zoneId":"NA","stopIndex":0,"stopSequence":1,"vertexType":"TRANSIT"},"to":{"name":"Parc Rivière du Moulin (Roitelets)","stopId":"1:48","stopCode":"48","lon":-71.046747,"lat":48.399245,"arrival":1522710958000,"departure":1522710959000,"zoneId":"NA","stopIndex":8,"stopSequence":9,"vertexType":"TRANSIT"},"legGeometry":{"points":"_zjfHfwwpLx@}BHa@NaADq@@y@Cy@I{@Ka@O[Sg@c@mAWwAMyA?EC]?wABuABmFB{@BmDFuH@i@F[FsC@c@TuGEGVsHPuDLuBXsFDoA?W@]Cu@GcAKu@Q_ASo@a@y@a@o@MOUUeCqBiDsDqE{EiAcAcB_AqBgA_AQaBSaBG_@B","length":54},"routeShortName":"15","routeLongName":"Term. Chic / Costco","rentedBike":false,"transitLeg":true,"duration":298.0,"steps":[]},{"startTime":1522710959000,"endTime":1522711073000,"departureDelay":0,"arrivalDelay":0,"realTime":false,"distance":137.067,"pathway":false,"mode":"WALK","route":"","agencyTimeZoneOffset":-14400000,"interlineWithPreviousLeg":false,"from":{"name":"Parc Rivière du Moulin (Roitelets)","stopId":"1:48","stopCode":"48","lon":-71.046747,"lat":48.399245,"arrival":1522710958000,"departure":1522710959000,"zoneId":"NA","stopIndex":8,"stopSequence":9,"vertexType":"TRANSIT"},"to":{"name":"Destination","lon":-71.047484,"lat":48.400298,"arrival":1522711073000,"orig":"","vertexType":"NORMAL"},"legGeometry":{"points":"g~kfH~hspLQ?i@JBVcALu@PQD[J","length":8},"rentedBike":false,"transitLeg":false,"duration":114.0,"steps":[{"distance":33.557,"relativeDirection":"DEPART","streetName":"bike path","absoluteDirection":"NORTH","stayOn":false,"area":false,"bogusName":true,"lon":-71.04671805171614,"lat":48.399244587532124,"elevation":[]},{"distance":8.481,"relativeDirection":"LEFT","streetName":"path","absoluteDirection":"WEST","stayOn":true,"area":false,"bogusName":true,"lon":-71.04678,"lat":48.3995418,"elevation":[]},{"distance":95.029,"relativeDirection":"RIGHT","streetName":"Rue Des Roitelets","absoluteDirection":"NORTH","stayOn":false,"area":false,"bogusName":false,"lon":-71.0468927,"lat":48.399527000000006,"elevation":[]}]}],"tooSloped":false},{"duration":2037,"startTime":1522710411000,"endTime":1522712448000,"walkTime":672,"transitTime":1363,"waitingTime":2,"walkDistance":846.264676686222,"walkLimitExceeded":false,"elevationLost":0.0,"elevationGained":0.0,"transfers":0,"legs":[{"startTime":1522710411000,"endTime":1522710969000,"departureDelay":0,"arrivalDelay":0,"realTime":false,"distance":709.027,"pathway":false,"mode":"WALK","route":"","agencyTimeZoneOffset":-14400000,"interlineWithPreviousLeg":false,"from":{"name":"Origin","lon":-71.0722,"lat":48.425088,"departure":1522710411000,"orig":"","vertexType":"NORMAL"},"to":{"name":"Jacques-Cartier / Morin","stopId":"1:70","stopCode":"70","lon":-71.064766,"lat":48.426469,"arrival":1522710969000,"departure":1522710970000,"zoneId":"NA","stopIndex":1,"stopSequence":2,"vertexType":"TRANSIT"},"legGeometry":{"points":"}_qfHzfxpL}AXEc@OMaAYCFKDKCGGKSSYWKkAK@aD@k@HoCLsEB_BDoBBwABaAJeEDwC@s@","length":24},"rentedBike":false,"transitLeg":false,"duration":558.0,"steps":[{"distance":53.172,"relativeDirection":"DEPART","streetName":"Boulevard Saint-Paul","absoluteDirection":"NORTH","stayOn":false,"area":false,"bogusName":false,"lon":-71.07197625984747,"lat":48.425114829693804,"elevation":[]},{"distance":13.871,"relativeDirection":"RIGHT","streetName":"Rue Price Ouest","absoluteDirection":"EAST","stayOn":false,"area":false,"bogusName":false,"lon":-71.0721044,"lat":48.4255854,"elevation":[]},{"distance":48.492,"relativeDirection":"LEFT","streetName":"path","absoluteDirection":"NORTH","stayOn":false,"area":false,"bogusName":true,"lon":-71.0719217,"lat":48.425614800000005,"elevation":[]},{"distance":103.339,"relativeDirection":"SLIGHTLY_LEFT","streetName":"Rue Montcalm","absoluteDirection":"NORTH","stayOn":false,"area":false,"bogusName":false,"lon":-71.0717267,"lat":48.426028200000005,"elevation":[]},{"distance":208.179,"relativeDirection":"RIGHT","streetName":"Rue Jacques-Cartier Ouest","absoluteDirection":"EAST","stayOn":false,"area":false,"bogusName":false,"lon":-71.0713817,"lat":48.426863100000006,"elevation":[]},{"distance":281.97400000000005,"relativeDirection":"CONTINUE","streetName":"Rue Jacques-Cartier Est","absoluteDirection":"EAST","stayOn":false,"area":false,"bogusName":false,"lon":-71.0685709,"lat":48.426721,"elevation":[]}]},{"startTime":1522710970000,"endTime":1522712333000,"departureDelay":0,"arrivalDelay":0,"realTime":false,"distance":6394.177283899286,"pathway":false,"mode":"BUS","route":"15","agencyName":"Société de Transport du Saguenay","agencyUrl":"http://ville.saguenay.ca/fr/services-aux-citoyens/transport-sts","agencyTimeZoneOffset":-14400000,"routeColor":"FF00FF","routeType":3,"routeId":"1:15","routeTextColor":"FFFFFF","interlineWithPreviousLeg":false,"tripBlockId":"33","headsign":"Talbot / Barrette","agencyId":"0","tripId":"1:218197","serviceDate":"20180402","from":{"name":"Jacques-Cartier / Morin","stopId":"1:70","stopCode":"70","lon":-71.064766,"lat":48.426469,"arrival":1522710969000,"departure":1522710970000,"zoneId":"NA","stopIndex":1,"stopSequence":2,"vertexType":"TRANSIT"},"to":{"name":"Parc Rivière du Moulin (Roitelets)","stopId":"1:48","stopCode":"48","lon":-71.046747,"lat":48.399245,"arrival":1522712333000,"departure":1522712334000,"zoneId":"NA","stopIndex":27,"stopSequence":28,"vertexType":"TRANSIT"},"legGeometry":{"points":"}hqfHvyvpLZkS\\aSN_K^eIrBpBvIpIr@r@\\mBfAaA`@gBOkB_@uF|DyL|DpDQ|@|@z@bA`ATw@dD~Ch@fA@`E~AjGuH`Iy@bBi@dCbEdEjJlJ`HbHlJpJ|J~JdAfALzDNzDrAdBrEKvBEbCv@d@TvFlC|DlBpMlGrB`AM}@hAwEC{B]oBiBmBsH_@_K{H`EgIvCaGfEoItDsH~DeItC{FnBoLbCaO?qLa@uJzF`ApF~@~@PzAgEeDcBf@qAWcKUqEx@E","length":69},"routeShortName":"15","routeLongName":"Term. Chic / Costco","rentedBike":false,"transitLeg":true,"duration":1363.0,"steps":[]},{"startTime":1522712334000,"endTime":1522712448000,"departureDelay":0,"arrivalDelay":0,"realTime":false,"distance":137.067,"pathway":false,"mode":"WALK","route":"","agencyTimeZoneOffset":-14400000,"interlineWithPreviousLeg":false,"from":{"name":"Parc Rivière du Moulin (Roitelets)","stopId":"1:48","stopCode":"48","lon":-71.046747,"lat":48.399245,"arrival":1522712333000,"departure":1522712334000,"zoneId":"NA","stopIndex":27,"stopSequence":28,"vertexType":"TRANSIT"},"to":{"name":"Destination","lon":-71.047484,"lat":48.400298,"arrival":1522712448000,"orig":"","vertexType":"NORMAL"},"legGeometry":{"points":"g~kfH~hspLQ?i@JBVcALu@PQD[J","length":8},"rentedBike":false,"transitLeg":false,"duration":114.0,"steps":[{"distance":33.557,"relativeDirection":"DEPART","streetName":"bike path","absoluteDirection":"NORTH","stayOn":false,"area":false,"bogusName":true,"lon":-71.04671805171614,"lat":48.399244587532124,"elevation":[]},{"distance":8.481,"relativeDirection":"LEFT","streetName":"path","absoluteDirection":"WEST","stayOn":true,"area":false,"bogusName":true,"lon":-71.04678,"lat":48.3995418,"elevation":[]},{"distance":95.029,"relativeDirection":"RIGHT","streetName":"Rue Des Roitelets","absoluteDirection":"NORTH","stayOn":false,"area":false,"bogusName":false,"lon":-71.0468927,"lat":48.399527000000006,"elevation":[]}]}],"tooSloped":false}]},"debugOutput":{"precalculationTime":29,"pathCalculationTime":38,"pathTimes":[19,8,11],"renderingTime":0,"totalTime":67,"timedOut":false},"elevationMetadata":{"ellipsoidToGeoidDifference":-28.885904201182168,"geoidElevation":false}}