{"requestParameters":{"date":"2018/04/02","walkSpeed":"1.33","walkReluctance":"2.0","fromPlace":"48.405922,-71.047031","maxWalkDistance":"3000","waitReluctance":"1.0","carSpeed":"33","numItineraries":"3","waitAtBeginningFactor":"0.4","mode":"TRANSIT,WALK","ignoreRealtimeUpdates":"false","stairsReluctance":"2.0","toPlace":"48.405991,-71.058711","time":"10:20:00"},"plan":{"date":1522678800000,"from":{"name":"Origin","lon":-71.047031,"lat":48.405922,"orig":"","vertexType":"NORMAL"},"to":{"name":"Destination","lon":-71.058711,"lat":48.405991,"orig":"","vertexType":"NORMAL"},"itineraries":[{"duration":879,"startTime":1522678800000,"endTime":1522679679000,"walkTime":879,"transitTime":0,"waitingTime":0,"walkDistance":1109.2507067577953,"walkLimitExceeded":false,"elevationLost":0.0,"elevationGained":0.0,"transfers":0,"legs":[{"startTime":1522678800000,"endTime":1522679679000,"departureDelay":0,"arrivalDelay":0,"realTime":false,"distance":1108.9679999999998,"pathway":false,"mode":"WALK","route":"","agencyTimeZoneOffset":-14400000,"interlineWithPreviousLeg":false,"from":{"name":"Origin","lon":-71.047031,"lat":48.405922,"departure":1522678800000,"orig":"","vertexType":"NORMAL"},"to":{"name":"Destination","lon":-71.058711,"lat":48.405991,"arrival":1522679679000,"orig":"","vertexType":"NORMAL"},"legGeometry":{"points":"mhmfH|kspLRRBHf@h@~@dAkAjDMt@Bb@FbAcCj@OTMTM`@?fACb@@FFn@z@pEDRr@zCn@jC[AW?KAR~Ec@p@}@fCm@|B|DpDIZIVK\\]dAGNx@r@","length":35},"rentedBike":false,"transitLeg":false,"duration":879.0,"steps":[{"distance":88.12100000000001,"relativeDirection":"DEPART","streetName":"Rue Cyrille-Vaillancourt","absoluteDirection":"SOUTHWEST","stayOn":false,"area":false,"bogusName":false,"lon":-71.04718177743868,"lat":48.405990755987496,"elevation":[]},{"distance":136.063,"relativeDirection":"RIGHT","streetName":"Rue Alfred-Rouleau","absoluteDirection":"NORTHWEST","stayOn":false,"area":false,"bogusName":false,"lon":-71.0478951,"lat":48.4053594,"elevation":[]},{"distance":75.298,"relativeDirection":"RIGHT","streetName":"Rue Des Roitelets","absoluteDirection":"NORTH","stayOn":false,"area":false,"bogusName":false,"lon":-71.0495416,"lat":48.405743300000005,"elevation":[]},{"distance":38.282,"relativeDirection":"SLIGHTLY_LEFT","streetName":"link","absoluteDirection":"NORTHWEST","stayOn":false,"area":false,"bogusName":true,"lon":-71.0497612,"lat":48.4064046,"elevation":[]},{"distance":145.452,"relativeDirection":"SLIGHTLY_LEFT","streetName":"Rue Émile-Girardin","absoluteDirection":"WEST","stayOn":false,"area":false,"bogusName":false,"lon":-71.0501581,"lat":48.406621400000006,"elevation":[]},{"distance":165.414,"relativeDirection":"CONTINUE","streetName":"service road","absoluteDirection":"SOUTHWEST","stayOn":false,"area":false,"bogusName":true,"lon":-71.05202630000001,"lat":48.4062974,"elevation":[]},{"distance":83.48,"relativeDirection":"LEFT","streetName":"path","absoluteDirection":"WEST","stayOn":true,"area":false,"bogusName":true,"lon":-71.05358820000001,"lat":48.406082600000005,"elevation":[]},{"distance":141.093,"relativeDirection":"RIGHT","streetName":"service road","absoluteDirection":"NORTHWEST","stayOn":true,"area":false,"bogusName":true,"lon":-71.05470940000001,"lat":48.4059844,"elevation":[]},{"distance":124.52,"relativeDirection":"LEFT","streetName":"Boulevard Talbot","absoluteDirection":"SOUTHWEST","stayOn":false,"area":false,"bogusName":false,"lon":-71.0562666,"lat":48.4067038,"elevation":[]},{"distance":73.285,"relativeDirection":"RIGHT","streetName":"service road","absoluteDirection":"NORTHWEST","stayOn":false,"area":false,"bogusName":true,"lon":-71.0571583,"lat":48.4057532,"elevation":[]},{"distance":37.96,"relativeDirection":"LEFT","streetName":"parking aisle","absoluteDirection":"SOUTHWEST","stayOn":false,"area":false,"bogusName":false,"lon":-71.0579927,"lat":48.406108700000004,"elevation":[]}]}],"tooSloped":false},{"duration":885,"startTime":1522679081000,"endTime":1522679966000,"walkTime":696,"transitTime":187,"waitingTime":2,"walkDistance":892.0171503707722,"walkLimitExceeded":false,"elevationLost":0.0,"elevationGained":0.0,"transfers":0,"legs":[{"startTime":1522679081000,"endTime":1522679388000,"departureDelay":0,"arrivalDelay":0,"realTime":false,"distance":381.7819999999999,"pathway":false,"mode":"WALK","route":"","agencyTimeZoneOffset":-14400000,"interlineWithPreviousLeg":false,"from":{"name":"Origin","lon":-71.047031,"lat":48.405922,"departure":1522679081000,"orig":"","vertexType":"NORMAL"},"to":{"name":"Émile Girardin / Roitelets","stopId":"1:253","stopCode":"253","lon":-71.050677,"lat":48.406726,"arrival":1522679388000,"departure":1522679389000,"zoneId":"NA","stopIndex":17,"stopSequence":18,"vertexType":"TRANSIT"},"legGeometry":{"points":"mhmfH|kspLRRBHf@h@~@dAkAjDMt@Bb@FbAcCj@OTMTM`@?fACb@AK","length":16},"rentedBike":false,"transitLeg":false,"duration":307.0,"steps":[{"distance":88.12100000000001,"relativeDirection":"DEPART","streetName":"Rue Cyrille-Vaillancourt","absoluteDirection":"SOUTHWEST","stayOn":false,"area":false,"bogusName":false,"lon":-71.04718177743868,"lat":48.405990755987496,"elevation":[]},{"distance":136.063,"relativeDirection":"RIGHT","streetName":"Rue Alfred-Rouleau","absoluteDirection":"NORTHWEST","stayOn":false,"area":false,"bogusName":false,"lon":-71.0478951,"lat":48.4053594,"elevation":[]},{"distance":75.298,"relativeDirection":"RIGHT","streetName":"Rue Des Roitelets","absoluteDirection":"NORTH","stayOn":false,"area":false,"bogusName":false,"lon":-71.0495416,"lat":48.405743300000005,"elevation":[]},{"distance":38.282,"relativeDirection":"SLIGHTLY_LEFT","streetName":"link","absoluteDirection":"NORTHWEST","stayOn":false,"area":false,"bogusName":true,"lon":-71.0497612,"lat":48.4064046,"elevation":[]},{"distance":44.018,"relativeDirection":"SLIGHTLY_LEFT","streetName":"Rue Émile-Girardin","absoluteDirection":"WEST","stayOn":false,"area":false,"bogusName":false,"lon":-71.0501581,"lat":48.406621400000006,"elevation":[]}]},{"startTime":1522679389000,"endTime":1522679576000,"departureDelay":0,"arrivalDelay":0,"realTime":false,"distance":1246.9924227674242,"pathway":false,"mode":"BUS","route":"175","agencyName":"Société de Transport du Saguenay","agencyUrl":"http://ville.saguenay.ca/fr/services-aux-citoyens/transport-sts","agencyTimeZoneOffset":-14400000,"routeColor":"FF00FF","routeType":3,"routeId":"1:175","routeTextColor":"FFFFFF","interlineWithPreviousLeg":false,"tripBlockId":"7","headsign":"Costco","agencyId":"0","tripId":"1:217328","serviceDate":"20180402","from":{"name":"Émile Girardin / Roitelets","stopId":"1:253","stopCode":"253","lon":-71.050677,"lat":48.406726,"arrival":1522679388000,"departure":1522679389000,"zoneId":"NA","stopIndex":17,"stopSequence":18,"vertexType":"TRANSIT"},"to":{"name":"boul. Talbot (no. 1494) (Tim-Horton)","stopId":"1:1854","stopCode":"1854","lon":-71.060941,"lat":48.402118,"arrival":1522679576000,"departure":1522679577000,"zoneId":"NA","stopIndex":21,"stopSequence":22,"vertexType":"TRANSIT"},"legGeometry":{"points":"_lmfHhatpLr@~Gx@]PEr@ObACn@FrBb@|@Ch@Kx@U~HsB^KZ|DJpII~Fa@rFUzBi@bDUxAm@nCcAlDM^RTfD`D","length":25},"routeShortName":"175","routeLongName":"Term. Chic / Costco","rentedBike":false,"transitLeg":true,"duration":187.0,"steps":[]},{"startTime":1522679577000,"endTime":1522679966000,"departureDelay":0,"arrivalDelay":0,"realTime":false,"distance":510.075,"pathway":false,"mode":"WALK","route":"","agencyTimeZoneOffset":-14400000,"interlineWithPreviousLeg":false,"from":{"name":"boul. Talbot (no. 1494) (Tim-Horton)","stopId":"1:1854","stopCode":"1854","lon":-71.060941,"lat":48.402118,"arrival":1522679576000,"departure":1522679577000,"zoneId":"NA","stopIndex":21,"stopSequence":22,"vertexType":"TRANSIT"},"to":{"name":"Destination","lon":-71.058711,"lat":48.405991,"arrival":1522679966000,"orig":"","vertexType":"NORMAL"},"legGeometry":{"points":"}olfHhavpLgDcDWUQQkF_Fs@~B[Y{BmByAkAGE","length":10},"rentedBike":false,"transitLeg":false,"duration":389.0,"steps":[{"distance":293.522,"relativeDirection":"DEPART","streetName":"Boulevard Talbot","absoluteDirection":"NORTHEAST","stayOn":false,"area":false,"bogusName":false,"lon":-71.06084575275527,"lat":48.40207691199218,"elevation":[]},{"distance":216.553,"relativeDirection":"LEFT","streetName":"parking aisle","absoluteDirection":"NORTHWEST","stayOn":false,"area":false,"bogusName":false,"lon":-71.0587038,"lat":48.4043008,"elevation":[]}]}],"tooSloped":false},{"duration":818,"startTime":1522679484000,"endTime":1522680302000,"walkTime":788,"transitTime":28,"waitingTime":2,"walkDistance":987.4878796895074,"walkLimitExceeded":false,"elevationLost":0.0,"elevationGained":0.0,"transfers":0,"legs":[{"startTime":1522679484000,"endTime":1522679791000,"departureDelay":0,"arrivalDelay":0,"realTime":false,"distance":381.7819999999999,"pathway":false,"mode":"WALK","route":"","agencyTimeZoneOffset":-14400000,"interlineWithPreviousLeg":false,"from":{"name":"Origin","lon":-71.047031,"lat":48.405922,"departure":1522679484000,"orig":"","vertexType":"NORMAL"},"to":{"name":"Émile Girardin / Roitelets","stopId":"1:253","stopCode":"253","lon":-71.050677,"lat":48.406726,"arrival":1522679791000,"departure":1522679792000,"zoneId":"NA","stopIndex":27,"stopSequence":28,"vertexType":"TRANSIT"},"legGeometry":{"points":"mhmfH|kspLRRBHf@h@~@dAkAjDMt@Bb@FbAcCj@OTMTM`@?fACb@AK","length":16},"rentedBike":false,"transitLeg":false,"duration":307.0,"steps":[{"distance":88.12100000000001,"relativeDirection":"DEPART","streetName":"Rue Cyrille-Vaillancourt","absoluteDirection":"SOUTHWEST","stayOn":false,"area":false,"bogusName":false,"lon":-71.04718177743868,"lat":48.405990755987496,"elevation":[]},{"distance":136.063,"relativeDirection":"RIGHT","streetName":"Rue Alfred-Rouleau","absoluteDirection":"NORTHWEST","stayOn":false,"area":false,"bogusName":false,"lon":-71.0478951,"lat":48.4053594,"elevation":[]},{"distance":75.298,"relativeDirection":"RIGHT","streetName":"Rue Des Roitelets","absoluteDirection":"NORTH","stayOn":false,"area":false,"bogusName":false,"lon":-71.0495416,"lat":48.405743300000005,"elevation":[]},{"distance":38.282,"relativeDirection":"SLIGHTLY_LEFT","streetName":"link","absoluteDirection":"NORTHWEST","stayOn":false,"area":false,"bogusName":true,"lon":-71.0497612,"lat":48.4064046,"elevation":[]},{"distance":44.018,"relativeDirection":"SLIGHTLY_LEFT","streetName":"Rue Émile-Girardin","absoluteDirection":"WEST","stayOn":false,"area":false,"bogusName":false,"lon":-71.0501581,"lat":48.406621400000006,"elevation":[]}]},{"startTime":1522679792000,"endTime":1522679820000,"departureDelay":0,"arrivalDelay":0,"realTime":false,"distance":151.0801004699019,"pathway":false,"mode":"BUS","route":"12","agencyName":"Société de Transport du Saguenay","agencyUrl":"http://ville.saguenay.ca/fr/services-aux-citoyens/transport-sts","agencyTimeZoneOffset":-14400000,"routeColor":"556B2F","routeType":3,"routeId":"1:12","routeTextColor":"FFFFFF","interlineWithPreviousLeg":false,"tripBlockId":"28","headsign":"Terminus UQAC","agencyId":"0","tripId":"1:218033","serviceDate":"20180402","from":{"name":"Émile Girardin / Roitelets","stopId":"1:253","stopCode":"253","lon":-71.050677,"lat":48.406726,"arrival":1522679791000,"departure":1522679792000,"zoneId":"NA","stopIndex":27,"stopSequence":28,"vertexType":"TRANSIT"},"to":{"name":"Place du Royaume (Champs-Élysées)","stopId":"1:193","stopCode":"193","lon":-71.052659,"lat":48.407065,"arrival":1522679820000,"departure":1522679821000,"zoneId":"NA","stopIndex":28,"stopSequence":29,"vertexType":"TRANSIT"},"legGeometry":{"points":"_mmfHvatpLcAjK","length":2},"routeShortName":"12","routeLongName":"Rivière du Moulin","rentedBike":false,"transitLeg":true,"duration":28.0,"steps":[]},{"startTime":1522679821000,"endTime":1522680302000,"departureDelay":0,"arrivalDelay":0,"realTime":false,"distance":605.404,"pathway":false,"mode":"WALK","route":"","agencyTimeZoneOffset":-14400000,"interlineWithPreviousLeg":false,"from":{"name":"Place du Royaume (Champs-Élysées)","stopId":"1:193","stopCode":"193","lon":-71.052659,"lat":48.407065,"arrival":1522679820000,"departure":1522679821000,"zoneId":"NA","stopIndex":28,"stopSequence":29,"vertexType":"TRANSIT"},"to":{"name":"Destination","lon":-71.058711,"lat":48.405991,"arrival":1522680302000,"orig":"","vertexType":"NORMAL"},"legGeometry":{"points":"unmfH|ntpLQTOb@aA~Cs@pB^\\~EnEm@|B|DpDIZIVK\\]dAGNx@r@","length":15},"rentedBike":false,"transitLeg":false,"duration":481.0,"steps":[{"distance":149.249,"relativeDirection":"DEPART","streetName":"Rue des Champs-Élysées","absoluteDirection":"NORTHWEST","stayOn":false,"area":false,"bogusName":false,"lon":-71.0527883359973,"lat":48.40699779220329,"elevation":[]},{"distance":167.27,"relativeDirection":"LEFT","streetName":"parking aisle","absoluteDirection":"SOUTHWEST","stayOn":false,"area":false,"bogusName":true,"lon":-71.0544462,"lat":48.407755200000004,"elevation":[]},{"distance":53.12,"relativeDirection":"RIGHT","streetName":"service road","absoluteDirection":"NORTHWEST","stayOn":true,"area":false,"bogusName":true,"lon":-71.0556352,"lat":48.4064746,"elevation":[]},{"distance":124.52,"relativeDirection":"LEFT","streetName":"Boulevard Talbot","absoluteDirection":"SOUTHWEST","stayOn":false,"area":false,"bogusName":false,"lon":-71.0562666,"lat":48.4067038,"elevation":[]},{"distance":73.285,"relativeDirection":"RIGHT","streetName":"service road","absoluteDirection":"NORTHWEST","stayOn":false,"area":false,"bogusName":true,"lon":-71.0571583,"lat":48.4057532,"elevation":[]},{"distance":37.96,"relativeDirection":"LEFT","streetName":"parking aisle","absoluteDirection":"SOUTHWEST","stayOn":false,"area":false,"bogusName":false,"lon":-71.0579927,"lat":48.406108700000004,"elevation":[]}]}],"tooSloped":false}]},"debugOutput":{"precalculationTime":35,"pathCalculationTime":24,"pathTimes":[17,3,3],"renderingTime":0,"totalTime":59,"timedOut":false},"elevationMetadata":{"ellipsoidToGeoidDifference":-28.885904201182168,"geoidElevation":false}}