{"requestParameters":{"date":"2018/04/02","walkSpeed":"1.33","walkReluctance":"2.0","fromPlace":"48.40924,-71.05257199","maxWalkDistance":"3000","waitReluctance":"1.0","carSpeed":"33","numItineraries":"3","waitAtBeginningFactor":"0.4","mode":"TRANSIT,WALK","ignoreRealtimeUpdates":"false","stairsReluctance":"2.0","toPlace":"48.403552,-71.047884","time":"12:15:00"},"plan":{"date":1522685700000,"from":{"name":"Origin","lon":-71.05257199,"lat":48.40924,"orig":"","vertexType":"NORMAL"},"to":{"name":"Destination","lon":-71.047884,"lat":48.403552,"orig":"","vertexType":"NORMAL"},"itineraries":[{"duration":779,"startTime":1522685700000,"endTime":1522686479000,"walkTime":779,"transitTime":0,"waitingTime":0,"walkDistance":1003.5253308227979,"walkLimitExceeded":false,"elevationLost":0.0,"elevationGained":0.0,"transfers":0,"legs":[{"startTime":1522685700000,"endTime":1522686479000,"departureDelay":0,"arrivalDelay":0,"realTime":false,"distance":1003.3930000000001,"pathway":false,"mode":"WALK","route":"","agencyTimeZoneOffset":-14400000,"interlineWithPreviousLeg":false,"from":{"name":"Origin","lon":-71.05257199,"lat":48.40924,"departure":1522685700000,"orig":"","vertexType":"NORMAL"},"to":{"name":"Destination","lon":-71.047884,"lat":48.403552,"arrival":1522686479000,"orig":"","vertexType":"NORMAL"},"legGeometry":{"points":"i|mfHvltpLz@z@t@mBRMJBbAdARJLEPc@RYTGRJxAdCPUfAuAbAaA{@qEGo@AGBc@?gALa@LUNUbCk@GcACc@Lu@jAkDnAJz@AzA[h@Mb@Od@Q","length":35},"rentedBike":false,"transitLeg":false,"duration":779.0,"steps":[{"distance":301.759,"relativeDirection":"DEPART","streetName":"service road","absoluteDirection":"SOUTHWEST","stayOn":false,"area":false,"bogusName":false,"lon":-71.05243235337889,"lat":48.40917865676581,"elevation":[]},{"distance":108.804,"relativeDirection":"LEFT","streetName":"Rue des Champs-Élysées","absoluteDirection":"SOUTHEAST","stayOn":false,"area":false,"bogusName":false,"lon":-71.05289400000001,"lat":48.4070874,"elevation":[]},{"distance":145.452,"relativeDirection":"LEFT","streetName":"Rue Émile-Girardin","absoluteDirection":"NORTHEAST","stayOn":false,"area":false,"bogusName":false,"lon":-71.05202630000001,"lat":48.4062974,"elevation":[]},{"distance":38.282,"relativeDirection":"SLIGHTLY_RIGHT","streetName":"link","absoluteDirection":"SOUTHEAST","stayOn":false,"area":false,"bogusName":true,"lon":-71.0501581,"lat":48.406621400000006,"elevation":[]},{"distance":75.298,"relativeDirection":"SLIGHTLY_RIGHT","streetName":"Rue Des Roitelets","absoluteDirection":"SOUTH","stayOn":false,"area":false,"bogusName":false,"lon":-71.0497612,"lat":48.4064046,"elevation":[]},{"distance":136.063,"relativeDirection":"LEFT","streetName":"Rue Alfred-Rouleau","absoluteDirection":"EAST","stayOn":false,"area":false,"bogusName":false,"lon":-71.0495416,"lat":48.405743300000005,"elevation":[]},{"distance":197.735,"relativeDirection":"RIGHT","streetName":"Rue Cyrille-Vaillancourt","absoluteDirection":"SOUTH","stayOn":false,"area":false,"bogusName":false,"lon":-71.0478951,"lat":48.4053594,"elevation":[]}]}],"tooSloped":false},{"duration":781,"startTime":1522686186000,"endTime":1522686967000,"walkTime":731,"transitTime":48,"waitingTime":2,"walkDistance":918.9339774358335,"walkLimitExceeded":false,"elevationLost":0.0,"elevationGained":0.0,"transfers":0,"legs":[{"startTime":1522686186000,"endTime":1522686588000,"departureDelay":0,"arrivalDelay":0,"realTime":false,"distance":520.6610000000001,"pathway":false,"mode":"WALK","route":"","agencyTimeZoneOffset":-14400000,"interlineWithPreviousLeg":false,"from":{"name":"Origin","lon":-71.05257199,"lat":48.40924,"departure":1522686186000,"orig":"","vertexType":"NORMAL"},"to":{"name":"Émile Girardin / Roitelets","stopId":"1:253","stopCode":"253","lon":-71.050677,"lat":48.406726,"arrival":1522686588000,"departure":1522686589000,"zoneId":"NA","stopIndex":17,"stopSequence":18,"vertexType":"TRANSIT"},"legGeometry":{"points":"i|mfHvltpLz@z@t@mBRMJBbAdARJLEPc@RYTGRJxAdCPUfAuAbAaA{@qEGo@AGAK","length":20},"rentedBike":false,"transitLeg":false,"duration":402.0,"steps":[{"distance":301.759,"relativeDirection":"DEPART","streetName":"service road","absoluteDirection":"SOUTHWEST","stayOn":false,"area":false,"bogusName":false,"lon":-71.05243235337889,"lat":48.40917865676581,"elevation":[]},{"distance":108.804,"relativeDirection":"LEFT","streetName":"Rue des Champs-Élysées","absoluteDirection":"SOUTHEAST","stayOn":false,"area":false,"bogusName":false,"lon":-71.05289400000001,"lat":48.4070874,"elevation":[]},{"distance":110.09799999999998,"relativeDirection":"LEFT","streetName":"Rue Émile-Girardin","absoluteDirection":"NORTHEAST","stayOn":false,"area":false,"bogusName":false,"lon":-71.05202630000001,"lat":48.4062974,"elevation":[]}]},{"startTime":1522686589000,"endTime":1522686637000,"departureDelay":0,"arrivalDelay":0,"realTime":false,"distance":351.98011877399716,"pathway":false,"mode":"BUS","route":"175","agencyName":"Société de Transport du Saguenay","agencyUrl":"http://ville.saguenay.ca/fr/services-aux-citoyens/transport-sts","agencyTimeZoneOffset":-14400000,"routeColor":"FF00FF","routeType":3,"routeId":"1:175","routeTextColor":"FFFFFF","interlineWithPreviousLeg":false,"tripBlockId":"8","headsign":"Costco","agencyId":"0","tripId":"1:217368","serviceDate":"20180402","from":{"name":"Émile Girardin / Roitelets","stopId":"1:253","stopCode":"253","lon":-71.050677,"lat":48.406726,"arrival":1522686588000,"departure":1522686589000,"zoneId":"NA","stopIndex":17,"stopSequence":18,"vertexType":"TRANSIT"},"to":{"name":"Champs-Élysées (no. 1415)","stopId":"1:1925","stopCode":"1925","lon":-71.051931,"lat":48.403672,"arrival":1522686637000,"departure":1522686638000,"zoneId":"NA","stopIndex":18,"stopSequence":19,"vertexType":"TRANSIT"},"legGeometry":{"points":"_lmfHhatpLr@~Gx@]PEr@ObACn@FrBb@|@Ch@Kx@U","length":11},"routeShortName":"175","routeLongName":"Term. Chic / Costco","rentedBike":false,"transitLeg":true,"duration":48.0,"steps":[]},{"startTime":1522686638000,"endTime":1522686967000,"departureDelay":0,"arrivalDelay":0,"realTime":false,"distance":398.0319999999999,"pathway":false,"mode":"WALK","route":"","agencyTimeZoneOffset":-14400000,"interlineWithPreviousLeg":false,"from":{"name":"Champs-Élysées (no. 1415)","stopId":"1:1925","stopCode":"1925","lon":-71.051931,"lat":48.403672,"arrival":1522686637000,"departure":1522686638000,"zoneId":"NA","stopIndex":18,"stopSequence":19,"vertexType":"TRANSIT"},"to":{"name":"Destination","lon":-71.047884,"lat":48.403552,"arrival":1522686967000,"orig":"","vertexType":"NORMAL"},"legGeometry":{"points":"czlfHphtpLOFq@uHFAg@}F^KBAc@{Eh@Mb@Od@Q","length":11},"rentedBike":false,"transitLeg":false,"duration":329.0,"steps":[{"distance":9.69,"relativeDirection":"DEPART","streetName":"Rue des Champs-Élysées","absoluteDirection":"NORTH","stayOn":false,"area":false,"bogusName":false,"lon":-71.05176919271997,"lat":48.40370108692007,"elevation":[]},{"distance":321.635,"relativeDirection":"RIGHT","streetName":"path","absoluteDirection":"EAST","stayOn":false,"area":false,"bogusName":true,"lon":-71.0518035,"lat":48.4037852,"elevation":[]},{"distance":66.707,"relativeDirection":"RIGHT","streetName":"Rue Cyrille-Vaillancourt","absoluteDirection":"SOUTH","stayOn":false,"area":false,"bogusName":false,"lon":-71.04780290000001,"lat":48.4041926,"elevation":[]}]}],"tooSloped":false},{"duration":781,"startTime":1522687086000,"endTime":1522687867000,"walkTime":731,"transitTime":48,"waitingTime":2,"walkDistance":918.9339774358335,"walkLimitExceeded":false,"elevationLost":0.0,"elevationGained":0.0,"transfers":0,"legs":[{"startTime":1522687086000,"endTime":1522687488000,"departureDelay":0,"arrivalDelay":0,"realTime":false,"distance":520.6610000000001,"pathway":false,"mode":"WALK","route":"","agencyTimeZoneOffset":-14400000,"interlineWithPreviousLeg":false,"from":{"name":"Origin","lon":-71.05257199,"lat":48.40924,"departure":1522687086000,"orig":"","vertexType":"NORMAL"},"to":{"name":"Émile Girardin / Roitelets","stopId":"1:253","stopCode":"253","lon":-71.050677,"lat":48.406726,"arrival":1522687488000,"departure":1522687489000,"zoneId":"NA","stopIndex":17,"stopSequence":18,"vertexType":"TRANSIT"},"legGeometry":{"points":"i|mfHvltpLz@z@t@mBRMJBbAdARJLEPc@RYTGRJxAdCPUfAuAbAaA{@qEGo@AGAK","length":20},"rentedBike":false,"transitLeg":false,"duration":402.0,"steps":[{"distance":301.759,"relativeDirection":"DEPART","streetName":"service road","absoluteDirection":"SOUTHWEST","stayOn":false,"area":false,"bogusName":false,"lon":-71.05243235337889,"lat":48.40917865676581,"elevation":[]},{"distance":108.804,"relativeDirection":"LEFT","streetName":"Rue des Champs-Élysées","absoluteDirection":"SOUTHEAST","stayOn":false,"area":false,"bogusName":false,"lon":-71.05289400000001,"lat":48.4070874,"elevation":[]},{"distance":110.09799999999998,"relativeDirection":"LEFT","streetName":"Rue Émile-Girardin","absoluteDirection":"NORTHEAST","stayOn":false,"area":false,"bogusName":false,"lon":-71.05202630000001,"lat":48.4062974,"elevation":[]}]},{"startTime":1522687489000,"endTime":1522687537000,"departureDelay":0,"arrivalDelay":0,"realTime":false,"distance":351.98011877399716,"pathway":false,"mode":"BUS","route":"175","agencyName":"Société de Transport du Saguenay","agencyUrl":"http://ville.saguenay.ca/fr/services-aux-citoyens/transport-sts","agencyTimeZoneOffset":-14400000,"routeColor":"FF00FF","routeType":3,"routeId":"1:175","routeTextColor":"FFFFFF","interlineWithPreviousLeg":false,"tripBlockId":"81","headsign":"Costco","agencyId":"0","tripId":"1:218660","serviceDate":"20180402","from":{"name":"Émile Girardin / Roitelets","stopId":"1:253","stopCode":"253","lon":-71.050677,"lat":48.406726,"arrival":1522687488000,"departure":1522687489000,"zoneId":"NA","stopIndex":17,"stopSequence":18,"vertexType":"TRANSIT"},"to":{"name":"Champs-Élysées (no. 1415)","stopId":"1:1925","stopCode":"1925","lon":-71.051931,"lat":48.403672,"arrival":1522687537000,"departure":1522687538000,"zoneId":"NA","stopIndex":18,"stopSequence":19,"vertexType":"TRANSIT"},"legGeometry":{"points":"_lmfHhatpLr@~Gx@]PEr@ObACn@FrBb@|@Ch@Kx@U","length":11},"routeShortName":"175","routeLongName":"Term. Chic / Costco","rentedBike":false,"transitLeg":true,"duration":48.0,"steps":[]},{"startTime":1522687538000,"endTime":1522687867000,"departureDelay":0,"arrivalDelay":0,"realTime":false,"distance":398.0319999999999,"pathway":false,"mode":"WALK","route":"","agencyTimeZoneOffset":-14400000,"interlineWithPreviousLeg":false,"from":{"name":"Champs-Élysées (no. 1415)","stopId":"1:1925","stopCode":"1925","lon":-71.051931,"lat":48.403672,"arrival":1522687537000,"departure":1522687538000,"zoneId":"NA","stopIndex":18,"stopSequence":19,"vertexType":"TRANSIT"},"to":{"name":"Destination","lon":-71.047884,"lat":48.403552,"arrival":1522687867000,"orig":"","vertexType":"NORMAL"},"legGeometry":{"points":"czlfHphtpLOFq@uHFAg@}F^KBAc@{Eh@Mb@Od@Q","length":11},"rentedBike":false,"transitLeg":false,"duration":329.0,"steps":[{"distance":9.69,"relativeDirection":"DEPART","streetName":"Rue des Champs-Élysées","absoluteDirection":"NORTH","stayOn":false,"area":false,"bogusName":false,"lon":-71.05176919271997,"lat":48.40370108692007,"elevation":[]},{"distance":321.635,"relativeDirection":"RIGHT","streetName":"path","absoluteDirection":"EAST","stayOn":false,"area":false,"bogusName":true,"lon":-71.0518035,"lat":48.4037852,"elevation":[]},{"distance":66.707,"relativeDirection":"RIGHT","streetName":"Rue Cyrille-Vaillancourt","absoluteDirection":"SOUTH","stayOn":false,"area":false,"bogusName":false,"lon":-71.04780290000001,"lat":48.4041926,"elevation":[]}]}],"tooSloped":false}]},"debugOutput":{"precalculationTime":35,"pathCalculationTime":25,"pathTimes":[15,4,6],"renderingTime":0,"totalTime":60,"timedOut":false},"elevationMetadata":{"ellipsoidToGeoidDifference":-28.885904201182168,"geoidElevation":false}}