{"requestParameters":{"date":"2018/04/02","walkSpeed":"1.33","walkReluctance":"2.0","fromPlace":"48.404797,-71.047249","maxWalkDistance":"3000","waitReluctance":"1.0","carSpeed":"33","numItineraries":"3","waitAtBeginningFactor":"0.4","mode":"TRANSIT,WALK","ignoreRealtimeUpdates":"false","stairsReluctance":"2.0","toPlace":"48.425998,-71.06900299","time":"19:10:00"},"plan":{"date":1522710600000,"from":{"name":"Origin","lon":-71.047249,"lat":48.404797,"orig":"","vertexType":"NORMAL"},"to":{"name":"Destination","lon":-71.06900299,"lat":48.425998,"orig":"","vertexType":"NORMAL"},"itineraries":[{"duration":1467,"startTime":1522710869000,"endTime":1522712336000,"walkTime":957,"transitTime":508,"waitingTime":2,"walkDistance":1201.5136691610685,"walkLimitExceeded":false,"elevationLost":0.0,"elevationGained":0.0,"transfers":1,"legs":[{"startTime":1522710869000,"endTime":1522711684000,"departureDelay":0,"arrivalDelay":0,"realTime":false,"distance":1026.58,"pathway":false,"mode":"WALK","route":"","agencyTimeZoneOffset":-14400000,"interlineWithPreviousLeg":false,"from":{"name":"Origin","lon":-71.047249,"lat":48.404797,"departure":1522710869000,"orig":"","vertexType":"NORMAL"},"to":{"name":"boul. Université / Murdock","stopId":"1:59","stopCode":"59","lon":-71.049971,"lat":48.411755,"arrival":1522711684000,"departure":1522711685000,"zoneId":"NA","stopIndex":52,"stopSequence":53,"vertexType":"TRANSIT"},"legGeometry":{"points":"_amfHjjspLI@s@CWQQQeA~Cg@i@{BdGW\\Y@gFmCsDmBu@dEqAq@GCk@Y_Bw@KEe@JYLa@n@G^yBdHWQ[|@","length":25},"rentedBike":false,"transitLeg":false,"duration":815.0,"steps":[{"distance":60.863,"relativeDirection":"DEPART","streetName":"Rue Adélard-Plourde","absoluteDirection":"NORTH","stayOn":false,"area":false,"bogusName":false,"lon":-71.04693744031123,"lat":48.40480751465251,"elevation":[]},{"distance":71.468,"relativeDirection":"LEFT","streetName":"path","absoluteDirection":"NORTHWEST","stayOn":false,"area":false,"bogusName":true,"lon":-71.0467419,"lat":48.4053212,"elevation":[]},{"distance":26.797,"relativeDirection":"RIGHT","streetName":"Rue Cyrille-Vaillancourt","absoluteDirection":"NORTHEAST","stayOn":false,"area":false,"bogusName":false,"lon":-71.0475488,"lat":48.405676400000004,"elevation":[]},{"distance":398.394,"relativeDirection":"LEFT","streetName":"Rue Joseph-Dandurand","absoluteDirection":"NORTHWEST","stayOn":false,"area":false,"bogusName":false,"lon":-71.0473357,"lat":48.4058715,"elevation":[]},{"distance":78.536,"relativeDirection":"LEFT","streetName":"Rue Gaudiose-Brassard","absoluteDirection":"WEST","stayOn":false,"area":false,"bogusName":false,"lon":-71.0475432,"lat":48.408809500000004,"elevation":[]},{"distance":144.314,"relativeDirection":"RIGHT","streetName":"Rue Des Roitelets","absoluteDirection":"NORTH","stayOn":false,"area":false,"bogusName":false,"lon":-71.0485302,"lat":48.4090733,"elevation":[]},{"distance":62.949,"relativeDirection":"SLIGHTLY_LEFT","streetName":"link","absoluteDirection":"NORTH","stayOn":false,"area":false,"bogusName":true,"lon":-71.0478246,"lat":48.4102837,"elevation":[]},{"distance":183.259,"relativeDirection":"SLIGHTLY_LEFT","streetName":"Boulevard de l'Université","absoluteDirection":"NORTHWEST","stayOn":false,"area":false,"bogusName":false,"lon":-71.04819570000001,"lat":48.410774100000005,"elevation":[]}]},{"startTime":1522711685000,"endTime":1522711860000,"departureDelay":0,"arrivalDelay":0,"realTime":false,"distance":1932.01022389847,"pathway":false,"mode":"BUS","route":"6","agencyName":"Société de Transport du Saguenay","agencyUrl":"http://ville.saguenay.ca/fr/services-aux-citoyens/transport-sts","agencyTimeZoneOffset":-14400000,"routeColor":"FF0000","routeType":3,"routeId":"1:6","routeTextColor":"FFFFFF","interlineWithPreviousLeg":false,"tripBlockId":"25","headsign":"Terminus UQAC","agencyId":"0","tripId":"1:217952","serviceDate":"20180402","from":{"name":"boul. Université / Murdock","stopId":"1:59","stopCode":"59","lon":-71.049971,"lat":48.411755,"arrival":1522711684000,"departure":1522711685000,"zoneId":"NA","stopIndex":52,"stopSequence":53,"vertexType":"TRANSIT"},"to":{"name":"Terminus UQAC","stopId":"1:1670","stopCode":"1670","lon":-71.053369,"lat":48.420903,"arrival":1522711860000,"departure":1522711860000,"zoneId":"NA","stopIndex":57,"stopSequence":58,"vertexType":"TRANSIT"},"legGeometry":{"points":"qknfHn~spLeBlDuAxDyAxCyApAqANkABgAL{An@g@VYZy@x@aAr@qBnBqBxAsCdCqAfAqBtAgHfHoBzGwEmEu@s@wAqA}B{B]_@ZoAXc@z@{@XkADsAIs@e@gED{@nDqLdBfBxAzAQp@z@~@","length":38},"routeShortName":"6","routeLongName":"Term. Chic/Term. Baie via ch.Plateau","rentedBike":false,"transitLeg":true,"duration":175.0,"steps":[]},{"startTime":1522711860000,"endTime":1522712193000,"departureDelay":0,"arrivalDelay":0,"realTime":false,"distance":1633.9851990581458,"pathway":false,"mode":"BUS","route":"15","agencyName":"Société de Transport du Saguenay","agencyUrl":"http://ville.saguenay.ca/fr/services-aux-citoyens/transport-sts","agencyTimeZoneOffset":-14400000,"routeColor":"FF00FF","routeType":3,"routeId":"1:15","routeTextColor":"FFFFFF","interlineWithPreviousLeg":false,"tripBlockId":"30","headsign":"Terminus Chicoutimi","agencyId":"0","tripId":"1:218112","serviceDate":"20180402","from":{"name":"Terminus UQAC","stopId":"1:1670","stopCode":"1670","lon":-71.053369,"lat":48.420903,"arrival":1522711860000,"departure":1522711860000,"zoneId":"NA","stopIndex":29,"stopSequence":30,"vertexType":"TRANSIT"},"to":{"name":"Jacques-Cartier / Tessier","stopId":"1:62","stopCode":"62","lon":-71.067531,"lat":48.426736,"arrival":1522712193000,"departure":1522712194000,"zoneId":"NA","stopIndex":37,"stopSequence":38,"vertexType":"TRANSIT"},"legGeometry":{"points":"sepfHprtpLy@w@L{@wAuA_B_B_EpLDh@NbBVvCIxBg@`Am@l@Sb@a@rAqDqDmEkE]a@kAqAU|@WnKG|DGxDOdPKvJU|F?XQlJC~@ChA","length":29},"routeShortName":"15","routeLongName":"Term. Chic / Costco","rentedBike":false,"transitLeg":true,"duration":333.0,"steps":[]},{"startTime":1522712194000,"endTime":1522712336000,"departureDelay":0,"arrivalDelay":0,"realTime":false,"distance":174.566,"pathway":false,"mode":"WALK","route":"","agencyTimeZoneOffset":-14400000,"interlineWithPreviousLeg":false,"from":{"name":"Jacques-Cartier / Tessier","stopId":"1:62","stopCode":"62","lon":-71.067531,"lat":48.426736,"arrival":1522712193000,"departure":1522712194000,"zoneId":"NA","stopIndex":37,"stopSequence":38,"vertexType":"TRANSIT"},"to":{"name":"Destination","lon":-71.06900299,"lat":48.425998,"arrival":1522712336000,"orig":"","vertexType":"NORMAL"},"legGeometry":{"points":"uiqfHbkwpLEnBC~AhAHz@FE~@","length":6},"rentedBike":false,"transitLeg":false,"duration":142.0,"steps":[{"distance":76.392,"relativeDirection":"DEPART","streetName":"Rue Jacques-Cartier Est","absoluteDirection":"WEST","stayOn":false,"area":false,"bogusName":false,"lon":-71.0675380239516,"lat":48.42667414840684,"elevation":[]},{"distance":74.125,"relativeDirection":"LEFT","streetName":"Rue Sainte-Anne","absoluteDirection":"SOUTH","stayOn":false,"area":false,"bogusName":false,"lon":-71.0685709,"lat":48.426721,"elevation":[]},{"distance":24.049,"relativeDirection":"RIGHT","streetName":"alley","absoluteDirection":"WEST","stayOn":false,"area":false,"bogusName":false,"lon":-71.06866330000001,"lat":48.4260572,"elevation":[]}]}],"tooSloped":false},{"duration":2154,"startTime":1522710667000,"endTime":1522712821000,"walkTime":1252,"transitTime":900,"waitingTime":2,"walkDistance":1563.9703533676043,"walkLimitExceeded":false,"elevationLost":0.0,"elevationGained":0.0,"transfers":0,"legs":[{"startTime":1522710667000,"endTime":1522711499000,"departureDelay":0,"arrivalDelay":0,"realTime":false,"distance":1029.606,"pathway":false,"mode":"WALK","route":"","agencyTimeZoneOffset":-14400000,"interlineWithPreviousLeg":false,"from":{"name":"Origin","lon":-71.047249,"lat":48.404797,"departure":1522710667000,"orig":"","vertexType":"NORMAL"},"to":{"name":"Place Royaume","stopId":"1:1801","stopCode":"1801","lon":-71.057017,"lat":48.405588,"arrival":1522711499000,"departure":1522711500000,"zoneId":"NA","stopIndex":10,"stopSequence":11,"vertexType":"TRANSIT"},"legGeometry":{"points":"_amfHjjspL`@A^IjAWTDJTVvCc@Ni@Lb@zEC@_@Jf@|FG@p@tHe@L@zA]DSIq@zB{CfKVVN\\?p@c@~AXTq@tBa@zA","length":28},"rentedBike":false,"transitLeg":false,"duration":832.0,"steps":[{"distance":161.451,"relativeDirection":"DEPART","streetName":"Rue Adélard-Plourde","absoluteDirection":"SOUTH","stayOn":false,"area":false,"bogusName":false,"lon":-71.04693744031123,"lat":48.40480751465251,"elevation":[]},{"distance":44.746,"relativeDirection":"RIGHT","streetName":"Rue Cyrille-Vaillancourt","absoluteDirection":"NORTH","stayOn":false,"area":false,"bogusName":false,"lon":-71.04765300000001,"lat":48.403803200000006,"elevation":[]},{"distance":321.635,"relativeDirection":"LEFT","streetName":"path","absoluteDirection":"WEST","stayOn":false,"area":false,"bogusName":true,"lon":-71.04780290000001,"lat":48.4041926,"elevation":[]},{"distance":21.413,"relativeDirection":"RIGHT","streetName":"Rue des Champs-Élysées","absoluteDirection":"NORTH","stayOn":false,"area":false,"bogusName":false,"lon":-71.0518035,"lat":48.4037852,"elevation":[]},{"distance":284.65700000000004,"relativeDirection":"LEFT","streetName":"parking aisle","absoluteDirection":"WEST","stayOn":false,"area":false,"bogusName":true,"lon":-71.0518792,"lat":48.4039711,"elevation":[]},{"distance":105.386,"relativeDirection":"LEFT","streetName":"service road","absoluteDirection":"SOUTHWEST","stayOn":true,"area":false,"bogusName":true,"lon":-71.054893,"lat":48.4052475,"elevation":[]},{"distance":90.318,"relativeDirection":"RIGHT","streetName":"parking aisle","absoluteDirection":"NORTHWEST","stayOn":true,"area":false,"bogusName":true,"lon":-71.05600720000001,"lat":48.4050992,"elevation":[]}]},{"startTime":1522711500000,"endTime":1522712400000,"departureDelay":0,"arrivalDelay":0,"realTime":false,"distance":4188.036446582453,"pathway":false,"mode":"BUS","route":"175","agencyName":"Société de Transport du Saguenay","agencyUrl":"http://ville.saguenay.ca/fr/services-aux-citoyens/transport-sts","agencyTimeZoneOffset":-14400000,"routeColor":"FF00FF","routeType":3,"routeId":"1:175","routeTextColor":"FFFFFF","interlineWithPreviousLeg":false,"tripBlockId":"9","headsign":"Terminus Chicoutimi","agencyId":"0","tripId":"1:217417","serviceDate":"20180402","from":{"name":"Place Royaume","stopId":"1:1801","stopCode":"1801","lon":-71.057017,"lat":48.405588,"arrival":1522711499000,"departure":1522711500000,"zoneId":"NA","stopIndex":10,"stopSequence":11,"vertexType":"TRANSIT"},"to":{"name":"Terminus Chicoutimi","stopId":"1:1289","stopCode":"1289","lon":-71.066163,"lat":48.428677,"arrival":1522712400000,"departure":1522712401000,"zoneId":"NA","stopIndex":27,"stopSequence":28,"vertexType":"TRANSIT"},"legGeometry":{"points":"sfmfH`kupL_U_TcNgNcBcB{E`Jc@x@qG~@{BlAk@XgSrQqB_GAeFiEeEOt@gAeA_A_ATm@yAwAgBeBqDnL@nBF`@f@|C[dCuAfB]xAs@OmCmCmEkE]a@g@i@ZiGTmEl@oLaEe@cFk@?pH?tJDvBPjMB~Bo@PQDRbFKdGMhIOvIK|EQpHoCQEdC","length":51},"routeShortName":"175","routeLongName":"Term. Chic / Costco","rentedBike":false,"transitLeg":true,"duration":900.0,"steps":[]},{"startTime":1522712401000,"endTime":1522712821000,"departureDelay":0,"arrivalDelay":0,"realTime":false,"distance":533.873,"pathway":false,"mode":"WALK","route":"","agencyTimeZoneOffset":-14400000,"interlineWithPreviousLeg":false,"from":{"name":"Terminus Chicoutimi","stopId":"1:1289","stopCode":"1289","lon":-71.066163,"lat":48.428677,"arrival":1522712400000,"departure":1522712401000,"zoneId":"NA","stopIndex":27,"stopSequence":28,"vertexType":"TRANSIT"},"to":{"name":"Destination","lon":-71.06900299,"lat":48.425998,"arrival":1522712821000,"orig":"","vertexType":"NORMAL"},"legGeometry":{"points":"{uqfHb~vpLbAJR@JDb@LrBHP@jCPKdEH@hAJp@FQdJE~@","length":14},"rentedBike":false,"transitLeg":false,"duration":420.0,"steps":[{"distance":229.71300000000002,"relativeDirection":"DEPART","streetName":"Rue Morin","absoluteDirection":"SOUTH","stayOn":false,"area":false,"bogusName":false,"lon":-71.0654590096484,"lat":48.428628638946556,"elevation":[]},{"distance":73.11,"relativeDirection":"RIGHT","streetName":"Rue Jacques-Cartier Est","absoluteDirection":"WEST","stayOn":false,"area":false,"bogusName":false,"lon":-71.0657774,"lat":48.426577300000005,"elevation":[]},{"distance":74.444,"relativeDirection":"LEFT","streetName":"Rue Lemieux","absoluteDirection":"SOUTH","stayOn":false,"area":false,"bogusName":false,"lon":-71.0667645,"lat":48.4266343,"elevation":[]},{"distance":132.557,"relativeDirection":"RIGHT","streetName":"Rue Blanchette","absoluteDirection":"WEST","stayOn":false,"area":false,"bogusName":false,"lon":-71.0668718,"lat":48.425968600000004,"elevation":[]},{"distance":24.049,"relativeDirection":"CONTINUE","streetName":"alley","absoluteDirection":"WEST","stayOn":false,"area":false,"bogusName":false,"lon":-71.06866330000001,"lat":48.4260572,"elevation":[]}]}],"tooSloped":false},{"duration":2087,"startTime":1522710794000,"endTime":1522712881000,"walkTime":794,"transitTime":1291,"waitingTime":2,"walkDistance":1002.2808947285204,"walkLimitExceeded":false,"elevationLost":0.0,"elevationGained":0.0,"transfers":0,"legs":[{"startTime":1522710794000,"endTime":1522711168000,"departureDelay":0,"arrivalDelay":0,"realTime":false,"distance":468.15,"pathway":false,"mode":"WALK","route":"","agencyTimeZoneOffset":-14400000,"interlineWithPreviousLeg":false,"from":{"name":"Origin","lon":-71.047249,"lat":48.404797,"departure":1522710794000,"orig":"","vertexType":"NORMAL"},"to":{"name":"Émile-Girardin / Roitelets","stopId":"1:268","stopCode":"268","lon":-71.050698,"lat":48.406546,"arrival":1522711168000,"departure":1522711169000,"zoneId":"NA","stopIndex":14,"stopSequence":15,"vertexType":"TRANSIT"},"legGeometry":{"points":"_amfHjjspLI@s@CWQQQeA~C~@dAkAjDMt@Bb@FbAcCj@OTMTM`@?fACb@@F","length":18},"rentedBike":false,"transitLeg":false,"duration":374.0,"steps":[{"distance":60.863,"relativeDirection":"DEPART","streetName":"Rue Adélard-Plourde","absoluteDirection":"NORTH","stayOn":false,"area":false,"bogusName":false,"lon":-71.04693744031123,"lat":48.40480751465251,"elevation":[]},{"distance":71.468,"relativeDirection":"LEFT","streetName":"path","absoluteDirection":"NORTHWEST","stayOn":false,"area":false,"bogusName":true,"lon":-71.0467419,"lat":48.4053212,"elevation":[]},{"distance":43.542,"relativeDirection":"LEFT","streetName":"Rue Cyrille-Vaillancourt","absoluteDirection":"SOUTHWEST","stayOn":false,"area":false,"bogusName":false,"lon":-71.0475488,"lat":48.405676400000004,"elevation":[]},{"distance":136.063,"relativeDirection":"RIGHT","streetName":"Rue Alfred-Rouleau","absoluteDirection":"NORTHWEST","stayOn":false,"area":false,"bogusName":false,"lon":-71.0478951,"lat":48.4053594,"elevation":[]},{"distance":75.298,"relativeDirection":"RIGHT","streetName":"Rue Des Roitelets","absoluteDirection":"NORTH","stayOn":false,"area":false,"bogusName":false,"lon":-71.0495416,"lat":48.405743300000005,"elevation":[]},{"distance":38.282,"relativeDirection":"SLIGHTLY_LEFT","streetName":"link","absoluteDirection":"NORTHWEST","stayOn":false,"area":false,"bogusName":true,"lon":-71.0497612,"lat":48.4064046,"elevation":[]},{"distance":42.634,"relativeDirection":"SLIGHTLY_LEFT","streetName":"Rue Émile-Girardin","absoluteDirection":"WEST","stayOn":false,"area":false,"bogusName":false,"lon":-71.0501581,"lat":48.406621400000006,"elevation":[]}]},{"startTime":1522711169000,"endTime":1522712460000,"departureDelay":0,"arrivalDelay":0,"realTime":false,"distance":8061.467510349102,"pathway":false,"mode":"BUS","route":"12","agencyName":"Société de Transport du Saguenay","agencyUrl":"http://ville.saguenay.ca/fr/services-aux-citoyens/transport-sts","agencyTimeZoneOffset":-14400000,"routeColor":"556B2F","routeType":3,"routeId":"1:12","routeTextColor":"FFFFFF","interlineWithPreviousLeg":false,"tripBlockId":"26","headsign":"Terminus Chicoutimi","agencyId":"0","tripId":"1:217989","serviceDate":"20180402","from":{"name":"Émile-Girardin / Roitelets","stopId":"1:268","stopCode":"268","lon":-71.050698,"lat":48.406546,"arrival":1522711168000,"departure":1522711169000,"zoneId":"NA","stopIndex":14,"stopSequence":15,"vertexType":"TRANSIT"},"to":{"name":"Terminus Chicoutimi","stopId":"1:1289","stopCode":"1289","lon":-71.066163,"lat":48.428677,"arrival":1522712460000,"departure":1522712461000,"zoneId":"NA","stopIndex":33,"stopSequence":34,"vertexType":"TRANSIT"},"legGeometry":{"points":"ukmfHxatpLYkD}CyA}KmFgD_BgAgBn@kFD_NoIgrAmD_WcAaLaDHoDJi`@wVoAbDbA|AnBU|B|AfBlAyLtKoGxFcFqDkJaHgEoDmDwC_TqQsBeB{HjWfAvAfM|O|FlHmB`IgA|Cy@`UYzHZvMR~Hr@~ZPvHsCrMFxf@|ApJj@nDDl]BvZdCXJhC","length":47},"routeShortName":"12","routeLongName":"Rivière du Moulin","rentedBike":false,"transitLeg":true,"duration":1291.0,"steps":[]},{"startTime":1522712461000,"endTime":1522712881000,"departureDelay":0,"arrivalDelay":0,"realTime":false,"distance":533.873,"pathway":false,"mode":"WALK","route":"","agencyTimeZoneOffset":-14400000,"interlineWithPreviousLeg":false,"from":{"name":"Terminus Chicoutimi","stopId":"1:1289","stopCode":"1289","lon":-71.066163,"lat":48.428677,"arrival":1522712460000,"departure":1522712461000,"zoneId":"NA","stopIndex":33,"stopSequence":34,"vertexType":"TRANSIT"},"to":{"name":"Destination","lon":-71.06900299,"lat":48.425998,"arrival":1522712881000,"orig":"","vertexType":"NORMAL"},"legGeometry":{"points":"{uqfHb~vpLbAJR@JDb@LrBHP@jCPKdEH@hAJp@FQdJE~@","length":14},"rentedBike":false,"transitLeg":false,"duration":420.0,"steps":[{"distance":229.71300000000002,"relativeDirection":"DEPART","streetName":"Rue Morin","absoluteDirection":"SOUTH","stayOn":false,"area":false,"bogusName":false,"lon":-71.0654590096484,"lat":48.428628638946556,"elevation":[]},{"distance":73.11,"relativeDirection":"RIGHT","streetName":"Rue Jacques-Cartier Est","absoluteDirection":"WEST","stayOn":false,"area":false,"bogusName":false,"lon":-71.0657774,"lat":48.426577300000005,"elevation":[]},{"distance":74.444,"relativeDirection":"LEFT","streetName":"Rue Lemieux","absoluteDirection":"SOUTH","stayOn":false,"area":false,"bogusName":false,"lon":-71.0667645,"lat":48.4266343,"elevation":[]},{"distance":132.557,"relativeDirection":"RIGHT","streetName":"Rue Blanchette","absoluteDirection":"WEST","stayOn":false,"area":false,"bogusName":false,"lon":-71.0668718,"lat":48.425968600000004,"elevation":[]},{"distance":24.049,"relativeDirection":"CONTINUE","streetName":"alley","absoluteDirection":"WEST","stayOn":false,"area":false,"bogusName":false,"lon":-71.06866330000001,"lat":48.4260572,"elevation":[]}]}],"tooSloped":false}]},"debugOutput":{"precalculationTime":37,"pathCalculationTime":33,"pathTimes":[19,7,7],"renderingTime":0,"totalTime":70,"timedOut":false},"elevationMetadata":{"ellipsoidToGeoidDifference":-28.885904201182168,"geoidElevation":false}}