{"requestParameters":{"date":"2018/04/02","walkSpeed":"1.33","walkReluctance":"2.0","fromPlace":"48.408457,-71.08385599","maxWalkDistance":"3000","waitReluctance":"1.0","carSpeed":"33","numItineraries":"3","waitAtBeginningFactor":"0.4","mode":"TRANSIT,WALK","ignoreRealtimeUpdates":"false","stairsReluctance":"2.0","toPlace":"48.405549,-71.046666","time":"19:0:00"},"plan":{"date":1522710000000,"from":{"name":"Origin","lon":-71.08385599,"lat":48.408457,"orig":"","vertexType":"NORMAL"},"to":{"name":"Destination","lon":-71.046666,"lat":48.405549,"orig":"","vertexType":"NORMAL"},"itineraries":[{"duration":2054,"startTime":1522710855000,"endTime":1522712909000,"walkTime":1620,"transitTime":432,"waitingTime":2,"walkDistance":2103.094165406558,"walkLimitExceeded":false,"elevationLost":0.0,"elevationGained":0.0,"transfers":0,"legs":[{"startTime":1522710855000,"endTime":1522711843000,"departureDelay":0,"arrivalDelay":0,"realTime":false,"distance":1287.222,"pathway":false,"mode":"WALK","route":"","agencyTimeZoneOffset":-14400000,"interlineWithPreviousLeg":false,"from":{"name":"Origin","lon":-71.08385599,"lat":48.408457,"departure":1522710855000,"orig":"","vertexType":"NORMAL"},"to":{"name":"Angoulême / Bégin","stopId":"1:536","stopCode":"536","lon":-71.073862,"lat":48.405153,"arrival":1522711843000,"departure":1522711844000,"zoneId":"NA","stopIndex":18,"stopSequence":19,"vertexType":"TRANSIT"},"legGeometry":{"points":"yqmfHxvzpLHp@ZP\\KTc@n@oDCk@qC}G_AkA_A{@_@IAi@Ha@^Uf@KvA?XEJ]Nk@Nm@rCr@XeA??xEqQVaAVcAFg@??TqC_AYWYYeAGoGr@I","length":34},"rentedBike":false,"transitLeg":false,"duration":988.0,"steps":[{"distance":582.483,"relativeDirection":"DEPART","streetName":"Rue du Mont-Sainte-Claire","absoluteDirection":"WEST","stayOn":false,"area":false,"bogusName":false,"lon":-71.08476250000001,"lat":48.4074949,"elevation":[]},{"distance":84.402,"relativeDirection":"RIGHT","streetName":"Rue Jolliet","absoluteDirection":"SOUTH","stayOn":false,"area":false,"bogusName":false,"lon":-71.0804282,"lat":48.407166000000004,"elevation":[]},{"distance":407.434,"relativeDirection":"LEFT","streetName":"Rue Ballantyne","absoluteDirection":"SOUTHEAST","stayOn":false,"area":false,"bogusName":false,"lon":-71.08068800000001,"lat":48.406426800000006,"elevation":[]},{"distance":183.368,"relativeDirection":"LEFT","streetName":"Rue Garon","absoluteDirection":"NORTH","stayOn":false,"area":false,"bogusName":false,"lon":-71.0757641,"lat":48.404816700000005,"elevation":[]},{"distance":29.535,"relativeDirection":"RIGHT","streetName":"Rue d'Angoulème","absoluteDirection":"SOUTH","stayOn":false,"area":false,"bogusName":false,"lon":-71.0737922,"lat":48.405425300000005,"elevation":[]}]},{"startTime":1522711844000,"endTime":1522712276000,"departureDelay":0,"arrivalDelay":0,"realTime":false,"distance":2010.652962713768,"pathway":false,"mode":"BUS","route":"15","agencyName":"Société de Transport du Saguenay","agencyUrl":"http://ville.saguenay.ca/fr/services-aux-citoyens/transport-sts","agencyTimeZoneOffset":-14400000,"routeColor":"FF00FF","routeType":3,"routeId":"1:15","routeTextColor":"FFFFFF","interlineWithPreviousLeg":false,"tripBlockId":"33","headsign":"Talbot / Barrette","agencyId":"0","tripId":"1:218197","serviceDate":"20180402","from":{"name":"Angoulême / Bégin","stopId":"1:536","stopCode":"536","lon":-71.073862,"lat":48.405153,"arrival":1522711843000,"departure":1522711844000,"zoneId":"NA","stopIndex":18,"stopSequence":19,"vertexType":"TRANSIT"},"to":{"name":"Engoulevents / Sternes","stopId":"1:1568","stopCode":"1568","lon":-71.050864,"lat":48.400594,"arrival":1522712276000,"departure":1522712277000,"zoneId":"NA","stopIndex":25,"stopSequence":26,"vertexType":"TRANSIT"},"legGeometry":{"points":"mbmfHtoxpLrB`AM}@hAwEC{B]oBiBmBsH_@_K{H`EgIvCaGfEoItDsH~DeItC{FnBoLbCaO?qLa@uJzF`A","length":20},"routeShortName":"15","routeLongName":"Term. Chic / Costco","rentedBike":false,"transitLeg":true,"duration":432.0,"steps":[]},{"startTime":1522712277000,"endTime":1522712909000,"departureDelay":0,"arrivalDelay":0,"realTime":false,"distance":815.6560000000001,"pathway":false,"mode":"WALK","route":"","agencyTimeZoneOffset":-14400000,"interlineWithPreviousLeg":false,"from":{"name":"Engoulevents / Sternes","stopId":"1:1568","stopCode":"1568","lon":-71.050864,"lat":48.400594,"arrival":1522712276000,"departure":1522712277000,"zoneId":"NA","stopIndex":25,"stopSequence":26,"vertexType":"TRANSIT"},"to":{"name":"Destination","lon":-71.046666,"lat":48.405549,"arrival":1522712909000,"orig":"","vertexType":"NORMAL"},"legGeometry":{"points":"uflfHjctpLA?}@Eg@E}ANq@TY{Cm@kEg@qDSWCSk@cEuE~AWwCKUUEkAV_@Hk@Bs@CWQQQSWMO","length":24},"rentedBike":false,"transitLeg":false,"duration":632.0,"steps":[{"distance":139.316,"relativeDirection":"DEPART","streetName":"Rue des Engoulevents","absoluteDirection":"NORTH","stayOn":false,"area":false,"bogusName":false,"lon":-71.05093708693188,"lat":48.40059768260656,"elevation":[]},{"distance":306.187,"relativeDirection":"RIGHT","streetName":"Rue des Saguenéens","absoluteDirection":"EAST","stayOn":false,"area":false,"bogusName":false,"lon":-71.0510608,"lat":48.401836200000005,"elevation":[]},{"distance":123.88,"relativeDirection":"LEFT","streetName":"Rue Cyrille-Vaillancourt","absoluteDirection":"NORTH","stayOn":false,"area":false,"bogusName":false,"lon":-71.04717790000001,"lat":48.4027347,"elevation":[]},{"distance":246.273,"relativeDirection":"RIGHT","streetName":"Rue Adélard-Plourde","absoluteDirection":"EAST","stayOn":false,"area":false,"bogusName":false,"lon":-71.04765300000001,"lat":48.403803200000006,"elevation":[]}]}],"tooSloped":false},{"duration":2422,"startTime":1522710892000,"endTime":1522713314000,"walkTime":2151,"transitTime":269,"waitingTime":2,"walkDistance":2784.781315778944,"walkLimitExceeded":false,"elevationLost":0.0,"elevationGained":0.0,"transfers":0,"legs":[{"startTime":1522710892000,"endTime":1522712699000,"departureDelay":0,"arrivalDelay":0,"realTime":false,"distance":2353.2400000000002,"pathway":false,"mode":"WALK","route":"","agencyTimeZoneOffset":-14400000,"interlineWithPreviousLeg":false,"from":{"name":"Origin","lon":-71.08385599,"lat":48.408457,"departure":1522710892000,"orig":"","vertexType":"NORMAL"},"to":{"name":"Champs-Élysées / Bégin","stopId":"1:566","stopCode":"566","lon":-71.064237,"lat":48.415762,"arrival":1522712699000,"departure":1522712700000,"zoneId":"NA","stopIndex":7,"stopSequence":8,"vertexType":"TRANSIT"},"legGeometry":{"points":"yqmfHxvzpLHp@ZP\\KTc@n@oDCk@qC}G_AkA_A{@_@IAi@Ha@^Uf@KvA?XEJ]Nk@Nm@ICMCyE}CWQ_@k@CEoAkBqEkEAAUUeCyBi@g@kBkBQyBa@sF_@kFASkEoIuBeE{BuEb@kAh@yA|AiEHQ_BwBsCqCw@w@CCGGsCqCMOo@m@j@kB","length":53},"rentedBike":false,"transitLeg":false,"duration":1807.0,"steps":[{"distance":582.483,"relativeDirection":"DEPART","streetName":"Rue du Mont-Sainte-Claire","absoluteDirection":"WEST","stayOn":false,"area":false,"bogusName":false,"lon":-71.08476250000001,"lat":48.4074949,"elevation":[]},{"distance":1197.366,"relativeDirection":"LEFT","streetName":"Rue Jolliet","absoluteDirection":"NORTH","stayOn":false,"area":false,"bogusName":false,"lon":-71.0804282,"lat":48.407166000000004,"elevation":[]},{"distance":174.902,"relativeDirection":"RIGHT","streetName":"Rue Des Oblats Est","absoluteDirection":"SOUTHEAST","stayOn":false,"area":false,"bogusName":false,"lon":-71.0693767,"lat":48.414325600000005,"elevation":[]},{"distance":352.20399999999995,"relativeDirection":"LEFT","streetName":"Rue Bégin","absoluteDirection":"NORTHEAST","stayOn":false,"area":false,"bogusName":false,"lon":-71.06744280000001,"lat":48.413416500000004,"elevation":[]},{"distance":46.285,"relativeDirection":"RIGHT","streetName":"Rue des Champs-Élysées","absoluteDirection":"SOUTHEAST","stayOn":false,"area":false,"bogusName":false,"lon":-71.0647342,"lat":48.416021,"elevation":[]}]},{"startTime":1522712700000,"endTime":1522712969000,"departureDelay":0,"arrivalDelay":0,"realTime":false,"distance":1526.2003190362138,"pathway":false,"mode":"BUS","route":"12","agencyName":"Société de Transport du Saguenay","agencyUrl":"http://ville.saguenay.ca/fr/services-aux-citoyens/transport-sts","agencyTimeZoneOffset":-14400000,"routeColor":"556B2F","routeType":3,"routeId":"1:12","routeTextColor":"FFFFFF","interlineWithPreviousLeg":false,"tripBlockId":"29","headsign":"Terminus Chicoutimi","agencyId":"0","tripId":"1:218078","serviceDate":"20180402","from":{"name":"Champs-Élysées / Bégin","stopId":"1:566","stopCode":"566","lon":-71.064237,"lat":48.415762,"arrival":1522712699000,"departure":1522712700000,"zoneId":"NA","stopIndex":7,"stopSequence":8,"vertexType":"TRANSIT"},"to":{"name":"Émile-Girardin / Roitelets","stopId":"1:268","stopCode":"268","lon":-71.050698,"lat":48.406546,"arrival":1522712969000,"departure":1522712970000,"zoneId":"NA","stopIndex":14,"stopSequence":15,"vertexType":"TRANSIT"},"legGeometry":{"points":"oeofHnvvpLlAgIdCmFbAqDtBeCjFm@`Gs@hFo@xAmBrGcPxFoNlCyGa@yF","length":13},"routeShortName":"12","routeLongName":"Rivière du Moulin","rentedBike":false,"transitLeg":true,"duration":269.0,"steps":[]},{"startTime":1522712970000,"endTime":1522713314000,"departureDelay":0,"arrivalDelay":0,"realTime":false,"distance":431.215,"pathway":false,"mode":"WALK","route":"","agencyTimeZoneOffset":-14400000,"interlineWithPreviousLeg":false,"from":{"name":"Émile-Girardin / Roitelets","stopId":"1:268","stopCode":"268","lon":-71.050698,"lat":48.406546,"arrival":1522712969000,"departure":1522712970000,"zoneId":"NA","stopIndex":14,"stopSequence":15,"vertexType":"TRANSIT"},"to":{"name":"Destination","lon":-71.046666,"lat":48.405549,"arrival":1522713314000,"orig":"","vertexType":"NORMAL"},"legGeometry":{"points":"mlmfHbbtpLAGBc@?gALa@LUNUbCk@GcACc@Lu@jAkD_AeAdA_DSWMO","length":16},"rentedBike":false,"transitLeg":false,"duration":344.0,"steps":[{"distance":42.634,"relativeDirection":"DEPART","streetName":"Rue Émile-Girardin","absoluteDirection":"EAST","stayOn":false,"area":false,"bogusName":false,"lon":-71.05073193352945,"lat":48.4066347754418,"elevation":[]},{"distance":38.282,"relativeDirection":"SLIGHTLY_RIGHT","streetName":"link","absoluteDirection":"SOUTHEAST","stayOn":false,"area":false,"bogusName":true,"lon":-71.0501581,"lat":48.406621400000006,"elevation":[]},{"distance":75.298,"relativeDirection":"SLIGHTLY_RIGHT","streetName":"Rue Des Roitelets","absoluteDirection":"SOUTH","stayOn":false,"area":false,"bogusName":false,"lon":-71.0497612,"lat":48.4064046,"elevation":[]},{"distance":136.063,"relativeDirection":"LEFT","streetName":"Rue Alfred-Rouleau","absoluteDirection":"EAST","stayOn":false,"area":false,"bogusName":false,"lon":-71.0495416,"lat":48.405743300000005,"elevation":[]},{"distance":43.542,"relativeDirection":"LEFT","streetName":"Rue Cyrille-Vaillancourt","absoluteDirection":"NORTHEAST","stayOn":false,"area":false,"bogusName":false,"lon":-71.0478951,"lat":48.4053594,"elevation":[]},{"distance":71.468,"relativeDirection":"RIGHT","streetName":"path","absoluteDirection":"SOUTHEAST","stayOn":false,"area":false,"bogusName":true,"lon":-71.0475488,"lat":48.405676400000004,"elevation":[]},{"distance":23.928,"relativeDirection":"LEFT","streetName":"Rue Adélard-Plourde","absoluteDirection":"NORTHEAST","stayOn":false,"area":false,"bogusName":false,"lon":-71.0467419,"lat":48.4053212,"elevation":[]}]}],"tooSloped":false},{"duration":1754,"startTime":1522713445000,"endTime":1522715199000,"walkTime":1064,"transitTime":688,"waitingTime":2,"walkDistance":1389.6316466130359,"walkLimitExceeded":false,"elevationLost":0.0,"elevationGained":0.0,"transfers":0,"legs":[{"startTime":1522713445000,"endTime":1522713869000,"departureDelay":0,"arrivalDelay":0,"realTime":false,"distance":563.356,"pathway":false,"mode":"WALK","route":"","agencyTimeZoneOffset":-14400000,"interlineWithPreviousLeg":false,"from":{"name":"Origin","lon":-71.08385599,"lat":48.408457,"departure":1522713445000,"orig":"","vertexType":"NORMAL"},"to":{"name":"Jolliet / Sainte-Claire","stopId":"1:1554","stopCode":"1554","lon":-71.080615,"lat":48.407298,"arrival":1522713869000,"departure":1522713870000,"zoneId":"NA","stopIndex":18,"stopSequence":19,"vertexType":"TRANSIT"},"legGeometry":{"points":"yqmfHxvzpLHp@ZP\\KTc@n@oDCk@qC}G_AkA_A{@_@IAi@Ha@^Uf@KvA?XEJ]Nk@","length":19},"rentedBike":false,"transitLeg":false,"duration":424.0,"steps":[{"distance":563.356,"relativeDirection":"DEPART","streetName":"Rue du Mont-Sainte-Claire","absoluteDirection":"WEST","stayOn":false,"area":false,"bogusName":false,"lon":-71.08476250000001,"lat":48.4074949,"elevation":[]}]},{"startTime":1522713870000,"endTime":1522714260000,"departureDelay":0,"arrivalDelay":0,"realTime":false,"distance":4496.9541600128,"pathway":false,"mode":"BUS","route":"14","agencyName":"Société de Transport du Saguenay","agencyUrl":"http://ville.saguenay.ca/fr/services-aux-citoyens/transport-sts","agencyTimeZoneOffset":-14400000,"routeColor":"C0C000","routeType":3,"routeId":"1:14","routeTextColor":"000000","interlineWithPreviousLeg":false,"tripBlockId":"30","headsign":"Talbot / Barrette","agencyId":"0","tripId":"1:218113","serviceDate":"20180402","from":{"name":"Jolliet / Sainte-Claire","stopId":"1:1554","stopCode":"1554","lon":-71.080615,"lat":48.407298,"arrival":1522713869000,"departure":1522713870000,"zoneId":"NA","stopIndex":18,"stopSequence":19,"vertexType":"TRANSIT"},"to":{"name":"Roitelets / Sapins","stopId":"1:1543","stopCode":"1543","lon":-71.069553,"lat":48.393375,"arrival":1522714260000,"departure":1522714260000,"zoneId":"NA","stopIndex":35,"stopSequence":36,"vertexType":"TRANSIT"},"legGeometry":{"points":"mpmfHt{ypLfDr@XgAjFuR\\yADm@b@gFd@_B`A}@tEvJBDvC`FtJ|LLNlClC|@^hCYVExCjCb@d@vE`F`BhB?pHaBhRqAbLK~@qBxFqB|FcC~GyC\\aDkDcFsF~CgOtGm[j@oCvEoSl@_CxCmLjAeFpCeKrByHfAqCvH_SLa@","length":44},"routeShortName":"14","routeLongName":"Coopérative","rentedBike":false,"transitLeg":true,"duration":390.0,"steps":[]},{"startTime":1522714260000,"endTime":1522714558000,"departureDelay":0,"arrivalDelay":0,"realTime":false,"distance":2120.336912550914,"pathway":false,"mode":"BUS","route":"15","agencyName":"Société de Transport du Saguenay","agencyUrl":"http://ville.saguenay.ca/fr/services-aux-citoyens/transport-sts","agencyTimeZoneOffset":-14400000,"routeColor":"FF00FF","routeType":3,"routeId":"1:15","routeTextColor":"FFFFFF","interlineWithPreviousLeg":true,"tripBlockId":"30","headsign":"Terminus Chicoutimi","agencyId":"0","tripId":"1:218114","serviceDate":"20180402","from":{"name":"Roitelets / Sapins","stopId":"1:1543","stopCode":"1543","lon":-71.069553,"lat":48.393375,"arrival":1522714260000,"departure":1522714260000,"zoneId":"NA","stopIndex":0,"stopSequence":1,"vertexType":"TRANSIT"},"to":{"name":"Parc Rivière du Moulin (Roitelets)","stopId":"1:48","stopCode":"48","lon":-71.046747,"lat":48.399245,"arrival":1522714558000,"departure":1522714559000,"zoneId":"NA","stopIndex":8,"stopSequence":9,"vertexType":"TRANSIT"},"legGeometry":{"points":"_zjfHfwwpLx@}BHa@NaADq@@y@Cy@I{@Ka@O[Sg@c@mAWwAMyA?EC]?wABuABmFB{@BmDFuH@i@F[FsC@c@TuGEGVsHPuDLuBXsFDoA?W@]Cu@GcAKu@Q_ASo@a@y@a@o@MOUUeCqBiDsDqE{EiAcAcB_AqBgA_AQaBSaBG_@B","length":54},"routeShortName":"15","routeLongName":"Term. Chic / Costco","rentedBike":false,"transitLeg":true,"duration":298.0,"steps":[]},{"startTime":1522714559000,"endTime":1522715199000,"departureDelay":0,"arrivalDelay":0,"realTime":false,"distance":826.167,"pathway":false,"mode":"WALK","route":"","agencyTimeZoneOffset":-14400000,"interlineWithPreviousLeg":false,"from":{"name":"Parc Rivière du Moulin (Roitelets)","stopId":"1:48","stopCode":"48","lon":-71.046747,"lat":48.399245,"arrival":1522714558000,"departure":1522714559000,"zoneId":"NA","stopIndex":8,"stopSequence":9,"vertexType":"TRANSIT"},"to":{"name":"Destination","lon":-71.046666,"lat":48.405549,"arrival":1522715199000,"orig":"","vertexType":"NORMAL"},"legGeometry":{"points":"g~kfH~hspLQ?i@JaATq@NuAZeEhBa@P_DtAk@cEuE~AWwCKUUEkAV_@Hk@Bs@CWQQQSWMO","length":22},"rentedBike":false,"transitLeg":false,"duration":640.0,"steps":[{"distance":380.065,"relativeDirection":"DEPART","streetName":"bike path","absoluteDirection":"NORTH","stayOn":false,"area":false,"bogusName":true,"lon":-71.04671805171614,"lat":48.399244587532124,"elevation":[]},{"distance":75.949,"relativeDirection":"RIGHT","streetName":"Rue des Saguenéens","absoluteDirection":"EAST","stayOn":false,"area":false,"bogusName":false,"lon":-71.0481523,"lat":48.4025155,"elevation":[]},{"distance":123.88,"relativeDirection":"LEFT","streetName":"Rue Cyrille-Vaillancourt","absoluteDirection":"NORTH","stayOn":false,"area":false,"bogusName":false,"lon":-71.04717790000001,"lat":48.4027347,"elevation":[]},{"distance":246.273,"relativeDirection":"RIGHT","streetName":"Rue Adélard-Plourde","absoluteDirection":"EAST","stayOn":false,"area":false,"bogusName":false,"lon":-71.04765300000001,"lat":48.403803200000006,"elevation":[]}]}],"tooSloped":false}]},"debugOutput":{"precalculationTime":24,"pathCalculationTime":38,"pathTimes":[20,8,10],"renderingTime":0,"totalTime":62,"timedOut":false},"elevationMetadata":{"ellipsoidToGeoidDifference":-28.885904201182168,"geoidElevation":false}}