{"requestParameters":{"date":"2018/04/02","walkSpeed":"1.33","walkReluctance":"2.0","fromPlace":"48.405682,-71.048258","maxWalkDistance":"3000","waitReluctance":"1.0","carSpeed":"33","numItineraries":"3","waitAtBeginningFactor":"0.4","mode":"TRANSIT,WALK","ignoreRealtimeUpdates":"false","stairsReluctance":"2.0","toPlace":"48.427472,-71.07107899","time":"12:45:00"},"plan":{"date":1522687500000,"from":{"name":"Origin","lon":-71.048258,"lat":48.405682,"orig":"","vertexType":"NORMAL"},"to":{"name":"Destination","lon":-71.07107899,"lat":48.427472,"orig":"","vertexType":"NORMAL"},"itineraries":[{"duration":1957,"startTime":1522687571000,"endTime":1522689528000,"walkTime":664,"transitTime":1291,"waitingTime":2,"walkDistance":850.1303157853979,"walkLimitExceeded":false,"elevationLost":0.0,"elevationGained":0.0,"transfers":0,"legs":[{"startTime":1522687571000,"endTime":1522687768000,"departureDelay":0,"arrivalDelay":0,"realTime":false,"distance":250.14300000000003,"pathway":false,"mode":"WALK","route":"","agencyTimeZoneOffset":-14400000,"interlineWithPreviousLeg":false,"from":{"name":"Origin","lon":-71.048258,"lat":48.405682,"departure":1522687571000,"orig":"","vertexType":"NORMAL"},"to":{"name":"Émile-Girardin / Roitelets","stopId":"1:268","stopCode":"268","lon":-71.050698,"lat":48.406546,"arrival":1522687768000,"departure":1522687769000,"zoneId":"NA","stopIndex":14,"stopSequence":15,"vertexType":"TRANSIT"},"legGeometry":{"points":"wemfHjsspLa@jAMt@Bb@FbAcCj@OTMTM`@?fACb@@F","length":12},"rentedBike":false,"transitLeg":false,"duration":197.0,"steps":[{"distance":93.929,"relativeDirection":"DEPART","streetName":"Rue Alfred-Rouleau","absoluteDirection":"NORTHWEST","stayOn":false,"area":false,"bogusName":false,"lon":-71.04837087476744,"lat":48.40556918522677,"elevation":[]},{"distance":75.298,"relativeDirection":"RIGHT","streetName":"Rue Des Roitelets","absoluteDirection":"NORTH","stayOn":false,"area":false,"bogusName":false,"lon":-71.0495416,"lat":48.405743300000005,"elevation":[]},{"distance":38.282,"relativeDirection":"SLIGHTLY_LEFT","streetName":"link","absoluteDirection":"NORTHWEST","stayOn":false,"area":false,"bogusName":true,"lon":-71.0497612,"lat":48.4064046,"elevation":[]},{"distance":42.634,"relativeDirection":"SLIGHTLY_LEFT","streetName":"Rue Émile-Girardin","absoluteDirection":"WEST","stayOn":false,"area":false,"bogusName":false,"lon":-71.0501581,"lat":48.406621400000006,"elevation":[]}]},{"startTime":1522687769000,"endTime":1522689060000,"departureDelay":0,"arrivalDelay":0,"realTime":false,"distance":8061.467510349102,"pathway":false,"mode":"BUS","route":"12","agencyName":"Société de Transport du Saguenay","agencyUrl":"http://ville.saguenay.ca/fr/services-aux-citoyens/transport-sts","agencyTimeZoneOffset":-14400000,"routeColor":"556B2F","routeType":3,"routeId":"1:12","routeTextColor":"FFFFFF","interlineWithPreviousLeg":false,"tripBlockId":"29","headsign":"Terminus Chicoutimi","agencyId":"0","tripId":"1:218064","serviceDate":"20180402","from":{"name":"Émile-Girardin / Roitelets","stopId":"1:268","stopCode":"268","lon":-71.050698,"lat":48.406546,"arrival":1522687768000,"departure":1522687769000,"zoneId":"NA","stopIndex":14,"stopSequence":15,"vertexType":"TRANSIT"},"to":{"name":"Terminus Chicoutimi","stopId":"1:1289","stopCode":"1289","lon":-71.066163,"lat":48.428677,"arrival":1522689060000,"departure":1522689061000,"zoneId":"NA","stopIndex":33,"stopSequence":34,"vertexType":"TRANSIT"},"legGeometry":{"points":"ukmfHxatpLYkD}CyA}KmFgD_BgAgBn@kFD_NoIgrAmD_WcAaLaDHoDJi`@wVoAbDbA|AnBU|B|AfBlAyLtKoGxFcFqDkJaHgEoDmDwC_TqQsBeB{HjWfAvAfM|O|FlHmB`IgA|Cy@`UYzHZvMR~Hr@~ZPvHsCrMFxf@|ApJj@nDDl]BvZdCXJhC","length":47},"routeShortName":"12","routeLongName":"Rivière du Moulin","rentedBike":false,"transitLeg":true,"duration":1291.0,"steps":[]},{"startTime":1522689061000,"endTime":1522689528000,"departureDelay":0,"arrivalDelay":0,"realTime":false,"distance":599.861,"pathway":false,"mode":"WALK","route":"","agencyTimeZoneOffset":-14400000,"interlineWithPreviousLeg":false,"from":{"name":"Terminus Chicoutimi","stopId":"1:1289","stopCode":"1289","lon":-71.066163,"lat":48.428677,"arrival":1522689060000,"departure":1522689061000,"zoneId":"NA","stopIndex":33,"stopSequence":34,"vertexType":"TRANSIT"},"to":{"name":"Destination","lon":-71.07107899,"lat":48.427472,"arrival":1522689528000,"orig":"","vertexType":"NORMAL"},"legGeometry":{"points":"{uqfHb~vpLbAJR@JDb@LQtGAv@Aj@EvDErA?ZErACtA?LEvBIdEtBIf@C","length":18},"rentedBike":false,"transitLeg":false,"duration":467.0,"steps":[{"distance":77.207,"relativeDirection":"DEPART","streetName":"Rue Morin","absoluteDirection":"SOUTH","stayOn":false,"area":false,"bogusName":false,"lon":-71.0654590096484,"lat":48.428628638946556,"elevation":[]},{"distance":207.675,"relativeDirection":"RIGHT","streetName":"Rue Racine Est","absoluteDirection":"WEST","stayOn":false,"area":false,"bogusName":false,"lon":-71.0656238,"lat":48.4279449,"elevation":[]},{"distance":227.67700000000002,"relativeDirection":"CONTINUE","streetName":"Rue Racine Ouest","absoluteDirection":"WEST","stayOn":false,"area":false,"bogusName":false,"lon":-71.06843,"lat":48.42808470000001,"elevation":[]},{"distance":87.30199999999999,"relativeDirection":"LEFT","streetName":"Rue Montcalm","absoluteDirection":"SOUTH","stayOn":false,"area":false,"bogusName":false,"lon":-71.0715065,"lat":48.428241500000006,"elevation":[]}]}],"tooSloped":false},{"duration":2034,"startTime":1522688834000,"endTime":1522690868000,"walkTime":886,"transitTime":1146,"waitingTime":2,"walkDistance":1138.2634511236104,"walkLimitExceeded":false,"elevationLost":0.0,"elevationGained":0.0,"transfers":0,"legs":[{"startTime":1522688834000,"endTime":1522689446000,"departureDelay":0,"arrivalDelay":0,"realTime":false,"distance":787.3180000000001,"pathway":false,"mode":"WALK","route":"","agencyTimeZoneOffset":-14400000,"interlineWithPreviousLeg":false,"from":{"name":"Origin","lon":-71.048258,"lat":48.405682,"departure":1522688834000,"orig":"","vertexType":"NORMAL"},"to":{"name":"Engoulevents / Sternes","stopId":"1:1568","stopCode":"1568","lon":-71.050864,"lat":48.400594,"arrival":1522689446000,"departure":1522689447000,"zoneId":"NA","stopIndex":10,"stopSequence":11,"vertexType":"TRANSIT"},"legGeometry":{"points":"wemfHjsspLh@_BnAJz@AzA[h@Mb@OtE_Bj@bEBRRVf@pDl@jEXzCp@U|AOf@D|@D@?","length":19},"rentedBike":false,"transitLeg":false,"duration":612.0,"steps":[{"distance":42.161,"relativeDirection":"DEPART","streetName":"Rue Alfred-Rouleau","absoluteDirection":"SOUTHEAST","stayOn":false,"area":false,"bogusName":false,"lon":-71.04837087476744,"lat":48.40556918522677,"elevation":[]},{"distance":299.654,"relativeDirection":"RIGHT","streetName":"Rue Cyrille-Vaillancourt","absoluteDirection":"SOUTH","stayOn":false,"area":false,"bogusName":false,"lon":-71.0478951,"lat":48.4053594,"elevation":[]},{"distance":306.187,"relativeDirection":"RIGHT","streetName":"Rue des Saguenéens","absoluteDirection":"WEST","stayOn":false,"area":false,"bogusName":false,"lon":-71.04717790000001,"lat":48.4027347,"elevation":[]},{"distance":139.316,"relativeDirection":"LEFT","streetName":"Rue des Engoulevents","absoluteDirection":"SOUTH","stayOn":false,"area":false,"bogusName":false,"lon":-71.0510608,"lat":48.401836200000005,"elevation":[]}]},{"startTime":1522689447000,"endTime":1522690593000,"departureDelay":0,"arrivalDelay":0,"realTime":false,"distance":6249.676148646763,"pathway":false,"mode":"BUS","route":"15","agencyName":"Société de Transport du Saguenay","agencyUrl":"http://ville.saguenay.ca/fr/services-aux-citoyens/transport-sts","agencyTimeZoneOffset":-14400000,"routeColor":"FF00FF","routeType":3,"routeId":"1:15","routeTextColor":"FFFFFF","interlineWithPreviousLeg":false,"tripBlockId":"30","headsign":"Terminus Chicoutimi","agencyId":"0","tripId":"1:218100","serviceDate":"20180402","from":{"name":"Engoulevents / Sternes","stopId":"1:1568","stopCode":"1568","lon":-71.050864,"lat":48.400594,"arrival":1522689446000,"departure":1522689447000,"zoneId":"NA","stopIndex":10,"stopSequence":11,"vertexType":"TRANSIT"},"to":{"name":"Jacques-Cartier / Tessier","stopId":"1:62","stopCode":"62","lon":-71.067531,"lat":48.426736,"arrival":1522690593000,"departure":1522690594000,"zoneId":"NA","stopIndex":37,"stopSequence":38,"vertexType":"TRANSIT"},"legGeometry":{"points":"uflfHxbtpLGAeGT~@~KKrKyAnL[hBUxAm@nCcAlDeCvGmA|CUr@}@~A_@\\_DvCEZcA|@UP_@d@Yl@oBdFeCxG_CfGYVQXS\\dK|HlFZbC\\p@zA\\rB@hBiArG{BNw@FiG}@iDwAECcCcBo@y@sEeGe@o@qAa@m@MoB?C@}BZwAc@oA_Bs@gDCKZ{Di@QECc@_@sAkAoBwB_EcE{A_BoAmAk@o@cCaCkIkIaJaJUUwBaCj@wCjAsCzGoG_CoHL{D_@kAqD{CQr@iAcAy@w@L{@wAuA_B_B_EpLDh@NbBVvCIxBg@`Am@l@Sb@a@rAqDqDmEkE]a@kAqAU|@WnKG|DGxDOdPKvJU|F?XQlJC~@ChA","length":104},"routeShortName":"15","routeLongName":"Term. Chic / Costco","rentedBike":false,"transitLeg":true,"duration":1146.0,"steps":[]},{"startTime":1522690594000,"endTime":1522690868000,"departureDelay":0,"arrivalDelay":0,"realTime":false,"distance":350.81500000000005,"pathway":false,"mode":"WALK","route":"","agencyTimeZoneOffset":-14400000,"interlineWithPreviousLeg":false,"from":{"name":"Jacques-Cartier / Tessier","stopId":"1:62","stopCode":"62","lon":-71.067531,"lat":48.426736,"arrival":1522690593000,"departure":1522690594000,"zoneId":"NA","stopIndex":37,"stopSequence":38,"vertexType":"TRANSIT"},"to":{"name":"Destination","lon":-71.07107899,"lat":48.427472,"arrival":1522690868000,"orig":"","vertexType":"NORMAL"},"legGeometry":{"points":"uiqfHbkwpLEnBC~AMrEInCAj@A`D}@Bw@D","length":9},"rentedBike":false,"transitLeg":false,"duration":274.0,"steps":[{"distance":76.392,"relativeDirection":"DEPART","streetName":"Rue Jacques-Cartier Est","absoluteDirection":"WEST","stayOn":false,"area":false,"bogusName":false,"lon":-71.0675380239516,"lat":48.42667414840684,"elevation":[]},{"distance":208.179,"relativeDirection":"CONTINUE","streetName":"Rue Jacques-Cartier Ouest","absoluteDirection":"WEST","stayOn":false,"area":false,"bogusName":false,"lon":-71.0685709,"lat":48.426721,"elevation":[]},{"distance":66.244,"relativeDirection":"RIGHT","streetName":"Rue Montcalm","absoluteDirection":"NORTH","stayOn":false,"area":false,"bogusName":false,"lon":-71.0713817,"lat":48.426863100000006,"elevation":[]}]}],"tooSloped":false},{"duration":1957,"startTime":1522689371000,"endTime":1522691328000,"walkTime":664,"transitTime":1291,"waitingTime":2,"walkDistance":850.1303157853979,"walkLimitExceeded":false,"elevationLost":0.0,"elevationGained":0.0,"transfers":0,"legs":[{"startTime":1522689371000,"endTime":1522689568000,"departureDelay":0,"arrivalDelay":0,"realTime":false,"distance":250.14300000000003,"pathway":false,"mode":"WALK","route":"","agencyTimeZoneOffset":-14400000,"interlineWithPreviousLeg":false,"from":{"name":"Origin","lon":-71.048258,"lat":48.405682,"departure":1522689371000,"orig":"","vertexType":"NORMAL"},"to":{"name":"Émile-Girardin / Roitelets","stopId":"1:268","stopCode":"268","lon":-71.050698,"lat":48.406546,"arrival":1522689568000,"departure":1522689569000,"zoneId":"NA","stopIndex":14,"stopSequence":15,"vertexType":"TRANSIT"},"legGeometry":{"points":"wemfHjsspLa@jAMt@Bb@FbAcCj@OTMTM`@?fACb@@F","length":12},"rentedBike":false,"transitLeg":false,"duration":197.0,"steps":[{"distance":93.929,"relativeDirection":"DEPART","streetName":"Rue Alfred-Rouleau","absoluteDirection":"NORTHWEST","stayOn":false,"area":false,"bogusName":false,"lon":-71.04837087476744,"lat":48.40556918522677,"elevation":[]},{"distance":75.298,"relativeDirection":"RIGHT","streetName":"Rue Des Roitelets","absoluteDirection":"NORTH","stayOn":false,"area":false,"bogusName":false,"lon":-71.0495416,"lat":48.405743300000005,"elevation":[]},{"distance":38.282,"relativeDirection":"SLIGHTLY_LEFT","streetName":"link","absoluteDirection":"NORTHWEST","stayOn":false,"area":false,"bogusName":true,"lon":-71.0497612,"lat":48.4064046,"elevation":[]},{"distance":42.634,"relativeDirection":"SLIGHTLY_LEFT","streetName":"Rue Émile-Girardin","absoluteDirection":"WEST","stayOn":false,"area":false,"bogusName":false,"lon":-71.0501581,"lat":48.406621400000006,"elevation":[]}]},{"startTime":1522689569000,"endTime":1522690860000,"departureDelay":0,"arrivalDelay":0,"realTime":false,"distance":8061.467510349102,"pathway":false,"mode":"BUS","route":"12","agencyName":"Société de Transport du Saguenay","agencyUrl":"http://ville.saguenay.ca/fr/services-aux-citoyens/transport-sts","agencyTimeZoneOffset":-14400000,"routeColor":"556B2F","routeType":3,"routeId":"1:12","routeTextColor":"FFFFFF","interlineWithPreviousLeg":false,"tripBlockId":"26","headsign":"Terminus Chicoutimi","agencyId":"0","tripId":"1:217977","serviceDate":"20180402","from":{"name":"Émile-Girardin / Roitelets","stopId":"1:268","stopCode":"268","lon":-71.050698,"lat":48.406546,"arrival":1522689568000,"departure":1522689569000,"zoneId":"NA","stopIndex":14,"stopSequence":15,"vertexType":"TRANSIT"},"to":{"name":"Terminus Chicoutimi","stopId":"1:1289","stopCode":"1289","lon":-71.066163,"lat":48.428677,"arrival":1522690860000,"departure":1522690861000,"zoneId":"NA","stopIndex":33,"stopSequence":34,"vertexType":"TRANSIT"},"legGeometry":{"points":"ukmfHxatpLYkD}CyA}KmFgD_BgAgBn@kFD_NoIgrAmD_WcAaLaDHoDJi`@wVoAbDbA|AnBU|B|AfBlAyLtKoGxFcFqDkJaHgEoDmDwC_TqQsBeB{HjWfAvAfM|O|FlHmB`IgA|Cy@`UYzHZvMR~Hr@~ZPvHsCrMFxf@|ApJj@nDDl]BvZdCXJhC","length":47},"routeShortName":"12","routeLongName":"Rivière du Moulin","rentedBike":false,"transitLeg":true,"duration":1291.0,"steps":[]},{"startTime":1522690861000,"endTime":1522691328000,"departureDelay":0,"arrivalDelay":0,"realTime":false,"distance":599.861,"pathway":false,"mode":"WALK","route":"","agencyTimeZoneOffset":-14400000,"interlineWithPreviousLeg":false,"from":{"name":"Terminus Chicoutimi","stopId":"1:1289","stopCode":"1289","lon":-71.066163,"lat":48.428677,"arrival":1522690860000,"departure":1522690861000,"zoneId":"NA","stopIndex":33,"stopSequence":34,"vertexType":"TRANSIT"},"to":{"name":"Destination","lon":-71.07107899,"lat":48.427472,"arrival":1522691328000,"orig":"","vertexType":"NORMAL"},"legGeometry":{"points":"{uqfHb~vpLbAJR@JDb@LQtGAv@Aj@EvDErA?ZErACtA?LEvBIdEtBIf@C","length":18},"rentedBike":false,"transitLeg":false,"duration":467.0,"steps":[{"distance":77.207,"relativeDirection":"DEPART","streetName":"Rue Morin","absoluteDirection":"SOUTH","stayOn":false,"area":false,"bogusName":false,"lon":-71.0654590096484,"lat":48.428628638946556,"elevation":[]},{"distance":207.675,"relativeDirection":"RIGHT","streetName":"Rue Racine Est","absoluteDirection":"WEST","stayOn":false,"area":false,"bogusName":false,"lon":-71.0656238,"lat":48.4279449,"elevation":[]},{"distance":227.67700000000002,"relativeDirection":"CONTINUE","streetName":"Rue Racine Ouest","absoluteDirection":"WEST","stayOn":false,"area":false,"bogusName":false,"lon":-71.06843,"lat":48.42808470000001,"elevation":[]},{"distance":87.30199999999999,"relativeDirection":"LEFT","streetName":"Rue Montcalm","absoluteDirection":"SOUTH","stayOn":false,"area":false,"bogusName":false,"lon":-71.0715065,"lat":48.428241500000006,"elevation":[]}]}],"tooSloped":false}]},"debugOutput":{"precalculationTime":36,"pathCalculationTime":43,"pathTimes":[21,12,10],"renderingTime":0,"totalTime":79,"timedOut":false},"elevationMetadata":{"ellipsoidToGeoidDifference":-28.885904201182168,"geoidElevation":false}}