{"requestParameters":{"date":"2018/04/02","walkSpeed":"1.33","walkReluctance":"2.0","fromPlace":"48.428308,-71.056098","maxWalkDistance":"3000","waitReluctance":"1.0","carSpeed":"33","numItineraries":"3","waitAtBeginningFactor":"0.4","mode":"TRANSIT,WALK","ignoreRealtimeUpdates":"false","stairsReluctance":"2.0","toPlace":"48.382739,-71.086723","time":"13:20:00"},"plan":{"date":1522689600000,"from":{"name":"Origin","lon":-71.056098,"lat":48.428308,"orig":"","vertexType":"NORMAL"},"to":{"name":"Destination","lon":-71.086723,"lat":48.382739,"orig":"","vertexType":"NORMAL"},"itineraries":[{"duration":1831,"startTime":1522691084000,"endTime":1522692915000,"walkTime":411,"transitTime":1418,"waitingTime":2,"walkDistance":502.3379248049337,"walkLimitExceeded":false,"elevationLost":0.0,"elevationGained":0.0,"transfers":0,"legs":[{"startTime":1522691084000,"endTime":1522691301000,"departureDelay":0,"arrivalDelay":0,"realTime":false,"distance":264.2,"pathway":false,"mode":"WALK","route":"","agencyTimeZoneOffset":-14400000,"interlineWithPreviousLeg":false,"from":{"name":"Origin","lon":-71.056098,"lat":48.428308,"departure":1522691084000,"orig":"","vertexType":"NORMAL"},"to":{"name":"Hôtel-Dieu / Riverin","stopId":"1:339","stopCode":"339","lon":-71.054645,"lat":48.427256,"arrival":1522691301000,"departure":1522691302000,"zoneId":"NA","stopIndex":3,"stopSequence":4,"vertexType":"TRANSIT"},"legGeometry":{"points":"euqfHzdupLk@gBQe@FKROt@YDMNGfD{@LAPDNs@","length":12},"rentedBike":false,"transitLeg":false,"duration":217.0,"steps":[{"distance":119.235,"relativeDirection":"DEPART","streetName":"parking aisle","absoluteDirection":"NORTHEAST","stayOn":false,"area":false,"bogusName":false,"lon":-71.05629446819664,"lat":48.428510347176285,"elevation":[]},{"distance":123.527,"relativeDirection":"CONTINUE","streetName":"Rue Riverin","absoluteDirection":"SOUTH","stayOn":false,"area":false,"bogusName":false,"lon":-71.0552459,"lat":48.428389700000004,"elevation":[]},{"distance":21.438,"relativeDirection":"LEFT","streetName":"Rue Saint-François-Xavier","absoluteDirection":"SOUTHEAST","stayOn":false,"area":false,"bogusName":false,"lon":-71.0549292,"lat":48.427308700000005,"elevation":[]}]},{"startTime":1522691302000,"endTime":1522692720000,"departureDelay":0,"arrivalDelay":0,"realTime":false,"distance":7497.086264197166,"pathway":false,"mode":"BUS","route":"175","agencyName":"Société de Transport du Saguenay","agencyUrl":"http://ville.saguenay.ca/fr/services-aux-citoyens/transport-sts","agencyTimeZoneOffset":-14400000,"routeColor":"FF00FF","routeType":3,"routeId":"1:175","routeTextColor":"FFFFFF","interlineWithPreviousLeg":false,"tripBlockId":"8","headsign":"Costco","agencyId":"0","tripId":"1:217371","serviceDate":"20180402","from":{"name":"Hôtel-Dieu / Riverin","stopId":"1:339","stopCode":"339","lon":-71.054645,"lat":48.427256,"arrival":1522691301000,"departure":1522691302000,"zoneId":"NA","stopIndex":3,"stopSequence":4,"vertexType":"TRANSIT"},"to":{"name":"COSTCO","stopId":"1:1710","stopCode":"1710","lon":-71.085767,"lat":48.382333,"arrival":1522692720000,"departure":1522692721000,"zoneId":"NA","stopIndex":30,"stopSequence":31,"vertexType":"TRANSIT"},"legGeometry":{"points":"_nqfHrztpLKoE@mB@kJ@iFbEf@xEj@iCtYp@r@z@`ABBvHtHXRx@l@VwAvAgB\\qBIuAC]g@yEzDuLbBbBvAxAMx@|@v@`A~@Xw@~D~DPxFZtA~ApE`N{LpFmEb@[ROl@[vDQXKfA[|@q@fAsBlEmMr@sBhCsKz@dAjB|@dM`GzCvAXrCr@~Gx@]PEr@ObACn@FrBb@|@Ch@Kx@U~HsB^KZ|DJpII~Fa@rFUzBi@bDUxAm@nCcAlDM^RTfD`DjF`FjCrCrAvAbCfDjIfMdAzAfFpHd@n@nC`DlXv[b@f@mCtHv@v@p@r@_@p@uAcBjDoJhAzApBrBrFvGjDdEbD|DZb@~DrEbDfDrA~ApLbNpG|GyCtHwBcC","length":103},"routeShortName":"175","routeLongName":"Term. Chic / Costco","rentedBike":false,"transitLeg":true,"duration":1418.0,"steps":[]},{"startTime":1522692721000,"endTime":1522692915000,"departureDelay":0,"arrivalDelay":0,"realTime":false,"distance":237.918,"pathway":false,"mode":"WALK","route":"","agencyTimeZoneOffset":-14400000,"interlineWithPreviousLeg":false,"from":{"name":"COSTCO","stopId":"1:1710","stopCode":"1710","lon":-71.085767,"lat":48.382333,"arrival":1522692720000,"departure":1522692721000,"zoneId":"NA","stopIndex":30,"stopSequence":31,"vertexType":"TRANSIT"},"to":{"name":"Destination","lon":-71.086723,"lat":48.382739,"arrival":1522692915000,"orig":"","vertexType":"NORMAL"},"legGeometry":{"points":"uthfHh}zpLtB`CoA~Ca@e@Q[Mu@[j@","length":7},"rentedBike":false,"transitLeg":false,"duration":194.0,"steps":[{"distance":81.226,"relativeDirection":"DEPART","streetName":"service road","absoluteDirection":"SOUTHWEST","stayOn":false,"area":false,"bogusName":true,"lon":-71.08580460382532,"lat":48.38235152300571,"elevation":[]},{"distance":73.854,"relativeDirection":"RIGHT","streetName":"Boulevard du Royaume Ouest","absoluteDirection":"NORTHWEST","stayOn":false,"area":false,"bogusName":false,"lon":-71.0864598,"lat":48.381764800000006,"elevation":[]},{"distance":82.838,"relativeDirection":"RIGHT","streetName":"service road","absoluteDirection":"NORTHEAST","stayOn":false,"area":false,"bogusName":true,"lon":-71.0872595,"lat":48.382163600000005,"elevation":[]}]}],"tooSloped":false},{"duration":1831,"startTime":1522692884000,"endTime":1522694715000,"walkTime":411,"transitTime":1418,"waitingTime":2,"walkDistance":502.3379248049337,"walkLimitExceeded":false,"elevationLost":0.0,"elevationGained":0.0,"transfers":0,"legs":[{"startTime":1522692884000,"endTime":1522693101000,"departureDelay":0,"arrivalDelay":0,"realTime":false,"distance":264.2,"pathway":false,"mode":"WALK","route":"","agencyTimeZoneOffset":-14400000,"interlineWithPreviousLeg":false,"from":{"name":"Origin","lon":-71.056098,"lat":48.428308,"departure":1522692884000,"orig":"","vertexType":"NORMAL"},"to":{"name":"Hôtel-Dieu / Riverin","stopId":"1:339","stopCode":"339","lon":-71.054645,"lat":48.427256,"arrival":1522693101000,"departure":1522693102000,"zoneId":"NA","stopIndex":3,"stopSequence":4,"vertexType":"TRANSIT"},"legGeometry":{"points":"euqfHzdupLk@gBQe@FKROt@YDMNGfD{@LAPDNs@","length":12},"rentedBike":false,"transitLeg":false,"duration":217.0,"steps":[{"distance":119.235,"relativeDirection":"DEPART","streetName":"parking aisle","absoluteDirection":"NORTHEAST","stayOn":false,"area":false,"bogusName":false,"lon":-71.05629446819664,"lat":48.428510347176285,"elevation":[]},{"distance":123.527,"relativeDirection":"CONTINUE","streetName":"Rue Riverin","absoluteDirection":"SOUTH","stayOn":false,"area":false,"bogusName":false,"lon":-71.0552459,"lat":48.428389700000004,"elevation":[]},{"distance":21.438,"relativeDirection":"LEFT","streetName":"Rue Saint-François-Xavier","absoluteDirection":"SOUTHEAST","stayOn":false,"area":false,"bogusName":false,"lon":-71.0549292,"lat":48.427308700000005,"elevation":[]}]},{"startTime":1522693102000,"endTime":1522694520000,"departureDelay":0,"arrivalDelay":0,"realTime":false,"distance":7497.086264197166,"pathway":false,"mode":"BUS","route":"175","agencyName":"Société de Transport du Saguenay","agencyUrl":"http://ville.saguenay.ca/fr/services-aux-citoyens/transport-sts","agencyTimeZoneOffset":-14400000,"routeColor":"FF00FF","routeType":3,"routeId":"1:175","routeTextColor":"FFFFFF","interlineWithPreviousLeg":false,"tripBlockId":"6","headsign":"Costco","agencyId":"0","tripId":"1:217300","serviceDate":"20180402","from":{"name":"Hôtel-Dieu / Riverin","stopId":"1:339","stopCode":"339","lon":-71.054645,"lat":48.427256,"arrival":1522693101000,"departure":1522693102000,"zoneId":"NA","stopIndex":3,"stopSequence":4,"vertexType":"TRANSIT"},"to":{"name":"COSTCO","stopId":"1:1710","stopCode":"1710","lon":-71.085767,"lat":48.382333,"arrival":1522694520000,"departure":1522694521000,"zoneId":"NA","stopIndex":30,"stopSequence":31,"vertexType":"TRANSIT"},"legGeometry":{"points":"_nqfHrztpLKoE@mB@kJ@iFbEf@xEj@iCtYp@r@z@`ABBvHtHXRx@l@VwAvAgB\\qBIuAC]g@yEzDuLbBbBvAxAMx@|@v@`A~@Xw@~D~DPxFZtA~ApE`N{LpFmEb@[ROl@[vDQXKfA[|@q@fAsBlEmMr@sBhCsKz@dAjB|@dM`GzCvAXrCr@~Gx@]PEr@ObACn@FrBb@|@Ch@Kx@U~HsB^KZ|DJpII~Fa@rFUzBi@bDUxAm@nCcAlDM^RTfD`DjF`FjCrCrAvAbCfDjIfMdAzAfFpHd@n@nC`DlXv[b@f@mCtHv@v@p@r@_@p@uAcBjDoJhAzApBrBrFvGjDdEbD|DZb@~DrEbDfDrA~ApLbNpG|GyCtHwBcC","length":103},"routeShortName":"175","routeLongName":"Term. Chic / Costco","rentedBike":false,"transitLeg":true,"duration":1418.0,"steps":[]},{"startTime":1522694521000,"endTime":1522694715000,"departureDelay":0,"arrivalDelay":0,"realTime":false,"distance":237.918,"pathway":false,"mode":"WALK","route":"","agencyTimeZoneOffset":-14400000,"interlineWithPreviousLeg":false,"from":{"name":"COSTCO","stopId":"1:1710","stopCode":"1710","lon":-71.085767,"lat":48.382333,"arrival":1522694520000,"departure":1522694521000,"zoneId":"NA","stopIndex":30,"stopSequence":31,"vertexType":"TRANSIT"},"to":{"name":"Destination","lon":-71.086723,"lat":48.382739,"arrival":1522694715000,"orig":"","vertexType":"NORMAL"},"legGeometry":{"points":"uthfHh}zpLtB`CoA~Ca@e@Q[Mu@[j@","length":7},"rentedBike":false,"transitLeg":false,"duration":194.0,"steps":[{"distance":81.226,"relativeDirection":"DEPART","streetName":"service road","absoluteDirection":"SOUTHWEST","stayOn":false,"area":false,"bogusName":true,"lon":-71.08580460382532,"lat":48.38235152300571,"elevation":[]},{"distance":73.854,"relativeDirection":"RIGHT","streetName":"Boulevard du Royaume Ouest","absoluteDirection":"NORTHWEST","stayOn":false,"area":false,"bogusName":false,"lon":-71.0864598,"lat":48.381764800000006,"elevation":[]},{"distance":82.838,"relativeDirection":"RIGHT","streetName":"service road","absoluteDirection":"NORTHEAST","stayOn":false,"area":false,"bogusName":true,"lon":-71.0872595,"lat":48.382163600000005,"elevation":[]}]}],"tooSloped":false},{"duration":1831,"startTime":1522694684000,"endTime":1522696515000,"walkTime":411,"transitTime":1418,"waitingTime":2,"walkDistance":502.3379248049337,"walkLimitExceeded":false,"elevationLost":0.0,"elevationGained":0.0,"transfers":0,"legs":[{"startTime":1522694684000,"endTime":1522694901000,"departureDelay":0,"arrivalDelay":0,"realTime":false,"distance":264.2,"pathway":false,"mode":"WALK","route":"","agencyTimeZoneOffset":-14400000,"interlineWithPreviousLeg":false,"from":{"name":"Origin","lon":-71.056098,"lat":48.428308,"departure":1522694684000,"orig":"","vertexType":"NORMAL"},"to":{"name":"Hôtel-Dieu / Riverin","stopId":"1:339","stopCode":"339","lon":-71.054645,"lat":48.427256,"arrival":1522694901000,"departure":1522694902000,"zoneId":"NA","stopIndex":3,"stopSequence":4,"vertexType":"TRANSIT"},"legGeometry":{"points":"euqfHzdupLk@gBQe@FKROt@YDMNGfD{@LAPDNs@","length":12},"rentedBike":false,"transitLeg":false,"duration":217.0,"steps":[{"distance":119.235,"relativeDirection":"DEPART","streetName":"parking aisle","absoluteDirection":"NORTHEAST","stayOn":false,"area":false,"bogusName":false,"lon":-71.05629446819664,"lat":48.428510347176285,"elevation":[]},{"distance":123.527,"relativeDirection":"CONTINUE","streetName":"Rue Riverin","absoluteDirection":"SOUTH","stayOn":false,"area":false,"bogusName":false,"lon":-71.0552459,"lat":48.428389700000004,"elevation":[]},{"distance":21.438,"relativeDirection":"LEFT","streetName":"Rue Saint-François-Xavier","absoluteDirection":"SOUTHEAST","stayOn":false,"area":false,"bogusName":false,"lon":-71.0549292,"lat":48.427308700000005,"elevation":[]}]},{"startTime":1522694902000,"endTime":1522696320000,"departureDelay":0,"arrivalDelay":0,"realTime":false,"distance":7497.086264197166,"pathway":false,"mode":"BUS","route":"175","agencyName":"Société de Transport du Saguenay","agencyUrl":"http://ville.saguenay.ca/fr/services-aux-citoyens/transport-sts","agencyTimeZoneOffset":-14400000,"routeColor":"FF00FF","routeType":3,"routeId":"1:175","routeTextColor":"FFFFFF","interlineWithPreviousLeg":false,"tripBlockId":"7","headsign":"Costco","agencyId":"0","tripId":"1:217337","serviceDate":"20180402","from":{"name":"Hôtel-Dieu / Riverin","stopId":"1:339","stopCode":"339","lon":-71.054645,"lat":48.427256,"arrival":1522694901000,"departure":1522694902000,"zoneId":"NA","stopIndex":3,"stopSequence":4,"vertexType":"TRANSIT"},"to":{"name":"COSTCO","stopId":"1:1710","stopCode":"1710","lon":-71.085767,"lat":48.382333,"arrival":1522696320000,"departure":1522696321000,"zoneId":"NA","stopIndex":30,"stopSequence":31,"vertexType":"TRANSIT"},"legGeometry":{"points":"_nqfHrztpLKoE@mB@kJ@iFbEf@xEj@iCtYp@r@z@`ABBvHtHXRx@l@VwAvAgB\\qBIuAC]g@yEzDuLbBbBvAxAMx@|@v@`A~@Xw@~D~DPxFZtA~ApE`N{LpFmEb@[ROl@[vDQXKfA[|@q@fAsBlEmMr@sBhCsKz@dAjB|@dM`GzCvAXrCr@~Gx@]PEr@ObACn@FrBb@|@Ch@Kx@U~HsB^KZ|DJpII~Fa@rFUzBi@bDUxAm@nCcAlDM^RTfD`DjF`FjCrCrAvAbCfDjIfMdAzAfFpHd@n@nC`DlXv[b@f@mCtHv@v@p@r@_@p@uAcBjDoJhAzApBrBrFvGjDdEbD|DZb@~DrEbDfDrA~ApLbNpG|GyCtHwBcC","length":103},"routeShortName":"175","routeLongName":"Term. Chic / Costco","rentedBike":false,"transitLeg":true,"duration":1418.0,"steps":[]},{"startTime":1522696321000,"endTime":1522696515000,"departureDelay":0,"arrivalDelay":0,"realTime":false,"distance":237.918,"pathway":false,"mode":"WALK","route":"","agencyTimeZoneOffset":-14400000,"interlineWithPreviousLeg":false,"from":{"name":"COSTCO","stopId":"1:1710","stopCode":"1710","lon":-71.085767,"lat":48.382333,"arrival":1522696320000,"departure":1522696321000,"zoneId":"NA","stopIndex":30,"stopSequence":31,"vertexType":"TRANSIT"},"to":{"name":"Destination","lon":-71.086723,"lat":48.382739,"arrival":1522696515000,"orig":"","vertexType":"NORMAL"},"legGeometry":{"points":"uthfHh}zpLtB`CoA~Ca@e@Q[Mu@[j@","length":7},"rentedBike":false,"transitLeg":false,"duration":194.0,"steps":[{"distance":81.226,"relativeDirection":"DEPART","streetName":"service road","absoluteDirection":"SOUTHWEST","stayOn":false,"area":false,"bogusName":true,"lon":-71.08580460382532,"lat":48.38235152300571,"elevation":[]},{"distance":73.854,"relativeDirection":"RIGHT","streetName":"Boulevard du Royaume Ouest","absoluteDirection":"NORTHWEST","stayOn":false,"area":false,"bogusName":false,"lon":-71.0864598,"lat":48.381764800000006,"elevation":[]},{"distance":82.838,"relativeDirection":"RIGHT","streetName":"service road","absoluteDirection":"NORTHEAST","stayOn":false,"area":false,"bogusName":true,"lon":-71.0872595,"lat":48.382163600000005,"elevation":[]}]}],"tooSloped":false}]},"debugOutput":{"precalculationTime":19,"pathCalculationTime":47,"pathTimes":[20,11,16],"renderingTime":1,"totalTime":67,"timedOut":false},"elevationMetadata":{"ellipsoidToGeoidDifference":-28.885904201182168,"geoidElevation":false}}