{"requestParameters":{"date":"2018/04/02","walkSpeed":"1.33","walkReluctance":"2.0","fromPlace":"48.403727,-71.056775","maxWalkDistance":"3000","waitReluctance":"1.0","carSpeed":"33","numItineraries":"3","waitAtBeginningFactor":"0.4","mode":"TRANSIT,WALK","ignoreRealtimeUpdates":"false","stairsReluctance":"2.0","toPlace":"48.438643,-71.06208999","time":"10:25:00"},"plan":{"date":1522679100000,"from":{"name":"Origin","lon":-71.056775,"lat":48.403727,"orig":"","vertexType":"NORMAL"},"to":{"name":"Destination","lon":-71.06208999,"lat":48.438643,"orig":"","vertexType":"NORMAL"},"itineraries":[{"duration":1790,"startTime":1522680698000,"endTime":1522682488000,"walkTime":323,"transitTime":1165,"waitingTime":302,"walkDistance":402.75495488457364,"walkLimitExceeded":false,"elevationLost":0.0,"elevationGained":0.0,"transfers":1,"legs":[{"startTime":1522680698000,"endTime":1522680899000,"departureDelay":0,"arrivalDelay":0,"realTime":false,"distance":250.65699999999998,"pathway":false,"mode":"WALK","route":"","agencyTimeZoneOffset":-14400000,"interlineWithPreviousLeg":false,"from":{"name":"Origin","lon":-71.056775,"lat":48.403727,"departure":1522680698000,"orig":"","vertexType":"NORMAL"},"to":{"name":"Place Royaume","stopId":"1:1801","stopCode":"1801","lon":-71.057017,"lat":48.405588,"arrival":1522680899000,"departure":1522680900000,"zoneId":"NA","stopIndex":10,"stopSequence":11,"vertexType":"TRANSIT"},"legGeometry":{"points":"a{lfHviupLEEWWSQ[[YWGGUCCCYU]Y[YYWq@tBa@zA","length":15},"rentedBike":false,"transitLeg":false,"duration":201.0,"steps":[{"distance":160.339,"relativeDirection":"DEPART","streetName":"service road","absoluteDirection":"NORTHEAST","stayOn":false,"area":false,"bogusName":false,"lon":-71.05707521889572,"lat":48.40385594353976,"elevation":[]},{"distance":90.318,"relativeDirection":"LEFT","streetName":"parking aisle","absoluteDirection":"NORTHWEST","stayOn":false,"area":false,"bogusName":true,"lon":-71.05600720000001,"lat":48.4050992,"elevation":[]}]},{"startTime":1522680900000,"endTime":1522681800000,"departureDelay":0,"arrivalDelay":0,"realTime":false,"distance":4188.036446582453,"pathway":false,"mode":"BUS","route":"175","agencyName":"Société de Transport du Saguenay","agencyUrl":"http://ville.saguenay.ca/fr/services-aux-citoyens/transport-sts","agencyTimeZoneOffset":-14400000,"routeColor":"FF00FF","routeType":3,"routeId":"1:175","routeTextColor":"FFFFFF","interlineWithPreviousLeg":false,"tripBlockId":"11","headsign":"Terminus Chicoutimi","agencyId":"0","tripId":"1:217470","serviceDate":"20180402","from":{"name":"Place Royaume","stopId":"1:1801","stopCode":"1801","lon":-71.057017,"lat":48.405588,"arrival":1522680899000,"departure":1522680900000,"zoneId":"NA","stopIndex":10,"stopSequence":11,"vertexType":"TRANSIT"},"to":{"name":"Terminus Chicoutimi","stopId":"1:1289","stopCode":"1289","lon":-71.066163,"lat":48.428677,"arrival":1522681800000,"departure":1522682100000,"zoneId":"NA","stopIndex":27,"stopSequence":28,"vertexType":"TRANSIT"},"legGeometry":{"points":"sfmfH`kupL_U_TcNgNcBcB{E`Jc@x@qG~@{BlAk@XgSrQqB_GAeFiEeEOt@gAeA_A_ATm@yAwAgBeBqDnL@nBF`@f@|C[dCuAfB]xAs@OmCmCmEkE]a@g@i@ZiGTmEl@oLaEe@cFk@?pH?tJDvBPjMB~Bo@PQDRbFKdGMhIOvIK|EQpHoCQEdC","length":51},"routeShortName":"175","routeLongName":"Term. Chic / Costco","rentedBike":false,"transitLeg":true,"duration":900.0,"steps":[]},{"startTime":1522682100000,"endTime":1522682365000,"departureDelay":0,"arrivalDelay":0,"realTime":false,"distance":1162.148281913648,"pathway":false,"mode":"BUS","route":"24","agencyName":"Société de Transport du Saguenay","agencyUrl":"http://ville.saguenay.ca/fr/services-aux-citoyens/transport-sts","agencyTimeZoneOffset":-14400000,"routeColor":"00FF00","routeType":3,"routeId":"1:24","routeTextColor":"000000","interlineWithPreviousLeg":false,"tripBlockId":"5","headsign":"Terminus Chicoutimi","agencyId":"0","tripId":"1:217259","serviceDate":"20180402","from":{"name":"Terminus Chicoutimi","stopId":"1:1289","stopCode":"1289","lon":-71.066163,"lat":48.428677,"arrival":1522681800000,"departure":1522682100000,"zoneId":"NA","stopIndex":0,"stopSequence":1,"vertexType":"TRANSIT"},"to":{"name":"Roussel / St-Éphrem","stopId":"1:771","stopCode":"771","lon":-71.063155,"lat":48.437822,"arrival":1522682365000,"departure":1522682366000,"zoneId":"NA","stopIndex":2,"stopSequence":3,"vertexType":"TRANSIT"},"legGeometry":{"points":"evqfHzcwpLg@?EhBO~GoBKCp@O\\WjGOfGCRK^KJMHQB_AMg@Gm\\wO]i@wAyA_@WUKMEwEm@Js@Da@??@@??@?@???@???@?@??A@???@A@??A@??A@A??@A?A??@A?A?A?A@A?A???A?A?A???A?A?A?A???A?AAA?A???AAA?A??AA?AA??AA??A??AA??A??AA?A???A????q@C{AAaB?mAEcAGs@OoAa@sB[kAYcA","length":99},"routeShortName":"24","routeLongName":"Saint-Luc","rentedBike":false,"transitLeg":true,"duration":265.0,"steps":[]},{"startTime":1522682366000,"endTime":1522682488000,"departureDelay":0,"arrivalDelay":0,"realTime":false,"distance":152.016,"pathway":false,"mode":"WALK","route":"","agencyTimeZoneOffset":-14400000,"interlineWithPreviousLeg":false,"from":{"name":"Roussel / St-Éphrem","stopId":"1:771","stopCode":"771","lon":-71.063155,"lat":48.437822,"arrival":1522682365000,"departure":1522682366000,"zoneId":"NA","stopIndex":2,"stopSequence":3,"vertexType":"TRANSIT"},"to":{"name":"Destination","lon":-71.06208999,"lat":48.438643,"arrival":1522682488000,"orig":"","vertexType":"NORMAL"},"legGeometry":{"points":"yosfHdpvpLUs@Kc@S{@O}@Eo@Gw@k@S","length":8},"rentedBike":false,"transitLeg":false,"duration":122.0,"steps":[{"distance":126.279,"relativeDirection":"DEPART","streetName":"Rue Roussel","absoluteDirection":"NORTHEAST","stayOn":false,"area":false,"bogusName":false,"lon":-71.06322717074731,"lat":48.4378981822846,"elevation":[]},{"distance":25.737,"relativeDirection":"LEFT","streetName":"Boulevard de Tadoussac","absoluteDirection":"NORTH","stayOn":false,"area":false,"bogusName":false,"lon":-71.0616517,"lat":48.4383174,"elevation":[]}]}],"tooSloped":false},{"duration":3259,"startTime":1522679615000,"endTime":1522682874000,"walkTime":1397,"transitTime":1860,"waitingTime":2,"walkDistance":1799.3066090146956,"walkLimitExceeded":false,"elevationLost":0.0,"elevationGained":0.0,"transfers":0,"legs":[{"startTime":1522679615000,"endTime":1522679819000,"departureDelay":0,"arrivalDelay":0,"realTime":false,"distance":256.48499999999996,"pathway":false,"mode":"WALK","route":"","agencyTimeZoneOffset":-14400000,"interlineWithPreviousLeg":false,"from":{"name":"Origin","lon":-71.056775,"lat":48.403727,"departure":1522679615000,"orig":"","vertexType":"NORMAL"},"to":{"name":"Place du Royaume (Saguenéens)","stopId":"1:1294","stopCode":"1294","lon":-71.057691,"lat":48.402355,"arrival":1522679819000,"departure":1522679820000,"zoneId":"NA","stopIndex":24,"stopSequence":25,"vertexType":"TRANSIT"},"legGeometry":{"points":"a{lfHviupLRRXXr@p@XVXXb@`@h@`AZl@FLLi@`@eC","length":12},"rentedBike":false,"transitLeg":false,"duration":204.0,"steps":[{"distance":186.47699999999998,"relativeDirection":"DEPART","streetName":"service road","absoluteDirection":"SOUTHWEST","stayOn":false,"area":false,"bogusName":false,"lon":-71.05707521889572,"lat":48.40385594353976,"elevation":[]},{"distance":70.008,"relativeDirection":"LEFT","streetName":"Rue des Saguenéens","absoluteDirection":"SOUTHEAST","stayOn":false,"area":false,"bogusName":false,"lon":-71.0586019,"lat":48.4025327,"elevation":[]}]},{"startTime":1522679820000,"endTime":1522680120000,"departureDelay":0,"arrivalDelay":0,"realTime":false,"distance":3143.631018514618,"pathway":false,"mode":"BUS","route":"15","agencyName":"Société de Transport du Saguenay","agencyUrl":"http://ville.saguenay.ca/fr/services-aux-citoyens/transport-sts","agencyTimeZoneOffset":-14400000,"routeColor":"FF00FF","routeType":3,"routeId":"1:15","routeTextColor":"FFFFFF","interlineWithPreviousLeg":false,"tripBlockId":"33","headsign":"Talbot / Barrette","agencyId":"0","tripId":"1:218179","serviceDate":"20180402","from":{"name":"Place du Royaume (Saguenéens)","stopId":"1:1294","stopCode":"1294","lon":-71.057691,"lat":48.402355,"arrival":1522679819000,"departure":1522679820000,"zoneId":"NA","stopIndex":24,"stopSequence":25,"vertexType":"TRANSIT"},"to":{"name":"Roitelets / Sapins","stopId":"1:1543","stopCode":"1543","lon":-71.069553,"lat":48.393375,"arrival":1522680120000,"departure":1522680120000,"zoneId":"NA","stopIndex":35,"stopSequence":36,"vertexType":"TRANSIT"},"legGeometry":{"points":"_rlfHjmupLbCaO?qLa@uJzF`ApF~@~@PzAgEeDcBf@qAWcKUqEx@Ef@ExDVjDxAFBrBvAfGjG@BjCzC~DxC@@zA~Cb@fCJlC?BsBre@?DWbOAn@?nEGnM@H\\hCzA~ELvAAlAi@jDo@nB","length":40},"routeShortName":"15","routeLongName":"Term. Chic / Costco","rentedBike":false,"transitLeg":true,"duration":300.0,"steps":[]},{"startTime":1522680120000,"endTime":1522681680000,"departureDelay":0,"arrivalDelay":0,"realTime":false,"distance":9621.046301683697,"pathway":false,"mode":"BUS","route":"14","agencyName":"Société de Transport du Saguenay","agencyUrl":"http://ville.saguenay.ca/fr/services-aux-citoyens/transport-sts","agencyTimeZoneOffset":-14400000,"routeColor":"C0C000","routeType":3,"routeId":"1:14","routeTextColor":"000000","interlineWithPreviousLeg":true,"tripBlockId":"33","headsign":"Terminus Chicoutimi","agencyId":"0","tripId":"1:218180","serviceDate":"20180402","from":{"name":"Roitelets / Sapins","stopId":"1:1513","stopCode":"1513","lon":-71.069396,"lat":48.393523,"arrival":1522680120000,"departure":1522680120000,"zoneId":"NA","stopIndex":0,"stopSequence":1,"vertexType":"TRANSIT"},"to":{"name":"Terminus Chicoutimi","stopId":"1:1289","stopCode":"1289","lon":-71.066163,"lat":48.428677,"arrival":1522681680000,"departure":1522681681000,"zoneId":"NA","stopIndex":37,"stopSequence":38,"vertexType":"TRANSIT"},"legGeometry":{"points":"azjfHfwwpLiEfLuBzFsAnDgGzSWfAcD`Mi@dCgChLmCzMwGd\\aDxOdFtFhCtCdDY|F_On@aB`B_GNoBvAyT|@sNuAyAuF}F}AaB_BkAC@qC\\gAWiBwBiKgMiCwEgEyHCGy@uB}@rAa@nAc@lFEf@mGvUYfAqCs@ICMCqFmDc@s@mAkBuEoESUgAhDiAfD}@zDyAcA_@Um@U{AWgB_Au@s@EEsBkCqFgF{IiI][aBhE}@}@oBmBwE{EwE{Ej@mBZeAa@SyEQg@CPcALuCx@{b@t@{[XoDd@sBl@iB~@gA`G{F{A{D_@sBFqDOq@iG{FGIoCkCgBgBsDpLHzBBT`@~COnBQf@gAjAg@bBuDmDmFgFa@_@w@s@CfAOrBEtAGbA?jBQtC?|@ExKMdIG~EUnLEhC}CKkBOkCOYbC","length":117},"routeShortName":"14","routeLongName":"Coopérative","rentedBike":false,"transitLeg":true,"duration":1560.0,"steps":[]},{"startTime":1522681681000,"endTime":1522682874000,"departureDelay":0,"arrivalDelay":0,"realTime":false,"distance":1542.5780000000002,"pathway":false,"mode":"WALK","route":"","agencyTimeZoneOffset":-14400000,"interlineWithPreviousLeg":false,"from":{"name":"Terminus Chicoutimi","stopId":"1:1289","stopCode":"1289","lon":-71.066163,"lat":48.428677,"arrival":1522681680000,"departure":1522681681000,"zoneId":"NA","stopIndex":37,"stopSequence":38,"vertexType":"TRANSIT"},"to":{"name":"Destination","lon":-71.06208999,"lat":48.438643,"arrival":1522682874000,"orig":"","vertexType":"NORMAL"},"legGeometry":{"points":"{uqfHb~vpL_BMOAa@CILKJ[TaAn@@FDX?\\CTEb@GHCb@C|@ALEDCBCr@DBBBElBEp@e]uBQuBMBwAcLy@eGgA_CyB}BiAi@cFcBk@S","length":34},"rentedBike":false,"transitLeg":false,"duration":1193.0,"steps":[{"distance":81.079,"relativeDirection":"DEPART","streetName":"Rue Morin","absoluteDirection":"NORTH","stayOn":false,"area":false,"bogusName":false,"lon":-71.0654590096484,"lat":48.428628638946556,"elevation":[]},{"distance":259.336,"relativeDirection":"LEFT","streetName":"path","absoluteDirection":"NORTHWEST","stayOn":false,"area":false,"bogusName":true,"lon":-71.0653539,"lat":48.4293544,"elevation":[]},{"distance":538.684,"relativeDirection":"RIGHT","streetName":"Pont de Sainte-Anne","absoluteDirection":"NORTH","stayOn":false,"area":false,"bogusName":false,"lon":-71.0682024,"lat":48.4301132,"elevation":[]},{"distance":52.638,"relativeDirection":"RIGHT","streetName":"bike path","absoluteDirection":"EAST","stayOn":false,"area":false,"bogusName":true,"lon":-71.0676151,"lat":48.434942,"elevation":[]},{"distance":610.841,"relativeDirection":"RIGHT","streetName":"Boulevard de Tadoussac","absoluteDirection":"EAST","stayOn":false,"area":false,"bogusName":false,"lon":-71.0670497,"lat":48.4351063,"elevation":[]}]}],"tooSloped":false},{"duration":2723,"startTime":1522680335000,"endTime":1522683058000,"walkTime":262,"transitTime":2039,"waitingTime":422,"walkDistance":332.68212029919914,"walkLimitExceeded":false,"elevationLost":0.0,"elevationGained":0.0,"transfers":1,"legs":[{"startTime":1522680335000,"endTime":1522680539000,"departureDelay":0,"arrivalDelay":0,"realTime":false,"distance":256.48499999999996,"pathway":false,"mode":"WALK","route":"","agencyTimeZoneOffset":-14400000,"interlineWithPreviousLeg":false,"from":{"name":"Origin","lon":-71.056775,"lat":48.403727,"departure":1522680335000,"orig":"","vertexType":"NORMAL"},"to":{"name":"Place du Royaume (Saguenéens)","stopId":"1:1294","stopCode":"1294","lon":-71.057691,"lat":48.402355,"arrival":1522680539000,"departure":1522680540000,"zoneId":"NA","stopIndex":11,"stopSequence":12,"vertexType":"TRANSIT"},"legGeometry":{"points":"a{lfHviupLRRXXr@p@XVXXb@`@h@`AZl@FLLi@`@eC","length":12},"rentedBike":false,"transitLeg":false,"duration":204.0,"steps":[{"distance":186.47699999999998,"relativeDirection":"DEPART","streetName":"service road","absoluteDirection":"SOUTHWEST","stayOn":false,"area":false,"bogusName":false,"lon":-71.05707521889572,"lat":48.40385594353976,"elevation":[]},{"distance":70.008,"relativeDirection":"LEFT","streetName":"Rue des Saguenéens","absoluteDirection":"SOUTHEAST","stayOn":false,"area":false,"bogusName":false,"lon":-71.0586019,"lat":48.4025327,"elevation":[]}]},{"startTime":1522680540000,"endTime":1522681680000,"departureDelay":0,"arrivalDelay":0,"realTime":false,"distance":6028.851523869202,"pathway":false,"mode":"BUS","route":"15","agencyName":"Société de Transport du Saguenay","agencyUrl":"http://ville.saguenay.ca/fr/services-aux-citoyens/transport-sts","agencyTimeZoneOffset":-14400000,"routeColor":"FF00FF","routeType":3,"routeId":"1:15","routeTextColor":"FFFFFF","interlineWithPreviousLeg":false,"tripBlockId":"32","headsign":"Terminus Chicoutimi","agencyId":"0","tripId":"1:218155","serviceDate":"20180402","from":{"name":"Place du Royaume (Saguenéens)","stopId":"1:1294","stopCode":"1294","lon":-71.057691,"lat":48.402355,"arrival":1522680539000,"departure":1522680540000,"zoneId":"NA","stopIndex":11,"stopSequence":12,"vertexType":"TRANSIT"},"to":{"name":"Terminus Chicoutimi","stopId":"1:1289","stopCode":"1289","lon":-71.066163,"lat":48.428677,"arrival":1522681680000,"departure":1522682100000,"zoneId":"NA","stopIndex":39,"stopSequence":40,"vertexType":"TRANSIT"},"legGeometry":{"points":"eqlfHzmupLUxAm@nCcAlDeCvGmA|CUr@}@~A_@\\_DvCEZcA|@UP_@d@Yl@oBdFeCxG_CfGYVQXS\\dK|HlFZbC\\p@zA\\rB@hBiArG{BNw@FiG}@iDwAECcCcBo@y@sEeGe@o@qAa@m@MoB?C@}BZwAc@oA_Bs@gDCKZ{Di@QECc@_@sAkAoBwB_EcE{A_BoAmAk@o@cCaCkIkIaJaJUUwBaCj@wCjAsCzGoG_CoHL{D_@kAqD{CQr@iAcAy@w@L{@wAuA_B_B_EpLDh@NbBVvCIxBg@`Am@l@Sb@a@rAqDqDmEkE]a@kAqAU|@WnKG|DGxDOdPKvJU|F?XQlJC~@ChAIzEcCOaIi@VwL","length":102},"routeShortName":"15","routeLongName":"Term. Chic / Costco","rentedBike":false,"transitLeg":true,"duration":1140.0,"steps":[]},{"startTime":1522682100000,"endTime":1522682999000,"departureDelay":0,"arrivalDelay":0,"realTime":false,"distance":6493.865562373815,"pathway":false,"mode":"BUS","route":"23","agencyName":"Société de Transport du Saguenay","agencyUrl":"http://ville.saguenay.ca/fr/services-aux-citoyens/transport-sts","agencyTimeZoneOffset":-14400000,"routeColor":"FF00FF","routeType":3,"routeId":"1:23","routeTextColor":"FFFFFF","interlineWithPreviousLeg":false,"tripBlockId":"4","headsign":"Terminus Chicoutimi","agencyId":"0","tripId":"1:217232","serviceDate":"20180402","from":{"name":"Terminus Chicoutimi","stopId":"1:1289","stopCode":"1289","lon":-71.066163,"lat":48.428677,"arrival":1522681680000,"departure":1522682100000,"zoneId":"NA","stopIndex":0,"stopSequence":1,"vertexType":"TRANSIT"},"to":{"name":"boul. Tadoussac / Bourget","stopId":"1:831","stopCode":"831","lon":-71.061384,"lat":48.43922,"arrival":1522682999000,"departure":1522683000000,"zoneId":"NA","stopIndex":21,"stopSequence":22,"vertexType":"TRANSIT"},"legGeometry":{"points":"kwqfHjbwpLF_CkAOYCm@rRO\\WjGOfGCRK^KJMHQB_AMg@Gw`@eR}@g@u@Su@Ia@Ck@Dm@HwAf@c@VeAx@iAlAU^[d@eLtTsAvB_CvEuAnCmBlE}@|B_BvFoC`JCD}@hCo@~Aq@pAs@fA{BlCqH|Iq@Bq@Im@UGCUi@Wm@ScA_@gGSaE@_@@_@@ERoBFe@No@`@gAbCyFNe@Ha@He@Fg@Du@Dg@Hc@Pa@RW\\S`@QZEm@eHM}B?GGi@Is@Ou@Qw@Mo@Kw@ImAGoBAk@aALa@?YEUKc@Yc@_@KOIUGUEWAW?YBqAH_AXeC@IdB_Mh@_EJk@d@kDhAqI`AgHz@oGBU?UAWCWUwAWD]B]AUEoAc@kE}AOIq@g@g@u@]w@b@s@T[~CkFf@s@\\e@x@}@jAeAXQZStBaAh@]`@]`@i@l@kDF_@R{AFWFMPIPC`@BT@V?TAVKLENCLCJ@J@xAb@x@Zz@\\CP?R@N@NFLFF`GtBx@Xw@pG@l@B\\DXL\\RZDFXPf@N@v@Bp@Dr@l@~HNlAH\\@HLd@\\z@Xd@X\\RTXRr@Zn@PfExA","length":188},"routeShortName":"23","routeLongName":"Côte Verdun via Aréna du Plateau","rentedBike":false,"transitLeg":true,"duration":899.0,"steps":[]},{"startTime":1522683000000,"endTime":1522683058000,"departureDelay":0,"arrivalDelay":0,"realTime":false,"distance":76.149,"pathway":false,"mode":"WALK","route":"","agencyTimeZoneOffset":-14400000,"interlineWithPreviousLeg":false,"from":{"name":"boul. Tadoussac / Bourget","stopId":"1:831","stopCode":"831","lon":-71.061384,"lat":48.43922,"arrival":1522682999000,"departure":1522683000000,"zoneId":"NA","stopIndex":21,"stopSequence":22,"vertexType":"TRANSIT"},"to":{"name":"Destination","lon":-71.06208999,"lat":48.438643,"arrival":1522683058000,"orig":"","vertexType":"NORMAL"},"legGeometry":{"points":"}wsfH|cvpLbCx@","length":2},"rentedBike":false,"transitLeg":false,"duration":58.0,"steps":[{"distance":76.149,"relativeDirection":"DEPART","streetName":"Boulevard de Tadoussac","absoluteDirection":"SOUTH","stayOn":false,"area":false,"bogusName":false,"lon":-71.06126606265329,"lat":48.43919724946793,"elevation":[]}]}],"tooSloped":false}]},"debugOutput":{"precalculationTime":25,"pathCalculationTime":49,"pathTimes":[21,14,14],"renderingTime":0,"totalTime":74,"timedOut":false},"elevationMetadata":{"ellipsoidToGeoidDifference":-28.885904201182168,"geoidElevation":false}}