{"requestParameters":{"date":"2018/04/02","walkSpeed":"1.33","walkReluctance":"2.0","fromPlace":"48.405991,-71.058711","maxWalkDistance":"3000","waitReluctance":"1.0","carSpeed":"33","numItineraries":"3","waitAtBeginningFactor":"0.4","mode":"TRANSIT,WALK","ignoreRealtimeUpdates":"false","stairsReluctance":"2.0","toPlace":"48.398646,-71.064081","time":"14:15:00"},"plan":{"date":1522692900000,"from":{"name":"Origin","lon":-71.058711,"lat":48.405991,"orig":"","vertexType":"NORMAL"},"to":{"name":"Destination","lon":-71.064081,"lat":48.398646,"orig":"","vertexType":"NORMAL"},"itineraries":[{"duration":748,"startTime":1522692900000,"endTime":1522693648000,"walkTime":748,"transitTime":0,"waitingTime":0,"walkDistance":973.5629248097739,"walkLimitExceeded":false,"elevationLost":0.0,"elevationGained":0.0,"transfers":0,"legs":[{"startTime":1522692900000,"endTime":1522693648000,"departureDelay":0,"arrivalDelay":0,"realTime":false,"distance":973.493,"pathway":false,"mode":"WALK","route":"","agencyTimeZoneOffset":-14400000,"interlineWithPreviousLeg":false,"from":{"name":"Origin","lon":-71.058711,"lat":48.405991,"departure":1522692900000,"orig":"","vertexType":"NORMAL"},"to":{"name":"Destination","lon":-71.064081,"lat":48.398646,"arrival":1522693648000,"orig":"","vertexType":"NORMAL"},"legGeometry":{"points":"igmfHbqupLFDxAjAzBlBZXr@_CjF~EPPVTfDbDjAhAvBtBbC`Cn@v@t@`AhCfDLNPc@V\\FHNPRZ","length":22},"rentedBike":false,"transitLeg":false,"duration":748.0,"steps":[{"distance":216.553,"relativeDirection":"DEPART","streetName":"parking aisle","absoluteDirection":"SOUTHWEST","stayOn":false,"area":false,"bogusName":false,"lon":-71.05825112020366,"lat":48.40581355272311,"elevation":[]},{"distance":756.94,"relativeDirection":"RIGHT","streetName":"Boulevard Talbot","absoluteDirection":"SOUTHWEST","stayOn":false,"area":false,"bogusName":false,"lon":-71.0587038,"lat":48.4043008,"elevation":[]}]}],"tooSloped":false},{"duration":604,"startTime":1522693589000,"endTime":1522694193000,"walkTime":556,"transitTime":46,"waitingTime":2,"walkDistance":722.3572932309114,"walkLimitExceeded":false,"elevationLost":0.0,"elevationGained":0.0,"transfers":0,"legs":[{"startTime":1522693589000,"endTime":1522693975000,"departureDelay":0,"arrivalDelay":0,"realTime":false,"distance":510.075,"pathway":false,"mode":"WALK","route":"","agencyTimeZoneOffset":-14400000,"interlineWithPreviousLeg":false,"from":{"name":"Origin","lon":-71.058711,"lat":48.405991,"departure":1522693589000,"orig":"","vertexType":"NORMAL"},"to":{"name":"boul. Talbot (no. 1494) (Tim-Horton)","stopId":"1:1854","stopCode":"1854","lon":-71.060941,"lat":48.402118,"arrival":1522693975000,"departure":1522693976000,"zoneId":"NA","stopIndex":21,"stopSequence":22,"vertexType":"TRANSIT"},"legGeometry":{"points":"igmfHbqupLFDxAjAzBlBZXr@_CjF~EPPVTfDbD","length":10},"rentedBike":false,"transitLeg":false,"duration":386.0,"steps":[{"distance":216.553,"relativeDirection":"DEPART","streetName":"parking aisle","absoluteDirection":"SOUTHWEST","stayOn":false,"area":false,"bogusName":false,"lon":-71.05825112020366,"lat":48.40581355272311,"elevation":[]},{"distance":293.522,"relativeDirection":"RIGHT","streetName":"Boulevard Talbot","absoluteDirection":"SOUTHWEST","stayOn":false,"area":false,"bogusName":false,"lon":-71.0587038,"lat":48.4043008,"elevation":[]}]},{"startTime":1522693976000,"endTime":1522694022000,"departureDelay":0,"arrivalDelay":0,"realTime":false,"distance":250.18303720442486,"pathway":false,"mode":"BUS","route":"175","agencyName":"Société de Transport du Saguenay","agencyUrl":"http://ville.saguenay.ca/fr/services-aux-citoyens/transport-sts","agencyTimeZoneOffset":-14400000,"routeColor":"FF00FF","routeType":3,"routeId":"1:175","routeTextColor":"FFFFFF","interlineWithPreviousLeg":false,"tripBlockId":"6","headsign":"Costco","agencyId":"0","tripId":"1:217300","serviceDate":"20180402","from":{"name":"boul. Talbot (no. 1494) (Tim-Horton)","stopId":"1:1854","stopCode":"1854","lon":-71.060941,"lat":48.402118,"arrival":1522693975000,"departure":1522693976000,"zoneId":"NA","stopIndex":21,"stopSequence":22,"vertexType":"TRANSIT"},"to":{"name":"boul. Talbot (no.1600) (mode Choc)","stopId":"1:86","stopCode":"86","lon":-71.06283,"lat":48.40025,"arrival":1522694022000,"departure":1522694023000,"zoneId":"NA","stopIndex":22,"stopSequence":23,"vertexType":"TRANSIT"},"legGeometry":{"points":"_plfHjavpLjF`FjCrC","length":3},"routeShortName":"175","routeLongName":"Term. Chic / Costco","rentedBike":false,"transitLeg":true,"duration":46.0,"steps":[]},{"startTime":1522694023000,"endTime":1522694193000,"departureDelay":0,"arrivalDelay":0,"realTime":false,"distance":212.215,"pathway":false,"mode":"WALK","route":"","agencyTimeZoneOffset":-14400000,"interlineWithPreviousLeg":false,"from":{"name":"boul. Talbot (no.1600) (mode Choc)","stopId":"1:86","stopCode":"86","lon":-71.06283,"lat":48.40025,"arrival":1522694022000,"departure":1522694023000,"zoneId":"NA","stopIndex":22,"stopSequence":23,"vertexType":"TRANSIT"},"to":{"name":"Destination","lon":-71.064081,"lat":48.398646,"arrival":1522694193000,"orig":"","vertexType":"NORMAL"},"legGeometry":{"points":"edlfHbmvpLt@`AhCfDLNPc@V\\FHNPRZ","length":9},"rentedBike":false,"transitLeg":false,"duration":170.0,"steps":[{"distance":212.215,"relativeDirection":"DEPART","streetName":"Boulevard Talbot","absoluteDirection":"SOUTHWEST","stayOn":false,"area":false,"bogusName":false,"lon":-71.06273598252479,"lat":48.400199941215426,"elevation":[]}]}],"tooSloped":false},{"duration":604,"startTime":1522695389000,"endTime":1522695993000,"walkTime":556,"transitTime":46,"waitingTime":2,"walkDistance":722.3572932309114,"walkLimitExceeded":false,"elevationLost":0.0,"elevationGained":0.0,"transfers":0,"legs":[{"startTime":1522695389000,"endTime":1522695775000,"departureDelay":0,"arrivalDelay":0,"realTime":false,"distance":510.075,"pathway":false,"mode":"WALK","route":"","agencyTimeZoneOffset":-14400000,"interlineWithPreviousLeg":false,"from":{"name":"Origin","lon":-71.058711,"lat":48.405991,"departure":1522695389000,"orig":"","vertexType":"NORMAL"},"to":{"name":"boul. Talbot (no. 1494) (Tim-Horton)","stopId":"1:1854","stopCode":"1854","lon":-71.060941,"lat":48.402118,"arrival":1522695775000,"departure":1522695776000,"zoneId":"NA","stopIndex":21,"stopSequence":22,"vertexType":"TRANSIT"},"legGeometry":{"points":"igmfHbqupLFDxAjAzBlBZXr@_CjF~EPPVTfDbD","length":10},"rentedBike":false,"transitLeg":false,"duration":386.0,"steps":[{"distance":216.553,"relativeDirection":"DEPART","streetName":"parking aisle","absoluteDirection":"SOUTHWEST","stayOn":false,"area":false,"bogusName":false,"lon":-71.05825112020366,"lat":48.40581355272311,"elevation":[]},{"distance":293.522,"relativeDirection":"RIGHT","streetName":"Boulevard Talbot","absoluteDirection":"SOUTHWEST","stayOn":false,"area":false,"bogusName":false,"lon":-71.0587038,"lat":48.4043008,"elevation":[]}]},{"startTime":1522695776000,"endTime":1522695822000,"departureDelay":0,"arrivalDelay":0,"realTime":false,"distance":250.18303720442486,"pathway":false,"mode":"BUS","route":"175","agencyName":"Société de Transport du Saguenay","agencyUrl":"http://ville.saguenay.ca/fr/services-aux-citoyens/transport-sts","agencyTimeZoneOffset":-14400000,"routeColor":"FF00FF","routeType":3,"routeId":"1:175","routeTextColor":"FFFFFF","interlineWithPreviousLeg":false,"tripBlockId":"7","headsign":"Costco","agencyId":"0","tripId":"1:217337","serviceDate":"20180402","from":{"name":"boul. Talbot (no. 1494) (Tim-Horton)","stopId":"1:1854","stopCode":"1854","lon":-71.060941,"lat":48.402118,"arrival":1522695775000,"departure":1522695776000,"zoneId":"NA","stopIndex":21,"stopSequence":22,"vertexType":"TRANSIT"},"to":{"name":"boul. Talbot (no.1600) (mode Choc)","stopId":"1:86","stopCode":"86","lon":-71.06283,"lat":48.40025,"arrival":1522695822000,"departure":1522695823000,"zoneId":"NA","stopIndex":22,"stopSequence":23,"vertexType":"TRANSIT"},"legGeometry":{"points":"_plfHjavpLjF`FjCrC","length":3},"routeShortName":"175","routeLongName":"Term. Chic / Costco","rentedBike":false,"transitLeg":true,"duration":46.0,"steps":[]},{"startTime":1522695823000,"endTime":1522695993000,"departureDelay":0,"arrivalDelay":0,"realTime":false,"distance":212.215,"pathway":false,"mode":"WALK","route":"","agencyTimeZoneOffset":-14400000,"interlineWithPreviousLeg":false,"from":{"name":"boul. Talbot (no.1600) (mode Choc)","stopId":"1:86","stopCode":"86","lon":-71.06283,"lat":48.40025,"arrival":1522695822000,"departure":1522695823000,"zoneId":"NA","stopIndex":22,"stopSequence":23,"vertexType":"TRANSIT"},"to":{"name":"Destination","lon":-71.064081,"lat":48.398646,"arrival":1522695993000,"orig":"","vertexType":"NORMAL"},"legGeometry":{"points":"edlfHbmvpLt@`AhCfDLNPc@V\\FHNPRZ","length":9},"rentedBike":false,"transitLeg":false,"duration":170.0,"steps":[{"distance":212.215,"relativeDirection":"DEPART","streetName":"Boulevard Talbot","absoluteDirection":"SOUTHWEST","stayOn":false,"area":false,"bogusName":false,"lon":-71.06273598252479,"lat":48.400199941215426,"elevation":[]}]}],"tooSloped":false}]},"debugOutput":{"precalculationTime":29,"pathCalculationTime":24,"pathTimes":[14,4,6],"renderingTime":0,"totalTime":53,"timedOut":false},"elevationMetadata":{"ellipsoidToGeoidDifference":-28.885904201182168,"geoidElevation":false}}