{"requestParameters":{"date":"2018/04/02","walkSpeed":"1.33","walkReluctance":"2.0","fromPlace":"48.402536,-71.060502","maxWalkDistance":"3000","waitReluctance":"1.0","carSpeed":"33","numItineraries":"3","waitAtBeginningFactor":"0.4","mode":"TRANSIT,WALK","ignoreRealtimeUpdates":"false","stairsReluctance":"2.0","toPlace":"48.395708,-71.063101","time":"16:25:00"},"plan":{"date":1522700700000,"from":{"name":"Origin","lon":-71.060502,"lat":48.402536,"orig":"","vertexType":"NORMAL"},"to":{"name":"Destination","lon":-71.063101,"lat":48.395708,"orig":"","vertexType":"NORMAL"},"itineraries":[{"duration":733,"startTime":1522701215000,"endTime":1522701948000,"walkTime":421,"transitTime":310,"waitingTime":2,"walkDistance":533.8320902211726,"walkLimitExceeded":false,"elevationLost":0.0,"elevationGained":0.0,"transfers":0,"legs":[{"startTime":1522701215000,"endTime":1522701358000,"departureDelay":0,"arrivalDelay":0,"realTime":false,"distance":184.157,"pathway":false,"mode":"WALK","route":"","agencyTimeZoneOffset":-14400000,"interlineWithPreviousLeg":false,"from":{"name":"Origin","lon":-71.060502,"lat":48.402536,"departure":1522701215000,"orig":"","vertexType":"NORMAL"},"to":{"name":"Saguenéens  / Bach","stopId":"1:575","stopCode":"575","lon":-71.061104,"lat":48.403689,"arrival":1522701358000,"departure":1522701359000,"zoneId":"NA","stopIndex":23,"stopSequence":24,"vertexType":"TRANSIT"},"legGeometry":{"points":"srlfHt~upLqAoAWUyBvF","length":4},"rentedBike":false,"transitLeg":false,"duration":143.0,"steps":[{"distance":69.87100000000001,"relativeDirection":"DEPART","streetName":"Boulevard Talbot","absoluteDirection":"NORTHEAST","stayOn":false,"area":false,"bogusName":false,"lon":-71.06042777213257,"lat":48.4025039799129,"elevation":[]},{"distance":114.286,"relativeDirection":"LEFT","streetName":"Rue des Saguenéens","absoluteDirection":"NORTHWEST","stayOn":false,"area":false,"bogusName":false,"lon":-71.0599121,"lat":48.403030900000005,"elevation":[]}]},{"startTime":1522701359000,"endTime":1522701669000,"departureDelay":0,"arrivalDelay":0,"realTime":false,"distance":2878.9128468748763,"pathway":false,"mode":"BUS","route":"15","agencyName":"Société de Transport du Saguenay","agencyUrl":"http://ville.saguenay.ca/fr/services-aux-citoyens/transport-sts","agencyTimeZoneOffset":-14400000,"routeColor":"FF00FF","routeType":3,"routeId":"1:15","routeTextColor":"FFFFFF","interlineWithPreviousLeg":false,"tripBlockId":"33","headsign":"Talbot / Barrette","agencyId":"0","tripId":"1:218191","serviceDate":"20180402","from":{"name":"Saguenéens  / Bach","stopId":"1:575","stopCode":"575","lon":-71.061104,"lat":48.403689,"arrival":1522701358000,"departure":1522701359000,"zoneId":"NA","stopIndex":23,"stopSequence":24,"vertexType":"TRANSIT"},"to":{"name":"Roitelets / Harfangs","stopId":"1:41","stopCode":"41","lon":-71.062016,"lat":48.393522,"arrival":1522701669000,"departure":1522701670000,"zoneId":"NA","stopIndex":33,"stopSequence":34,"vertexType":"TRANSIT"},"legGeometry":{"points":"ezlfHvbvpLtC{FnBoLbCaO?qLa@uJzF`ApF~@~@PzAgEeDcBf@qAWcKUqEx@Ef@ExDVjDxAFBrBvAfGjG@BjCzC~DxC@@zA~Cb@fCJlC?BsBre@?DWbOAn@","length":33},"routeShortName":"15","routeLongName":"Term. Chic / Costco","rentedBike":false,"transitLeg":true,"duration":310.0,"steps":[]},{"startTime":1522701670000,"endTime":1522701948000,"departureDelay":0,"arrivalDelay":0,"realTime":false,"distance":349.53900000000004,"pathway":false,"mode":"WALK","route":"","agencyTimeZoneOffset":-14400000,"interlineWithPreviousLeg":false,"from":{"name":"Roitelets / Harfangs","stopId":"1:41","stopCode":"41","lon":-71.062016,"lat":48.393522,"arrival":1522701669000,"departure":1522701670000,"zoneId":"NA","stopIndex":33,"stopSequence":34,"vertexType":"TRANSIT"},"to":{"name":"Destination","lon":-71.063101,"lat":48.395708,"arrival":1522701948000,"orig":"","vertexType":"NORMAL"},"legGeometry":{"points":"{zjfHrhvpLCtB?l@ICqFC_@nBW`AaBqASU","length":9},"rentedBike":false,"transitLeg":false,"duration":278.0,"steps":[{"distance":60.612,"relativeDirection":"DEPART","streetName":"bike path","absoluteDirection":"WEST","stayOn":false,"area":false,"bogusName":true,"lon":-71.06201246040693,"lat":48.39358810555136,"elevation":[]},{"distance":5.738,"relativeDirection":"RIGHT","streetName":"path","absoluteDirection":"NORTH","stayOn":true,"area":false,"bogusName":true,"lon":-71.062833,"lat":48.393602200000004,"elevation":[]},{"distance":134.231,"relativeDirection":"CONTINUE","streetName":"Rue des Passerins","absoluteDirection":"NORTH","stayOn":false,"area":false,"bogusName":false,"lon":-71.0628185,"lat":48.393652900000006,"elevation":[]},{"distance":73.098,"relativeDirection":"LEFT","streetName":"Rue des Merlebleus","absoluteDirection":"NORTHWEST","stayOn":false,"area":false,"bogusName":false,"lon":-71.0627992,"lat":48.39486,"elevation":[]},{"distance":75.86,"relativeDirection":"RIGHT","streetName":"Rue des Cygnes","absoluteDirection":"NORTHEAST","stayOn":false,"area":false,"bogusName":false,"lon":-71.06368690000001,"lat":48.395149800000006,"elevation":[]}]}],"tooSloped":false},{"duration":946,"startTime":1522701132000,"endTime":1522702078000,"walkTime":760,"transitTime":184,"waitingTime":2,"walkDistance":978.4608571382475,"walkLimitExceeded":false,"elevationLost":0.0,"elevationGained":0.0,"transfers":0,"legs":[{"startTime":1522701132000,"endTime":1522701175000,"departureDelay":0,"arrivalDelay":0,"realTime":false,"distance":56.632,"pathway":false,"mode":"WALK","route":"","agencyTimeZoneOffset":-14400000,"interlineWithPreviousLeg":false,"from":{"name":"Origin","lon":-71.060502,"lat":48.402536,"departure":1522701132000,"orig":"","vertexType":"NORMAL"},"to":{"name":"boul. Talbot (no. 1494) (Tim-Horton)","stopId":"1:1854","stopCode":"1854","lon":-71.060941,"lat":48.402118,"arrival":1522701175000,"departure":1522701176000,"zoneId":"NA","stopIndex":21,"stopSequence":22,"vertexType":"TRANSIT"},"legGeometry":{"points":"srlfHt~upLtArA","length":2},"rentedBike":false,"transitLeg":false,"duration":43.0,"steps":[{"distance":56.632,"relativeDirection":"DEPART","streetName":"Boulevard Talbot","absoluteDirection":"SOUTHWEST","stayOn":false,"area":false,"bogusName":false,"lon":-71.06042777213257,"lat":48.4025039799129,"elevation":[]}]},{"startTime":1522701176000,"endTime":1522701360000,"departureDelay":0,"arrivalDelay":0,"realTime":false,"distance":1002.070971778586,"pathway":false,"mode":"BUS","route":"175","agencyName":"Société de Transport du Saguenay","agencyUrl":"http://ville.saguenay.ca/fr/services-aux-citoyens/transport-sts","agencyTimeZoneOffset":-14400000,"routeColor":"FF00FF","routeType":3,"routeId":"1:175","routeTextColor":"FFFFFF","interlineWithPreviousLeg":false,"tripBlockId":"7","headsign":"Costco","agencyId":"0","tripId":"1:217340","serviceDate":"20180402","from":{"name":"boul. Talbot (no. 1494) (Tim-Horton)","stopId":"1:1854","stopCode":"1854","lon":-71.060941,"lat":48.402118,"arrival":1522701175000,"departure":1522701176000,"zoneId":"NA","stopIndex":21,"stopSequence":22,"vertexType":"TRANSIT"},"to":{"name":"boul. Talbot (no. 1870)","stopId":"1:1556","stopCode":"1556","lon":-71.069429,"lat":48.3951,"arrival":1522701360000,"departure":1522701361000,"zoneId":"NA","stopIndex":24,"stopSequence":25,"vertexType":"TRANSIT"},"legGeometry":{"points":"_plfHjavpLjF`FjCrCrAvAbCfDjIfMdAzAfFpHd@n@nC`D","length":10},"routeShortName":"175","routeLongName":"Term. Chic / Costco","rentedBike":false,"transitLeg":true,"duration":184.0,"steps":[]},{"startTime":1522701361000,"endTime":1522702078000,"departureDelay":0,"arrivalDelay":0,"realTime":false,"distance":921.6859999999999,"pathway":false,"mode":"WALK","route":"","agencyTimeZoneOffset":-14400000,"interlineWithPreviousLeg":false,"from":{"name":"boul. Talbot (no. 1870)","stopId":"1:1556","stopCode":"1556","lon":-71.069429,"lat":48.3951,"arrival":1522701360000,"departure":1522701361000,"zoneId":"NA","stopIndex":24,"stopSequence":25,"vertexType":"TRANSIT"},"to":{"name":"Destination","lon":-71.063101,"lat":48.395708,"arrival":1522702078000,"orig":"","vertexType":"NORMAL"},"legGeometry":{"points":"adkfHjvwpL~DxENPPc@FQ@CnA{C@EV_@Z}@VmAN{ADsAKiAa@uAEOw@iC]mCgBVuB{BgAiAo@o@Ru@XaAaBqASU","length":26},"rentedBike":false,"transitLeg":false,"duration":717.0,"steps":[{"distance":145.045,"relativeDirection":"DEPART","streetName":"Boulevard Talbot","absoluteDirection":"SOUTHWEST","stayOn":false,"area":false,"bogusName":false,"lon":-71.0693341574882,"lat":48.39505259726926,"elevation":[]},{"distance":16.634,"relativeDirection":"LEFT","streetName":"Boulevard Barrette","absoluteDirection":"SOUTHEAST","stayOn":false,"area":false,"bogusName":false,"lon":-71.0705155,"lat":48.394010400000006,"elevation":[]},{"distance":414.76800000000003,"relativeDirection":"CONTINUE","streetName":"Rue Des Roitelets","absoluteDirection":"SOUTHEAST","stayOn":false,"area":false,"bogusName":false,"lon":-71.0703318,"lat":48.3939238,"elevation":[]},{"distance":269.379,"relativeDirection":"LEFT","streetName":"Rue des Merlebleus","absoluteDirection":"NORTH","stayOn":false,"area":false,"bogusName":false,"lon":-71.065394,"lat":48.393663200000006,"elevation":[]},{"distance":75.86,"relativeDirection":"LEFT","streetName":"Rue des Cygnes","absoluteDirection":"NORTHEAST","stayOn":false,"area":false,"bogusName":false,"lon":-71.06368690000001,"lat":48.395149800000006,"elevation":[]}]}],"tooSloped":false},{"duration":733,"startTime":1522703015000,"endTime":1522703748000,"walkTime":421,"transitTime":310,"waitingTime":2,"walkDistance":533.8320902211726,"walkLimitExceeded":false,"elevationLost":0.0,"elevationGained":0.0,"transfers":0,"legs":[{"startTime":1522703015000,"endTime":1522703158000,"departureDelay":0,"arrivalDelay":0,"realTime":false,"distance":184.157,"pathway":false,"mode":"WALK","route":"","agencyTimeZoneOffset":-14400000,"interlineWithPreviousLeg":false,"from":{"name":"Origin","lon":-71.060502,"lat":48.402536,"departure":1522703015000,"orig":"","vertexType":"NORMAL"},"to":{"name":"Saguenéens  / Bach","stopId":"1:575","stopCode":"575","lon":-71.061104,"lat":48.403689,"arrival":1522703158000,"departure":1522703159000,"zoneId":"NA","stopIndex":23,"stopSequence":24,"vertexType":"TRANSIT"},"legGeometry":{"points":"srlfHt~upLqAoAWUyBvF","length":4},"rentedBike":false,"transitLeg":false,"duration":143.0,"steps":[{"distance":69.87100000000001,"relativeDirection":"DEPART","streetName":"Boulevard Talbot","absoluteDirection":"NORTHEAST","stayOn":false,"area":false,"bogusName":false,"lon":-71.06042777213257,"lat":48.4025039799129,"elevation":[]},{"distance":114.286,"relativeDirection":"LEFT","streetName":"Rue des Saguenéens","absoluteDirection":"NORTHWEST","stayOn":false,"area":false,"bogusName":false,"lon":-71.0599121,"lat":48.403030900000005,"elevation":[]}]},{"startTime":1522703159000,"endTime":1522703469000,"departureDelay":0,"arrivalDelay":0,"realTime":false,"distance":2878.9128468748763,"pathway":false,"mode":"BUS","route":"15","agencyName":"Société de Transport du Saguenay","agencyUrl":"http://ville.saguenay.ca/fr/services-aux-citoyens/transport-sts","agencyTimeZoneOffset":-14400000,"routeColor":"FF00FF","routeType":3,"routeId":"1:15","routeTextColor":"FFFFFF","interlineWithPreviousLeg":false,"tripBlockId":"31","headsign":"Talbot / Barrette","agencyId":"0","tripId":"1:218142","serviceDate":"20180402","from":{"name":"Saguenéens  / Bach","stopId":"1:575","stopCode":"575","lon":-71.061104,"lat":48.403689,"arrival":1522703158000,"departure":1522703159000,"zoneId":"NA","stopIndex":23,"stopSequence":24,"vertexType":"TRANSIT"},"to":{"name":"Roitelets / Harfangs","stopId":"1:41","stopCode":"41","lon":-71.062016,"lat":48.393522,"arrival":1522703469000,"departure":1522703470000,"zoneId":"NA","stopIndex":33,"stopSequence":34,"vertexType":"TRANSIT"},"legGeometry":{"points":"ezlfHvbvpLtC{FnBoLbCaO?qLa@uJzF`ApF~@~@PzAgEeDcBf@qAWcKUqEx@Ef@ExDVjDxAFBrBvAfGjG@BjCzC~DxC@@zA~Cb@fCJlC?BsBre@?DWbOAn@","length":33},"routeShortName":"15","routeLongName":"Term. Chic / Costco","rentedBike":false,"transitLeg":true,"duration":310.0,"steps":[]},{"startTime":1522703470000,"endTime":1522703748000,"departureDelay":0,"arrivalDelay":0,"realTime":false,"distance":349.53900000000004,"pathway":false,"mode":"WALK","route":"","agencyTimeZoneOffset":-14400000,"interlineWithPreviousLeg":false,"from":{"name":"Roitelets / Harfangs","stopId":"1:41","stopCode":"41","lon":-71.062016,"lat":48.393522,"arrival":1522703469000,"departure":1522703470000,"zoneId":"NA","stopIndex":33,"stopSequence":34,"vertexType":"TRANSIT"},"to":{"name":"Destination","lon":-71.063101,"lat":48.395708,"arrival":1522703748000,"orig":"","vertexType":"NORMAL"},"legGeometry":{"points":"{zjfHrhvpLCtB?l@ICqFC_@nBW`AaBqASU","length":9},"rentedBike":false,"transitLeg":false,"duration":278.0,"steps":[{"distance":60.612,"relativeDirection":"DEPART","streetName":"bike path","absoluteDirection":"WEST","stayOn":false,"area":false,"bogusName":true,"lon":-71.06201246040693,"lat":48.39358810555136,"elevation":[]},{"distance":5.738,"relativeDirection":"RIGHT","streetName":"path","absoluteDirection":"NORTH","stayOn":true,"area":false,"bogusName":true,"lon":-71.062833,"lat":48.393602200000004,"elevation":[]},{"distance":134.231,"relativeDirection":"CONTINUE","streetName":"Rue des Passerins","absoluteDirection":"NORTH","stayOn":false,"area":false,"bogusName":false,"lon":-71.0628185,"lat":48.393652900000006,"elevation":[]},{"distance":73.098,"relativeDirection":"LEFT","streetName":"Rue des Merlebleus","absoluteDirection":"NORTHWEST","stayOn":false,"area":false,"bogusName":false,"lon":-71.0627992,"lat":48.39486,"elevation":[]},{"distance":75.86,"relativeDirection":"RIGHT","streetName":"Rue des Cygnes","absoluteDirection":"NORTHEAST","stayOn":false,"area":false,"bogusName":false,"lon":-71.06368690000001,"lat":48.395149800000006,"elevation":[]}]}],"tooSloped":false}]},"debugOutput":{"precalculationTime":22,"pathCalculationTime":25,"pathTimes":[15,5,5],"renderingTime":1,"totalTime":48,"timedOut":false},"elevationMetadata":{"ellipsoidToGeoidDifference":-28.885904201182168,"geoidElevation":false}}