{"requestParameters":{"date":"2018/04/02","walkSpeed":"1.33","walkReluctance":"2.0","fromPlace":"48.428197,-71.06305199","maxWalkDistance":"3000","waitReluctance":"1.0","carSpeed":"33","numItineraries":"3","waitAtBeginningFactor":"0.4","mode":"TRANSIT,WALK","ignoreRealtimeUpdates":"false","stairsReluctance":"2.0","toPlace":"48.456334,-71.065312","time":"17:10:00"},"plan":{"date":1522703400000,"from":{"name":"Origin","lon":-71.06305199,"lat":48.428197,"orig":"","vertexType":"NORMAL"},"to":{"name":"Destination","lon":-71.065312,"lat":48.456334,"orig":"","vertexType":"NORMAL"},"itineraries":[{"duration":1201,"startTime":1522703433000,"endTime":1522704634000,"walkTime":719,"transitTime":480,"waitingTime":2,"walkDistance":890.1401127708192,"walkLimitExceeded":false,"elevationLost":0.0,"elevationGained":0.0,"transfers":0,"legs":[{"startTime":1522703433000,"endTime":1522703699000,"departureDelay":0,"arrivalDelay":0,"realTime":false,"distance":320.484,"pathway":false,"mode":"WALK","route":"","agencyTimeZoneOffset":-14400000,"interlineWithPreviousLeg":false,"from":{"name":"Origin","lon":-71.06305199,"lat":48.428197,"departure":1522703433000,"orig":"","vertexType":"NORMAL"},"to":{"name":"Terminus Chicoutimi","stopId":"1:1289","stopCode":"1289","lon":-71.066163,"lat":48.428677,"arrival":1522703699000,"departure":1522703700000,"zoneId":"NA","stopIndex":0,"stopSequence":1,"vertexType":"TRANSIT"},"legGeometry":{"points":"{rqfHbovpL?RD@BD@F@F?B\\@Zc@GpBAXAj@SzHc@MKESAcAK","length":17},"rentedBike":false,"transitLeg":false,"duration":266.0,"steps":[{"distance":58.267,"relativeDirection":"DEPART","streetName":"path","absoluteDirection":"WEST","stayOn":false,"area":false,"bogusName":false,"lon":-71.0630513640887,"lat":48.4281432089404,"elevation":[]},{"distance":185.01,"relativeDirection":"HARD_RIGHT","streetName":"Rue Racine Est","absoluteDirection":"WEST","stayOn":false,"area":false,"bogusName":false,"lon":-71.0631276,"lat":48.4277876,"elevation":[]},{"distance":77.207,"relativeDirection":"RIGHT","streetName":"Rue Morin","absoluteDirection":"NORTH","stayOn":false,"area":false,"bogusName":false,"lon":-71.0656238,"lat":48.4279449,"elevation":[]}]},{"startTime":1522703700000,"endTime":1522704180000,"departureDelay":0,"arrivalDelay":0,"realTime":false,"distance":3171.96201036206,"pathway":false,"mode":"BUS","route":"22","agencyName":"Société de Transport du Saguenay","agencyUrl":"http://ville.saguenay.ca/fr/services-aux-citoyens/transport-sts","agencyTimeZoneOffset":-14400000,"routeColor":"C0C000","routeType":3,"routeId":"1:22","routeTextColor":"000000","interlineWithPreviousLeg":false,"tripBlockId":"3","headsign":"Terminus Chicoutimi","agencyId":"0","tripId":"1:217208","serviceDate":"20180402","from":{"name":"Terminus Chicoutimi","stopId":"1:1289","stopCode":"1289","lon":-71.066163,"lat":48.428677,"arrival":1522703699000,"departure":1522703700000,"zoneId":"NA","stopIndex":0,"stopSequence":1,"vertexType":"TRANSIT"},"to":{"name":"Delisle / Vimy","stopId":"1:2016","stopCode":"2016","lon":-71.060948,"lat":48.45351,"arrival":1522704180000,"departure":1522704181000,"zoneId":"NA","stopIndex":9,"stopSequence":10,"vertexType":"TRANSIT"},"legGeometry":{"points":"evqfHzcwpLg@?UhKxDVOhHMrH~CYhBBInAKXSNg@L{JHgBMoA[s@Usb@gS}@g@u@Su@Ia@Ck@Dm@HwAf@c@VeAx@iAlAU^[d@eLtTsAvBMJYF[EMIQ]y@wB[y@[{@_B{D{@uBe@gAO}AGw@SaCmAZe@AYOy@o@MKsAcA}BmBuC}BgA}@}BsBaAaA{@y@d@kDp@uEyIkDqHwC_@QmLyE","length":63},"routeShortName":"22","routeLongName":"Vanier","rentedBike":false,"transitLeg":true,"duration":480.0,"steps":[]},{"startTime":1522704181000,"endTime":1522704634000,"departureDelay":0,"arrivalDelay":0,"realTime":false,"distance":569.311,"pathway":false,"mode":"WALK","route":"","agencyTimeZoneOffset":-14400000,"interlineWithPreviousLeg":false,"from":{"name":"Delisle / Vimy","stopId":"1:2016","stopCode":"2016","lon":-71.060948,"lat":48.45351,"arrival":1522704180000,"departure":1522704181000,"zoneId":"NA","stopIndex":9,"stopSequence":10,"vertexType":"TRANSIT"},"to":{"name":"Destination","lon":-71.065312,"lat":48.456334,"arrival":1522704634000,"orig":"","vertexType":"NORMAL"},"legGeometry":{"points":"qqvfHpbvpLcAa@e@vBMh@SKgAGe@j@g@`@_AbAKv@m@fF}Bo@y@xI","length":13},"rentedBike":false,"transitLeg":false,"duration":453.0,"steps":[{"distance":40.259,"relativeDirection":"DEPART","streetName":"Rue Delisle","absoluteDirection":"NORTH","stayOn":false,"area":false,"bogusName":false,"lon":-71.061046170069,"lat":48.4535313186617,"elevation":[]},{"distance":66.223,"relativeDirection":"LEFT","streetName":"Rue de Vimy","absoluteDirection":"NORTHWEST","stayOn":false,"area":false,"bogusName":false,"lon":-71.0608763,"lat":48.4538754,"elevation":[]},{"distance":169.15699999999998,"relativeDirection":"RIGHT","streetName":"path","absoluteDirection":"NORTH","stayOn":false,"area":false,"bogusName":true,"lon":-71.0616861,"lat":48.4541327,"elevation":[]},{"distance":89.722,"relativeDirection":"CONTINUE","streetName":"Rue Vimont","absoluteDirection":"WEST","stayOn":false,"area":false,"bogusName":false,"lon":-71.0625945,"lat":48.4553603,"elevation":[]},{"distance":72.562,"relativeDirection":"RIGHT","streetName":"Rue Lalande","absoluteDirection":"NORTH","stayOn":false,"area":false,"bogusName":false,"lon":-71.0637592,"lat":48.4555936,"elevation":[]},{"distance":131.388,"relativeDirection":"LEFT","streetName":"Rue de Nancy","absoluteDirection":"WEST","stayOn":false,"area":false,"bogusName":false,"lon":-71.0635153,"lat":48.456225800000006,"elevation":[]}]}],"tooSloped":false},{"duration":1838,"startTime":1522703433000,"endTime":1522705271000,"walkTime":1176,"transitTime":660,"waitingTime":2,"walkDistance":1486.1515714163559,"walkLimitExceeded":false,"elevationLost":0.0,"elevationGained":0.0,"transfers":0,"legs":[{"startTime":1522703433000,"endTime":1522703699000,"departureDelay":0,"arrivalDelay":0,"realTime":false,"distance":320.484,"pathway":false,"mode":"WALK","route":"","agencyTimeZoneOffset":-14400000,"interlineWithPreviousLeg":false,"from":{"name":"Origin","lon":-71.06305199,"lat":48.428197,"departure":1522703433000,"orig":"","vertexType":"NORMAL"},"to":{"name":"Terminus Chicoutimi","stopId":"1:1289","stopCode":"1289","lon":-71.066163,"lat":48.428677,"arrival":1522703699000,"departure":1522703700000,"zoneId":"NA","stopIndex":0,"stopSequence":1,"vertexType":"TRANSIT"},"legGeometry":{"points":"{rqfHbovpL?RD@BD@F@F?B\\@Zc@GpBAXAj@SzHc@MKESAcAK","length":17},"rentedBike":false,"transitLeg":false,"duration":266.0,"steps":[{"distance":58.267,"relativeDirection":"DEPART","streetName":"path","absoluteDirection":"WEST","stayOn":false,"area":false,"bogusName":false,"lon":-71.0630513640887,"lat":48.4281432089404,"elevation":[]},{"distance":185.01,"relativeDirection":"HARD_RIGHT","streetName":"Rue Racine Est","absoluteDirection":"WEST","stayOn":false,"area":false,"bogusName":false,"lon":-71.0631276,"lat":48.4277876,"elevation":[]},{"distance":77.207,"relativeDirection":"RIGHT","streetName":"Rue Morin","absoluteDirection":"NORTH","stayOn":false,"area":false,"bogusName":false,"lon":-71.0656238,"lat":48.4279449,"elevation":[]}]},{"startTime":1522703700000,"endTime":1522704360000,"departureDelay":0,"arrivalDelay":0,"realTime":false,"distance":4846.683748665354,"pathway":false,"mode":"BUS","route":"23","agencyName":"Société de Transport du Saguenay","agencyUrl":"http://ville.saguenay.ca/fr/services-aux-citoyens/transport-sts","agencyTimeZoneOffset":-14400000,"routeColor":"FF00FF","routeType":3,"routeId":"1:23","routeTextColor":"FFFFFF","interlineWithPreviousLeg":false,"tripBlockId":"4","headsign":"Terminus Chicoutimi","agencyId":"0","tripId":"1:217244","serviceDate":"20180402","from":{"name":"Terminus Chicoutimi","stopId":"1:1289","stopCode":"1289","lon":-71.066163,"lat":48.428677,"arrival":1522703699000,"departure":1522703700000,"zoneId":"NA","stopIndex":0,"stopSequence":1,"vertexType":"TRANSIT"},"to":{"name":"Verdun / Riviera","stopId":"1:2023","stopCode":"2023","lon":-71.057875,"lat":48.449739,"arrival":1522704360000,"departure":1522704361000,"zoneId":"NA","stopIndex":14,"stopSequence":15,"vertexType":"TRANSIT"},"legGeometry":{"points":"kwqfHjbwpLF_CkAOYCm@rRO\\WjGOfGCRK^KJMHQB_AMg@Gw`@eR}@g@u@Su@Ia@Ck@Dm@HwAf@c@VeAx@iAlAU^[d@eLtTsAvB_CvEuAnCmBlE}@|B_BvFoC`JCD}@hCo@~Aq@pAs@fA{BlCqH|Iq@Bq@Im@UGCUi@Wm@ScA_@gGSaE@_@@_@@ERoBFe@No@`@gAbCyFNe@Ha@He@Fg@Du@Dg@Hc@Pa@RW\\S`@QZEm@eHM}B?GGi@Is@Ou@Qw@Mo@Kw@ImAGoBAk@aALa@?YEUKc@Yc@_@KOIUGUEWAW?YBqAH_AXeC@IdB_Mh@_EJk@d@kDhAqI`AgHz@oGBU?UAWCWUwAWD]B]AUEoAc@kE}AOIq@g@g@u@]w@b@s@","length":123},"routeShortName":"23","routeLongName":"Côte Verdun via Aréna du Plateau","rentedBike":false,"transitLeg":true,"duration":660.0,"steps":[]},{"startTime":1522704361000,"endTime":1522705271000,"departureDelay":0,"arrivalDelay":0,"realTime":false,"distance":1165.2889999999998,"pathway":false,"mode":"WALK","route":"","agencyTimeZoneOffset":-14400000,"interlineWithPreviousLeg":false,"from":{"name":"Verdun / Riviera","stopId":"1:2023","stopCode":"2023","lon":-71.057875,"lat":48.449739,"arrival":1522704360000,"departure":1522704361000,"zoneId":"NA","stopIndex":14,"stopSequence":15,"vertexType":"TRANSIT"},"to":{"name":"Destination","lon":-71.065312,"lat":48.456334,"arrival":1522705271000,"orig":"","vertexType":"NORMAL"},"legGeometry":{"points":"czufHfnupLg@x@_ArAcBq@WIwCgAyCeAOGmAbIG^Ib@GZOd@Q`@U`@kB|Ce@vBMh@SKgAGe@j@g@`@_AbAKv@m@fF}Bo@y@xI","length":27},"rentedBike":false,"transitLeg":false,"duration":910.0,"steps":[{"distance":77.14,"relativeDirection":"DEPART","streetName":"Rue de Verdun","absoluteDirection":"NORTHWEST","stayOn":false,"area":false,"bogusName":false,"lon":-71.05779790898674,"lat":48.44978803093983,"elevation":[]},{"distance":260.302,"relativeDirection":"RIGHT","streetName":"Rue Richelieu","absoluteDirection":"NORTH","stayOn":false,"area":false,"bogusName":false,"lon":-71.05850140000001,"lat":48.450301200000006,"elevation":[]},{"distance":365.018,"relativeDirection":"LEFT","streetName":"Rue de Vimy","absoluteDirection":"WEST","stayOn":false,"area":false,"bogusName":false,"lon":-71.0574594,"lat":48.4525377,"elevation":[]},{"distance":169.15699999999998,"relativeDirection":"RIGHT","streetName":"path","absoluteDirection":"NORTH","stayOn":false,"area":false,"bogusName":true,"lon":-71.0616861,"lat":48.4541327,"elevation":[]},{"distance":89.722,"relativeDirection":"CONTINUE","streetName":"Rue Vimont","absoluteDirection":"WEST","stayOn":false,"area":false,"bogusName":false,"lon":-71.0625945,"lat":48.4553603,"elevation":[]},{"distance":72.562,"relativeDirection":"RIGHT","streetName":"Rue Lalande","absoluteDirection":"NORTH","stayOn":false,"area":false,"bogusName":false,"lon":-71.0637592,"lat":48.4555936,"elevation":[]},{"distance":131.388,"relativeDirection":"LEFT","streetName":"Rue de Nancy","absoluteDirection":"WEST","stayOn":false,"area":false,"bogusName":false,"lon":-71.0635153,"lat":48.456225800000006,"elevation":[]}]}],"tooSloped":false},{"duration":1201,"startTime":1522705233000,"endTime":1522706434000,"walkTime":719,"transitTime":480,"waitingTime":2,"walkDistance":890.1401127708192,"walkLimitExceeded":false,"elevationLost":0.0,"elevationGained":0.0,"transfers":0,"legs":[{"startTime":1522705233000,"endTime":1522705499000,"departureDelay":0,"arrivalDelay":0,"realTime":false,"distance":320.484,"pathway":false,"mode":"WALK","route":"","agencyTimeZoneOffset":-14400000,"interlineWithPreviousLeg":false,"from":{"name":"Origin","lon":-71.06305199,"lat":48.428197,"departure":1522705233000,"orig":"","vertexType":"NORMAL"},"to":{"name":"Terminus Chicoutimi","stopId":"1:1289","stopCode":"1289","lon":-71.066163,"lat":48.428677,"arrival":1522705499000,"departure":1522705500000,"zoneId":"NA","stopIndex":0,"stopSequence":1,"vertexType":"TRANSIT"},"legGeometry":{"points":"{rqfHbovpL?RD@BD@F@F?B\\@Zc@GpBAXAj@SzHc@MKESAcAK","length":17},"rentedBike":false,"transitLeg":false,"duration":266.0,"steps":[{"distance":58.267,"relativeDirection":"DEPART","streetName":"path","absoluteDirection":"WEST","stayOn":false,"area":false,"bogusName":false,"lon":-71.0630513640887,"lat":48.4281432089404,"elevation":[]},{"distance":185.01,"relativeDirection":"HARD_RIGHT","streetName":"Rue Racine Est","absoluteDirection":"WEST","stayOn":false,"area":false,"bogusName":false,"lon":-71.0631276,"lat":48.4277876,"elevation":[]},{"distance":77.207,"relativeDirection":"RIGHT","streetName":"Rue Morin","absoluteDirection":"NORTH","stayOn":false,"area":false,"bogusName":false,"lon":-71.0656238,"lat":48.4279449,"elevation":[]}]},{"startTime":1522705500000,"endTime":1522705980000,"departureDelay":0,"arrivalDelay":0,"realTime":false,"distance":3171.96201036206,"pathway":false,"mode":"BUS","route":"22","agencyName":"Société de Transport du Saguenay","agencyUrl":"http://ville.saguenay.ca/fr/services-aux-citoyens/transport-sts","agencyTimeZoneOffset":-14400000,"routeColor":"C0C000","routeType":3,"routeId":"1:22","routeTextColor":"000000","interlineWithPreviousLeg":false,"tripBlockId":"1","headsign":"Terminus Chicoutimi","agencyId":"0","tripId":"1:217151","serviceDate":"20180402","from":{"name":"Terminus Chicoutimi","stopId":"1:1289","stopCode":"1289","lon":-71.066163,"lat":48.428677,"arrival":1522705499000,"departure":1522705500000,"zoneId":"NA","stopIndex":0,"stopSequence":1,"vertexType":"TRANSIT"},"to":{"name":"Delisle / Vimy","stopId":"1:2016","stopCode":"2016","lon":-71.060948,"lat":48.45351,"arrival":1522705980000,"departure":1522705981000,"zoneId":"NA","stopIndex":9,"stopSequence":10,"vertexType":"TRANSIT"},"legGeometry":{"points":"evqfHzcwpLg@?UhKxDVOhHMrH~CYhBBInAKXSNg@L{JHgBMoA[s@Usb@gS}@g@u@Su@Ia@Ck@Dm@HwAf@c@VeAx@iAlAU^[d@eLtTsAvBMJYF[EMIQ]y@wB[y@[{@_B{D{@uBe@gAO}AGw@SaCmAZe@AYOy@o@MKsAcA}BmBuC}BgA}@}BsBaAaA{@y@d@kDp@uEyIkDqHwC_@QmLyE","length":63},"routeShortName":"22","routeLongName":"Vanier","rentedBike":false,"transitLeg":true,"duration":480.0,"steps":[]},{"startTime":1522705981000,"endTime":1522706434000,"departureDelay":0,"arrivalDelay":0,"realTime":false,"distance":569.311,"pathway":false,"mode":"WALK","route":"","agencyTimeZoneOffset":-14400000,"interlineWithPreviousLeg":false,"from":{"name":"Delisle / Vimy","stopId":"1:2016","stopCode":"2016","lon":-71.060948,"lat":48.45351,"arrival":1522705980000,"departure":1522705981000,"zoneId":"NA","stopIndex":9,"stopSequence":10,"vertexType":"TRANSIT"},"to":{"name":"Destination","lon":-71.065312,"lat":48.456334,"arrival":1522706434000,"orig":"","vertexType":"NORMAL"},"legGeometry":{"points":"qqvfHpbvpLcAa@e@vBMh@SKgAGe@j@g@`@_AbAKv@m@fF}Bo@y@xI","length":13},"rentedBike":false,"transitLeg":false,"duration":453.0,"steps":[{"distance":40.259,"relativeDirection":"DEPART","streetName":"Rue Delisle","absoluteDirection":"NORTH","stayOn":false,"area":false,"bogusName":false,"lon":-71.061046170069,"lat":48.4535313186617,"elevation":[]},{"distance":66.223,"relativeDirection":"LEFT","streetName":"Rue de Vimy","absoluteDirection":"NORTHWEST","stayOn":false,"area":false,"bogusName":false,"lon":-71.0608763,"lat":48.4538754,"elevation":[]},{"distance":169.15699999999998,"relativeDirection":"RIGHT","streetName":"path","absoluteDirection":"NORTH","stayOn":false,"area":false,"bogusName":true,"lon":-71.0616861,"lat":48.4541327,"elevation":[]},{"distance":89.722,"relativeDirection":"CONTINUE","streetName":"Rue Vimont","absoluteDirection":"WEST","stayOn":false,"area":false,"bogusName":false,"lon":-71.0625945,"lat":48.4553603,"elevation":[]},{"distance":72.562,"relativeDirection":"RIGHT","streetName":"Rue Lalande","absoluteDirection":"NORTH","stayOn":false,"area":false,"bogusName":false,"lon":-71.0637592,"lat":48.4555936,"elevation":[]},{"distance":131.388,"relativeDirection":"LEFT","streetName":"Rue de Nancy","absoluteDirection":"WEST","stayOn":false,"area":false,"bogusName":false,"lon":-71.0635153,"lat":48.456225800000006,"elevation":[]}]}],"tooSloped":false}]},"debugOutput":{"precalculationTime":22,"pathCalculationTime":32,"pathTimes":[18,6,8],"renderingTime":0,"totalTime":54,"timedOut":false},"elevationMetadata":{"ellipsoidToGeoidDifference":-28.885904201182168,"geoidElevation":false}}