{"requestParameters":{"date":"2018/04/02","walkSpeed":"1.33","walkReluctance":"2.0","fromPlace":"48.406865,-71.045312","maxWalkDistance":"3000","waitReluctance":"1.0","carSpeed":"33","numItineraries":"3","waitAtBeginningFactor":"0.4","mode":"TRANSIT,WALK","ignoreRealtimeUpdates":"false","stairsReluctance":"2.0","toPlace":"48.407764,-71.05336099","time":"11:0:00"},"plan":{"date":1522681200000,"from":{"name":"Origin","lon":-71.045312,"lat":48.406865,"orig":"","vertexType":"NORMAL"},"to":{"name":"Destination","lon":-71.05336099,"lat":48.407764,"orig":"","vertexType":"NORMAL"},"itineraries":[{"duration":668,"startTime":1522681200000,"endTime":1522681868000,"walkTime":668,"transitTime":0,"waitingTime":0,"walkDistance":849.2123007463846,"walkLimitExceeded":false,"elevationLost":0.0,"elevationGained":0.0,"transfers":0,"legs":[{"startTime":1522681200000,"endTime":1522681868000,"departureDelay":0,"arrivalDelay":0,"realTime":false,"distance":849.0419999999999,"pathway":false,"mode":"WALK","route":"","agencyTimeZoneOffset":-14400000,"interlineWithPreviousLeg":false,"from":{"name":"Origin","lon":-71.045312,"lat":48.406865,"departure":1522681200000,"orig":"","vertexType":"NORMAL"},"to":{"name":"Destination","lon":-71.05336099,"lat":48.407764,"arrival":1522681868000,"orig":"","vertexType":"NORMAL"},"legGeometry":{"points":"{lmfHvaspLQn@e@bArBzBdBhBBHf@h@~@dAkAjDMt@Bb@FbAcCj@OTMTM`@?fACb@@FFn@z@pEcA`AgAtAQTOb@q@xB","length":26},"rentedBike":false,"transitLeg":false,"duration":668.0,"steps":[{"distance":53.628,"relativeDirection":"DEPART","streetName":"Rue Adélard-Plourde","absoluteDirection":"NORTHWEST","stayOn":false,"area":false,"bogusName":false,"lon":-71.045551,"lat":48.4067,"elevation":[]},{"distance":223.03300000000002,"relativeDirection":"LEFT","streetName":"Rue Cyrille-Vaillancourt","absoluteDirection":"SOUTHWEST","stayOn":false,"area":false,"bogusName":false,"lon":-71.04613470000001,"lat":48.4069852,"elevation":[]},{"distance":136.063,"relativeDirection":"RIGHT","streetName":"Rue Alfred-Rouleau","absoluteDirection":"NORTHWEST","stayOn":false,"area":false,"bogusName":false,"lon":-71.0478951,"lat":48.4053594,"elevation":[]},{"distance":75.298,"relativeDirection":"RIGHT","streetName":"Rue Des Roitelets","absoluteDirection":"NORTH","stayOn":false,"area":false,"bogusName":false,"lon":-71.0495416,"lat":48.405743300000005,"elevation":[]},{"distance":38.282,"relativeDirection":"SLIGHTLY_LEFT","streetName":"link","absoluteDirection":"NORTHWEST","stayOn":false,"area":false,"bogusName":true,"lon":-71.0497612,"lat":48.4064046,"elevation":[]},{"distance":145.452,"relativeDirection":"SLIGHTLY_LEFT","streetName":"Rue Émile-Girardin","absoluteDirection":"WEST","stayOn":false,"area":false,"bogusName":false,"lon":-71.0501581,"lat":48.406621400000006,"elevation":[]},{"distance":177.286,"relativeDirection":"RIGHT","streetName":"Rue des Champs-Élysées","absoluteDirection":"NORTHWEST","stayOn":false,"area":false,"bogusName":false,"lon":-71.05202630000001,"lat":48.4062974,"elevation":[]}]}],"tooSloped":false},{"duration":671,"startTime":1522682544000,"endTime":1522683215000,"walkTime":620,"transitTime":49,"waitingTime":2,"walkDistance":785.1010451073595,"walkLimitExceeded":false,"elevationLost":0.0,"elevationGained":0.0,"transfers":0,"legs":[{"startTime":1522682544000,"endTime":1522682939000,"departureDelay":0,"arrivalDelay":0,"realTime":false,"distance":497.54900000000004,"pathway":false,"mode":"WALK","route":"","agencyTimeZoneOffset":-14400000,"interlineWithPreviousLeg":false,"from":{"name":"Origin","lon":-71.045312,"lat":48.406865,"departure":1522682544000,"orig":"","vertexType":"NORMAL"},"to":{"name":"Sûreté du Québec (Roitelets / Lorenzo-Genest)","stopId":"1:58","stopCode":"58","lon":-71.048311,"lat":48.40979,"arrival":1522682939000,"departure":1522682940000,"zoneId":"NA","stopIndex":15,"stopSequence":16,"vertexType":"TRANSIT"},"legGeometry":{"points":"{lmfHvaspLQn@e@bAgBfFoA~CsDmBu@dEqAq@GCk@Y","length":10},"rentedBike":false,"transitLeg":false,"duration":395.0,"steps":[{"distance":230.86900000000003,"relativeDirection":"DEPART","streetName":"Rue Adélard-Plourde","absoluteDirection":"NORTHWEST","stayOn":false,"area":false,"bogusName":false,"lon":-71.045551,"lat":48.4067,"elevation":[]},{"distance":107.983,"relativeDirection":"RIGHT","streetName":"Rue Joseph-Dandurand","absoluteDirection":"NORTH","stayOn":false,"area":false,"bogusName":false,"lon":-71.0480905,"lat":48.4079089,"elevation":[]},{"distance":78.536,"relativeDirection":"LEFT","streetName":"Rue Gaudiose-Brassard","absoluteDirection":"WEST","stayOn":false,"area":false,"bogusName":false,"lon":-71.0475432,"lat":48.408809500000004,"elevation":[]},{"distance":80.161,"relativeDirection":"RIGHT","streetName":"Rue Des Roitelets","absoluteDirection":"NORTH","stayOn":false,"area":false,"bogusName":false,"lon":-71.0485302,"lat":48.4090733,"elevation":[]}]},{"startTime":1522682940000,"endTime":1522682989000,"departureDelay":0,"arrivalDelay":0,"realTime":false,"distance":387.75112849750434,"pathway":false,"mode":"BUS","route":"175","agencyName":"Société de Transport du Saguenay","agencyUrl":"http://ville.saguenay.ca/fr/services-aux-citoyens/transport-sts","agencyTimeZoneOffset":-14400000,"routeColor":"FF00FF","routeType":3,"routeId":"1:175","routeTextColor":"FFFFFF","interlineWithPreviousLeg":false,"tripBlockId":"6","headsign":"Costco","agencyId":"0","tripId":"1:217294","serviceDate":"20180402","from":{"name":"Sûreté du Québec (Roitelets / Lorenzo-Genest)","stopId":"1:58","stopCode":"58","lon":-71.048311,"lat":48.40979,"arrival":1522682939000,"departure":1522682940000,"zoneId":"NA","stopIndex":15,"stopSequence":16,"vertexType":"TRANSIT"},"to":{"name":"Émile Girardin / Roitelets","stopId":"1:253","stopCode":"253","lon":-71.050677,"lat":48.406726,"arrival":1522682989000,"departure":1522682990000,"zoneId":"NA","stopIndex":17,"stopSequence":18,"vertexType":"TRANSIT"},"legGeometry":{"points":"{_nfHzqspLdM`GzCvAXrC","length":4},"routeShortName":"175","routeLongName":"Term. Chic / Costco","rentedBike":false,"transitLeg":true,"duration":49.0,"steps":[]},{"startTime":1522682990000,"endTime":1522683215000,"departureDelay":0,"arrivalDelay":0,"realTime":false,"distance":287.384,"pathway":false,"mode":"WALK","route":"","agencyTimeZoneOffset":-14400000,"interlineWithPreviousLeg":false,"from":{"name":"Émile Girardin / Roitelets","stopId":"1:253","stopCode":"253","lon":-71.050677,"lat":48.406726,"arrival":1522682989000,"departure":1522682990000,"zoneId":"NA","stopIndex":17,"stopSequence":18,"vertexType":"TRANSIT"},"to":{"name":"Destination","lon":-71.05336099,"lat":48.407764,"arrival":1522683215000,"orig":"","vertexType":"NORMAL"},"legGeometry":{"points":"qlmfHnatpL@J@FFn@z@pEcA`AgAtAQTOb@q@xB","length":10},"rentedBike":false,"transitLeg":false,"duration":225.0,"steps":[{"distance":110.098,"relativeDirection":"DEPART","streetName":"Rue Émile-Girardin","absoluteDirection":"WEST","stayOn":false,"area":false,"bogusName":false,"lon":-71.05063801296859,"lat":48.406654574894674,"elevation":[]},{"distance":177.286,"relativeDirection":"RIGHT","streetName":"Rue des Champs-Élysées","absoluteDirection":"NORTHWEST","stayOn":false,"area":false,"bogusName":false,"lon":-71.05202630000001,"lat":48.4062974,"elevation":[]}]}],"tooSloped":false},{"duration":544,"startTime":1522682940000,"endTime":1522683484000,"walkTime":458,"transitTime":84,"waitingTime":2,"walkDistance":578.82497743906,"walkLimitExceeded":false,"elevationLost":0.0,"elevationGained":0.0,"transfers":0,"legs":[{"startTime":1522682940000,"endTime":1522683335000,"departureDelay":0,"arrivalDelay":0,"realTime":false,"distance":497.54900000000004,"pathway":false,"mode":"WALK","route":"","agencyTimeZoneOffset":-14400000,"interlineWithPreviousLeg":false,"from":{"name":"Origin","lon":-71.045312,"lat":48.406865,"departure":1522682940000,"orig":"","vertexType":"NORMAL"},"to":{"name":"Sûreté du Québec (Roitelets / Lorenzo-Genest)","stopId":"1:58","stopCode":"58","lon":-71.048311,"lat":48.40979,"arrival":1522683335000,"departure":1522683336000,"zoneId":"NA","stopIndex":26,"stopSequence":27,"vertexType":"TRANSIT"},"legGeometry":{"points":"{lmfHvaspLQn@e@bAgBfFoA~CsDmBu@dEqAq@GCk@Y","length":10},"rentedBike":false,"transitLeg":false,"duration":395.0,"steps":[{"distance":230.86900000000003,"relativeDirection":"DEPART","streetName":"Rue Adélard-Plourde","absoluteDirection":"NORTHWEST","stayOn":false,"area":false,"bogusName":false,"lon":-71.045551,"lat":48.4067,"elevation":[]},{"distance":107.983,"relativeDirection":"RIGHT","streetName":"Rue Joseph-Dandurand","absoluteDirection":"NORTH","stayOn":false,"area":false,"bogusName":false,"lon":-71.0480905,"lat":48.4079089,"elevation":[]},{"distance":78.536,"relativeDirection":"LEFT","streetName":"Rue Gaudiose-Brassard","absoluteDirection":"WEST","stayOn":false,"area":false,"bogusName":false,"lon":-71.0475432,"lat":48.408809500000004,"elevation":[]},{"distance":80.161,"relativeDirection":"RIGHT","streetName":"Rue Des Roitelets","absoluteDirection":"NORTH","stayOn":false,"area":false,"bogusName":false,"lon":-71.0485302,"lat":48.4090733,"elevation":[]}]},{"startTime":1522683336000,"endTime":1522683420000,"departureDelay":0,"arrivalDelay":0,"realTime":false,"distance":533.9347446022477,"pathway":false,"mode":"BUS","route":"12","agencyName":"Société de Transport du Saguenay","agencyUrl":"http://ville.saguenay.ca/fr/services-aux-citoyens/transport-sts","agencyTimeZoneOffset":-14400000,"routeColor":"556B2F","routeType":3,"routeId":"1:12","routeTextColor":"FFFFFF","interlineWithPreviousLeg":false,"tripBlockId":"28","headsign":"Terminus UQAC","agencyId":"0","tripId":"1:218035","serviceDate":"20180402","from":{"name":"Sûreté du Québec (Roitelets / Lorenzo-Genest)","stopId":"1:58","stopCode":"58","lon":-71.048311,"lat":48.40979,"arrival":1522683335000,"departure":1522683336000,"zoneId":"NA","stopIndex":26,"stopSequence":27,"vertexType":"TRANSIT"},"to":{"name":"Place du Royaume (Champs-Élysées)","stopId":"1:193","stopCode":"193","lon":-71.052659,"lat":48.407065,"arrival":1522683420000,"departure":1522683421000,"zoneId":"NA","stopIndex":28,"stopSequence":29,"vertexType":"TRANSIT"},"legGeometry":{"points":"e`nfH~rspLdRvMcAjK","length":3},"routeShortName":"12","routeLongName":"Rivière du Moulin","rentedBike":false,"transitLeg":true,"duration":84.0,"steps":[]},{"startTime":1522683421000,"endTime":1522683484000,"departureDelay":0,"arrivalDelay":0,"realTime":false,"distance":81.135,"pathway":false,"mode":"WALK","route":"","agencyTimeZoneOffset":-14400000,"interlineWithPreviousLeg":false,"from":{"name":"Place du Royaume (Champs-Élysées)","stopId":"1:193","stopCode":"193","lon":-71.052659,"lat":48.407065,"arrival":1522683420000,"departure":1522683421000,"zoneId":"NA","stopIndex":28,"stopSequence":29,"vertexType":"TRANSIT"},"to":{"name":"Destination","lon":-71.05336099,"lat":48.407764,"arrival":1522683484000,"orig":"","vertexType":"NORMAL"},"legGeometry":{"points":"unmfH|ntpLQTOb@q@xB","length":4},"rentedBike":false,"transitLeg":false,"duration":63.0,"steps":[{"distance":81.135,"relativeDirection":"DEPART","streetName":"Rue des Champs-Élysées","absoluteDirection":"NORTHWEST","stayOn":false,"area":false,"bogusName":false,"lon":-71.0527883359973,"lat":48.40699779220329,"elevation":[]}]}],"tooSloped":false}]},"debugOutput":{"precalculationTime":30,"pathCalculationTime":19,"pathTimes":[6,10,3],"renderingTime":1,"totalTime":50,"timedOut":false},"elevationMetadata":{"ellipsoidToGeoidDifference":-28.885904201182168,"geoidElevation":false}}