{"requestParameters":{"date":"2018/04/02","walkSpeed":"1.33","walkReluctance":"2.0","fromPlace":"48.383492,-71.08352999","maxWalkDistance":"3000","waitReluctance":"1.0","carSpeed":"33","numItineraries":"3","waitAtBeginningFactor":"0.4","mode":"TRANSIT,WALK","ignoreRealtimeUpdates":"false","stairsReluctance":"2.0","toPlace":"48.404637,-71.046653","time":"18:0:00"},"plan":{"date":1522706400000,"from":{"name":"Origin","lon":-71.08352999,"lat":48.383492,"orig":"","vertexType":"NORMAL"},"to":{"name":"Destination","lon":-71.046653,"lat":48.404637,"orig":"","vertexType":"NORMAL"},"itineraries":[{"duration":1406,"startTime":1522707308000,"endTime":1522708714000,"walkTime":831,"transitTime":573,"waitingTime":2,"walkDistance":1030.2516766797687,"walkLimitExceeded":false,"elevationLost":0.0,"elevationGained":0.0,"transfers":0,"legs":[{"startTime":1522707308000,"endTime":1522707326000,"departureDelay":0,"arrivalDelay":0,"realTime":false,"distance":23.36,"pathway":false,"mode":"WALK","route":"","agencyTimeZoneOffset":-14400000,"interlineWithPreviousLeg":false,"from":{"name":"Origin","lon":-71.08352999,"lat":48.383492,"departure":1522707308000,"orig":"","vertexType":"NORMAL"},"to":{"name":"COSTCO","stopId":"1:1542","stopCode":"1542","lon":-71.084272,"lat":48.383644,"arrival":1522707326000,"departure":1522707327000,"zoneId":"NA","stopIndex":1,"stopSequence":2,"vertexType":"TRANSIT"},"legGeometry":{"points":"_~hfH|rzpLTZJJ","length":3},"rentedBike":false,"transitLeg":false,"duration":18.0,"steps":[{"distance":23.36,"relativeDirection":"DEPART","streetName":"service road","absoluteDirection":"SOUTHWEST","stayOn":false,"area":false,"bogusName":false,"lon":-71.08414271500874,"lat":48.383841239633476,"elevation":[]}]},{"startTime":1522707327000,"endTime":1522707900000,"departureDelay":0,"arrivalDelay":0,"realTime":false,"distance":3349.4821877715963,"pathway":false,"mode":"BUS","route":"175","agencyName":"Société de Transport du Saguenay","agencyUrl":"http://ville.saguenay.ca/fr/services-aux-citoyens/transport-sts","agencyTimeZoneOffset":-14400000,"routeColor":"FF00FF","routeType":3,"routeId":"1:175","routeTextColor":"FFFFFF","interlineWithPreviousLeg":false,"tripBlockId":"11","headsign":"Terminus Chicoutimi","agencyId":"0","tripId":"1:217485","serviceDate":"20180402","from":{"name":"COSTCO","stopId":"1:1542","stopCode":"1542","lon":-71.084272,"lat":48.383644,"arrival":1522707326000,"departure":1522707327000,"zoneId":"NA","stopIndex":1,"stopSequence":2,"vertexType":"TRANSIT"},"to":{"name":"Place Royaume","stopId":"1:1801","stopCode":"1801","lon":-71.057017,"lat":48.405588,"arrival":1522707900000,"departure":1522707901000,"zoneId":"NA","stopIndex":10,"stopSequence":11,"vertexType":"TRANSIT"},"legGeometry":{"points":"y|hfHzszpLwCqDrCsGN_@uEoFoEiFUWSUqCwC]a@{ByC{@cAkJuKoAwA_CeCeExJ~AlB`@mAu@k@}@q@|C}Iw@}@aO_QkEsEiAoAgEsFkFsHqJ_N}FkImPkOuO{N","length":31},"routeShortName":"175","routeLongName":"Term. Chic / Costco","rentedBike":false,"transitLeg":true,"duration":573.0,"steps":[]},{"startTime":1522707901000,"endTime":1522708714000,"departureDelay":0,"arrivalDelay":0,"realTime":false,"distance":1006.521,"pathway":false,"mode":"WALK","route":"","agencyTimeZoneOffset":-14400000,"interlineWithPreviousLeg":false,"from":{"name":"Place Royaume","stopId":"1:1801","stopCode":"1801","lon":-71.057017,"lat":48.405588,"arrival":1522707900000,"departure":1522707901000,"zoneId":"NA","stopIndex":10,"stopSequence":11,"vertexType":"TRANSIT"},"to":{"name":"Destination","lon":-71.046653,"lat":48.404637,"arrival":1522708714000,"orig":"","vertexType":"NORMAL"},"legGeometry":{"points":"memfHriupL`@{Ap@uBYUb@_B?q@O]WWzCgKp@{BRH\\EA{Ad@Mq@uHFAg@}F^KBAc@{Eh@Mb@OWwCKUUEkAVYF","length":27},"rentedBike":false,"transitLeg":false,"duration":813.0,"steps":[{"distance":90.318,"relativeDirection":"DEPART","streetName":"parking aisle","absoluteDirection":"SOUTHEAST","stayOn":false,"area":false,"bogusName":true,"lon":-71.0570537,"lat":48.405519700000006,"elevation":[]},{"distance":105.386,"relativeDirection":"LEFT","streetName":"service road","absoluteDirection":"NORTHEAST","stayOn":true,"area":false,"bogusName":true,"lon":-71.05600720000001,"lat":48.4050992,"elevation":[]},{"distance":627.7049999999999,"relativeDirection":"RIGHT","streetName":"path","absoluteDirection":"SOUTHEAST","stayOn":true,"area":false,"bogusName":true,"lon":-71.054893,"lat":48.4052475,"elevation":[]},{"distance":44.746,"relativeDirection":"RIGHT","streetName":"Rue Cyrille-Vaillancourt","absoluteDirection":"SOUTH","stayOn":false,"area":false,"bogusName":false,"lon":-71.04780290000001,"lat":48.4041926,"elevation":[]},{"distance":138.366,"relativeDirection":"LEFT","streetName":"Rue Adélard-Plourde","absoluteDirection":"EAST","stayOn":false,"area":false,"bogusName":false,"lon":-71.04765300000001,"lat":48.403803200000006,"elevation":[]}]}],"tooSloped":false},{"duration":1406,"startTime":1522709108000,"endTime":1522710514000,"walkTime":831,"transitTime":573,"waitingTime":2,"walkDistance":1030.2516766797687,"walkLimitExceeded":false,"elevationLost":0.0,"elevationGained":0.0,"transfers":0,"legs":[{"startTime":1522709108000,"endTime":1522709126000,"departureDelay":0,"arrivalDelay":0,"realTime":false,"distance":23.36,"pathway":false,"mode":"WALK","route":"","agencyTimeZoneOffset":-14400000,"interlineWithPreviousLeg":false,"from":{"name":"Origin","lon":-71.08352999,"lat":48.383492,"departure":1522709108000,"orig":"","vertexType":"NORMAL"},"to":{"name":"COSTCO","stopId":"1:1542","stopCode":"1542","lon":-71.084272,"lat":48.383644,"arrival":1522709126000,"departure":1522709127000,"zoneId":"NA","stopIndex":1,"stopSequence":2,"vertexType":"TRANSIT"},"legGeometry":{"points":"_~hfH|rzpLTZJJ","length":3},"rentedBike":false,"transitLeg":false,"duration":18.0,"steps":[{"distance":23.36,"relativeDirection":"DEPART","streetName":"service road","absoluteDirection":"SOUTHWEST","stayOn":false,"area":false,"bogusName":false,"lon":-71.08414271500874,"lat":48.383841239633476,"elevation":[]}]},{"startTime":1522709127000,"endTime":1522709700000,"departureDelay":0,"arrivalDelay":0,"realTime":false,"distance":3349.4821877715963,"pathway":false,"mode":"BUS","route":"175","agencyName":"Société de Transport du Saguenay","agencyUrl":"http://ville.saguenay.ca/fr/services-aux-citoyens/transport-sts","agencyTimeZoneOffset":-14400000,"routeColor":"FF00FF","routeType":3,"routeId":"1:175","routeTextColor":"FFFFFF","interlineWithPreviousLeg":false,"tripBlockId":"10","headsign":"Terminus Chicoutimi","agencyId":"0","tripId":"1:217451","serviceDate":"20180402","from":{"name":"COSTCO","stopId":"1:1542","stopCode":"1542","lon":-71.084272,"lat":48.383644,"arrival":1522709126000,"departure":1522709127000,"zoneId":"NA","stopIndex":1,"stopSequence":2,"vertexType":"TRANSIT"},"to":{"name":"Place Royaume","stopId":"1:1801","stopCode":"1801","lon":-71.057017,"lat":48.405588,"arrival":1522709700000,"departure":1522709701000,"zoneId":"NA","stopIndex":10,"stopSequence":11,"vertexType":"TRANSIT"},"legGeometry":{"points":"y|hfHzszpLwCqDrCsGN_@uEoFoEiFUWSUqCwC]a@{ByC{@cAkJuKoAwA_CeCeExJ~AlB`@mAu@k@}@q@|C}Iw@}@aO_QkEsEiAoAgEsFkFsHqJ_N}FkImPkOuO{N","length":31},"routeShortName":"175","routeLongName":"Term. Chic / Costco","rentedBike":false,"transitLeg":true,"duration":573.0,"steps":[]},{"startTime":1522709701000,"endTime":1522710514000,"departureDelay":0,"arrivalDelay":0,"realTime":false,"distance":1006.521,"pathway":false,"mode":"WALK","route":"","agencyTimeZoneOffset":-14400000,"interlineWithPreviousLeg":false,"from":{"name":"Place Royaume","stopId":"1:1801","stopCode":"1801","lon":-71.057017,"lat":48.405588,"arrival":1522709700000,"departure":1522709701000,"zoneId":"NA","stopIndex":10,"stopSequence":11,"vertexType":"TRANSIT"},"to":{"name":"Destination","lon":-71.046653,"lat":48.404637,"arrival":1522710514000,"orig":"","vertexType":"NORMAL"},"legGeometry":{"points":"memfHriupL`@{Ap@uBYUb@_B?q@O]WWzCgKp@{BRH\\EA{Ad@Mq@uHFAg@}F^KBAc@{Eh@Mb@OWwCKUUEkAVYF","length":27},"rentedBike":false,"transitLeg":false,"duration":813.0,"steps":[{"distance":90.318,"relativeDirection":"DEPART","streetName":"parking aisle","absoluteDirection":"SOUTHEAST","stayOn":false,"area":false,"bogusName":true,"lon":-71.0570537,"lat":48.405519700000006,"elevation":[]},{"distance":105.386,"relativeDirection":"LEFT","streetName":"service road","absoluteDirection":"NORTHEAST","stayOn":true,"area":false,"bogusName":true,"lon":-71.05600720000001,"lat":48.4050992,"elevation":[]},{"distance":627.7049999999999,"relativeDirection":"RIGHT","streetName":"path","absoluteDirection":"SOUTHEAST","stayOn":true,"area":false,"bogusName":true,"lon":-71.054893,"lat":48.4052475,"elevation":[]},{"distance":44.746,"relativeDirection":"RIGHT","streetName":"Rue Cyrille-Vaillancourt","absoluteDirection":"SOUTH","stayOn":false,"area":false,"bogusName":false,"lon":-71.04780290000001,"lat":48.4041926,"elevation":[]},{"distance":138.366,"relativeDirection":"LEFT","streetName":"Rue Adélard-Plourde","absoluteDirection":"EAST","stayOn":false,"area":false,"bogusName":false,"lon":-71.04765300000001,"lat":48.403803200000006,"elevation":[]}]}],"tooSloped":false},{"duration":1406,"startTime":1522710908000,"endTime":1522712314000,"walkTime":831,"transitTime":573,"waitingTime":2,"walkDistance":1030.2516766797687,"walkLimitExceeded":false,"elevationLost":0.0,"elevationGained":0.0,"transfers":0,"legs":[{"startTime":1522710908000,"endTime":1522710926000,"departureDelay":0,"arrivalDelay":0,"realTime":false,"distance":23.36,"pathway":false,"mode":"WALK","route":"","agencyTimeZoneOffset":-14400000,"interlineWithPreviousLeg":false,"from":{"name":"Origin","lon":-71.08352999,"lat":48.383492,"departure":1522710908000,"orig":"","vertexType":"NORMAL"},"to":{"name":"COSTCO","stopId":"1:1542","stopCode":"1542","lon":-71.084272,"lat":48.383644,"arrival":1522710926000,"departure":1522710927000,"zoneId":"NA","stopIndex":1,"stopSequence":2,"vertexType":"TRANSIT"},"legGeometry":{"points":"_~hfH|rzpLTZJJ","length":3},"rentedBike":false,"transitLeg":false,"duration":18.0,"steps":[{"distance":23.36,"relativeDirection":"DEPART","streetName":"service road","absoluteDirection":"SOUTHWEST","stayOn":false,"area":false,"bogusName":false,"lon":-71.08414271500874,"lat":48.383841239633476,"elevation":[]}]},{"startTime":1522710927000,"endTime":1522711500000,"departureDelay":0,"arrivalDelay":0,"realTime":false,"distance":3349.4821877715963,"pathway":false,"mode":"BUS","route":"175","agencyName":"Société de Transport du Saguenay","agencyUrl":"http://ville.saguenay.ca/fr/services-aux-citoyens/transport-sts","agencyTimeZoneOffset":-14400000,"routeColor":"FF00FF","routeType":3,"routeId":"1:175","routeTextColor":"FFFFFF","interlineWithPreviousLeg":false,"tripBlockId":"9","headsign":"Terminus Chicoutimi","agencyId":"0","tripId":"1:217417","serviceDate":"20180402","from":{"name":"COSTCO","stopId":"1:1542","stopCode":"1542","lon":-71.084272,"lat":48.383644,"arrival":1522710926000,"departure":1522710927000,"zoneId":"NA","stopIndex":1,"stopSequence":2,"vertexType":"TRANSIT"},"to":{"name":"Place Royaume","stopId":"1:1801","stopCode":"1801","lon":-71.057017,"lat":48.405588,"arrival":1522711500000,"departure":1522711501000,"zoneId":"NA","stopIndex":10,"stopSequence":11,"vertexType":"TRANSIT"},"legGeometry":{"points":"y|hfHzszpLwCqDrCsGN_@uEoFoEiFUWSUqCwC]a@{ByC{@cAkJuKoAwA_CeCeExJ~AlB`@mAu@k@}@q@|C}Iw@}@aO_QkEsEiAoAgEsFkFsHqJ_N}FkImPkOuO{N","length":31},"routeShortName":"175","routeLongName":"Term. Chic / Costco","rentedBike":false,"transitLeg":true,"duration":573.0,"steps":[]},{"startTime":1522711501000,"endTime":1522712314000,"departureDelay":0,"arrivalDelay":0,"realTime":false,"distance":1006.521,"pathway":false,"mode":"WALK","route":"","agencyTimeZoneOffset":-14400000,"interlineWithPreviousLeg":false,"from":{"name":"Place Royaume","stopId":"1:1801","stopCode":"1801","lon":-71.057017,"lat":48.405588,"arrival":1522711500000,"departure":1522711501000,"zoneId":"NA","stopIndex":10,"stopSequence":11,"vertexType":"TRANSIT"},"to":{"name":"Destination","lon":-71.046653,"lat":48.404637,"arrival":1522712314000,"orig":"","vertexType":"NORMAL"},"legGeometry":{"points":"memfHriupL`@{Ap@uBYUb@_B?q@O]WWzCgKp@{BRH\\EA{Ad@Mq@uHFAg@}F^KBAc@{Eh@Mb@OWwCKUUEkAVYF","length":27},"rentedBike":false,"transitLeg":false,"duration":813.0,"steps":[{"distance":90.318,"relativeDirection":"DEPART","streetName":"parking aisle","absoluteDirection":"SOUTHEAST","stayOn":false,"area":false,"bogusName":true,"lon":-71.0570537,"lat":48.405519700000006,"elevation":[]},{"distance":105.386,"relativeDirection":"LEFT","streetName":"service road","absoluteDirection":"NORTHEAST","stayOn":true,"area":false,"bogusName":true,"lon":-71.05600720000001,"lat":48.4050992,"elevation":[]},{"distance":627.7049999999999,"relativeDirection":"RIGHT","streetName":"path","absoluteDirection":"SOUTHEAST","stayOn":true,"area":false,"bogusName":true,"lon":-71.054893,"lat":48.4052475,"elevation":[]},{"distance":44.746,"relativeDirection":"RIGHT","streetName":"Rue Cyrille-Vaillancourt","absoluteDirection":"SOUTH","stayOn":false,"area":false,"bogusName":false,"lon":-71.04780290000001,"lat":48.4041926,"elevation":[]},{"distance":138.366,"relativeDirection":"LEFT","streetName":"Rue Adélard-Plourde","absoluteDirection":"EAST","stayOn":false,"area":false,"bogusName":false,"lon":-71.04765300000001,"lat":48.403803200000006,"elevation":[]}]}],"tooSloped":false}]},"debugOutput":{"precalculationTime":18,"pathCalculationTime":12,"pathTimes":[6,3,3],"renderingTime":1,"totalTime":31,"timedOut":false},"elevationMetadata":{"ellipsoidToGeoidDifference":-28.885904201182168,"geoidElevation":false}}