{"requestParameters":{"date":"2018/04/02","walkSpeed":"1.33","walkReluctance":"2.0","fromPlace":"48.406228,-71.045049","maxWalkDistance":"3000","waitReluctance":"1.0","carSpeed":"33","numItineraries":"3","waitAtBeginningFactor":"0.4","mode":"TRANSIT,WALK","ignoreRealtimeUpdates":"false","stairsReluctance":"2.0","toPlace":"48.428244,-71.06739","time":"11:10:00"},"plan":{"date":1522681800000,"from":{"name":"Origin","lon":-71.045049,"lat":48.406228,"orig":"","vertexType":"NORMAL"},"to":{"name":"Destination","lon":-71.06739,"lat":48.428244,"orig":"","vertexType":"NORMAL"},"itineraries":[{"duration":1687,"startTime":1522682079000,"endTime":1522683766000,"walkTime":905,"transitTime":780,"waitingTime":2,"walkDistance":1153.8383533756707,"walkLimitExceeded":false,"elevationLost":0.0,"elevationGained":0.0,"transfers":0,"legs":[{"startTime":1522682079000,"endTime":1522682819000,"departureDelay":0,"arrivalDelay":0,"realTime":false,"distance":944.1990000000001,"pathway":false,"mode":"WALK","route":"","agencyTimeZoneOffset":-14400000,"interlineWithPreviousLeg":false,"from":{"name":"Origin","lon":-71.045049,"lat":48.406228,"departure":1522682079000,"orig":"","vertexType":"NORMAL"},"to":{"name":"missingStopName","stopId":"1:1812","stopCode":"1812","lon":-71.051352,"lat":48.411592,"arrival":1522682819000,"departure":1522682820000,"zoneId":"NA","stopIndex":11,"stopSequence":12,"vertexType":"TRANSIT"},"legGeometry":{"points":"ikmfHpaspLUW[\\Qn@e@bAgBfFoA~CsDmBu@dEqAq@u@|Dc@zBM|@Wl@[rBWnAwAxDcDgD","length":18},"rentedBike":false,"transitLeg":false,"duration":740.0,"steps":[{"distance":264.78700000000003,"relativeDirection":"DEPART","streetName":"Rue Adélard-Plourde","absoluteDirection":"NORTHEAST","stayOn":false,"area":false,"bogusName":false,"lon":-71.04552852091646,"lat":48.406452977482076,"elevation":[]},{"distance":107.983,"relativeDirection":"RIGHT","streetName":"Rue Joseph-Dandurand","absoluteDirection":"NORTH","stayOn":false,"area":false,"bogusName":false,"lon":-71.0480905,"lat":48.4079089,"elevation":[]},{"distance":78.536,"relativeDirection":"LEFT","streetName":"Rue Gaudiose-Brassard","absoluteDirection":"WEST","stayOn":false,"area":false,"bogusName":false,"lon":-71.0475432,"lat":48.408809500000004,"elevation":[]},{"distance":49.17,"relativeDirection":"RIGHT","streetName":"Rue Des Roitelets","absoluteDirection":"NORTH","stayOn":false,"area":false,"bogusName":false,"lon":-71.0485302,"lat":48.4090733,"elevation":[]},{"distance":149.905,"relativeDirection":"LEFT","streetName":"Rue Lorenzo-Genest","absoluteDirection":"NORTHWEST","stayOn":false,"area":false,"bogusName":false,"lon":-71.0482898,"lat":48.409485700000005,"elevation":[]},{"distance":183.487,"relativeDirection":"SLIGHTLY_RIGHT","streetName":"path","absoluteDirection":"NORTHWEST","stayOn":false,"area":false,"bogusName":true,"lon":-71.0501637,"lat":48.4100046,"elevation":[]},{"distance":110.331,"relativeDirection":"RIGHT","streetName":"Boulevard Talbot","absoluteDirection":"NORTHEAST","stayOn":false,"area":false,"bogusName":false,"lon":-71.05230110000001,"lat":48.4108205,"elevation":[]}]},{"startTime":1522682820000,"endTime":1522683600000,"departureDelay":0,"arrivalDelay":0,"realTime":false,"distance":3400.2803451917603,"pathway":false,"mode":"BUS","route":"175","agencyName":"Société de Transport du Saguenay","agencyUrl":"http://ville.saguenay.ca/fr/services-aux-citoyens/transport-sts","agencyTimeZoneOffset":-14400000,"routeColor":"FF00FF","routeType":3,"routeId":"1:175","routeTextColor":"FFFFFF","interlineWithPreviousLeg":false,"tripBlockId":"10","headsign":"Terminus Chicoutimi","agencyId":"0","tripId":"1:217436","serviceDate":"20180402","from":{"name":"missingStopName","stopId":"1:1812","stopCode":"1812","lon":-71.051352,"lat":48.411592,"arrival":1522682819000,"departure":1522682820000,"zoneId":"NA","stopIndex":11,"stopSequence":12,"vertexType":"TRANSIT"},"to":{"name":"Terminus Chicoutimi","stopId":"1:1289","stopCode":"1289","lon":-71.066163,"lat":48.428677,"arrival":1522683600000,"departure":1522683601000,"zoneId":"NA","stopIndex":27,"stopSequence":28,"vertexType":"TRANSIT"},"legGeometry":{"points":"wknfHxftpLcBcB{E`Jc@x@qG~@{BlAk@XgSrQqB_GAeFiEeEOt@gAeA_A_ATm@yAwAgBeBqDnL@nBF`@f@|C[dCuAfB]xAs@OmCmCmEkE]a@g@i@ZiGTmEl@oLaEe@cFk@?pH?tJDvBPjMB~Bo@PQDRbFKdGMhIOvIK|EQpHoCQEdC","length":49},"routeShortName":"175","routeLongName":"Term. Chic / Costco","rentedBike":false,"transitLeg":true,"duration":780.0,"steps":[]},{"startTime":1522683601000,"endTime":1522683766000,"departureDelay":0,"arrivalDelay":0,"realTime":false,"distance":209.39800000000002,"pathway":false,"mode":"WALK","route":"","agencyTimeZoneOffset":-14400000,"interlineWithPreviousLeg":false,"from":{"name":"Terminus Chicoutimi","stopId":"1:1289","stopCode":"1289","lon":-71.066163,"lat":48.428677,"arrival":1522683600000,"departure":1522683601000,"zoneId":"NA","stopIndex":27,"stopSequence":28,"vertexType":"TRANSIT"},"to":{"name":"Destination","lon":-71.06739,"lat":48.428244,"arrival":1522683766000,"orig":"","vertexType":"NORMAL"},"legGeometry":{"points":"{uqfHb~vpLbAJR@JDb@LQtGAv@?T","length":8},"rentedBike":false,"transitLeg":false,"duration":165.0,"steps":[{"distance":77.207,"relativeDirection":"DEPART","streetName":"Rue Morin","absoluteDirection":"SOUTH","stayOn":false,"area":false,"bogusName":false,"lon":-71.0654590096484,"lat":48.428628638946556,"elevation":[]},{"distance":132.191,"relativeDirection":"RIGHT","streetName":"Rue Racine Est","absoluteDirection":"WEST","stayOn":false,"area":false,"bogusName":false,"lon":-71.0656238,"lat":48.4279449,"elevation":[]}]}],"tooSloped":false},{"duration":1966,"startTime":1522681800000,"endTime":1522683766000,"walkTime":1056,"transitTime":908,"waitingTime":2,"walkDistance":1343.3200075106333,"walkLimitExceeded":false,"elevationLost":0.0,"elevationGained":0.0,"transfers":0,"legs":[{"startTime":1522681800000,"endTime":1522682691000,"departureDelay":0,"arrivalDelay":0,"realTime":false,"distance":1133.669,"pathway":false,"mode":"WALK","route":"","agencyTimeZoneOffset":-14400000,"interlineWithPreviousLeg":false,"from":{"name":"Origin","lon":-71.045049,"lat":48.406228,"departure":1522681800000,"orig":"","vertexType":"NORMAL"},"to":{"name":"Murdock / Baillargeon","stopId":"1:356","stopCode":"356","lon":-71.047188,"lat":48.413871,"arrival":1522682691000,"departure":1522682692000,"zoneId":"NA","stopIndex":1,"stopSequence":2,"vertexType":"TRANSIT"},"legGeometry":{"points":"ikmfHpaspLUW[\\Qn@e@bAgBfFoA~CsDmBu@dEqAq@GCk@Y_Bw@KEe@JYLa@n@G^yBdHWQoBsBeEcEeBmBQSi@k@AC","length":26},"rentedBike":false,"transitLeg":false,"duration":891.0,"steps":[{"distance":264.78700000000003,"relativeDirection":"DEPART","streetName":"Rue Adélard-Plourde","absoluteDirection":"NORTHEAST","stayOn":false,"area":false,"bogusName":false,"lon":-71.04552852091646,"lat":48.406452977482076,"elevation":[]},{"distance":107.983,"relativeDirection":"RIGHT","streetName":"Rue Joseph-Dandurand","absoluteDirection":"NORTH","stayOn":false,"area":false,"bogusName":false,"lon":-71.0480905,"lat":48.4079089,"elevation":[]},{"distance":78.536,"relativeDirection":"LEFT","streetName":"Rue Gaudiose-Brassard","absoluteDirection":"WEST","stayOn":false,"area":false,"bogusName":false,"lon":-71.0475432,"lat":48.408809500000004,"elevation":[]},{"distance":144.314,"relativeDirection":"RIGHT","streetName":"Rue Des Roitelets","absoluteDirection":"NORTH","stayOn":false,"area":false,"bogusName":false,"lon":-71.0485302,"lat":48.4090733,"elevation":[]},{"distance":62.949,"relativeDirection":"SLIGHTLY_LEFT","streetName":"link","absoluteDirection":"NORTH","stayOn":false,"area":false,"bogusName":true,"lon":-71.0478246,"lat":48.4102837,"elevation":[]},{"distance":140.908,"relativeDirection":"SLIGHTLY_LEFT","streetName":"Boulevard de l'Université","absoluteDirection":"NORTHWEST","stayOn":false,"area":false,"bogusName":false,"lon":-71.04819570000001,"lat":48.410774100000005,"elevation":[]},{"distance":334.192,"relativeDirection":"RIGHT","streetName":"Rue Murdock","absoluteDirection":"NORTHEAST","stayOn":false,"area":false,"bogusName":false,"lon":-71.0498268,"lat":48.4114298,"elevation":[]}]},{"startTime":1522682692000,"endTime":1522683600000,"departureDelay":0,"arrivalDelay":0,"realTime":false,"distance":4407.222559695605,"pathway":false,"mode":"BUS","route":"10","agencyName":"Société de Transport du Saguenay","agencyUrl":"http://ville.saguenay.ca/fr/services-aux-citoyens/transport-sts","agencyTimeZoneOffset":-14400000,"routeColor":"0000FF","routeType":3,"routeId":"1:10","routeTextColor":"FFFFFF","interlineWithPreviousLeg":false,"tripBlockId":"27","headsign":"Terminus Chicoutimi","agencyId":"0","tripId":"1:218009","serviceDate":"20180402","from":{"name":"Murdock / Baillargeon","stopId":"1:356","stopCode":"356","lon":-71.047188,"lat":48.413871,"arrival":1522682691000,"departure":1522682692000,"zoneId":"NA","stopIndex":1,"stopSequence":2,"vertexType":"TRANSIT"},"to":{"name":"Terminus Chicoutimi","stopId":"1:1289","stopCode":"1289","lon":-71.066163,"lat":48.428677,"arrival":1522683600000,"departure":1522683601000,"zoneId":"NA","stopIndex":21,"stopSequence":22,"vertexType":"TRANSIT"},"legGeometry":{"points":"uynfH~kspLsB{B}AeCu@oAXu@hAoDP_BP{AQmCg@mB_BiBeBaBqFeFmCgC{A_BmBoBk@iAw@}CU[o@y@k@Io@MqC@}@k@_@[aAw@_BoCMOKcAQUu@s@AAu@[k@xGg@pFc@~EO`@KHCVDP?hAa@nEKdAi@pGAr@GXMRG^Bb@`CV~IxB~ElAhChAsBtFaEvK_BhE}AfD{BdByBh@iC]oDq@YbF_Ea@AAuEg@MDENF|GAjJDzBDdDLdHFbCo@RUFRbFG|FApAMvFa@tPOnHqBOIjDc@Q","length":84},"routeShortName":"10","routeLongName":"Notre-Dame du Saguenay","rentedBike":false,"transitLeg":true,"duration":908.0,"steps":[]},{"startTime":1522683601000,"endTime":1522683766000,"departureDelay":0,"arrivalDelay":0,"realTime":false,"distance":209.39800000000002,"pathway":false,"mode":"WALK","route":"","agencyTimeZoneOffset":-14400000,"interlineWithPreviousLeg":false,"from":{"name":"Terminus Chicoutimi","stopId":"1:1289","stopCode":"1289","lon":-71.066163,"lat":48.428677,"arrival":1522683600000,"departure":1522683601000,"zoneId":"NA","stopIndex":21,"stopSequence":22,"vertexType":"TRANSIT"},"to":{"name":"Destination","lon":-71.06739,"lat":48.428244,"arrival":1522683766000,"orig":"","vertexType":"NORMAL"},"legGeometry":{"points":"{uqfHb~vpLbAJR@JDb@LQtGAv@?T","length":8},"rentedBike":false,"transitLeg":false,"duration":165.0,"steps":[{"distance":77.207,"relativeDirection":"DEPART","streetName":"Rue Morin","absoluteDirection":"SOUTH","stayOn":false,"area":false,"bogusName":false,"lon":-71.0654590096484,"lat":48.428628638946556,"elevation":[]},{"distance":132.191,"relativeDirection":"RIGHT","streetName":"Rue Racine Est","absoluteDirection":"WEST","stayOn":false,"area":false,"bogusName":false,"lon":-71.0656238,"lat":48.4279449,"elevation":[]}]}],"tooSloped":false},{"duration":1803,"startTime":1522682023000,"endTime":1522683826000,"walkTime":564,"transitTime":1237,"waitingTime":2,"walkDistance":714.2107969870345,"walkLimitExceeded":false,"elevationLost":0.0,"elevationGained":0.0,"transfers":0,"legs":[{"startTime":1522682023000,"endTime":1522682422000,"departureDelay":0,"arrivalDelay":0,"realTime":false,"distance":504.64400000000006,"pathway":false,"mode":"WALK","route":"","agencyTimeZoneOffset":-14400000,"interlineWithPreviousLeg":false,"from":{"name":"Origin","lon":-71.045049,"lat":48.406228,"departure":1522682023000,"orig":"","vertexType":"NORMAL"},"to":{"name":"Sûreté du Québec (Roitelets / Lorenzo-Genest)","stopId":"1:195","stopCode":"195","lon":-71.048189,"lat":48.4095,"arrival":1522682422000,"departure":1522682423000,"zoneId":"NA","stopIndex":16,"stopSequence":17,"vertexType":"TRANSIT"},"legGeometry":{"points":"ikmfHpaspLUW[\\Qn@e@bAgBfFoA~CsDmBu@dEqAq@GC","length":11},"rentedBike":false,"transitLeg":false,"duration":399.0,"steps":[{"distance":264.78700000000003,"relativeDirection":"DEPART","streetName":"Rue Adélard-Plourde","absoluteDirection":"NORTHEAST","stayOn":false,"area":false,"bogusName":false,"lon":-71.04552852091646,"lat":48.406452977482076,"elevation":[]},{"distance":107.983,"relativeDirection":"RIGHT","streetName":"Rue Joseph-Dandurand","absoluteDirection":"NORTH","stayOn":false,"area":false,"bogusName":false,"lon":-71.0480905,"lat":48.4079089,"elevation":[]},{"distance":78.536,"relativeDirection":"LEFT","streetName":"Rue Gaudiose-Brassard","absoluteDirection":"WEST","stayOn":false,"area":false,"bogusName":false,"lon":-71.0475432,"lat":48.408809500000004,"elevation":[]},{"distance":53.338,"relativeDirection":"RIGHT","streetName":"Rue Des Roitelets","absoluteDirection":"NORTH","stayOn":false,"area":false,"bogusName":false,"lon":-71.0485302,"lat":48.4090733,"elevation":[]}]},{"startTime":1522682423000,"endTime":1522683660000,"departureDelay":0,"arrivalDelay":0,"realTime":false,"distance":7677.6565278822645,"pathway":false,"mode":"BUS","route":"12","agencyName":"Société de Transport du Saguenay","agencyUrl":"http://ville.saguenay.ca/fr/services-aux-citoyens/transport-sts","agencyTimeZoneOffset":-14400000,"routeColor":"556B2F","routeType":3,"routeId":"1:12","routeTextColor":"FFFFFF","interlineWithPreviousLeg":false,"tripBlockId":"26","headsign":"Terminus Chicoutimi","agencyId":"0","tripId":"1:217973","serviceDate":"20180402","from":{"name":"Sûreté du Québec (Roitelets / Lorenzo-Genest)","stopId":"1:195","stopCode":"195","lon":-71.048189,"lat":48.4095,"arrival":1522682422000,"departure":1522682423000,"zoneId":"NA","stopIndex":16,"stopSequence":17,"vertexType":"TRANSIT"},"to":{"name":"Terminus Chicoutimi","stopId":"1:1289","stopCode":"1289","lon":-71.066163,"lat":48.428677,"arrival":1522683660000,"departure":1522683661000,"zoneId":"NA","stopIndex":33,"stopSequence":34,"vertexType":"TRANSIT"},"legGeometry":{"points":"k~mfHdrspLgD_BgAgBn@kFD_NoIgrAmD_WcAaLaDHoDJi`@wVoAbDbA|AnBU|B|AfBlAyLtKoGxFcFqDkJaHgEoDmDwC_TqQsBeB{HjWfAvAfM|O|FlHmB`IgA|Cy@`UYzHZvMR~Hr@~ZPvHsCrMFxf@|ApJj@nDDl]BvZdCXJhC","length":44},"routeShortName":"12","routeLongName":"Rivière du Moulin","rentedBike":false,"transitLeg":true,"duration":1237.0,"steps":[]},{"startTime":1522683661000,"endTime":1522683826000,"departureDelay":0,"arrivalDelay":0,"realTime":false,"distance":209.39800000000002,"pathway":false,"mode":"WALK","route":"","agencyTimeZoneOffset":-14400000,"interlineWithPreviousLeg":false,"from":{"name":"Terminus Chicoutimi","stopId":"1:1289","stopCode":"1289","lon":-71.066163,"lat":48.428677,"arrival":1522683660000,"departure":1522683661000,"zoneId":"NA","stopIndex":33,"stopSequence":34,"vertexType":"TRANSIT"},"to":{"name":"Destination","lon":-71.06739,"lat":48.428244,"arrival":1522683826000,"orig":"","vertexType":"NORMAL"},"legGeometry":{"points":"{uqfHb~vpLbAJR@JDb@LQtGAv@?T","length":8},"rentedBike":false,"transitLeg":false,"duration":165.0,"steps":[{"distance":77.207,"relativeDirection":"DEPART","streetName":"Rue Morin","absoluteDirection":"SOUTH","stayOn":false,"area":false,"bogusName":false,"lon":-71.0654590096484,"lat":48.428628638946556,"elevation":[]},{"distance":132.191,"relativeDirection":"RIGHT","streetName":"Rue Racine Est","absoluteDirection":"WEST","stayOn":false,"area":false,"bogusName":false,"lon":-71.0656238,"lat":48.4279449,"elevation":[]}]}],"tooSloped":false}]},"debugOutput":{"precalculationTime":34,"pathCalculationTime":33,"pathTimes":[19,6,8],"renderingTime":0,"totalTime":67,"timedOut":false},"elevationMetadata":{"ellipsoidToGeoidDifference":-28.885904201182168,"geoidElevation":false}}