{"requestParameters":{"date":"2018/04/02","walkSpeed":"1.33","walkReluctance":"2.0","fromPlace":"48.407846,-71.050888","maxWalkDistance":"3000","waitReluctance":"1.0","carSpeed":"33","numItineraries":"3","waitAtBeginningFactor":"0.4","mode":"TRANSIT,WALK","ignoreRealtimeUpdates":"false","stairsReluctance":"2.0","toPlace":"48.400655,-71.06141499","time":"9:15:00"},"plan":{"date":1522674900000,"from":{"name":"Origin","lon":-71.050888,"lat":48.407846,"orig":"","vertexType":"NORMAL"},"to":{"name":"Destination","lon":-71.06141499,"lat":48.400655,"orig":"","vertexType":"NORMAL"},"itineraries":[{"duration":1214,"startTime":1522674900000,"endTime":1522676114000,"walkTime":1214,"transitTime":0,"waitingTime":0,"walkDistance":1554.690353375671,"walkLimitExceeded":false,"elevationLost":0.0,"elevationGained":0.0,"transfers":0,"legs":[{"startTime":1522674900000,"endTime":1522676114000,"departureDelay":0,"arrivalDelay":0,"realTime":false,"distance":1554.4490000000003,"pathway":false,"mode":"WALK","route":"","agencyTimeZoneOffset":-14400000,"interlineWithPreviousLeg":false,"from":{"name":"Origin","lon":-71.050888,"lat":48.407846,"departure":1522674900000,"orig":"","vertexType":"NORMAL"},"to":{"name":"Destination","lon":-71.06141499,"lat":48.400655,"arrival":1522676114000,"orig":"","vertexType":"NORMAL"},"legGeometry":{"points":"oumfHfbtpLXiBp@sDl@V@@lB|@V\\LXFT?hADT@J@FFn@z@pEDRr@zCn@jC[AW?KAR~Ec@p@}@fCm@|B|DpDLJhE~DhFvEjBdBVVLJzDpDjE~D","length":34},"rentedBike":false,"transitLeg":false,"duration":1214.0,"steps":[{"distance":113.77600000000001,"relativeDirection":"DEPART","streetName":"Rue Lorenzo-Genest","absoluteDirection":"EAST","stayOn":false,"area":false,"bogusName":false,"lon":-71.05075654349102,"lat":48.40808146315216,"elevation":[]},{"distance":93.15899999999999,"relativeDirection":"RIGHT","streetName":"Rue Des Roitelets","absoluteDirection":"SOUTH","stayOn":false,"area":false,"bogusName":false,"lon":-71.049323,"lat":48.4077058,"elevation":[]},{"distance":39.358,"relativeDirection":"SLIGHTLY_RIGHT","streetName":"link","absoluteDirection":"SOUTHWEST","stayOn":false,"area":false,"bogusName":true,"lon":-71.0497603,"lat":48.406919900000005,"elevation":[]},{"distance":146.364,"relativeDirection":"SLIGHTLY_RIGHT","streetName":"Rue Émile-Girardin","absoluteDirection":"WEST","stayOn":false,"area":false,"bogusName":false,"lon":-71.0501541,"lat":48.406688800000005,"elevation":[]},{"distance":165.414,"relativeDirection":"CONTINUE","streetName":"service road","absoluteDirection":"SOUTHWEST","stayOn":false,"area":false,"bogusName":true,"lon":-71.05202630000001,"lat":48.4062974,"elevation":[]},{"distance":83.48,"relativeDirection":"LEFT","streetName":"path","absoluteDirection":"WEST","stayOn":true,"area":false,"bogusName":true,"lon":-71.05358820000001,"lat":48.406082600000005,"elevation":[]},{"distance":141.093,"relativeDirection":"RIGHT","streetName":"service road","absoluteDirection":"NORTHWEST","stayOn":true,"area":false,"bogusName":true,"lon":-71.05470940000001,"lat":48.4059844,"elevation":[]},{"distance":771.8050000000001,"relativeDirection":"LEFT","streetName":"Boulevard Talbot","absoluteDirection":"SOUTHWEST","stayOn":false,"area":false,"bogusName":false,"lon":-71.0562666,"lat":48.4067038,"elevation":[]}]}],"tooSloped":false},{"duration":627,"startTime":1522675654000,"endTime":1522676281000,"walkTime":420,"transitTime":205,"waitingTime":2,"walkDistance":531.5799548829602,"walkLimitExceeded":false,"elevationLost":0.0,"elevationGained":0.0,"transfers":0,"legs":[{"startTime":1522675654000,"endTime":1522675770000,"departureDelay":0,"arrivalDelay":0,"realTime":false,"distance":140.643,"pathway":false,"mode":"WALK","route":"","agencyTimeZoneOffset":-14400000,"interlineWithPreviousLeg":false,"from":{"name":"Origin","lon":-71.050888,"lat":48.407846,"departure":1522675654000,"orig":"","vertexType":"NORMAL"},"to":{"name":"Roitelets / Lorenzo Genest","stopId":"1:1926","stopCode":"1926","lon":-71.049632,"lat":48.407524,"arrival":1522675770000,"departure":1522675771000,"zoneId":"NA","stopIndex":16,"stopSequence":17,"vertexType":"TRANSIT"},"legGeometry":{"points":"oumfHfbtpLXiBp@sDl@V","length":4},"rentedBike":false,"transitLeg":false,"duration":116.0,"steps":[{"distance":113.77600000000001,"relativeDirection":"DEPART","streetName":"Rue Lorenzo-Genest","absoluteDirection":"EAST","stayOn":false,"area":false,"bogusName":false,"lon":-71.05075654349102,"lat":48.40808146315216,"elevation":[]},{"distance":26.867,"relativeDirection":"RIGHT","streetName":"Rue Des Roitelets","absoluteDirection":"SOUTH","stayOn":false,"area":false,"bogusName":false,"lon":-71.049323,"lat":48.4077058,"elevation":[]}]},{"startTime":1522675771000,"endTime":1522675976000,"departureDelay":0,"arrivalDelay":0,"realTime":false,"distance":1364.5668024177087,"pathway":false,"mode":"BUS","route":"175","agencyName":"Société de Transport du Saguenay","agencyUrl":"http://ville.saguenay.ca/fr/services-aux-citoyens/transport-sts","agencyTimeZoneOffset":-14400000,"routeColor":"FF00FF","routeType":3,"routeId":"1:175","routeTextColor":"FFFFFF","interlineWithPreviousLeg":false,"tripBlockId":"8","headsign":"Costco","agencyId":"0","tripId":"1:217362","serviceDate":"20180402","from":{"name":"Roitelets / Lorenzo Genest","stopId":"1:1926","stopCode":"1926","lon":-71.049632,"lat":48.407524,"arrival":1522675770000,"departure":1522675771000,"zoneId":"NA","stopIndex":16,"stopSequence":17,"vertexType":"TRANSIT"},"to":{"name":"boul. Talbot (no. 1494) (Tim-Horton)","stopId":"1:1854","stopCode":"1854","lon":-71.060941,"lat":48.402118,"arrival":1522675976000,"departure":1522675977000,"zoneId":"NA","stopIndex":21,"stopSequence":22,"vertexType":"TRANSIT"},"legGeometry":{"points":"uqmfH|yspLzCvAXrCr@~Gx@]PEr@ObACn@FrBb@|@Ch@Kx@U~HsB^KZ|DJpII~Fa@rFUzBi@bDUxAm@nCcAlDM^RTfD`D","length":27},"routeShortName":"175","routeLongName":"Term. Chic / Costco","rentedBike":false,"transitLeg":true,"duration":205.0,"steps":[]},{"startTime":1522675977000,"endTime":1522676281000,"departureDelay":0,"arrivalDelay":0,"realTime":false,"distance":390.805,"pathway":false,"mode":"WALK","route":"","agencyTimeZoneOffset":-14400000,"interlineWithPreviousLeg":false,"from":{"name":"boul. Talbot (no. 1494) (Tim-Horton)","stopId":"1:1854","stopCode":"1854","lon":-71.060941,"lat":48.402118,"arrival":1522675976000,"departure":1522675977000,"zoneId":"NA","stopIndex":21,"stopSequence":22,"vertexType":"TRANSIT"},"to":{"name":"Destination","lon":-71.06141499,"lat":48.400655,"arrival":1522676281000,"orig":"","vertexType":"NORMAL"},"legGeometry":{"points":"}olfHhavpLgDcDL[LJzDpDjE~D","length":6},"rentedBike":false,"transitLeg":false,"duration":304.0,"steps":[{"distance":111.149,"relativeDirection":"DEPART","streetName":"Boulevard Talbot","absoluteDirection":"NORTHEAST","stayOn":false,"area":false,"bogusName":false,"lon":-71.06084575275527,"lat":48.40207691199218,"elevation":[]},{"distance":279.65600000000006,"relativeDirection":"UTURN_RIGHT","streetName":"Boulevard Talbot","absoluteDirection":"SOUTHWEST","stayOn":true,"area":false,"bogusName":false,"lon":-71.0598825,"lat":48.402847200000004,"elevation":[]}]}],"tooSloped":false},{"duration":627,"startTime":1522677454000,"endTime":1522678081000,"walkTime":420,"transitTime":205,"waitingTime":2,"walkDistance":531.5799548829602,"walkLimitExceeded":false,"elevationLost":0.0,"elevationGained":0.0,"transfers":0,"legs":[{"startTime":1522677454000,"endTime":1522677570000,"departureDelay":0,"arrivalDelay":0,"realTime":false,"distance":140.643,"pathway":false,"mode":"WALK","route":"","agencyTimeZoneOffset":-14400000,"interlineWithPreviousLeg":false,"from":{"name":"Origin","lon":-71.050888,"lat":48.407846,"departure":1522677454000,"orig":"","vertexType":"NORMAL"},"to":{"name":"Roitelets / Lorenzo Genest","stopId":"1:1926","stopCode":"1926","lon":-71.049632,"lat":48.407524,"arrival":1522677570000,"departure":1522677571000,"zoneId":"NA","stopIndex":16,"stopSequence":17,"vertexType":"TRANSIT"},"legGeometry":{"points":"oumfHfbtpLXiBp@sDl@V","length":4},"rentedBike":false,"transitLeg":false,"duration":116.0,"steps":[{"distance":113.77600000000001,"relativeDirection":"DEPART","streetName":"Rue Lorenzo-Genest","absoluteDirection":"EAST","stayOn":false,"area":false,"bogusName":false,"lon":-71.05075654349102,"lat":48.40808146315216,"elevation":[]},{"distance":26.867,"relativeDirection":"RIGHT","streetName":"Rue Des Roitelets","absoluteDirection":"SOUTH","stayOn":false,"area":false,"bogusName":false,"lon":-71.049323,"lat":48.4077058,"elevation":[]}]},{"startTime":1522677571000,"endTime":1522677776000,"departureDelay":0,"arrivalDelay":0,"realTime":false,"distance":1364.5668024177087,"pathway":false,"mode":"BUS","route":"175","agencyName":"Société de Transport du Saguenay","agencyUrl":"http://ville.saguenay.ca/fr/services-aux-citoyens/transport-sts","agencyTimeZoneOffset":-14400000,"routeColor":"FF00FF","routeType":3,"routeId":"1:175","routeTextColor":"FFFFFF","interlineWithPreviousLeg":false,"tripBlockId":"6","headsign":"Costco","agencyId":"0","tripId":"1:217291","serviceDate":"20180402","from":{"name":"Roitelets / Lorenzo Genest","stopId":"1:1926","stopCode":"1926","lon":-71.049632,"lat":48.407524,"arrival":1522677570000,"departure":1522677571000,"zoneId":"NA","stopIndex":16,"stopSequence":17,"vertexType":"TRANSIT"},"to":{"name":"boul. Talbot (no. 1494) (Tim-Horton)","stopId":"1:1854","stopCode":"1854","lon":-71.060941,"lat":48.402118,"arrival":1522677776000,"departure":1522677777000,"zoneId":"NA","stopIndex":21,"stopSequence":22,"vertexType":"TRANSIT"},"legGeometry":{"points":"uqmfH|yspLzCvAXrCr@~Gx@]PEr@ObACn@FrBb@|@Ch@Kx@U~HsB^KZ|DJpII~Fa@rFUzBi@bDUxAm@nCcAlDM^RTfD`D","length":27},"routeShortName":"175","routeLongName":"Term. Chic / Costco","rentedBike":false,"transitLeg":true,"duration":205.0,"steps":[]},{"startTime":1522677777000,"endTime":1522678081000,"departureDelay":0,"arrivalDelay":0,"realTime":false,"distance":390.805,"pathway":false,"mode":"WALK","route":"","agencyTimeZoneOffset":-14400000,"interlineWithPreviousLeg":false,"from":{"name":"boul. Talbot (no. 1494) (Tim-Horton)","stopId":"1:1854","stopCode":"1854","lon":-71.060941,"lat":48.402118,"arrival":1522677776000,"departure":1522677777000,"zoneId":"NA","stopIndex":21,"stopSequence":22,"vertexType":"TRANSIT"},"to":{"name":"Destination","lon":-71.06141499,"lat":48.400655,"arrival":1522678081000,"orig":"","vertexType":"NORMAL"},"legGeometry":{"points":"}olfHhavpLgDcDL[LJzDpDjE~D","length":6},"rentedBike":false,"transitLeg":false,"duration":304.0,"steps":[{"distance":111.149,"relativeDirection":"DEPART","streetName":"Boulevard Talbot","absoluteDirection":"NORTHEAST","stayOn":false,"area":false,"bogusName":false,"lon":-71.06084575275527,"lat":48.40207691199218,"elevation":[]},{"distance":279.65600000000006,"relativeDirection":"UTURN_RIGHT","streetName":"Boulevard Talbot","absoluteDirection":"SOUTHWEST","stayOn":true,"area":false,"bogusName":false,"lon":-71.0598825,"lat":48.402847200000004,"elevation":[]}]}],"tooSloped":false}]},"debugOutput":{"precalculationTime":27,"pathCalculationTime":24,"pathTimes":[15,4,5],"renderingTime":0,"totalTime":51,"timedOut":false},"elevationMetadata":{"ellipsoidToGeoidDifference":-28.885904201182168,"geoidElevation":false}}