{"requestParameters":{"date":"2018/04/02","walkSpeed":"1.33","walkReluctance":"2.0","fromPlace":"48.426661,-71.07065","maxWalkDistance":"3000","waitReluctance":"1.0","carSpeed":"33","numItineraries":"3","waitAtBeginningFactor":"0.4","mode":"TRANSIT,WALK","ignoreRealtimeUpdates":"false","stairsReluctance":"2.0","toPlace":"48.427056,-71.056731","time":"16:0:00"},"plan":{"date":1522699200000,"from":{"name":"Origin","lon":-71.07065,"lat":48.426661,"orig":"","vertexType":"NORMAL"},"to":{"name":"Destination","lon":-71.056731,"lat":48.427056,"orig":"","vertexType":"NORMAL"},"itineraries":[{"duration":863,"startTime":1522699200000,"endTime":1522700063000,"walkTime":863,"transitTime":0,"waitingTime":0,"walkDistance":1101.1831729284854,"walkLimitExceeded":false,"elevationLost":0.0,"elevationGained":0.0,"transfers":0,"legs":[{"startTime":1522699200000,"endTime":1522700063000,"departureDelay":0,"arrivalDelay":0,"realTime":false,"distance":1101.0639999999999,"pathway":false,"mode":"WALK","route":"","agencyTimeZoneOffset":-14400000,"interlineWithPreviousLeg":false,"from":{"name":"Origin","lon":-71.07065,"lat":48.426661,"departure":1522699200000,"orig":"","vertexType":"NORMAL"},"to":{"name":"Destination","lon":-71.056731,"lat":48.427056,"arrival":1522700063000,"orig":"","vertexType":"NORMAL"},"legGeometry":{"points":"qiqfHx|wpLe@AHoCLsEB_BDoBBwABaAJeEDwC@s@@_@@y@BqA@]@WBe@DwB?S@YBeABgB?o@B_D?U@}@?]@SHqEBgB?a@@U?W?KH}DoCKDe@","length":37},"rentedBike":false,"transitLeg":false,"duration":863.0,"steps":[{"distance":20.975,"relativeDirection":"DEPART","streetName":"Rue Savard","absoluteDirection":"NORTH","stayOn":false,"area":false,"bogusName":false,"lon":-71.07036513764821,"lat":48.42665418791215,"elevation":[]},{"distance":132.335,"relativeDirection":"RIGHT","streetName":"Rue Jacques-Cartier Ouest","absoluteDirection":"EAST","stayOn":false,"area":false,"bogusName":false,"lon":-71.0703549,"lat":48.4268427,"elevation":[]},{"distance":852.6429999999999,"relativeDirection":"CONTINUE","streetName":"Rue Jacques-Cartier Est","absoluteDirection":"EAST","stayOn":false,"area":false,"bogusName":false,"lon":-71.0685709,"lat":48.426721,"elevation":[]},{"distance":80.877,"relativeDirection":"LEFT","streetName":"Rue Labrecque","absoluteDirection":"NORTH","stayOn":false,"area":false,"bogusName":false,"lon":-71.05704440000001,"lat":48.4262037,"elevation":[]},{"distance":14.234,"relativeDirection":"RIGHT","streetName":"Rue Lévis","absoluteDirection":"EAST","stayOn":false,"area":false,"bogusName":false,"lon":-71.05698290000001,"lat":48.426929900000005,"elevation":[]}]}],"tooSloped":false},{"duration":593,"startTime":1522699599000,"endTime":1522700192000,"walkTime":490,"transitTime":101,"waitingTime":2,"walkDistance":622.5019022520606,"walkLimitExceeded":false,"elevationLost":0.0,"elevationGained":0.0,"transfers":0,"legs":[{"startTime":1522699599000,"endTime":1522699939000,"departureDelay":0,"arrivalDelay":0,"realTime":false,"distance":435.284,"pathway":false,"mode":"WALK","route":"","agencyTimeZoneOffset":-14400000,"interlineWithPreviousLeg":false,"from":{"name":"Origin","lon":-71.07065,"lat":48.426661,"departure":1522699599000,"orig":"","vertexType":"NORMAL"},"to":{"name":"Jacques-Cartier / Morin","stopId":"1:70","stopCode":"70","lon":-71.064766,"lat":48.426469,"arrival":1522699939000,"departure":1522699940000,"zoneId":"NA","stopIndex":1,"stopSequence":2,"vertexType":"TRANSIT"},"legGeometry":{"points":"qiqfHx|wpLe@AHoCLsEB_BDoBBwABaAJeEDwC@s@","length":11},"rentedBike":false,"transitLeg":false,"duration":340.0,"steps":[{"distance":20.975,"relativeDirection":"DEPART","streetName":"Rue Savard","absoluteDirection":"NORTH","stayOn":false,"area":false,"bogusName":false,"lon":-71.07036513764821,"lat":48.42665418791215,"elevation":[]},{"distance":132.335,"relativeDirection":"RIGHT","streetName":"Rue Jacques-Cartier Ouest","absoluteDirection":"EAST","stayOn":false,"area":false,"bogusName":false,"lon":-71.0703549,"lat":48.4268427,"elevation":[]},{"distance":281.97400000000005,"relativeDirection":"CONTINUE","streetName":"Rue Jacques-Cartier Est","absoluteDirection":"EAST","stayOn":false,"area":false,"bogusName":false,"lon":-71.0685709,"lat":48.426721,"elevation":[]}]},{"startTime":1522699940000,"endTime":1522700041000,"departureDelay":0,"arrivalDelay":0,"realTime":false,"distance":478.65872363912615,"pathway":false,"mode":"BUS","route":"415S","agencyName":"Société de Transport du Saguenay","agencyUrl":"http://ville.saguenay.ca/fr/services-aux-citoyens/transport-sts","agencyTimeZoneOffset":-14400000,"routeColor":"8B0000","routeType":3,"routeId":"1:415S","routeTextColor":"FFFFFF","interlineWithPreviousLeg":false,"tripBlockId":"68","headsign":"Costco","agencyId":"0","tripId":"1:218587","serviceDate":"20180402","from":{"name":"Jacques-Cartier / Morin","stopId":"1:70","stopCode":"70","lon":-71.064766,"lat":48.426469,"arrival":1522699939000,"departure":1522699940000,"zoneId":"NA","stopIndex":1,"stopSequence":2,"vertexType":"TRANSIT"},"to":{"name":"Jacques-Cartier / Labrecque","stopId":"1:1929","stopCode":"1929","lon":-71.058294,"lat":48.426189,"arrival":1522700041000,"departure":1522700042000,"zoneId":"NA","stopIndex":3,"stopSequence":4,"vertexType":"TRANSIT"},"legGeometry":{"points":"whqfHvyvpLRcFJgLNuNDkC","length":5},"routeShortName":"415S","routeLongName":"Term. Chic / Costco","rentedBike":false,"transitLeg":true,"duration":101.0,"steps":[]},{"startTime":1522700042000,"endTime":1522700192000,"departureDelay":0,"arrivalDelay":0,"realTime":false,"distance":187.107,"pathway":false,"mode":"WALK","route":"","agencyTimeZoneOffset":-14400000,"interlineWithPreviousLeg":false,"from":{"name":"Jacques-Cartier / Labrecque","stopId":"1:1929","stopCode":"1929","lon":-71.058294,"lat":48.426189,"arrival":1522700041000,"departure":1522700042000,"zoneId":"NA","stopIndex":3,"stopSequence":4,"vertexType":"TRANSIT"},"to":{"name":"Destination","lon":-71.056731,"lat":48.427056,"arrival":1522700192000,"orig":"","vertexType":"NORMAL"},"legGeometry":{"points":"cgqfHhqupL@U?W?KH}DoCKDe@","length":7},"rentedBike":false,"transitLeg":false,"duration":150.0,"steps":[{"distance":91.99600000000001,"relativeDirection":"DEPART","streetName":"Rue Jacques-Cartier Est","absoluteDirection":"EAST","stayOn":false,"area":false,"bogusName":false,"lon":-71.0582879387086,"lat":48.426262932805365,"elevation":[]},{"distance":80.877,"relativeDirection":"LEFT","streetName":"Rue Labrecque","absoluteDirection":"NORTH","stayOn":false,"area":false,"bogusName":false,"lon":-71.05704440000001,"lat":48.4262037,"elevation":[]},{"distance":14.234,"relativeDirection":"RIGHT","streetName":"Rue Lévis","absoluteDirection":"EAST","stayOn":false,"area":false,"bogusName":false,"lon":-71.05698290000001,"lat":48.426929900000005,"elevation":[]}]}],"tooSloped":false},{"duration":588,"startTime":1522699829000,"endTime":1522700417000,"walkTime":490,"transitTime":96,"waitingTime":2,"walkDistance":622.5019022520606,"walkLimitExceeded":false,"elevationLost":0.0,"elevationGained":0.0,"transfers":0,"legs":[{"startTime":1522699829000,"endTime":1522700169000,"departureDelay":0,"arrivalDelay":0,"realTime":false,"distance":435.284,"pathway":false,"mode":"WALK","route":"","agencyTimeZoneOffset":-14400000,"interlineWithPreviousLeg":false,"from":{"name":"Origin","lon":-71.07065,"lat":48.426661,"departure":1522699829000,"orig":"","vertexType":"NORMAL"},"to":{"name":"Jacques-Cartier / Morin","stopId":"1:70","stopCode":"70","lon":-71.064766,"lat":48.426469,"arrival":1522700169000,"departure":1522700170000,"zoneId":"NA","stopIndex":1,"stopSequence":2,"vertexType":"TRANSIT"},"legGeometry":{"points":"qiqfHx|wpLe@AHoCLsEB_BDoBBwABaAJeEDwC@s@","length":11},"rentedBike":false,"transitLeg":false,"duration":340.0,"steps":[{"distance":20.975,"relativeDirection":"DEPART","streetName":"Rue Savard","absoluteDirection":"NORTH","stayOn":false,"area":false,"bogusName":false,"lon":-71.07036513764821,"lat":48.42665418791215,"elevation":[]},{"distance":132.335,"relativeDirection":"RIGHT","streetName":"Rue Jacques-Cartier Ouest","absoluteDirection":"EAST","stayOn":false,"area":false,"bogusName":false,"lon":-71.0703549,"lat":48.4268427,"elevation":[]},{"distance":281.97400000000005,"relativeDirection":"CONTINUE","streetName":"Rue Jacques-Cartier Est","absoluteDirection":"EAST","stayOn":false,"area":false,"bogusName":false,"lon":-71.0685709,"lat":48.426721,"elevation":[]}]},{"startTime":1522700170000,"endTime":1522700266000,"departureDelay":0,"arrivalDelay":0,"realTime":false,"distance":478.65872363912615,"pathway":false,"mode":"BUS","route":"15","agencyName":"Société de Transport du Saguenay","agencyUrl":"http://ville.saguenay.ca/fr/services-aux-citoyens/transport-sts","agencyTimeZoneOffset":-14400000,"routeColor":"FF00FF","routeType":3,"routeId":"1:15","routeTextColor":"FFFFFF","interlineWithPreviousLeg":false,"tripBlockId":"33","headsign":"Talbot / Barrette","agencyId":"0","tripId":"1:218191","serviceDate":"20180402","from":{"name":"Jacques-Cartier / Morin","stopId":"1:70","stopCode":"70","lon":-71.064766,"lat":48.426469,"arrival":1522700169000,"departure":1522700170000,"zoneId":"NA","stopIndex":1,"stopSequence":2,"vertexType":"TRANSIT"},"to":{"name":"Jacques-Cartier / Labrecque","stopId":"1:1929","stopCode":"1929","lon":-71.058294,"lat":48.426189,"arrival":1522700266000,"departure":1522700267000,"zoneId":"NA","stopIndex":3,"stopSequence":4,"vertexType":"TRANSIT"},"legGeometry":{"points":"}hqfHvyvpLZkS\\aS","length":3},"routeShortName":"15","routeLongName":"Term. Chic / Costco","rentedBike":false,"transitLeg":true,"duration":96.0,"steps":[]},{"startTime":1522700267000,"endTime":1522700417000,"departureDelay":0,"arrivalDelay":0,"realTime":false,"distance":187.107,"pathway":false,"mode":"WALK","route":"","agencyTimeZoneOffset":-14400000,"interlineWithPreviousLeg":false,"from":{"name":"Jacques-Cartier / Labrecque","stopId":"1:1929","stopCode":"1929","lon":-71.058294,"lat":48.426189,"arrival":1522700266000,"departure":1522700267000,"zoneId":"NA","stopIndex":3,"stopSequence":4,"vertexType":"TRANSIT"},"to":{"name":"Destination","lon":-71.056731,"lat":48.427056,"arrival":1522700417000,"orig":"","vertexType":"NORMAL"},"legGeometry":{"points":"cgqfHhqupL@U?W?KH}DoCKDe@","length":7},"rentedBike":false,"transitLeg":false,"duration":150.0,"steps":[{"distance":91.99600000000001,"relativeDirection":"DEPART","streetName":"Rue Jacques-Cartier Est","absoluteDirection":"EAST","stayOn":false,"area":false,"bogusName":false,"lon":-71.0582879387086,"lat":48.426262932805365,"elevation":[]},{"distance":80.877,"relativeDirection":"LEFT","streetName":"Rue Labrecque","absoluteDirection":"NORTH","stayOn":false,"area":false,"bogusName":false,"lon":-71.05704440000001,"lat":48.4262037,"elevation":[]},{"distance":14.234,"relativeDirection":"RIGHT","streetName":"Rue Lévis","absoluteDirection":"EAST","stayOn":false,"area":false,"bogusName":false,"lon":-71.05698290000001,"lat":48.426929900000005,"elevation":[]}]}],"tooSloped":false}]},"debugOutput":{"precalculationTime":30,"pathCalculationTime":19,"pathTimes":[13,4,2],"renderingTime":0,"totalTime":49,"timedOut":false},"elevationMetadata":{"ellipsoidToGeoidDifference":-28.885904201182168,"geoidElevation":false}}