{"requestParameters":{"date":"2018/04/02","walkSpeed":"1.33","walkReluctance":"2.0","fromPlace":"48.407846,-71.050888","maxWalkDistance":"3000","waitReluctance":"1.0","carSpeed":"33","numItineraries":"3","waitAtBeginningFactor":"0.4","mode":"TRANSIT,WALK","ignoreRealtimeUpdates":"false","stairsReluctance":"2.0","toPlace":"48.420181,-71.056618","time":"10:0:00"},"plan":{"date":1522677600000,"from":{"name":"Origin","lon":-71.050888,"lat":48.407846,"orig":"","vertexType":"NORMAL"},"to":{"name":"Destination","lon":-71.056618,"lat":48.420181,"orig":"","vertexType":"NORMAL"},"itineraries":[{"duration":798,"startTime":1522677762000,"endTime":1522678560000,"walkTime":507,"transitTime":289,"waitingTime":2,"walkDistance":641.4824811984101,"walkLimitExceeded":false,"elevationLost":0.0,"elevationGained":0.0,"transfers":0,"legs":[{"startTime":1522677762000,"endTime":1522677991000,"departureDelay":0,"arrivalDelay":0,"realTime":false,"distance":282.559,"pathway":false,"mode":"WALK","route":"","agencyTimeZoneOffset":-14400000,"interlineWithPreviousLeg":false,"from":{"name":"Origin","lon":-71.050888,"lat":48.407846,"departure":1522677762000,"orig":"","vertexType":"NORMAL"},"to":{"name":"Émile Girardin / Roitelets","stopId":"1:253","stopCode":"253","lon":-71.050677,"lat":48.406726,"arrival":1522677991000,"departure":1522677992000,"zoneId":"NA","stopIndex":27,"stopSequence":28,"vertexType":"TRANSIT"},"legGeometry":{"points":"oumfHfbtpLXiBp@sDl@V@@lB|@V\\LXFT?hADT","length":11},"rentedBike":false,"transitLeg":false,"duration":229.0,"steps":[{"distance":113.77600000000001,"relativeDirection":"DEPART","streetName":"Rue Lorenzo-Genest","absoluteDirection":"EAST","stayOn":false,"area":false,"bogusName":false,"lon":-71.05075654349102,"lat":48.40808146315216,"elevation":[]},{"distance":93.15899999999999,"relativeDirection":"RIGHT","streetName":"Rue Des Roitelets","absoluteDirection":"SOUTH","stayOn":false,"area":false,"bogusName":false,"lon":-71.049323,"lat":48.4077058,"elevation":[]},{"distance":39.358,"relativeDirection":"SLIGHTLY_RIGHT","streetName":"link","absoluteDirection":"SOUTHWEST","stayOn":false,"area":false,"bogusName":true,"lon":-71.0497603,"lat":48.406919900000005,"elevation":[]},{"distance":36.266,"relativeDirection":"SLIGHTLY_RIGHT","streetName":"Rue Émile-Girardin","absoluteDirection":"WEST","stayOn":false,"area":false,"bogusName":false,"lon":-71.0501541,"lat":48.406688800000005,"elevation":[]}]},{"startTime":1522677992000,"endTime":1522678281000,"departureDelay":0,"arrivalDelay":0,"realTime":false,"distance":2290.581161658807,"pathway":false,"mode":"BUS","route":"12","agencyName":"Société de Transport du Saguenay","agencyUrl":"http://ville.saguenay.ca/fr/services-aux-citoyens/transport-sts","agencyTimeZoneOffset":-14400000,"routeColor":"556B2F","routeType":3,"routeId":"1:12","routeTextColor":"FFFFFF","interlineWithPreviousLeg":false,"tripBlockId":"27","headsign":"Terminus UQAC","agencyId":"0","tripId":"1:218006","serviceDate":"20180402","from":{"name":"Émile Girardin / Roitelets","stopId":"1:253","stopCode":"253","lon":-71.050677,"lat":48.406726,"arrival":1522677991000,"departure":1522677992000,"zoneId":"NA","stopIndex":27,"stopSequence":28,"vertexType":"TRANSIT"},"to":{"name":"Bégin / Saint-Thomas","stopId":"1:563","stopCode":"563","lon":-71.0587,"lat":48.422,"arrival":1522678281000,"departure":1522678282000,"zoneId":"NA","stopIndex":36,"stopSequence":37,"vertexType":"TRANSIT"},"legGeometry":{"points":"_mmfHvatpLcAjKcP~b@iHhDaGz@uSl[uCYmIeIeJ_J{J{J","length":10},"routeShortName":"12","routeLongName":"Rivière du Moulin","rentedBike":false,"transitLeg":true,"duration":289.0,"steps":[]},{"startTime":1522678282000,"endTime":1522678560000,"departureDelay":0,"arrivalDelay":0,"realTime":false,"distance":358.781,"pathway":false,"mode":"WALK","route":"","agencyTimeZoneOffset":-14400000,"interlineWithPreviousLeg":false,"from":{"name":"Bégin / Saint-Thomas","stopId":"1:563","stopCode":"563","lon":-71.0587,"lat":48.422,"arrival":1522678281000,"departure":1522678282000,"zoneId":"NA","stopIndex":36,"stopSequence":37,"vertexType":"TRANSIT"},"to":{"name":"Destination","lon":-71.056618,"lat":48.420181,"arrival":1522678560000,"orig":"","vertexType":"NORMAL"},"legGeometry":{"points":"slpfHftupLKIeAkAWYn@YxBiAlBsAXYtB{BZ]","length":10},"rentedBike":false,"transitLeg":false,"duration":278.0,"steps":[{"distance":72.225,"relativeDirection":"DEPART","streetName":"Rue Bégin","absoluteDirection":"NORTHEAST","stayOn":false,"area":false,"bogusName":false,"lon":-71.05875953651149,"lat":48.42202602664888,"elevation":[]},{"distance":286.55600000000004,"relativeDirection":"HARD_RIGHT","streetName":"Chemin Saint-Thomas","absoluteDirection":"SOUTH","stayOn":false,"area":false,"bogusName":false,"lon":-71.0581995,"lat":48.4225587,"elevation":[]}]}],"tooSloped":false},{"duration":1330,"startTime":1522677600000,"endTime":1522678930000,"walkTime":1330,"transitTime":0,"waitingTime":0,"walkDistance":1734.1006014992229,"walkLimitExceeded":false,"elevationLost":0.0,"elevationGained":0.0,"transfers":0,"legs":[{"startTime":1522677600000,"endTime":1522678930000,"departureDelay":0,"arrivalDelay":0,"realTime":false,"distance":1733.9600000000005,"pathway":false,"mode":"WALK","route":"","agencyTimeZoneOffset":-14400000,"interlineWithPreviousLeg":false,"from":{"name":"Origin","lon":-71.050888,"lat":48.407846,"departure":1522677600000,"orig":"","vertexType":"NORMAL"},"to":{"name":"Destination","lon":-71.056618,"lat":48.420181,"arrival":1522678930000,"orig":"","vertexType":"NORMAL"},"legGeometry":{"points":"oumfHfbtpLKt@MPeJ}DWl@[rBWnAwAxDcDgDy@}@MKUYOb@qAlDELiA`C_@\\_@Zw@TiDJaAXuAv@e@`@aBvAKH}BrBGFSN{DbDqFpEMLGO_@qAS{@e@mBYAODQX[d@sA|A","length":40},"rentedBike":false,"transitLeg":false,"duration":1330.0,"steps":[{"distance":242.028,"relativeDirection":"DEPART","streetName":"Rue Lorenzo-Genest","absoluteDirection":"WEST","stayOn":false,"area":false,"bogusName":false,"lon":-71.05075654349102,"lat":48.40808146315216,"elevation":[]},{"distance":183.487,"relativeDirection":"LEFT","streetName":"path","absoluteDirection":"NORTHWEST","stayOn":false,"area":false,"bogusName":true,"lon":-71.0501637,"lat":48.4100046,"elevation":[]},{"distance":174.775,"relativeDirection":"RIGHT","streetName":"Boulevard Talbot","absoluteDirection":"NORTHEAST","stayOn":false,"area":false,"bogusName":false,"lon":-71.05230110000001,"lat":48.4108205,"elevation":[]},{"distance":903.5339999999999,"relativeDirection":"LEFT","streetName":"Boulevard de l'Université","absoluteDirection":"NORTHWEST","stayOn":false,"area":false,"bogusName":false,"lon":-71.05096660000001,"lat":48.4121189,"elevation":[]},{"distance":112.815,"relativeDirection":"RIGHT","streetName":"Rue Newton","absoluteDirection":"NORTHEAST","stayOn":false,"area":false,"bogusName":false,"lon":-71.0569061,"lat":48.4189492,"elevation":[]},{"distance":117.321,"relativeDirection":"LEFT","streetName":"Chemin Saint-Thomas","absoluteDirection":"NORTH","stayOn":false,"area":false,"bogusName":false,"lon":-71.05556510000001,"lat":48.4194344,"elevation":[]}]}],"tooSloped":false},{"duration":798,"startTime":1522679562000,"endTime":1522680360000,"walkTime":507,"transitTime":289,"waitingTime":2,"walkDistance":641.4824811984101,"walkLimitExceeded":false,"elevationLost":0.0,"elevationGained":0.0,"transfers":0,"legs":[{"startTime":1522679562000,"endTime":1522679791000,"departureDelay":0,"arrivalDelay":0,"realTime":false,"distance":282.559,"pathway":false,"mode":"WALK","route":"","agencyTimeZoneOffset":-14400000,"interlineWithPreviousLeg":false,"from":{"name":"Origin","lon":-71.050888,"lat":48.407846,"departure":1522679562000,"orig":"","vertexType":"NORMAL"},"to":{"name":"Émile Girardin / Roitelets","stopId":"1:253","stopCode":"253","lon":-71.050677,"lat":48.406726,"arrival":1522679791000,"departure":1522679792000,"zoneId":"NA","stopIndex":27,"stopSequence":28,"vertexType":"TRANSIT"},"legGeometry":{"points":"oumfHfbtpLXiBp@sDl@V@@lB|@V\\LXFT?hADT","length":11},"rentedBike":false,"transitLeg":false,"duration":229.0,"steps":[{"distance":113.77600000000001,"relativeDirection":"DEPART","streetName":"Rue Lorenzo-Genest","absoluteDirection":"EAST","stayOn":false,"area":false,"bogusName":false,"lon":-71.05075654349102,"lat":48.40808146315216,"elevation":[]},{"distance":93.15899999999999,"relativeDirection":"RIGHT","streetName":"Rue Des Roitelets","absoluteDirection":"SOUTH","stayOn":false,"area":false,"bogusName":false,"lon":-71.049323,"lat":48.4077058,"elevation":[]},{"distance":39.358,"relativeDirection":"SLIGHTLY_RIGHT","streetName":"link","absoluteDirection":"SOUTHWEST","stayOn":false,"area":false,"bogusName":true,"lon":-71.0497603,"lat":48.406919900000005,"elevation":[]},{"distance":36.266,"relativeDirection":"SLIGHTLY_RIGHT","streetName":"Rue Émile-Girardin","absoluteDirection":"WEST","stayOn":false,"area":false,"bogusName":false,"lon":-71.0501541,"lat":48.406688800000005,"elevation":[]}]},{"startTime":1522679792000,"endTime":1522680081000,"departureDelay":0,"arrivalDelay":0,"realTime":false,"distance":2290.581161658807,"pathway":false,"mode":"BUS","route":"12","agencyName":"Société de Transport du Saguenay","agencyUrl":"http://ville.saguenay.ca/fr/services-aux-citoyens/transport-sts","agencyTimeZoneOffset":-14400000,"routeColor":"556B2F","routeType":3,"routeId":"1:12","routeTextColor":"FFFFFF","interlineWithPreviousLeg":false,"tripBlockId":"28","headsign":"Terminus UQAC","agencyId":"0","tripId":"1:218033","serviceDate":"20180402","from":{"name":"Émile Girardin / Roitelets","stopId":"1:253","stopCode":"253","lon":-71.050677,"lat":48.406726,"arrival":1522679791000,"departure":1522679792000,"zoneId":"NA","stopIndex":27,"stopSequence":28,"vertexType":"TRANSIT"},"to":{"name":"Bégin / Saint-Thomas","stopId":"1:563","stopCode":"563","lon":-71.0587,"lat":48.422,"arrival":1522680081000,"departure":1522680082000,"zoneId":"NA","stopIndex":36,"stopSequence":37,"vertexType":"TRANSIT"},"legGeometry":{"points":"_mmfHvatpLcAjKcP~b@iHhDaGz@uSl[uCYmIeIeJ_J{J{J","length":10},"routeShortName":"12","routeLongName":"Rivière du Moulin","rentedBike":false,"transitLeg":true,"duration":289.0,"steps":[]},{"startTime":1522680082000,"endTime":1522680360000,"departureDelay":0,"arrivalDelay":0,"realTime":false,"distance":358.781,"pathway":false,"mode":"WALK","route":"","agencyTimeZoneOffset":-14400000,"interlineWithPreviousLeg":false,"from":{"name":"Bégin / Saint-Thomas","stopId":"1:563","stopCode":"563","lon":-71.0587,"lat":48.422,"arrival":1522680081000,"departure":1522680082000,"zoneId":"NA","stopIndex":36,"stopSequence":37,"vertexType":"TRANSIT"},"to":{"name":"Destination","lon":-71.056618,"lat":48.420181,"arrival":1522680360000,"orig":"","vertexType":"NORMAL"},"legGeometry":{"points":"slpfHftupLKIeAkAWYn@YxBiAlBsAXYtB{BZ]","length":10},"rentedBike":false,"transitLeg":false,"duration":278.0,"steps":[{"distance":72.225,"relativeDirection":"DEPART","streetName":"Rue Bégin","absoluteDirection":"NORTHEAST","stayOn":false,"area":false,"bogusName":false,"lon":-71.05875953651149,"lat":48.42202602664888,"elevation":[]},{"distance":286.55600000000004,"relativeDirection":"HARD_RIGHT","streetName":"Chemin Saint-Thomas","absoluteDirection":"SOUTH","stayOn":false,"area":false,"bogusName":false,"lon":-71.0581995,"lat":48.4225587,"elevation":[]}]}],"tooSloped":false}]},"debugOutput":{"precalculationTime":45,"pathCalculationTime":26,"pathTimes":[15,5,6],"renderingTime":1,"totalTime":72,"timedOut":false},"elevationMetadata":{"ellipsoidToGeoidDifference":-28.885904201182168,"geoidElevation":false}}