{"requestParameters":{"date":"2018/04/02","walkSpeed":"1.33","walkReluctance":"2.0","fromPlace":"48.407035,-71.051177","maxWalkDistance":"3000","waitReluctance":"1.0","carSpeed":"33","numItineraries":"3","waitAtBeginningFactor":"0.4","mode":"TRANSIT,WALK","ignoreRealtimeUpdates":"false","stairsReluctance":"2.0","toPlace":"48.434422,-71.10532","time":"7:30:00"},"plan":{"date":1522668600000,"from":{"name":"Origin","lon":-71.051177,"lat":48.407035,"orig":"","vertexType":"NORMAL"},"to":{"name":"Destination","lon":-71.10532,"lat":48.434422,"orig":"","vertexType":"NORMAL"},"itineraries":[{"duration":1785,"startTime":1522669754000,"endTime":1522671539000,"walkTime":246,"transitTime":1537,"waitingTime":2,"walkDistance":324.921,"walkLimitExceeded":false,"elevationLost":0.0,"elevationGained":0.0,"transfers":1,"legs":[{"startTime":1522669754000,"endTime":1522669768000,"departureDelay":0,"arrivalDelay":0,"realTime":false,"distance":18.434,"pathway":false,"mode":"WALK","route":"","agencyTimeZoneOffset":-14400000,"interlineWithPreviousLeg":false,"from":{"name":"Origin","lon":-71.051177,"lat":48.407035,"departure":1522669754000,"orig":"","vertexType":"NORMAL"},"to":{"name":"Émile-Girardin / Roitelets","stopId":"1:268","stopCode":"268","lon":-71.050698,"lat":48.406546,"arrival":1522669768000,"departure":1522669769000,"zoneId":"NA","stopIndex":14,"stopSequence":15,"vertexType":"TRANSIT"},"legGeometry":{"points":"elmfHrctpLGo@","length":2},"rentedBike":false,"transitLeg":false,"duration":14.0,"steps":[{"distance":18.434,"relativeDirection":"DEPART","streetName":"Rue Émile-Girardin","absoluteDirection":"EAST","stayOn":false,"area":false,"bogusName":false,"lon":-71.050974,"lat":48.406594,"elevation":[]}]},{"startTime":1522669769000,"endTime":1522671060000,"departureDelay":0,"arrivalDelay":0,"realTime":false,"distance":8061.467510349102,"pathway":false,"mode":"BUS","route":"12","agencyName":"Société de Transport du Saguenay","agencyUrl":"http://ville.saguenay.ca/fr/services-aux-citoyens/transport-sts","agencyTimeZoneOffset":-14400000,"routeColor":"556B2F","routeType":3,"routeId":"1:12","routeTextColor":"FFFFFF","interlineWithPreviousLeg":false,"tripBlockId":"29","headsign":"Terminus Chicoutimi","agencyId":"0","tripId":"1:218054","serviceDate":"20180402","from":{"name":"Émile-Girardin / Roitelets","stopId":"1:268","stopCode":"268","lon":-71.050698,"lat":48.406546,"arrival":1522669768000,"departure":1522669769000,"zoneId":"NA","stopIndex":14,"stopSequence":15,"vertexType":"TRANSIT"},"to":{"name":"Terminus Chicoutimi","stopId":"1:1289","stopCode":"1289","lon":-71.066163,"lat":48.428677,"arrival":1522671060000,"departure":1522671060000,"zoneId":"NA","stopIndex":33,"stopSequence":34,"vertexType":"TRANSIT"},"legGeometry":{"points":"ukmfHxatpLYkD}CyA}KmFgD_BgAgBn@kFD_NoIgrAmD_WcAaLaDHoDJi`@wVoAbDbA|AnBU|B|AfBlAyLtKoGxFcFqDkJaHgEoDmDwC_TqQsBeB{HjWfAvAfM|O|FlHmB`IgA|Cy@`UYzHZvMR~Hr@~ZPvHsCrMFxf@|ApJj@nDDl]BvZdCXJhC","length":47},"routeShortName":"12","routeLongName":"Rivière du Moulin","rentedBike":false,"transitLeg":true,"duration":1291.0,"steps":[]},{"startTime":1522671060000,"endTime":1522671306000,"departureDelay":0,"arrivalDelay":0,"realTime":false,"distance":2689.391482015537,"pathway":false,"mode":"BUS","route":"3","agencyName":"Société de Transport du Saguenay","agencyUrl":"http://ville.saguenay.ca/fr/services-aux-citoyens/transport-sts","agencyTimeZoneOffset":-14400000,"routeColor":"FF0000","routeType":3,"routeId":"1:3","routeTextColor":"FFFFFF","interlineWithPreviousLeg":false,"tripBlockId":"65","headsign":"Terminus Jonquière","agencyId":"0","tripId":"1:218573","serviceDate":"20180402","from":{"name":"Terminus Chicoutimi","stopId":"1:1289","stopCode":"1289","lon":-71.066163,"lat":48.428677,"arrival":1522671060000,"departure":1522671060000,"zoneId":"NA","stopIndex":0,"stopSequence":1,"vertexType":"TRANSIT"},"to":{"name":"boul. Saguenay (no. 1082)","stopId":"1:165","stopCode":"165","lon":-71.101086,"lat":48.435208,"arrival":1522671306000,"departure":1522671307000,"zoneId":"NA","stopIndex":5,"stopSequence":6,"vertexType":"TRANSIT"},"legGeometry":{"points":"evqfHzcwpLi@?UhKoBKcBts@OjC]fCg@~BsId[{DrNqB|HSl@YnAMfAOnAo@nMCp@YtKIzBADEhCkAzPEx@?R?zBAbCg@zJ","length":27},"routeShortName":"3","routeLongName":"Chic/Jonq via Boul. Saguenay","rentedBike":false,"transitLeg":true,"duration":246.0,"steps":[]},{"startTime":1522671307000,"endTime":1522671539000,"departureDelay":0,"arrivalDelay":0,"realTime":false,"distance":306.487,"pathway":false,"mode":"WALK","route":"","agencyTimeZoneOffset":-14400000,"interlineWithPreviousLeg":false,"from":{"name":"boul. Saguenay (no. 1082)","stopId":"1:165","stopCode":"165","lon":-71.101086,"lat":48.435208,"arrival":1522671306000,"departure":1522671307000,"zoneId":"NA","stopIndex":5,"stopSequence":6,"vertexType":"TRANSIT"},"to":{"name":"Destination","lon":-71.10532,"lat":48.434422,"arrival":1522671539000,"orig":"","vertexType":"NORMAL"},"legGeometry":{"points":"u~rfHz|}pLM|DA\\CtBShN","length":5},"rentedBike":false,"transitLeg":false,"duration":232.0,"steps":[{"distance":306.487,"relativeDirection":"DEPART","streetName":"Boulevard du Saguenay Ouest","absoluteDirection":"WEST","stayOn":false,"area":false,"bogusName":false,"lon":-71.10109399273409,"lat":48.435159591116225,"elevation":[]}]}],"tooSloped":false},{"duration":2175,"startTime":1522669604000,"endTime":1522671779000,"walkTime":727,"transitTime":1146,"waitingTime":302,"walkDistance":926.1222330764716,"walkLimitExceeded":false,"elevationLost":0.0,"elevationGained":0.0,"transfers":1,"legs":[{"startTime":1522669604000,"endTime":1522670099000,"departureDelay":0,"arrivalDelay":0,"realTime":false,"distance":619.442,"pathway":false,"mode":"WALK","route":"","agencyTimeZoneOffset":-14400000,"interlineWithPreviousLeg":false,"from":{"name":"Origin","lon":-71.051177,"lat":48.407035,"departure":1522669604000,"orig":"","vertexType":"NORMAL"},"to":{"name":"Place Royaume","stopId":"1:1801","stopCode":"1801","lon":-71.057017,"lat":48.405588,"arrival":1522670099000,"departure":1522670100000,"zoneId":"NA","stopIndex":10,"stopSequence":11,"vertexType":"TRANSIT"},"legGeometry":{"points":"elmfHrctpLz@pEDRr@zCn@jC[AW?KAR~Ev@WZA`@^\\^VVN\\?p@c@~AXTq@tBa@zA","length":20},"rentedBike":false,"transitLeg":false,"duration":495.0,"steps":[{"distance":84.388,"relativeDirection":"DEPART","streetName":"Rue Émile-Girardin","absoluteDirection":"SOUTHWEST","stayOn":false,"area":false,"bogusName":false,"lon":-71.050974,"lat":48.406594,"elevation":[]},{"distance":165.414,"relativeDirection":"CONTINUE","streetName":"service road","absoluteDirection":"SOUTHWEST","stayOn":false,"area":false,"bogusName":true,"lon":-71.05202630000001,"lat":48.4062974,"elevation":[]},{"distance":83.48,"relativeDirection":"LEFT","streetName":"path","absoluteDirection":"WEST","stayOn":true,"area":false,"bogusName":true,"lon":-71.05358820000001,"lat":48.406082600000005,"elevation":[]},{"distance":195.842,"relativeDirection":"LEFT","streetName":"service road","absoluteDirection":"SOUTH","stayOn":true,"area":false,"bogusName":true,"lon":-71.05470940000001,"lat":48.4059844,"elevation":[]},{"distance":90.318,"relativeDirection":"RIGHT","streetName":"parking aisle","absoluteDirection":"NORTHWEST","stayOn":true,"area":false,"bogusName":true,"lon":-71.05600720000001,"lat":48.4050992,"elevation":[]}]},{"startTime":1522670100000,"endTime":1522671000000,"departureDelay":0,"arrivalDelay":0,"realTime":false,"distance":4188.036446582453,"pathway":false,"mode":"BUS","route":"175","agencyName":"Société de Transport du Saguenay","agencyUrl":"http://ville.saguenay.ca/fr/services-aux-citoyens/transport-sts","agencyTimeZoneOffset":-14400000,"routeColor":"FF00FF","routeType":3,"routeId":"1:175","routeTextColor":"FFFFFF","interlineWithPreviousLeg":false,"tripBlockId":"11","headsign":"Terminus Chicoutimi","agencyId":"0","tripId":"1:217464","serviceDate":"20180402","from":{"name":"Place Royaume","stopId":"1:1801","stopCode":"1801","lon":-71.057017,"lat":48.405588,"arrival":1522670099000,"departure":1522670100000,"zoneId":"NA","stopIndex":10,"stopSequence":11,"vertexType":"TRANSIT"},"to":{"name":"Terminus Chicoutimi","stopId":"1:1289","stopCode":"1289","lon":-71.066163,"lat":48.428677,"arrival":1522671000000,"departure":1522671300000,"zoneId":"NA","stopIndex":27,"stopSequence":28,"vertexType":"TRANSIT"},"legGeometry":{"points":"sfmfH`kupL_U_TcNgNcBcB{E`Jc@x@qG~@{BlAk@XgSrQqB_GAeFiEeEOt@gAeA_A_ATm@yAwAgBeBqDnL@nBF`@f@|C[dCuAfB]xAs@OmCmCmEkE]a@g@i@ZiGTmEl@oLaEe@cFk@?pH?tJDvBPjMB~Bo@PQDRbFKdGMhIOvIK|EQpHoCQEdC","length":51},"routeShortName":"175","routeLongName":"Term. Chic / Costco","rentedBike":false,"transitLeg":true,"duration":900.0,"steps":[]},{"startTime":1522671300000,"endTime":1522671546000,"departureDelay":0,"arrivalDelay":0,"realTime":false,"distance":2689.391482015537,"pathway":false,"mode":"BUS","route":"3","agencyName":"Société de Transport du Saguenay","agencyUrl":"http://ville.saguenay.ca/fr/services-aux-citoyens/transport-sts","agencyTimeZoneOffset":-14400000,"routeColor":"FF0000","routeType":3,"routeId":"1:3","routeTextColor":"FFFFFF","interlineWithPreviousLeg":false,"tripBlockId":"11","headsign":"Terminus Jonquière","agencyId":"0","tripId":"1:217465","serviceDate":"20180402","from":{"name":"Terminus Chicoutimi","stopId":"1:1289","stopCode":"1289","lon":-71.066163,"lat":48.428677,"arrival":1522671000000,"departure":1522671300000,"zoneId":"NA","stopIndex":0,"stopSequence":1,"vertexType":"TRANSIT"},"to":{"name":"boul. Saguenay (no. 1082)","stopId":"1:165","stopCode":"165","lon":-71.101086,"lat":48.435208,"arrival":1522671546000,"departure":1522671547000,"zoneId":"NA","stopIndex":5,"stopSequence":6,"vertexType":"TRANSIT"},"legGeometry":{"points":"evqfHzcwpLi@?UhKoBKcBts@OjC]fCg@~BsId[{DrNqB|HSl@YnAMfAOnAo@nMCp@YtKIzBADEhCkAzPEx@?R?zBAbCg@zJ","length":27},"routeShortName":"3","routeLongName":"Chic/Jonq via Boul. Saguenay","rentedBike":false,"transitLeg":true,"duration":246.0,"steps":[]},{"startTime":1522671547000,"endTime":1522671779000,"departureDelay":0,"arrivalDelay":0,"realTime":false,"distance":306.487,"pathway":false,"mode":"WALK","route":"","agencyTimeZoneOffset":-14400000,"interlineWithPreviousLeg":false,"from":{"name":"boul. Saguenay (no. 1082)","stopId":"1:165","stopCode":"165","lon":-71.101086,"lat":48.435208,"arrival":1522671546000,"departure":1522671547000,"zoneId":"NA","stopIndex":5,"stopSequence":6,"vertexType":"TRANSIT"},"to":{"name":"Destination","lon":-71.10532,"lat":48.434422,"arrival":1522671779000,"orig":"","vertexType":"NORMAL"},"legGeometry":{"points":"u~rfHz|}pLM|DA\\CtBShN","length":5},"rentedBike":false,"transitLeg":false,"duration":232.0,"steps":[{"distance":306.487,"relativeDirection":"DEPART","streetName":"Boulevard du Saguenay Ouest","absoluteDirection":"WEST","stayOn":false,"area":false,"bogusName":false,"lon":-71.10109399273409,"lat":48.435159591116225,"elevation":[]}]}],"tooSloped":false},{"duration":4166,"startTime":1522670366000,"endTime":1522674532000,"walkTime":192,"transitTime":3792,"waitingTime":182,"walkDistance":250.82587969918748,"walkLimitExceeded":false,"elevationLost":0.0,"elevationGained":0.0,"transfers":1,"legs":[{"startTime":1522670366000,"endTime":1522670388000,"departureDelay":0,"arrivalDelay":0,"realTime":false,"distance":25.714000000000002,"pathway":false,"mode":"WALK","route":"","agencyTimeZoneOffset":-14400000,"interlineWithPreviousLeg":false,"from":{"name":"Origin","lon":-71.051177,"lat":48.407035,"departure":1522670366000,"orig":"","vertexType":"NORMAL"},"to":{"name":"Émile Girardin / Roitelets","stopId":"1:253","stopCode":"253","lon":-71.050677,"lat":48.406726,"arrival":1522670388000,"departure":1522670389000,"zoneId":"NA","stopIndex":17,"stopSequence":18,"vertexType":"TRANSIT"},"legGeometry":{"points":"elmfHrctpLGo@AGAK","length":4},"rentedBike":false,"transitLeg":false,"duration":22.0,"steps":[{"distance":25.714000000000002,"relativeDirection":"DEPART","streetName":"Rue Émile-Girardin","absoluteDirection":"EAST","stayOn":false,"area":false,"bogusName":false,"lon":-71.050974,"lat":48.406594,"elevation":[]}]},{"startTime":1522670389000,"endTime":1522671120000,"departureDelay":0,"arrivalDelay":0,"realTime":false,"distance":4204.686550914487,"pathway":false,"mode":"BUS","route":"175","agencyName":"Société de Transport du Saguenay","agencyUrl":"http://ville.saguenay.ca/fr/services-aux-citoyens/transport-sts","agencyTimeZoneOffset":-14400000,"routeColor":"FF00FF","routeType":3,"routeId":"1:175","routeTextColor":"FFFFFF","interlineWithPreviousLeg":false,"tripBlockId":"8","headsign":"Costco","agencyId":"0","tripId":"1:217359","serviceDate":"20180402","from":{"name":"Émile Girardin / Roitelets","stopId":"1:253","stopCode":"253","lon":-71.050677,"lat":48.406726,"arrival":1522670388000,"departure":1522670389000,"zoneId":"NA","stopIndex":17,"stopSequence":18,"vertexType":"TRANSIT"},"to":{"name":"COSTCO","stopId":"1:1710","stopCode":"1710","lon":-71.085767,"lat":48.382333,"arrival":1522671120000,"departure":1522671300000,"zoneId":"NA","stopIndex":30,"stopSequence":31,"vertexType":"TRANSIT"},"legGeometry":{"points":"_lmfHhatpLr@~Gx@]PEr@ObACn@FrBb@|@Ch@Kx@U~HsB^KZ|DJpII~Fa@rFUzBi@bDUxAm@nCcAlDM^RTfD`DjF`FjCrCrAvAbCfDjIfMdAzAfFpHd@n@nC`DlXv[b@f@mCtHv@v@p@r@_@p@uAcBjDoJhAzApBrBrFvGjDdEbD|DZb@~DrEbDfDrA~ApLbNpG|GyCtHwBcC","length":55},"routeShortName":"175","routeLongName":"Term. Chic / Costco","rentedBike":false,"transitLeg":true,"duration":731.0,"steps":[]},{"startTime":1522671300000,"endTime":1522672920000,"departureDelay":0,"arrivalDelay":0,"realTime":false,"distance":14008.131135969163,"pathway":false,"mode":"BUS","route":"2","agencyName":"Société de Transport du Saguenay","agencyUrl":"http://ville.saguenay.ca/fr/services-aux-citoyens/transport-sts","agencyTimeZoneOffset":-14400000,"routeColor":"FF0000","routeType":3,"routeId":"1:2","routeTextColor":"FFFFFF","interlineWithPreviousLeg":false,"tripBlockId":"8","headsign":"Terminus Jonquière","agencyId":"0","tripId":"1:217360","serviceDate":"20180402","from":{"name":"COSTCO","stopId":"1:1710","stopCode":"1710","lon":-71.085767,"lat":48.382333,"arrival":1522671120000,"departure":1522671300000,"zoneId":"NA","stopIndex":0,"stopSequence":1,"vertexType":"TRANSIT"},"to":{"name":"Terminus Jonquière","stopId":"1:1291","stopCode":"1291","lon":-71.25388,"lat":48.411994,"arrival":1522672920000,"departure":1522673100000,"zoneId":"NA","stopIndex":24,"stopSequence":25,"vertexType":"TRANSIT"},"legGeometry":{"points":"wthfHn}zpLeLkMxCaIbPzPkL|[eB~GwBlIa@bXIbQO`^aBhTiBlNUfBiI~ZeHzQeFxMqDtKAJ}ApJM~EWhIb@`NFlB_@fOsBvK_DrH_G|HiSfXwExNyEzZoHll@}GpYuL`_@PPZ^lC|Bn@j@bB|AtDjDADGJKFK@KCkF{EGMCS@KHWo@k@mC}B[_@Or@I`@y@tEc@`D]`DU`DMlC_@rSKxCSxEeD`d@aArKM~Ao@jJEx@}AvT}@rKAPMrASzBGp@wA~OGhAg@fHUhCKtAmFvr@WbCM|@Ox@c@zBuA`Fi@`BM^VTt@p@vAjANJlAbAt@h@p@\\x@ZVFPDj@RfHvAn@T[rDi@rHe@`H@Rq@dHo@|DMt@kAtDU|@UhAKp@OnAOjBIjAGz@AJAR?R?RBRBV|ChSBXHXHRLRfApArA|A\\n@Lh@Hl@@hAK`BcAtM?@?RBPHRHJda@|IcAbNIdAWbCiAlO}@pLeCg@_B[[@[RkEzJs@dAO`@Ij@MdBQnASr@EN_@b@e@JqBc@y@zL}Du@yGqAeCSaBMcASYfBMvAg@`IqAzRWjD~@YDk@","length":172},"routeShortName":"2","routeLongName":"Chic/Jonq via Boul. Royaume","rentedBike":false,"transitLeg":true,"duration":1620.0,"steps":[]},{"startTime":1522673100000,"endTime":1522674361000,"departureDelay":0,"arrivalDelay":0,"realTime":false,"distance":13605.597535022285,"pathway":false,"mode":"BUS","route":"3","agencyName":"Société de Transport du Saguenay","agencyUrl":"http://ville.saguenay.ca/fr/services-aux-citoyens/transport-sts","agencyTimeZoneOffset":-14400000,"routeColor":"FF0000","routeType":3,"routeId":"1:3","routeTextColor":"FFFFFF","interlineWithPreviousLeg":true,"tripBlockId":"8","headsign":"Terminus Chicoutimi","agencyId":"0","tripId":"1:217361","serviceDate":"20180402","from":{"name":"Terminus Jonquière","stopId":"1:1291","stopCode":"1291","lon":-71.25388,"lat":48.411994,"arrival":1522672920000,"departure":1522673100000,"zoneId":"NA","stopIndex":0,"stopSequence":1,"vertexType":"TRANSIT"},"to":{"name":"boul. Saguenay (no. 1126)","stopId":"1:155","stopCode":"155","lon":-71.1022,"lat":48.435135,"arrival":1522674361000,"departure":1522674362000,"zoneId":"NA","stopIndex":26,"stopSequence":27,"vertexType":"TRANSIT"},"legGeometry":{"points":"kmnfHvu{qLNuBy@YjBoYJmA@IXgBNa@rAsDZaAD[He@NyAbCs_@L}BAsBGqAmBeHi@uBoB{GcAiD}@_@OoCUmB}BmMKk@k@wCYm@QWKeA@e@PaBXcAL}@PcCpByYMCuA]]K}@k@kAkAmAg@y@OyAWhB}WPgBPsA\\mBZqAf@eBj@}A~D}I^u@|BmFh@sALa@gIkGeBkAWMECg@S{Ag@m@OcASsBOgAAeBDsBRwAXQDYD_AXgItEiGbDi@b@i@^oHnEoAr@g@PgA^gCv@oPxD}@PqB^oBPuA@Y[Ma@G[CqAIiCa@wHKqCyGu_Ac@eIAMM{AEc@KkA[uCy@qGGk@i@cE}@aG]sCWaDIeAEqAGqCC{H@iE?aAAaRAwRHcA?A@??A@??A@??A@??A?A@A?A@A?A?A?A@A?A?A?A?A?A?A?A?A?A?A???AAA?A?AAA?A?AAA??AA?AAA??AA??AA??AA??A??YAUCu@KyBa@qN?y@?M@ADc@?OGwAGEA_@UuF}Cym@mCii@Ea@SqC{@sOM_ECkHDua@BeIHoB?mEAuGAsBAQAo@GaAO_BUoAOq@G[K[Kc@IYcB}FaBaFwFaRACi@cBk@{BUmASkBAiA@mCTaGJsBz@}OL}AD_@lAwI~@{FJ_BFaA|AuLXeCFi@R{CHwBDiBL}P?y@?mEDa@FgAD_BHoAr@mGTyBd@mFDq@HyAB_ADoBLyFBiFPkO@K","length":243},"routeShortName":"3","routeLongName":"Chic/Jonq via Boul. Saguenay","rentedBike":false,"transitLeg":true,"duration":1261.0,"steps":[]},{"startTime":1522674362000,"endTime":1522674532000,"departureDelay":0,"arrivalDelay":0,"realTime":false,"distance":225.11,"pathway":false,"mode":"WALK","route":"","agencyTimeZoneOffset":-14400000,"interlineWithPreviousLeg":false,"from":{"name":"boul. Saguenay (no. 1126)","stopId":"1:155","stopCode":"155","lon":-71.1022,"lat":48.435135,"arrival":1522674361000,"departure":1522674362000,"zoneId":"NA","stopIndex":26,"stopSequence":27,"vertexType":"TRANSIT"},"to":{"name":"Destination","lon":-71.10532,"lat":48.434422,"arrival":1522674532000,"orig":"","vertexType":"NORMAL"},"legGeometry":{"points":"e_sfHvc~pLCtBShN","length":3},"rentedBike":false,"transitLeg":false,"duration":170.0,"steps":[{"distance":225.11,"relativeDirection":"DEPART","streetName":"Boulevard du Saguenay Ouest","absoluteDirection":"WEST","stayOn":false,"area":false,"bogusName":false,"lon":-71.10219109748313,"lat":48.435234591352796,"elevation":[]}]}],"tooSloped":false}]},"debugOutput":{"precalculationTime":17,"pathCalculationTime":51,"pathTimes":[18,14,19],"renderingTime":0,"totalTime":68,"timedOut":false},"elevationMetadata":{"ellipsoidToGeoidDifference":-28.885904201182168,"geoidElevation":false}}