{"requestParameters":{"date":"2018/04/02","walkSpeed":"1.33","walkReluctance":"2.0","fromPlace":"48.400208,-71.064746","maxWalkDistance":"3000","waitReluctance":"1.0","carSpeed":"33","numItineraries":"3","waitAtBeginningFactor":"0.4","mode":"TRANSIT,WALK","ignoreRealtimeUpdates":"false","stairsReluctance":"2.0","toPlace":"48.412522,-71.05130499","time":"14:15:00"},"plan":{"date":1522692900000,"from":{"name":"Origin","lon":-71.064746,"lat":48.400208,"orig":"","vertexType":"NORMAL"},"to":{"name":"Destination","lon":-71.05130499,"lat":48.412522,"orig":"","vertexType":"NORMAL"},"itineraries":[{"duration":522,"startTime":1522693188000,"endTime":1522693710000,"walkTime":259,"transitTime":261,"waitingTime":2,"walkDistance":323.8806315756357,"walkLimitExceeded":false,"elevationLost":0.0,"elevationGained":0.0,"transfers":0,"legs":[{"startTime":1522693188000,"endTime":1522693358000,"departureDelay":0,"arrivalDelay":0,"realTime":false,"distance":213.26800000000003,"pathway":false,"mode":"WALK","route":"","agencyTimeZoneOffset":-14400000,"interlineWithPreviousLeg":false,"from":{"name":"Origin","lon":-71.064746,"lat":48.400208,"departure":1522693188000,"orig":"","vertexType":"NORMAL"},"to":{"name":"boul. Talbot / Laurentides","stopId":"1:51","stopCode":"51","lon":-71.063914,"lat":48.398861,"arrival":1522693358000,"departure":1522693359000,"zoneId":"NA","stopIndex":9,"stopSequence":10,"vertexType":"TRANSIT"},"legGeometry":{"points":"}dlfHvzvpLd@t@LBRARUjBiDLYNWPc@V\\FH","length":11},"rentedBike":false,"transitLeg":false,"duration":170.0,"steps":[{"distance":190.24200000000002,"relativeDirection":"DEPART","streetName":"Rue des Laurentides","absoluteDirection":"SOUTHWEST","stayOn":false,"area":false,"bogusName":false,"lon":-71.06491120263009,"lat":48.4003124969706,"elevation":[]},{"distance":23.026,"relativeDirection":"RIGHT","streetName":"Boulevard Talbot","absoluteDirection":"SOUTHWEST","stayOn":false,"area":false,"bogusName":false,"lon":-71.06380730000001,"lat":48.3990713,"elevation":[]}]},{"startTime":1522693359000,"endTime":1522693620000,"departureDelay":0,"arrivalDelay":0,"realTime":false,"distance":1692.6058084284577,"pathway":false,"mode":"BUS","route":"175","agencyName":"Société de Transport du Saguenay","agencyUrl":"http://ville.saguenay.ca/fr/services-aux-citoyens/transport-sts","agencyTimeZoneOffset":-14400000,"routeColor":"FF00FF","routeType":3,"routeId":"1:175","routeTextColor":"FFFFFF","interlineWithPreviousLeg":false,"tripBlockId":"10","headsign":"Terminus Chicoutimi","agencyId":"0","tripId":"1:217442","serviceDate":"20180402","from":{"name":"boul. Talbot / Laurentides","stopId":"1:51","stopCode":"51","lon":-71.063914,"lat":48.398861,"arrival":1522693358000,"departure":1522693359000,"zoneId":"NA","stopIndex":9,"stopSequence":10,"vertexType":"TRANSIT"},"to":{"name":"missingStopName","stopId":"1:1812","stopCode":"1812","lon":-71.051352,"lat":48.411592,"arrival":1522693620000,"departure":1522693621000,"zoneId":"NA","stopIndex":11,"stopSequence":12,"vertexType":"TRANSIT"},"legGeometry":{"points":"q|kfHtuvpL}FkImPkOuO{N_U_TcNgN","length":6},"routeShortName":"175","routeLongName":"Term. Chic / Costco","rentedBike":false,"transitLeg":true,"duration":261.0,"steps":[]},{"startTime":1522693621000,"endTime":1522693710000,"departureDelay":0,"arrivalDelay":0,"realTime":false,"distance":110.51,"pathway":false,"mode":"WALK","route":"","agencyTimeZoneOffset":-14400000,"interlineWithPreviousLeg":false,"from":{"name":"missingStopName","stopId":"1:1812","stopCode":"1812","lon":-71.051352,"lat":48.411592,"arrival":1522693620000,"departure":1522693621000,"zoneId":"NA","stopIndex":11,"stopSequence":12,"vertexType":"TRANSIT"},"to":{"name":"Destination","lon":-71.05130499,"lat":48.412522,"arrival":1522693710000,"orig":"","vertexType":"NORMAL"},"legGeometry":{"points":"wknfHtftpLy@}@MKUYOb@_@`A","length":6},"rentedBike":false,"transitLeg":false,"duration":89.0,"steps":[{"distance":64.444,"relativeDirection":"DEPART","streetName":"Boulevard Talbot","absoluteDirection":"NORTHEAST","stayOn":false,"area":false,"bogusName":false,"lon":-71.05146038442705,"lat":48.41164093434771,"elevation":[]},{"distance":46.066,"relativeDirection":"LEFT","streetName":"Boulevard de l'Université","absoluteDirection":"NORTHWEST","stayOn":false,"area":false,"bogusName":false,"lon":-71.05096660000001,"lat":48.4121189,"elevation":[]}]}],"tooSloped":false},{"duration":1378,"startTime":1522692900000,"endTime":1522694278000,"walkTime":1378,"transitTime":0,"waitingTime":0,"walkDistance":1799.6586466130357,"walkLimitExceeded":false,"elevationLost":0.0,"elevationGained":0.0,"transfers":0,"legs":[{"startTime":1522692900000,"endTime":1522694278000,"departureDelay":0,"arrivalDelay":0,"realTime":false,"distance":1799.55,"pathway":false,"mode":"WALK","route":"","agencyTimeZoneOffset":-14400000,"interlineWithPreviousLeg":false,"from":{"name":"Origin","lon":-71.064746,"lat":48.400208,"departure":1522692900000,"orig":"","vertexType":"NORMAL"},"to":{"name":"Destination","lon":-71.05130499,"lat":48.412522,"arrival":1522694278000,"orig":"","vertexType":"NORMAL"},"legGeometry":{"points":"}dlfHvzvpL{@uASUuBgCuAgBmA_BGU?_@Ji@TeAz@aCkAiAgDcDWUQQkF_FuEkEuAmAKIqD}CaA_AkE{DOOeEaEiDaDOOmAiAmGoGo@s@UW_@`A","length":31},"rentedBike":false,"transitLeg":false,"duration":1378.0,"steps":[{"distance":384.439,"relativeDirection":"DEPART","streetName":"Rue des Laurentides","absoluteDirection":"NORTHEAST","stayOn":false,"area":false,"bogusName":false,"lon":-71.06491120263009,"lat":48.4003124969706,"elevation":[]},{"distance":1384.673,"relativeDirection":"LEFT","streetName":"Boulevard Talbot","absoluteDirection":"NORTHEAST","stayOn":false,"area":false,"bogusName":false,"lon":-71.0612167,"lat":48.4016979,"elevation":[]},{"distance":30.438,"relativeDirection":"LEFT","streetName":"Boulevard de l'Université","absoluteDirection":"NORTHWEST","stayOn":false,"area":false,"bogusName":false,"lon":-71.05114060000001,"lat":48.412199,"elevation":[]}]}],"tooSloped":false},{"duration":522,"startTime":1522694988000,"endTime":1522695510000,"walkTime":259,"transitTime":261,"waitingTime":2,"walkDistance":323.8806315756357,"walkLimitExceeded":false,"elevationLost":0.0,"elevationGained":0.0,"transfers":0,"legs":[{"startTime":1522694988000,"endTime":1522695158000,"departureDelay":0,"arrivalDelay":0,"realTime":false,"distance":213.26800000000003,"pathway":false,"mode":"WALK","route":"","agencyTimeZoneOffset":-14400000,"interlineWithPreviousLeg":false,"from":{"name":"Origin","lon":-71.064746,"lat":48.400208,"departure":1522694988000,"orig":"","vertexType":"NORMAL"},"to":{"name":"boul. Talbot / Laurentides","stopId":"1:51","stopCode":"51","lon":-71.063914,"lat":48.398861,"arrival":1522695158000,"departure":1522695159000,"zoneId":"NA","stopIndex":9,"stopSequence":10,"vertexType":"TRANSIT"},"legGeometry":{"points":"}dlfHvzvpLd@t@LBRARUjBiDLYNWPc@V\\FH","length":11},"rentedBike":false,"transitLeg":false,"duration":170.0,"steps":[{"distance":190.24200000000002,"relativeDirection":"DEPART","streetName":"Rue des Laurentides","absoluteDirection":"SOUTHWEST","stayOn":false,"area":false,"bogusName":false,"lon":-71.06491120263009,"lat":48.4003124969706,"elevation":[]},{"distance":23.026,"relativeDirection":"RIGHT","streetName":"Boulevard Talbot","absoluteDirection":"SOUTHWEST","stayOn":false,"area":false,"bogusName":false,"lon":-71.06380730000001,"lat":48.3990713,"elevation":[]}]},{"startTime":1522695159000,"endTime":1522695420000,"departureDelay":0,"arrivalDelay":0,"realTime":false,"distance":1692.6058084284577,"pathway":false,"mode":"BUS","route":"175","agencyName":"Société de Transport du Saguenay","agencyUrl":"http://ville.saguenay.ca/fr/services-aux-citoyens/transport-sts","agencyTimeZoneOffset":-14400000,"routeColor":"FF00FF","routeType":3,"routeId":"1:175","routeTextColor":"FFFFFF","interlineWithPreviousLeg":false,"tripBlockId":"9","headsign":"Terminus Chicoutimi","agencyId":"0","tripId":"1:217408","serviceDate":"20180402","from":{"name":"boul. Talbot / Laurentides","stopId":"1:51","stopCode":"51","lon":-71.063914,"lat":48.398861,"arrival":1522695158000,"departure":1522695159000,"zoneId":"NA","stopIndex":9,"stopSequence":10,"vertexType":"TRANSIT"},"to":{"name":"missingStopName","stopId":"1:1812","stopCode":"1812","lon":-71.051352,"lat":48.411592,"arrival":1522695420000,"departure":1522695421000,"zoneId":"NA","stopIndex":11,"stopSequence":12,"vertexType":"TRANSIT"},"legGeometry":{"points":"q|kfHtuvpL}FkImPkOuO{N_U_TcNgN","length":6},"routeShortName":"175","routeLongName":"Term. Chic / Costco","rentedBike":false,"transitLeg":true,"duration":261.0,"steps":[]},{"startTime":1522695421000,"endTime":1522695510000,"departureDelay":0,"arrivalDelay":0,"realTime":false,"distance":110.51,"pathway":false,"mode":"WALK","route":"","agencyTimeZoneOffset":-14400000,"interlineWithPreviousLeg":false,"from":{"name":"missingStopName","stopId":"1:1812","stopCode":"1812","lon":-71.051352,"lat":48.411592,"arrival":1522695420000,"departure":1522695421000,"zoneId":"NA","stopIndex":11,"stopSequence":12,"vertexType":"TRANSIT"},"to":{"name":"Destination","lon":-71.05130499,"lat":48.412522,"arrival":1522695510000,"orig":"","vertexType":"NORMAL"},"legGeometry":{"points":"wknfHtftpLy@}@MKUYOb@_@`A","length":6},"rentedBike":false,"transitLeg":false,"duration":89.0,"steps":[{"distance":64.444,"relativeDirection":"DEPART","streetName":"Boulevard Talbot","absoluteDirection":"NORTHEAST","stayOn":false,"area":false,"bogusName":false,"lon":-71.05146038442705,"lat":48.41164093434771,"elevation":[]},{"distance":46.066,"relativeDirection":"LEFT","streetName":"Boulevard de l'Université","absoluteDirection":"NORTHWEST","stayOn":false,"area":false,"bogusName":false,"lon":-71.05096660000001,"lat":48.4121189,"elevation":[]}]}],"tooSloped":false}]},"debugOutput":{"precalculationTime":39,"pathCalculationTime":19,"pathTimes":[10,5,4],"renderingTime":0,"totalTime":58,"timedOut":false},"elevationMetadata":{"ellipsoidToGeoidDifference":-28.885904201182168,"geoidElevation":false}}