{"requestParameters":{"date":"2018/04/02","walkSpeed":"1.33","walkReluctance":"2.0","fromPlace":"48.409245,-71.047904","maxWalkDistance":"3000","waitReluctance":"1.0","carSpeed":"33","numItineraries":"3","waitAtBeginningFactor":"0.4","mode":"TRANSIT,WALK","ignoreRealtimeUpdates":"false","stairsReluctance":"2.0","toPlace":"48.414926,-71.05418","time":"9:30:00"},"plan":{"date":1522675800000,"from":{"name":"Origin","lon":-71.047904,"lat":48.409245,"orig":"","vertexType":"NORMAL"},"to":{"name":"Destination","lon":-71.05418,"lat":48.414926,"orig":"","vertexType":"NORMAL"},"itineraries":[{"duration":708,"startTime":1522675800000,"endTime":1522676508000,"walkTime":708,"transitTime":0,"waitingTime":0,"walkDistance":916.0868646585608,"walkLimitExceeded":false,"elevationLost":0.0,"elevationGained":0.0,"transfers":0,"legs":[{"startTime":1522675800000,"endTime":1522676508000,"departureDelay":0,"arrivalDelay":0,"realTime":false,"distance":915.9909999999999,"pathway":false,"mode":"WALK","route":"","agencyTimeZoneOffset":-14400000,"interlineWithPreviousLeg":false,"from":{"name":"Origin","lon":-71.047904,"lat":48.409245,"departure":1522675800000,"orig":"","vertexType":"NORMAL"},"to":{"name":"Destination","lon":-71.05418,"lat":48.414926,"arrival":1522676508000,"orig":"","vertexType":"NORMAL"},"legGeometry":{"points":"}zmfHpqspLWxAqAq@GCk@Y_Bw@KEe@JYLa@n@G^yBdHUn@}AlEO`@K\\gA|COb@MZq@lAgA`A_AVwADoAD}@Vq@^KH","length":27},"rentedBike":false,"transitLeg":false,"duration":708.0,"steps":[{"distance":35.745,"relativeDirection":"DEPART","streetName":"Rue Gaudiose-Brassard","absoluteDirection":"WEST","stayOn":false,"area":false,"bogusName":false,"lon":-71.04808097474516,"lat":48.40895323351345,"elevation":[]},{"distance":144.314,"relativeDirection":"RIGHT","streetName":"Rue Des Roitelets","absoluteDirection":"NORTH","stayOn":false,"area":false,"bogusName":false,"lon":-71.0485302,"lat":48.4090733,"elevation":[]},{"distance":62.949,"relativeDirection":"SLIGHTLY_LEFT","streetName":"link","absoluteDirection":"NORTH","stayOn":false,"area":false,"bogusName":true,"lon":-71.0478246,"lat":48.4102837,"elevation":[]},{"distance":672.9829999999998,"relativeDirection":"SLIGHTLY_LEFT","streetName":"Boulevard de l'Université","absoluteDirection":"NORTHWEST","stayOn":false,"area":false,"bogusName":false,"lon":-71.04819570000001,"lat":48.410774100000005,"elevation":[]}]}],"tooSloped":false},{"duration":541,"startTime":1522676542000,"endTime":1522677083000,"walkTime":498,"transitTime":41,"waitingTime":2,"walkDistance":621.6940300683464,"walkLimitExceeded":false,"elevationLost":0.0,"elevationGained":0.0,"transfers":0,"legs":[{"startTime":1522676542000,"endTime":1522676884000,"departureDelay":0,"arrivalDelay":0,"realTime":false,"distance":426.26699999999994,"pathway":false,"mode":"WALK","route":"","agencyTimeZoneOffset":-14400000,"interlineWithPreviousLeg":false,"from":{"name":"Origin","lon":-71.047904,"lat":48.409245,"departure":1522676542000,"orig":"","vertexType":"NORMAL"},"to":{"name":"boul. Université / Murdock","stopId":"1:59","stopCode":"59","lon":-71.049971,"lat":48.411755,"arrival":1522676884000,"departure":1522676885000,"zoneId":"NA","stopIndex":38,"stopSequence":39,"vertexType":"TRANSIT"},"legGeometry":{"points":"}zmfHpqspLWxAqAq@GCk@Y_Bw@KEe@JYLa@n@G^yBdHWQ[|@","length":14},"rentedBike":false,"transitLeg":false,"duration":342.0,"steps":[{"distance":35.745,"relativeDirection":"DEPART","streetName":"Rue Gaudiose-Brassard","absoluteDirection":"WEST","stayOn":false,"area":false,"bogusName":false,"lon":-71.04808097474516,"lat":48.40895323351345,"elevation":[]},{"distance":144.314,"relativeDirection":"RIGHT","streetName":"Rue Des Roitelets","absoluteDirection":"NORTH","stayOn":false,"area":false,"bogusName":false,"lon":-71.0485302,"lat":48.4090733,"elevation":[]},{"distance":62.949,"relativeDirection":"SLIGHTLY_LEFT","streetName":"link","absoluteDirection":"NORTH","stayOn":false,"area":false,"bogusName":true,"lon":-71.0478246,"lat":48.4102837,"elevation":[]},{"distance":183.259,"relativeDirection":"SLIGHTLY_LEFT","streetName":"Boulevard de l'Université","absoluteDirection":"NORTHWEST","stayOn":false,"area":false,"bogusName":false,"lon":-71.04819570000001,"lat":48.410774100000005,"elevation":[]}]},{"startTime":1522676885000,"endTime":1522676926000,"departureDelay":0,"arrivalDelay":0,"realTime":false,"distance":522.9486117967311,"pathway":false,"mode":"BUS","route":"5","agencyName":"Société de Transport du Saguenay","agencyUrl":"http://ville.saguenay.ca/fr/services-aux-citoyens/transport-sts","agencyTimeZoneOffset":-14400000,"routeColor":"FF0000","routeType":3,"routeId":"1:5","routeTextColor":"FFFFFF","interlineWithPreviousLeg":false,"tripBlockId":"24","headsign":"Terminus UQAC","agencyId":"0","tripId":"1:217905","serviceDate":"20180402","from":{"name":"boul. Université / Murdock","stopId":"1:59","stopCode":"59","lon":-71.049971,"lat":48.411755,"arrival":1522676884000,"departure":1522676885000,"zoneId":"NA","stopIndex":38,"stopSequence":39,"vertexType":"TRANSIT"},"to":{"name":"Polyclinique du Saguenay (boul. Université)","stopId":"1:61","stopCode":"61","lon":-71.053728,"lat":48.415424,"arrival":1522676926000,"departure":1522676927000,"zoneId":"NA","stopIndex":40,"stopSequence":41,"vertexType":"TRANSIT"},"legGeometry":{"points":"alnfHv}spLoDdKM\\k@zAc@l@OPCBQN_@Pa@JYDmCHc@Be@L_@P_@Vy@t@","length":17},"routeShortName":"5","routeLongName":"Term. Chic/Term. Baie via St-J.Batiste","rentedBike":false,"transitLeg":true,"duration":41.0,"steps":[]},{"startTime":1522676927000,"endTime":1522677083000,"departureDelay":0,"arrivalDelay":0,"realTime":false,"distance":195.215,"pathway":false,"mode":"WALK","route":"","agencyTimeZoneOffset":-14400000,"interlineWithPreviousLeg":false,"from":{"name":"Polyclinique du Saguenay (boul. Université)","stopId":"1:61","stopCode":"61","lon":-71.053728,"lat":48.415424,"arrival":1522676926000,"departure":1522676927000,"zoneId":"NA","stopIndex":40,"stopSequence":41,"vertexType":"TRANSIT"},"to":{"name":"Destination","lon":-71.05418,"lat":48.414926,"arrival":1522677083000,"orig":"","vertexType":"NORMAL"},"legGeometry":{"points":"gcofHbutpLaBvAKHPh@nCcCRK","length":6},"rentedBike":false,"transitLeg":false,"duration":156.0,"steps":[{"distance":71.131,"relativeDirection":"DEPART","streetName":"Boulevard de l'Université","absoluteDirection":"NORTHWEST","stayOn":false,"area":false,"bogusName":false,"lon":-71.05377815383544,"lat":48.415404134793874,"elevation":[]},{"distance":124.084,"relativeDirection":"UTURN_LEFT","streetName":"Boulevard de l'Université","absoluteDirection":"SOUTHEAST","stayOn":true,"area":false,"bogusName":false,"lon":-71.0544787,"lat":48.4158697,"elevation":[]}]}],"tooSloped":false},{"duration":660,"startTime":1522677006000,"endTime":1522677666000,"walkTime":569,"transitTime":89,"waitingTime":2,"walkDistance":724.0266842049219,"walkLimitExceeded":false,"elevationLost":0.0,"elevationGained":0.0,"transfers":0,"legs":[{"startTime":1522677006000,"endTime":1522677419000,"departureDelay":0,"arrivalDelay":0,"realTime":false,"distance":528.638,"pathway":false,"mode":"WALK","route":"","agencyTimeZoneOffset":-14400000,"interlineWithPreviousLeg":false,"from":{"name":"Origin","lon":-71.047904,"lat":48.409245,"departure":1522677006000,"orig":"","vertexType":"NORMAL"},"to":{"name":"missingStopName","stopId":"1:1812","stopCode":"1812","lon":-71.051352,"lat":48.411592,"arrival":1522677419000,"departure":1522677420000,"zoneId":"NA","stopIndex":11,"stopSequence":12,"vertexType":"TRANSIT"},"legGeometry":{"points":"}zmfHpqspLWxAqAq@u@|Dc@zBM|@Wl@[rBWnAwAxDcDgD","length":11},"rentedBike":false,"transitLeg":false,"duration":413.0,"steps":[{"distance":35.745,"relativeDirection":"DEPART","streetName":"Rue Gaudiose-Brassard","absoluteDirection":"WEST","stayOn":false,"area":false,"bogusName":false,"lon":-71.04808097474516,"lat":48.40895323351345,"elevation":[]},{"distance":49.17,"relativeDirection":"RIGHT","streetName":"Rue Des Roitelets","absoluteDirection":"NORTH","stayOn":false,"area":false,"bogusName":false,"lon":-71.0485302,"lat":48.4090733,"elevation":[]},{"distance":149.905,"relativeDirection":"LEFT","streetName":"Rue Lorenzo-Genest","absoluteDirection":"NORTHWEST","stayOn":false,"area":false,"bogusName":false,"lon":-71.0482898,"lat":48.409485700000005,"elevation":[]},{"distance":183.487,"relativeDirection":"SLIGHTLY_RIGHT","streetName":"path","absoluteDirection":"NORTHWEST","stayOn":false,"area":false,"bogusName":true,"lon":-71.0501637,"lat":48.4100046,"elevation":[]},{"distance":110.331,"relativeDirection":"RIGHT","streetName":"Boulevard Talbot","absoluteDirection":"NORTHEAST","stayOn":false,"area":false,"bogusName":false,"lon":-71.05230110000001,"lat":48.4108205,"elevation":[]}]},{"startTime":1522677420000,"endTime":1522677509000,"departureDelay":0,"arrivalDelay":0,"realTime":false,"distance":466.1401674400437,"pathway":false,"mode":"BUS","route":"175","agencyName":"Société de Transport du Saguenay","agencyUrl":"http://ville.saguenay.ca/fr/services-aux-citoyens/transport-sts","agencyTimeZoneOffset":-14400000,"routeColor":"FF00FF","routeType":3,"routeId":"1:175","routeTextColor":"FFFFFF","interlineWithPreviousLeg":false,"tripBlockId":"10","headsign":"Terminus Chicoutimi","agencyId":"0","tripId":"1:217433","serviceDate":"20180402","from":{"name":"missingStopName","stopId":"1:1812","stopCode":"1812","lon":-71.051352,"lat":48.411592,"arrival":1522677419000,"departure":1522677420000,"zoneId":"NA","stopIndex":11,"stopSequence":12,"vertexType":"TRANSIT"},"to":{"name":"Polyclinique du Saguenay (boul. Université)","stopId":"1:61","stopCode":"61","lon":-71.053728,"lat":48.415424,"arrival":1522677509000,"departure":1522677510000,"zoneId":"NA","stopIndex":13,"stopSequence":14,"vertexType":"TRANSIT"},"legGeometry":{"points":"wknfHxftpLcBcB{E`Jc@x@qG~@{BlA","length":6},"routeShortName":"175","routeLongName":"Term. Chic / Costco","rentedBike":false,"transitLeg":true,"duration":89.0,"steps":[]},{"startTime":1522677510000,"endTime":1522677666000,"departureDelay":0,"arrivalDelay":0,"realTime":false,"distance":195.215,"pathway":false,"mode":"WALK","route":"","agencyTimeZoneOffset":-14400000,"interlineWithPreviousLeg":false,"from":{"name":"Polyclinique du Saguenay (boul. Université)","stopId":"1:61","stopCode":"61","lon":-71.053728,"lat":48.415424,"arrival":1522677509000,"departure":1522677510000,"zoneId":"NA","stopIndex":13,"stopSequence":14,"vertexType":"TRANSIT"},"to":{"name":"Destination","lon":-71.05418,"lat":48.414926,"arrival":1522677666000,"orig":"","vertexType":"NORMAL"},"legGeometry":{"points":"gcofHbutpLaBvAKHPh@nCcCRK","length":6},"rentedBike":false,"transitLeg":false,"duration":156.0,"steps":[{"distance":71.131,"relativeDirection":"DEPART","streetName":"Boulevard de l'Université","absoluteDirection":"NORTHWEST","stayOn":false,"area":false,"bogusName":false,"lon":-71.05377815383544,"lat":48.415404134793874,"elevation":[]},{"distance":124.084,"relativeDirection":"UTURN_LEFT","streetName":"Boulevard de l'Université","absoluteDirection":"SOUTHEAST","stayOn":true,"area":false,"bogusName":false,"lon":-71.0544787,"lat":48.4158697,"elevation":[]}]}],"tooSloped":false}]},"debugOutput":{"precalculationTime":41,"pathCalculationTime":21,"pathTimes":[12,4,5],"renderingTime":0,"totalTime":62,"timedOut":false},"elevationMetadata":{"ellipsoidToGeoidDifference":-28.885904201182168,"geoidElevation":false}}