{"requestParameters":{"date":"2018/04/02","walkSpeed":"1.33","walkReluctance":"2.0","fromPlace":"48.417935,-71.056133","maxWalkDistance":"3000","waitReluctance":"1.0","carSpeed":"33","numItineraries":"3","waitAtBeginningFactor":"0.4","mode":"TRANSIT,WALK","ignoreRealtimeUpdates":"false","stairsReluctance":"2.0","toPlace":"48.414354,-71.034571","time":"16:30:00"},"plan":{"date":1522701000000,"from":{"name":"Origin","lon":-71.056133,"lat":48.417935,"orig":"","vertexType":"NORMAL"},"to":{"name":"Destination","lon":-71.034571,"lat":48.414354,"orig":"","vertexType":"NORMAL"},"itineraries":[{"duration":1458,"startTime":1522701088000,"endTime":1522702546000,"walkTime":1191,"transitTime":265,"waitingTime":2,"walkDistance":1531.062390970784,"walkLimitExceeded":false,"elevationLost":0.0,"elevationGained":0.0,"transfers":0,"legs":[{"startTime":1522701088000,"endTime":1522701394000,"departureDelay":0,"arrivalDelay":0,"realTime":false,"distance":388.938,"pathway":false,"mode":"WALK","route":"","agencyTimeZoneOffset":-14400000,"interlineWithPreviousLeg":false,"from":{"name":"Origin","lon":-71.056133,"lat":48.417935,"departure":1522701088000,"orig":"","vertexType":"NORMAL"},"to":{"name":"Polyclinique du Saguenay (boul. Université)","stopId":"1:79","stopCode":"79","lon":-71.053795,"lat":48.414956,"arrival":1522701394000,"departure":1522701395000,"zoneId":"NA","stopIndex":1,"stopSequence":2,"vertexType":"TRANSIT"},"legGeometry":{"points":"gsofHjcupLz@u@zDcDROPb@lBcBVQnCcC^U","length":9},"rentedBike":false,"transitLeg":false,"duration":306.0,"steps":[{"distance":388.938,"relativeDirection":"DEPART","streetName":"Boulevard de l'Université","absoluteDirection":"SOUTHEAST","stayOn":false,"area":false,"bogusName":false,"lon":-71.0560501072741,"lat":48.41796678066559,"elevation":[]}]},{"startTime":1522701395000,"endTime":1522701660000,"departureDelay":0,"arrivalDelay":0,"realTime":false,"distance":2408.5678215252565,"pathway":false,"mode":"BUS","route":"5","agencyName":"Société de Transport du Saguenay","agencyUrl":"http://ville.saguenay.ca/fr/services-aux-citoyens/transport-sts","agencyTimeZoneOffset":-14400000,"routeColor":"FF0000","routeType":3,"routeId":"1:5","routeTextColor":"FFFFFF","interlineWithPreviousLeg":false,"tripBlockId":"25","headsign":"Terminus La Baie","agencyId":"0","tripId":"1:217947","serviceDate":"20180402","from":{"name":"Polyclinique du Saguenay (boul. Université)","stopId":"1:79","stopCode":"79","lon":-71.053795,"lat":48.414956,"arrival":1522701394000,"departure":1522701395000,"zoneId":"NA","stopIndex":1,"stopSequence":2,"vertexType":"TRANSIT"},"to":{"name":"boul. St-Jean-Baptiste / boul. Université","stopId":"1:196","stopCode":"196","lon":-71.024224,"lat":48.412686,"arrival":1522701660000,"departure":1522701661000,"zoneId":"NA","stopIndex":4,"stopSequence":5,"vertexType":"TRANSIT"},"legGeometry":{"points":"s`ofHtttpLHI\\Q^Mb@I~CIJCJAXKXMXQRQPQT[\\s@^aAn@mBnCgItD{Kv@iHB_@FyAFsA@q@CeBKkDc@cIsFa{@QoBe@cHc@aEeC_Oa@iDk@iIMWxAo@\\U","length":37},"routeShortName":"5","routeLongName":"Term. Chic/Term. Baie via St-J.Batiste","rentedBike":false,"transitLeg":true,"duration":265.0,"steps":[]},{"startTime":1522701661000,"endTime":1522702546000,"departureDelay":0,"arrivalDelay":0,"realTime":false,"distance":1141.918,"pathway":false,"mode":"WALK","route":"","agencyTimeZoneOffset":-14400000,"interlineWithPreviousLeg":false,"from":{"name":"boul. St-Jean-Baptiste / boul. Université","stopId":"1:196","stopCode":"196","lon":-71.024224,"lat":48.412686,"arrival":1522701660000,"departure":1522701661000,"zoneId":"NA","stopIndex":4,"stopSequence":5,"vertexType":"TRANSIT"},"to":{"name":"Destination","lon":-71.034571,"lat":48.414354,"arrival":1522702546000,"orig":"","vertexType":"NORMAL"},"legGeometry":{"points":"qrnfHj{npLgBdAj@tKxB|MHl@TrAf@xEB\\L`CDh@@^ZvEHpAQFG[QJc@PIDSDM?QHQAIFOBSFMt@]fB]hAiAvBQ^K@QQMEW@A]Ae@I[]eA","length":38},"alerts":[{"alertHeaderText":"Unpaved surface"}],"rentedBike":false,"transitLeg":false,"duration":885.0,"steps":[{"distance":63.238,"relativeDirection":"DEPART","streetName":"Boulevard Saint-Jean-Baptiste","absoluteDirection":"NORTHWEST","stayOn":false,"area":false,"bogusName":false,"lon":-71.02405587242363,"lat":48.41273627415948,"elevation":[]},{"distance":674.7560000000001,"relativeDirection":"LEFT","streetName":"Boulevard de l'Université","absoluteDirection":"WEST","stayOn":false,"area":false,"bogusName":false,"lon":-71.0244078,"lat":48.413254800000004,"elevation":[]},{"distance":336.47,"relativeDirection":"RIGHT","streetName":"path","absoluteDirection":"NORTH","stayOn":false,"area":false,"bogusName":true,"lon":-71.0332252,"lat":48.411744500000005,"elevation":[],"alerts":[{"alertHeaderText":"Unpaved surface"}]},{"distance":11.501,"relativeDirection":"RIGHT","streetName":"Rue Pierre-Bédard","absoluteDirection":"EAST","stayOn":false,"area":false,"bogusName":false,"lon":-71.03529920000001,"lat":48.4139415,"elevation":[]},{"distance":14.324,"relativeDirection":"CONTINUE","streetName":"Rue de l'Acadie","absoluteDirection":"EAST","stayOn":false,"area":false,"bogusName":false,"lon":-71.03514390000001,"lat":48.4139501,"elevation":[]},{"distance":41.629,"relativeDirection":"SLIGHTLY_LEFT","streetName":"Rue Blanchard","absoluteDirection":"NORTHEAST","stayOn":false,"area":false,"bogusName":false,"lon":-71.0349518,"lat":48.4139685,"elevation":[]}]}],"tooSloped":false},{"duration":1638,"startTime":1522701000000,"endTime":1522702638000,"walkTime":1638,"transitTime":0,"waitingTime":0,"walkDistance":2093.9938796895076,"walkLimitExceeded":false,"elevationLost":0.0,"elevationGained":0.0,"transfers":0,"legs":[{"startTime":1522701000000,"endTime":1522702638000,"departureDelay":0,"arrivalDelay":0,"realTime":false,"distance":2093.6920000000005,"pathway":false,"mode":"WALK","route":"","agencyTimeZoneOffset":-14400000,"interlineWithPreviousLeg":false,"from":{"name":"Origin","lon":-71.056133,"lat":48.417935,"departure":1522701000000,"orig":"","vertexType":"NORMAL"},"to":{"name":"Destination","lon":-71.034571,"lat":48.414354,"arrival":1522702638000,"orig":"","vertexType":"NORMAL"},"legGeometry":{"points":"gsofHjcupLz@u@zDcDROFG|BsBAAGM_@sAwAiF?UIe@W_BUk@kCmCpCiIlAsDvAuDNa@Nc@HW^aA|A{EbAyCZoARsA@ILsA@i@OgBg@qBm@s@IKqAoAb@uB@a@Ge@Wo@}@aArAcDl@}@dAyAK[mAuC|AwBFSRYxBiDLm@Cq@A]Ae@I[]eA","length":54},"rentedBike":false,"transitLeg":false,"duration":1638.0,"steps":[{"distance":259.52,"relativeDirection":"DEPART","streetName":"Boulevard de l'Université","absoluteDirection":"SOUTHEAST","stayOn":false,"area":false,"bogusName":false,"lon":-71.0560501072741,"lat":48.41796678066559,"elevation":[]},{"distance":143.079,"relativeDirection":"LEFT","streetName":"path","absoluteDirection":"NORTHEAST","stayOn":false,"area":false,"bogusName":true,"lon":-71.0542688,"lat":48.4159547,"elevation":[]},{"distance":175.666,"relativeDirection":"CONTINUE","streetName":"Rue des Étudiants","absoluteDirection":"EAST","stayOn":false,"area":false,"bogusName":false,"lon":-71.05259620000001,"lat":48.416600700000004,"elevation":[]},{"distance":843.9450000000002,"relativeDirection":"RIGHT","streetName":"Rue Chabanel","absoluteDirection":"SOUTHEAST","stayOn":false,"area":false,"bogusName":false,"lon":-71.0508843,"lat":48.4175886,"elevation":[]},{"distance":139.21699999999998,"relativeDirection":"RIGHT","streetName":"Rue D'Argenson","absoluteDirection":"SOUTHEAST","stayOn":false,"area":false,"bogusName":false,"lon":-71.0414409,"lat":48.415486900000005,"elevation":[]},{"distance":161.276,"relativeDirection":"RIGHT","streetName":"Rue Beauchamp","absoluteDirection":"SOUTHEAST","stayOn":false,"area":false,"bogusName":false,"lon":-71.039927,"lat":48.415761700000004,"elevation":[]},{"distance":82.604,"relativeDirection":"LEFT","streetName":"Rue du Père-Champagnat","absoluteDirection":"NORTHEAST","stayOn":false,"area":false,"bogusName":false,"lon":-71.03834690000001,"lat":48.4147696,"elevation":[]},{"distance":232.43200000000002,"relativeDirection":"RIGHT","streetName":"Rue Pierre-Bédard","absoluteDirection":"SOUTHEAST","stayOn":false,"area":false,"bogusName":false,"lon":-71.03745280000001,"lat":48.4152153,"elevation":[]},{"distance":14.324,"relativeDirection":"CONTINUE","streetName":"Rue de l'Acadie","absoluteDirection":"EAST","stayOn":false,"area":false,"bogusName":false,"lon":-71.03514390000001,"lat":48.4139501,"elevation":[]},{"distance":41.629,"relativeDirection":"SLIGHTLY_LEFT","streetName":"Rue Blanchard","absoluteDirection":"NORTHEAST","stayOn":false,"area":false,"bogusName":false,"lon":-71.0349518,"lat":48.4139685,"elevation":[]}]}],"tooSloped":false},{"duration":1427,"startTime":1522701662000,"endTime":1522703089000,"walkTime":887,"transitTime":538,"waitingTime":2,"walkDistance":1119.5274060065703,"walkLimitExceeded":false,"elevationLost":0.0,"elevationGained":0.0,"transfers":0,"legs":[{"startTime":1522701662000,"endTime":1522702079000,"departureDelay":0,"arrivalDelay":0,"realTime":false,"distance":523.682,"pathway":false,"mode":"WALK","route":"","agencyTimeZoneOffset":-14400000,"interlineWithPreviousLeg":false,"from":{"name":"Origin","lon":-71.056133,"lat":48.417935,"departure":1522701662000,"orig":"","vertexType":"NORMAL"},"to":{"name":"Terminus UQAC","stopId":"1:1670","stopCode":"1670","lon":-71.053369,"lat":48.420903,"arrival":1522702079000,"departure":1522702080000,"zoneId":"NA","stopIndex":0,"stopSequence":1,"vertexType":"TRANSIT"},"legGeometry":{"points":"gsofHjcupLuDzCMLGO_@qAS{@e@mBBiA@wBKa@U[sBkB{@y@Up@cAaA","length":15},"rentedBike":false,"transitLeg":false,"duration":417.0,"steps":[{"distance":126.19,"relativeDirection":"DEPART","streetName":"Boulevard de l'Université","absoluteDirection":"NORTHWEST","stayOn":false,"area":false,"bogusName":false,"lon":-71.0560501072741,"lat":48.41796678066559,"elevation":[]},{"distance":112.815,"relativeDirection":"RIGHT","streetName":"Rue Newton","absoluteDirection":"NORTHEAST","stayOn":false,"area":false,"bogusName":false,"lon":-71.0569061,"lat":48.4189492,"elevation":[]},{"distance":27.625,"relativeDirection":"SLIGHTLY_RIGHT","streetName":"Rue Newton","absoluteDirection":"EAST","stayOn":true,"area":false,"bogusName":false,"lon":-71.05556510000001,"lat":48.4194344,"elevation":[]},{"distance":189.615,"relativeDirection":"CONTINUE","streetName":"Chemin Saint Thomas","absoluteDirection":"EAST","stayOn":false,"area":false,"bogusName":false,"lon":-71.0551914,"lat":48.4194198,"elevation":[]},{"distance":67.437,"relativeDirection":"LEFT","streetName":"service road","absoluteDirection":"NORTHWEST","stayOn":false,"area":false,"bogusName":true,"lon":-71.05345460000001,"lat":48.4204518,"elevation":[]}]},{"startTime":1522702080000,"endTime":1522702618000,"departureDelay":0,"arrivalDelay":0,"realTime":false,"distance":1614.4541481282151,"pathway":false,"mode":"BUS","route":"10","agencyName":"Société de Transport du Saguenay","agencyUrl":"http://ville.saguenay.ca/fr/services-aux-citoyens/transport-sts","agencyTimeZoneOffset":-14400000,"routeColor":"0000FF","routeType":3,"routeId":"1:10","routeTextColor":"FFFFFF","interlineWithPreviousLeg":false,"tripBlockId":"28","headsign":"Terminus Chicoutimi","agencyId":"0","tripId":"1:218046","serviceDate":"20180402","from":{"name":"Terminus UQAC","stopId":"1:1670","stopCode":"1670","lon":-71.053369,"lat":48.420903,"arrival":1522702079000,"departure":1522702080000,"zoneId":"NA","stopIndex":0,"stopSequence":1,"vertexType":"TRANSIT"},"to":{"name":"nouveau","stopId":"1:2292","stopCode":"2292","lon":-71.039883,"lat":48.416961,"arrival":1522702618000,"departure":1522702619000,"zoneId":"NA","stopIndex":5,"stopSequence":6,"vertexType":"TRANSIT"},"legGeometry":{"points":"sepfHtrtpLbA`ATs@hEnDRlGbBbHtMcLsBsDkBcBkD}CvDkK`IuU`WjXhCsHqJ_K{BaCsB{B}AeCu@oAXu@hAoDP_BP{AQmCg@mB_BiBeBaBqFeF","length":28},"routeShortName":"10","routeLongName":"Notre-Dame du Saguenay","rentedBike":false,"transitLeg":true,"duration":538.0,"steps":[]},{"startTime":1522702619000,"endTime":1522703089000,"departureDelay":0,"arrivalDelay":0,"realTime":false,"distance":595.5829999999999,"pathway":false,"mode":"WALK","route":"","agencyTimeZoneOffset":-14400000,"interlineWithPreviousLeg":false,"from":{"name":"nouveau","stopId":"1:2292","stopCode":"2292","lon":-71.039883,"lat":48.416961,"arrival":1522702618000,"departure":1522702619000,"zoneId":"NA","stopIndex":5,"stopSequence":6,"vertexType":"TRANSIT"},"to":{"name":"Destination","lon":-71.034571,"lat":48.414354,"arrival":1522703089000,"orig":"","vertexType":"NORMAL"},"legGeometry":{"points":"gmofHz~qpLDD??l@v@vAoD^gAf@cBP_@pBgDLQ|AwBFSRYxBiDLm@Cq@A]Ae@I[]eA","length":20},"rentedBike":false,"transitLeg":false,"duration":470.0,"steps":[{"distance":36.558,"relativeDirection":"DEPART","streetName":"Rue Chabanel","absoluteDirection":"SOUTHWEST","stayOn":false,"area":false,"bogusName":false,"lon":-71.03997825155321,"lat":48.41700160612007,"elevation":[]},{"distance":503.07199999999995,"relativeDirection":"LEFT","streetName":"Rue Pierre-Bédard","absoluteDirection":"SOUTHEAST","stayOn":false,"area":false,"bogusName":false,"lon":-71.04028360000001,"lat":48.4167429,"elevation":[]},{"distance":14.324,"relativeDirection":"CONTINUE","streetName":"Rue de l'Acadie","absoluteDirection":"EAST","stayOn":false,"area":false,"bogusName":false,"lon":-71.03514390000001,"lat":48.4139501,"elevation":[]},{"distance":41.629,"relativeDirection":"SLIGHTLY_LEFT","streetName":"Rue Blanchard","absoluteDirection":"NORTHEAST","stayOn":false,"area":false,"bogusName":false,"lon":-71.0349518,"lat":48.4139685,"elevation":[]}]}],"tooSloped":false}]},"debugOutput":{"precalculationTime":30,"pathCalculationTime":43,"pathTimes":[21,11,11],"renderingTime":0,"totalTime":73,"timedOut":false},"elevationMetadata":{"ellipsoidToGeoidDifference":-28.885904201182168,"geoidElevation":false}}