{"requestParameters":{"date":"2018/04/02","walkSpeed":"1.33","walkReluctance":"2.0","fromPlace":"48.418436,-71.035021","maxWalkDistance":"3000","waitReluctance":"1.0","carSpeed":"33","numItineraries":"3","waitAtBeginningFactor":"0.4","mode":"TRANSIT,WALK","ignoreRealtimeUpdates":"false","stairsReluctance":"2.0","toPlace":"48.398484,-71.048815","time":"15:30:00"},"plan":{"date":1522697400000,"from":{"name":"Origin","lon":-71.035021,"lat":48.418436,"orig":"","vertexType":"NORMAL"},"to":{"name":"Destination","lon":-71.048815,"lat":48.398484,"orig":"","vertexType":"NORMAL"},"itineraries":[{"duration":1938,"startTime":1522697807000,"endTime":1522699745000,"walkTime":1760,"transitTime":176,"waitingTime":2,"walkDistance":2251.9210902163322,"walkLimitExceeded":false,"elevationLost":0.0,"elevationGained":0.0,"transfers":0,"legs":[{"startTime":1522697807000,"endTime":1522699082000,"departureDelay":0,"arrivalDelay":0,"realTime":false,"distance":1627.478,"pathway":false,"mode":"WALK","route":"","agencyTimeZoneOffset":-14400000,"interlineWithPreviousLeg":false,"from":{"name":"Origin","lon":-71.035021,"lat":48.418436,"departure":1522697807000,"orig":"","vertexType":"NORMAL"},"to":{"name":"boul. Université / Murdock","stopId":"1:80","stopCode":"80","lon":-71.050111,"lat":48.411498,"arrival":1522699082000,"departure":1522699083000,"zoneId":"NA","stopIndex":14,"stopSequence":15,"vertexType":"TRANSIT"},"legGeometry":{"points":"}wofHh_qpLEf@Cd@B~@FfBBn@Iz@Sn@MR@\\HNNJPJRFG\\OhAKl@FNLLb@d@z@z@??z@z@vBxBr@p@DD??l@v@bCrBx@v@BBx@v@pAnAHJl@r@f@pBNfBAh@MrAAHSrA[nAcAxCt@hABDn@~@b@lA`ArAl@l@@Bh@j@PRdBlBdEbEnBrBVPUn@","length":57},"rentedBike":false,"transitLeg":false,"duration":1275.0,"steps":[{"distance":275.049,"relativeDirection":"DEPART","streetName":"service road","absoluteDirection":"WEST","stayOn":false,"area":false,"bogusName":false,"lon":-71.03492883479979,"lat":48.41871153992348,"elevation":[]},{"distance":803.306,"relativeDirection":"LEFT","streetName":"Rue Chabanel","absoluteDirection":"SOUTHWEST","stayOn":false,"area":false,"bogusName":false,"lon":-71.0381787,"lat":48.418758600000004,"elevation":[]},{"distance":527.521,"relativeDirection":"LEFT","streetName":"Rue Murdock","absoluteDirection":"SOUTHWEST","stayOn":false,"area":false,"bogusName":false,"lon":-71.0455232,"lat":48.4151863,"elevation":[]},{"distance":21.602,"relativeDirection":"RIGHT","streetName":"Boulevard de l'Université","absoluteDirection":"NORTHWEST","stayOn":false,"area":false,"bogusName":false,"lon":-71.0498268,"lat":48.4114298,"elevation":[]}]},{"startTime":1522699083000,"endTime":1522699259000,"departureDelay":0,"arrivalDelay":0,"realTime":false,"distance":1153.8650170036917,"pathway":false,"mode":"BUS","route":"175","agencyName":"Société de Transport du Saguenay","agencyUrl":"http://ville.saguenay.ca/fr/services-aux-citoyens/transport-sts","agencyTimeZoneOffset":-14400000,"routeColor":"FF00FF","routeType":3,"routeId":"1:175","routeTextColor":"FFFFFF","interlineWithPreviousLeg":false,"tripBlockId":"6","headsign":"Costco","agencyId":"0","tripId":"1:217303","serviceDate":"20180402","from":{"name":"boul. Université / Murdock","stopId":"1:80","stopCode":"80","lon":-71.050111,"lat":48.411498,"arrival":1522699082000,"departure":1522699083000,"zoneId":"NA","stopIndex":14,"stopSequence":15,"vertexType":"TRANSIT"},"to":{"name":"Champs-Élysées / Saguenéens","stopId":"1:84","stopCode":"84","lon":-71.05132,"lat":48.402083,"arrival":1522699259000,"departure":1522699260000,"zoneId":"NA","stopIndex":19,"stopSequence":20,"vertexType":"TRANSIT"},"legGeometry":{"points":"aknfH~}spLr@sBhCsKz@dAjB|@dM`GzCvAXrCr@~Gx@]PEr@ObACn@FrBb@|@Ch@Kx@U~HsB","length":19},"routeShortName":"175","routeLongName":"Term. Chic / Costco","rentedBike":false,"transitLeg":true,"duration":176.0,"steps":[]},{"startTime":1522699260000,"endTime":1522699745000,"departureDelay":0,"arrivalDelay":0,"realTime":false,"distance":624.1569999999999,"pathway":false,"mode":"WALK","route":"","agencyTimeZoneOffset":-14400000,"interlineWithPreviousLeg":false,"from":{"name":"Champs-Élysées / Saguenéens","stopId":"1:84","stopCode":"84","lon":-71.05132,"lat":48.402083,"arrival":1522699259000,"departure":1522699260000,"zoneId":"NA","stopIndex":19,"stopSequence":20,"vertexType":"TRANSIT"},"to":{"name":"Destination","lon":-71.048815,"lat":48.398484,"arrival":1522699745000,"orig":"","vertexType":"NORMAL"},"legGeometry":{"points":"cplfHxdtpL^KTGp@U|AOf@D|@D@?r@D|AZtA|@B@RNl@n@rAsD|AeEaA{@OYCWBcB","length":20},"rentedBike":false,"transitLeg":false,"duration":485.0,"steps":[{"distance":18.192,"relativeDirection":"DEPART","streetName":"Rue des Champs-Élysées","absoluteDirection":"SOUTH","stayOn":false,"area":false,"bogusName":false,"lon":-71.05116509910528,"lat":48.402107765696,"elevation":[]},{"distance":333.49800000000005,"relativeDirection":"CONTINUE","streetName":"Rue des Engoulevents","absoluteDirection":"SOUTH","stayOn":false,"area":false,"bogusName":false,"lon":-71.0511074,"lat":48.401948700000005,"elevation":[]},{"distance":170.78300000000002,"relativeDirection":"LEFT","streetName":"Rue des Bernaches","absoluteDirection":"SOUTHEAST","stayOn":false,"area":false,"bogusName":false,"lon":-71.0517427,"lat":48.399088400000004,"elevation":[]},{"distance":101.684,"relativeDirection":"LEFT","streetName":"Rue des Geais-Bleus","absoluteDirection":"NORTHEAST","stayOn":false,"area":false,"bogusName":false,"lon":-71.04985590000001,"lat":48.3981998,"elevation":[]}]}],"tooSloped":false},{"duration":588,"startTime":1522699559000,"endTime":1522700147000,"walkTime":374,"transitTime":212,"waitingTime":2,"walkDistance":474.15617292848543,"walkLimitExceeded":false,"elevationLost":0.0,"elevationGained":0.0,"transfers":0,"legs":[{"startTime":1522699559000,"endTime":1522699743000,"departureDelay":0,"arrivalDelay":0,"realTime":false,"distance":233.285,"pathway":false,"mode":"WALK","route":"","agencyTimeZoneOffset":-14400000,"interlineWithPreviousLeg":false,"from":{"name":"Origin","lon":-71.035021,"lat":48.418436,"departure":1522699559000,"orig":"","vertexType":"NORMAL"},"to":{"name":"Chabanel (no. 616)","stopId":"1:1640","stopCode":"1640","lon":-71.037069,"lat":48.419408,"arrival":1522699743000,"departure":1522699744000,"zoneId":"NA","stopIndex":4,"stopSequence":5,"vertexType":"TRANSIT"},"legGeometry":{"points":"}wofHh_qpLEf@Cd@B~@FfBBn@Iz@Sn@MRS^IFQNEQIUW[?A","length":16},"rentedBike":false,"transitLeg":false,"duration":184.0,"steps":[{"distance":197.964,"relativeDirection":"DEPART","streetName":"service road","absoluteDirection":"WEST","stayOn":false,"area":false,"bogusName":false,"lon":-71.03492883479979,"lat":48.41871153992348,"elevation":[]},{"distance":35.321,"relativeDirection":"RIGHT","streetName":"Rue Chabanel","absoluteDirection":"NORTHEAST","stayOn":false,"area":false,"bogusName":false,"lon":-71.0373165,"lat":48.419144200000005,"elevation":[]}]},{"startTime":1522699744000,"endTime":1522699956000,"departureDelay":0,"arrivalDelay":0,"realTime":false,"distance":2954.5179281807887,"pathway":false,"mode":"BUS","route":"214S","agencyName":"Société de Transport du Saguenay","agencyUrl":"http://ville.saguenay.ca/fr/services-aux-citoyens/transport-sts","agencyTimeZoneOffset":-14400000,"routeColor":"8B0000","routeType":3,"routeId":"1:214S","routeTextColor":"FFFFFF","interlineWithPreviousLeg":false,"headsign":"Carcajous / Martres","agencyId":"0","tripId":"1:218520","serviceDate":"20180402","from":{"name":"Chabanel (no. 616)","stopId":"1:1640","stopCode":"1640","lon":-71.037069,"lat":48.419408,"arrival":1522699743000,"departure":1522699744000,"zoneId":"NA","stopIndex":4,"stopSequence":5,"vertexType":"TRANSIT"},"to":{"name":"Roitelets (no. 1724)","stopId":"1:1557","stopCode":"1557","lon":-71.047533,"lat":48.397219,"arrival":1522699956000,"departure":1522699957000,"zoneId":"NA","stopIndex":15,"stopSequence":16,"vertexType":"TRANSIT"},"legGeometry":{"points":"}{ofH`lqpLX^t@lCl@rAnBpBpCpCxAzAFD`A~@nBhBv@t@x@v@dChCh@pBLbBBp@OxA?BUrAa@~A}@lCx@lAPV\\h@`@hAdAtAl@p@BB`DlDvHvHRNvBeHLi@Zc@ZQb@IjB|@BBzDjB|FpCFDHDbAb@pAb@tGuA~VwIJCxCqA~Ae@LElB]vFBtEfB","length":53},"routeShortName":"214S","routeLongName":"Séminaire - Chicoutimi Sud","rentedBike":false,"transitLeg":true,"duration":212.0,"steps":[]},{"startTime":1522699957000,"endTime":1522700147000,"departureDelay":0,"arrivalDelay":0,"realTime":false,"distance":240.75199999999998,"pathway":false,"mode":"WALK","route":"","agencyTimeZoneOffset":-14400000,"interlineWithPreviousLeg":false,"from":{"name":"Roitelets (no. 1724)","stopId":"1:1557","stopCode":"1557","lon":-71.047533,"lat":48.397219,"arrival":1522699956000,"departure":1522699957000,"zoneId":"NA","stopIndex":15,"stopSequence":16,"vertexType":"TRANSIT"},"to":{"name":"Destination","lon":-71.048815,"lat":48.398484,"arrival":1522700147000,"orig":"","vertexType":"NORMAL"},"legGeometry":{"points":"arkfHxmspLk@rCIGoCk@w@BGbD","length":6},"rentedBike":false,"transitLeg":false,"duration":190.0,"steps":[{"distance":60.109,"relativeDirection":"DEPART","streetName":"path","absoluteDirection":"NORTHWEST","stayOn":false,"area":false,"bogusName":true,"lon":-71.04748141526647,"lat":48.397298333425155,"elevation":[]},{"distance":120.044,"relativeDirection":"RIGHT","streetName":"Rue des Mésanges","absoluteDirection":"NORTH","stayOn":false,"area":false,"bogusName":false,"lon":-71.0482289,"lat":48.397512600000006,"elevation":[]},{"distance":60.599,"relativeDirection":"LEFT","streetName":"Rue des Geais-Bleus","absoluteDirection":"WEST","stayOn":false,"area":false,"bogusName":false,"lon":-71.04798410000001,"lat":48.398569,"elevation":[]}]}],"tooSloped":false},{"duration":2173,"startTime":1522698892000,"endTime":1522701065000,"walkTime":430,"transitTime":1681,"waitingTime":62,"walkDistance":548.2063082666979,"walkLimitExceeded":false,"elevationLost":0.0,"elevationGained":0.0,"transfers":1,"legs":[{"startTime":1522698892000,"endTime":1522699075000,"departureDelay":0,"arrivalDelay":0,"realTime":false,"distance":232.123,"pathway":false,"mode":"WALK","route":"","agencyTimeZoneOffset":-14400000,"interlineWithPreviousLeg":false,"from":{"name":"Origin","lon":-71.035021,"lat":48.418436,"departure":1522698892000,"orig":"","vertexType":"NORMAL"},"to":{"name":"nouveau","stopId":"1:2294","stopCode":"2294","lon":-71.03689,"lat":48.419297,"arrival":1522699075000,"departure":1522699076000,"zoneId":"NA","stopIndex":7,"stopSequence":8,"vertexType":"TRANSIT"},"legGeometry":{"points":"}wofHh_qpLEf@Cd@B~@FfBBn@Iz@Sn@MRS^IFQNEQIUW[","length":15},"rentedBike":false,"transitLeg":false,"duration":183.0,"steps":[{"distance":197.964,"relativeDirection":"DEPART","streetName":"service road","absoluteDirection":"WEST","stayOn":false,"area":false,"bogusName":false,"lon":-71.03492883479979,"lat":48.41871153992348,"elevation":[]},{"distance":34.159,"relativeDirection":"RIGHT","streetName":"Rue Chabanel","absoluteDirection":"NORTHEAST","stayOn":false,"area":false,"bogusName":false,"lon":-71.0373165,"lat":48.419144200000005,"elevation":[]}]},{"startTime":1522699076000,"endTime":1522699800000,"departureDelay":0,"arrivalDelay":0,"realTime":false,"distance":3354.673761312412,"pathway":false,"mode":"BUS","route":"10","agencyName":"Société de Transport du Saguenay","agencyUrl":"http://ville.saguenay.ca/fr/services-aux-citoyens/transport-sts","agencyTimeZoneOffset":-14400000,"routeColor":"0000FF","routeType":3,"routeId":"1:10","routeTextColor":"FFFFFF","interlineWithPreviousLeg":false,"tripBlockId":"28","headsign":"Terminus Chicoutimi","agencyId":"0","tripId":"1:218044","serviceDate":"20180402","from":{"name":"nouveau","stopId":"1:2294","stopCode":"2294","lon":-71.03689,"lat":48.419297,"arrival":1522699075000,"departure":1522699076000,"zoneId":"NA","stopIndex":7,"stopSequence":8,"vertexType":"TRANSIT"},"to":{"name":"Terminus Chicoutimi","stopId":"1:1289","stopCode":"1289","lon":-71.066163,"lat":48.428677,"arrival":1522699800000,"departure":1522699860000,"zoneId":"NA","stopIndex":21,"stopSequence":22,"vertexType":"TRANSIT"},"legGeometry":{"points":"y{ofH`lqpLo@y@k@Io@MqC@}@k@_@[aAw@_BoCMOKcAQUu@s@AAu@[k@xGg@pFc@~EO`@KHCVDP?hAa@nEKdAi@pGAr@GXMRG^Bb@`CV~IxB~ElAhChAsBtFaEvK_BhE}AfD{BdByBh@iC]oDq@YbF_Ea@AAuEg@MDENF|GAjJDzBDdDLdHFbCo@RUFRbFG|FApAMvFa@tPOnHqBOIjDc@Q","length":66},"routeShortName":"10","routeLongName":"Notre-Dame du Saguenay","rentedBike":false,"transitLeg":true,"duration":724.0,"steps":[]},{"startTime":1522699860000,"endTime":1522700817000,"departureDelay":0,"arrivalDelay":0,"realTime":false,"distance":5311.976526090007,"pathway":false,"mode":"BUS","route":"415S","agencyName":"Société de Transport du Saguenay","agencyUrl":"http://ville.saguenay.ca/fr/services-aux-citoyens/transport-sts","agencyTimeZoneOffset":-14400000,"routeColor":"8B0000","routeType":3,"routeId":"1:415S","routeTextColor":"FFFFFF","interlineWithPreviousLeg":false,"tripBlockId":"68","headsign":"Costco","agencyId":"0","tripId":"1:218587","serviceDate":"20180402","from":{"name":"Terminus Chicoutimi","stopId":"1:1289","stopCode":"1289","lon":-71.066163,"lat":48.428677,"arrival":1522699800000,"departure":1522699860000,"zoneId":"NA","stopIndex":0,"stopSequence":1,"vertexType":"TRANSIT"},"to":{"name":"Engoulevents / Bernaches","stopId":"1:1509","stopCode":"1509","lon":-71.051416,"lat":48.399414,"arrival":1522700817000,"departure":1522700818000,"zoneId":"NA","stopIndex":21,"stopSequence":22,"vertexType":"TRANSIT"},"legGeometry":{"points":"kwqfHjbwpLF_CzDX|BXfCNF}D@YRcFJgLNuNDkCHkFVoKT}@dBnBBBpInIdG`GtFrFv@p@hCvCf@f@lJjJpLpLj@n@nAlA`BbBxD~DnBvBvBjBd@Tv@FzBD^Bt@Pd@TRLNJZXj@\\p@Rd@D~CEtBIh@@D@XFXHh@_B`CmGhC{GlBcFXm@^e@RQdA}@PAzCmCLKd@q@p@mAXw@zBcGhAmCR]nAaFl@yC?Cl@mEd@Jd@Vb@\\LNVVRZb@bA^n@Zb@n@r@lAjAfBtBZu@vCoHBGTs@XiARg@`CqGtAwDTm@V]w@qAW]gCoCqBsBiBqBeAeA","length":97},"routeShortName":"415S","routeLongName":"Term. Chic / Costco","rentedBike":false,"transitLeg":true,"duration":957.0,"steps":[]},{"startTime":1522700818000,"endTime":1522701065000,"departureDelay":0,"arrivalDelay":0,"realTime":false,"distance":315.96000000000004,"pathway":false,"mode":"WALK","route":"","agencyTimeZoneOffset":-14400000,"interlineWithPreviousLeg":false,"from":{"name":"Engoulevents / Bernaches","stopId":"1:1509","stopCode":"1509","lon":-71.051416,"lat":48.399414,"arrival":1522700817000,"departure":1522700818000,"zoneId":"NA","stopIndex":21,"stopSequence":22,"vertexType":"TRANSIT"},"to":{"name":"Destination","lon":-71.048815,"lat":48.398484,"arrival":1522701065000,"orig":"","vertexType":"NORMAL"},"legGeometry":{"points":"i_lfHlftpLRNl@n@rAsD|AeEaA{@OYCWBcB","length":9},"rentedBike":false,"transitLeg":false,"duration":247.0,"steps":[{"distance":43.493,"relativeDirection":"DEPART","streetName":"Rue des Engoulevents","absoluteDirection":"SOUTHWEST","stayOn":false,"area":false,"bogusName":false,"lon":-71.051428970226,"lat":48.39941817689361,"elevation":[]},{"distance":170.78300000000002,"relativeDirection":"LEFT","streetName":"Rue des Bernaches","absoluteDirection":"SOUTHEAST","stayOn":false,"area":false,"bogusName":false,"lon":-71.0517427,"lat":48.399088400000004,"elevation":[]},{"distance":101.684,"relativeDirection":"LEFT","streetName":"Rue des Geais-Bleus","absoluteDirection":"NORTHEAST","stayOn":false,"area":false,"bogusName":false,"lon":-71.04985590000001,"lat":48.3981998,"elevation":[]}]}],"tooSloped":false}]},"debugOutput":{"precalculationTime":34,"pathCalculationTime":40,"pathTimes":[12,18,10],"renderingTime":1,"totalTime":75,"timedOut":false},"elevationMetadata":{"ellipsoidToGeoidDifference":-28.885904201182168,"geoidElevation":false}}