{"requestParameters":{"date":"2018/04/02","walkSpeed":"1.33","walkReluctance":"2.0","fromPlace":"48.396468,-71.049077","maxWalkDistance":"3000","waitReluctance":"1.0","carSpeed":"33","numItineraries":"3","waitAtBeginningFactor":"0.4","mode":"TRANSIT,WALK","ignoreRealtimeUpdates":"false","stairsReluctance":"2.0","toPlace":"48.426433,-71.06748899","time":"12:50:00"},"plan":{"date":1522687800000,"from":{"name":"Origin","lon":-71.049077,"lat":48.396468,"orig":"","vertexType":"NORMAL"},"to":{"name":"Destination","lon":-71.06748899,"lat":48.426433,"orig":"","vertexType":"NORMAL"},"itineraries":[{"duration":1454,"startTime":1522689145000,"endTime":1522690599000,"walkTime":185,"transitTime":1267,"waitingTime":2,"walkDistance":221.93146616262356,"walkLimitExceeded":false,"elevationLost":0.0,"elevationGained":0.0,"transfers":0,"legs":[{"startTime":1522689145000,"endTime":1522689325000,"departureDelay":0,"arrivalDelay":0,"realTime":false,"distance":216.22300000000004,"pathway":false,"mode":"WALK","route":"","agencyTimeZoneOffset":-14400000,"interlineWithPreviousLeg":false,"from":{"name":"Origin","lon":-71.049077,"lat":48.396468,"departure":1522689145000,"orig":"","vertexType":"NORMAL"},"to":{"name":"Roitelets (no. 1724)","stopId":"1:1547","stopCode":"1547","lon":-71.047286,"lat":48.397165,"arrival":1522689325000,"departure":1522689326000,"zoneId":"NA","stopIndex":7,"stopSequence":8,"vertexType":"TRANSIT"},"legGeometry":{"points":"gmkfHpxspLgAkAkAmAe@_@KIj@sCF[@MLH","length":9},"rentedBike":false,"transitLeg":false,"duration":180.0,"steps":[{"distance":131.167,"relativeDirection":"DEPART","streetName":"Rue des Mésanges","absoluteDirection":"NORTHEAST","stayOn":false,"area":false,"bogusName":false,"lon":-71.04920593464671,"lat":48.39652890521271,"elevation":[]},{"distance":76.673,"relativeDirection":"RIGHT","streetName":"path","absoluteDirection":"SOUTHEAST","stayOn":false,"area":false,"bogusName":true,"lon":-71.0482289,"lat":48.397512600000006,"elevation":[]},{"distance":8.383,"relativeDirection":"RIGHT","streetName":"bike path","absoluteDirection":"SOUTHWEST","stayOn":true,"area":false,"bogusName":true,"lon":-71.0472726,"lat":48.397244400000005,"elevation":[]}]},{"startTime":1522689326000,"endTime":1522690593000,"departureDelay":0,"arrivalDelay":0,"realTime":false,"distance":6966.960105587327,"pathway":false,"mode":"BUS","route":"15","agencyName":"Société de Transport du Saguenay","agencyUrl":"http://ville.saguenay.ca/fr/services-aux-citoyens/transport-sts","agencyTimeZoneOffset":-14400000,"routeColor":"FF00FF","routeType":3,"routeId":"1:15","routeTextColor":"FFFFFF","interlineWithPreviousLeg":false,"tripBlockId":"30","headsign":"Terminus Chicoutimi","agencyId":"0","tripId":"1:218100","serviceDate":"20180402","from":{"name":"Roitelets (no. 1724)","stopId":"1:1547","stopCode":"1547","lon":-71.047286,"lat":48.397165,"arrival":1522689325000,"departure":1522689326000,"zoneId":"NA","stopIndex":7,"stopSequence":8,"vertexType":"TRANSIT"},"to":{"name":"Jacques-Cartier / Tessier","stopId":"1:62","stopCode":"62","lon":-71.067531,"lat":48.426736,"arrival":1522690593000,"departure":1522690594000,"zoneId":"NA","stopIndex":37,"stopSequence":38,"vertexType":"TRANSIT"},"legGeometry":{"points":"oqkfHpmspLqBgA_AQaBSaBG_@Bu@FG?h@fNKnDpCfBkAzDgA}@y@q@sDy@GAeGT~@~KKrKyAnL[hBUxAm@nCcAlDeCvGmA|CUr@}@~A_@\\_DvCEZcA|@UP_@d@Yl@oBdFeCxG_CfGYVQXS\\dK|HlFZbC\\p@zA\\rB@hBiArG{BNw@FiG}@iDwAECcCcBo@y@sEeGe@o@qAa@m@MoB?C@}BZwAc@oA_Bs@gDCKZ{Di@QECc@_@sAkAoBwB_EcE{A_BoAmAk@o@cCaCkIkIaJaJUUwBaCj@wCjAsCzGoG_CoHL{D_@kAqD{CQr@iAcAy@w@L{@wAuA_B_B_EpLDh@NbBVvCIxBg@`Am@l@Sb@a@rAqDqDmEkE]a@kAqAU|@WnKG|DGxDOdPKvJU|F?XQlJC~@ChA","length":118},"routeShortName":"15","routeLongName":"Term. Chic / Costco","rentedBike":false,"transitLeg":true,"duration":1267.0,"steps":[]},{"startTime":1522690594000,"endTime":1522690599000,"departureDelay":0,"arrivalDelay":0,"realTime":false,"distance":5.622,"pathway":false,"mode":"WALK","route":"","agencyTimeZoneOffset":-14400000,"interlineWithPreviousLeg":false,"from":{"name":"Jacques-Cartier / Tessier","stopId":"1:62","stopCode":"62","lon":-71.067531,"lat":48.426736,"arrival":1522690593000,"departure":1522690594000,"zoneId":"NA","stopIndex":37,"stopSequence":38,"vertexType":"TRANSIT"},"to":{"name":"Destination","lon":-71.06748899,"lat":48.426433,"arrival":1522690599000,"orig":"","vertexType":"NORMAL"},"legGeometry":{"points":"uiqfHbkwpL?M","length":2},"rentedBike":false,"transitLeg":false,"duration":5.0,"steps":[{"distance":5.622,"relativeDirection":"DEPART","streetName":"Rue Jacques-Cartier Est","absoluteDirection":"EAST","stayOn":false,"area":false,"bogusName":false,"lon":-71.0675380239516,"lat":48.42667414840684,"elevation":[]}]}],"tooSloped":false},{"duration":1980,"startTime":1522688773000,"endTime":1522690753000,"walkTime":320,"transitTime":1658,"waitingTime":2,"walkDistance":397.60896992197354,"walkLimitExceeded":false,"elevationLost":0.0,"elevationGained":0.0,"transfers":0,"legs":[{"startTime":1522688773000,"endTime":1522688953000,"departureDelay":0,"arrivalDelay":0,"realTime":false,"distance":216.22300000000004,"pathway":false,"mode":"WALK","route":"","agencyTimeZoneOffset":-14400000,"interlineWithPreviousLeg":false,"from":{"name":"Origin","lon":-71.049077,"lat":48.396468,"departure":1522688773000,"orig":"","vertexType":"NORMAL"},"to":{"name":"Roitelets (no. 1724)","stopId":"1:1547","stopCode":"1547","lon":-71.047286,"lat":48.397165,"arrival":1522688953000,"departure":1522688954000,"zoneId":"NA","stopIndex":28,"stopSequence":29,"vertexType":"TRANSIT"},"legGeometry":{"points":"gmkfHpxspLgAkAkAmAe@_@KIj@sCF[@MLH","length":9},"rentedBike":false,"transitLeg":false,"duration":180.0,"steps":[{"distance":131.167,"relativeDirection":"DEPART","streetName":"Rue des Mésanges","absoluteDirection":"NORTHEAST","stayOn":false,"area":false,"bogusName":false,"lon":-71.04920593464671,"lat":48.39652890521271,"elevation":[]},{"distance":76.673,"relativeDirection":"RIGHT","streetName":"path","absoluteDirection":"SOUTHEAST","stayOn":false,"area":false,"bogusName":true,"lon":-71.0482289,"lat":48.397512600000006,"elevation":[]},{"distance":8.383,"relativeDirection":"RIGHT","streetName":"bike path","absoluteDirection":"SOUTHWEST","stayOn":true,"area":false,"bogusName":true,"lon":-71.0472726,"lat":48.397244400000005,"elevation":[]}]},{"startTime":1522688954000,"endTime":1522689120000,"departureDelay":0,"arrivalDelay":0,"realTime":false,"distance":1885.6528058344475,"pathway":false,"mode":"BUS","route":"15","agencyName":"Société de Transport du Saguenay","agencyUrl":"http://ville.saguenay.ca/fr/services-aux-citoyens/transport-sts","agencyTimeZoneOffset":-14400000,"routeColor":"FF00FF","routeType":3,"routeId":"1:15","routeTextColor":"FFFFFF","interlineWithPreviousLeg":false,"tripBlockId":"31","headsign":"Talbot / Barrette","agencyId":"0","tripId":"1:218134","serviceDate":"20180402","from":{"name":"Roitelets (no. 1724)","stopId":"1:1547","stopCode":"1547","lon":-71.047286,"lat":48.397165,"arrival":1522688953000,"departure":1522688954000,"zoneId":"NA","stopIndex":28,"stopSequence":29,"vertexType":"TRANSIT"},"to":{"name":"Roitelets / Sapins","stopId":"1:1543","stopCode":"1543","lon":-71.069553,"lat":48.393375,"arrival":1522689120000,"departure":1522689120000,"zoneId":"NA","stopIndex":35,"stopSequence":36,"vertexType":"TRANSIT"},"legGeometry":{"points":"oqkfHjmspLrBvAfGjG@BjCzC~DxC@@zA~Cb@fCJlC?BsBre@?DWbOAn@?nEGnM@H\\hCzA~ELvAAlAi@jDo@nB","length":24},"routeShortName":"15","routeLongName":"Term. Chic / Costco","rentedBike":false,"transitLeg":true,"duration":166.0,"steps":[]},{"startTime":1522689120000,"endTime":1522690612000,"departureDelay":0,"arrivalDelay":0,"realTime":false,"distance":9375.159506444093,"pathway":false,"mode":"BUS","route":"14","agencyName":"Société de Transport du Saguenay","agencyUrl":"http://ville.saguenay.ca/fr/services-aux-citoyens/transport-sts","agencyTimeZoneOffset":-14400000,"routeColor":"C0C000","routeType":3,"routeId":"1:14","routeTextColor":"000000","interlineWithPreviousLeg":true,"tripBlockId":"31","headsign":"Terminus Chicoutimi","agencyId":"0","tripId":"1:218135","serviceDate":"20180402","from":{"name":"Roitelets / Sapins","stopId":"1:1513","stopCode":"1513","lon":-71.069396,"lat":48.393523,"arrival":1522689120000,"departure":1522689120000,"zoneId":"NA","stopIndex":0,"stopSequence":1,"vertexType":"TRANSIT"},"to":{"name":"Jacques-Cartier / Morin","stopId":"1:1930","stopCode":"1930","lon":-71.065007,"lat":48.426603,"arrival":1522690612000,"departure":1522690613000,"zoneId":"NA","stopIndex":36,"stopSequence":37,"vertexType":"TRANSIT"},"legGeometry":{"points":"azjfHfwwpLiEfLuBzFsAnDgGzSWfAcD`Mi@dCgChLmCzMwGd\\aDxOdFtFhCtCdDY|F_On@aB`B_GNoBvAyT|@sNuAyAuF}F}AaB_BkAC@qC\\gAWiBwBiKgMiCwEgEyHCGy@uB}@rAa@nAc@lFEf@mGvUYfAqCs@ICMCqFmDc@s@mAkBuEoESUgAhDiAfD}@zDyAcA_@Um@U{AWgB_Au@s@EEsBkCqFgF{IiI][aBhE}@}@oBmBwE{EwE{Ej@mBZeAa@SyEQg@CPcALuCx@{b@t@{[XoDd@sBl@iB~@gA`G{F{A{D_@sBFqDOq@iG{FGIoCkCgBgBsDpLHzBBT`@~COnBQf@gAjAg@bBuDmDmFgFa@_@w@s@CfAOrBEtAGbA?jBQtC?|@ExKMdIG~EUnL","length":112},"routeShortName":"14","routeLongName":"Coopérative","rentedBike":false,"transitLeg":true,"duration":1492.0,"steps":[]},{"startTime":1522690613000,"endTime":1522690753000,"departureDelay":0,"arrivalDelay":0,"realTime":false,"distance":181.298,"pathway":false,"mode":"WALK","route":"","agencyTimeZoneOffset":-14400000,"interlineWithPreviousLeg":false,"from":{"name":"Jacques-Cartier / Morin","stopId":"1:1930","stopCode":"1930","lon":-71.065007,"lat":48.426603,"arrival":1522690612000,"departure":1522690613000,"zoneId":"NA","stopIndex":36,"stopSequence":37,"vertexType":"TRANSIT"},"to":{"name":"Destination","lon":-71.06748899,"lat":48.426433,"arrival":1522690753000,"orig":"","vertexType":"NORMAL"},"legGeometry":{"points":"{hqfHj{vpLEvCKdEC`AChA","length":5},"rentedBike":false,"transitLeg":false,"duration":140.0,"steps":[{"distance":181.298,"relativeDirection":"DEPART","streetName":"Rue Jacques-Cartier Est","absoluteDirection":"WEST","stayOn":false,"area":false,"bogusName":false,"lon":-71.06501225432459,"lat":48.42654615659386,"elevation":[]}]}],"tooSloped":false},{"duration":1454,"startTime":1522690945000,"endTime":1522692399000,"walkTime":185,"transitTime":1267,"waitingTime":2,"walkDistance":221.93146616262356,"walkLimitExceeded":false,"elevationLost":0.0,"elevationGained":0.0,"transfers":0,"legs":[{"startTime":1522690945000,"endTime":1522691125000,"departureDelay":0,"arrivalDelay":0,"realTime":false,"distance":216.22300000000004,"pathway":false,"mode":"WALK","route":"","agencyTimeZoneOffset":-14400000,"interlineWithPreviousLeg":false,"from":{"name":"Origin","lon":-71.049077,"lat":48.396468,"departure":1522690945000,"orig":"","vertexType":"NORMAL"},"to":{"name":"Roitelets (no. 1724)","stopId":"1:1547","stopCode":"1547","lon":-71.047286,"lat":48.397165,"arrival":1522691125000,"departure":1522691126000,"zoneId":"NA","stopIndex":7,"stopSequence":8,"vertexType":"TRANSIT"},"legGeometry":{"points":"gmkfHpxspLgAkAkAmAe@_@KIj@sCF[@MLH","length":9},"rentedBike":false,"transitLeg":false,"duration":180.0,"steps":[{"distance":131.167,"relativeDirection":"DEPART","streetName":"Rue des Mésanges","absoluteDirection":"NORTHEAST","stayOn":false,"area":false,"bogusName":false,"lon":-71.04920593464671,"lat":48.39652890521271,"elevation":[]},{"distance":76.673,"relativeDirection":"RIGHT","streetName":"path","absoluteDirection":"SOUTHEAST","stayOn":false,"area":false,"bogusName":true,"lon":-71.0482289,"lat":48.397512600000006,"elevation":[]},{"distance":8.383,"relativeDirection":"RIGHT","streetName":"bike path","absoluteDirection":"SOUTHWEST","stayOn":true,"area":false,"bogusName":true,"lon":-71.0472726,"lat":48.397244400000005,"elevation":[]}]},{"startTime":1522691126000,"endTime":1522692393000,"departureDelay":0,"arrivalDelay":0,"realTime":false,"distance":6966.960105587327,"pathway":false,"mode":"BUS","route":"15","agencyName":"Société de Transport du Saguenay","agencyUrl":"http://ville.saguenay.ca/fr/services-aux-citoyens/transport-sts","agencyTimeZoneOffset":-14400000,"routeColor":"FF00FF","routeType":3,"routeId":"1:15","routeTextColor":"FFFFFF","interlineWithPreviousLeg":false,"tripBlockId":"32","headsign":"Terminus Chicoutimi","agencyId":"0","tripId":"1:218161","serviceDate":"20180402","from":{"name":"Roitelets (no. 1724)","stopId":"1:1547","stopCode":"1547","lon":-71.047286,"lat":48.397165,"arrival":1522691125000,"departure":1522691126000,"zoneId":"NA","stopIndex":7,"stopSequence":8,"vertexType":"TRANSIT"},"to":{"name":"Jacques-Cartier / Tessier","stopId":"1:62","stopCode":"62","lon":-71.067531,"lat":48.426736,"arrival":1522692393000,"departure":1522692394000,"zoneId":"NA","stopIndex":37,"stopSequence":38,"vertexType":"TRANSIT"},"legGeometry":{"points":"oqkfHpmspLqBgA_AQaBSaBG_@Bu@FG?h@fNKnDpCfBkAzDgA}@y@q@sDy@GAeGT~@~KKrKyAnL[hBUxAm@nCcAlDeCvGmA|CUr@}@~A_@\\_DvCEZcA|@UP_@d@Yl@oBdFeCxG_CfGYVQXS\\dK|HlFZbC\\p@zA\\rB@hBiArG{BNw@FiG}@iDwAECcCcBo@y@sEeGe@o@qAa@m@MoB?C@}BZwAc@oA_Bs@gDCKZ{Di@QECc@_@sAkAoBwB_EcE{A_BoAmAk@o@cCaCkIkIaJaJUUwBaCj@wCjAsCzGoG_CoHL{D_@kAqD{CQr@iAcAy@w@L{@wAuA_B_B_EpLDh@NbBVvCIxBg@`Am@l@Sb@a@rAqDqDmEkE]a@kAqAU|@WnKG|DGxDOdPKvJU|F?XQlJC~@ChA","length":118},"routeShortName":"15","routeLongName":"Term. Chic / Costco","rentedBike":false,"transitLeg":true,"duration":1267.0,"steps":[]},{"startTime":1522692394000,"endTime":1522692399000,"departureDelay":0,"arrivalDelay":0,"realTime":false,"distance":5.622,"pathway":false,"mode":"WALK","route":"","agencyTimeZoneOffset":-14400000,"interlineWithPreviousLeg":false,"from":{"name":"Jacques-Cartier / Tessier","stopId":"1:62","stopCode":"62","lon":-71.067531,"lat":48.426736,"arrival":1522692393000,"departure":1522692394000,"zoneId":"NA","stopIndex":37,"stopSequence":38,"vertexType":"TRANSIT"},"to":{"name":"Destination","lon":-71.06748899,"lat":48.426433,"arrival":1522692399000,"orig":"","vertexType":"NORMAL"},"legGeometry":{"points":"uiqfHbkwpL?M","length":2},"rentedBike":false,"transitLeg":false,"duration":5.0,"steps":[{"distance":5.622,"relativeDirection":"DEPART","streetName":"Rue Jacques-Cartier Est","absoluteDirection":"EAST","stayOn":false,"area":false,"bogusName":false,"lon":-71.0675380239516,"lat":48.42667414840684,"elevation":[]}]}],"tooSloped":false}]},"debugOutput":{"precalculationTime":30,"pathCalculationTime":28,"pathTimes":[16,6,6],"renderingTime":0,"totalTime":58,"timedOut":false},"elevationMetadata":{"ellipsoidToGeoidDifference":-28.885904201182168,"geoidElevation":false}}