{"requestParameters":{"date":"2018/04/02","walkSpeed":"1.33","walkReluctance":"2.0","fromPlace":"48.405991,-71.058711","maxWalkDistance":"3000","waitReluctance":"1.0","carSpeed":"33","numItineraries":"3","waitAtBeginningFactor":"0.4","mode":"TRANSIT,WALK","ignoreRealtimeUpdates":"false","stairsReluctance":"2.0","toPlace":"48.409336,-71.046995","time":"13:40:00"},"plan":{"date":1522690800000,"from":{"name":"Origin","lon":-71.058711,"lat":48.405991,"orig":"","vertexType":"NORMAL"},"to":{"name":"Destination","lon":-71.046995,"lat":48.409336,"orig":"","vertexType":"NORMAL"},"itineraries":[{"duration":592,"startTime":1522690996000,"endTime":1522691588000,"walkTime":466,"transitTime":124,"waitingTime":2,"walkDistance":587.3552781902847,"walkLimitExceeded":false,"elevationLost":0.0,"elevationGained":0.0,"transfers":0,"legs":[{"startTime":1522690996000,"endTime":1522691298000,"departureDelay":0,"arrivalDelay":0,"realTime":false,"distance":383.134,"pathway":false,"mode":"WALK","route":"","agencyTimeZoneOffset":-14400000,"interlineWithPreviousLeg":false,"from":{"name":"Origin","lon":-71.058711,"lat":48.405991,"departure":1522690996000,"orig":"","vertexType":"NORMAL"},"to":{"name":"Place du Saguenay (Champs-Élysées)","stopId":"1:571","stopCode":"571","lon":-71.055824,"lat":48.408307,"arrival":1522691298000,"departure":1522691299000,"zoneId":"NA","stopIndex":12,"stopSequence":13,"vertexType":"TRANSIT"},"legGeometry":{"points":"igmfHbqupLy@s@EH]B_@Ws@o@Ms@i@i@kAoA]UCAi@[gAe@u@a@]]\\}@","length":16},"rentedBike":false,"transitLeg":false,"duration":302.0,"steps":[{"distance":354.603,"relativeDirection":"DEPART","streetName":"parking aisle","absoluteDirection":"NORTHEAST","stayOn":false,"area":false,"bogusName":false,"lon":-71.05825112020366,"lat":48.40581355272311,"elevation":[]},{"distance":28.531,"relativeDirection":"RIGHT","streetName":"Rue des Champs-Élysées","absoluteDirection":"SOUTHEAST","stayOn":false,"area":false,"bogusName":false,"lon":-71.0560683,"lat":48.4085206,"elevation":[]}]},{"startTime":1522691299000,"endTime":1522691423000,"departureDelay":0,"arrivalDelay":0,"realTime":false,"distance":815.2458266885396,"pathway":false,"mode":"BUS","route":"12","agencyName":"Société de Transport du Saguenay","agencyUrl":"http://ville.saguenay.ca/fr/services-aux-citoyens/transport-sts","agencyTimeZoneOffset":-14400000,"routeColor":"556B2F","routeType":3,"routeId":"1:12","routeTextColor":"FFFFFF","interlineWithPreviousLeg":false,"tripBlockId":"29","headsign":"Terminus Chicoutimi","agencyId":"0","tripId":"1:218066","serviceDate":"20180402","from":{"name":"Place du Saguenay (Champs-Élysées)","stopId":"1:571","stopCode":"571","lon":-71.055824,"lat":48.408307,"arrival":1522691298000,"departure":1522691299000,"zoneId":"NA","stopIndex":12,"stopSequence":13,"vertexType":"TRANSIT"},"to":{"name":"Sûreté du Québec (Roitelets / Lorenzo-Genest)","stopId":"1:195","stopCode":"195","lon":-71.048189,"lat":48.4095,"arrival":1522691423000,"departure":1522691424000,"zoneId":"NA","stopIndex":16,"stopSequence":17,"vertexType":"TRANSIT"},"legGeometry":{"points":"{vmfH|aupLxFoNlCyGa@yFYkD}CyA}KmF","length":7},"routeShortName":"12","routeLongName":"Rivière du Moulin","rentedBike":false,"transitLeg":true,"duration":124.0,"steps":[]},{"startTime":1522691424000,"endTime":1522691588000,"departureDelay":0,"arrivalDelay":0,"realTime":false,"distance":204.06,"pathway":false,"mode":"WALK","route":"","agencyTimeZoneOffset":-14400000,"interlineWithPreviousLeg":false,"from":{"name":"Sûreté du Québec (Roitelets / Lorenzo-Genest)","stopId":"1:195","stopCode":"195","lon":-71.048189,"lat":48.4095,"arrival":1522691423000,"departure":1522691424000,"zoneId":"NA","stopIndex":16,"stopSequence":17,"vertexType":"TRANSIT"},"to":{"name":"Destination","lon":-71.046995,"lat":48.409336,"arrival":1522691588000,"orig":"","vertexType":"NORMAL"},"legGeometry":{"points":"o~mfHtrspLFBpAp@t@eEqAi@Ci@?W","length":7},"rentedBike":false,"transitLeg":false,"duration":164.0,"steps":[{"distance":53.338,"relativeDirection":"DEPART","streetName":"Rue Des Roitelets","absoluteDirection":"SOUTH","stayOn":false,"area":false,"bogusName":false,"lon":-71.04826942089277,"lat":48.40952065789795,"elevation":[]},{"distance":78.536,"relativeDirection":"LEFT","streetName":"Rue Gaudiose-Brassard","absoluteDirection":"EAST","stayOn":false,"area":false,"bogusName":false,"lon":-71.0485302,"lat":48.4090733,"elevation":[]},{"distance":72.186,"relativeDirection":"LEFT","streetName":"Rue Joseph-Dandurand","absoluteDirection":"NORTH","stayOn":false,"area":false,"bogusName":false,"lon":-71.0475432,"lat":48.408809500000004,"elevation":[]}]}],"tooSloped":false},{"duration":971,"startTime":1522690800000,"endTime":1522691771000,"walkTime":971,"transitTime":0,"waitingTime":0,"walkDistance":1218.6314887106564,"walkLimitExceeded":false,"elevationLost":0.0,"elevationGained":0.0,"transfers":0,"legs":[{"startTime":1522690800000,"endTime":1522691771000,"departureDelay":0,"arrivalDelay":0,"realTime":false,"distance":1218.2859999999998,"pathway":false,"mode":"WALK","route":"","agencyTimeZoneOffset":-14400000,"interlineWithPreviousLeg":false,"from":{"name":"Origin","lon":-71.058711,"lat":48.405991,"departure":1522690800000,"orig":"","vertexType":"NORMAL"},"to":{"name":"Destination","lon":-71.046995,"lat":48.409336,"arrival":1522691771000,"orig":"","vertexType":"NORMAL"},"legGeometry":{"points":"igmfHbqupLy@s@FO\\eAJ]HWH[}DqDl@}B|@gCb@q@S_FJ@V?Z@o@kCs@{CES{@qEGo@AGAKEU?iAGUMYW]mB}@AAm@WqG}Ct@eEqAi@Ci@?W","length":35},"rentedBike":false,"transitLeg":false,"duration":971.0,"steps":[{"distance":99.49199999999999,"relativeDirection":"DEPART","streetName":"parking aisle","absoluteDirection":"NORTHEAST","stayOn":false,"area":false,"bogusName":false,"lon":-71.05825112020366,"lat":48.40581355272311,"elevation":[]},{"distance":11.753,"relativeDirection":"CONTINUE","streetName":"service road","absoluteDirection":"SOUTHEAST","stayOn":false,"area":false,"bogusName":true,"lon":-71.05729810000001,"lat":48.4058038,"elevation":[]},{"distance":124.52,"relativeDirection":"LEFT","streetName":"Boulevard Talbot","absoluteDirection":"NORTHEAST","stayOn":false,"area":false,"bogusName":false,"lon":-71.0571583,"lat":48.4057532,"elevation":[]},{"distance":141.093,"relativeDirection":"RIGHT","streetName":"service road","absoluteDirection":"SOUTHEAST","stayOn":false,"area":false,"bogusName":true,"lon":-71.0562666,"lat":48.4067038,"elevation":[]},{"distance":83.48,"relativeDirection":"LEFT","streetName":"path","absoluteDirection":"EAST","stayOn":true,"area":false,"bogusName":true,"lon":-71.05470940000001,"lat":48.4059844,"elevation":[]},{"distance":165.414,"relativeDirection":"RIGHT","streetName":"service road","absoluteDirection":"SOUTH","stayOn":true,"area":false,"bogusName":true,"lon":-71.05358820000001,"lat":48.406082600000005,"elevation":[]},{"distance":146.36399999999998,"relativeDirection":"CONTINUE","streetName":"Rue Émile-Girardin","absoluteDirection":"NORTHEAST","stayOn":false,"area":false,"bogusName":false,"lon":-71.05202630000001,"lat":48.4062974,"elevation":[]},{"distance":39.358,"relativeDirection":"SLIGHTLY_LEFT","streetName":"link","absoluteDirection":"NORTHEAST","stayOn":false,"area":false,"bogusName":true,"lon":-71.0501541,"lat":48.406688800000005,"elevation":[]},{"distance":256.09000000000003,"relativeDirection":"SLIGHTLY_LEFT","streetName":"Rue Des Roitelets","absoluteDirection":"NORTH","stayOn":false,"area":false,"bogusName":false,"lon":-71.0497603,"lat":48.406919900000005,"elevation":[]},{"distance":78.536,"relativeDirection":"RIGHT","streetName":"Rue Gaudiose-Brassard","absoluteDirection":"EAST","stayOn":false,"area":false,"bogusName":false,"lon":-71.0485302,"lat":48.4090733,"elevation":[]},{"distance":72.186,"relativeDirection":"LEFT","streetName":"Rue Joseph-Dandurand","absoluteDirection":"NORTH","stayOn":false,"area":false,"bogusName":false,"lon":-71.0475432,"lat":48.408809500000004,"elevation":[]}]}],"tooSloped":false},{"duration":765,"startTime":1522691508000,"endTime":1522692273000,"walkTime":643,"transitTime":120,"waitingTime":2,"walkDistance":797.5491127724323,"walkLimitExceeded":false,"elevationLost":0.0,"elevationGained":0.0,"transfers":0,"legs":[{"startTime":1522691508000,"endTime":1522691699000,"departureDelay":0,"arrivalDelay":0,"realTime":false,"distance":227.20499999999998,"pathway":false,"mode":"WALK","route":"","agencyTimeZoneOffset":-14400000,"interlineWithPreviousLeg":false,"from":{"name":"Origin","lon":-71.058711,"lat":48.405991,"departure":1522691508000,"orig":"","vertexType":"NORMAL"},"to":{"name":"Place Royaume","stopId":"1:1801","stopCode":"1801","lon":-71.057017,"lat":48.405588,"arrival":1522691699000,"departure":1522691700000,"zoneId":"NA","stopIndex":10,"stopSequence":11,"vertexType":"TRANSIT"},"legGeometry":{"points":"igmfHbqupLy@s@FO\\eAJ]HWH[DKn@}BZXa@zA","length":11},"rentedBike":false,"transitLeg":false,"duration":191.0,"steps":[{"distance":99.49199999999999,"relativeDirection":"DEPART","streetName":"parking aisle","absoluteDirection":"NORTHEAST","stayOn":false,"area":false,"bogusName":false,"lon":-71.05825112020366,"lat":48.40581355272311,"elevation":[]},{"distance":71.053,"relativeDirection":"CONTINUE","streetName":"service road","absoluteDirection":"SOUTHEAST","stayOn":false,"area":false,"bogusName":true,"lon":-71.05729810000001,"lat":48.4058038,"elevation":[]},{"distance":56.66,"relativeDirection":"RIGHT","streetName":"parking aisle","absoluteDirection":"SOUTHWEST","stayOn":true,"area":false,"bogusName":true,"lon":-71.0564657,"lat":48.405483000000004,"elevation":[]}]},{"startTime":1522691700000,"endTime":1522691820000,"departureDelay":0,"arrivalDelay":0,"realTime":false,"distance":787.7561013906933,"pathway":false,"mode":"BUS","route":"175","agencyName":"Société de Transport du Saguenay","agencyUrl":"http://ville.saguenay.ca/fr/services-aux-citoyens/transport-sts","agencyTimeZoneOffset":-14400000,"routeColor":"FF00FF","routeType":3,"routeId":"1:175","routeTextColor":"FFFFFF","interlineWithPreviousLeg":false,"tripBlockId":"11","headsign":"Terminus Chicoutimi","agencyId":"0","tripId":"1:217476","serviceDate":"20180402","from":{"name":"Place Royaume","stopId":"1:1801","stopCode":"1801","lon":-71.057017,"lat":48.405588,"arrival":1522691699000,"departure":1522691700000,"zoneId":"NA","stopIndex":10,"stopSequence":11,"vertexType":"TRANSIT"},"to":{"name":"missingStopName","stopId":"1:1812","stopCode":"1812","lon":-71.051352,"lat":48.411592,"arrival":1522691820000,"departure":1522691821000,"zoneId":"NA","stopIndex":11,"stopSequence":12,"vertexType":"TRANSIT"},"legGeometry":{"points":"sfmfH`kupL_U_TcNgN","length":3},"routeShortName":"175","routeLongName":"Term. Chic / Costco","rentedBike":false,"transitLeg":true,"duration":120.0,"steps":[]},{"startTime":1522691821000,"endTime":1522692273000,"departureDelay":0,"arrivalDelay":0,"realTime":false,"distance":570.049,"pathway":false,"mode":"WALK","route":"","agencyTimeZoneOffset":-14400000,"interlineWithPreviousLeg":false,"from":{"name":"missingStopName","stopId":"1:1812","stopCode":"1812","lon":-71.051352,"lat":48.411592,"arrival":1522691820000,"departure":1522691821000,"zoneId":"NA","stopIndex":11,"stopSequence":12,"vertexType":"TRANSIT"},"to":{"name":"Destination","lon":-71.046995,"lat":48.409336,"arrival":1522692273000,"orig":"","vertexType":"NORMAL"},"legGeometry":{"points":"wknfHtftpLy@}@MK|AmETo@xBeHF_@`@o@XMd@KJDtCeFGm@HKb@n@JXAj@","length":17},"rentedBike":false,"transitLeg":false,"duration":452.0,"steps":[{"distance":48.556,"relativeDirection":"DEPART","streetName":"Boulevard Talbot","absoluteDirection":"NORTHEAST","stayOn":false,"area":false,"bogusName":false,"lon":-71.05146038442705,"lat":48.41164093434771,"elevation":[]},{"distance":253.808,"relativeDirection":"RIGHT","streetName":"Boulevard de l'Université","absoluteDirection":"SOUTHEAST","stayOn":false,"area":false,"bogusName":false,"lon":-71.0510904,"lat":48.412002,"elevation":[]},{"distance":62.949,"relativeDirection":"SLIGHTLY_RIGHT","streetName":"link","absoluteDirection":"SOUTHEAST","stayOn":false,"area":false,"bogusName":true,"lon":-71.04819570000001,"lat":48.410774100000005,"elevation":[]},{"distance":6.974,"relativeDirection":"SLIGHTLY_RIGHT","streetName":"Rue Des Roitelets","absoluteDirection":"SOUTH","stayOn":false,"area":false,"bogusName":false,"lon":-71.0478246,"lat":48.4102837,"elevation":[]},{"distance":136.594,"relativeDirection":"LEFT","streetName":"path","absoluteDirection":"SOUTHEAST","stayOn":false,"area":false,"bogusName":true,"lon":-71.0478587,"lat":48.410225200000006,"elevation":[]},{"distance":6.617,"relativeDirection":"RIGHT","streetName":"Rue Joseph-Durand","absoluteDirection":"SOUTHEAST","stayOn":false,"area":false,"bogusName":false,"lon":-71.0464748,"lat":48.409511900000005,"elevation":[]},{"distance":54.551,"relativeDirection":"RIGHT","streetName":"Rue Joseph-Dandurand","absoluteDirection":"SOUTHWEST","stayOn":false,"area":false,"bogusName":false,"lon":-71.04641810000001,"lat":48.4094658,"elevation":[]}]}],"tooSloped":false}]},"debugOutput":{"precalculationTime":32,"pathCalculationTime":25,"pathTimes":[17,4,4],"renderingTime":1,"totalTime":58,"timedOut":false},"elevationMetadata":{"ellipsoidToGeoidDifference":-28.885904201182168,"geoidElevation":false}}