{"requestParameters":{"date":"2018/04/02","walkSpeed":"1.33","walkReluctance":"2.0","fromPlace":"48.409336,-71.046995","maxWalkDistance":"3000","waitReluctance":"1.0","carSpeed":"33","numItineraries":"3","waitAtBeginningFactor":"0.4","mode":"TRANSIT,WALK","ignoreRealtimeUpdates":"false","stairsReluctance":"2.0","toPlace":"48.426905,-71.048929","time":"10:0:00"},"plan":{"date":1522677600000,"from":{"name":"Origin","lon":-71.046995,"lat":48.409336,"orig":"","vertexType":"NORMAL"},"to":{"name":"Destination","lon":-71.048929,"lat":48.426905,"orig":"","vertexType":"NORMAL"},"itineraries":[{"duration":1221,"startTime":1522677751000,"endTime":1522678972000,"walkTime":790,"transitTime":429,"waitingTime":2,"walkDistance":987.2409924732334,"walkLimitExceeded":false,"elevationLost":0.0,"elevationGained":0.0,"transfers":0,"legs":[{"startTime":1522677751000,"endTime":1522677935000,"departureDelay":0,"arrivalDelay":0,"realTime":false,"distance":230.883,"pathway":false,"mode":"WALK","route":"","agencyTimeZoneOffset":-14400000,"interlineWithPreviousLeg":false,"from":{"name":"Origin","lon":-71.046995,"lat":48.409336,"departure":1522677751000,"orig":"","vertexType":"NORMAL"},"to":{"name":"Sûreté du Québec (Roitelets / Lorenzo-Genest)","stopId":"1:58","stopCode":"58","lon":-71.048311,"lat":48.40979,"arrival":1522677935000,"departure":1522677936000,"zoneId":"NA","stopIndex":26,"stopSequence":27,"vertexType":"TRANSIT"},"legGeometry":{"points":"u|mfHxjspL?VBh@pAh@u@dEqAq@GCk@Y","length":8},"rentedBike":false,"transitLeg":false,"duration":184.0,"steps":[{"distance":72.186,"relativeDirection":"DEPART","streetName":"Rue Joseph-Dandurand","absoluteDirection":"WEST","stayOn":false,"area":false,"bogusName":false,"lon":-71.04700329171655,"lat":48.40923156705714,"elevation":[]},{"distance":78.536,"relativeDirection":"RIGHT","streetName":"Rue Gaudiose-Brassard","absoluteDirection":"WEST","stayOn":false,"area":false,"bogusName":false,"lon":-71.0475432,"lat":48.408809500000004,"elevation":[]},{"distance":80.161,"relativeDirection":"RIGHT","streetName":"Rue Des Roitelets","absoluteDirection":"NORTH","stayOn":false,"area":false,"bogusName":false,"lon":-71.0485302,"lat":48.4090733,"elevation":[]}]},{"startTime":1522677936000,"endTime":1522678365000,"departureDelay":0,"arrivalDelay":0,"realTime":false,"distance":3188.7981577823093,"pathway":false,"mode":"BUS","route":"12","agencyName":"Société de Transport du Saguenay","agencyUrl":"http://ville.saguenay.ca/fr/services-aux-citoyens/transport-sts","agencyTimeZoneOffset":-14400000,"routeColor":"556B2F","routeType":3,"routeId":"1:12","routeTextColor":"FFFFFF","interlineWithPreviousLeg":false,"tripBlockId":"27","headsign":"Terminus UQAC","agencyId":"0","tripId":"1:218006","serviceDate":"20180402","from":{"name":"Sûreté du Québec (Roitelets / Lorenzo-Genest)","stopId":"1:58","stopCode":"58","lon":-71.048311,"lat":48.40979,"arrival":1522677935000,"departure":1522677936000,"zoneId":"NA","stopIndex":26,"stopSequence":27,"vertexType":"TRANSIT"},"to":{"name":"Résidence de l' UQAC","stopId":"1:64","stopCode":"64","lon":-71.052396,"lat":48.421595,"arrival":1522678365000,"departure":1522678366000,"zoneId":"NA","stopIndex":38,"stopSequence":39,"vertexType":"TRANSIT"},"legGeometry":{"points":"e`nfH~rspLdRvMcAjKcP~b@iHhDaGz@uSl[uCYmIeIeJ_J{J{JwCiThFaQ","length":13},"routeShortName":"12","routeLongName":"Rivière du Moulin","rentedBike":false,"transitLeg":true,"duration":429.0,"steps":[]},{"startTime":1522678366000,"endTime":1522678972000,"departureDelay":0,"arrivalDelay":0,"realTime":false,"distance":756.1110000000001,"pathway":false,"mode":"WALK","route":"","agencyTimeZoneOffset":-14400000,"interlineWithPreviousLeg":false,"from":{"name":"Résidence de l' UQAC","stopId":"1:64","stopCode":"64","lon":-71.052396,"lat":48.421595,"arrival":1522678365000,"departure":1522678366000,"zoneId":"NA","stopIndex":38,"stopSequence":39,"vertexType":"TRANSIT"},"to":{"name":"Destination","lon":-71.048929,"lat":48.426905,"arrival":1522678972000,"orig":"","vertexType":"NORMAL"},"legGeometry":{"points":"wipfHbltpLUUMKUSc@_@SQWQoAmAc@a@[Wi@m@W_@YOKGe@[KIMGq@YCEEcA?_@kA[]GoBYc@EEx@CnACf@GNQ?iB[_@EG?K^G?qBUC?","length":37},"rentedBike":false,"transitLeg":false,"duration":606.0,"steps":[{"distance":61.068,"relativeDirection":"DEPART","streetName":"Chemin Saint Thomas","absoluteDirection":"NORTHEAST","stayOn":false,"area":false,"bogusName":false,"lon":-71.05233952226759,"lat":48.42156846359717,"elevation":[]},{"distance":263.87899999999996,"relativeDirection":"CONTINUE","streetName":"road","absoluteDirection":"NORTHEAST","stayOn":false,"area":false,"bogusName":true,"lon":-71.051902,"lat":48.4220343,"elevation":[]},{"distance":37.224000000000004,"relativeDirection":"RIGHT","streetName":"path","absoluteDirection":"EAST","stayOn":true,"area":false,"bogusName":true,"lon":-71.0501431,"lat":48.4240852,"elevation":[]},{"distance":123.78800000000001,"relativeDirection":"LEFT","streetName":"Chemin Sydenham","absoluteDirection":"NORTH","stayOn":false,"area":false,"bogusName":false,"lon":-71.0496408,"lat":48.424114100000004,"elevation":[]},{"distance":19.537,"relativeDirection":"CONTINUE","streetName":"path","absoluteDirection":"NORTH","stayOn":false,"area":false,"bogusName":true,"lon":-71.04933630000001,"lat":48.425208100000006,"elevation":[]},{"distance":66.589,"relativeDirection":"LEFT","streetName":"service road","absoluteDirection":"WEST","stayOn":true,"area":false,"bogusName":true,"lon":-71.0493017,"lat":48.4253823,"elevation":[]},{"distance":99.413,"relativeDirection":"RIGHT","streetName":"service road","absoluteDirection":"NORTH","stayOn":true,"area":false,"bogusName":true,"lon":-71.05019700000001,"lat":48.425456700000005,"elevation":[]},{"distance":13.926,"relativeDirection":"LEFT","streetName":"path","absoluteDirection":"NORTHWEST","stayOn":true,"area":false,"bogusName":true,"lon":-71.0501005,"lat":48.426314600000005,"elevation":[]},{"distance":70.68700000000001,"relativeDirection":"RIGHT","streetName":"Rue Saint-Vallier","absoluteDirection":"NORTH","stayOn":false,"area":false,"bogusName":false,"lon":-71.05026840000001,"lat":48.426371800000005,"elevation":[]}]}],"tooSloped":false},{"duration":1009,"startTime":1522678767000,"endTime":1522679776000,"walkTime":527,"transitTime":480,"waitingTime":2,"walkDistance":659.3110150309465,"walkLimitExceeded":false,"elevationLost":0.0,"elevationGained":0.0,"transfers":0,"legs":[{"startTime":1522678767000,"endTime":1522679219000,"departureDelay":0,"arrivalDelay":0,"realTime":false,"distance":570.049,"pathway":false,"mode":"WALK","route":"","agencyTimeZoneOffset":-14400000,"interlineWithPreviousLeg":false,"from":{"name":"Origin","lon":-71.046995,"lat":48.409336,"departure":1522678767000,"orig":"","vertexType":"NORMAL"},"to":{"name":"missingStopName","stopId":"1:1812","stopCode":"1812","lon":-71.051352,"lat":48.411592,"arrival":1522679219000,"departure":1522679220000,"zoneId":"NA","stopIndex":11,"stopSequence":12,"vertexType":"TRANSIT"},"legGeometry":{"points":"u|mfHxjspL@k@KYc@o@IJFl@uCdFKEe@JYLa@n@G^yBdHUn@}AlELJx@|@","length":17},"rentedBike":false,"transitLeg":false,"duration":452.0,"steps":[{"distance":54.551,"relativeDirection":"DEPART","streetName":"Rue Joseph-Dandurand","absoluteDirection":"EAST","stayOn":false,"area":false,"bogusName":false,"lon":-71.04700329171655,"lat":48.40923156705714,"elevation":[]},{"distance":6.617,"relativeDirection":"LEFT","streetName":"Rue Joseph-Durand","absoluteDirection":"NORTHWEST","stayOn":false,"area":false,"bogusName":false,"lon":-71.04641810000001,"lat":48.4094658,"elevation":[]},{"distance":136.594,"relativeDirection":"LEFT","streetName":"path","absoluteDirection":"WEST","stayOn":false,"area":false,"bogusName":true,"lon":-71.0464748,"lat":48.409511900000005,"elevation":[]},{"distance":6.974,"relativeDirection":"RIGHT","streetName":"Rue Des Roitelets","absoluteDirection":"NORTH","stayOn":false,"area":false,"bogusName":false,"lon":-71.0478587,"lat":48.410225200000006,"elevation":[]},{"distance":62.949,"relativeDirection":"SLIGHTLY_LEFT","streetName":"link","absoluteDirection":"NORTH","stayOn":false,"area":false,"bogusName":true,"lon":-71.0478246,"lat":48.4102837,"elevation":[]},{"distance":253.808,"relativeDirection":"SLIGHTLY_LEFT","streetName":"Boulevard de l'Université","absoluteDirection":"NORTHWEST","stayOn":false,"area":false,"bogusName":false,"lon":-71.04819570000001,"lat":48.410774100000005,"elevation":[]},{"distance":48.556,"relativeDirection":"LEFT","streetName":"Boulevard Talbot","absoluteDirection":"SOUTHWEST","stayOn":false,"area":false,"bogusName":false,"lon":-71.0510904,"lat":48.412002,"elevation":[]}]},{"startTime":1522679220000,"endTime":1522679700000,"departureDelay":0,"arrivalDelay":0,"realTime":false,"distance":2164.2867526876757,"pathway":false,"mode":"BUS","route":"175","agencyName":"Société de Transport du Saguenay","agencyUrl":"http://ville.saguenay.ca/fr/services-aux-citoyens/transport-sts","agencyTimeZoneOffset":-14400000,"routeColor":"FF00FF","routeType":3,"routeId":"1:175","routeTextColor":"FFFFFF","interlineWithPreviousLeg":false,"tripBlockId":"9","headsign":"Terminus Chicoutimi","agencyId":"0","tripId":"1:217399","serviceDate":"20180402","from":{"name":"missingStopName","stopId":"1:1812","stopCode":"1812","lon":-71.051352,"lat":48.411592,"arrival":1522679219000,"departure":1522679220000,"zoneId":"NA","stopIndex":11,"stopSequence":12,"vertexType":"TRANSIT"},"to":{"name":"Hôpital de Chicoutimi (Saint-Vallier)","stopId":"1:410","stopCode":"410","lon":-71.050193,"lat":48.426282,"arrival":1522679700000,"departure":1522679701000,"zoneId":"NA","stopIndex":20,"stopSequence":21,"vertexType":"TRANSIT"},"legGeometry":{"points":"wknfHxftpLcBcB{E`Jc@x@qG~@{BlAk@XgSrQqB_GAeFiEeEOt@gAeA_A_ATm@yAwAgBeBqDnL@nBF`@f@|C[dCuAfB]xAs@OmCmCmEkE]a@g@i@ZiGTmEl@oLaEe@","length":33},"routeShortName":"175","routeLongName":"Term. Chic / Costco","rentedBike":false,"transitLeg":true,"duration":480.0,"steps":[]},{"startTime":1522679701000,"endTime":1522679776000,"departureDelay":0,"arrivalDelay":0,"realTime":false,"distance":89.05600000000001,"pathway":false,"mode":"WALK","route":"","agencyTimeZoneOffset":-14400000,"interlineWithPreviousLeg":false,"from":{"name":"Hôpital de Chicoutimi (Saint-Vallier)","stopId":"1:410","stopCode":"410","lon":-71.050193,"lat":48.426282,"arrival":1522679700000,"departure":1522679701000,"zoneId":"NA","stopIndex":20,"stopSequence":21,"vertexType":"TRANSIT"},"to":{"name":"Destination","lon":-71.048929,"lat":48.426905,"arrival":1522679776000,"orig":"","vertexType":"NORMAL"},"legGeometry":{"points":"egqfHd~spLG?K^G?qBUC?","length":6},"rentedBike":false,"transitLeg":false,"duration":75.0,"steps":[{"distance":4.443,"relativeDirection":"DEPART","streetName":"service road","absoluteDirection":"NORTH","stayOn":false,"area":false,"bogusName":true,"lon":-71.05010794672428,"lat":48.426274963568915,"elevation":[]},{"distance":13.926,"relativeDirection":"LEFT","streetName":"path","absoluteDirection":"NORTHWEST","stayOn":true,"area":false,"bogusName":true,"lon":-71.0501005,"lat":48.426314600000005,"elevation":[]},{"distance":70.68700000000001,"relativeDirection":"RIGHT","streetName":"Rue Saint-Vallier","absoluteDirection":"NORTH","stayOn":false,"area":false,"bogusName":false,"lon":-71.05026840000001,"lat":48.426371800000005,"elevation":[]}]}],"tooSloped":false},{"duration":1272,"startTime":1522678504000,"endTime":1522679776000,"walkTime":662,"transitTime":608,"waitingTime":2,"walkDistance":832.0511503691589,"walkLimitExceeded":false,"elevationLost":0.0,"elevationGained":0.0,"transfers":0,"legs":[{"startTime":1522678504000,"endTime":1522679091000,"departureDelay":0,"arrivalDelay":0,"realTime":false,"distance":742.785,"pathway":false,"mode":"WALK","route":"","agencyTimeZoneOffset":-14400000,"interlineWithPreviousLeg":false,"from":{"name":"Origin","lon":-71.046995,"lat":48.409336,"departure":1522678504000,"orig":"","vertexType":"NORMAL"},"to":{"name":"Murdock / Baillargeon","stopId":"1:356","stopCode":"356","lon":-71.047188,"lat":48.413871,"arrival":1522679091000,"departure":1522679092000,"zoneId":"NA","stopIndex":1,"stopSequence":2,"vertexType":"TRANSIT"},"legGeometry":{"points":"u|mfHxjspL@k@KYc@o@IJFl@uCdFKEe@JYLa@n@G^yBdHWQoBsBeEcEeBmBQSi@k@AC","length":20},"rentedBike":false,"transitLeg":false,"duration":587.0,"steps":[{"distance":54.551,"relativeDirection":"DEPART","streetName":"Rue Joseph-Dandurand","absoluteDirection":"EAST","stayOn":false,"area":false,"bogusName":false,"lon":-71.04700329171655,"lat":48.40923156705714,"elevation":[]},{"distance":6.617,"relativeDirection":"LEFT","streetName":"Rue Joseph-Durand","absoluteDirection":"NORTHWEST","stayOn":false,"area":false,"bogusName":false,"lon":-71.04641810000001,"lat":48.4094658,"elevation":[]},{"distance":136.594,"relativeDirection":"LEFT","streetName":"path","absoluteDirection":"WEST","stayOn":false,"area":false,"bogusName":true,"lon":-71.0464748,"lat":48.409511900000005,"elevation":[]},{"distance":6.974,"relativeDirection":"RIGHT","streetName":"Rue Des Roitelets","absoluteDirection":"NORTH","stayOn":false,"area":false,"bogusName":false,"lon":-71.0478587,"lat":48.410225200000006,"elevation":[]},{"distance":62.949,"relativeDirection":"SLIGHTLY_LEFT","streetName":"link","absoluteDirection":"NORTH","stayOn":false,"area":false,"bogusName":true,"lon":-71.0478246,"lat":48.4102837,"elevation":[]},{"distance":140.908,"relativeDirection":"SLIGHTLY_LEFT","streetName":"Boulevard de l'Université","absoluteDirection":"NORTHWEST","stayOn":false,"area":false,"bogusName":false,"lon":-71.04819570000001,"lat":48.410774100000005,"elevation":[]},{"distance":334.192,"relativeDirection":"RIGHT","streetName":"Rue Murdock","absoluteDirection":"NORTHEAST","stayOn":false,"area":false,"bogusName":false,"lon":-71.0498268,"lat":48.4114298,"elevation":[]}]},{"startTime":1522679092000,"endTime":1522679700000,"departureDelay":0,"arrivalDelay":0,"realTime":false,"distance":3171.2289671915196,"pathway":false,"mode":"BUS","route":"10","agencyName":"Société de Transport du Saguenay","agencyUrl":"http://ville.saguenay.ca/fr/services-aux-citoyens/transport-sts","agencyTimeZoneOffset":-14400000,"routeColor":"0000FF","routeType":3,"routeId":"1:10","routeTextColor":"FFFFFF","interlineWithPreviousLeg":false,"tripBlockId":"27","headsign":"Terminus Chicoutimi","agencyId":"0","tripId":"1:218007","serviceDate":"20180402","from":{"name":"Murdock / Baillargeon","stopId":"1:356","stopCode":"356","lon":-71.047188,"lat":48.413871,"arrival":1522679091000,"departure":1522679092000,"zoneId":"NA","stopIndex":1,"stopSequence":2,"vertexType":"TRANSIT"},"to":{"name":"Hôpital de Chicoutimi (Saint-Vallier)","stopId":"1:410","stopCode":"410","lon":-71.050193,"lat":48.426282,"arrival":1522679700000,"departure":1522679701000,"zoneId":"NA","stopIndex":14,"stopSequence":15,"vertexType":"TRANSIT"},"legGeometry":{"points":"uynfH~kspLsB{B}AeCu@oAXu@hAoDP_BP{AQmCg@mB_BiBeBaBqFeFmCgC{A_BmBoBk@iAw@}CU[o@y@k@Io@MqC@}@k@_@[aAw@_BoCMOKcAQUu@s@AAu@[k@xGg@pFc@~EO`@KHCVDP?hAa@nEKdAi@pGAr@GXMRG^Bb@`CV~IxB~ElAhChAsBtFaEvK_BhE}AfD{BdByBh@iC]oDq@YbF_Ea@","length":63},"routeShortName":"10","routeLongName":"Notre-Dame du Saguenay","rentedBike":false,"transitLeg":true,"duration":608.0,"steps":[]},{"startTime":1522679701000,"endTime":1522679776000,"departureDelay":0,"arrivalDelay":0,"realTime":false,"distance":89.05600000000001,"pathway":false,"mode":"WALK","route":"","agencyTimeZoneOffset":-14400000,"interlineWithPreviousLeg":false,"from":{"name":"Hôpital de Chicoutimi (Saint-Vallier)","stopId":"1:410","stopCode":"410","lon":-71.050193,"lat":48.426282,"arrival":1522679700000,"departure":1522679701000,"zoneId":"NA","stopIndex":14,"stopSequence":15,"vertexType":"TRANSIT"},"to":{"name":"Destination","lon":-71.048929,"lat":48.426905,"arrival":1522679776000,"orig":"","vertexType":"NORMAL"},"legGeometry":{"points":"egqfHd~spLG?K^G?qBUC?","length":6},"rentedBike":false,"transitLeg":false,"duration":75.0,"steps":[{"distance":4.443,"relativeDirection":"DEPART","streetName":"service road","absoluteDirection":"NORTH","stayOn":false,"area":false,"bogusName":true,"lon":-71.05010794672428,"lat":48.426274963568915,"elevation":[]},{"distance":13.926,"relativeDirection":"LEFT","streetName":"path","absoluteDirection":"NORTHWEST","stayOn":true,"area":false,"bogusName":true,"lon":-71.0501005,"lat":48.426314600000005,"elevation":[]},{"distance":70.68700000000001,"relativeDirection":"RIGHT","streetName":"Rue Saint-Vallier","absoluteDirection":"NORTH","stayOn":false,"area":false,"bogusName":false,"lon":-71.05026840000001,"lat":48.426371800000005,"elevation":[]}]}],"tooSloped":false}]},"debugOutput":{"precalculationTime":30,"pathCalculationTime":30,"pathTimes":[18,6,6],"renderingTime":0,"totalTime":60,"timedOut":false},"elevationMetadata":{"ellipsoidToGeoidDifference":-28.885904201182168,"geoidElevation":false}}