{"requestParameters":{"date":"2018/04/02","walkSpeed":"1.33","walkReluctance":"2.0","fromPlace":"48.395724,-71.050595","maxWalkDistance":"3000","waitReluctance":"1.0","carSpeed":"33","numItineraries":"3","waitAtBeginningFactor":"0.4","mode":"TRANSIT,WALK","ignoreRealtimeUpdates":"false","stairsReluctance":"2.0","toPlace":"48.422638,-71.059381","time":"7:30:00"},"plan":{"date":1522668600000,"from":{"name":"Origin","lon":-71.050595,"lat":48.395724,"orig":"","vertexType":"NORMAL"},"to":{"name":"Destination","lon":-71.059381,"lat":48.422638,"orig":"","vertexType":"NORMAL"},"itineraries":[{"duration":1161,"startTime":1522669391000,"endTime":1522670552000,"walkTime":318,"transitTime":841,"waitingTime":2,"walkDistance":405.2428345853744,"walkLimitExceeded":false,"elevationLost":0.0,"elevationGained":0.0,"transfers":0,"legs":[{"startTime":1522669391000,"endTime":1522669490000,"departureDelay":0,"arrivalDelay":0,"realTime":false,"distance":122.319,"pathway":false,"mode":"WALK","route":"","agencyTimeZoneOffset":-14400000,"interlineWithPreviousLeg":false,"from":{"name":"Origin","lon":-71.050595,"lat":48.395724,"departure":1522669391000,"orig":"","vertexType":"NORMAL"},"to":{"name":"Roitelets / Chardonnerets","stopId":"1:1977","stopCode":"1977","lon":-71.049126,"lat":48.395249,"arrival":1522669490000,"departure":1522669491000,"zoneId":"NA","stopIndex":6,"stopSequence":7,"vertexType":"TRANSIT"},"legGeometry":{"points":"whkfHh_tpL^Qb@c@n@uBDODSQS","length":7},"rentedBike":false,"transitLeg":false,"duration":99.0,"steps":[{"distance":101.04700000000001,"relativeDirection":"DEPART","streetName":"Rue des Chardonnerets","absoluteDirection":"SOUTH","stayOn":false,"area":false,"bogusName":false,"lon":-71.05028922793585,"lat":48.39580283597636,"elevation":[]},{"distance":8.029,"relativeDirection":"CONTINUE","streetName":"path","absoluteDirection":"SOUTHEAST","stayOn":false,"area":false,"bogusName":true,"lon":-71.0493431,"lat":48.3951938,"elevation":[]},{"distance":13.243,"relativeDirection":"LEFT","streetName":"bike path","absoluteDirection":"NORTHEAST","stayOn":true,"area":false,"bogusName":true,"lon":-71.04924700000001,"lat":48.395160000000004,"elevation":[]}]},{"startTime":1522669491000,"endTime":1522670332000,"departureDelay":0,"arrivalDelay":0,"realTime":false,"distance":5044.616105911094,"pathway":false,"mode":"BUS","route":"15","agencyName":"Société de Transport du Saguenay","agencyUrl":"http://ville.saguenay.ca/fr/services-aux-citoyens/transport-sts","agencyTimeZoneOffset":-14400000,"routeColor":"FF00FF","routeType":3,"routeId":"1:15","routeTextColor":"FFFFFF","interlineWithPreviousLeg":false,"tripBlockId":"32","headsign":"Terminus Chicoutimi","agencyId":"0","tripId":"1:218149","serviceDate":"20180402","from":{"name":"Roitelets / Chardonnerets","stopId":"1:1977","stopCode":"1977","lon":-71.049126,"lat":48.395249,"arrival":1522669490000,"departure":1522669491000,"zoneId":"NA","stopIndex":6,"stopSequence":7,"vertexType":"TRANSIT"},"to":{"name":"Centre George Vézina (Bégin)","stopId":"1:583","stopCode":"583","lon":-71.0606,"lat":48.4201,"arrival":1522670332000,"departure":1522670333000,"zoneId":"NA","stopIndex":28,"stopSequence":29,"vertexType":"TRANSIT"},"legGeometry":{"points":"oekfHpxspLqE{EiAcAcB_AqBgA_AQaBSaBG_@Bu@FG?h@fNKnDpCfBkAzDgA}@y@q@sDy@GAeGT~@~KKrKyAnL[hBUxAm@nCcAlDeCvGmA|CUr@}@~A_@\\_DvCEZcA|@UP_@d@Yl@oBdFeCxG_CfGYVQXS\\dK|HlFZbC\\p@zA\\rB@hBiArG{BNw@FiG}@iDwAECcCcBo@y@sEeGe@o@qAa@m@MoB?C@}BZwAc@oA_Bs@gDCKZ{Di@QECc@_@sAkAoBwB_EcE{A_BoAmAk@o@cCaCkIkIaJaJ","length":82},"routeShortName":"15","routeLongName":"Term. Chic / Costco","rentedBike":false,"transitLeg":true,"duration":841.0,"steps":[]},{"startTime":1522670333000,"endTime":1522670552000,"departureDelay":0,"arrivalDelay":0,"realTime":false,"distance":282.89,"pathway":false,"mode":"WALK","route":"","agencyTimeZoneOffset":-14400000,"interlineWithPreviousLeg":false,"from":{"name":"Centre George Vézina (Bégin)","stopId":"1:583","stopCode":"583","lon":-71.0606,"lat":48.4201,"arrival":1522670332000,"departure":1522670333000,"zoneId":"NA","stopIndex":28,"stopSequence":29,"vertexType":"TRANSIT"},"to":{"name":"Destination","lon":-71.059381,"lat":48.422638,"arrival":1522670552000,"orig":"","vertexType":"NORMAL"},"legGeometry":{"points":"y`pfHf`vpLSScAeAg@i@KMYYSQ{B{BcAeAKI_@a@","length":11},"rentedBike":false,"transitLeg":false,"duration":219.0,"steps":[{"distance":282.89,"relativeDirection":"DEPART","streetName":"Rue Bégin","absoluteDirection":"NORTHEAST","stayOn":false,"area":false,"bogusName":false,"lon":-71.06067782404135,"lat":48.420134620151806,"elevation":[]}]}],"tooSloped":false},{"duration":1767,"startTime":1522669075000,"endTime":1522670842000,"walkTime":328,"transitTime":1437,"waitingTime":2,"walkDistance":412.620894734974,"walkLimitExceeded":false,"elevationLost":0.0,"elevationGained":0.0,"transfers":0,"legs":[{"startTime":1522669075000,"endTime":1522669174000,"departureDelay":0,"arrivalDelay":0,"realTime":false,"distance":122.319,"pathway":false,"mode":"WALK","route":"","agencyTimeZoneOffset":-14400000,"interlineWithPreviousLeg":false,"from":{"name":"Origin","lon":-71.050595,"lat":48.395724,"departure":1522669075000,"orig":"","vertexType":"NORMAL"},"to":{"name":"Roitelets / Chardonnerets","stopId":"1:1977","stopCode":"1977","lon":-71.049126,"lat":48.395249,"arrival":1522669174000,"departure":1522669175000,"zoneId":"NA","stopIndex":29,"stopSequence":30,"vertexType":"TRANSIT"},"legGeometry":{"points":"whkfHh_tpL^Qb@c@n@uBDODSQS","length":7},"rentedBike":false,"transitLeg":false,"duration":99.0,"steps":[{"distance":101.04700000000001,"relativeDirection":"DEPART","streetName":"Rue des Chardonnerets","absoluteDirection":"SOUTH","stayOn":false,"area":false,"bogusName":false,"lon":-71.05028922793585,"lat":48.39580283597636,"elevation":[]},{"distance":8.029,"relativeDirection":"CONTINUE","streetName":"path","absoluteDirection":"SOUTHEAST","stayOn":false,"area":false,"bogusName":true,"lon":-71.0493431,"lat":48.3951938,"elevation":[]},{"distance":13.243,"relativeDirection":"LEFT","streetName":"bike path","absoluteDirection":"NORTHEAST","stayOn":true,"area":false,"bogusName":true,"lon":-71.04924700000001,"lat":48.395160000000004,"elevation":[]}]},{"startTime":1522669175000,"endTime":1522669320000,"departureDelay":0,"arrivalDelay":0,"realTime":false,"distance":1632.976910075597,"pathway":false,"mode":"BUS","route":"15","agencyName":"Société de Transport du Saguenay","agencyUrl":"http://ville.saguenay.ca/fr/services-aux-citoyens/transport-sts","agencyTimeZoneOffset":-14400000,"routeColor":"FF00FF","routeType":3,"routeId":"1:15","routeTextColor":"FFFFFF","interlineWithPreviousLeg":false,"tripBlockId":"33","headsign":"Talbot / Barrette","agencyId":"0","tripId":"1:218173","serviceDate":"20180402","from":{"name":"Roitelets / Chardonnerets","stopId":"1:1977","stopCode":"1977","lon":-71.049126,"lat":48.395249,"arrival":1522669174000,"departure":1522669175000,"zoneId":"NA","stopIndex":29,"stopSequence":30,"vertexType":"TRANSIT"},"to":{"name":"Roitelets / Sapins","stopId":"1:1543","stopCode":"1543","lon":-71.069553,"lat":48.393375,"arrival":1522669320000,"departure":1522669320000,"zoneId":"NA","stopIndex":35,"stopSequence":36,"vertexType":"TRANSIT"},"legGeometry":{"points":"qekfHrxspLjCzC~DxC@@zA~Cb@fCJlC?BsBre@?DWbOAn@?nEGnM@H\\hCzA~ELvAAlAi@jDo@nB","length":21},"routeShortName":"15","routeLongName":"Term. Chic / Costco","rentedBike":false,"transitLeg":true,"duration":145.0,"steps":[]},{"startTime":1522669320000,"endTime":1522670612000,"departureDelay":0,"arrivalDelay":0,"realTime":false,"distance":8469.947596782673,"pathway":false,"mode":"BUS","route":"14","agencyName":"Société de Transport du Saguenay","agencyUrl":"http://ville.saguenay.ca/fr/services-aux-citoyens/transport-sts","agencyTimeZoneOffset":-14400000,"routeColor":"C0C000","routeType":3,"routeId":"1:14","routeTextColor":"000000","interlineWithPreviousLeg":true,"tripBlockId":"33","headsign":"Terminus Chicoutimi","agencyId":"0","tripId":"1:218174","serviceDate":"20180402","from":{"name":"Roitelets / Sapins","stopId":"1:1513","stopCode":"1513","lon":-71.069396,"lat":48.393523,"arrival":1522669320000,"departure":1522669320000,"zoneId":"NA","stopIndex":0,"stopSequence":1,"vertexType":"TRANSIT"},"to":{"name":"Cégep de Chicoutimi (Bégin)","stopId":"1:66","stopCode":"66","lon":-71.056314,"lat":48.424377,"arrival":1522670612000,"departure":1522670613000,"zoneId":"NA","stopIndex":32,"stopSequence":33,"vertexType":"TRANSIT"},"legGeometry":{"points":"azjfHfwwpLiEfLuBzFsAnDgGzSWfAcD`Mi@dCgChLmCzMwGd\\aDxOdFtFhCtCdDY|F_On@aB`B_GNoBvAyT|@sNuAyAuF}F}AaB_BkAC@qC\\gAWiBwBiKgMiCwEgEyHCGy@uB}@rAa@nAc@lFEf@mGvUYfAqCs@ICMCqFmDc@s@mAkBuEoESUgAhDiAfD}@zDyAcA_@Um@U{AWgB_Au@s@EEsBkCqFgF{IiI][aBhE}@}@oBmBwE{EwE{Ej@mBZeAa@SyEQg@CPcALuCx@{b@t@{[XoDd@sBl@iB~@gA`G{F{A{D_@sBFqDOq@iG{FGIoCkCgBgBsDpLHzBBT`@~COnBQf@gAjAg@bBuDmD","length":98},"routeShortName":"14","routeLongName":"Coopérative","rentedBike":false,"transitLeg":true,"duration":1292.0,"steps":[]},{"startTime":1522670613000,"endTime":1522670842000,"departureDelay":0,"arrivalDelay":0,"realTime":false,"distance":290.244,"pathway":false,"mode":"WALK","route":"","agencyTimeZoneOffset":-14400000,"interlineWithPreviousLeg":false,"from":{"name":"Cégep de Chicoutimi (Bégin)","stopId":"1:66","stopCode":"66","lon":-71.056314,"lat":48.424377,"arrival":1522670612000,"departure":1522670613000,"zoneId":"NA","stopIndex":32,"stopSequence":33,"vertexType":"TRANSIT"},"to":{"name":"Destination","lon":-71.059381,"lat":48.422638,"arrival":1522670842000,"orig":"","vertexType":"NORMAL"},"legGeometry":{"points":"k{pfH`eupLJJ`A~@rAjAH^HHVVRN`AbAhAfAVXd@h@","length":12},"rentedBike":false,"transitLeg":false,"duration":229.0,"steps":[{"distance":119.033,"relativeDirection":"DEPART","streetName":"sidewalk","absoluteDirection":"SOUTHWEST","stayOn":false,"area":false,"bogusName":true,"lon":-71.0563254039123,"lat":48.42438196430904,"elevation":[]},{"distance":171.211,"relativeDirection":"SLIGHTLY_LEFT","streetName":"Rue Bégin","absoluteDirection":"SOUTHWEST","stayOn":false,"area":false,"bogusName":false,"lon":-71.0572466,"lat":48.423523700000004,"elevation":[]}]}],"tooSloped":false},{"duration":1161,"startTime":1522671191000,"endTime":1522672352000,"walkTime":318,"transitTime":841,"waitingTime":2,"walkDistance":405.2428345853744,"walkLimitExceeded":false,"elevationLost":0.0,"elevationGained":0.0,"transfers":0,"legs":[{"startTime":1522671191000,"endTime":1522671290000,"departureDelay":0,"arrivalDelay":0,"realTime":false,"distance":122.319,"pathway":false,"mode":"WALK","route":"","agencyTimeZoneOffset":-14400000,"interlineWithPreviousLeg":false,"from":{"name":"Origin","lon":-71.050595,"lat":48.395724,"departure":1522671191000,"orig":"","vertexType":"NORMAL"},"to":{"name":"Roitelets / Chardonnerets","stopId":"1:1977","stopCode":"1977","lon":-71.049126,"lat":48.395249,"arrival":1522671290000,"departure":1522671291000,"zoneId":"NA","stopIndex":6,"stopSequence":7,"vertexType":"TRANSIT"},"legGeometry":{"points":"whkfHh_tpL^Qb@c@n@uBDODSQS","length":7},"rentedBike":false,"transitLeg":false,"duration":99.0,"steps":[{"distance":101.04700000000001,"relativeDirection":"DEPART","streetName":"Rue des Chardonnerets","absoluteDirection":"SOUTH","stayOn":false,"area":false,"bogusName":false,"lon":-71.05028922793585,"lat":48.39580283597636,"elevation":[]},{"distance":8.029,"relativeDirection":"CONTINUE","streetName":"path","absoluteDirection":"SOUTHEAST","stayOn":false,"area":false,"bogusName":true,"lon":-71.0493431,"lat":48.3951938,"elevation":[]},{"distance":13.243,"relativeDirection":"LEFT","streetName":"bike path","absoluteDirection":"NORTHEAST","stayOn":true,"area":false,"bogusName":true,"lon":-71.04924700000001,"lat":48.395160000000004,"elevation":[]}]},{"startTime":1522671291000,"endTime":1522672132000,"departureDelay":0,"arrivalDelay":0,"realTime":false,"distance":5044.616105911094,"pathway":false,"mode":"BUS","route":"15","agencyName":"Société de Transport du Saguenay","agencyUrl":"http://ville.saguenay.ca/fr/services-aux-citoyens/transport-sts","agencyTimeZoneOffset":-14400000,"routeColor":"FF00FF","routeType":3,"routeId":"1:15","routeTextColor":"FFFFFF","interlineWithPreviousLeg":false,"tripBlockId":"30","headsign":"Terminus Chicoutimi","agencyId":"0","tripId":"1:218090","serviceDate":"20180402","from":{"name":"Roitelets / Chardonnerets","stopId":"1:1977","stopCode":"1977","lon":-71.049126,"lat":48.395249,"arrival":1522671290000,"departure":1522671291000,"zoneId":"NA","stopIndex":6,"stopSequence":7,"vertexType":"TRANSIT"},"to":{"name":"Centre George Vézina (Bégin)","stopId":"1:583","stopCode":"583","lon":-71.0606,"lat":48.4201,"arrival":1522672132000,"departure":1522672133000,"zoneId":"NA","stopIndex":28,"stopSequence":29,"vertexType":"TRANSIT"},"legGeometry":{"points":"oekfHpxspLqE{EiAcAcB_AqBgA_AQaBSaBG_@Bu@FG?h@fNKnDpCfBkAzDgA}@y@q@sDy@GAeGT~@~KKrKyAnL[hBUxAm@nCcAlDeCvGmA|CUr@}@~A_@\\_DvCEZcA|@UP_@d@Yl@oBdFeCxG_CfGYVQXS\\dK|HlFZbC\\p@zA\\rB@hBiArG{BNw@FiG}@iDwAECcCcBo@y@sEeGe@o@qAa@m@MoB?C@}BZwAc@oA_Bs@gDCKZ{Di@QECc@_@sAkAoBwB_EcE{A_BoAmAk@o@cCaCkIkIaJaJ","length":82},"routeShortName":"15","routeLongName":"Term. Chic / Costco","rentedBike":false,"transitLeg":true,"duration":841.0,"steps":[]},{"startTime":1522672133000,"endTime":1522672352000,"departureDelay":0,"arrivalDelay":0,"realTime":false,"distance":282.89,"pathway":false,"mode":"WALK","route":"","agencyTimeZoneOffset":-14400000,"interlineWithPreviousLeg":false,"from":{"name":"Centre George Vézina (Bégin)","stopId":"1:583","stopCode":"583","lon":-71.0606,"lat":48.4201,"arrival":1522672132000,"departure":1522672133000,"zoneId":"NA","stopIndex":28,"stopSequence":29,"vertexType":"TRANSIT"},"to":{"name":"Destination","lon":-71.059381,"lat":48.422638,"arrival":1522672352000,"orig":"","vertexType":"NORMAL"},"legGeometry":{"points":"y`pfHf`vpLSScAeAg@i@KMYYSQ{B{BcAeAKI_@a@","length":11},"rentedBike":false,"transitLeg":false,"duration":219.0,"steps":[{"distance":282.89,"relativeDirection":"DEPART","streetName":"Rue Bégin","absoluteDirection":"NORTHEAST","stayOn":false,"area":false,"bogusName":false,"lon":-71.06067782404135,"lat":48.420134620151806,"elevation":[]}]}],"tooSloped":false}]},"debugOutput":{"precalculationTime":33,"pathCalculationTime":23,"pathTimes":[14,4,5],"renderingTime":0,"totalTime":56,"timedOut":false},"elevationMetadata":{"ellipsoidToGeoidDifference":-28.885904201182168,"geoidElevation":false}}