{"requestParameters":{"date":"2018/04/02","walkSpeed":"1.33","walkReluctance":"2.0","fromPlace":"48.395435,-71.050795","maxWalkDistance":"3000","waitReluctance":"1.0","carSpeed":"33","numItineraries":"3","waitAtBeginningFactor":"0.4","mode":"TRANSIT,WALK","ignoreRealtimeUpdates":"false","stairsReluctance":"2.0","toPlace":"48.402928,-71.05979","time":"8:0:00"},"plan":{"date":1522670400000,"from":{"name":"Origin","lon":-71.050795,"lat":48.395435,"orig":"","vertexType":"NORMAL"},"to":{"name":"Destination","lon":-71.05979,"lat":48.402928,"orig":"","vertexType":"NORMAL"},"itineraries":[{"duration":721,"startTime":1522670415000,"endTime":1522671136000,"walkTime":529,"transitTime":190,"waitingTime":2,"walkDistance":663.8409699187469,"walkLimitExceeded":false,"elevationLost":0.0,"elevationGained":0.0,"transfers":0,"legs":[{"startTime":1522670415000,"endTime":1522670647000,"departureDelay":0,"arrivalDelay":0,"realTime":false,"distance":287.684,"pathway":false,"mode":"WALK","route":"","agencyTimeZoneOffset":-14400000,"interlineWithPreviousLeg":false,"from":{"name":"Origin","lon":-71.050795,"lat":48.395435,"departure":1522670415000,"orig":"","vertexType":"NORMAL"},"to":{"name":"Résidence Villa du Saguenay (Roitelets)","stopId":"1:1546","stopCode":"1546","lon":-71.050627,"lat":48.393589,"arrival":1522670647000,"departure":1522670648000,"zoneId":"NA","stopIndex":6,"stopSequence":7,"vertexType":"TRANSIT"},"legGeometry":{"points":"wgkfHv~spLb@c@n@uBDOrBrBdB`BpA|@BMFH","length":9},"rentedBike":false,"transitLeg":false,"duration":232.0,"steps":[{"distance":81.623,"relativeDirection":"DEPART","streetName":"Rue des Chardonnerets","absoluteDirection":"SOUTHEAST","stayOn":false,"area":false,"bogusName":false,"lon":-71.050194,"lat":48.39564,"elevation":[]},{"distance":195.27100000000002,"relativeDirection":"RIGHT","streetName":"Rue Des Roitelets","absoluteDirection":"SOUTHWEST","stayOn":false,"area":false,"bogusName":false,"lon":-71.0493431,"lat":48.3951938,"elevation":[]},{"distance":5.225,"relativeDirection":"LEFT","streetName":"path","absoluteDirection":"SOUTHEAST","stayOn":false,"area":false,"bogusName":true,"lon":-71.0507201,"lat":48.3936973,"elevation":[]},{"distance":5.565,"relativeDirection":"RIGHT","streetName":"bike path","absoluteDirection":"SOUTHWEST","stayOn":true,"area":false,"bogusName":true,"lon":-71.0506598,"lat":48.3936727,"elevation":[]}]},{"startTime":1522670648000,"endTime":1522670838000,"departureDelay":0,"arrivalDelay":0,"realTime":false,"distance":1314.461516480734,"pathway":false,"mode":"BUS","route":"200S","agencyName":"Société de Transport du Saguenay","agencyUrl":"http://ville.saguenay.ca/fr/services-aux-citoyens/transport-sts","agencyTimeZoneOffset":-14400000,"routeColor":"8B0000","routeType":3,"routeId":"1:200S","routeTextColor":"FFFFFF","interlineWithPreviousLeg":false,"tripBlockId":"42","headsign":"Séminaire","agencyId":"0","tripId":"1:218368","serviceDate":"20180402","from":{"name":"Résidence Villa du Saguenay (Roitelets)","stopId":"1:1546","stopCode":"1546","lon":-71.050627,"lat":48.393589,"arrival":1522670647000,"departure":1522670648000,"zoneId":"NA","stopIndex":6,"stopSequence":7,"vertexType":"TRANSIT"},"to":{"name":"Grands-Ducs / Pinsons","stopId":"1:380","stopCode":"380","lon":-71.057667,"lat":48.400992,"arrival":1522670838000,"departure":1522670839000,"zoneId":"NA","stopIndex":12,"stopSequence":13,"vertexType":"TRANSIT"},"legGeometry":{"points":"i{jfHlbtpLUUeCqBqCwCk@bBSd@Y^YT]NWqAQe@W_@iCqCy@y@][]YqCdI_BdEkApDhBpBnBpB@@fCnCV\\Vb@^l@W\\Ul@_AfCwC`ISf@YhAUp@CHkCvGg@lAgBuBmAkAo@s@[c@_@o@Wk@","length":42},"routeShortName":"200S","routeLongName":"Séminaire - Quartier des Oiseaux","rentedBike":false,"transitLeg":true,"duration":190.0,"steps":[]},{"startTime":1522670839000,"endTime":1522671136000,"departureDelay":0,"arrivalDelay":0,"realTime":false,"distance":375.969,"pathway":false,"mode":"WALK","route":"","agencyTimeZoneOffset":-14400000,"interlineWithPreviousLeg":false,"from":{"name":"Grands-Ducs / Pinsons","stopId":"1:380","stopCode":"380","lon":-71.057667,"lat":48.400992,"arrival":1522670838000,"departure":1522670839000,"zoneId":"NA","stopIndex":12,"stopSequence":13,"vertexType":"TRANSIT"},"to":{"name":"Destination","lon":-71.05979,"lat":48.402928,"arrival":1522671136000,"orig":"","vertexType":"NORMAL"},"legGeometry":{"points":"qilfH|mupLS_@a@m@EG]_@c@Yu@]k@fEGTi@lCa@bBq@hCQO","length":13},"rentedBike":false,"transitLeg":false,"duration":297.0,"steps":[{"distance":120.932,"relativeDirection":"DEPART","streetName":"Rue des Grands-Ducs","absoluteDirection":"NORTHEAST","stayOn":false,"area":false,"bogusName":false,"lon":-71.05774877919868,"lat":48.401050653578565,"elevation":[]},{"distance":243.799,"relativeDirection":"LEFT","streetName":"Rue des Saguenéens","absoluteDirection":"WEST","stayOn":false,"area":false,"bogusName":false,"lon":-71.05687660000001,"lat":48.401952300000005,"elevation":[]},{"distance":11.238,"relativeDirection":"RIGHT","streetName":"Boulevard Talbot","absoluteDirection":"NORTHEAST","stayOn":false,"area":false,"bogusName":false,"lon":-71.0598825,"lat":48.402847200000004,"elevation":[]}]}],"tooSloped":false},{"duration":1017,"startTime":1522670400000,"endTime":1522671417000,"walkTime":1017,"transitTime":0,"waitingTime":0,"walkDistance":1267.6409022423802,"walkLimitExceeded":false,"elevationLost":0.0,"elevationGained":0.0,"transfers":0,"legs":[{"startTime":1522670400000,"endTime":1522671417000,"departureDelay":0,"arrivalDelay":0,"realTime":false,"distance":1267.2299999999998,"pathway":false,"mode":"WALK","route":"","agencyTimeZoneOffset":-14400000,"interlineWithPreviousLeg":false,"from":{"name":"Origin","lon":-71.050795,"lat":48.395435,"departure":1522670400000,"orig":"","vertexType":"NORMAL"},"to":{"name":"Destination","lon":-71.05979,"lat":48.402928,"arrival":1522671417000,"orig":"","vertexType":"NORMAL"},"legGeometry":{"points":"wgkfHv~spLi@V{BtA{@f@kAhAeAzBO\\iAjDMMMZ_AjCHJmEvLSOgAxCiAmAQ?[Zw@tBQXaAxAa@m@EG]_@c@Yu@]k@fEGTi@lCa@bBq@hCQO","length":32},"rentedBike":false,"transitLeg":false,"duration":1017.0,"steps":[{"distance":338.24,"relativeDirection":"DEPART","streetName":"Rue des Chardonnerets","absoluteDirection":"NORTH","stayOn":false,"area":false,"bogusName":false,"lon":-71.050194,"lat":48.39564,"elevation":[]},{"distance":9.779,"relativeDirection":"RIGHT","streetName":"Rue des Engoulevents","absoluteDirection":"NORTHEAST","stayOn":false,"area":false,"bogusName":false,"lon":-71.0529455,"lat":48.3979556,"elevation":[]},{"distance":75.949,"relativeDirection":"LEFT","streetName":"path","absoluteDirection":"NORTHWEST","stayOn":false,"area":false,"bogusName":true,"lon":-71.0528714,"lat":48.3980285,"elevation":[]},{"distance":6.949,"relativeDirection":"LEFT","streetName":"Rue des Grives","absoluteDirection":"SOUTHWEST","stayOn":false,"area":false,"bogusName":false,"lon":-71.05371960000001,"lat":48.398415,"elevation":[]},{"distance":199.602,"relativeDirection":"RIGHT","streetName":"Rue des Colibris","absoluteDirection":"NORTHWEST","stayOn":false,"area":false,"bogusName":false,"lon":-71.05377250000001,"lat":48.3983633,"elevation":[]},{"distance":11.841,"relativeDirection":"RIGHT","streetName":"Rue des Sittelles","absoluteDirection":"NORTHEAST","stayOn":false,"area":false,"bogusName":false,"lon":-71.05597990000001,"lat":48.399399800000005,"elevation":[]},{"distance":69.433,"relativeDirection":"LEFT","streetName":"path","absoluteDirection":"NORTHWEST","stayOn":false,"area":false,"bogusName":true,"lon":-71.0558986,"lat":48.399491600000005,"elevation":[]},{"distance":60.15,"relativeDirection":"RIGHT","streetName":"Rue des Sizerins","absoluteDirection":"NORTHEAST","stayOn":false,"area":false,"bogusName":false,"lon":-71.05666450000001,"lat":48.399854000000005,"elevation":[]},{"distance":135.743,"relativeDirection":"LEFT","streetName":"Rue des Pinsons","absoluteDirection":"NORTHWEST","stayOn":false,"area":false,"bogusName":false,"lon":-71.0562713,"lat":48.4003127,"elevation":[]},{"distance":104.507,"relativeDirection":"RIGHT","streetName":"Rue des Grands-Ducs","absoluteDirection":"NORTHEAST","stayOn":false,"area":false,"bogusName":false,"lon":-71.0575855,"lat":48.401151000000006,"elevation":[]},{"distance":243.799,"relativeDirection":"LEFT","streetName":"Rue des Saguenéens","absoluteDirection":"WEST","stayOn":false,"area":false,"bogusName":false,"lon":-71.05687660000001,"lat":48.401952300000005,"elevation":[]},{"distance":11.238,"relativeDirection":"RIGHT","streetName":"Boulevard Talbot","absoluteDirection":"NORTHEAST","stayOn":false,"area":false,"bogusName":false,"lon":-71.0598825,"lat":48.402847200000004,"elevation":[]}]}],"tooSloped":false},{"duration":485,"startTime":1522671206000,"endTime":1522671691000,"walkTime":189,"transitTime":294,"waitingTime":2,"walkDistance":234.41541353172386,"walkLimitExceeded":false,"elevationLost":0.0,"elevationGained":0.0,"transfers":0,"legs":[{"startTime":1522671206000,"endTime":1522671290000,"departureDelay":0,"arrivalDelay":0,"realTime":false,"distance":102.895,"pathway":false,"mode":"WALK","route":"","agencyTimeZoneOffset":-14400000,"interlineWithPreviousLeg":false,"from":{"name":"Origin","lon":-71.050795,"lat":48.395435,"departure":1522671206000,"orig":"","vertexType":"NORMAL"},"to":{"name":"Roitelets / Chardonnerets","stopId":"1:1977","stopCode":"1977","lon":-71.049126,"lat":48.395249,"arrival":1522671290000,"departure":1522671291000,"zoneId":"NA","stopIndex":6,"stopSequence":7,"vertexType":"TRANSIT"},"legGeometry":{"points":"wgkfHv~spLb@c@n@uBDODSQS","length":6},"rentedBike":false,"transitLeg":false,"duration":84.0,"steps":[{"distance":81.623,"relativeDirection":"DEPART","streetName":"Rue des Chardonnerets","absoluteDirection":"SOUTHEAST","stayOn":false,"area":false,"bogusName":false,"lon":-71.050194,"lat":48.39564,"elevation":[]},{"distance":8.029,"relativeDirection":"CONTINUE","streetName":"path","absoluteDirection":"SOUTHEAST","stayOn":false,"area":false,"bogusName":true,"lon":-71.0493431,"lat":48.3951938,"elevation":[]},{"distance":13.243,"relativeDirection":"LEFT","streetName":"bike path","absoluteDirection":"NORTHEAST","stayOn":true,"area":false,"bogusName":true,"lon":-71.04924700000001,"lat":48.395160000000004,"elevation":[]}]},{"startTime":1522671291000,"endTime":1522671585000,"departureDelay":0,"arrivalDelay":0,"realTime":false,"distance":1803.0277095279005,"pathway":false,"mode":"BUS","route":"15","agencyName":"Société de Transport du Saguenay","agencyUrl":"http://ville.saguenay.ca/fr/services-aux-citoyens/transport-sts","agencyTimeZoneOffset":-14400000,"routeColor":"FF00FF","routeType":3,"routeId":"1:15","routeTextColor":"FFFFFF","interlineWithPreviousLeg":false,"tripBlockId":"30","headsign":"Terminus Chicoutimi","agencyId":"0","tripId":"1:218090","serviceDate":"20180402","from":{"name":"Roitelets / Chardonnerets","stopId":"1:1977","stopCode":"1977","lon":-71.049126,"lat":48.395249,"arrival":1522671290000,"departure":1522671291000,"zoneId":"NA","stopIndex":6,"stopSequence":7,"vertexType":"TRANSIT"},"to":{"name":"Saguenéens  / Bach","stopId":"1:575","stopCode":"575","lon":-71.061104,"lat":48.403689,"arrival":1522671585000,"departure":1522671586000,"zoneId":"NA","stopIndex":12,"stopSequence":13,"vertexType":"TRANSIT"},"legGeometry":{"points":"oekfHpxspLqE{EiAcAcB_AqBgA_AQaBSaBG_@Bu@FG?h@fNKnDpCfBkAzDgA}@y@q@sDy@GAeGT~@~KKrKyAnL[hBUxAm@nCcAlDeCvG","length":28},"routeShortName":"15","routeLongName":"Term. Chic / Costco","rentedBike":false,"transitLeg":true,"duration":294.0,"steps":[]},{"startTime":1522671586000,"endTime":1522671691000,"departureDelay":0,"arrivalDelay":0,"realTime":false,"distance":131.455,"pathway":false,"mode":"WALK","route":"","agencyTimeZoneOffset":-14400000,"interlineWithPreviousLeg":false,"from":{"name":"Saguenéens  / Bach","stopId":"1:575","stopCode":"575","lon":-71.061104,"lat":48.403689,"arrival":1522671585000,"departure":1522671586000,"zoneId":"NA","stopIndex":12,"stopSequence":13,"vertexType":"TRANSIT"},"to":{"name":"Destination","lon":-71.05979,"lat":48.402928,"arrival":1522671691000,"orig":"","vertexType":"NORMAL"},"legGeometry":{"points":"wylfHfcvpLxBwFJW@EDF","length":5},"rentedBike":false,"transitLeg":false,"duration":105.0,"steps":[{"distance":126.98400000000001,"relativeDirection":"DEPART","streetName":"Rue des Saguenéens","absoluteDirection":"SOUTHEAST","stayOn":false,"area":false,"bogusName":false,"lon":-71.0611521754673,"lat":48.403646208471976,"elevation":[]},{"distance":4.471,"relativeDirection":"RIGHT","streetName":"Boulevard Talbot","absoluteDirection":"SOUTHWEST","stayOn":false,"area":false,"bogusName":false,"lon":-71.0597697,"lat":48.402967000000004,"elevation":[]}]}],"tooSloped":false}]},"debugOutput":{"precalculationTime":27,"pathCalculationTime":15,"pathTimes":[8,5,2],"renderingTime":0,"totalTime":42,"timedOut":false},"elevationMetadata":{"ellipsoidToGeoidDifference":-28.885904201182168,"geoidElevation":false}}