{"requestParameters":{"date":"2018/04/02","walkSpeed":"1.33","walkReluctance":"2.0","fromPlace":"48.410851,-71.05098999","maxWalkDistance":"3000","waitReluctance":"1.0","carSpeed":"33","numItineraries":"3","waitAtBeginningFactor":"0.4","mode":"TRANSIT,WALK","ignoreRealtimeUpdates":"false","stairsReluctance":"2.0","toPlace":"48.395202,-71.05799","time":"13:0:00"},"plan":{"date":1522688400000,"from":{"name":"Origin","lon":-71.05098999,"lat":48.410851,"orig":"","vertexType":"NORMAL"},"to":{"name":"Destination","lon":-71.05799,"lat":48.395202,"orig":"","vertexType":"NORMAL"},"itineraries":[{"duration":1749,"startTime":1522688400000,"endTime":1522690149000,"walkTime":1749,"transitTime":0,"waitingTime":0,"walkDistance":2269.315759391922,"walkLimitExceeded":false,"elevationLost":0.0,"elevationGained":0.0,"transfers":0,"legs":[{"startTime":1522688400000,"endTime":1522690149000,"departureDelay":0,"arrivalDelay":0,"realTime":false,"distance":2269.1119999999996,"pathway":false,"mode":"WALK","route":"","agencyTimeZoneOffset":-14400000,"interlineWithPreviousLeg":false,"from":{"name":"Origin","lon":-71.05098999,"lat":48.410851,"departure":1522688400000,"orig":"","vertexType":"NORMAL"},"to":{"name":"Destination","lon":-71.05799,"lat":48.395202,"arrival":1522690149000,"orig":"","vertexType":"NORMAL"},"legGeometry":{"points":"adnfHrftpLqAhDjDlDDKb@iAt@sB@EvBvBt@mBRMJBbAdARJLEPc@RYTGRJxAdCPUfAuAbAaAt@]l@Qp@E|@B|@LtAJfA?^Ed@MNGrBm@jEiA^KTGp@U|AOf@D|@D@?r@D|AZtA|@B@RNl@n@lBxBdBfBLLpCzCd@p@^l@zBhBnDrCw@nC@d@Rd@`@XjA`F","length":60},"rentedBike":false,"transitLeg":false,"duration":1749.0,"steps":[{"distance":76.746,"relativeDirection":"DEPART","streetName":"path","absoluteDirection":"NORTHWEST","stayOn":false,"area":false,"bogusName":false,"lon":-71.05145528310392,"lat":48.410419053665855,"elevation":[]},{"distance":115.192,"relativeDirection":"LEFT","streetName":"Boulevard Talbot","absoluteDirection":"SOUTHWEST","stayOn":false,"area":false,"bogusName":false,"lon":-71.05230110000001,"lat":48.4108205,"elevation":[]},{"distance":435.21000000000004,"relativeDirection":"LEFT","streetName":"service road","absoluteDirection":"SOUTHEAST","stayOn":false,"area":false,"bogusName":true,"lon":-71.0531788,"lat":48.4099639,"elevation":[]},{"distance":603.137,"relativeDirection":"LEFT","streetName":"Rue des Champs-Élysées","absoluteDirection":"SOUTHEAST","stayOn":false,"area":false,"bogusName":false,"lon":-71.05289400000001,"lat":48.4070874,"elevation":[]},{"distance":640.111,"relativeDirection":"CONTINUE","streetName":"Rue des Engoulevents","absoluteDirection":"SOUTH","stayOn":false,"area":false,"bogusName":false,"lon":-71.0511074,"lat":48.401948700000005,"elevation":[]},{"distance":190.906,"relativeDirection":"CONTINUE","streetName":"path","absoluteDirection":"SOUTHWEST","stayOn":false,"area":false,"bogusName":true,"lon":-71.0542028,"lat":48.3968707,"elevation":[]},{"distance":207.81,"relativeDirection":"RIGHT","streetName":"Rue des Hérons","absoluteDirection":"NORTHWEST","stayOn":false,"area":false,"bogusName":false,"lon":-71.0554784,"lat":48.3953773,"elevation":[]}]}],"tooSloped":false},{"duration":1159,"startTime":1522689013000,"endTime":1522690172000,"walkTime":1038,"transitTime":119,"waitingTime":2,"walkDistance":1344.7697593951482,"walkLimitExceeded":false,"elevationLost":0.0,"elevationGained":0.0,"transfers":0,"legs":[{"startTime":1522689013000,"endTime":1522689239000,"departureDelay":0,"arrivalDelay":0,"realTime":false,"distance":287.647,"pathway":false,"mode":"WALK","route":"","agencyTimeZoneOffset":-14400000,"interlineWithPreviousLeg":false,"from":{"name":"Origin","lon":-71.05098999,"lat":48.410851,"departure":1522689013000,"orig":"","vertexType":"NORMAL"},"to":{"name":"Sûreté du Québec (Roitelets / Lorenzo-Genest)","stopId":"1:58","stopCode":"58","lon":-71.048311,"lat":48.40979,"arrival":1522689239000,"departure":1522689240000,"zoneId":"NA","stopIndex":15,"stopSequence":16,"vertexType":"TRANSIT"},"legGeometry":{"points":"adnfHrftpLDOVoAZsBVm@L}@b@{Bt@}DGCk@Y","length":10},"rentedBike":false,"transitLeg":false,"duration":226.0,"steps":[{"distance":106.751,"relativeDirection":"DEPART","streetName":"path","absoluteDirection":"SOUTHEAST","stayOn":false,"area":false,"bogusName":false,"lon":-71.05145528310392,"lat":48.410419053665855,"elevation":[]},{"distance":149.905,"relativeDirection":"SLIGHTLY_LEFT","streetName":"Rue Lorenzo-Genest","absoluteDirection":"EAST","stayOn":false,"area":false,"bogusName":false,"lon":-71.0501637,"lat":48.4100046,"elevation":[]},{"distance":30.991,"relativeDirection":"LEFT","streetName":"Rue Des Roitelets","absoluteDirection":"NORTH","stayOn":false,"area":false,"bogusName":false,"lon":-71.0482898,"lat":48.409485700000005,"elevation":[]}]},{"startTime":1522689240000,"endTime":1522689359000,"departureDelay":0,"arrivalDelay":0,"realTime":false,"distance":922.0865191891141,"pathway":false,"mode":"BUS","route":"175","agencyName":"Société de Transport du Saguenay","agencyUrl":"http://ville.saguenay.ca/fr/services-aux-citoyens/transport-sts","agencyTimeZoneOffset":-14400000,"routeColor":"FF00FF","routeType":3,"routeId":"1:175","routeTextColor":"FFFFFF","interlineWithPreviousLeg":false,"tripBlockId":"78","headsign":"Costco","agencyId":"0","tripId":"1:218645","serviceDate":"20180402","from":{"name":"Sûreté du Québec (Roitelets / Lorenzo-Genest)","stopId":"1:58","stopCode":"58","lon":-71.048311,"lat":48.40979,"arrival":1522689239000,"departure":1522689240000,"zoneId":"NA","stopIndex":15,"stopSequence":16,"vertexType":"TRANSIT"},"to":{"name":"Champs-Élysées / Saguenéens","stopId":"1:84","stopCode":"84","lon":-71.05132,"lat":48.402083,"arrival":1522689359000,"departure":1522689360000,"zoneId":"NA","stopIndex":19,"stopSequence":20,"vertexType":"TRANSIT"},"legGeometry":{"points":"{_nfHzqspLdM`GzCvAXrCr@~Gx@]PEr@ObACn@FrBb@|@Ch@Kx@U~HsB","length":15},"routeShortName":"175","routeLongName":"Term. Chic / Costco","rentedBike":false,"transitLeg":true,"duration":119.0,"steps":[]},{"startTime":1522689360000,"endTime":1522690172000,"departureDelay":0,"arrivalDelay":0,"realTime":false,"distance":1057.019,"pathway":false,"mode":"WALK","route":"","agencyTimeZoneOffset":-14400000,"interlineWithPreviousLeg":false,"from":{"name":"Champs-Élysées / Saguenéens","stopId":"1:84","stopCode":"84","lon":-71.05132,"lat":48.402083,"arrival":1522689359000,"departure":1522689360000,"zoneId":"NA","stopIndex":19,"stopSequence":20,"vertexType":"TRANSIT"},"to":{"name":"Destination","lon":-71.05799,"lat":48.395202,"arrival":1522690172000,"orig":"","vertexType":"NORMAL"},"legGeometry":{"points":"cplfHxdtpL^KTGp@U|AOf@D|@D@?r@D|AZtA|@B@RNl@n@lBxBdBfBLLpCzCd@p@^l@zBhBnDrCw@nC@d@Rd@`@XjA`F","length":27},"rentedBike":false,"transitLeg":false,"duration":812.0,"steps":[{"distance":18.192,"relativeDirection":"DEPART","streetName":"Rue des Champs-Élysées","absoluteDirection":"SOUTH","stayOn":false,"area":false,"bogusName":false,"lon":-71.05116509910528,"lat":48.402107765696,"elevation":[]},{"distance":640.111,"relativeDirection":"CONTINUE","streetName":"Rue des Engoulevents","absoluteDirection":"SOUTH","stayOn":false,"area":false,"bogusName":false,"lon":-71.0511074,"lat":48.401948700000005,"elevation":[]},{"distance":190.906,"relativeDirection":"CONTINUE","streetName":"path","absoluteDirection":"SOUTHWEST","stayOn":false,"area":false,"bogusName":true,"lon":-71.0542028,"lat":48.3968707,"elevation":[]},{"distance":207.81,"relativeDirection":"RIGHT","streetName":"Rue des Hérons","absoluteDirection":"NORTHWEST","stayOn":false,"area":false,"bogusName":false,"lon":-71.0554784,"lat":48.3953773,"elevation":[]}]}],"tooSloped":false},{"duration":1128,"startTime":1522689913000,"endTime":1522691041000,"walkTime":415,"transitTime":411,"waitingTime":302,"walkDistance":526.1782405983984,"walkLimitExceeded":false,"elevationLost":0.0,"elevationGained":0.0,"transfers":1,"legs":[{"startTime":1522689913000,"endTime":1522690139000,"departureDelay":0,"arrivalDelay":0,"realTime":false,"distance":287.647,"pathway":false,"mode":"WALK","route":"","agencyTimeZoneOffset":-14400000,"interlineWithPreviousLeg":false,"from":{"name":"Origin","lon":-71.05098999,"lat":48.410851,"departure":1522689913000,"orig":"","vertexType":"NORMAL"},"to":{"name":"Sûreté du Québec (Roitelets / Lorenzo-Genest)","stopId":"1:58","stopCode":"58","lon":-71.048311,"lat":48.40979,"arrival":1522690139000,"departure":1522690140000,"zoneId":"NA","stopIndex":15,"stopSequence":16,"vertexType":"TRANSIT"},"legGeometry":{"points":"adnfHrftpLDOVoAZsBVm@L}@b@{Bt@}DGCk@Y","length":10},"rentedBike":false,"transitLeg":false,"duration":226.0,"steps":[{"distance":106.751,"relativeDirection":"DEPART","streetName":"path","absoluteDirection":"SOUTHEAST","stayOn":false,"area":false,"bogusName":false,"lon":-71.05145528310392,"lat":48.410419053665855,"elevation":[]},{"distance":149.905,"relativeDirection":"SLIGHTLY_LEFT","streetName":"Rue Lorenzo-Genest","absoluteDirection":"EAST","stayOn":false,"area":false,"bogusName":false,"lon":-71.0501637,"lat":48.4100046,"elevation":[]},{"distance":30.991,"relativeDirection":"LEFT","streetName":"Rue Des Roitelets","absoluteDirection":"NORTH","stayOn":false,"area":false,"bogusName":false,"lon":-71.0482898,"lat":48.409485700000005,"elevation":[]}]},{"startTime":1522690140000,"endTime":1522690320000,"departureDelay":0,"arrivalDelay":0,"realTime":false,"distance":1393.3787444572902,"pathway":false,"mode":"BUS","route":"175","agencyName":"Société de Transport du Saguenay","agencyUrl":"http://ville.saguenay.ca/fr/services-aux-citoyens/transport-sts","agencyTimeZoneOffset":-14400000,"routeColor":"FF00FF","routeType":3,"routeId":"1:175","routeTextColor":"FFFFFF","interlineWithPreviousLeg":false,"tripBlockId":"7","headsign":"Costco","agencyId":"0","tripId":"1:217334","serviceDate":"20180402","from":{"name":"Sûreté du Québec (Roitelets / Lorenzo-Genest)","stopId":"1:58","stopCode":"58","lon":-71.048311,"lat":48.40979,"arrival":1522690139000,"departure":1522690140000,"zoneId":"NA","stopIndex":15,"stopSequence":16,"vertexType":"TRANSIT"},"to":{"name":"Place du Royaume (Saguenéens)","stopId":"1:1294","stopCode":"1294","lon":-71.057691,"lat":48.402355,"arrival":1522690320000,"departure":1522690620000,"zoneId":"NA","stopIndex":20,"stopSequence":21,"vertexType":"TRANSIT"},"legGeometry":{"points":"{_nfHzqspLdM`GzCvAXrCr@~Gx@]PEr@ObACn@FrBb@|@Ch@Kx@U~HsB^KZ|DJpII~Fa@rFUzBi@bD","length":22},"routeShortName":"175","routeLongName":"Term. Chic / Costco","rentedBike":false,"transitLeg":true,"duration":180.0,"steps":[]},{"startTime":1522690620000,"endTime":1522690851000,"departureDelay":0,"arrivalDelay":0,"realTime":false,"distance":2378.555747200292,"pathway":false,"mode":"BUS","route":"15","agencyName":"Société de Transport du Saguenay","agencyUrl":"http://ville.saguenay.ca/fr/services-aux-citoyens/transport-sts","agencyTimeZoneOffset":-14400000,"routeColor":"FF00FF","routeType":3,"routeId":"1:15","routeTextColor":"FFFFFF","interlineWithPreviousLeg":false,"tripBlockId":"33","headsign":"Talbot / Barrette","agencyId":"0","tripId":"1:218185","serviceDate":"20180402","from":{"name":"Place du Royaume (Saguenéens)","stopId":"1:1294","stopCode":"1294","lon":-71.057691,"lat":48.402355,"arrival":1522690320000,"departure":1522690620000,"zoneId":"NA","stopIndex":24,"stopSequence":25,"vertexType":"TRANSIT"},"to":{"name":"Roitelets / Colombes","stopId":"1:1544","stopCode":"1544","lon":-71.059204,"lat":48.393412,"arrival":1522690851000,"departure":1522690852000,"zoneId":"NA","stopIndex":32,"stopSequence":33,"vertexType":"TRANSIT"},"legGeometry":{"points":"_rlfHjmupLbCaO?qLa@uJzF`ApF~@~@PzAgEeDcBf@qAWcKUqEx@Ef@ExDVjDxAFBrBvAfGjG@BjCzC~DxC@@zA~Cb@fCJlC?BsBre@?D","length":29},"routeShortName":"15","routeLongName":"Term. Chic / Costco","rentedBike":false,"transitLeg":true,"duration":231.0,"steps":[]},{"startTime":1522690852000,"endTime":1522691041000,"departureDelay":0,"arrivalDelay":0,"realTime":false,"distance":238.435,"pathway":false,"mode":"WALK","route":"","agencyTimeZoneOffset":-14400000,"interlineWithPreviousLeg":false,"from":{"name":"Roitelets / Colombes","stopId":"1:1544","stopCode":"1544","lon":-71.059204,"lat":48.393412,"arrival":1522690851000,"departure":1522690852000,"zoneId":"NA","stopIndex":32,"stopSequence":33,"vertexType":"TRANSIT"},"to":{"name":"Destination","lon":-71.05799,"lat":48.395202,"arrival":1522691041000,"orig":"","vertexType":"NORMAL"},"legGeometry":{"points":"czjfH~vupLA\\GAUCoD_@Yi@G[_AaE","length":8},"rentedBike":false,"transitLeg":false,"duration":189.0,"steps":[{"distance":10.946,"relativeDirection":"DEPART","streetName":"bike path","absoluteDirection":"WEST","stayOn":false,"area":false,"bogusName":true,"lon":-71.05919409957978,"lat":48.39346222328547,"elevation":[]},{"distance":3.935,"relativeDirection":"RIGHT","streetName":"Rue des Coulombes","absoluteDirection":"NORTH","stayOn":false,"area":false,"bogusName":false,"lon":-71.0593411,"lat":48.393475,"elevation":[]},{"distance":223.55399999999997,"relativeDirection":"CONTINUE","streetName":"Rue des Hérons","absoluteDirection":"NORTH","stayOn":false,"area":false,"bogusName":false,"lon":-71.0593343,"lat":48.3935101,"elevation":[]}]}],"tooSloped":false}]},"debugOutput":{"precalculationTime":31,"pathCalculationTime":36,"pathTimes":[18,9,9],"renderingTime":0,"totalTime":67,"timedOut":false},"elevationMetadata":{"ellipsoidToGeoidDifference":-28.885904201182168,"geoidElevation":false}}