{"requestParameters":{"date":"2018/04/02","walkSpeed":"1.33","walkReluctance":"2.0","fromPlace":"48.394626,-71.056282","maxWalkDistance":"3000","waitReluctance":"1.0","carSpeed":"33","numItineraries":"3","waitAtBeginningFactor":"0.4","mode":"TRANSIT,WALK","ignoreRealtimeUpdates":"false","stairsReluctance":"2.0","toPlace":"48.403952,-71.054642","time":"18:0:00"},"plan":{"date":1522706400000,"from":{"name":"Origin","lon":-71.056282,"lat":48.394626,"orig":"","vertexType":"NORMAL"},"to":{"name":"Destination","lon":-71.054642,"lat":48.403952,"orig":"","vertexType":"NORMAL"},"itineraries":[{"duration":1103,"startTime":1522706400000,"endTime":1522707503000,"walkTime":1103,"transitTime":0,"waitingTime":0,"walkDistance":1416.7272030016723,"walkLimitExceeded":false,"elevationLost":0.0,"elevationGained":0.0,"transfers":0,"legs":[{"startTime":1522706400000,"endTime":1522707503000,"departureDelay":0,"arrivalDelay":0,"realTime":false,"distance":1416.5460000000003,"pathway":false,"mode":"WALK","route":"","agencyTimeZoneOffset":-14400000,"interlineWithPreviousLeg":false,"from":{"name":"Origin","lon":-71.056282,"lat":48.394626,"departure":1522706400000,"orig":"","vertexType":"NORMAL"},"to":{"name":"Destination","lon":-71.054642,"lat":48.403952,"arrival":1522707503000,"orig":"","vertexType":"NORMAL"},"legGeometry":{"points":"cbkfHleupLcAoDO]OGM?K^oDsC{BiB_@m@e@q@qC{CMMeBgBmByBm@o@SOCAuA}@}A[s@EA?}@Eg@E}ANq@TUF_@JkEhAsBl@OFe@L@zA?p@ELPNk@hBOf@Wt@Xb@R\\T^R\\JL","length":43},"rentedBike":false,"transitLeg":false,"duration":1103.0,"steps":[{"distance":120.551,"relativeDirection":"DEPART","streetName":"Rue des Hérons","absoluteDirection":"NORTHEAST","stayOn":false,"area":false,"bogusName":false,"lon":-71.05638437544089,"lat":48.394740187239044,"elevation":[]},{"distance":190.906,"relativeDirection":"RIGHT","streetName":"path","absoluteDirection":"NORTHEAST","stayOn":false,"area":false,"bogusName":true,"lon":-71.0554784,"lat":48.3953773,"elevation":[]},{"distance":640.1109999999999,"relativeDirection":"CONTINUE","streetName":"Rue des Engoulevents","absoluteDirection":"NORTHEAST","stayOn":false,"area":false,"bogusName":false,"lon":-71.0542028,"lat":48.3968707,"elevation":[]},{"distance":232.007,"relativeDirection":"CONTINUE","streetName":"Rue des Champs-Élysées","absoluteDirection":"NORTH","stayOn":false,"area":false,"bogusName":false,"lon":-71.0511074,"lat":48.401948700000005,"elevation":[]},{"distance":232.97099999999998,"relativeDirection":"LEFT","streetName":"parking aisle","absoluteDirection":"WEST","stayOn":false,"area":false,"bogusName":true,"lon":-71.0518792,"lat":48.4039711,"elevation":[]}]}],"tooSloped":false},{"duration":963,"startTime":1522706949000,"endTime":1522707912000,"walkTime":591,"transitTime":370,"waitingTime":2,"walkDistance":724.9723834504706,"walkLimitExceeded":false,"elevationLost":0.0,"elevationGained":0.0,"transfers":0,"legs":[{"startTime":1522706949000,"endTime":1522707169000,"departureDelay":0,"arrivalDelay":0,"realTime":false,"distance":281.347,"pathway":false,"mode":"WALK","route":"","agencyTimeZoneOffset":-14400000,"interlineWithPreviousLeg":false,"from":{"name":"Origin","lon":-71.056282,"lat":48.394626,"departure":1522706949000,"orig":"","vertexType":"NORMAL"},"to":{"name":"Roitelets / Colombes","stopId":"1:1544","stopCode":"1544","lon":-71.059204,"lat":48.393412,"arrival":1522707169000,"departure":1522707170000,"zoneId":"NA","stopIndex":3,"stopSequence":4,"vertexType":"TRANSIT"},"legGeometry":{"points":"cbkfHleupLdB~FRVVXNNR^PNz@ZH?MbD","length":10},"rentedBike":false,"transitLeg":false,"duration":220.0,"steps":[{"distance":213.832,"relativeDirection":"DEPART","streetName":"Rue des Hérons","absoluteDirection":"SOUTHWEST","stayOn":false,"area":false,"bogusName":false,"lon":-71.05638437544089,"lat":48.394740187239044,"elevation":[]},{"distance":6.238,"relativeDirection":"CONTINUE","streetName":"Rue des Chouettes","absoluteDirection":"SOUTH","stayOn":false,"area":false,"bogusName":false,"lon":-71.05837050000001,"lat":48.3934468,"elevation":[]},{"distance":61.277,"relativeDirection":"RIGHT","streetName":"bike path","absoluteDirection":"WEST","stayOn":false,"area":false,"bogusName":true,"lon":-71.05837120000001,"lat":48.393390700000005,"elevation":[]}]},{"startTime":1522707170000,"endTime":1522707540000,"departureDelay":0,"arrivalDelay":0,"realTime":false,"distance":2378.555747200831,"pathway":false,"mode":"BUS","route":"15","agencyName":"Société de Transport du Saguenay","agencyUrl":"http://ville.saguenay.ca/fr/services-aux-citoyens/transport-sts","agencyTimeZoneOffset":-14400000,"routeColor":"FF00FF","routeType":3,"routeId":"1:15","routeTextColor":"FFFFFF","interlineWithPreviousLeg":false,"tripBlockId":"30","headsign":"Terminus Chicoutimi","agencyId":"0","tripId":"1:218110","serviceDate":"20180402","from":{"name":"Roitelets / Colombes","stopId":"1:1544","stopCode":"1544","lon":-71.059204,"lat":48.393412,"arrival":1522707169000,"departure":1522707170000,"zoneId":"NA","stopIndex":3,"stopSequence":4,"vertexType":"TRANSIT"},"to":{"name":"Place du Royaume (Saguenéens)","stopId":"1:1294","stopCode":"1294","lon":-71.057691,"lat":48.402355,"arrival":1522707540000,"departure":1522707541000,"zoneId":"NA","stopIndex":11,"stopSequence":12,"vertexType":"TRANSIT"},"legGeometry":{"points":"czjfH~vupLTuGEGVsHPuDLuBXsFDoA?W@]Cu@GcAKu@Q_ASo@a@y@a@o@MOUUeCqBiDsDqE{EiAcAcB_AqBgA_AQaBSaBG_@Bu@FG?h@fNKnDpCfBkAzDgA}@y@q@sDy@GAeGT~@~KKrKyAnL[hB","length":44},"routeShortName":"15","routeLongName":"Term. Chic / Costco","rentedBike":false,"transitLeg":true,"duration":370.0,"steps":[]},{"startTime":1522707541000,"endTime":1522707912000,"departureDelay":0,"arrivalDelay":0,"realTime":false,"distance":443.37199999999996,"pathway":false,"mode":"WALK","route":"","agencyTimeZoneOffset":-14400000,"interlineWithPreviousLeg":false,"from":{"name":"Place du Royaume (Saguenéens)","stopId":"1:1294","stopCode":"1294","lon":-71.057691,"lat":48.402355,"arrival":1522707540000,"departure":1522707541000,"zoneId":"NA","stopIndex":11,"stopSequence":12,"vertexType":"TRANSIT"},"to":{"name":"Destination","lon":-71.054642,"lat":48.403952,"arrival":1522707912000,"orig":"","vertexType":"NORMAL"},"legGeometry":{"points":"iqlfHxmupLj@wDSi@CME[KKn@eECMGs@]IICWGGCYGECYGQGKKWYUSAEGIUXc@UQBWp@OWKQ","length":28},"rentedBike":false,"transitLeg":false,"duration":371.0,"steps":[{"distance":72.296,"relativeDirection":"DEPART","streetName":"Rue des Saguenéens","absoluteDirection":"EAST","stayOn":false,"area":false,"bogusName":false,"lon":-71.05772328170832,"lat":48.402297506554895,"elevation":[]},{"distance":44.199000000000005,"relativeDirection":"LEFT","streetName":"service road","absoluteDirection":"NORTHEAST","stayOn":false,"area":false,"bogusName":true,"lon":-71.0568056,"lat":48.4020704,"elevation":[]},{"distance":102.75299999999999,"relativeDirection":"RIGHT","streetName":"parking aisle","absoluteDirection":"EAST","stayOn":true,"area":false,"bogusName":true,"lon":-71.0563248,"lat":48.4022894,"elevation":[]},{"distance":131.326,"relativeDirection":"LEFT","streetName":"service road","absoluteDirection":"NORTH","stayOn":true,"area":false,"bogusName":true,"lon":-71.0550072,"lat":48.402104300000005,"elevation":[]},{"distance":37.529,"relativeDirection":"LEFT","streetName":"parking aisle","absoluteDirection":"NORTHWEST","stayOn":true,"area":false,"bogusName":true,"lon":-71.0543643,"lat":48.403182300000005,"elevation":[]},{"distance":55.269,"relativeDirection":"LEFT","streetName":"parking aisle","absoluteDirection":"NORTHWEST","stayOn":true,"area":false,"bogusName":true,"lon":-71.0543818,"lat":48.403475,"elevation":[]}]}],"tooSloped":false}]},"debugOutput":{"precalculationTime":34,"pathCalculationTime":21,"pathTimes":[13,3,5],"renderingTime":0,"totalTime":55,"timedOut":false},"elevationMetadata":{"ellipsoidToGeoidDifference":-28.885904201182168,"geoidElevation":false}}