{"requestParameters":{"date":"2018/04/02","walkSpeed":"1.33","walkReluctance":"2.0","fromPlace":"48.423148,-71.052406","maxWalkDistance":"3000","waitReluctance":"1.0","carSpeed":"33","numItineraries":"3","waitAtBeginningFactor":"0.4","mode":"TRANSIT,WALK","ignoreRealtimeUpdates":"false","stairsReluctance":"2.0","toPlace":"48.394185,-71.058155","time":"16:15:00"},"plan":{"date":1522700100000,"from":{"name":"Origin","lon":-71.052406,"lat":48.423148,"orig":"","vertexType":"NORMAL"},"to":{"name":"Destination","lon":-71.058155,"lat":48.394185,"orig":"","vertexType":"NORMAL"},"itineraries":[{"duration":1557,"startTime":1522700211000,"endTime":1522701768000,"walkTime":327,"transitTime":1228,"waitingTime":2,"walkDistance":401.7502180406851,"walkLimitExceeded":false,"elevationLost":0.0,"elevationGained":0.0,"transfers":0,"legs":[{"startTime":1522700211000,"endTime":1522700422000,"departureDelay":0,"arrivalDelay":0,"realTime":false,"distance":256.03600000000006,"pathway":false,"mode":"WALK","route":"","agencyTimeZoneOffset":-14400000,"interlineWithPreviousLeg":false,"from":{"name":"Origin","lon":-71.052406,"lat":48.423148,"departure":1522700211000,"orig":"","vertexType":"NORMAL"},"to":{"name":"Cégep de Chicoutimi (voie réservée)","stopId":"1:75","stopCode":"75","lon":-71.055283,"lat":48.422761,"arrival":1522700422000,"departure":1522700423000,"zoneId":"NA","stopIndex":6,"stopSequence":7,"vertexType":"TRANSIT"},"legGeometry":{"points":"qspfHpltpL?n@CVWrBOpAP`AN`ANnCJAZELAFh@","length":12},"rentedBike":false,"transitLeg":false,"duration":211.0,"steps":[{"distance":239.42900000000003,"relativeDirection":"DEPART","streetName":"service road","absoluteDirection":"WEST","stayOn":false,"area":false,"bogusName":false,"lon":-71.05240568397582,"lat":48.423135724671475,"elevation":[]},{"distance":16.607,"relativeDirection":"RIGHT","streetName":"Chemin Saint Thomas","absoluteDirection":"WEST","stayOn":false,"area":false,"bogusName":false,"lon":-71.0550802,"lat":48.4228351,"elevation":[]}]},{"startTime":1522700423000,"endTime":1522701651000,"departureDelay":0,"arrivalDelay":0,"realTime":false,"distance":6640.677265877705,"pathway":false,"mode":"BUS","route":"15","agencyName":"Société de Transport du Saguenay","agencyUrl":"http://ville.saguenay.ca/fr/services-aux-citoyens/transport-sts","agencyTimeZoneOffset":-14400000,"routeColor":"FF00FF","routeType":3,"routeId":"1:15","routeTextColor":"FFFFFF","interlineWithPreviousLeg":false,"tripBlockId":"33","headsign":"Talbot / Barrette","agencyId":"0","tripId":"1:218191","serviceDate":"20180402","from":{"name":"Cégep de Chicoutimi (voie réservée)","stopId":"1:75","stopCode":"75","lon":-71.055283,"lat":48.422761,"arrival":1522700422000,"departure":1522700423000,"zoneId":"NA","stopIndex":6,"stopSequence":7,"vertexType":"TRANSIT"},"to":{"name":"Roitelets / Colombes","stopId":"1:1544","stopCode":"1544","lon":-71.059204,"lat":48.393412,"arrival":1522701651000,"departure":1522701652000,"zoneId":"NA","stopIndex":32,"stopSequence":33,"vertexType":"TRANSIT"},"legGeometry":{"points":"{qpfHv~tpL_@uF|DyL|DpDQ|@|@z@bA`ATw@dD~Ch@fA@`E~AjGuH`Iy@bBi@dCbEdEjJlJ`HbHlJpJ|J~JdAfALzDNzDrAdBrEKvBEbCv@d@TvFlC|DlBpMlGrB`AM}@hAwEC{B]oBiBmBsH_@_K{H`EgIvCaGfEoItDsH~DeItC{FnBoLbCaO?qLa@uJzF`ApF~@~@PzAgEeDcBf@qAWcKUqEx@Ef@ExDVjDxAFBrBvAfGjG@BjCzC~DxC@@zA~Cb@fCJlC?BsBre@?D","length":74},"routeShortName":"15","routeLongName":"Term. Chic / Costco","rentedBike":false,"transitLeg":true,"duration":1228.0,"steps":[]},{"startTime":1522701652000,"endTime":1522701768000,"departureDelay":0,"arrivalDelay":0,"realTime":false,"distance":145.577,"pathway":false,"mode":"WALK","route":"","agencyTimeZoneOffset":-14400000,"interlineWithPreviousLeg":false,"from":{"name":"Roitelets / Colombes","stopId":"1:1544","stopCode":"1544","lon":-71.059204,"lat":48.393412,"arrival":1522701651000,"departure":1522701652000,"zoneId":"NA","stopIndex":32,"stopSequence":33,"vertexType":"TRANSIT"},"to":{"name":"Destination","lon":-71.058155,"lat":48.394185,"arrival":1522701768000,"orig":"","vertexType":"NORMAL"},"legGeometry":{"points":"czjfH~vupLLcDI?{@[QOS_@OOEG","length":8},"rentedBike":false,"transitLeg":false,"duration":116.0,"steps":[{"distance":61.277,"relativeDirection":"DEPART","streetName":"bike path","absoluteDirection":"EAST","stayOn":false,"area":false,"bogusName":true,"lon":-71.05919409957978,"lat":48.39346222328547,"elevation":[]},{"distance":6.238,"relativeDirection":"LEFT","streetName":"Rue des Chouettes","absoluteDirection":"NORTH","stayOn":false,"area":false,"bogusName":false,"lon":-71.05837120000001,"lat":48.393390700000005,"elevation":[]},{"distance":78.062,"relativeDirection":"CONTINUE","streetName":"Rue des Hérons","absoluteDirection":"NORTH","stayOn":false,"area":false,"bogusName":false,"lon":-71.05837050000001,"lat":48.3934468,"elevation":[]}]}],"tooSloped":false},{"duration":1674,"startTime":1522700213000,"endTime":1522701887000,"walkTime":327,"transitTime":1345,"waitingTime":2,"walkDistance":401.7502180406851,"walkLimitExceeded":false,"elevationLost":0.0,"elevationGained":0.0,"transfers":0,"legs":[{"startTime":1522700213000,"endTime":1522700424000,"departureDelay":0,"arrivalDelay":0,"realTime":false,"distance":256.03600000000006,"pathway":false,"mode":"WALK","route":"","agencyTimeZoneOffset":-14400000,"interlineWithPreviousLeg":false,"from":{"name":"Origin","lon":-71.052406,"lat":48.423148,"departure":1522700213000,"orig":"","vertexType":"NORMAL"},"to":{"name":"Cégep de Chicoutimi (voie réservée)","stopId":"1:75","stopCode":"75","lon":-71.055283,"lat":48.422761,"arrival":1522700424000,"departure":1522700425000,"zoneId":"NA","stopIndex":6,"stopSequence":7,"vertexType":"TRANSIT"},"legGeometry":{"points":"qspfHpltpL?n@CVWrBOpAP`AN`ANnCJAZELAFh@","length":12},"rentedBike":false,"transitLeg":false,"duration":211.0,"steps":[{"distance":239.42900000000003,"relativeDirection":"DEPART","streetName":"service road","absoluteDirection":"WEST","stayOn":false,"area":false,"bogusName":false,"lon":-71.05240568397582,"lat":48.423135724671475,"elevation":[]},{"distance":16.607,"relativeDirection":"RIGHT","streetName":"Chemin Saint Thomas","absoluteDirection":"WEST","stayOn":false,"area":false,"bogusName":false,"lon":-71.0550802,"lat":48.4228351,"elevation":[]}]},{"startTime":1522700425000,"endTime":1522701660000,"departureDelay":0,"arrivalDelay":0,"realTime":false,"distance":8070.9803265143655,"pathway":false,"mode":"BUS","route":"14","agencyName":"Société de Transport du Saguenay","agencyUrl":"http://ville.saguenay.ca/fr/services-aux-citoyens/transport-sts","agencyTimeZoneOffset":-14400000,"routeColor":"C0C000","routeType":3,"routeId":"1:14","routeTextColor":"000000","interlineWithPreviousLeg":false,"tripBlockId":"32","headsign":"Talbot / Barrette","agencyId":"0","tripId":"1:218166","serviceDate":"20180402","from":{"name":"Cégep de Chicoutimi (voie réservée)","stopId":"1:75","stopCode":"75","lon":-71.055283,"lat":48.422761,"arrival":1522700424000,"departure":1522700425000,"zoneId":"NA","stopIndex":6,"stopSequence":7,"vertexType":"TRANSIT"},"to":{"name":"Roitelets / Sapins","stopId":"1:1543","stopCode":"1543","lon":-71.069553,"lat":48.393375,"arrival":1522701660000,"departure":1522701660000,"zoneId":"NA","stopIndex":35,"stopSequence":36,"vertexType":"TRANSIT"},"legGeometry":{"points":"mqpfHr~tpLc@iEAm@bAcDTcAtA{DJI|AxAvAvAQv@~@z@dA`ATq@`E~DL`@E`Ex@hDd@`B}FtFaAzAm@xAe@jCa@nDiAbm@SpKM`H]vBhDVzCTcAvCO^bEbEzK`LfBeEtK`KhAdAnCbCvBpCNR~BxAxBf@z@h@vAz@z@{DrCoITTlElEtAnB`@l@pFrD@?fDr@XgAjFuR\\yADm@b@gFd@_B`A}@tEvJBDvC`FtJ|LLNlClC|@^hCYVExCjCb@d@vE`F`BhB?pHaBhRqAbLK~@qBxFqB|FcC~GyC\\aDkDcFsF~CgOtGm[j@oCvEoSl@_CxCmLjAeFpCeKrByHfAqCvH_SLa@","length":94},"routeShortName":"14","routeLongName":"Coopérative","rentedBike":false,"transitLeg":true,"duration":1235.0,"steps":[]},{"startTime":1522701660000,"endTime":1522701770000,"departureDelay":0,"arrivalDelay":0,"realTime":false,"distance":765.075271314322,"pathway":false,"mode":"BUS","route":"15","agencyName":"Société de Transport du Saguenay","agencyUrl":"http://ville.saguenay.ca/fr/services-aux-citoyens/transport-sts","agencyTimeZoneOffset":-14400000,"routeColor":"FF00FF","routeType":3,"routeId":"1:15","routeTextColor":"FFFFFF","interlineWithPreviousLeg":true,"tripBlockId":"32","headsign":"Terminus Chicoutimi","agencyId":"0","tripId":"1:218167","serviceDate":"20180402","from":{"name":"Roitelets / Sapins","stopId":"1:1543","stopCode":"1543","lon":-71.069553,"lat":48.393375,"arrival":1522701660000,"departure":1522701660000,"zoneId":"NA","stopIndex":0,"stopSequence":1,"vertexType":"TRANSIT"},"to":{"name":"Roitelets / Colombes","stopId":"1:1544","stopCode":"1544","lon":-71.059204,"lat":48.393412,"arrival":1522701770000,"departure":1522701771000,"zoneId":"NA","stopIndex":3,"stopSequence":4,"vertexType":"TRANSIT"},"legGeometry":{"points":"_zjfHfwwpLx@}BHa@NaADq@@y@Cy@I{@Ka@O[Sg@c@mAWwAMyA?EC]?wABuABmFB{@BmDFuH@i@F[FsC@c@","length":26},"routeShortName":"15","routeLongName":"Term. Chic / Costco","rentedBike":false,"transitLeg":true,"duration":110.0,"steps":[]},{"startTime":1522701771000,"endTime":1522701887000,"departureDelay":0,"arrivalDelay":0,"realTime":false,"distance":145.577,"pathway":false,"mode":"WALK","route":"","agencyTimeZoneOffset":-14400000,"interlineWithPreviousLeg":false,"from":{"name":"Roitelets / Colombes","stopId":"1:1544","stopCode":"1544","lon":-71.059204,"lat":48.393412,"arrival":1522701770000,"departure":1522701771000,"zoneId":"NA","stopIndex":3,"stopSequence":4,"vertexType":"TRANSIT"},"to":{"name":"Destination","lon":-71.058155,"lat":48.394185,"arrival":1522701887000,"orig":"","vertexType":"NORMAL"},"legGeometry":{"points":"czjfH~vupLLcDI?{@[QOS_@OOEG","length":8},"rentedBike":false,"transitLeg":false,"duration":116.0,"steps":[{"distance":61.277,"relativeDirection":"DEPART","streetName":"bike path","absoluteDirection":"EAST","stayOn":false,"area":false,"bogusName":true,"lon":-71.05919409957978,"lat":48.39346222328547,"elevation":[]},{"distance":6.238,"relativeDirection":"LEFT","streetName":"Rue des Chouettes","absoluteDirection":"NORTH","stayOn":false,"area":false,"bogusName":false,"lon":-71.05837120000001,"lat":48.393390700000005,"elevation":[]},{"distance":78.062,"relativeDirection":"CONTINUE","streetName":"Rue des Hérons","absoluteDirection":"NORTH","stayOn":false,"area":false,"bogusName":false,"lon":-71.05837050000001,"lat":48.3934468,"elevation":[]}]}],"tooSloped":false},{"duration":1557,"startTime":1522702011000,"endTime":1522703568000,"walkTime":327,"transitTime":1228,"waitingTime":2,"walkDistance":401.7502180406851,"walkLimitExceeded":false,"elevationLost":0.0,"elevationGained":0.0,"transfers":0,"legs":[{"startTime":1522702011000,"endTime":1522702222000,"departureDelay":0,"arrivalDelay":0,"realTime":false,"distance":256.03600000000006,"pathway":false,"mode":"WALK","route":"","agencyTimeZoneOffset":-14400000,"interlineWithPreviousLeg":false,"from":{"name":"Origin","lon":-71.052406,"lat":48.423148,"departure":1522702011000,"orig":"","vertexType":"NORMAL"},"to":{"name":"Cégep de Chicoutimi (voie réservée)","stopId":"1:75","stopCode":"75","lon":-71.055283,"lat":48.422761,"arrival":1522702222000,"departure":1522702223000,"zoneId":"NA","stopIndex":6,"stopSequence":7,"vertexType":"TRANSIT"},"legGeometry":{"points":"qspfHpltpL?n@CVWrBOpAP`AN`ANnCJAZELAFh@","length":12},"rentedBike":false,"transitLeg":false,"duration":211.0,"steps":[{"distance":239.42900000000003,"relativeDirection":"DEPART","streetName":"service road","absoluteDirection":"WEST","stayOn":false,"area":false,"bogusName":false,"lon":-71.05240568397582,"lat":48.423135724671475,"elevation":[]},{"distance":16.607,"relativeDirection":"RIGHT","streetName":"Chemin Saint Thomas","absoluteDirection":"WEST","stayOn":false,"area":false,"bogusName":false,"lon":-71.0550802,"lat":48.4228351,"elevation":[]}]},{"startTime":1522702223000,"endTime":1522703451000,"departureDelay":0,"arrivalDelay":0,"realTime":false,"distance":6640.677265877705,"pathway":false,"mode":"BUS","route":"15","agencyName":"Société de Transport du Saguenay","agencyUrl":"http://ville.saguenay.ca/fr/services-aux-citoyens/transport-sts","agencyTimeZoneOffset":-14400000,"routeColor":"FF00FF","routeType":3,"routeId":"1:15","routeTextColor":"FFFFFF","interlineWithPreviousLeg":false,"tripBlockId":"31","headsign":"Talbot / Barrette","agencyId":"0","tripId":"1:218142","serviceDate":"20180402","from":{"name":"Cégep de Chicoutimi (voie réservée)","stopId":"1:75","stopCode":"75","lon":-71.055283,"lat":48.422761,"arrival":1522702222000,"departure":1522702223000,"zoneId":"NA","stopIndex":6,"stopSequence":7,"vertexType":"TRANSIT"},"to":{"name":"Roitelets / Colombes","stopId":"1:1544","stopCode":"1544","lon":-71.059204,"lat":48.393412,"arrival":1522703451000,"departure":1522703452000,"zoneId":"NA","stopIndex":32,"stopSequence":33,"vertexType":"TRANSIT"},"legGeometry":{"points":"{qpfHv~tpL_@uF|DyL|DpDQ|@|@z@bA`ATw@dD~Ch@fA@`E~AjGuH`Iy@bBi@dCbEdEjJlJ`HbHlJpJ|J~JdAfALzDNzDrAdBrEKvBEbCv@d@TvFlC|DlBpMlGrB`AM}@hAwEC{B]oBiBmBsH_@_K{H`EgIvCaGfEoItDsH~DeItC{FnBoLbCaO?qLa@uJzF`ApF~@~@PzAgEeDcBf@qAWcKUqEx@Ef@ExDVjDxAFBrBvAfGjG@BjCzC~DxC@@zA~Cb@fCJlC?BsBre@?D","length":74},"routeShortName":"15","routeLongName":"Term. Chic / Costco","rentedBike":false,"transitLeg":true,"duration":1228.0,"steps":[]},{"startTime":1522703452000,"endTime":1522703568000,"departureDelay":0,"arrivalDelay":0,"realTime":false,"distance":145.577,"pathway":false,"mode":"WALK","route":"","agencyTimeZoneOffset":-14400000,"interlineWithPreviousLeg":false,"from":{"name":"Roitelets / Colombes","stopId":"1:1544","stopCode":"1544","lon":-71.059204,"lat":48.393412,"arrival":1522703451000,"departure":1522703452000,"zoneId":"NA","stopIndex":32,"stopSequence":33,"vertexType":"TRANSIT"},"to":{"name":"Destination","lon":-71.058155,"lat":48.394185,"arrival":1522703568000,"orig":"","vertexType":"NORMAL"},"legGeometry":{"points":"czjfH~vupLLcDI?{@[QOS_@OOEG","length":8},"rentedBike":false,"transitLeg":false,"duration":116.0,"steps":[{"distance":61.277,"relativeDirection":"DEPART","streetName":"bike path","absoluteDirection":"EAST","stayOn":false,"area":false,"bogusName":true,"lon":-71.05919409957978,"lat":48.39346222328547,"elevation":[]},{"distance":6.238,"relativeDirection":"LEFT","streetName":"Rue des Chouettes","absoluteDirection":"NORTH","stayOn":false,"area":false,"bogusName":false,"lon":-71.05837120000001,"lat":48.393390700000005,"elevation":[]},{"distance":78.062,"relativeDirection":"CONTINUE","streetName":"Rue des Hérons","absoluteDirection":"NORTH","stayOn":false,"area":false,"bogusName":false,"lon":-71.05837050000001,"lat":48.3934468,"elevation":[]}]}],"tooSloped":false}]},"debugOutput":{"precalculationTime":27,"pathCalculationTime":29,"pathTimes":[17,5,7],"renderingTime":0,"totalTime":56,"timedOut":false},"elevationMetadata":{"ellipsoidToGeoidDifference":-28.885904201182168,"geoidElevation":false}}