{"requestParameters":{"date":"2018/04/02","walkSpeed":"1.33","walkReluctance":"2.0","fromPlace":"48.395985,-71.052462","maxWalkDistance":"3000","waitReluctance":"1.0","carSpeed":"33","numItineraries":"3","waitAtBeginningFactor":"0.4","mode":"TRANSIT,WALK","ignoreRealtimeUpdates":"false","stairsReluctance":"2.0","toPlace":"48.423148,-71.052406","time":"7:45:00"},"plan":{"date":1522669500000,"from":{"name":"Origin","lon":-71.052462,"lat":48.395985,"orig":"","vertexType":"NORMAL"},"to":{"name":"Destination","lon":-71.052406,"lat":48.423148,"orig":"","vertexType":"NORMAL"},"itineraries":[{"duration":1580,"startTime":1522669755000,"endTime":1522671335000,"walkTime":1274,"transitTime":304,"waitingTime":2,"walkDistance":1640.168661648822,"walkLimitExceeded":false,"elevationLost":0.0,"elevationGained":0.0,"transfers":0,"legs":[{"startTime":1522669755000,"endTime":1522670819000,"departureDelay":0,"arrivalDelay":0,"realTime":false,"distance":1383.968,"pathway":false,"mode":"WALK","route":"","agencyTimeZoneOffset":-14400000,"interlineWithPreviousLeg":false,"from":{"name":"Origin","lon":-71.052462,"lat":48.395985,"departure":1522669755000,"orig":"","vertexType":"NORMAL"},"to":{"name":"Place du Royaume (Champs-Élysées)","stopId":"1:193","stopCode":"193","lon":-71.052659,"lat":48.407065,"arrival":1522670819000,"departure":1522670820000,"zoneId":"NA","stopIndex":28,"stopSequence":29,"vertexType":"TRANSIT"},"legGeometry":{"points":"oikfHhntpLA?{DnH_@m@e@q@qC{CMMeBgBmByBm@o@SOCAuA}@}A[s@EA?}@Eg@E}ANq@TUF_@JkEhAsBl@OFe@L_@DgA?uAK}@M}@Cq@Dm@Pu@\\cA`AgAtA","length":36},"rentedBike":false,"transitLeg":false,"duration":1064.0,"steps":[{"distance":153.373,"relativeDirection":"DEPART","streetName":"Rue des Crécerelles","absoluteDirection":"NORTHWEST","stayOn":false,"area":false,"bogusName":false,"lon":-71.0526838759271,"lat":48.39592978021373,"elevation":[]},{"distance":640.1109999999999,"relativeDirection":"RIGHT","streetName":"Rue des Engoulevents","absoluteDirection":"NORTHEAST","stayOn":false,"area":false,"bogusName":false,"lon":-71.0542028,"lat":48.3968707,"elevation":[]},{"distance":590.4839999999999,"relativeDirection":"CONTINUE","streetName":"Rue des Champs-Élysées","absoluteDirection":"NORTH","stayOn":false,"area":false,"bogusName":false,"lon":-71.0511074,"lat":48.401948700000005,"elevation":[]}]},{"startTime":1522670820000,"endTime":1522671124000,"departureDelay":0,"arrivalDelay":0,"realTime":false,"distance":2405.4713113591724,"pathway":false,"mode":"BUS","route":"12","agencyName":"Société de Transport du Saguenay","agencyUrl":"http://ville.saguenay.ca/fr/services-aux-citoyens/transport-sts","agencyTimeZoneOffset":-14400000,"routeColor":"556B2F","routeType":3,"routeId":"1:12","routeTextColor":"FFFFFF","interlineWithPreviousLeg":false,"tripBlockId":"27","headsign":"Terminus UQAC","agencyId":"0","tripId":"1:218002","serviceDate":"20180402","from":{"name":"Place du Royaume (Champs-Élysées)","stopId":"1:193","stopCode":"193","lon":-71.052659,"lat":48.407065,"arrival":1522670819000,"departure":1522670820000,"zoneId":"NA","stopIndex":28,"stopSequence":29,"vertexType":"TRANSIT"},"to":{"name":"Cégep de Chicoutimi (voie réservée)","stopId":"1:75","stopCode":"75","lon":-71.055283,"lat":48.422761,"arrival":1522671124000,"departure":1522671125000,"zoneId":"NA","stopIndex":37,"stopSequence":38,"vertexType":"TRANSIT"},"legGeometry":{"points":"comfHbntpLcP~b@iHhDaGz@uSl[uCYmIeIeJ_J{J{JwCiT","length":10},"routeShortName":"12","routeLongName":"Rivière du Moulin","rentedBike":false,"transitLeg":true,"duration":304.0,"steps":[]},{"startTime":1522671125000,"endTime":1522671335000,"departureDelay":0,"arrivalDelay":0,"realTime":false,"distance":256.036,"pathway":false,"mode":"WALK","route":"","agencyTimeZoneOffset":-14400000,"interlineWithPreviousLeg":false,"from":{"name":"Cégep de Chicoutimi (voie réservée)","stopId":"1:75","stopCode":"75","lon":-71.055283,"lat":48.422761,"arrival":1522671124000,"departure":1522671125000,"zoneId":"NA","stopIndex":37,"stopSequence":38,"vertexType":"TRANSIT"},"to":{"name":"Destination","lon":-71.052406,"lat":48.423148,"arrival":1522671335000,"orig":"","vertexType":"NORMAL"},"legGeometry":{"points":"mqpfHr~tpLGi@M@[DK@OoCOaAQaANqAVsBBW?o@","length":12},"rentedBike":false,"transitLeg":false,"duration":210.0,"steps":[{"distance":16.607,"relativeDirection":"DEPART","streetName":"Chemin Saint Thomas","absoluteDirection":"EAST","stayOn":false,"area":false,"bogusName":false,"lon":-71.05529730066766,"lat":48.42279572871795,"elevation":[]},{"distance":239.42899999999997,"relativeDirection":"LEFT","streetName":"service road","absoluteDirection":"NORTH","stayOn":false,"area":false,"bogusName":true,"lon":-71.0550802,"lat":48.4228351,"elevation":[]}]}],"tooSloped":false},{"duration":1549,"startTime":1522670067000,"endTime":1522671616000,"walkTime":972,"transitTime":575,"waitingTime":2,"walkDistance":1258.1071879658855,"walkLimitExceeded":false,"elevationLost":0.0,"elevationGained":0.0,"transfers":0,"legs":[{"startTime":1522670067000,"endTime":1522670858000,"departureDelay":0,"arrivalDelay":0,"realTime":false,"distance":1028.094,"pathway":false,"mode":"WALK","route":"","agencyTimeZoneOffset":-14400000,"interlineWithPreviousLeg":false,"from":{"name":"Origin","lon":-71.052462,"lat":48.395985,"departure":1522670067000,"orig":"","vertexType":"NORMAL"},"to":{"name":"boul. Talbot / Laurentides","stopId":"1:51","stopCode":"51","lon":-71.063914,"lat":48.398861,"arrival":1522670858000,"departure":1522670859000,"zoneId":"NA","stopIndex":9,"stopSequence":10,"vertexType":"TRANSIT"},"legGeometry":{"points":"oikfHhntpLA?{DnHoBhFUl@sCpHk@xAO`@??}A`Eo@`BIVO^d@zCJ|@VbCErCm@rBUn@_@fAdB~BV\\FH","length":23},"rentedBike":false,"transitLeg":false,"duration":791.0,"steps":[{"distance":636.03,"relativeDirection":"DEPART","streetName":"Rue des Crécerelles","absoluteDirection":"NORTHWEST","stayOn":false,"area":false,"bogusName":false,"lon":-71.0526838759271,"lat":48.39592978021373,"elevation":[]},{"distance":85.619,"relativeDirection":"LEFT","streetName":"Rue des Grands-Ducs","absoluteDirection":"WEST","stayOn":false,"area":false,"bogusName":false,"lon":-71.05949000000001,"lat":48.3994237,"elevation":[]},{"distance":208.717,"relativeDirection":"CONTINUE","streetName":"path","absoluteDirection":"WEST","stayOn":false,"area":false,"bogusName":true,"lon":-71.0605886,"lat":48.3991787,"elevation":[]},{"distance":97.728,"relativeDirection":"LEFT","streetName":"Boulevard Talbot","absoluteDirection":"SOUTHWEST","stayOn":false,"area":false,"bogusName":false,"lon":-71.0631635,"lat":48.399589600000006,"elevation":[]}]},{"startTime":1522670859000,"endTime":1522671434000,"departureDelay":0,"arrivalDelay":0,"realTime":false,"distance":3121.55324673906,"pathway":false,"mode":"BUS","route":"175","agencyName":"Société de Transport du Saguenay","agencyUrl":"http://ville.saguenay.ca/fr/services-aux-citoyens/transport-sts","agencyTimeZoneOffset":-14400000,"routeColor":"FF00FF","routeType":3,"routeId":"1:175","routeTextColor":"FFFFFF","interlineWithPreviousLeg":false,"tripBlockId":"76","headsign":"Terminus Chicoutimi","agencyId":"0","tripId":"1:218631","serviceDate":"20180402","from":{"name":"boul. Talbot / Laurentides","stopId":"1:51","stopCode":"51","lon":-71.063914,"lat":48.398861,"arrival":1522670858000,"departure":1522670859000,"zoneId":"NA","stopIndex":9,"stopSequence":10,"vertexType":"TRANSIT"},"to":{"name":"Cégep de Chicoutimi (voie réservée)","stopId":"1:65","stopCode":"65","lon":-71.054799,"lat":48.423007,"arrival":1522671434000,"departure":1522671435000,"zoneId":"NA","stopIndex":16,"stopSequence":17,"vertexType":"TRANSIT"},"legGeometry":{"points":"q|kfHtuvpL}FkImPkOuO{N_U_TcNgNcBcB{E`Jc@x@qG~@{BlAk@XgSrQqB_GAeFiEeEOt@gAeA_A_ATm@yAwAgBeBqDnL@nBF`@","length":25},"routeShortName":"175","routeLongName":"Term. Chic / Costco","rentedBike":false,"transitLeg":true,"duration":575.0,"steps":[]},{"startTime":1522671435000,"endTime":1522671616000,"departureDelay":0,"arrivalDelay":0,"realTime":false,"distance":229.88799999999998,"pathway":false,"mode":"WALK","route":"","agencyTimeZoneOffset":-14400000,"interlineWithPreviousLeg":false,"from":{"name":"Cégep de Chicoutimi (voie réservée)","stopId":"1:65","stopCode":"65","lon":-71.054799,"lat":48.423007,"arrival":1522671434000,"departure":1522671435000,"zoneId":"NA","stopIndex":16,"stopSequence":17,"vertexType":"TRANSIT"},"to":{"name":"Destination","lon":-71.052406,"lat":48.423148,"arrival":1522671616000,"orig":"","vertexType":"NORMAL"},"legGeometry":{"points":"srpfHl{tpLCSIo@A{@Tu@^iA_B_@VsBBW?o@","length":10},"rentedBike":false,"transitLeg":false,"duration":181.0,"steps":[{"distance":104.179,"relativeDirection":"DEPART","streetName":"bike path","absoluteDirection":"EAST","stayOn":false,"area":false,"bogusName":true,"lon":-71.0547862499772,"lat":48.42298365091458,"elevation":[]},{"distance":54.189,"relativeDirection":"LEFT","streetName":"path","absoluteDirection":"NORTH","stayOn":true,"area":false,"bogusName":true,"lon":-71.053503,"lat":48.4227993,"elevation":[]},{"distance":71.52,"relativeDirection":"RIGHT","streetName":"service road","absoluteDirection":"EAST","stayOn":false,"area":false,"bogusName":false,"lon":-71.05334280000001,"lat":48.4232749,"elevation":[]}]}],"tooSloped":false},{"duration":1477,"startTime":1522671039000,"endTime":1522672516000,"walkTime":568,"transitTime":907,"waitingTime":2,"walkDistance":733.4553458618109,"walkLimitExceeded":false,"elevationLost":0.0,"elevationGained":0.0,"transfers":0,"legs":[{"startTime":1522671039000,"endTime":1522671426000,"departureDelay":0,"arrivalDelay":0,"realTime":false,"distance":503.479,"pathway":false,"mode":"WALK","route":"","agencyTimeZoneOffset":-14400000,"interlineWithPreviousLeg":false,"from":{"name":"Origin","lon":-71.052462,"lat":48.395985,"departure":1522671039000,"orig":"","vertexType":"NORMAL"},"to":{"name":"Engoulevents / Bernaches","stopId":"1:1509","stopCode":"1509","lon":-71.051416,"lat":48.399414,"arrival":1522671426000,"departure":1522671427000,"zoneId":"NA","stopIndex":9,"stopSequence":10,"vertexType":"TRANSIT"},"legGeometry":{"points":"oikfHhntpLA?{DnH_@m@e@q@qC{CMMeBgBmByBm@o@SO","length":11},"rentedBike":false,"transitLeg":false,"duration":387.0,"steps":[{"distance":153.373,"relativeDirection":"DEPART","streetName":"Rue des Crécerelles","absoluteDirection":"NORTHWEST","stayOn":false,"area":false,"bogusName":false,"lon":-71.0526838759271,"lat":48.39592978021373,"elevation":[]},{"distance":350.106,"relativeDirection":"RIGHT","streetName":"Rue des Engoulevents","absoluteDirection":"NORTHEAST","stayOn":false,"area":false,"bogusName":false,"lon":-71.0542028,"lat":48.3968707,"elevation":[]}]},{"startTime":1522671427000,"endTime":1522672334000,"departureDelay":0,"arrivalDelay":0,"realTime":false,"distance":5106.077382846306,"pathway":false,"mode":"BUS","route":"15","agencyName":"Société de Transport du Saguenay","agencyUrl":"http://ville.saguenay.ca/fr/services-aux-citoyens/transport-sts","agencyTimeZoneOffset":-14400000,"routeColor":"FF00FF","routeType":3,"routeId":"1:15","routeTextColor":"FFFFFF","interlineWithPreviousLeg":false,"tripBlockId":"30","headsign":"Terminus Chicoutimi","agencyId":"0","tripId":"1:218090","serviceDate":"20180402","from":{"name":"Engoulevents / Bernaches","stopId":"1:1509","stopCode":"1509","lon":-71.051416,"lat":48.399414,"arrival":1522671426000,"departure":1522671427000,"zoneId":"NA","stopIndex":9,"stopSequence":10,"vertexType":"TRANSIT"},"to":{"name":"Cégep de Chicoutimi (voie réservée)","stopId":"1:65","stopCode":"65","lon":-71.054799,"lat":48.423007,"arrival":1522672334000,"departure":1522672335000,"zoneId":"NA","stopIndex":31,"stopSequence":32,"vertexType":"TRANSIT"},"legGeometry":{"points":"g_lfHdftpLy@q@sDy@GAeGT~@~KKrKyAnL[hBUxAm@nCcAlDeCvGmA|CUr@}@~A_@\\_DvCEZcA|@UP_@d@Yl@oBdFeCxG_CfGYVQXS\\dK|HlFZbC\\p@zA\\rB@hBiArG{BNw@FiG}@iDwAECcCcBo@y@sEeGe@o@qAa@m@MoB?C@}BZwAc@oA_Bs@gDCKZ{Di@QECc@_@sAkAoBwB_EcE{A_BoAmAk@o@cCaCkIkIaJaJUUwBaCj@wCjAsCzGoG_CoHL{D_@kAqD{CQr@iAcAy@w@L{@wAuA_B_B_EpLDh@NbB","length":85},"routeShortName":"15","routeLongName":"Term. Chic / Costco","rentedBike":false,"transitLeg":true,"duration":907.0,"steps":[]},{"startTime":1522672335000,"endTime":1522672516000,"departureDelay":0,"arrivalDelay":0,"realTime":false,"distance":229.88799999999998,"pathway":false,"mode":"WALK","route":"","agencyTimeZoneOffset":-14400000,"interlineWithPreviousLeg":false,"from":{"name":"Cégep de Chicoutimi (voie réservée)","stopId":"1:65","stopCode":"65","lon":-71.054799,"lat":48.423007,"arrival":1522672334000,"departure":1522672335000,"zoneId":"NA","stopIndex":31,"stopSequence":32,"vertexType":"TRANSIT"},"to":{"name":"Destination","lon":-71.052406,"lat":48.423148,"arrival":1522672516000,"orig":"","vertexType":"NORMAL"},"legGeometry":{"points":"srpfHl{tpLCSIo@A{@Tu@^iA_B_@VsBBW?o@","length":10},"rentedBike":false,"transitLeg":false,"duration":181.0,"steps":[{"distance":104.179,"relativeDirection":"DEPART","streetName":"bike path","absoluteDirection":"EAST","stayOn":false,"area":false,"bogusName":true,"lon":-71.0547862499772,"lat":48.42298365091458,"elevation":[]},{"distance":54.189,"relativeDirection":"LEFT","streetName":"path","absoluteDirection":"NORTH","stayOn":true,"area":false,"bogusName":true,"lon":-71.053503,"lat":48.4227993,"elevation":[]},{"distance":71.52,"relativeDirection":"RIGHT","streetName":"service road","absoluteDirection":"EAST","stayOn":false,"area":false,"bogusName":false,"lon":-71.05334280000001,"lat":48.4232749,"elevation":[]}]}],"tooSloped":false}]},"debugOutput":{"precalculationTime":33,"pathCalculationTime":29,"pathTimes":[18,6,5],"renderingTime":1,"totalTime":63,"timedOut":false},"elevationMetadata":{"ellipsoidToGeoidDifference":-28.885904201182168,"geoidElevation":false}}