{"requestParameters":{"date":"2018/04/02","walkSpeed":"1.33","walkReluctance":"2.0","fromPlace":"48.39287,-71.051051","maxWalkDistance":"3000","waitReluctance":"1.0","carSpeed":"33","numItineraries":"3","waitAtBeginningFactor":"0.4","mode":"TRANSIT,WALK","ignoreRealtimeUpdates":"false","stairsReluctance":"2.0","toPlace":"48.382739,-71.086723","time":"12:0:00"},"plan":{"date":1522684800000,"from":{"name":"Origin","lon":-71.051051,"lat":48.39287,"orig":"","vertexType":"NORMAL"},"to":{"name":"Destination","lon":-71.086723,"lat":48.382739,"orig":"","vertexType":"NORMAL"},"itineraries":[{"duration":1321,"startTime":1522685294000,"endTime":1522686615000,"walkTime":488,"transitTime":486,"waitingTime":347,"walkDistance":621.23746616101,"walkLimitExceeded":false,"elevationLost":0.0,"elevationGained":0.0,"transfers":1,"legs":[{"startTime":1522685294000,"endTime":1522685393000,"departureDelay":0,"arrivalDelay":0,"realTime":false,"distance":127.226,"pathway":false,"mode":"WALK","route":"","agencyTimeZoneOffset":-14400000,"interlineWithPreviousLeg":false,"from":{"name":"Origin","lon":-71.051051,"lat":48.39287,"departure":1522685294000,"orig":"","vertexType":"NORMAL"},"to":{"name":"Résidence Villa du Saguenay (Roitelets)","stopId":"1:1546","stopCode":"1546","lon":-71.050627,"lat":48.393589,"arrival":1522685393000,"departure":1522685394000,"zoneId":"NA","stopIndex":30,"stopSequence":31,"vertexType":"TRANSIT"},"legGeometry":{"points":"{ujfHvetpL_Ap@c@aA]w@g@q@","length":5},"rentedBike":false,"transitLeg":false,"duration":99.0,"steps":[{"distance":40.829,"relativeDirection":"DEPART","streetName":"Rue des Pigeons","absoluteDirection":"NORTHWEST","stayOn":false,"area":false,"bogusName":false,"lon":-71.0513151524744,"lat":48.39278143143661,"elevation":[]},{"distance":86.397,"relativeDirection":"RIGHT","streetName":"bike path","absoluteDirection":"NORTHEAST","stayOn":false,"area":false,"bogusName":true,"lon":-71.0515644,"lat":48.393109200000005,"elevation":[]}]},{"startTime":1522685394000,"endTime":1522685520000,"departureDelay":0,"arrivalDelay":0,"realTime":false,"distance":1417.6790644138778,"pathway":false,"mode":"BUS","route":"15","agencyName":"Société de Transport du Saguenay","agencyUrl":"http://ville.saguenay.ca/fr/services-aux-citoyens/transport-sts","agencyTimeZoneOffset":-14400000,"routeColor":"FF00FF","routeType":3,"routeId":"1:15","routeTextColor":"FFFFFF","interlineWithPreviousLeg":false,"tripBlockId":"31","headsign":"Talbot / Barrette","agencyId":"0","tripId":"1:218132","serviceDate":"20180402","from":{"name":"Résidence Villa du Saguenay (Roitelets)","stopId":"1:1546","stopCode":"1546","lon":-71.050627,"lat":48.393589,"arrival":1522685393000,"departure":1522685394000,"zoneId":"NA","stopIndex":30,"stopSequence":31,"vertexType":"TRANSIT"},"to":{"name":"Roitelets / Sapins","stopId":"1:1543","stopCode":"1543","lon":-71.069553,"lat":48.393375,"arrival":1522685520000,"departure":1522685520000,"zoneId":"NA","stopIndex":35,"stopSequence":36,"vertexType":"TRANSIT"},"legGeometry":{"points":"e{jfHhbtpL@@zA~Cb@fCJlC?BsBre@?DWbOAn@?nEGnM@H\\hCzA~ELvAAlAi@jDo@nB","length":19},"routeShortName":"15","routeLongName":"Term. Chic / Costco","rentedBike":false,"transitLeg":true,"duration":126.0,"steps":[]},{"startTime":1522685520000,"endTime":1522685715000,"departureDelay":0,"arrivalDelay":0,"realTime":false,"distance":255.957,"pathway":false,"mode":"WALK","route":"","agencyTimeZoneOffset":-14400000,"interlineWithPreviousLeg":false,"from":{"name":"Roitelets / Sapins","stopId":"1:1543","stopCode":"1543","lon":-71.069553,"lat":48.393375,"arrival":1522685520000,"departure":1522685520000,"zoneId":"NA","stopIndex":35,"stopSequence":36,"vertexType":"TRANSIT"},"to":{"name":"boul. Talbot (no. 1870)","stopId":"1:1556","stopCode":"1556","lon":-71.069429,"lat":48.3951,"arrival":1522685715000,"departure":1522686060000,"zoneId":"NA","stopIndex":24,"stopSequence":25,"vertexType":"TRANSIT"},"legGeometry":{"points":"oyjfHxwwpL?@mAzCMHC@Qb@OOOQ_EyE","length":9},"rentedBike":false,"transitLeg":false,"duration":195.0,"steps":[{"distance":84.014,"relativeDirection":"DEPART","streetName":"bike path","absoluteDirection":"NORTHWEST","stayOn":false,"area":false,"bogusName":true,"lon":-71.0695674967601,"lat":48.39336056343373,"elevation":[]},{"distance":16.674,"relativeDirection":"SLIGHTLY_LEFT","streetName":"Boulevard Barrette","absoluteDirection":"NORTHWEST","stayOn":false,"area":false,"bogusName":false,"lon":-71.07041720000001,"lat":48.393846,"elevation":[]},{"distance":155.26899999999998,"relativeDirection":"RIGHT","streetName":"Boulevard Talbot","absoluteDirection":"NORTHEAST","stayOn":false,"area":false,"bogusName":false,"lon":-71.0705975,"lat":48.3939363,"elevation":[]}]},{"startTime":1522686060000,"endTime":1522686420000,"departureDelay":0,"arrivalDelay":0,"realTime":false,"distance":1955.623156368476,"pathway":false,"mode":"BUS","route":"175","agencyName":"Société de Transport du Saguenay","agencyUrl":"http://ville.saguenay.ca/fr/services-aux-citoyens/transport-sts","agencyTimeZoneOffset":-14400000,"routeColor":"FF00FF","routeType":3,"routeId":"1:175","routeTextColor":"FFFFFF","interlineWithPreviousLeg":false,"tripBlockId":"78","headsign":"Costco","agencyId":"0","tripId":"1:218643","serviceDate":"20180402","from":{"name":"boul. Talbot (no. 1870)","stopId":"1:1556","stopCode":"1556","lon":-71.069429,"lat":48.3951,"arrival":1522685715000,"departure":1522686060000,"zoneId":"NA","stopIndex":24,"stopSequence":25,"vertexType":"TRANSIT"},"to":{"name":"COSTCO","stopId":"1:1710","stopCode":"1710","lon":-71.085767,"lat":48.382333,"arrival":1522686420000,"departure":1522686421000,"zoneId":"NA","stopIndex":30,"stopSequence":31,"vertexType":"TRANSIT"},"legGeometry":{"points":"_dkfHhvwpLlXv[b@f@mCtHv@v@p@r@_@p@uAcBjDoJhAzApBrBrFvGjDdEbD|DZb@~DrEbDfDrA~ApLbNpG|GyCtHwBcC","length":22},"routeShortName":"175","routeLongName":"Term. Chic / Costco","rentedBike":false,"transitLeg":true,"duration":360.0,"steps":[]},{"startTime":1522686421000,"endTime":1522686615000,"departureDelay":0,"arrivalDelay":0,"realTime":false,"distance":237.918,"pathway":false,"mode":"WALK","route":"","agencyTimeZoneOffset":-14400000,"interlineWithPreviousLeg":false,"from":{"name":"COSTCO","stopId":"1:1710","stopCode":"1710","lon":-71.085767,"lat":48.382333,"arrival":1522686420000,"departure":1522686421000,"zoneId":"NA","stopIndex":30,"stopSequence":31,"vertexType":"TRANSIT"},"to":{"name":"Destination","lon":-71.086723,"lat":48.382739,"arrival":1522686615000,"orig":"","vertexType":"NORMAL"},"legGeometry":{"points":"uthfHh}zpLtB`CoA~Ca@e@Q[Mu@[j@","length":7},"rentedBike":false,"transitLeg":false,"duration":194.0,"steps":[{"distance":81.226,"relativeDirection":"DEPART","streetName":"service road","absoluteDirection":"SOUTHWEST","stayOn":false,"area":false,"bogusName":true,"lon":-71.08580460382532,"lat":48.38235152300571,"elevation":[]},{"distance":73.854,"relativeDirection":"RIGHT","streetName":"Boulevard du Royaume Ouest","absoluteDirection":"NORTHWEST","stayOn":false,"area":false,"bogusName":false,"lon":-71.0864598,"lat":48.381764800000006,"elevation":[]},{"distance":82.838,"relativeDirection":"RIGHT","streetName":"service road","absoluteDirection":"NORTHEAST","stayOn":false,"area":false,"bogusName":true,"lon":-71.0872595,"lat":48.382163600000005,"elevation":[]}]}],"tooSloped":false},{"duration":1954,"startTime":1522685561000,"endTime":1522687515000,"walkTime":293,"transitTime":879,"waitingTime":782,"walkDistance":365.28046616101017,"walkLimitExceeded":false,"elevationLost":0.0,"elevationGained":0.0,"transfers":1,"legs":[{"startTime":1522685561000,"endTime":1522685660000,"departureDelay":0,"arrivalDelay":0,"realTime":false,"distance":127.226,"pathway":false,"mode":"WALK","route":"","agencyTimeZoneOffset":-14400000,"interlineWithPreviousLeg":false,"from":{"name":"Origin","lon":-71.051051,"lat":48.39287,"departure":1522685561000,"orig":"","vertexType":"NORMAL"},"to":{"name":"Résidence Villa du Saguenay (Roitelets)","stopId":"1:1546","stopCode":"1546","lon":-71.050627,"lat":48.393589,"arrival":1522685660000,"departure":1522685661000,"zoneId":"NA","stopIndex":5,"stopSequence":6,"vertexType":"TRANSIT"},"legGeometry":{"points":"{ujfHvetpL_Ap@c@aA]w@g@q@","length":5},"rentedBike":false,"transitLeg":false,"duration":99.0,"steps":[{"distance":40.829,"relativeDirection":"DEPART","streetName":"Rue des Pigeons","absoluteDirection":"NORTHWEST","stayOn":false,"area":false,"bogusName":false,"lon":-71.0513151524744,"lat":48.39278143143661,"elevation":[]},{"distance":86.397,"relativeDirection":"RIGHT","streetName":"bike path","absoluteDirection":"NORTHEAST","stayOn":false,"area":false,"bogusName":true,"lon":-71.0515644,"lat":48.393109200000005,"elevation":[]}]},{"startTime":1522685661000,"endTime":1522685940000,"departureDelay":0,"arrivalDelay":0,"realTime":false,"distance":1725.951954101275,"pathway":false,"mode":"BUS","route":"15","agencyName":"Société de Transport du Saguenay","agencyUrl":"http://ville.saguenay.ca/fr/services-aux-citoyens/transport-sts","agencyTimeZoneOffset":-14400000,"routeColor":"FF00FF","routeType":3,"routeId":"1:15","routeTextColor":"FFFFFF","interlineWithPreviousLeg":false,"tripBlockId":"30","headsign":"Terminus Chicoutimi","agencyId":"0","tripId":"1:218098","serviceDate":"20180402","from":{"name":"Résidence Villa du Saguenay (Roitelets)","stopId":"1:1546","stopCode":"1546","lon":-71.050627,"lat":48.393589,"arrival":1522685660000,"departure":1522685661000,"zoneId":"NA","stopIndex":5,"stopSequence":6,"vertexType":"TRANSIT"},"to":{"name":"Place du Royaume (Saguenéens)","stopId":"1:1294","stopCode":"1294","lon":-71.057691,"lat":48.402355,"arrival":1522685940000,"departure":1522686720000,"zoneId":"NA","stopIndex":11,"stopSequence":12,"vertexType":"TRANSIT"},"legGeometry":{"points":"i{jfHlbtpLUUeCqBiDsDqE{EiAcAcB_AqBgA_AQaBSaBG_@Bu@FG?h@fNKnDpCfBkAzDgA}@y@q@sDy@GAeGT~@~KKrKyAnL[hB","length":27},"routeShortName":"15","routeLongName":"Term. Chic / Costco","rentedBike":false,"transitLeg":true,"duration":279.0,"steps":[]},{"startTime":1522686720000,"endTime":1522687320000,"departureDelay":0,"arrivalDelay":0,"realTime":false,"distance":3199.058934954701,"pathway":false,"mode":"BUS","route":"175","agencyName":"Société de Transport du Saguenay","agencyUrl":"http://ville.saguenay.ca/fr/services-aux-citoyens/transport-sts","agencyTimeZoneOffset":-14400000,"routeColor":"FF00FF","routeType":3,"routeId":"1:175","routeTextColor":"FFFFFF","interlineWithPreviousLeg":false,"tripBlockId":"8","headsign":"Costco","agencyId":"0","tripId":"1:217368","serviceDate":"20180402","from":{"name":"Place du Royaume (Saguenéens)","stopId":"1:1294","stopCode":"1294","lon":-71.057691,"lat":48.402355,"arrival":1522685940000,"departure":1522686720000,"zoneId":"NA","stopIndex":20,"stopSequence":21,"vertexType":"TRANSIT"},"to":{"name":"COSTCO","stopId":"1:1710","stopCode":"1710","lon":-71.085767,"lat":48.382333,"arrival":1522687320000,"departure":1522687321000,"zoneId":"NA","stopIndex":30,"stopSequence":31,"vertexType":"TRANSIT"},"legGeometry":{"points":"eqlfHzmupLUxAm@nCcAlDM^RTfD`DjF`FjCrCrAvAbCfDjIfMdAzAfFpHd@n@nC`DlXv[b@f@mCtHv@v@p@r@_@p@uAcBjDoJhAzApBrBrFvGjDdEbD|DZb@~DrEbDfDrA~ApLbNpG|GyCtHwBcC","length":37},"routeShortName":"175","routeLongName":"Term. Chic / Costco","rentedBike":false,"transitLeg":true,"duration":600.0,"steps":[]},{"startTime":1522687321000,"endTime":1522687515000,"departureDelay":0,"arrivalDelay":0,"realTime":false,"distance":237.918,"pathway":false,"mode":"WALK","route":"","agencyTimeZoneOffset":-14400000,"interlineWithPreviousLeg":false,"from":{"name":"COSTCO","stopId":"1:1710","stopCode":"1710","lon":-71.085767,"lat":48.382333,"arrival":1522687320000,"departure":1522687321000,"zoneId":"NA","stopIndex":30,"stopSequence":31,"vertexType":"TRANSIT"},"to":{"name":"Destination","lon":-71.086723,"lat":48.382739,"arrival":1522687515000,"orig":"","vertexType":"NORMAL"},"legGeometry":{"points":"uthfHh}zpLtB`CoA~Ca@e@Q[Mu@[j@","length":7},"rentedBike":false,"transitLeg":false,"duration":194.0,"steps":[{"distance":81.226,"relativeDirection":"DEPART","streetName":"service road","absoluteDirection":"SOUTHWEST","stayOn":false,"area":false,"bogusName":true,"lon":-71.08580460382532,"lat":48.38235152300571,"elevation":[]},{"distance":73.854,"relativeDirection":"RIGHT","streetName":"Boulevard du Royaume Ouest","absoluteDirection":"NORTHWEST","stayOn":false,"area":false,"bogusName":false,"lon":-71.0864598,"lat":48.381764800000006,"elevation":[]},{"distance":82.838,"relativeDirection":"RIGHT","streetName":"service road","absoluteDirection":"NORTHEAST","stayOn":false,"area":false,"bogusName":true,"lon":-71.0872595,"lat":48.382163600000005,"elevation":[]}]}],"tooSloped":false},{"duration":1321,"startTime":1522687094000,"endTime":1522688415000,"walkTime":488,"transitTime":486,"waitingTime":347,"walkDistance":621.23746616101,"walkLimitExceeded":false,"elevationLost":0.0,"elevationGained":0.0,"transfers":1,"legs":[{"startTime":1522687094000,"endTime":1522687193000,"departureDelay":0,"arrivalDelay":0,"realTime":false,"distance":127.226,"pathway":false,"mode":"WALK","route":"","agencyTimeZoneOffset":-14400000,"interlineWithPreviousLeg":false,"from":{"name":"Origin","lon":-71.051051,"lat":48.39287,"departure":1522687094000,"orig":"","vertexType":"NORMAL"},"to":{"name":"Résidence Villa du Saguenay (Roitelets)","stopId":"1:1546","stopCode":"1546","lon":-71.050627,"lat":48.393589,"arrival":1522687193000,"departure":1522687194000,"zoneId":"NA","stopIndex":30,"stopSequence":31,"vertexType":"TRANSIT"},"legGeometry":{"points":"{ujfHvetpL_Ap@c@aA]w@g@q@","length":5},"rentedBike":false,"transitLeg":false,"duration":99.0,"steps":[{"distance":40.829,"relativeDirection":"DEPART","streetName":"Rue des Pigeons","absoluteDirection":"NORTHWEST","stayOn":false,"area":false,"bogusName":false,"lon":-71.0513151524744,"lat":48.39278143143661,"elevation":[]},{"distance":86.397,"relativeDirection":"RIGHT","streetName":"bike path","absoluteDirection":"NORTHEAST","stayOn":false,"area":false,"bogusName":true,"lon":-71.0515644,"lat":48.393109200000005,"elevation":[]}]},{"startTime":1522687194000,"endTime":1522687320000,"departureDelay":0,"arrivalDelay":0,"realTime":false,"distance":1417.6790644138778,"pathway":false,"mode":"BUS","route":"15","agencyName":"Société de Transport du Saguenay","agencyUrl":"http://ville.saguenay.ca/fr/services-aux-citoyens/transport-sts","agencyTimeZoneOffset":-14400000,"routeColor":"FF00FF","routeType":3,"routeId":"1:15","routeTextColor":"FFFFFF","interlineWithPreviousLeg":false,"tripBlockId":"33","headsign":"Talbot / Barrette","agencyId":"0","tripId":"1:218183","serviceDate":"20180402","from":{"name":"Résidence Villa du Saguenay (Roitelets)","stopId":"1:1546","stopCode":"1546","lon":-71.050627,"lat":48.393589,"arrival":1522687193000,"departure":1522687194000,"zoneId":"NA","stopIndex":30,"stopSequence":31,"vertexType":"TRANSIT"},"to":{"name":"Roitelets / Sapins","stopId":"1:1543","stopCode":"1543","lon":-71.069553,"lat":48.393375,"arrival":1522687320000,"departure":1522687320000,"zoneId":"NA","stopIndex":35,"stopSequence":36,"vertexType":"TRANSIT"},"legGeometry":{"points":"e{jfHhbtpL@@zA~Cb@fCJlC?BsBre@?DWbOAn@?nEGnM@H\\hCzA~ELvAAlAi@jDo@nB","length":19},"routeShortName":"15","routeLongName":"Term. Chic / Costco","rentedBike":false,"transitLeg":true,"duration":126.0,"steps":[]},{"startTime":1522687320000,"endTime":1522687515000,"departureDelay":0,"arrivalDelay":0,"realTime":false,"distance":255.957,"pathway":false,"mode":"WALK","route":"","agencyTimeZoneOffset":-14400000,"interlineWithPreviousLeg":false,"from":{"name":"Roitelets / Sapins","stopId":"1:1543","stopCode":"1543","lon":-71.069553,"lat":48.393375,"arrival":1522687320000,"departure":1522687320000,"zoneId":"NA","stopIndex":35,"stopSequence":36,"vertexType":"TRANSIT"},"to":{"name":"boul. Talbot (no. 1870)","stopId":"1:1556","stopCode":"1556","lon":-71.069429,"lat":48.3951,"arrival":1522687515000,"departure":1522687860000,"zoneId":"NA","stopIndex":24,"stopSequence":25,"vertexType":"TRANSIT"},"legGeometry":{"points":"oyjfHxwwpL?@mAzCMHC@Qb@OOOQ_EyE","length":9},"rentedBike":false,"transitLeg":false,"duration":195.0,"steps":[{"distance":84.014,"relativeDirection":"DEPART","streetName":"bike path","absoluteDirection":"NORTHWEST","stayOn":false,"area":false,"bogusName":true,"lon":-71.0695674967601,"lat":48.39336056343373,"elevation":[]},{"distance":16.674,"relativeDirection":"SLIGHTLY_LEFT","streetName":"Boulevard Barrette","absoluteDirection":"NORTHWEST","stayOn":false,"area":false,"bogusName":false,"lon":-71.07041720000001,"lat":48.393846,"elevation":[]},{"distance":155.26899999999998,"relativeDirection":"RIGHT","streetName":"Boulevard Talbot","absoluteDirection":"NORTHEAST","stayOn":false,"area":false,"bogusName":false,"lon":-71.0705975,"lat":48.3939363,"elevation":[]}]},{"startTime":1522687860000,"endTime":1522688220000,"departureDelay":0,"arrivalDelay":0,"realTime":false,"distance":1955.623156368476,"pathway":false,"mode":"BUS","route":"175","agencyName":"Société de Transport du Saguenay","agencyUrl":"http://ville.saguenay.ca/fr/services-aux-citoyens/transport-sts","agencyTimeZoneOffset":-14400000,"routeColor":"FF00FF","routeType":3,"routeId":"1:175","routeTextColor":"FFFFFF","interlineWithPreviousLeg":false,"tripBlockId":"81","headsign":"Costco","agencyId":"0","tripId":"1:218660","serviceDate":"20180402","from":{"name":"boul. Talbot (no. 1870)","stopId":"1:1556","stopCode":"1556","lon":-71.069429,"lat":48.3951,"arrival":1522687515000,"departure":1522687860000,"zoneId":"NA","stopIndex":24,"stopSequence":25,"vertexType":"TRANSIT"},"to":{"name":"COSTCO","stopId":"1:1710","stopCode":"1710","lon":-71.085767,"lat":48.382333,"arrival":1522688220000,"departure":1522688221000,"zoneId":"NA","stopIndex":30,"stopSequence":31,"vertexType":"TRANSIT"},"legGeometry":{"points":"_dkfHhvwpLlXv[b@f@mCtHv@v@p@r@_@p@uAcBjDoJhAzApBrBrFvGjDdEbD|DZb@~DrEbDfDrA~ApLbNpG|GyCtHwBcC","length":22},"routeShortName":"175","routeLongName":"Term. Chic / Costco","rentedBike":false,"transitLeg":true,"duration":360.0,"steps":[]},{"startTime":1522688221000,"endTime":1522688415000,"departureDelay":0,"arrivalDelay":0,"realTime":false,"distance":237.918,"pathway":false,"mode":"WALK","route":"","agencyTimeZoneOffset":-14400000,"interlineWithPreviousLeg":false,"from":{"name":"COSTCO","stopId":"1:1710","stopCode":"1710","lon":-71.085767,"lat":48.382333,"arrival":1522688220000,"departure":1522688221000,"zoneId":"NA","stopIndex":30,"stopSequence":31,"vertexType":"TRANSIT"},"to":{"name":"Destination","lon":-71.086723,"lat":48.382739,"arrival":1522688415000,"orig":"","vertexType":"NORMAL"},"legGeometry":{"points":"uthfHh}zpLtB`CoA~Ca@e@Q[Mu@[j@","length":7},"rentedBike":false,"transitLeg":false,"duration":194.0,"steps":[{"distance":81.226,"relativeDirection":"DEPART","streetName":"service road","absoluteDirection":"SOUTHWEST","stayOn":false,"area":false,"bogusName":true,"lon":-71.08580460382532,"lat":48.38235152300571,"elevation":[]},{"distance":73.854,"relativeDirection":"RIGHT","streetName":"Boulevard du Royaume Ouest","absoluteDirection":"NORTHWEST","stayOn":false,"area":false,"bogusName":false,"lon":-71.0864598,"lat":48.381764800000006,"elevation":[]},{"distance":82.838,"relativeDirection":"RIGHT","streetName":"service road","absoluteDirection":"NORTHEAST","stayOn":false,"area":false,"bogusName":true,"lon":-71.0872595,"lat":48.382163600000005,"elevation":[]}]}],"tooSloped":false}]},"debugOutput":{"precalculationTime":9,"pathCalculationTime":29,"pathTimes":[18,5,6],"renderingTime":1,"totalTime":39,"timedOut":false},"elevationMetadata":{"ellipsoidToGeoidDifference":-28.885904201182168,"geoidElevation":false}}