{"requestParameters":{"date":"2018/04/02","walkSpeed":"1.33","walkReluctance":"2.0","fromPlace":"48.401546,-71.062841","maxWalkDistance":"3000","waitReluctance":"1.0","carSpeed":"33","numItineraries":"3","waitAtBeginningFactor":"0.4","mode":"TRANSIT,WALK","ignoreRealtimeUpdates":"false","stairsReluctance":"2.0","toPlace":"48.393429,-71.052785","time":"10:40:00"},"plan":{"date":1522680000000,"from":{"name":"Origin","lon":-71.062841,"lat":48.401546,"orig":"","vertexType":"NORMAL"},"to":{"name":"Destination","lon":-71.052785,"lat":48.393429,"orig":"","vertexType":"NORMAL"},"itineraries":[{"duration":640,"startTime":1522681225000,"endTime":1522681865000,"walkTime":386,"transitTime":252,"waitingTime":2,"walkDistance":491.8210150341732,"walkLimitExceeded":false,"elevationLost":0.0,"elevationGained":0.0,"transfers":0,"legs":[{"startTime":1522681225000,"endTime":1522681558000,"departureDelay":0,"arrivalDelay":0,"realTime":false,"distance":427.468,"pathway":false,"mode":"WALK","route":"","agencyTimeZoneOffset":-14400000,"interlineWithPreviousLeg":false,"from":{"name":"Origin","lon":-71.062841,"lat":48.401546,"departure":1522681225000,"orig":"","vertexType":"NORMAL"},"to":{"name":"Saguenéens  / Bach","stopId":"1:575","stopCode":"575","lon":-71.061104,"lat":48.403689,"arrival":1522681558000,"departure":1522681559000,"zoneId":"NA","stopIndex":23,"stopSequence":24,"vertexType":"TRANSIT"},"legGeometry":{"points":"wllfHrmvpLa@fA_AhCi@g@u@k@c@USS_DgCW]K_@EUGSGKSSfAoC","length":15},"rentedBike":false,"transitLeg":false,"duration":333.0,"steps":[{"distance":94.395,"relativeDirection":"DEPART","streetName":"road","absoluteDirection":"NORTHWEST","stayOn":false,"area":false,"bogusName":false,"lon":-71.06281762883856,"lat":48.40156799878133,"elevation":[]},{"distance":266.117,"relativeDirection":"RIGHT","streetName":"Rue Bach","absoluteDirection":"NORTHEAST","stayOn":false,"area":false,"bogusName":false,"lon":-71.06386160000001,"lat":48.402058200000006,"elevation":[]},{"distance":66.956,"relativeDirection":"RIGHT","streetName":"Rue des Saguenéens","absoluteDirection":"SOUTHEAST","stayOn":false,"area":false,"bogusName":false,"lon":-71.06187870000001,"lat":48.404006700000004,"elevation":[]}]},{"startTime":1522681559000,"endTime":1522681811000,"departureDelay":0,"arrivalDelay":0,"realTime":false,"distance":2208.5198278069747,"pathway":false,"mode":"BUS","route":"15","agencyName":"Société de Transport du Saguenay","agencyUrl":"http://ville.saguenay.ca/fr/services-aux-citoyens/transport-sts","agencyTimeZoneOffset":-14400000,"routeColor":"FF00FF","routeType":3,"routeId":"1:15","routeTextColor":"FFFFFF","interlineWithPreviousLeg":false,"tripBlockId":"31","headsign":"Talbot / Barrette","agencyId":"0","tripId":"1:218130","serviceDate":"20180402","from":{"name":"Saguenéens  / Bach","stopId":"1:575","stopCode":"575","lon":-71.061104,"lat":48.403689,"arrival":1522681558000,"departure":1522681559000,"zoneId":"NA","stopIndex":23,"stopSequence":24,"vertexType":"TRANSIT"},"to":{"name":"Roitelets / Faucons","stopId":"1:1545","stopCode":"1545","lon":-71.052988,"lat":48.392905,"arrival":1522681811000,"departure":1522681812000,"zoneId":"NA","stopIndex":31,"stopSequence":32,"vertexType":"TRANSIT"},"legGeometry":{"points":"ezlfHvbvpLtC{FnBoLbCaO?qLa@uJzF`ApF~@~@PzAgEeDcBf@qAWcKUqEx@Ef@ExDVjDxAFBrBvAfGjG@BjCzC~DxC@@zA~Cb@fCJlC?B","length":29},"routeShortName":"15","routeLongName":"Term. Chic / Costco","rentedBike":false,"transitLeg":true,"duration":252.0,"steps":[]},{"startTime":1522681812000,"endTime":1522681865000,"departureDelay":0,"arrivalDelay":0,"realTime":false,"distance":64.247,"pathway":false,"mode":"WALK","route":"","agencyTimeZoneOffset":-14400000,"interlineWithPreviousLeg":false,"from":{"name":"Roitelets / Faucons","stopId":"1:1545","stopCode":"1545","lon":-71.052988,"lat":48.392905,"arrival":1522681811000,"departure":1522681812000,"zoneId":"NA","stopIndex":31,"stopSequence":32,"vertexType":"TRANSIT"},"to":{"name":"Destination","lon":-71.052785,"lat":48.393429,"arrival":1522681865000,"orig":"","vertexType":"NORMAL"},"legGeometry":{"points":"qvjfHfptpLALK?}AC","length":4},"rentedBike":false,"transitLeg":false,"duration":53.0,"steps":[{"distance":5.804,"relativeDirection":"DEPART","streetName":"bike path","absoluteDirection":"WEST","stayOn":false,"area":false,"bogusName":true,"lon":-71.05299114869932,"lat":48.392896082309186,"elevation":[]},{"distance":6.628,"relativeDirection":"RIGHT","streetName":"Rue des Faucons","absoluteDirection":"NORTH","stayOn":false,"area":false,"bogusName":false,"lon":-71.0530677,"lat":48.392908000000006,"elevation":[]},{"distance":51.815,"relativeDirection":"CONTINUE","streetName":"Rue des Hiboux","absoluteDirection":"NORTH","stayOn":false,"area":false,"bogusName":false,"lon":-71.053066,"lat":48.392967600000006,"elevation":[]}]}],"tooSloped":false},{"duration":1165,"startTime":1522680924000,"endTime":1522682089000,"walkTime":988,"transitTime":175,"waitingTime":2,"walkDistance":1284.5071278162857,"walkLimitExceeded":false,"elevationLost":0.0,"elevationGained":0.0,"transfers":0,"legs":[{"startTime":1522680924000,"endTime":1522681859000,"departureDelay":0,"arrivalDelay":0,"realTime":false,"distance":1220.1589999999999,"pathway":false,"mode":"WALK","route":"","agencyTimeZoneOffset":-14400000,"interlineWithPreviousLeg":false,"from":{"name":"Origin","lon":-71.062841,"lat":48.401546,"departure":1522680924000,"orig":"","vertexType":"NORMAL"},"to":{"name":"Roitelets / Sapins","stopId":"1:1543","stopCode":"1543","lon":-71.069553,"lat":48.393375,"arrival":1522681859000,"departure":1522681860000,"zoneId":"NA","stopIndex":0,"stopSequence":1,"vertexType":"TRANSIT"},"legGeometry":{"points":"wllfHrmvpL|AiEbC`Cn@v@t@`AhCfDLN`@h@fJnNLPlAbBjCpDHLbDbETX~DxENPNNPc@BALIlA{C?A","length":23},"rentedBike":false,"transitLeg":false,"duration":935.0,"steps":[{"distance":91.289,"relativeDirection":"DEPART","streetName":"road","absoluteDirection":"SOUTHEAST","stayOn":false,"area":false,"bogusName":false,"lon":-71.06281762883856,"lat":48.40156799878133,"elevation":[]},{"distance":1028.182,"relativeDirection":"RIGHT","streetName":"Boulevard Talbot","absoluteDirection":"SOUTHWEST","stayOn":false,"area":false,"bogusName":false,"lon":-71.06180710000001,"lat":48.4010948,"elevation":[]},{"distance":16.674,"relativeDirection":"LEFT","streetName":"Boulevard Barrette","absoluteDirection":"SOUTHEAST","stayOn":false,"area":false,"bogusName":false,"lon":-71.0705975,"lat":48.3939363,"elevation":[]},{"distance":84.014,"relativeDirection":"SLIGHTLY_RIGHT","streetName":"bike path","absoluteDirection":"SOUTHEAST","stayOn":false,"area":false,"bogusName":true,"lon":-71.07041720000001,"lat":48.393846,"elevation":[]}]},{"startTime":1522681860000,"endTime":1522682035000,"departureDelay":0,"arrivalDelay":0,"realTime":false,"distance":1227.4847917962775,"pathway":false,"mode":"BUS","route":"15","agencyName":"Société de Transport du Saguenay","agencyUrl":"http://ville.saguenay.ca/fr/services-aux-citoyens/transport-sts","agencyTimeZoneOffset":-14400000,"routeColor":"FF00FF","routeType":3,"routeId":"1:15","routeTextColor":"FFFFFF","interlineWithPreviousLeg":false,"tripBlockId":"30","headsign":"Terminus Chicoutimi","agencyId":"0","tripId":"1:218096","serviceDate":"20180402","from":{"name":"Roitelets / Sapins","stopId":"1:1543","stopCode":"1543","lon":-71.069553,"lat":48.393375,"arrival":1522681859000,"departure":1522681860000,"zoneId":"NA","stopIndex":0,"stopSequence":1,"vertexType":"TRANSIT"},"to":{"name":"Roitelets / Faucons","stopId":"1:1545","stopCode":"1545","lon":-71.052988,"lat":48.392905,"arrival":1522682035000,"departure":1522682036000,"zoneId":"NA","stopIndex":4,"stopSequence":5,"vertexType":"TRANSIT"},"legGeometry":{"points":"_zjfHfwwpLx@}BHa@NaADq@@y@Cy@I{@Ka@O[Sg@c@mAWwAMyA?EC]?wABuABmFB{@BmDFuH@i@F[FsC@c@TuGEGVsHPuDLuBXsFDoA?W","length":34},"routeShortName":"15","routeLongName":"Term. Chic / Costco","rentedBike":false,"transitLeg":true,"duration":175.0,"steps":[]},{"startTime":1522682036000,"endTime":1522682089000,"departureDelay":0,"arrivalDelay":0,"realTime":false,"distance":64.247,"pathway":false,"mode":"WALK","route":"","agencyTimeZoneOffset":-14400000,"interlineWithPreviousLeg":false,"from":{"name":"Roitelets / Faucons","stopId":"1:1545","stopCode":"1545","lon":-71.052988,"lat":48.392905,"arrival":1522682035000,"departure":1522682036000,"zoneId":"NA","stopIndex":4,"stopSequence":5,"vertexType":"TRANSIT"},"to":{"name":"Destination","lon":-71.052785,"lat":48.393429,"arrival":1522682089000,"orig":"","vertexType":"NORMAL"},"legGeometry":{"points":"qvjfHfptpLALK?}AC","length":4},"rentedBike":false,"transitLeg":false,"duration":53.0,"steps":[{"distance":5.804,"relativeDirection":"DEPART","streetName":"bike path","absoluteDirection":"WEST","stayOn":false,"area":false,"bogusName":true,"lon":-71.05299114869932,"lat":48.392896082309186,"elevation":[]},{"distance":6.628,"relativeDirection":"RIGHT","streetName":"Rue des Faucons","absoluteDirection":"NORTH","stayOn":false,"area":false,"bogusName":false,"lon":-71.0530677,"lat":48.392908000000006,"elevation":[]},{"distance":51.815,"relativeDirection":"CONTINUE","streetName":"Rue des Hiboux","absoluteDirection":"NORTH","stayOn":false,"area":false,"bogusName":false,"lon":-71.053066,"lat":48.392967600000006,"elevation":[]}]}],"tooSloped":false},{"duration":640,"startTime":1522683025000,"endTime":1522683665000,"walkTime":386,"transitTime":252,"waitingTime":2,"walkDistance":491.8210150341732,"walkLimitExceeded":false,"elevationLost":0.0,"elevationGained":0.0,"transfers":0,"legs":[{"startTime":1522683025000,"endTime":1522683358000,"departureDelay":0,"arrivalDelay":0,"realTime":false,"distance":427.468,"pathway":false,"mode":"WALK","route":"","agencyTimeZoneOffset":-14400000,"interlineWithPreviousLeg":false,"from":{"name":"Origin","lon":-71.062841,"lat":48.401546,"departure":1522683025000,"orig":"","vertexType":"NORMAL"},"to":{"name":"Saguenéens  / Bach","stopId":"1:575","stopCode":"575","lon":-71.061104,"lat":48.403689,"arrival":1522683358000,"departure":1522683359000,"zoneId":"NA","stopIndex":23,"stopSequence":24,"vertexType":"TRANSIT"},"legGeometry":{"points":"wllfHrmvpLa@fA_AhCi@g@u@k@c@USS_DgCW]K_@EUGSGKSSfAoC","length":15},"rentedBike":false,"transitLeg":false,"duration":333.0,"steps":[{"distance":94.395,"relativeDirection":"DEPART","streetName":"road","absoluteDirection":"NORTHWEST","stayOn":false,"area":false,"bogusName":false,"lon":-71.06281762883856,"lat":48.40156799878133,"elevation":[]},{"distance":266.117,"relativeDirection":"RIGHT","streetName":"Rue Bach","absoluteDirection":"NORTHEAST","stayOn":false,"area":false,"bogusName":false,"lon":-71.06386160000001,"lat":48.402058200000006,"elevation":[]},{"distance":66.956,"relativeDirection":"RIGHT","streetName":"Rue des Saguenéens","absoluteDirection":"SOUTHEAST","stayOn":false,"area":false,"bogusName":false,"lon":-71.06187870000001,"lat":48.404006700000004,"elevation":[]}]},{"startTime":1522683359000,"endTime":1522683611000,"departureDelay":0,"arrivalDelay":0,"realTime":false,"distance":2208.5198278069747,"pathway":false,"mode":"BUS","route":"15","agencyName":"Société de Transport du Saguenay","agencyUrl":"http://ville.saguenay.ca/fr/services-aux-citoyens/transport-sts","agencyTimeZoneOffset":-14400000,"routeColor":"FF00FF","routeType":3,"routeId":"1:15","routeTextColor":"FFFFFF","interlineWithPreviousLeg":false,"tripBlockId":"33","headsign":"Talbot / Barrette","agencyId":"0","tripId":"1:218181","serviceDate":"20180402","from":{"name":"Saguenéens  / Bach","stopId":"1:575","stopCode":"575","lon":-71.061104,"lat":48.403689,"arrival":1522683358000,"departure":1522683359000,"zoneId":"NA","stopIndex":23,"stopSequence":24,"vertexType":"TRANSIT"},"to":{"name":"Roitelets / Faucons","stopId":"1:1545","stopCode":"1545","lon":-71.052988,"lat":48.392905,"arrival":1522683611000,"departure":1522683612000,"zoneId":"NA","stopIndex":31,"stopSequence":32,"vertexType":"TRANSIT"},"legGeometry":{"points":"ezlfHvbvpLtC{FnBoLbCaO?qLa@uJzF`ApF~@~@PzAgEeDcBf@qAWcKUqEx@Ef@ExDVjDxAFBrBvAfGjG@BjCzC~DxC@@zA~Cb@fCJlC?B","length":29},"routeShortName":"15","routeLongName":"Term. Chic / Costco","rentedBike":false,"transitLeg":true,"duration":252.0,"steps":[]},{"startTime":1522683612000,"endTime":1522683665000,"departureDelay":0,"arrivalDelay":0,"realTime":false,"distance":64.247,"pathway":false,"mode":"WALK","route":"","agencyTimeZoneOffset":-14400000,"interlineWithPreviousLeg":false,"from":{"name":"Roitelets / Faucons","stopId":"1:1545","stopCode":"1545","lon":-71.052988,"lat":48.392905,"arrival":1522683611000,"departure":1522683612000,"zoneId":"NA","stopIndex":31,"stopSequence":32,"vertexType":"TRANSIT"},"to":{"name":"Destination","lon":-71.052785,"lat":48.393429,"arrival":1522683665000,"orig":"","vertexType":"NORMAL"},"legGeometry":{"points":"qvjfHfptpLALK?}AC","length":4},"rentedBike":false,"transitLeg":false,"duration":53.0,"steps":[{"distance":5.804,"relativeDirection":"DEPART","streetName":"bike path","absoluteDirection":"WEST","stayOn":false,"area":false,"bogusName":true,"lon":-71.05299114869932,"lat":48.392896082309186,"elevation":[]},{"distance":6.628,"relativeDirection":"RIGHT","streetName":"Rue des Faucons","absoluteDirection":"NORTH","stayOn":false,"area":false,"bogusName":false,"lon":-71.0530677,"lat":48.392908000000006,"elevation":[]},{"distance":51.815,"relativeDirection":"CONTINUE","streetName":"Rue des Hiboux","absoluteDirection":"NORTH","stayOn":false,"area":false,"bogusName":false,"lon":-71.053066,"lat":48.392967600000006,"elevation":[]}]}],"tooSloped":false}]},"debugOutput":{"precalculationTime":23,"pathCalculationTime":29,"pathTimes":[16,6,7],"renderingTime":0,"totalTime":52,"timedOut":false},"elevationMetadata":{"ellipsoidToGeoidDifference":-28.885904201182168,"geoidElevation":false}}