{"requestParameters":{"date":"2018/04/02","walkSpeed":"1.33","walkReluctance":"2.0","fromPlace":"48.426905,-71.048929","maxWalkDistance":"3000","waitReluctance":"1.0","carSpeed":"33","numItineraries":"3","waitAtBeginningFactor":"0.4","mode":"TRANSIT,WALK","ignoreRealtimeUpdates":"false","stairsReluctance":"2.0","toPlace":"48.394286,-71.05405","time":"15:15:00"},"plan":{"date":1522696500000,"from":{"name":"Origin","lon":-71.048929,"lat":48.426905,"orig":"","vertexType":"NORMAL"},"to":{"name":"Destination","lon":-71.05405,"lat":48.394286,"orig":"","vertexType":"NORMAL"},"itineraries":[{"duration":1339,"startTime":1522696749000,"endTime":1522698088000,"walkTime":126,"transitTime":911,"waitingTime":302,"walkDistance":156.93686466017422,"walkLimitExceeded":false,"elevationLost":0.0,"elevationGained":0.0,"transfers":1,"legs":[{"startTime":1522696749000,"endTime":1522696799000,"departureDelay":0,"arrivalDelay":0,"realTime":false,"distance":65.674,"pathway":false,"mode":"WALK","route":"","agencyTimeZoneOffset":-14400000,"interlineWithPreviousLeg":false,"from":{"name":"Origin","lon":-71.048929,"lat":48.426905,"departure":1522696749000,"orig":"","vertexType":"NORMAL"},"to":{"name":"Hôpital de Chicoutimi (Saint-Vallier)","stopId":"1:342","stopCode":"342","lon":-71.050416,"lat":48.426429,"arrival":1522696799000,"departure":1522696800000,"zoneId":"NA","stopIndex":6,"stopSequence":7,"vertexType":"TRANSIT"},"legGeometry":{"points":"wkqfHn~spLB?pBT","length":3},"rentedBike":false,"transitLeg":false,"duration":50.0,"steps":[{"distance":65.674,"relativeDirection":"DEPART","streetName":"Rue Saint-Vallier","absoluteDirection":"SOUTH","stayOn":false,"area":false,"bogusName":false,"lon":-71.05015383380092,"lat":48.4270029418696,"elevation":[]}]},{"startTime":1522696800000,"endTime":1522697520000,"departureDelay":0,"arrivalDelay":0,"realTime":false,"distance":3924.7484370952347,"pathway":false,"mode":"BUS","route":"175","agencyName":"Société de Transport du Saguenay","agencyUrl":"http://ville.saguenay.ca/fr/services-aux-citoyens/transport-sts","agencyTimeZoneOffset":-14400000,"routeColor":"FF00FF","routeType":3,"routeId":"1:175","routeTextColor":"FFFFFF","interlineWithPreviousLeg":false,"tripBlockId":"8","headsign":"Costco","agencyId":"0","tripId":"1:217374","serviceDate":"20180402","from":{"name":"Hôpital de Chicoutimi (Saint-Vallier)","stopId":"1:342","stopCode":"342","lon":-71.050416,"lat":48.426429,"arrival":1522696799000,"departure":1522696800000,"zoneId":"NA","stopIndex":6,"stopSequence":7,"vertexType":"TRANSIT"},"to":{"name":"Place du Royaume (Saguenéens)","stopId":"1:1294","stopCode":"1294","lon":-71.057691,"lat":48.402355,"arrival":1522697520000,"departure":1522697820000,"zoneId":"NA","stopIndex":20,"stopSequence":21,"vertexType":"TRANSIT"},"legGeometry":{"points":"ahqfHf_tpLxEj@iCtYp@r@z@`ABBvHtHXRx@l@VwAvAgB\\qBIuAC]g@yEzDuLbBbBvAxAMx@|@v@`A~@Xw@~D~DPxFZtA~ApE`N{LpFmEb@[ROl@[vDQXKfA[|@q@fAsBlEmMr@sBhCsKz@dAjB|@dM`GzCvAXrCr@~Gx@]PEr@ObACn@FrBb@|@Ch@Kx@U~HsB^KZ|DJpII~Fa@rFUzBi@bD","length":62},"routeShortName":"175","routeLongName":"Term. Chic / Costco","rentedBike":false,"transitLeg":true,"duration":720.0,"steps":[]},{"startTime":1522697820000,"endTime":1522698011000,"departureDelay":0,"arrivalDelay":0,"realTime":false,"distance":1916.146226718374,"pathway":false,"mode":"BUS","route":"15","agencyName":"Société de Transport du Saguenay","agencyUrl":"http://ville.saguenay.ca/fr/services-aux-citoyens/transport-sts","agencyTimeZoneOffset":-14400000,"routeColor":"FF00FF","routeType":3,"routeId":"1:15","routeTextColor":"FFFFFF","interlineWithPreviousLeg":false,"tripBlockId":"33","headsign":"Talbot / Barrette","agencyId":"0","tripId":"1:218189","serviceDate":"20180402","from":{"name":"Place du Royaume (Saguenéens)","stopId":"1:1294","stopCode":"1294","lon":-71.057691,"lat":48.402355,"arrival":1522697520000,"departure":1522697820000,"zoneId":"NA","stopIndex":24,"stopSequence":25,"vertexType":"TRANSIT"},"to":{"name":"Roitelets / Faucons","stopId":"1:1545","stopCode":"1545","lon":-71.052988,"lat":48.392905,"arrival":1522698011000,"departure":1522698012000,"zoneId":"NA","stopIndex":31,"stopSequence":32,"vertexType":"TRANSIT"},"legGeometry":{"points":"_rlfHjmupLbCaO?qLa@uJzF`ApF~@~@PzAgEeDcBf@qAWcKUqEx@Ef@ExDVjDxAFBrBvAfGjG@BjCzC~DxC@@zA~Cb@fCJlC?B","length":27},"routeShortName":"15","routeLongName":"Term. Chic / Costco","rentedBike":false,"transitLeg":true,"duration":191.0,"steps":[]},{"startTime":1522698012000,"endTime":1522698088000,"departureDelay":0,"arrivalDelay":0,"realTime":false,"distance":91.217,"pathway":false,"mode":"WALK","route":"","agencyTimeZoneOffset":-14400000,"interlineWithPreviousLeg":false,"from":{"name":"Roitelets / Faucons","stopId":"1:1545","stopCode":"1545","lon":-71.052988,"lat":48.392905,"arrival":1522698011000,"departure":1522698012000,"zoneId":"NA","stopIndex":31,"stopSequence":32,"vertexType":"TRANSIT"},"to":{"name":"Destination","lon":-71.05405,"lat":48.394286,"arrival":1522698088000,"orig":"","vertexType":"NORMAL"},"legGeometry":{"points":"qvjfHfptpLALK?sBCSX","length":5},"rentedBike":false,"transitLeg":false,"duration":76.0,"steps":[{"distance":5.804,"relativeDirection":"DEPART","streetName":"bike path","absoluteDirection":"WEST","stayOn":false,"area":false,"bogusName":true,"lon":-71.05299114869932,"lat":48.392896082309186,"elevation":[]},{"distance":6.628,"relativeDirection":"RIGHT","streetName":"Rue des Faucons","absoluteDirection":"NORTH","stayOn":false,"area":false,"bogusName":false,"lon":-71.0530677,"lat":48.392908000000006,"elevation":[]},{"distance":78.785,"relativeDirection":"CONTINUE","streetName":"Rue des Hiboux","absoluteDirection":"NORTH","stayOn":false,"area":false,"bogusName":false,"lon":-71.053066,"lat":48.392967600000006,"elevation":[]}]}],"tooSloped":false},{"duration":1808,"startTime":1522698080000,"endTime":1522699888000,"walkTime":530,"transitTime":1276,"waitingTime":2,"walkDistance":666.9533533788976,"walkLimitExceeded":false,"elevationLost":0.0,"elevationGained":0.0,"transfers":0,"legs":[{"startTime":1522698080000,"endTime":1522698534000,"departureDelay":0,"arrivalDelay":0,"realTime":false,"distance":575.595,"pathway":false,"mode":"WALK","route":"","agencyTimeZoneOffset":-14400000,"interlineWithPreviousLeg":false,"from":{"name":"Origin","lon":-71.048929,"lat":48.426905,"departure":1522698080000,"orig":"","vertexType":"NORMAL"},"to":{"name":"Bégin / Jacques-Cartier","stopId":"1:67","stopCode":"67","lon":-71.055431,"lat":48.425501,"arrival":1522698534000,"departure":1522698535000,"zoneId":"NA","stopIndex":4,"stopSequence":5,"vertexType":"TRANSIT"},"legGeometry":{"points":"wkqfHn~spLmAMIBCJAvEArADrF@jBxAtABB`A|@h@`@ZVz@r@p@p@`@`@b@b@KZ","length":18},"rentedBike":false,"transitLeg":false,"duration":454.0,"steps":[{"distance":49.551,"relativeDirection":"DEPART","streetName":"Rue Saint-Vallier","absoluteDirection":"NORTH","stayOn":false,"area":false,"bogusName":false,"lon":-71.05015383380092,"lat":48.4270029418696,"elevation":[]},{"distance":245.608,"relativeDirection":"LEFT","streetName":"Rue de l'Hôtel-Dieu","absoluteDirection":"WEST","stayOn":false,"area":false,"bogusName":false,"lon":-71.0501002,"lat":48.4274445,"elevation":[]},{"distance":268.39099999999996,"relativeDirection":"LEFT","streetName":"Rue Bégin","absoluteDirection":"SOUTHWEST","stayOn":false,"area":false,"bogusName":false,"lon":-71.0534231,"lat":48.4274435,"elevation":[]},{"distance":12.045,"relativeDirection":"RIGHT","streetName":"Rue Gaudreault","absoluteDirection":"NORTHWEST","stayOn":false,"area":false,"bogusName":false,"lon":-71.0553392,"lat":48.4253936,"elevation":[]}]},{"startTime":1522698535000,"endTime":1522699811000,"departureDelay":0,"arrivalDelay":0,"realTime":false,"distance":6583.690741256103,"pathway":false,"mode":"BUS","route":"15","agencyName":"Société de Transport du Saguenay","agencyUrl":"http://ville.saguenay.ca/fr/services-aux-citoyens/transport-sts","agencyTimeZoneOffset":-14400000,"routeColor":"FF00FF","routeType":3,"routeId":"1:15","routeTextColor":"FFFFFF","interlineWithPreviousLeg":false,"tripBlockId":"31","headsign":"Talbot / Barrette","agencyId":"0","tripId":"1:218140","serviceDate":"20180402","from":{"name":"Bégin / Jacques-Cartier","stopId":"1:67","stopCode":"67","lon":-71.055431,"lat":48.425501,"arrival":1522698534000,"departure":1522698535000,"zoneId":"NA","stopIndex":4,"stopSequence":5,"vertexType":"TRANSIT"},"to":{"name":"Roitelets / Faucons","stopId":"1:1545","stopCode":"1545","lon":-71.052988,"lat":48.392905,"arrival":1522699811000,"departure":1522699812000,"zoneId":"NA","stopIndex":31,"stopSequence":32,"vertexType":"TRANSIT"},"legGeometry":{"points":"_bqfHt~tpLvIpIr@r@\\mBfAaA`@gBOkB_@uF|DyL|DpDQ|@|@z@bA`ATw@dD~Ch@fA@`E~AjGuH`Iy@bBi@dCbEdEjJlJ`HbHlJpJ|J~JdAfALzDNzDrAdBrEKvBEbCv@d@TvFlC|DlBpMlGrB`AM}@hAwEC{B]oBiBmBsH_@_K{H`EgIvCaGfEoItDsH~DeItC{FnBoLbCaO?qLa@uJzF`ApF~@~@PzAgEeDcBf@qAWcKUqEx@Ef@ExDVjDxAFBrBvAfGjG@BjCzC~DxC@@zA~Cb@fCJlC?B","length":78},"routeShortName":"15","routeLongName":"Term. Chic / Costco","rentedBike":false,"transitLeg":true,"duration":1276.0,"steps":[]},{"startTime":1522699812000,"endTime":1522699888000,"departureDelay":0,"arrivalDelay":0,"realTime":false,"distance":91.217,"pathway":false,"mode":"WALK","route":"","agencyTimeZoneOffset":-14400000,"interlineWithPreviousLeg":false,"from":{"name":"Roitelets / Faucons","stopId":"1:1545","stopCode":"1545","lon":-71.052988,"lat":48.392905,"arrival":1522699811000,"departure":1522699812000,"zoneId":"NA","stopIndex":31,"stopSequence":32,"vertexType":"TRANSIT"},"to":{"name":"Destination","lon":-71.05405,"lat":48.394286,"arrival":1522699888000,"orig":"","vertexType":"NORMAL"},"legGeometry":{"points":"qvjfHfptpLALK?sBCSX","length":5},"rentedBike":false,"transitLeg":false,"duration":76.0,"steps":[{"distance":5.804,"relativeDirection":"DEPART","streetName":"bike path","absoluteDirection":"WEST","stayOn":false,"area":false,"bogusName":true,"lon":-71.05299114869932,"lat":48.392896082309186,"elevation":[]},{"distance":6.628,"relativeDirection":"RIGHT","streetName":"Rue des Faucons","absoluteDirection":"NORTH","stayOn":false,"area":false,"bogusName":false,"lon":-71.0530677,"lat":48.392908000000006,"elevation":[]},{"distance":78.785,"relativeDirection":"CONTINUE","streetName":"Rue des Hiboux","absoluteDirection":"NORTH","stayOn":false,"area":false,"bogusName":false,"lon":-71.053066,"lat":48.392967600000006,"elevation":[]}]}],"tooSloped":false},{"duration":2030,"startTime":1522698082000,"endTime":1522700112000,"walkTime":530,"transitTime":1498,"waitingTime":2,"walkDistance":666.9533533788976,"walkLimitExceeded":false,"elevationLost":0.0,"elevationGained":0.0,"transfers":0,"legs":[{"startTime":1522698082000,"endTime":1522698536000,"departureDelay":0,"arrivalDelay":0,"realTime":false,"distance":575.595,"pathway":false,"mode":"WALK","route":"","agencyTimeZoneOffset":-14400000,"interlineWithPreviousLeg":false,"from":{"name":"Origin","lon":-71.048929,"lat":48.426905,"departure":1522698082000,"orig":"","vertexType":"NORMAL"},"to":{"name":"Bégin / Jacques-Cartier","stopId":"1:67","stopCode":"67","lon":-71.055431,"lat":48.425501,"arrival":1522698536000,"departure":1522698537000,"zoneId":"NA","stopIndex":4,"stopSequence":5,"vertexType":"TRANSIT"},"legGeometry":{"points":"wkqfHn~spLmAMIBCJAvEArADrF@jBxAtABB`A|@h@`@ZVz@r@p@p@`@`@b@b@KZ","length":18},"rentedBike":false,"transitLeg":false,"duration":454.0,"steps":[{"distance":49.551,"relativeDirection":"DEPART","streetName":"Rue Saint-Vallier","absoluteDirection":"NORTH","stayOn":false,"area":false,"bogusName":false,"lon":-71.05015383380092,"lat":48.4270029418696,"elevation":[]},{"distance":245.608,"relativeDirection":"LEFT","streetName":"Rue de l'Hôtel-Dieu","absoluteDirection":"WEST","stayOn":false,"area":false,"bogusName":false,"lon":-71.0501002,"lat":48.4274445,"elevation":[]},{"distance":268.39099999999996,"relativeDirection":"LEFT","streetName":"Rue Bégin","absoluteDirection":"SOUTHWEST","stayOn":false,"area":false,"bogusName":false,"lon":-71.0534231,"lat":48.4274435,"elevation":[]},{"distance":12.045,"relativeDirection":"RIGHT","streetName":"Rue Gaudreault","absoluteDirection":"NORTHWEST","stayOn":false,"area":false,"bogusName":false,"lon":-71.0553392,"lat":48.4253936,"elevation":[]}]},{"startTime":1522698537000,"endTime":1522699860000,"departureDelay":0,"arrivalDelay":0,"realTime":false,"distance":8476.403322374681,"pathway":false,"mode":"BUS","route":"14","agencyName":"Société de Transport du Saguenay","agencyUrl":"http://ville.saguenay.ca/fr/services-aux-citoyens/transport-sts","agencyTimeZoneOffset":-14400000,"routeColor":"C0C000","routeType":3,"routeId":"1:14","routeTextColor":"000000","interlineWithPreviousLeg":false,"tripBlockId":"30","headsign":"Talbot / Barrette","agencyId":"0","tripId":"1:218105","serviceDate":"20180402","from":{"name":"Bégin / Jacques-Cartier","stopId":"1:67","stopCode":"67","lon":-71.055431,"lat":48.425501,"arrival":1522698536000,"departure":1522698537000,"zoneId":"NA","stopIndex":4,"stopSequence":5,"vertexType":"TRANSIT"},"to":{"name":"Roitelets / Sapins","stopId":"1:1543","stopCode":"1543","lon":-71.069553,"lat":48.393375,"arrival":1522699860000,"departure":1522699860000,"zoneId":"NA","stopIndex":35,"stopSequence":36,"vertexType":"TRANSIT"},"legGeometry":{"points":"_bqfHr~tpLvIrIn@n@\\iATg@v@_ATg@LmABg@Is@c@iEAm@bAcDTcAtA{DJI|AxAvAvAQv@~@z@dA`ATq@`E~DL`@E`Ex@hDd@`B}FtFaAzAm@xAe@jCa@nDiAbm@SpKM`H]vBhDVzCTcAvCO^bEbEzK`LfBeEtK`KhAdAnCbCvBpCNR~BxAxBf@z@h@vAz@z@{DrCoITTlElEtAnB`@l@pFrD@?fDr@XgAjFuR\\yADm@b@gFd@_B`A}@tEvJBDvC`FtJ|LLNlClC|@^hCYVExCjCb@d@vE`F`BhB?pHaBhRqAbLK~@qBxFqB|FcC~GyC\\aDkDcFsF~CgOtGm[j@oCvEoSl@_CxCmLjAeFpCeKrByHfAqCvH_SLa@","length":103},"routeShortName":"14","routeLongName":"Coopérative","rentedBike":false,"transitLeg":true,"duration":1323.0,"steps":[]},{"startTime":1522699860000,"endTime":1522700035000,"departureDelay":0,"arrivalDelay":0,"realTime":false,"distance":1227.4847917962775,"pathway":false,"mode":"BUS","route":"15","agencyName":"Société de Transport du Saguenay","agencyUrl":"http://ville.saguenay.ca/fr/services-aux-citoyens/transport-sts","agencyTimeZoneOffset":-14400000,"routeColor":"FF00FF","routeType":3,"routeId":"1:15","routeTextColor":"FFFFFF","interlineWithPreviousLeg":true,"tripBlockId":"30","headsign":"Terminus Chicoutimi","agencyId":"0","tripId":"1:218106","serviceDate":"20180402","from":{"name":"Roitelets / Sapins","stopId":"1:1543","stopCode":"1543","lon":-71.069553,"lat":48.393375,"arrival":1522699860000,"departure":1522699860000,"zoneId":"NA","stopIndex":0,"stopSequence":1,"vertexType":"TRANSIT"},"to":{"name":"Roitelets / Faucons","stopId":"1:1545","stopCode":"1545","lon":-71.052988,"lat":48.392905,"arrival":1522700035000,"departure":1522700036000,"zoneId":"NA","stopIndex":4,"stopSequence":5,"vertexType":"TRANSIT"},"legGeometry":{"points":"_zjfHfwwpLx@}BHa@NaADq@@y@Cy@I{@Ka@O[Sg@c@mAWwAMyA?EC]?wABuABmFB{@BmDFuH@i@F[FsC@c@TuGEGVsHPuDLuBXsFDoA?W","length":34},"routeShortName":"15","routeLongName":"Term. Chic / Costco","rentedBike":false,"transitLeg":true,"duration":175.0,"steps":[]},{"startTime":1522700036000,"endTime":1522700112000,"departureDelay":0,"arrivalDelay":0,"realTime":false,"distance":91.217,"pathway":false,"mode":"WALK","route":"","agencyTimeZoneOffset":-14400000,"interlineWithPreviousLeg":false,"from":{"name":"Roitelets / Faucons","stopId":"1:1545","stopCode":"1545","lon":-71.052988,"lat":48.392905,"arrival":1522700035000,"departure":1522700036000,"zoneId":"NA","stopIndex":4,"stopSequence":5,"vertexType":"TRANSIT"},"to":{"name":"Destination","lon":-71.05405,"lat":48.394286,"arrival":1522700112000,"orig":"","vertexType":"NORMAL"},"legGeometry":{"points":"qvjfHfptpLALK?sBCSX","length":5},"rentedBike":false,"transitLeg":false,"duration":76.0,"steps":[{"distance":5.804,"relativeDirection":"DEPART","streetName":"bike path","absoluteDirection":"WEST","stayOn":false,"area":false,"bogusName":true,"lon":-71.05299114869932,"lat":48.392896082309186,"elevation":[]},{"distance":6.628,"relativeDirection":"RIGHT","streetName":"Rue des Faucons","absoluteDirection":"NORTH","stayOn":false,"area":false,"bogusName":false,"lon":-71.0530677,"lat":48.392908000000006,"elevation":[]},{"distance":78.785,"relativeDirection":"CONTINUE","streetName":"Rue des Hiboux","absoluteDirection":"NORTH","stayOn":false,"area":false,"bogusName":false,"lon":-71.053066,"lat":48.392967600000006,"elevation":[]}]}],"tooSloped":false}]},"debugOutput":{"precalculationTime":25,"pathCalculationTime":32,"pathTimes":[16,7,9],"renderingTime":0,"totalTime":57,"timedOut":false},"elevationMetadata":{"ellipsoidToGeoidDifference":-28.885904201182168,"geoidElevation":false}}