{"requestParameters":{"date":"2018/04/02","walkSpeed":"1.33","walkReluctance":"2.0","fromPlace":"48.412051,-71.05021899","maxWalkDistance":"3000","waitReluctance":"1.0","carSpeed":"33","numItineraries":"3","waitAtBeginningFactor":"0.4","mode":"TRANSIT,WALK","ignoreRealtimeUpdates":"false","stairsReluctance":"2.0","toPlace":"48.393836,-71.054046","time":"16:0:00"},"plan":{"date":1522699200000,"from":{"name":"Origin","lon":-71.05021899,"lat":48.412051,"orig":"","vertexType":"NORMAL"},"to":{"name":"Destination","lon":-71.054046,"lat":48.393836,"orig":"","vertexType":"NORMAL"},"itineraries":[{"duration":592,"startTime":1522699583000,"endTime":1522700175000,"walkTime":459,"transitTime":131,"waitingTime":2,"walkDistance":580.3353759349974,"walkLimitExceeded":false,"elevationLost":0.0,"elevationGained":0.0,"transfers":0,"legs":[{"startTime":1522699583000,"endTime":1522699858000,"departureDelay":0,"arrivalDelay":0,"realTime":false,"distance":344.21899999999994,"pathway":false,"mode":"WALK","route":"","agencyTimeZoneOffset":-14400000,"interlineWithPreviousLeg":false,"from":{"name":"Origin","lon":-71.05021899,"lat":48.412051,"departure":1522699583000,"orig":"","vertexType":"NORMAL"},"to":{"name":"Sûreté du Québec (Roitelets / Lorenzo-Genest)","stopId":"1:58","stopCode":"58","lon":-71.048311,"lat":48.40979,"arrival":1522699858000,"departure":1522699859000,"zoneId":"NA","stopIndex":11,"stopSequence":12,"vertexType":"TRANSIT"},"legGeometry":{"points":"cmnfHb`tpLb@iAZ}@VPxBeHF_@`@o@XMd@KJD~Av@","length":11},"rentedBike":false,"transitLeg":false,"duration":275.0,"steps":[{"distance":217.11699999999996,"relativeDirection":"DEPART","streetName":"Boulevard de l'Université","absoluteDirection":"SOUTHEAST","stayOn":false,"area":false,"bogusName":false,"lon":-71.05041844838937,"lat":48.41186158446426,"elevation":[]},{"distance":62.949,"relativeDirection":"SLIGHTLY_RIGHT","streetName":"link","absoluteDirection":"SOUTHEAST","stayOn":false,"area":false,"bogusName":true,"lon":-71.04819570000001,"lat":48.410774100000005,"elevation":[]},{"distance":64.153,"relativeDirection":"SLIGHTLY_RIGHT","streetName":"Rue Des Roitelets","absoluteDirection":"SOUTH","stayOn":false,"area":false,"bogusName":false,"lon":-71.0478246,"lat":48.4102837,"elevation":[]}]},{"startTime":1522699859000,"endTime":1522699990000,"departureDelay":0,"arrivalDelay":0,"realTime":false,"distance":1930.6310650720093,"pathway":false,"mode":"BUS","route":"214S","agencyName":"Société de Transport du Saguenay","agencyUrl":"http://ville.saguenay.ca/fr/services-aux-citoyens/transport-sts","agencyTimeZoneOffset":-14400000,"routeColor":"8B0000","routeType":3,"routeId":"1:214S","routeTextColor":"FFFFFF","interlineWithPreviousLeg":false,"headsign":"Carcajous / Martres","agencyId":"0","tripId":"1:218520","serviceDate":"20180402","from":{"name":"Sûreté du Québec (Roitelets / Lorenzo-Genest)","stopId":"1:58","stopCode":"58","lon":-71.048311,"lat":48.40979,"arrival":1522699858000,"departure":1522699859000,"zoneId":"NA","stopIndex":11,"stopSequence":12,"vertexType":"TRANSIT"},"to":{"name":"Résidence Villa du Saguenay (Roitelets)","stopId":"1:1524","stopCode":"1524","lon":-71.051181,"lat":48.393492,"arrival":1522699990000,"departure":1522699991000,"zoneId":"NA","stopIndex":17,"stopSequence":18,"vertexType":"TRANSIT"},"legGeometry":{"points":"{_nfH|qspLBBzDjB|FpCFDHDbAb@pAb@tGuA~VwIJCxCqA~Ae@LElB]vFBtEfBPFzHpHx@v@XZdBjBz@t@hChB`@|@@B","length":26},"routeShortName":"214S","routeLongName":"Séminaire - Chicoutimi Sud","rentedBike":false,"transitLeg":true,"duration":131.0,"steps":[]},{"startTime":1522699991000,"endTime":1522700175000,"departureDelay":0,"arrivalDelay":0,"realTime":false,"distance":235.966,"pathway":false,"mode":"WALK","route":"","agencyTimeZoneOffset":-14400000,"interlineWithPreviousLeg":false,"from":{"name":"Résidence Villa du Saguenay (Roitelets)","stopId":"1:1524","stopCode":"1524","lon":-71.051181,"lat":48.393492,"arrival":1522699990000,"departure":1522699991000,"zoneId":"NA","stopIndex":17,"stopSequence":18,"vertexType":"TRANSIT"},"to":{"name":"Destination","lon":-71.054046,"lat":48.393836,"arrival":1522700175000,"orig":"","vertexType":"NORMAL"},"legGeometry":{"points":"_zjfHpdtpLNZ`@lAb@pBHfDsBCSX","length":7},"rentedBike":false,"transitLeg":false,"duration":184.0,"steps":[{"distance":157.181,"relativeDirection":"DEPART","streetName":"Rue Des Roitelets","absoluteDirection":"SOUTHWEST","stayOn":false,"area":false,"bogusName":false,"lon":-71.05112115840586,"lat":48.393446235204785,"elevation":[]},{"distance":78.785,"relativeDirection":"RIGHT","streetName":"Rue des Hiboux","absoluteDirection":"NORTH","stayOn":false,"area":false,"bogusName":false,"lon":-71.053066,"lat":48.392967600000006,"elevation":[]}]}],"tooSloped":false},{"duration":1281,"startTime":1522699898000,"endTime":1522701179000,"walkTime":300,"transitTime":668,"waitingTime":313,"walkDistance":372.2314210488105,"walkLimitExceeded":false,"elevationLost":0.0,"elevationGained":0.0,"transfers":1,"legs":[{"startTime":1522699898000,"endTime":1522699982000,"departureDelay":0,"arrivalDelay":0,"realTime":false,"distance":97.81099999999999,"pathway":false,"mode":"WALK","route":"","agencyTimeZoneOffset":-14400000,"interlineWithPreviousLeg":false,"from":{"name":"Origin","lon":-71.05021899,"lat":48.412051,"departure":1522699898000,"orig":"","vertexType":"NORMAL"},"to":{"name":"boul. Université / Murdock","stopId":"1:80","stopCode":"80","lon":-71.050111,"lat":48.411498,"arrival":1522699982000,"departure":1522699983000,"zoneId":"NA","stopIndex":14,"stopSequence":15,"vertexType":"TRANSIT"},"legGeometry":{"points":"cmnfHb`tpLb@iAZ}@VPUn@","length":5},"rentedBike":false,"transitLeg":false,"duration":84.0,"steps":[{"distance":61.79599999999999,"relativeDirection":"DEPART","streetName":"Boulevard de l'Université","absoluteDirection":"SOUTHEAST","stayOn":false,"area":false,"bogusName":false,"lon":-71.05041844838937,"lat":48.41186158446426,"elevation":[]},{"distance":36.015,"relativeDirection":"UTURN_RIGHT","streetName":"Boulevard de l'Université","absoluteDirection":"NORTHWEST","stayOn":true,"area":false,"bogusName":false,"lon":-71.0498268,"lat":48.4114298,"elevation":[]}]},{"startTime":1522699983000,"endTime":1522700220000,"departureDelay":0,"arrivalDelay":0,"realTime":false,"distance":1625.1572422718677,"pathway":false,"mode":"BUS","route":"175","agencyName":"Société de Transport du Saguenay","agencyUrl":"http://ville.saguenay.ca/fr/services-aux-citoyens/transport-sts","agencyTimeZoneOffset":-14400000,"routeColor":"FF00FF","routeType":3,"routeId":"1:175","routeTextColor":"FFFFFF","interlineWithPreviousLeg":false,"tripBlockId":"80","headsign":"Costco","agencyId":"0","tripId":"1:218654","serviceDate":"20180402","from":{"name":"boul. Université / Murdock","stopId":"1:80","stopCode":"80","lon":-71.050111,"lat":48.411498,"arrival":1522699982000,"departure":1522699983000,"zoneId":"NA","stopIndex":14,"stopSequence":15,"vertexType":"TRANSIT"},"to":{"name":"Place du Royaume (Saguenéens)","stopId":"1:1294","stopCode":"1294","lon":-71.057691,"lat":48.402355,"arrival":1522700220000,"departure":1522700220000,"zoneId":"NA","stopIndex":20,"stopSequence":21,"vertexType":"TRANSIT"},"legGeometry":{"points":"aknfH~}spLr@sBhCsKz@dAjB|@dM`GzCvAXrCr@~Gx@]PEr@ObACn@FrBb@|@Ch@Kx@U~HsB^KZ|DJpII~Fa@rFUzBi@bD","length":26},"routeShortName":"175","routeLongName":"Term. Chic / Costco","rentedBike":false,"transitLeg":true,"duration":237.0,"steps":[]},{"startTime":1522700220000,"endTime":1522700329000,"departureDelay":0,"arrivalDelay":0,"realTime":false,"distance":141.065,"pathway":false,"mode":"WALK","route":"","agencyTimeZoneOffset":-14400000,"interlineWithPreviousLeg":false,"from":{"name":"Place du Royaume (Saguenéens)","stopId":"1:1294","stopCode":"1294","lon":-71.057691,"lat":48.402355,"arrival":1522700220000,"departure":1522700220000,"zoneId":"NA","stopIndex":20,"stopSequence":21,"vertexType":"TRANSIT"},"to":{"name":"Place du Royaume (Saguenéens)","stopId":"1:2203","stopCode":"2203","lon":-71.058027,"lat":48.402154,"arrival":1522700329000,"departure":1522700640000,"zoneId":"NA","stopIndex":16,"stopSequence":17,"vertexType":"TRANSIT"},"legGeometry":{"points":"iqlfHxmupLa@dCMh@TPh@mC","length":5},"rentedBike":false,"transitLeg":false,"duration":109.0,"steps":[{"distance":70.008,"relativeDirection":"DEPART","streetName":"Rue des Saguenéens","absoluteDirection":"WEST","stayOn":false,"area":false,"bogusName":false,"lon":-71.05772328170832,"lat":48.402297506554895,"elevation":[]},{"distance":71.057,"relativeDirection":"LEFT","streetName":"Rue des Saguenéens","absoluteDirection":"SOUTHWEST","stayOn":true,"area":false,"bogusName":false,"lon":-71.0586019,"lat":48.4025327,"elevation":[]}]},{"startTime":1522700640000,"endTime":1522701071000,"departureDelay":0,"arrivalDelay":0,"realTime":false,"distance":2631.3760847554245,"pathway":false,"mode":"BUS","route":"415S","agencyName":"Société de Transport du Saguenay","agencyUrl":"http://ville.saguenay.ca/fr/services-aux-citoyens/transport-sts","agencyTimeZoneOffset":-14400000,"routeColor":"8B0000","routeType":3,"routeId":"1:415S","routeTextColor":"FFFFFF","interlineWithPreviousLeg":false,"tripBlockId":"68","headsign":"Costco","agencyId":"0","tripId":"1:218587","serviceDate":"20180402","from":{"name":"Place du Royaume (Saguenéens)","stopId":"1:2203","stopCode":"2203","lon":-71.058027,"lat":48.402154,"arrival":1522700329000,"departure":1522700640000,"zoneId":"NA","stopIndex":16,"stopSequence":17,"vertexType":"TRANSIT"},"to":{"name":"Roitelets / Faucons","stopId":"1:1522","stopCode":"1522","lon":-71.053785,"lat":48.393094,"arrival":1522701071000,"departure":1522701072000,"zoneId":"NA","stopIndex":28,"stopSequence":29,"vertexType":"TRANSIT"},"legGeometry":{"points":"uplfHnoupL?Cl@mEd@Jd@Vb@\\LNVVRZb@bA^n@Zb@n@r@lAjAfBtBZu@vCoHBGTs@XiARg@`CqGtAwDTm@V]w@qAW]gCoCqBsBiBqBeAeAA?{@i@w@_@aAUo@IUCe@A{AFyAZMwAu@uFy@kFfEgB|DaBv@YPEr@QfAQtAK`BF`BR~@PrB|@B@|AfAhAbA|EhF|CdDdCpBb@d@^j@@B`@x@Rn@P~@Jt@FbABt@At@EnAEz@","length":72},"routeShortName":"415S","routeLongName":"Term. Chic / Costco","rentedBike":false,"transitLeg":true,"duration":431.0,"steps":[]},{"startTime":1522701072000,"endTime":1522701179000,"departureDelay":0,"arrivalDelay":0,"realTime":false,"distance":133.237,"pathway":false,"mode":"WALK","route":"","agencyTimeZoneOffset":-14400000,"interlineWithPreviousLeg":false,"from":{"name":"Roitelets / Faucons","stopId":"1:1522","stopCode":"1522","lon":-71.053785,"lat":48.393094,"arrival":1522701071000,"departure":1522701072000,"zoneId":"NA","stopIndex":28,"stopSequence":29,"vertexType":"TRANSIT"},"to":{"name":"Destination","lon":-71.054046,"lat":48.393836,"arrival":1522701179000,"orig":"","vertexType":"NORMAL"},"legGeometry":{"points":"mwjfHfutpLLqCsBCSX","length":4},"rentedBike":false,"transitLeg":false,"duration":107.0,"steps":[{"distance":54.452,"relativeDirection":"DEPART","streetName":"Rue Des Roitelets","absoluteDirection":"EAST","stayOn":false,"area":false,"bogusName":false,"lon":-71.05379738546898,"lat":48.39303039496913,"elevation":[]},{"distance":78.785,"relativeDirection":"LEFT","streetName":"Rue des Hiboux","absoluteDirection":"NORTH","stayOn":false,"area":false,"bogusName":false,"lon":-71.053066,"lat":48.392967600000006,"elevation":[]}]}],"tooSloped":false},{"duration":890,"startTime":1522700798000,"endTime":1522701688000,"walkTime":160,"transitTime":428,"waitingTime":302,"walkDistance":189.14040601141056,"walkLimitExceeded":false,"elevationLost":0.0,"elevationGained":0.0,"transfers":1,"legs":[{"startTime":1522700798000,"endTime":1522700882000,"departureDelay":0,"arrivalDelay":0,"realTime":false,"distance":97.81099999999999,"pathway":false,"mode":"WALK","route":"","agencyTimeZoneOffset":-14400000,"interlineWithPreviousLeg":false,"from":{"name":"Origin","lon":-71.05021899,"lat":48.412051,"departure":1522700798000,"orig":"","vertexType":"NORMAL"},"to":{"name":"boul. Université / Murdock","stopId":"1:80","stopCode":"80","lon":-71.050111,"lat":48.411498,"arrival":1522700882000,"departure":1522700883000,"zoneId":"NA","stopIndex":14,"stopSequence":15,"vertexType":"TRANSIT"},"legGeometry":{"points":"cmnfHb`tpLb@iAZ}@VPUn@","length":5},"rentedBike":false,"transitLeg":false,"duration":84.0,"steps":[{"distance":61.79599999999999,"relativeDirection":"DEPART","streetName":"Boulevard de l'Université","absoluteDirection":"SOUTHEAST","stayOn":false,"area":false,"bogusName":false,"lon":-71.05041844838937,"lat":48.41186158446426,"elevation":[]},{"distance":36.015,"relativeDirection":"UTURN_RIGHT","streetName":"Boulevard de l'Université","absoluteDirection":"NORTHWEST","stayOn":true,"area":false,"bogusName":false,"lon":-71.0498268,"lat":48.4114298,"elevation":[]}]},{"startTime":1522700883000,"endTime":1522701120000,"departureDelay":0,"arrivalDelay":0,"realTime":false,"distance":1625.1572422718677,"pathway":false,"mode":"BUS","route":"175","agencyName":"Société de Transport du Saguenay","agencyUrl":"http://ville.saguenay.ca/fr/services-aux-citoyens/transport-sts","agencyTimeZoneOffset":-14400000,"routeColor":"FF00FF","routeType":3,"routeId":"1:175","routeTextColor":"FFFFFF","interlineWithPreviousLeg":false,"tripBlockId":"7","headsign":"Costco","agencyId":"0","tripId":"1:217340","serviceDate":"20180402","from":{"name":"boul. Université / Murdock","stopId":"1:80","stopCode":"80","lon":-71.050111,"lat":48.411498,"arrival":1522700882000,"departure":1522700883000,"zoneId":"NA","stopIndex":14,"stopSequence":15,"vertexType":"TRANSIT"},"to":{"name":"Place du Royaume (Saguenéens)","stopId":"1:1294","stopCode":"1294","lon":-71.057691,"lat":48.402355,"arrival":1522701120000,"departure":1522701420000,"zoneId":"NA","stopIndex":20,"stopSequence":21,"vertexType":"TRANSIT"},"legGeometry":{"points":"aknfH~}spLr@sBhCsKz@dAjB|@dM`GzCvAXrCr@~Gx@]PEr@ObACn@FrBb@|@Ch@Kx@U~HsB^KZ|DJpII~Fa@rFUzBi@bD","length":26},"routeShortName":"175","routeLongName":"Term. Chic / Costco","rentedBike":false,"transitLeg":true,"duration":237.0,"steps":[]},{"startTime":1522701420000,"endTime":1522701611000,"departureDelay":0,"arrivalDelay":0,"realTime":false,"distance":1916.146226718374,"pathway":false,"mode":"BUS","route":"15","agencyName":"Société de Transport du Saguenay","agencyUrl":"http://ville.saguenay.ca/fr/services-aux-citoyens/transport-sts","agencyTimeZoneOffset":-14400000,"routeColor":"FF00FF","routeType":3,"routeId":"1:15","routeTextColor":"FFFFFF","interlineWithPreviousLeg":false,"tripBlockId":"33","headsign":"Talbot / Barrette","agencyId":"0","tripId":"1:218191","serviceDate":"20180402","from":{"name":"Place du Royaume (Saguenéens)","stopId":"1:1294","stopCode":"1294","lon":-71.057691,"lat":48.402355,"arrival":1522701120000,"departure":1522701420000,"zoneId":"NA","stopIndex":24,"stopSequence":25,"vertexType":"TRANSIT"},"to":{"name":"Roitelets / Faucons","stopId":"1:1545","stopCode":"1545","lon":-71.052988,"lat":48.392905,"arrival":1522701611000,"departure":1522701612000,"zoneId":"NA","stopIndex":31,"stopSequence":32,"vertexType":"TRANSIT"},"legGeometry":{"points":"_rlfHjmupLbCaO?qLa@uJzF`ApF~@~@PzAgEeDcBf@qAWcKUqEx@Ef@ExDVjDxAFBrBvAfGjG@BjCzC~DxC@@zA~Cb@fCJlC?B","length":27},"routeShortName":"15","routeLongName":"Term. Chic / Costco","rentedBike":false,"transitLeg":true,"duration":191.0,"steps":[]},{"startTime":1522701612000,"endTime":1522701688000,"departureDelay":0,"arrivalDelay":0,"realTime":false,"distance":91.217,"pathway":false,"mode":"WALK","route":"","agencyTimeZoneOffset":-14400000,"interlineWithPreviousLeg":false,"from":{"name":"Roitelets / Faucons","stopId":"1:1545","stopCode":"1545","lon":-71.052988,"lat":48.392905,"arrival":1522701611000,"departure":1522701612000,"zoneId":"NA","stopIndex":31,"stopSequence":32,"vertexType":"TRANSIT"},"to":{"name":"Destination","lon":-71.054046,"lat":48.393836,"arrival":1522701688000,"orig":"","vertexType":"NORMAL"},"legGeometry":{"points":"qvjfHfptpLALK?sBCSX","length":5},"rentedBike":false,"transitLeg":false,"duration":76.0,"steps":[{"distance":5.804,"relativeDirection":"DEPART","streetName":"bike path","absoluteDirection":"WEST","stayOn":false,"area":false,"bogusName":true,"lon":-71.05299114869932,"lat":48.392896082309186,"elevation":[]},{"distance":6.628,"relativeDirection":"RIGHT","streetName":"Rue des Faucons","absoluteDirection":"NORTH","stayOn":false,"area":false,"bogusName":false,"lon":-71.0530677,"lat":48.392908000000006,"elevation":[]},{"distance":78.785,"relativeDirection":"CONTINUE","streetName":"Rue des Hiboux","absoluteDirection":"NORTH","stayOn":false,"area":false,"bogusName":false,"lon":-71.053066,"lat":48.392967600000006,"elevation":[]}]}],"tooSloped":false}]},"debugOutput":{"precalculationTime":29,"pathCalculationTime":33,"pathTimes":[15,10,8],"renderingTime":0,"totalTime":62,"timedOut":false},"elevationMetadata":{"ellipsoidToGeoidDifference":-28.885904201182168,"geoidElevation":false}}