{"requestParameters":{"date":"2018/04/02","walkSpeed":"1.33","walkReluctance":"2.0","fromPlace":"48.392768,-71.05922","maxWalkDistance":"3000","waitReluctance":"1.0","carSpeed":"33","numItineraries":"3","waitAtBeginningFactor":"0.4","mode":"TRANSIT,WALK","ignoreRealtimeUpdates":"false","stairsReluctance":"2.0","toPlace":"48.403727,-71.056775","time":"13:0:00"},"plan":{"date":1522688400000,"from":{"name":"Origin","lon":-71.05922,"lat":48.392768,"orig":"","vertexType":"NORMAL"},"to":{"name":"Destination","lon":-71.056775,"lat":48.403727,"orig":"","vertexType":"NORMAL"},"itineraries":[{"duration":647,"startTime":1522689098000,"endTime":1522689745000,"walkTime":275,"transitTime":370,"waitingTime":2,"walkDistance":344.3447067642486,"walkLimitExceeded":false,"elevationLost":0.0,"elevationGained":0.0,"transfers":0,"legs":[{"startTime":1522689098000,"endTime":1522689169000,"departureDelay":0,"arrivalDelay":0,"realTime":false,"distance":87.777,"pathway":false,"mode":"WALK","route":"","agencyTimeZoneOffset":-14400000,"interlineWithPreviousLeg":false,"from":{"name":"Origin","lon":-71.05922,"lat":48.392768,"departure":1522689098000,"orig":"","vertexType":"NORMAL"},"to":{"name":"Roitelets / Colombes","stopId":"1:1544","stopCode":"1544","lon":-71.059204,"lat":48.393412,"arrival":1522689169000,"departure":1522689170000,"zoneId":"NA","stopIndex":3,"stopSequence":4,"vertexType":"TRANSIT"},"legGeometry":{"points":"{ujfHvxupLiCY@]","length":3},"rentedBike":false,"transitLeg":false,"duration":71.0,"steps":[{"distance":76.831,"relativeDirection":"DEPART","streetName":"Rue des Coulombes","absoluteDirection":"NORTH","stayOn":false,"area":false,"bogusName":false,"lon":-71.05947389079166,"lat":48.39278969161897,"elevation":[]},{"distance":10.946,"relativeDirection":"RIGHT","streetName":"bike path","absoluteDirection":"EAST","stayOn":false,"area":false,"bogusName":true,"lon":-71.0593411,"lat":48.393475,"elevation":[]}]},{"startTime":1522689170000,"endTime":1522689540000,"departureDelay":0,"arrivalDelay":0,"realTime":false,"distance":2378.555747200831,"pathway":false,"mode":"BUS","route":"15","agencyName":"Société de Transport du Saguenay","agencyUrl":"http://ville.saguenay.ca/fr/services-aux-citoyens/transport-sts","agencyTimeZoneOffset":-14400000,"routeColor":"FF00FF","routeType":3,"routeId":"1:15","routeTextColor":"FFFFFF","interlineWithPreviousLeg":false,"tripBlockId":"30","headsign":"Terminus Chicoutimi","agencyId":"0","tripId":"1:218100","serviceDate":"20180402","from":{"name":"Roitelets / Colombes","stopId":"1:1544","stopCode":"1544","lon":-71.059204,"lat":48.393412,"arrival":1522689169000,"departure":1522689170000,"zoneId":"NA","stopIndex":3,"stopSequence":4,"vertexType":"TRANSIT"},"to":{"name":"Place du Royaume (Saguenéens)","stopId":"1:1294","stopCode":"1294","lon":-71.057691,"lat":48.402355,"arrival":1522689540000,"departure":1522689541000,"zoneId":"NA","stopIndex":11,"stopSequence":12,"vertexType":"TRANSIT"},"legGeometry":{"points":"czjfH~vupLTuGEGVsHPuDLuBXsFDoA?W@]Cu@GcAKu@Q_ASo@a@y@a@o@MOUUeCqBiDsDqE{EiAcAcB_AqBgA_AQaBSaBG_@Bu@FG?h@fNKnDpCfBkAzDgA}@y@q@sDy@GAeGT~@~KKrKyAnL[hB","length":44},"routeShortName":"15","routeLongName":"Term. Chic / Costco","rentedBike":false,"transitLeg":true,"duration":370.0,"steps":[]},{"startTime":1522689541000,"endTime":1522689745000,"departureDelay":0,"arrivalDelay":0,"realTime":false,"distance":256.485,"pathway":false,"mode":"WALK","route":"","agencyTimeZoneOffset":-14400000,"interlineWithPreviousLeg":false,"from":{"name":"Place du Royaume (Saguenéens)","stopId":"1:1294","stopCode":"1294","lon":-71.057691,"lat":48.402355,"arrival":1522689540000,"departure":1522689541000,"zoneId":"NA","stopIndex":11,"stopSequence":12,"vertexType":"TRANSIT"},"to":{"name":"Destination","lon":-71.056775,"lat":48.403727,"arrival":1522689745000,"orig":"","vertexType":"NORMAL"},"legGeometry":{"points":"iqlfHxmupLa@dCMh@GM[m@i@aAc@a@YYYWs@q@YYSS","length":12},"rentedBike":false,"transitLeg":false,"duration":204.0,"steps":[{"distance":70.008,"relativeDirection":"DEPART","streetName":"Rue des Saguenéens","absoluteDirection":"WEST","stayOn":false,"area":false,"bogusName":false,"lon":-71.05772328170832,"lat":48.402297506554895,"elevation":[]},{"distance":186.477,"relativeDirection":"RIGHT","streetName":"service road","absoluteDirection":"NORTHEAST","stayOn":false,"area":false,"bogusName":true,"lon":-71.0586019,"lat":48.4025327,"elevation":[]}]}],"tooSloped":false},{"duration":1380,"startTime":1522688400000,"endTime":1522689780000,"walkTime":1380,"transitTime":0,"waitingTime":0,"walkDistance":1769.0149323204073,"walkLimitExceeded":false,"elevationLost":0.0,"elevationGained":0.0,"transfers":0,"legs":[{"startTime":1522688400000,"endTime":1522689780000,"departureDelay":0,"arrivalDelay":0,"realTime":false,"distance":1768.6920000000002,"pathway":false,"mode":"WALK","route":"","agencyTimeZoneOffset":-14400000,"interlineWithPreviousLeg":false,"from":{"name":"Origin","lon":-71.05922,"lat":48.392768,"departure":1522688400000,"orig":"","vertexType":"NORMAL"},"to":{"name":"Destination","lon":-71.056775,"lat":48.403727,"arrival":1522689780000,"orig":"","vertexType":"NORMAL"},"legGeometry":{"points":"{ujfHvxupLiCYGAL_E{@[QOS_@OOWYSWiDoLO]OGM?K^oDsC{BiBoBhFUl@sCpHk@xAO`@??}A`EoByB_F}EQXaAxAa@m@EG]_@c@Yu@]WMSi@CME[KKUU[[[Y}DnGYYSS","length":44},"rentedBike":false,"transitLeg":false,"duration":1380.0,"steps":[{"distance":80.766,"relativeDirection":"DEPART","streetName":"Rue des Coulombes","absoluteDirection":"NORTH","stayOn":false,"area":false,"bogusName":false,"lon":-71.05947389079166,"lat":48.39278969161897,"elevation":[]},{"distance":71.509,"relativeDirection":"RIGHT","streetName":"Rue Des Roitelets","absoluteDirection":"EAST","stayOn":false,"area":false,"bogusName":false,"lon":-71.0593343,"lat":48.3935101,"elevation":[]},{"distance":334.41,"relativeDirection":"LEFT","streetName":"Rue des Hérons","absoluteDirection":"NORTH","stayOn":false,"area":false,"bogusName":false,"lon":-71.05837050000001,"lat":48.3934468,"elevation":[]},{"distance":190.906,"relativeDirection":"RIGHT","streetName":"path","absoluteDirection":"NORTHEAST","stayOn":false,"area":false,"bogusName":true,"lon":-71.0554784,"lat":48.3953773,"elevation":[]},{"distance":412.875,"relativeDirection":"LEFT","streetName":"Rue des Crécerelles","absoluteDirection":"NORTHWEST","stayOn":false,"area":false,"bogusName":false,"lon":-71.0542028,"lat":48.3968707,"elevation":[]},{"distance":225.005,"relativeDirection":"RIGHT","streetName":"Rue des Sarcelles","absoluteDirection":"NORTHEAST","stayOn":false,"area":false,"bogusName":false,"lon":-71.0587213,"lat":48.3990585,"elevation":[]},{"distance":63.219,"relativeDirection":"LEFT","streetName":"Rue des Pinsons","absoluteDirection":"NORTHWEST","stayOn":false,"area":false,"bogusName":false,"lon":-71.05700780000001,"lat":48.400731400000005,"elevation":[]},{"distance":118.646,"relativeDirection":"RIGHT","streetName":"Rue des Grands-Ducs","absoluteDirection":"NORTHEAST","stayOn":false,"area":false,"bogusName":false,"lon":-71.0575855,"lat":48.401151000000006,"elevation":[]},{"distance":95.016,"relativeDirection":"SLIGHTLY_RIGHT","streetName":"service road","absoluteDirection":"NORTHEAST","stayOn":false,"area":false,"bogusName":true,"lon":-71.0568056,"lat":48.4020704,"elevation":[]},{"distance":145.585,"relativeDirection":"LEFT","streetName":"path","absoluteDirection":"NORTHWEST","stayOn":true,"area":false,"bogusName":true,"lon":-71.05594760000001,"lat":48.402671700000006,"elevation":[]},{"distance":30.755,"relativeDirection":"RIGHT","streetName":"service road","absoluteDirection":"NORTHEAST","stayOn":true,"area":false,"bogusName":true,"lon":-71.05730150000001,"lat":48.403623700000004,"elevation":[]}]}],"tooSloped":false},{"duration":647,"startTime":1522690898000,"endTime":1522691545000,"walkTime":275,"transitTime":370,"waitingTime":2,"walkDistance":344.3447067642486,"walkLimitExceeded":false,"elevationLost":0.0,"elevationGained":0.0,"transfers":0,"legs":[{"startTime":1522690898000,"endTime":1522690969000,"departureDelay":0,"arrivalDelay":0,"realTime":false,"distance":87.777,"pathway":false,"mode":"WALK","route":"","agencyTimeZoneOffset":-14400000,"interlineWithPreviousLeg":false,"from":{"name":"Origin","lon":-71.05922,"lat":48.392768,"departure":1522690898000,"orig":"","vertexType":"NORMAL"},"to":{"name":"Roitelets / Colombes","stopId":"1:1544","stopCode":"1544","lon":-71.059204,"lat":48.393412,"arrival":1522690969000,"departure":1522690970000,"zoneId":"NA","stopIndex":3,"stopSequence":4,"vertexType":"TRANSIT"},"legGeometry":{"points":"{ujfHvxupLiCY@]","length":3},"rentedBike":false,"transitLeg":false,"duration":71.0,"steps":[{"distance":76.831,"relativeDirection":"DEPART","streetName":"Rue des Coulombes","absoluteDirection":"NORTH","stayOn":false,"area":false,"bogusName":false,"lon":-71.05947389079166,"lat":48.39278969161897,"elevation":[]},{"distance":10.946,"relativeDirection":"RIGHT","streetName":"bike path","absoluteDirection":"EAST","stayOn":false,"area":false,"bogusName":true,"lon":-71.0593411,"lat":48.393475,"elevation":[]}]},{"startTime":1522690970000,"endTime":1522691340000,"departureDelay":0,"arrivalDelay":0,"realTime":false,"distance":2378.555747200831,"pathway":false,"mode":"BUS","route":"15","agencyName":"Société de Transport du Saguenay","agencyUrl":"http://ville.saguenay.ca/fr/services-aux-citoyens/transport-sts","agencyTimeZoneOffset":-14400000,"routeColor":"FF00FF","routeType":3,"routeId":"1:15","routeTextColor":"FFFFFF","interlineWithPreviousLeg":false,"tripBlockId":"32","headsign":"Terminus Chicoutimi","agencyId":"0","tripId":"1:218161","serviceDate":"20180402","from":{"name":"Roitelets / Colombes","stopId":"1:1544","stopCode":"1544","lon":-71.059204,"lat":48.393412,"arrival":1522690969000,"departure":1522690970000,"zoneId":"NA","stopIndex":3,"stopSequence":4,"vertexType":"TRANSIT"},"to":{"name":"Place du Royaume (Saguenéens)","stopId":"1:1294","stopCode":"1294","lon":-71.057691,"lat":48.402355,"arrival":1522691340000,"departure":1522691341000,"zoneId":"NA","stopIndex":11,"stopSequence":12,"vertexType":"TRANSIT"},"legGeometry":{"points":"czjfH~vupLTuGEGVsHPuDLuBXsFDoA?W@]Cu@GcAKu@Q_ASo@a@y@a@o@MOUUeCqBiDsDqE{EiAcAcB_AqBgA_AQaBSaBG_@Bu@FG?h@fNKnDpCfBkAzDgA}@y@q@sDy@GAeGT~@~KKrKyAnL[hB","length":44},"routeShortName":"15","routeLongName":"Term. Chic / Costco","rentedBike":false,"transitLeg":true,"duration":370.0,"steps":[]},{"startTime":1522691341000,"endTime":1522691545000,"departureDelay":0,"arrivalDelay":0,"realTime":false,"distance":256.485,"pathway":false,"mode":"WALK","route":"","agencyTimeZoneOffset":-14400000,"interlineWithPreviousLeg":false,"from":{"name":"Place du Royaume (Saguenéens)","stopId":"1:1294","stopCode":"1294","lon":-71.057691,"lat":48.402355,"arrival":1522691340000,"departure":1522691341000,"zoneId":"NA","stopIndex":11,"stopSequence":12,"vertexType":"TRANSIT"},"to":{"name":"Destination","lon":-71.056775,"lat":48.403727,"arrival":1522691545000,"orig":"","vertexType":"NORMAL"},"legGeometry":{"points":"iqlfHxmupLa@dCMh@GM[m@i@aAc@a@YYYWs@q@YYSS","length":12},"rentedBike":false,"transitLeg":false,"duration":204.0,"steps":[{"distance":70.008,"relativeDirection":"DEPART","streetName":"Rue des Saguenéens","absoluteDirection":"WEST","stayOn":false,"area":false,"bogusName":false,"lon":-71.05772328170832,"lat":48.402297506554895,"elevation":[]},{"distance":186.477,"relativeDirection":"RIGHT","streetName":"service road","absoluteDirection":"NORTHEAST","stayOn":false,"area":false,"bogusName":true,"lon":-71.0586019,"lat":48.4025327,"elevation":[]}]}],"tooSloped":false}]},"debugOutput":{"precalculationTime":31,"pathCalculationTime":24,"pathTimes":[12,7,5],"renderingTime":1,"totalTime":56,"timedOut":false},"elevationMetadata":{"ellipsoidToGeoidDifference":-28.885904201182168,"geoidElevation":false}}