{"requestParameters":{"date":"2018/04/02","walkSpeed":"1.33","walkReluctance":"2.0","fromPlace":"48.40461,-71.097834","maxWalkDistance":"3000","waitReluctance":"1.0","carSpeed":"33","numItineraries":"3","waitAtBeginningFactor":"0.4","mode":"TRANSIT,WALK","ignoreRealtimeUpdates":"false","stairsReluctance":"2.0","toPlace":"48.408108,-71.09625099","time":"17:40:00"},"plan":{"date":1522705200000,"from":{"name":"Origin","lon":-71.097834,"lat":48.40461,"orig":"","vertexType":"NORMAL"},"to":{"name":"Destination","lon":-71.09625099,"lat":48.408108,"orig":"","vertexType":"NORMAL"},"itineraries":[{"duration":435,"startTime":1522705200000,"endTime":1522705635000,"walkTime":435,"transitTime":0,"waitingTime":0,"walkDistance":552.6226390943357,"walkLimitExceeded":false,"elevationLost":0.0,"elevationGained":0.0,"transfers":0,"legs":[{"startTime":1522705200000,"endTime":1522705635000,"departureDelay":0,"arrivalDelay":0,"realTime":false,"distance":552.517,"pathway":false,"mode":"WALK","route":"","agencyTimeZoneOffset":-14400000,"interlineWithPreviousLeg":false,"from":{"name":"Origin","lon":-71.097834,"lat":48.40461,"departure":1522705200000,"orig":"","vertexType":"NORMAL"},"to":{"name":"Destination","lon":-71.09625099,"lat":48.408108,"arrival":1522705635000,"orig":"","vertexType":"NORMAL"},"legGeometry":{"points":"o~lfHzi}pLO^s@lByAoBk@s@mCeDsDcEg@k@mA`DuAcBKB","length":11},"rentedBike":false,"transitLeg":false,"duration":435.0,"steps":[{"distance":64.35,"relativeDirection":"DEPART","streetName":"Boulevard Barrette","absoluteDirection":"NORTHWEST","stayOn":false,"area":false,"bogusName":false,"lon":-71.09805584220085,"lat":48.40440645662941,"elevation":[]},{"distance":346.901,"relativeDirection":"RIGHT","streetName":"Rue de l'Estacade","absoluteDirection":"NORTHEAST","stayOn":false,"area":false,"bogusName":false,"lon":-71.0987621,"lat":48.40474570000001,"elevation":[]},{"distance":73.246,"relativeDirection":"LEFT","streetName":"Rue des Défibreurs","absoluteDirection":"NORTHWEST","stayOn":false,"area":false,"bogusName":false,"lon":-71.0959148,"lat":48.4072266,"elevation":[]},{"distance":68.02,"relativeDirection":"RIGHT","streetName":"Rue du Séchoir","absoluteDirection":"NORTHEAST","stayOn":false,"area":false,"bogusName":false,"lon":-71.09672160000001,"lat":48.40761010000001,"elevation":[]}]}],"tooSloped":false},{"duration":215,"startTime":1522706273000,"endTime":1522706488000,"walkTime":148,"transitTime":65,"waitingTime":2,"walkDistance":182.7571729300988,"walkLimitExceeded":false,"elevationLost":0.0,"elevationGained":0.0,"transfers":0,"legs":[{"startTime":1522706273000,"endTime":1522706284000,"departureDelay":0,"arrivalDelay":0,"realTime":false,"distance":14.306,"pathway":false,"mode":"WALK","route":"","agencyTimeZoneOffset":-14400000,"interlineWithPreviousLeg":false,"from":{"name":"Origin","lon":-71.097834,"lat":48.40461,"departure":1522706273000,"orig":"","vertexType":"NORMAL"},"to":{"name":"boul. Barrette / Estacade","stopId":"1:478","stopCode":"478","lon":-71.098119,"lat":48.404568,"arrival":1522706284000,"departure":1522706285000,"zoneId":"NA","stopIndex":12,"stopSequence":13,"vertexType":"TRANSIT"},"legGeometry":{"points":"o~lfHzi}pLO^","length":2},"rentedBike":false,"transitLeg":false,"duration":11.0,"steps":[{"distance":14.306,"relativeDirection":"DEPART","streetName":"Boulevard Barrette","absoluteDirection":"NORTHWEST","stayOn":false,"area":false,"bogusName":false,"lon":-71.09805584220085,"lat":48.40440645662941,"elevation":[]}]},{"startTime":1522706285000,"endTime":1522706350000,"departureDelay":0,"arrivalDelay":0,"realTime":false,"distance":318.7970292304984,"pathway":false,"mode":"BUS","route":"11","agencyName":"Société de Transport du Saguenay","agencyUrl":"http://ville.saguenay.ca/fr/services-aux-citoyens/transport-sts","agencyTimeZoneOffset":-14400000,"routeColor":"FF0000","routeType":3,"routeId":"1:11","routeTextColor":"FFFFFF","interlineWithPreviousLeg":false,"tripBlockId":"36","headsign":"Terminus Chicoutimi","agencyId":"0","tripId":"1:218299","serviceDate":"20180402","from":{"name":"boul. Barrette / Estacade","stopId":"1:478","stopCode":"478","lon":-71.098119,"lat":48.404568,"arrival":1522706284000,"departure":1522706285000,"zoneId":"NA","stopIndex":12,"stopSequence":13,"vertexType":"TRANSIT"},"to":{"name":"Estacade / Défibreurs","stopId":"1:1888","stopCode":"1888","lon":-71.096041,"lat":48.406986,"arrival":1522706350000,"departure":1522706351000,"zoneId":"NA","stopIndex":14,"stopSequence":15,"vertexType":"TRANSIT"},"legGeometry":{"points":"c_mfHtj}pLy@vBeCuCoCaDkDuE","length":5},"routeShortName":"11","routeLongName":"Chic/Faubourg via St-Paul","rentedBike":false,"transitLeg":true,"duration":65.0,"steps":[]},{"startTime":1522706351000,"endTime":1522706488000,"departureDelay":0,"arrivalDelay":0,"realTime":false,"distance":168.382,"pathway":false,"mode":"WALK","route":"","agencyTimeZoneOffset":-14400000,"interlineWithPreviousLeg":false,"from":{"name":"Estacade / Défibreurs","stopId":"1:1888","stopCode":"1888","lon":-71.096041,"lat":48.406986,"arrival":1522706350000,"departure":1522706351000,"zoneId":"NA","stopIndex":14,"stopSequence":15,"vertexType":"TRANSIT"},"to":{"name":"Destination","lon":-71.09625099,"lat":48.408108,"arrival":1522706488000,"orig":"","vertexType":"NORMAL"},"legGeometry":{"points":"{nmfHz}|pLg@k@mA`DuAcBKB","length":5},"rentedBike":false,"transitLeg":false,"duration":137.0,"steps":[{"distance":27.116,"relativeDirection":"DEPART","streetName":"Rue de l'Estacade","absoluteDirection":"NORTHEAST","stayOn":false,"area":false,"bogusName":false,"lon":-71.09613085077405,"lat":48.40702937455555,"elevation":[]},{"distance":73.246,"relativeDirection":"LEFT","streetName":"Rue des Défibreurs","absoluteDirection":"NORTHWEST","stayOn":false,"area":false,"bogusName":false,"lon":-71.0959148,"lat":48.4072266,"elevation":[]},{"distance":68.02,"relativeDirection":"RIGHT","streetName":"Rue du Séchoir","absoluteDirection":"NORTHEAST","stayOn":false,"area":false,"bogusName":false,"lon":-71.09672160000001,"lat":48.40761010000001,"elevation":[]}]}],"tooSloped":false},{"duration":215,"startTime":1522708073000,"endTime":1522708288000,"walkTime":148,"transitTime":65,"waitingTime":2,"walkDistance":182.7571729300988,"walkLimitExceeded":false,"elevationLost":0.0,"elevationGained":0.0,"transfers":0,"legs":[{"startTime":1522708073000,"endTime":1522708084000,"departureDelay":0,"arrivalDelay":0,"realTime":false,"distance":14.306,"pathway":false,"mode":"WALK","route":"","agencyTimeZoneOffset":-14400000,"interlineWithPreviousLeg":false,"from":{"name":"Origin","lon":-71.097834,"lat":48.40461,"departure":1522708073000,"orig":"","vertexType":"NORMAL"},"to":{"name":"boul. Barrette / Estacade","stopId":"1:478","stopCode":"478","lon":-71.098119,"lat":48.404568,"arrival":1522708084000,"departure":1522708085000,"zoneId":"NA","stopIndex":12,"stopSequence":13,"vertexType":"TRANSIT"},"legGeometry":{"points":"o~lfHzi}pLO^","length":2},"rentedBike":false,"transitLeg":false,"duration":11.0,"steps":[{"distance":14.306,"relativeDirection":"DEPART","streetName":"Boulevard Barrette","absoluteDirection":"NORTHWEST","stayOn":false,"area":false,"bogusName":false,"lon":-71.09805584220085,"lat":48.40440645662941,"elevation":[]}]},{"startTime":1522708085000,"endTime":1522708150000,"departureDelay":0,"arrivalDelay":0,"realTime":false,"distance":318.7970292304984,"pathway":false,"mode":"BUS","route":"11","agencyName":"Société de Transport du Saguenay","agencyUrl":"http://ville.saguenay.ca/fr/services-aux-citoyens/transport-sts","agencyTimeZoneOffset":-14400000,"routeColor":"FF0000","routeType":3,"routeId":"1:11","routeTextColor":"FFFFFF","interlineWithPreviousLeg":false,"tripBlockId":"35","headsign":"Terminus Chicoutimi","agencyId":"0","tripId":"1:218265","serviceDate":"20180402","from":{"name":"boul. Barrette / Estacade","stopId":"1:478","stopCode":"478","lon":-71.098119,"lat":48.404568,"arrival":1522708084000,"departure":1522708085000,"zoneId":"NA","stopIndex":12,"stopSequence":13,"vertexType":"TRANSIT"},"to":{"name":"Estacade / Défibreurs","stopId":"1:1888","stopCode":"1888","lon":-71.096041,"lat":48.406986,"arrival":1522708150000,"departure":1522708151000,"zoneId":"NA","stopIndex":14,"stopSequence":15,"vertexType":"TRANSIT"},"legGeometry":{"points":"c_mfHtj}pLy@vBeCuCoCaDkDuE","length":5},"routeShortName":"11","routeLongName":"Chic/Faubourg via St-Paul","rentedBike":false,"transitLeg":true,"duration":65.0,"steps":[]},{"startTime":1522708151000,"endTime":1522708288000,"departureDelay":0,"arrivalDelay":0,"realTime":false,"distance":168.382,"pathway":false,"mode":"WALK","route":"","agencyTimeZoneOffset":-14400000,"interlineWithPreviousLeg":false,"from":{"name":"Estacade / Défibreurs","stopId":"1:1888","stopCode":"1888","lon":-71.096041,"lat":48.406986,"arrival":1522708150000,"departure":1522708151000,"zoneId":"NA","stopIndex":14,"stopSequence":15,"vertexType":"TRANSIT"},"to":{"name":"Destination","lon":-71.09625099,"lat":48.408108,"arrival":1522708288000,"orig":"","vertexType":"NORMAL"},"legGeometry":{"points":"{nmfHz}|pLg@k@mA`DuAcBKB","length":5},"rentedBike":false,"transitLeg":false,"duration":137.0,"steps":[{"distance":27.116,"relativeDirection":"DEPART","streetName":"Rue de l'Estacade","absoluteDirection":"NORTHEAST","stayOn":false,"area":false,"bogusName":false,"lon":-71.09613085077405,"lat":48.40702937455555,"elevation":[]},{"distance":73.246,"relativeDirection":"LEFT","streetName":"Rue des Défibreurs","absoluteDirection":"NORTHWEST","stayOn":false,"area":false,"bogusName":false,"lon":-71.0959148,"lat":48.4072266,"elevation":[]},{"distance":68.02,"relativeDirection":"RIGHT","streetName":"Rue du Séchoir","absoluteDirection":"NORTHEAST","stayOn":false,"area":false,"bogusName":false,"lon":-71.09672160000001,"lat":48.40761010000001,"elevation":[]}]}],"tooSloped":false}]},"debugOutput":{"precalculationTime":18,"pathCalculationTime":21,"pathTimes":[3,10,8],"renderingTime":0,"totalTime":39,"timedOut":false},"elevationMetadata":{"ellipsoidToGeoidDifference":-28.885904201182168,"geoidElevation":false}}