{"requestParameters":{"date":"2018/04/02","walkSpeed":"1.33","walkReluctance":"2.0","fromPlace":"48.409814,-71.05987299","maxWalkDistance":"3000","waitReluctance":"1.0","carSpeed":"33","numItineraries":"3","waitAtBeginningFactor":"0.4","mode":"TRANSIT,WALK","ignoreRealtimeUpdates":"false","stairsReluctance":"2.0","toPlace":"48.392664,-71.058476","time":"16:25:00"},"plan":{"date":1522700700000,"from":{"name":"Origin","lon":-71.05987299,"lat":48.409814,"orig":"","vertexType":"NORMAL"},"to":{"name":"Destination","lon":-71.058476,"lat":48.392664,"orig":"","vertexType":"NORMAL"},"itineraries":[{"duration":1868,"startTime":1522700700000,"endTime":1522702568000,"walkTime":1868,"transitTime":0,"waitingTime":0,"walkDistance":2422.6005939805227,"walkLimitExceeded":false,"elevationLost":0.0,"elevationGained":0.0,"transfers":0,"legs":[{"startTime":1522700700000,"endTime":1522702568000,"departureDelay":0,"arrivalDelay":0,"realTime":false,"distance":2422.4629999999997,"pathway":false,"mode":"WALK","route":"","agencyTimeZoneOffset":-14400000,"interlineWithPreviousLeg":false,"from":{"name":"Origin","lon":-71.05987299,"lat":48.409814,"departure":1522700700000,"orig":"","vertexType":"NORMAL"},"to":{"name":"Destination","lon":-71.058476,"lat":48.392664,"arrival":1522702568000,"orig":"","vertexType":"NORMAL"},"legGeometry":{"points":"k_nfH|vupLAA}@i@n@}A?A`@}@lCcHd@aAL]Na@\\}@l@}AFQNa@HSj@_Br@qB`A_DNc@PUfAuAbAaAt@]l@Qp@E|@B|@LtAJfA?^Ed@MNGrBm@jEiA^KTGp@U|AOf@D|@D@?r@D|AZtA|@B@RNl@n@lBxBdBfBLLpCzCd@p@^l@zBhBnDrCJ_@L?NFN\\hDnLRVVXNNR^PNz@ZH?f@?T?XFFK","length":71},"rentedBike":false,"transitLeg":false,"duration":1868.0,"steps":[{"distance":39.567,"relativeDirection":"DEPART","streetName":"Rue Bizet","absoluteDirection":"NORTHEAST","stayOn":false,"area":false,"bogusName":false,"lon":-71.05918428769453,"lat":48.40966614723325,"elevation":[]},{"distance":1155.627,"relativeDirection":"RIGHT","streetName":"Rue des Champs-Élysées","absoluteDirection":"SOUTHEAST","stayOn":false,"area":false,"bogusName":false,"lon":-71.0589618,"lat":48.409989800000005,"elevation":[]},{"distance":640.111,"relativeDirection":"CONTINUE","streetName":"Rue des Engoulevents","absoluteDirection":"SOUTH","stayOn":false,"area":false,"bogusName":false,"lon":-71.0511074,"lat":48.401948700000005,"elevation":[]},{"distance":190.906,"relativeDirection":"CONTINUE","streetName":"path","absoluteDirection":"SOUTHWEST","stayOn":false,"area":false,"bogusName":true,"lon":-71.0542028,"lat":48.3968707,"elevation":[]},{"distance":334.41,"relativeDirection":"LEFT","streetName":"Rue des Hérons","absoluteDirection":"SOUTHEAST","stayOn":false,"area":false,"bogusName":false,"lon":-71.0554784,"lat":48.3953773,"elevation":[]},{"distance":61.842,"relativeDirection":"CONTINUE","streetName":"Rue des Chouettes","absoluteDirection":"SOUTH","stayOn":false,"area":false,"bogusName":false,"lon":-71.05837050000001,"lat":48.3934468,"elevation":[]}]}],"tooSloped":false},{"duration":1048,"startTime":1522702499000,"endTime":1522703547000,"walkTime":754,"transitTime":292,"waitingTime":2,"walkDistance":959.9763533788974,"walkLimitExceeded":false,"elevationLost":0.0,"elevationGained":0.0,"transfers":0,"legs":[{"startTime":1522702499000,"endTime":1522703158000,"departureDelay":0,"arrivalDelay":0,"realTime":false,"distance":842.954,"pathway":false,"mode":"WALK","route":"","agencyTimeZoneOffset":-14400000,"interlineWithPreviousLeg":false,"from":{"name":"Origin","lon":-71.05987299,"lat":48.409814,"departure":1522702499000,"orig":"","vertexType":"NORMAL"},"to":{"name":"Saguenéens  / Bach","stopId":"1:575","stopCode":"575","lon":-71.061104,"lat":48.403689,"arrival":1522703158000,"departure":1522703159000,"zoneId":"NA","stopIndex":23,"stopSequence":24,"vertexType":"TRANSIT"},"legGeometry":{"points":"k_nfH|vupLfAb@DBj@d@d@`@pAfAlBpB`BxAn@V~@b@J[DQrAiDn@aBdE|D|EtEfAoC","length":17},"rentedBike":false,"transitLeg":false,"duration":659.0,"steps":[{"distance":356.078,"relativeDirection":"DEPART","streetName":"Rue Bizet","absoluteDirection":"SOUTH","stayOn":false,"area":false,"bogusName":false,"lon":-71.05918428769453,"lat":48.40966614723325,"elevation":[]},{"distance":142.506,"relativeDirection":"LEFT","streetName":"bike path","absoluteDirection":"SOUTHEAST","stayOn":false,"area":false,"bogusName":true,"lon":-71.0614278,"lat":48.4068513,"elevation":[]},{"distance":277.414,"relativeDirection":"RIGHT","streetName":"Rue Bach","absoluteDirection":"SOUTHWEST","stayOn":false,"area":false,"bogusName":false,"lon":-71.0598554,"lat":48.4061091,"elevation":[]},{"distance":66.956,"relativeDirection":"LEFT","streetName":"Rue des Saguenéens","absoluteDirection":"SOUTHEAST","stayOn":false,"area":false,"bogusName":false,"lon":-71.06187870000001,"lat":48.404006700000004,"elevation":[]}]},{"startTime":1522703159000,"endTime":1522703451000,"departureDelay":0,"arrivalDelay":0,"realTime":false,"distance":2670.9293482888925,"pathway":false,"mode":"BUS","route":"15","agencyName":"Société de Transport du Saguenay","agencyUrl":"http://ville.saguenay.ca/fr/services-aux-citoyens/transport-sts","agencyTimeZoneOffset":-14400000,"routeColor":"FF00FF","routeType":3,"routeId":"1:15","routeTextColor":"FFFFFF","interlineWithPreviousLeg":false,"tripBlockId":"31","headsign":"Talbot / Barrette","agencyId":"0","tripId":"1:218142","serviceDate":"20180402","from":{"name":"Saguenéens  / Bach","stopId":"1:575","stopCode":"575","lon":-71.061104,"lat":48.403689,"arrival":1522703158000,"departure":1522703159000,"zoneId":"NA","stopIndex":23,"stopSequence":24,"vertexType":"TRANSIT"},"to":{"name":"Roitelets / Colombes","stopId":"1:1544","stopCode":"1544","lon":-71.059204,"lat":48.393412,"arrival":1522703451000,"departure":1522703452000,"zoneId":"NA","stopIndex":32,"stopSequence":33,"vertexType":"TRANSIT"},"legGeometry":{"points":"ezlfHvbvpLtC{FnBoLbCaO?qLa@uJzF`ApF~@~@PzAgEeDcBf@qAWcKUqEx@Ef@ExDVjDxAFBrBvAfGjG@BjCzC~DxC@@zA~Cb@fCJlC?BsBre@?D","length":31},"routeShortName":"15","routeLongName":"Term. Chic / Costco","rentedBike":false,"transitLeg":true,"duration":292.0,"steps":[]},{"startTime":1522703452000,"endTime":1522703547000,"departureDelay":0,"arrivalDelay":0,"realTime":false,"distance":116.881,"pathway":false,"mode":"WALK","route":"","agencyTimeZoneOffset":-14400000,"interlineWithPreviousLeg":false,"from":{"name":"Roitelets / Colombes","stopId":"1:1544","stopCode":"1544","lon":-71.059204,"lat":48.393412,"arrival":1522703451000,"departure":1522703452000,"zoneId":"NA","stopIndex":32,"stopSequence":33,"vertexType":"TRANSIT"},"to":{"name":"Destination","lon":-71.058476,"lat":48.392664,"arrival":1522703547000,"orig":"","vertexType":"NORMAL"},"legGeometry":{"points":"czjfH~vupLLcDf@?T?XFFK","length":6},"rentedBike":false,"transitLeg":false,"duration":95.0,"steps":[{"distance":61.277,"relativeDirection":"DEPART","streetName":"bike path","absoluteDirection":"EAST","stayOn":false,"area":false,"bogusName":true,"lon":-71.05919409957978,"lat":48.39346222328547,"elevation":[]},{"distance":55.604,"relativeDirection":"RIGHT","streetName":"Rue des Chouettes","absoluteDirection":"SOUTH","stayOn":false,"area":false,"bogusName":false,"lon":-71.05837120000001,"lat":48.393390700000005,"elevation":[]}]}],"tooSloped":false},{"duration":1048,"startTime":1522704299000,"endTime":1522705347000,"walkTime":754,"transitTime":292,"waitingTime":2,"walkDistance":959.9763533788974,"walkLimitExceeded":false,"elevationLost":0.0,"elevationGained":0.0,"transfers":0,"legs":[{"startTime":1522704299000,"endTime":1522704958000,"departureDelay":0,"arrivalDelay":0,"realTime":false,"distance":842.954,"pathway":false,"mode":"WALK","route":"","agencyTimeZoneOffset":-14400000,"interlineWithPreviousLeg":false,"from":{"name":"Origin","lon":-71.05987299,"lat":48.409814,"departure":1522704299000,"orig":"","vertexType":"NORMAL"},"to":{"name":"Saguenéens  / Bach","stopId":"1:575","stopCode":"575","lon":-71.061104,"lat":48.403689,"arrival":1522704958000,"departure":1522704959000,"zoneId":"NA","stopIndex":23,"stopSequence":24,"vertexType":"TRANSIT"},"legGeometry":{"points":"k_nfH|vupLfAb@DBj@d@d@`@pAfAlBpB`BxAn@V~@b@J[DQrAiDn@aBdE|D|EtEfAoC","length":17},"rentedBike":false,"transitLeg":false,"duration":659.0,"steps":[{"distance":356.078,"relativeDirection":"DEPART","streetName":"Rue Bizet","absoluteDirection":"SOUTH","stayOn":false,"area":false,"bogusName":false,"lon":-71.05918428769453,"lat":48.40966614723325,"elevation":[]},{"distance":142.506,"relativeDirection":"LEFT","streetName":"bike path","absoluteDirection":"SOUTHEAST","stayOn":false,"area":false,"bogusName":true,"lon":-71.0614278,"lat":48.4068513,"elevation":[]},{"distance":277.414,"relativeDirection":"RIGHT","streetName":"Rue Bach","absoluteDirection":"SOUTHWEST","stayOn":false,"area":false,"bogusName":false,"lon":-71.0598554,"lat":48.4061091,"elevation":[]},{"distance":66.956,"relativeDirection":"LEFT","streetName":"Rue des Saguenéens","absoluteDirection":"SOUTHEAST","stayOn":false,"area":false,"bogusName":false,"lon":-71.06187870000001,"lat":48.404006700000004,"elevation":[]}]},{"startTime":1522704959000,"endTime":1522705251000,"departureDelay":0,"arrivalDelay":0,"realTime":false,"distance":2670.9293482888925,"pathway":false,"mode":"BUS","route":"15","agencyName":"Société de Transport du Saguenay","agencyUrl":"http://ville.saguenay.ca/fr/services-aux-citoyens/transport-sts","agencyTimeZoneOffset":-14400000,"routeColor":"FF00FF","routeType":3,"routeId":"1:15","routeTextColor":"FFFFFF","interlineWithPreviousLeg":false,"tripBlockId":"33","headsign":"Talbot / Barrette","agencyId":"0","tripId":"1:218193","serviceDate":"20180402","from":{"name":"Saguenéens  / Bach","stopId":"1:575","stopCode":"575","lon":-71.061104,"lat":48.403689,"arrival":1522704958000,"departure":1522704959000,"zoneId":"NA","stopIndex":23,"stopSequence":24,"vertexType":"TRANSIT"},"to":{"name":"Roitelets / Colombes","stopId":"1:1544","stopCode":"1544","lon":-71.059204,"lat":48.393412,"arrival":1522705251000,"departure":1522705252000,"zoneId":"NA","stopIndex":32,"stopSequence":33,"vertexType":"TRANSIT"},"legGeometry":{"points":"ezlfHvbvpLtC{FnBoLbCaO?qLa@uJzF`ApF~@~@PzAgEeDcBf@qAWcKUqEx@Ef@ExDVjDxAFBrBvAfGjG@BjCzC~DxC@@zA~Cb@fCJlC?BsBre@?D","length":31},"routeShortName":"15","routeLongName":"Term. Chic / Costco","rentedBike":false,"transitLeg":true,"duration":292.0,"steps":[]},{"startTime":1522705252000,"endTime":1522705347000,"departureDelay":0,"arrivalDelay":0,"realTime":false,"distance":116.881,"pathway":false,"mode":"WALK","route":"","agencyTimeZoneOffset":-14400000,"interlineWithPreviousLeg":false,"from":{"name":"Roitelets / Colombes","stopId":"1:1544","stopCode":"1544","lon":-71.059204,"lat":48.393412,"arrival":1522705251000,"departure":1522705252000,"zoneId":"NA","stopIndex":32,"stopSequence":33,"vertexType":"TRANSIT"},"to":{"name":"Destination","lon":-71.058476,"lat":48.392664,"arrival":1522705347000,"orig":"","vertexType":"NORMAL"},"legGeometry":{"points":"czjfH~vupLLcDf@?T?XFFK","length":6},"rentedBike":false,"transitLeg":false,"duration":95.0,"steps":[{"distance":61.277,"relativeDirection":"DEPART","streetName":"bike path","absoluteDirection":"EAST","stayOn":false,"area":false,"bogusName":true,"lon":-71.05919409957978,"lat":48.39346222328547,"elevation":[]},{"distance":55.604,"relativeDirection":"RIGHT","streetName":"Rue des Chouettes","absoluteDirection":"SOUTH","stayOn":false,"area":false,"bogusName":false,"lon":-71.05837120000001,"lat":48.393390700000005,"elevation":[]}]}],"tooSloped":false}]},"debugOutput":{"precalculationTime":44,"pathCalculationTime":81,"pathTimes":[33,22,25],"renderingTime":0,"totalTime":125,"timedOut":false},"elevationMetadata":{"ellipsoidToGeoidDifference":-28.885904201182168,"geoidElevation":false}}