{"requestParameters":{"date":"2018/04/02","walkSpeed":"1.33","walkReluctance":"2.0","fromPlace":"48.392664,-71.058476","maxWalkDistance":"3000","waitReluctance":"1.0","carSpeed":"33","numItineraries":"3","waitAtBeginningFactor":"0.4","mode":"TRANSIT,WALK","ignoreRealtimeUpdates":"false","stairsReluctance":"2.0","toPlace":"48.409854,-71.06000299","time":"7:15:00"},"plan":{"date":1522667700000,"from":{"name":"Origin","lon":-71.058476,"lat":48.392664,"orig":"","vertexType":"NORMAL"},"to":{"name":"Destination","lon":-71.06000299,"lat":48.409854,"orig":"","vertexType":"NORMAL"},"itineraries":[{"duration":1887,"startTime":1522667878000,"endTime":1522669765000,"walkTime":1531,"transitTime":354,"waitingTime":2,"walkDistance":1954.5100526212195,"walkLimitExceeded":false,"elevationLost":0.0,"elevationGained":0.0,"transfers":0,"legs":[{"startTime":1522667878000,"endTime":1522668725000,"departureDelay":0,"arrivalDelay":0,"realTime":false,"distance":1078.705,"pathway":false,"mode":"WALK","route":"","agencyTimeZoneOffset":-14400000,"interlineWithPreviousLeg":false,"from":{"name":"Origin","lon":-71.058476,"lat":48.392664,"departure":1522667878000,"orig":"","vertexType":"NORMAL"},"to":{"name":"boul. Talbot / boul. Barrette","stopId":"1:49","stopCode":"49","lon":-71.069502,"lat":48.394497,"arrival":1522668725000,"departure":1522668726000,"zoneId":"NA","stopIndex":5,"stopSequence":6,"vertexType":"TRANSIT"},"legGeometry":{"points":"uvjfHvqupLGJYGU?g@?MbDA\\KpEIvG?j@CtB?l@?dCC`FDpC?DFb@R`Bj@vBFNGHDN`@tAJhAErAOzAWlA[|@W^ADoAzCABGP}BmC","length":34},"rentedBike":false,"transitLeg":false,"duration":847.0,"steps":[{"distance":55.604,"relativeDirection":"DEPART","streetName":"Rue des Chouettes","absoluteDirection":"NORTH","stayOn":false,"area":false,"bogusName":false,"lon":-71.058351,"lat":48.39291,"elevation":[]},{"distance":629.851,"relativeDirection":"LEFT","streetName":"bike path","absoluteDirection":"WEST","stayOn":false,"area":false,"bogusName":true,"lon":-71.05837120000001,"lat":48.393390700000005,"elevation":[]},{"distance":5.699,"relativeDirection":"RIGHT","streetName":"service road","absoluteDirection":"NORTHWEST","stayOn":true,"area":false,"bogusName":true,"lon":-71.0667475,"lat":48.3931922,"elevation":[]},{"distance":299.824,"relativeDirection":"LEFT","streetName":"Rue Des Roitelets","absoluteDirection":"SOUTHWEST","stayOn":false,"area":false,"bogusName":false,"lon":-71.0667954,"lat":48.3932324,"elevation":[]},{"distance":87.727,"relativeDirection":"RIGHT","streetName":"Boulevard Talbot","absoluteDirection":"NORTHEAST","stayOn":false,"area":false,"bogusName":false,"lon":-71.0703318,"lat":48.3939238,"elevation":[]}]},{"startTime":1522668726000,"endTime":1522669080000,"departureDelay":0,"arrivalDelay":0,"realTime":false,"distance":2420.7129592912215,"pathway":false,"mode":"BUS","route":"71S","agencyName":"Société de Transport du Saguenay","agencyUrl":"http://ville.saguenay.ca/fr/services-aux-citoyens/transport-sts","agencyTimeZoneOffset":-14400000,"routeColor":"8B0000","routeType":3,"routeId":"1:71S","routeTextColor":"FFFFFF","interlineWithPreviousLeg":false,"tripBlockId":"103","headsign":"École Lafontaine","agencyId":"0","tripId":"1:218791","serviceDate":"20180402","from":{"name":"boul. Talbot / boul. Barrette","stopId":"1:49","stopCode":"49","lon":-71.069502,"lat":48.394497,"arrival":1522668725000,"departure":1522668726000,"zoneId":"NA","stopIndex":5,"stopSequence":6,"vertexType":"TRANSIT"},"to":{"name":"CEA Laure-Conan (Champs-Élysées)","stopId":"1:1913","stopCode":"1913","lon":-71.061287,"lat":48.414807,"arrival":1522669080000,"departure":1522669081000,"zoneId":"NA","stopIndex":8,"stopSequence":9,"vertexType":"TRANSIT"},"legGeometry":{"points":"{`kfH`xwpLqDeEkDwE_DwEkJgNW_@gEqFyG_Hch@ue@Qb@qBhFi@nAwEzLSPUJyCf@wNhBq@NcAf@o@r@Yj@_AnC","length":22},"routeShortName":"71S","routeLongName":"COSTCO vers L.Conan/D.Racine/Oasis/Lafon","rentedBike":false,"transitLeg":true,"duration":354.0,"steps":[]},{"startTime":1522669081000,"endTime":1522669765000,"departureDelay":0,"arrivalDelay":0,"realTime":false,"distance":875.484,"pathway":false,"mode":"WALK","route":"","agencyTimeZoneOffset":-14400000,"interlineWithPreviousLeg":false,"from":{"name":"CEA Laure-Conan (Champs-Élysées)","stopId":"1:1913","stopCode":"1913","lon":-71.061287,"lat":48.414807,"arrival":1522669080000,"departure":1522669081000,"zoneId":"NA","stopIndex":8,"stopSequence":9,"vertexType":"TRANSIT"},"to":{"name":"Destination","lon":-71.06000299,"lat":48.409854,"arrival":1522669765000,"orig":"","vertexType":"NORMAL"},"legGeometry":{"points":"e_ofHjdvpLhAcDXa@^e@bAq@~@OxCc@LABA|Fs@B?hAMvC_@`@a@|@h@hAd@DBj@d@cClGkA{A","length":20},"rentedBike":false,"transitLeg":false,"duration":684.0,"steps":[{"distance":584.352,"relativeDirection":"DEPART","streetName":"Rue des Champs-Élysées","absoluteDirection":"SOUTHEAST","stayOn":false,"area":false,"bogusName":false,"lon":-71.06133748081876,"lat":48.41475814207124,"elevation":[]},{"distance":113.69200000000001,"relativeDirection":"RIGHT","streetName":"Rue Bizet","absoluteDirection":"SOUTHWEST","stayOn":false,"area":false,"bogusName":false,"lon":-71.0589618,"lat":48.409989800000005,"elevation":[]},{"distance":123.104,"relativeDirection":"RIGHT","streetName":"Rue Létondal","absoluteDirection":"NORTHWEST","stayOn":false,"area":false,"bogusName":false,"lon":-71.0595787,"lat":48.4090573,"elevation":[]},{"distance":54.336,"relativeDirection":"RIGHT","streetName":"Rue Albani","absoluteDirection":"NORTHEAST","stayOn":false,"area":false,"bogusName":false,"lon":-71.06092220000001,"lat":48.4097133,"elevation":[]}]}],"tooSloped":false},{"duration":1165,"startTime":1522669269000,"endTime":1522670434000,"walkTime":674,"transitTime":489,"waitingTime":2,"walkDistance":855.6549473610336,"walkLimitExceeded":false,"elevationLost":0.0,"elevationGained":0.0,"transfers":0,"legs":[{"startTime":1522669269000,"endTime":1522669369000,"departureDelay":0,"arrivalDelay":0,"realTime":false,"distance":116.881,"pathway":false,"mode":"WALK","route":"","agencyTimeZoneOffset":-14400000,"interlineWithPreviousLeg":false,"from":{"name":"Origin","lon":-71.058476,"lat":48.392664,"departure":1522669269000,"orig":"","vertexType":"NORMAL"},"to":{"name":"Roitelets / Colombes","stopId":"1:1544","stopCode":"1544","lon":-71.059204,"lat":48.393412,"arrival":1522669369000,"departure":1522669370000,"zoneId":"NA","stopIndex":3,"stopSequence":4,"vertexType":"TRANSIT"},"legGeometry":{"points":"uvjfHvqupLGJYGU?g@?MbD","length":6},"rentedBike":false,"transitLeg":false,"duration":100.0,"steps":[{"distance":55.604,"relativeDirection":"DEPART","streetName":"Rue des Chouettes","absoluteDirection":"NORTH","stayOn":false,"area":false,"bogusName":false,"lon":-71.058351,"lat":48.39291,"elevation":[]},{"distance":61.277,"relativeDirection":"LEFT","streetName":"bike path","absoluteDirection":"WEST","stayOn":false,"area":false,"bogusName":true,"lon":-71.05837120000001,"lat":48.393390700000005,"elevation":[]}]},{"startTime":1522669370000,"endTime":1522669859000,"departureDelay":0,"arrivalDelay":0,"realTime":false,"distance":3156.4129423824543,"pathway":false,"mode":"BUS","route":"15","agencyName":"Société de Transport du Saguenay","agencyUrl":"http://ville.saguenay.ca/fr/services-aux-citoyens/transport-sts","agencyTimeZoneOffset":-14400000,"routeColor":"FF00FF","routeType":3,"routeId":"1:15","routeTextColor":"FFFFFF","interlineWithPreviousLeg":false,"tripBlockId":"32","headsign":"Terminus Chicoutimi","agencyId":"0","tripId":"1:218149","serviceDate":"20180402","from":{"name":"Roitelets / Colombes","stopId":"1:1544","stopCode":"1544","lon":-71.059204,"lat":48.393412,"arrival":1522669369000,"departure":1522669370000,"zoneId":"NA","stopIndex":3,"stopSequence":4,"vertexType":"TRANSIT"},"to":{"name":"Saguenéens / Duchesne","stopId":"1:1598","stopCode":"1598","lon":-71.065637,"lat":48.406803,"arrival":1522669859000,"departure":1522669860000,"zoneId":"NA","stopIndex":15,"stopSequence":16,"vertexType":"TRANSIT"},"legGeometry":{"points":"czjfH~vupLTuGEGVsHPuDLuBXsFDoA?W@]Cu@GcAKu@Q_ASo@a@y@a@o@MOUUeCqBiDsDqE{EiAcAcB_AqBgA_AQaBSaBG_@Bu@FG?h@fNKnDpCfBkAzDgA}@y@q@sDy@GAeGT~@~KKrKyAnL[hBUxAm@nCcAlDeCvGmA|CUr@}@~A_@\\_DvCEZcA|@UP_@d@Yl@oBdF","length":59},"routeShortName":"15","routeLongName":"Term. Chic / Costco","rentedBike":false,"transitLeg":true,"duration":489.0,"steps":[]},{"startTime":1522669860000,"endTime":1522670434000,"departureDelay":0,"arrivalDelay":0,"realTime":false,"distance":738.5450000000001,"pathway":false,"mode":"WALK","route":"","agencyTimeZoneOffset":-14400000,"interlineWithPreviousLeg":false,"from":{"name":"Saguenéens / Duchesne","stopId":"1:1598","stopCode":"1598","lon":-71.065637,"lat":48.406803,"arrival":1522669859000,"departure":1522669860000,"zoneId":"NA","stopIndex":15,"stopSequence":16,"vertexType":"TRANSIT"},"to":{"name":"Destination","lon":-71.06000299,"lat":48.409854,"arrival":1522670434000,"orig":"","vertexType":"NORMAL"},"legGeometry":{"points":"immfHv~vpL_IoFcAbCmAy@_AkGIs@@wAB[aAIk@Qa@UMSA]Ni@xAuDkA{A","length":16},"rentedBike":false,"transitLeg":false,"duration":574.0,"steps":[{"distance":198.532,"relativeDirection":"DEPART","streetName":"service road","absoluteDirection":"NORTHEAST","stayOn":false,"area":false,"bogusName":true,"lon":-71.06555910719396,"lat":48.40677700366448,"elevation":[]},{"distance":61.865,"relativeDirection":"LEFT","streetName":"Rue Don Bosco","absoluteDirection":"NORTHWEST","stayOn":false,"area":false,"bogusName":false,"lon":-71.064351,"lat":48.4083722,"elevation":[]},{"distance":217.031,"relativeDirection":"RIGHT","streetName":"Rue Belleau","absoluteDirection":"NORTHEAST","stayOn":false,"area":false,"bogusName":false,"lon":-71.06501420000001,"lat":48.408712400000006,"elevation":[]},{"distance":206.781,"relativeDirection":"LEFT","streetName":"Rue Létondal","absoluteDirection":"NORTH","stayOn":false,"area":false,"bogusName":false,"lon":-71.0625433,"lat":48.409441300000005,"elevation":[]},{"distance":54.336,"relativeDirection":"LEFT","streetName":"Rue Albani","absoluteDirection":"NORTHEAST","stayOn":false,"area":false,"bogusName":false,"lon":-71.06092220000001,"lat":48.4097133,"elevation":[]}]}],"tooSloped":false},{"duration":1165,"startTime":1522671069000,"endTime":1522672234000,"walkTime":674,"transitTime":489,"waitingTime":2,"walkDistance":855.6549473610336,"walkLimitExceeded":false,"elevationLost":0.0,"elevationGained":0.0,"transfers":0,"legs":[{"startTime":1522671069000,"endTime":1522671169000,"departureDelay":0,"arrivalDelay":0,"realTime":false,"distance":116.881,"pathway":false,"mode":"WALK","route":"","agencyTimeZoneOffset":-14400000,"interlineWithPreviousLeg":false,"from":{"name":"Origin","lon":-71.058476,"lat":48.392664,"departure":1522671069000,"orig":"","vertexType":"NORMAL"},"to":{"name":"Roitelets / Colombes","stopId":"1:1544","stopCode":"1544","lon":-71.059204,"lat":48.393412,"arrival":1522671169000,"departure":1522671170000,"zoneId":"NA","stopIndex":3,"stopSequence":4,"vertexType":"TRANSIT"},"legGeometry":{"points":"uvjfHvqupLGJYGU?g@?MbD","length":6},"rentedBike":false,"transitLeg":false,"duration":100.0,"steps":[{"distance":55.604,"relativeDirection":"DEPART","streetName":"Rue des Chouettes","absoluteDirection":"NORTH","stayOn":false,"area":false,"bogusName":false,"lon":-71.058351,"lat":48.39291,"elevation":[]},{"distance":61.277,"relativeDirection":"LEFT","streetName":"bike path","absoluteDirection":"WEST","stayOn":false,"area":false,"bogusName":true,"lon":-71.05837120000001,"lat":48.393390700000005,"elevation":[]}]},{"startTime":1522671170000,"endTime":1522671659000,"departureDelay":0,"arrivalDelay":0,"realTime":false,"distance":3156.4129423824543,"pathway":false,"mode":"BUS","route":"15","agencyName":"Société de Transport du Saguenay","agencyUrl":"http://ville.saguenay.ca/fr/services-aux-citoyens/transport-sts","agencyTimeZoneOffset":-14400000,"routeColor":"FF00FF","routeType":3,"routeId":"1:15","routeTextColor":"FFFFFF","interlineWithPreviousLeg":false,"tripBlockId":"30","headsign":"Terminus Chicoutimi","agencyId":"0","tripId":"1:218090","serviceDate":"20180402","from":{"name":"Roitelets / Colombes","stopId":"1:1544","stopCode":"1544","lon":-71.059204,"lat":48.393412,"arrival":1522671169000,"departure":1522671170000,"zoneId":"NA","stopIndex":3,"stopSequence":4,"vertexType":"TRANSIT"},"to":{"name":"Saguenéens / Duchesne","stopId":"1:1598","stopCode":"1598","lon":-71.065637,"lat":48.406803,"arrival":1522671659000,"departure":1522671660000,"zoneId":"NA","stopIndex":15,"stopSequence":16,"vertexType":"TRANSIT"},"legGeometry":{"points":"czjfH~vupLTuGEGVsHPuDLuBXsFDoA?W@]Cu@GcAKu@Q_ASo@a@y@a@o@MOUUeCqBiDsDqE{EiAcAcB_AqBgA_AQaBSaBG_@Bu@FG?h@fNKnDpCfBkAzDgA}@y@q@sDy@GAeGT~@~KKrKyAnL[hBUxAm@nCcAlDeCvGmA|CUr@}@~A_@\\_DvCEZcA|@UP_@d@Yl@oBdF","length":59},"routeShortName":"15","routeLongName":"Term. Chic / Costco","rentedBike":false,"transitLeg":true,"duration":489.0,"steps":[]},{"startTime":1522671660000,"endTime":1522672234000,"departureDelay":0,"arrivalDelay":0,"realTime":false,"distance":738.5450000000001,"pathway":false,"mode":"WALK","route":"","agencyTimeZoneOffset":-14400000,"interlineWithPreviousLeg":false,"from":{"name":"Saguenéens / Duchesne","stopId":"1:1598","stopCode":"1598","lon":-71.065637,"lat":48.406803,"arrival":1522671659000,"departure":1522671660000,"zoneId":"NA","stopIndex":15,"stopSequence":16,"vertexType":"TRANSIT"},"to":{"name":"Destination","lon":-71.06000299,"lat":48.409854,"arrival":1522672234000,"orig":"","vertexType":"NORMAL"},"legGeometry":{"points":"immfHv~vpL_IoFcAbCmAy@_AkGIs@@wAB[aAIk@Qa@UMSA]Ni@xAuDkA{A","length":16},"rentedBike":false,"transitLeg":false,"duration":574.0,"steps":[{"distance":198.532,"relativeDirection":"DEPART","streetName":"service road","absoluteDirection":"NORTHEAST","stayOn":false,"area":false,"bogusName":true,"lon":-71.06555910719396,"lat":48.40677700366448,"elevation":[]},{"distance":61.865,"relativeDirection":"LEFT","streetName":"Rue Don Bosco","absoluteDirection":"NORTHWEST","stayOn":false,"area":false,"bogusName":false,"lon":-71.064351,"lat":48.4083722,"elevation":[]},{"distance":217.031,"relativeDirection":"RIGHT","streetName":"Rue Belleau","absoluteDirection":"NORTHEAST","stayOn":false,"area":false,"bogusName":false,"lon":-71.06501420000001,"lat":48.408712400000006,"elevation":[]},{"distance":206.781,"relativeDirection":"LEFT","streetName":"Rue Létondal","absoluteDirection":"NORTH","stayOn":false,"area":false,"bogusName":false,"lon":-71.0625433,"lat":48.409441300000005,"elevation":[]},{"distance":54.336,"relativeDirection":"LEFT","streetName":"Rue Albani","absoluteDirection":"NORTHEAST","stayOn":false,"area":false,"bogusName":false,"lon":-71.06092220000001,"lat":48.4097133,"elevation":[]}]}],"tooSloped":false}]},"debugOutput":{"precalculationTime":30,"pathCalculationTime":25,"pathTimes":[13,6,6],"renderingTime":0,"totalTime":55,"timedOut":false},"elevationMetadata":{"ellipsoidToGeoidDifference":-28.885904201182168,"geoidElevation":false}}