{"requestParameters":{"date":"2018/04/02","walkSpeed":"1.33","walkReluctance":"2.0","fromPlace":"48.396762,-71.066557","maxWalkDistance":"3000","waitReluctance":"1.0","carSpeed":"33","numItineraries":"3","waitAtBeginningFactor":"0.4","mode":"TRANSIT,WALK","ignoreRealtimeUpdates":"false","stairsReluctance":"2.0","toPlace":"48.40251,-71.06060899","time":"19:30:00"},"plan":{"date":1522711800000,"from":{"name":"Origin","lon":-71.066557,"lat":48.396762,"orig":"","vertexType":"NORMAL"},"to":{"name":"Destination","lon":-71.06060899,"lat":48.40251,"orig":"","vertexType":"NORMAL"},"itineraries":[{"duration":609,"startTime":1522711800000,"endTime":1522712409000,"walkTime":609,"transitTime":0,"waitingTime":0,"walkDistance":791.3373007496112,"walkLimitExceeded":false,"elevationLost":0.0,"elevationGained":0.0,"transfers":0,"legs":[{"startTime":1522711800000,"endTime":1522712409000,"departureDelay":0,"arrivalDelay":0,"realTime":false,"distance":791.267,"pathway":false,"mode":"WALK","route":"","agencyTimeZoneOffset":-14400000,"interlineWithPreviousLeg":false,"from":{"name":"Origin","lon":-71.066557,"lat":48.396762,"departure":1522711800000,"orig":"","vertexType":"NORMAL"},"to":{"name":"Destination","lon":-71.06060899,"lat":48.40251,"arrival":1522712409000,"orig":"","vertexType":"NORMAL"},"legGeometry":{"points":"qokfHjfwpLk@{@wI{MOQGIW]Qb@MOiCgDu@aAo@w@cCaCwBuBkAiAkAiA","length":15},"rentedBike":false,"transitLeg":false,"duration":609.0,"steps":[{"distance":791.267,"relativeDirection":"DEPART","streetName":"Boulevard Talbot","absoluteDirection":"NORTHEAST","stayOn":false,"area":false,"bogusName":false,"lon":-71.06677998477898,"lat":48.39689792786936,"elevation":[]}]}],"tooSloped":false},{"duration":449,"startTime":1522713091000,"endTime":1522713540000,"walkTime":405,"transitTime":42,"waitingTime":2,"walkDistance":520.6653007496113,"walkLimitExceeded":false,"elevationLost":0.0,"elevationGained":0.0,"transfers":0,"legs":[{"startTime":1522713091000,"endTime":1522713116000,"departureDelay":0,"arrivalDelay":0,"realTime":false,"distance":32.796,"pathway":false,"mode":"WALK","route":"","agencyTimeZoneOffset":-14400000,"interlineWithPreviousLeg":false,"from":{"name":"Origin","lon":-71.066557,"lat":48.396762,"departure":1522713091000,"orig":"","vertexType":"NORMAL"},"to":{"name":"boul. Talbot (no. 1775)","stopId":"1:50","stopCode":"50","lon":-71.066348,"lat":48.397035,"arrival":1522713116000,"departure":1522713117000,"zoneId":"NA","stopIndex":8,"stopSequence":9,"vertexType":"TRANSIT"},"legGeometry":{"points":"qokfHjfwpLk@{@","length":2},"rentedBike":false,"transitLeg":false,"duration":25.0,"steps":[{"distance":32.796,"relativeDirection":"DEPART","streetName":"Boulevard Talbot","absoluteDirection":"NORTHEAST","stayOn":false,"area":false,"bogusName":false,"lon":-71.06677998477898,"lat":48.39689792786936,"elevation":[]}]},{"startTime":1522713117000,"endTime":1522713159000,"departureDelay":0,"arrivalDelay":0,"realTime":false,"distance":271.1412468436524,"pathway":false,"mode":"BUS","route":"175","agencyName":"Société de Transport du Saguenay","agencyUrl":"http://ville.saguenay.ca/fr/services-aux-citoyens/transport-sts","agencyTimeZoneOffset":-14400000,"routeColor":"FF00FF","routeType":3,"routeId":"1:175","routeTextColor":"FFFFFF","interlineWithPreviousLeg":false,"tripBlockId":"11","headsign":"Terminus Chicoutimi","agencyId":"0","tripId":"1:217488","serviceDate":"20180402","from":{"name":"boul. Talbot (no. 1775)","stopId":"1:50","stopCode":"50","lon":-71.066348,"lat":48.397035,"arrival":1522713116000,"departure":1522713117000,"zoneId":"NA","stopIndex":8,"stopSequence":9,"vertexType":"TRANSIT"},"to":{"name":"boul. Talbot / Laurentides","stopId":"1:51","stopCode":"51","lon":-71.063914,"lat":48.398861,"arrival":1522713159000,"departure":1522713160000,"zoneId":"NA","stopIndex":9,"stopSequence":10,"vertexType":"TRANSIT"},"legGeometry":{"points":"_qkfHtdwpLqJ_N","length":2},"routeShortName":"175","routeLongName":"Term. Chic / Costco","rentedBike":false,"transitLeg":true,"duration":42.0,"steps":[]},{"startTime":1522713160000,"endTime":1522713540000,"departureDelay":0,"arrivalDelay":0,"realTime":false,"distance":487.799,"pathway":false,"mode":"WALK","route":"","agencyTimeZoneOffset":-14400000,"interlineWithPreviousLeg":false,"from":{"name":"boul. Talbot / Laurentides","stopId":"1:51","stopCode":"51","lon":-71.063914,"lat":48.398861,"arrival":1522713159000,"departure":1522713160000,"zoneId":"NA","stopIndex":9,"stopSequence":10,"vertexType":"TRANSIT"},"to":{"name":"Destination","lon":-71.06060899,"lat":48.40251,"arrival":1522713540000,"orig":"","vertexType":"NORMAL"},"legGeometry":{"points":"e|kfH`uvpLGIW]Qb@MOiCgDu@aAo@w@cCaCwBuBkAiAkAiA","length":12},"rentedBike":false,"transitLeg":false,"duration":380.0,"steps":[{"distance":487.799,"relativeDirection":"DEPART","streetName":"Boulevard Talbot","absoluteDirection":"NORTHEAST","stayOn":false,"area":false,"bogusName":false,"lon":-71.06400548628389,"lat":48.398911410972886,"elevation":[]}]}],"tooSloped":false},{"duration":449,"startTime":1522714891000,"endTime":1522715340000,"walkTime":405,"transitTime":42,"waitingTime":2,"walkDistance":520.6653007496113,"walkLimitExceeded":false,"elevationLost":0.0,"elevationGained":0.0,"transfers":0,"legs":[{"startTime":1522714891000,"endTime":1522714916000,"departureDelay":0,"arrivalDelay":0,"realTime":false,"distance":32.796,"pathway":false,"mode":"WALK","route":"","agencyTimeZoneOffset":-14400000,"interlineWithPreviousLeg":false,"from":{"name":"Origin","lon":-71.066557,"lat":48.396762,"departure":1522714891000,"orig":"","vertexType":"NORMAL"},"to":{"name":"boul. Talbot (no. 1775)","stopId":"1:50","stopCode":"50","lon":-71.066348,"lat":48.397035,"arrival":1522714916000,"departure":1522714917000,"zoneId":"NA","stopIndex":8,"stopSequence":9,"vertexType":"TRANSIT"},"legGeometry":{"points":"qokfHjfwpLk@{@","length":2},"rentedBike":false,"transitLeg":false,"duration":25.0,"steps":[{"distance":32.796,"relativeDirection":"DEPART","streetName":"Boulevard Talbot","absoluteDirection":"NORTHEAST","stayOn":false,"area":false,"bogusName":false,"lon":-71.06677998477898,"lat":48.39689792786936,"elevation":[]}]},{"startTime":1522714917000,"endTime":1522714959000,"departureDelay":0,"arrivalDelay":0,"realTime":false,"distance":271.1412468436524,"pathway":false,"mode":"BUS","route":"175","agencyName":"Société de Transport du Saguenay","agencyUrl":"http://ville.saguenay.ca/fr/services-aux-citoyens/transport-sts","agencyTimeZoneOffset":-14400000,"routeColor":"FF00FF","routeType":3,"routeId":"1:175","routeTextColor":"FFFFFF","interlineWithPreviousLeg":false,"tripBlockId":"10","headsign":"Terminus Chicoutimi","agencyId":"0","tripId":"1:217454","serviceDate":"20180402","from":{"name":"boul. Talbot (no. 1775)","stopId":"1:50","stopCode":"50","lon":-71.066348,"lat":48.397035,"arrival":1522714916000,"departure":1522714917000,"zoneId":"NA","stopIndex":8,"stopSequence":9,"vertexType":"TRANSIT"},"to":{"name":"boul. Talbot / Laurentides","stopId":"1:51","stopCode":"51","lon":-71.063914,"lat":48.398861,"arrival":1522714959000,"departure":1522714960000,"zoneId":"NA","stopIndex":9,"stopSequence":10,"vertexType":"TRANSIT"},"legGeometry":{"points":"_qkfHtdwpLqJ_N","length":2},"routeShortName":"175","routeLongName":"Term. Chic / Costco","rentedBike":false,"transitLeg":true,"duration":42.0,"steps":[]},{"startTime":1522714960000,"endTime":1522715340000,"departureDelay":0,"arrivalDelay":0,"realTime":false,"distance":487.799,"pathway":false,"mode":"WALK","route":"","agencyTimeZoneOffset":-14400000,"interlineWithPreviousLeg":false,"from":{"name":"boul. Talbot / Laurentides","stopId":"1:51","stopCode":"51","lon":-71.063914,"lat":48.398861,"arrival":1522714959000,"departure":1522714960000,"zoneId":"NA","stopIndex":9,"stopSequence":10,"vertexType":"TRANSIT"},"to":{"name":"Destination","lon":-71.06060899,"lat":48.40251,"arrival":1522715340000,"orig":"","vertexType":"NORMAL"},"legGeometry":{"points":"e|kfH`uvpLGIW]Qb@MOiCgDu@aAo@w@cCaCwBuBkAiAkAiA","length":12},"rentedBike":false,"transitLeg":false,"duration":380.0,"steps":[{"distance":487.799,"relativeDirection":"DEPART","streetName":"Boulevard Talbot","absoluteDirection":"NORTHEAST","stayOn":false,"area":false,"bogusName":false,"lon":-71.06400548628389,"lat":48.398911410972886,"elevation":[]}]}],"tooSloped":false}]},"debugOutput":{"precalculationTime":31,"pathCalculationTime":35,"pathTimes":[8,15,11],"renderingTime":0,"totalTime":66,"timedOut":false},"elevationMetadata":{"ellipsoidToGeoidDifference":-28.885904201182168,"geoidElevation":false}}