{"requestParameters":{"date":"2018/04/02","walkSpeed":"1.33","walkReluctance":"2.0","fromPlace":"48.411103,-71.05284299","maxWalkDistance":"3000","waitReluctance":"1.0","carSpeed":"33","numItineraries":"3","waitAtBeginningFactor":"0.4","mode":"TRANSIT,WALK","ignoreRealtimeUpdates":"false","stairsReluctance":"2.0","toPlace":"48.392442,-71.057933","time":"23:0:00"},"plan":{"date":1522724400000,"from":{"name":"Origin","lon":-71.05284299,"lat":48.411103,"orig":"","vertexType":"NORMAL"},"to":{"name":"Destination","lon":-71.057933,"lat":48.392442,"orig":"","vertexType":"NORMAL"},"itineraries":[{"duration":2066,"startTime":1522724400000,"endTime":1522726466000,"walkTime":2066,"transitTime":0,"waitingTime":0,"walkDistance":2678.298045104133,"walkLimitExceeded":false,"elevationLost":0.0,"elevationGained":0.0,"transfers":0,"legs":[{"startTime":1522724400000,"endTime":1522726466000,"departureDelay":0,"arrivalDelay":0,"realTime":false,"distance":2678.0299999999997,"pathway":false,"mode":"WALK","route":"","agencyTimeZoneOffset":-14400000,"interlineWithPreviousLeg":false,"from":{"name":"Origin","lon":-71.05284299,"lat":48.411103,"departure":1522724400000,"orig":"","vertexType":"NORMAL"},"to":{"name":"Destination","lon":-71.057933,"lat":48.392442,"arrival":1522726466000,"orig":"","vertexType":"NORMAL"},"legGeometry":{"points":"ggnfHxltpLtAvAlAhANNJ_@DKb@iAt@sB@EvBvBt@mBRMJBbAdARJLEPc@RYTGRJxAdCPUfAuAbAaAt@]l@Qp@E|@B|@LtAJfA?^Ed@MNGrBm@jEiA^KTGp@U|AOf@D|@D@?r@D|AZtA|@B@RNl@n@lBxBdBfBLLpCzCd@p@^l@zBhBnDrCJ_@L?NFN\\hDnLRVVXNNR^PNz@ZM~DF@rFl@JyBAcCSwA","length":74},"rentedBike":false,"transitLeg":false,"duration":2066.0,"steps":[{"distance":119.777,"relativeDirection":"DEPART","streetName":"Boulevard Talbot","absoluteDirection":"SOUTHWEST","stayOn":false,"area":false,"bogusName":false,"lon":-71.05244879271228,"lat":48.41092802695448,"elevation":[]},{"distance":448.502,"relativeDirection":"LEFT","streetName":"service road","absoluteDirection":"SOUTHEAST","stayOn":false,"area":false,"bogusName":true,"lon":-71.05333350000001,"lat":48.410025100000006,"elevation":[]},{"distance":603.137,"relativeDirection":"LEFT","streetName":"Rue des Champs-Élysées","absoluteDirection":"SOUTHEAST","stayOn":false,"area":false,"bogusName":false,"lon":-71.05289400000001,"lat":48.4070874,"elevation":[]},{"distance":640.111,"relativeDirection":"CONTINUE","streetName":"Rue des Engoulevents","absoluteDirection":"SOUTH","stayOn":false,"area":false,"bogusName":false,"lon":-71.0511074,"lat":48.401948700000005,"elevation":[]},{"distance":190.906,"relativeDirection":"CONTINUE","streetName":"path","absoluteDirection":"SOUTHWEST","stayOn":false,"area":false,"bogusName":true,"lon":-71.0542028,"lat":48.3968707,"elevation":[]},{"distance":334.41,"relativeDirection":"LEFT","streetName":"Rue des Hérons","absoluteDirection":"SOUTHEAST","stayOn":false,"area":false,"bogusName":false,"lon":-71.0554784,"lat":48.3953773,"elevation":[]},{"distance":71.509,"relativeDirection":"RIGHT","streetName":"Rue Des Roitelets","absoluteDirection":"WEST","stayOn":false,"area":false,"bogusName":false,"lon":-71.05837050000001,"lat":48.3934468,"elevation":[]},{"distance":140.655,"relativeDirection":"LEFT","streetName":"Rue des Coulombes","absoluteDirection":"SOUTH","stayOn":false,"area":false,"bogusName":false,"lon":-71.0593343,"lat":48.3935101,"elevation":[]},{"distance":129.023,"relativeDirection":"LEFT","streetName":"Rue des Hirondelles","absoluteDirection":"EAST","stayOn":false,"area":false,"bogusName":false,"lon":-71.05957740000001,"lat":48.392255500000005,"elevation":[]}]}],"tooSloped":false},{"duration":1682,"startTime":1522725880000,"endTime":1522727562000,"walkTime":1203,"transitTime":477,"waitingTime":2,"walkDistance":1549.015909767534,"walkLimitExceeded":false,"elevationLost":0.0,"elevationGained":0.0,"transfers":0,"legs":[{"startTime":1522725880000,"endTime":1522726082000,"departureDelay":0,"arrivalDelay":0,"realTime":false,"distance":262.082,"pathway":false,"mode":"WALK","route":"","agencyTimeZoneOffset":-14400000,"interlineWithPreviousLeg":false,"from":{"name":"Origin","lon":-71.05284299,"lat":48.411103,"departure":1522725880000,"orig":"","vertexType":"NORMAL"},"to":{"name":"boul. Université / Murdock","stopId":"1:80","stopCode":"80","lon":-71.050111,"lat":48.411498,"arrival":1522726082000,"departure":1522726083000,"zoneId":"NA","stopIndex":14,"stopSequence":15,"vertexType":"TRANSIT"},"legGeometry":{"points":"ggnfHxltpLwDwDo@s@Na@|AmE","length":5},"rentedBike":false,"transitLeg":false,"duration":202.0,"steps":[{"distance":155.127,"relativeDirection":"DEPART","streetName":"Boulevard Talbot","absoluteDirection":"NORTHEAST","stayOn":false,"area":false,"bogusName":false,"lon":-71.05244879271228,"lat":48.41092802695448,"elevation":[]},{"distance":106.955,"relativeDirection":"RIGHT","streetName":"Boulevard de l'Université","absoluteDirection":"SOUTHEAST","stayOn":false,"area":false,"bogusName":false,"lon":-71.051266,"lat":48.412081,"elevation":[]}]},{"startTime":1522726083000,"endTime":1522726560000,"departureDelay":0,"arrivalDelay":0,"realTime":false,"distance":2868.593020858092,"pathway":false,"mode":"BUS","route":"175","agencyName":"Société de Transport du Saguenay","agencyUrl":"http://ville.saguenay.ca/fr/services-aux-citoyens/transport-sts","agencyTimeZoneOffset":-14400000,"routeColor":"FF00FF","routeType":3,"routeId":"1:175","routeTextColor":"FFFFFF","interlineWithPreviousLeg":false,"tripBlockId":"6","headsign":"Costco","agencyId":"0","tripId":"1:217318","serviceDate":"20180402","from":{"name":"boul. Université / Murdock","stopId":"1:80","stopCode":"80","lon":-71.050111,"lat":48.411498,"arrival":1522726082000,"departure":1522726083000,"zoneId":"NA","stopIndex":14,"stopSequence":15,"vertexType":"TRANSIT"},"to":{"name":"boul. Talbot (no. 1870)","stopId":"1:1556","stopCode":"1556","lon":-71.069429,"lat":48.3951,"arrival":1522726560000,"departure":1522726561000,"zoneId":"NA","stopIndex":24,"stopSequence":25,"vertexType":"TRANSIT"},"legGeometry":{"points":"aknfH~}spLr@sBhCsKz@dAjB|@dM`GzCvAXrCr@~Gx@]PEr@ObACn@FrBb@|@Ch@Kx@U~HsB^KZ|DJpII~Fa@rFUzBi@bDUxAm@nCcAlDM^RTfD`DjF`FjCrCrAvAbCfDjIfMdAzAfFpHd@n@nC`D","length":41},"routeShortName":"175","routeLongName":"Term. Chic / Costco","rentedBike":false,"transitLeg":true,"duration":477.0,"steps":[]},{"startTime":1522726561000,"endTime":1522727562000,"departureDelay":0,"arrivalDelay":0,"realTime":false,"distance":1286.7199999999996,"pathway":false,"mode":"WALK","route":"","agencyTimeZoneOffset":-14400000,"interlineWithPreviousLeg":false,"from":{"name":"boul. Talbot (no. 1870)","stopId":"1:1556","stopCode":"1556","lon":-71.069429,"lat":48.3951,"arrival":1522726560000,"departure":1522726561000,"zoneId":"NA","stopIndex":24,"stopSequence":25,"vertexType":"TRANSIT"},"to":{"name":"Destination","lon":-71.057933,"lat":48.392442,"arrival":1522727562000,"orig":"","vertexType":"NORMAL"},"legGeometry":{"points":"adkfHjvwpL~DxENPPc@FQ@CnA{C@EV_@Z}@VmAN{ADsAKiAa@uAEOFIGOk@wBSaBGc@?EEqCBaF?eC?m@BuB?k@HwGlD`@jACAs@BwABu@JyBAcCSwA","length":37},"rentedBike":false,"transitLeg":false,"duration":1001.0,"steps":[{"distance":145.045,"relativeDirection":"DEPART","streetName":"Boulevard Talbot","absoluteDirection":"SOUTHWEST","stayOn":false,"area":false,"bogusName":false,"lon":-71.0693341574882,"lat":48.39505259726926,"elevation":[]},{"distance":16.634,"relativeDirection":"LEFT","streetName":"Boulevard Barrette","absoluteDirection":"SOUTHEAST","stayOn":false,"area":false,"bogusName":false,"lon":-71.0705155,"lat":48.394010400000006,"elevation":[]},{"distance":299.824,"relativeDirection":"CONTINUE","streetName":"Rue Des Roitelets","absoluteDirection":"SOUTHEAST","stayOn":false,"area":false,"bogusName":false,"lon":-71.0703318,"lat":48.3939238,"elevation":[]},{"distance":5.699,"relativeDirection":"RIGHT","streetName":"service road","absoluteDirection":"SOUTHEAST","stayOn":false,"area":false,"bogusName":true,"lon":-71.0667954,"lat":48.3932324,"elevation":[]},{"distance":479.46400000000006,"relativeDirection":"LEFT","streetName":"bike path","absoluteDirection":"NORTHEAST","stayOn":true,"area":false,"bogusName":true,"lon":-71.0667475,"lat":48.3931922,"elevation":[]},{"distance":139.498,"relativeDirection":"RIGHT","streetName":"Rue des Comorans","absoluteDirection":"SOUTH","stayOn":false,"area":false,"bogusName":false,"lon":-71.0603964,"lat":48.3935308,"elevation":[]},{"distance":200.55599999999998,"relativeDirection":"LEFT","streetName":"Rue des Hirondelles","absoluteDirection":"EAST","stayOn":false,"area":false,"bogusName":false,"lon":-71.06054300000001,"lat":48.392283600000006,"elevation":[]}]}],"tooSloped":false}]},"debugOutput":{"precalculationTime":43,"pathCalculationTime":90,"pathTimes":[43,21],"renderingTime":0,"totalTime":133,"timedOut":false},"elevationMetadata":{"ellipsoidToGeoidDifference":-28.885904201182168,"geoidElevation":false}}