{"requestParameters":{"date":"2018/04/02","walkSpeed":"1.33","walkReluctance":"2.0","fromPlace":"48.391723,-71.057763","maxWalkDistance":"3000","waitReluctance":"1.0","carSpeed":"33","numItineraries":"3","waitAtBeginningFactor":"0.4","mode":"TRANSIT,WALK","ignoreRealtimeUpdates":"false","stairsReluctance":"2.0","toPlace":"48.409854,-71.06000299","time":"7:30:00"},"plan":{"date":1522668600000,"from":{"name":"Origin","lon":-71.057763,"lat":48.391723,"orig":"","vertexType":"NORMAL"},"to":{"name":"Destination","lon":-71.06000299,"lat":48.409854,"orig":"","vertexType":"NORMAL"},"itineraries":[{"duration":1347,"startTime":1522669087000,"endTime":1522670434000,"walkTime":856,"transitTime":489,"waitingTime":2,"walkDistance":1086.6739849529201,"walkLimitExceeded":false,"elevationLost":0.0,"elevationGained":0.0,"transfers":0,"legs":[{"startTime":1522669087000,"endTime":1522669369000,"departureDelay":0,"arrivalDelay":0,"realTime":false,"distance":347.83500000000004,"pathway":false,"mode":"WALK","route":"","agencyTimeZoneOffset":-14400000,"interlineWithPreviousLeg":false,"from":{"name":"Origin","lon":-71.057763,"lat":48.391723,"departure":1522669087000,"orig":"","vertexType":"NORMAL"},"to":{"name":"Roitelets / Colombes","stopId":"1:1544","stopCode":"1544","lon":-71.059204,"lat":48.393412,"arrival":1522669369000,"departure":1522669370000,"zoneId":"NA","stopIndex":3,"stopSequence":4,"vertexType":"TRANSIT"},"legGeometry":{"points":"mpjfHvlupLODKCOGm@N^jC@bCKxBsFm@@]","length":10},"rentedBike":false,"transitLeg":false,"duration":282.0,"steps":[{"distance":51.275000000000006,"relativeDirection":"DEPART","streetName":"Rue des Tourterelles","absoluteDirection":"NORTH","stayOn":false,"area":false,"bogusName":false,"lon":-71.057556,"lat":48.391914,"elevation":[]},{"distance":148.894,"relativeDirection":"LEFT","streetName":"Rue des Hirondelles","absoluteDirection":"WEST","stayOn":false,"area":false,"bogusName":false,"lon":-71.0576073,"lat":48.392360200000006,"elevation":[]},{"distance":136.72,"relativeDirection":"RIGHT","streetName":"Rue des Coulombes","absoluteDirection":"NORTH","stayOn":false,"area":false,"bogusName":false,"lon":-71.05957740000001,"lat":48.392255500000005,"elevation":[]},{"distance":10.946,"relativeDirection":"RIGHT","streetName":"bike path","absoluteDirection":"EAST","stayOn":false,"area":false,"bogusName":true,"lon":-71.0593411,"lat":48.393475,"elevation":[]}]},{"startTime":1522669370000,"endTime":1522669859000,"departureDelay":0,"arrivalDelay":0,"realTime":false,"distance":3156.4129423824543,"pathway":false,"mode":"BUS","route":"15","agencyName":"Société de Transport du Saguenay","agencyUrl":"http://ville.saguenay.ca/fr/services-aux-citoyens/transport-sts","agencyTimeZoneOffset":-14400000,"routeColor":"FF00FF","routeType":3,"routeId":"1:15","routeTextColor":"FFFFFF","interlineWithPreviousLeg":false,"tripBlockId":"32","headsign":"Terminus Chicoutimi","agencyId":"0","tripId":"1:218149","serviceDate":"20180402","from":{"name":"Roitelets / Colombes","stopId":"1:1544","stopCode":"1544","lon":-71.059204,"lat":48.393412,"arrival":1522669369000,"departure":1522669370000,"zoneId":"NA","stopIndex":3,"stopSequence":4,"vertexType":"TRANSIT"},"to":{"name":"Saguenéens / Duchesne","stopId":"1:1598","stopCode":"1598","lon":-71.065637,"lat":48.406803,"arrival":1522669859000,"departure":1522669860000,"zoneId":"NA","stopIndex":15,"stopSequence":16,"vertexType":"TRANSIT"},"legGeometry":{"points":"czjfH~vupLTuGEGVsHPuDLuBXsFDoA?W@]Cu@GcAKu@Q_ASo@a@y@a@o@MOUUeCqBiDsDqE{EiAcAcB_AqBgA_AQaBSaBG_@Bu@FG?h@fNKnDpCfBkAzDgA}@y@q@sDy@GAeGT~@~KKrKyAnL[hBUxAm@nCcAlDeCvGmA|CUr@}@~A_@\\_DvCEZcA|@UP_@d@Yl@oBdF","length":59},"routeShortName":"15","routeLongName":"Term. Chic / Costco","rentedBike":false,"transitLeg":true,"duration":489.0,"steps":[]},{"startTime":1522669860000,"endTime":1522670434000,"departureDelay":0,"arrivalDelay":0,"realTime":false,"distance":738.5450000000001,"pathway":false,"mode":"WALK","route":"","agencyTimeZoneOffset":-14400000,"interlineWithPreviousLeg":false,"from":{"name":"Saguenéens / Duchesne","stopId":"1:1598","stopCode":"1598","lon":-71.065637,"lat":48.406803,"arrival":1522669859000,"departure":1522669860000,"zoneId":"NA","stopIndex":15,"stopSequence":16,"vertexType":"TRANSIT"},"to":{"name":"Destination","lon":-71.06000299,"lat":48.409854,"arrival":1522670434000,"orig":"","vertexType":"NORMAL"},"legGeometry":{"points":"immfHv~vpL_IoFcAbCmAy@_AkGIs@@wAB[aAIk@Qa@UMSA]Ni@xAuDkA{A","length":16},"rentedBike":false,"transitLeg":false,"duration":574.0,"steps":[{"distance":198.532,"relativeDirection":"DEPART","streetName":"service road","absoluteDirection":"NORTHEAST","stayOn":false,"area":false,"bogusName":true,"lon":-71.06555910719396,"lat":48.40677700366448,"elevation":[]},{"distance":61.865,"relativeDirection":"LEFT","streetName":"Rue Don Bosco","absoluteDirection":"NORTHWEST","stayOn":false,"area":false,"bogusName":false,"lon":-71.064351,"lat":48.4083722,"elevation":[]},{"distance":217.031,"relativeDirection":"RIGHT","streetName":"Rue Belleau","absoluteDirection":"NORTHEAST","stayOn":false,"area":false,"bogusName":false,"lon":-71.06501420000001,"lat":48.408712400000006,"elevation":[]},{"distance":206.781,"relativeDirection":"LEFT","streetName":"Rue Létondal","absoluteDirection":"NORTH","stayOn":false,"area":false,"bogusName":false,"lon":-71.0625433,"lat":48.409441300000005,"elevation":[]},{"distance":54.336,"relativeDirection":"LEFT","streetName":"Rue Albani","absoluteDirection":"NORTHEAST","stayOn":false,"area":false,"bogusName":false,"lon":-71.06092220000001,"lat":48.4097133,"elevation":[]}]}],"tooSloped":false},{"duration":1666,"startTime":1522670236000,"endTime":1522671902000,"walkTime":1318,"transitTime":346,"waitingTime":2,"walkDistance":1659.6270676553927,"walkLimitExceeded":false,"elevationLost":0.0,"elevationGained":0.0,"transfers":0,"legs":[{"startTime":1522670236000,"endTime":1522670628000,"departureDelay":0,"arrivalDelay":0,"realTime":false,"distance":486.852,"pathway":false,"mode":"WALK","route":"","agencyTimeZoneOffset":-14400000,"interlineWithPreviousLeg":false,"from":{"name":"Origin","lon":-71.057763,"lat":48.391723,"departure":1522670236000,"orig":"","vertexType":"NORMAL"},"to":{"name":"Roitelets / Faucons","stopId":"1:1545","stopCode":"1545","lon":-71.052988,"lat":48.392905,"arrival":1522670628000,"departure":1522670629000,"zoneId":"NA","stopIndex":5,"stopSequence":6,"vertexType":"TRANSIT"},"legGeometry":{"points":"mpjfHvlupLODKCOGm@NKsASeBCyA@QVmETmCJcABeFgC^@M","length":15},"rentedBike":false,"transitLeg":false,"duration":392.0,"steps":[{"distance":51.275000000000006,"relativeDirection":"DEPART","streetName":"Rue des Tourterelles","absoluteDirection":"NORTH","stayOn":false,"area":false,"bogusName":false,"lon":-71.057556,"lat":48.391914,"elevation":[]},{"distance":353.31100000000004,"relativeDirection":"RIGHT","streetName":"Rue des Hirondelles","absoluteDirection":"EAST","stayOn":false,"area":false,"bogusName":false,"lon":-71.0576073,"lat":48.392360200000006,"elevation":[]},{"distance":76.462,"relativeDirection":"LEFT","streetName":"Rue des Faucons","absoluteDirection":"NORTH","stayOn":false,"area":false,"bogusName":false,"lon":-71.0529059,"lat":48.392228800000005,"elevation":[]},{"distance":5.804,"relativeDirection":"RIGHT","streetName":"bike path","absoluteDirection":"EAST","stayOn":false,"area":false,"bogusName":true,"lon":-71.0530677,"lat":48.392908000000006,"elevation":[]}]},{"startTime":1522670629000,"endTime":1522670975000,"departureDelay":0,"arrivalDelay":0,"realTime":false,"distance":2446.8326933542353,"pathway":false,"mode":"BUS","route":"200S","agencyName":"Société de Transport du Saguenay","agencyUrl":"http://ville.saguenay.ca/fr/services-aux-citoyens/transport-sts","agencyTimeZoneOffset":-14400000,"routeColor":"8B0000","routeType":3,"routeId":"1:200S","routeTextColor":"FFFFFF","interlineWithPreviousLeg":false,"tripBlockId":"42","headsign":"Séminaire","agencyId":"0","tripId":"1:218368","serviceDate":"20180402","from":{"name":"Roitelets / Faucons","stopId":"1:1545","stopCode":"1545","lon":-71.052988,"lat":48.392905,"arrival":1522670628000,"departure":1522670629000,"zoneId":"NA","stopIndex":5,"stopSequence":6,"vertexType":"TRANSIT"},"to":{"name":"Roitelets / Lorenzo-Genest","stopId":"1:57","stopCode":"57","lon":-71.049399,"lat":48.407447,"arrival":1522670975000,"departure":1522670976000,"zoneId":"NA","stopIndex":13,"stopSequence":14,"vertexType":"TRANSIT"},"legGeometry":{"points":"{vjfHdptpL?G@UCu@GcAKu@Q_ASo@a@y@a@o@MOUUeCqBqCwCk@bBSd@Y^YT]NWqAQe@W_@iCqCy@y@][]YqCdI_BdEkApDhBpBnBpB@@fCnCV\\Vb@^l@W\\Ul@_AfCwC`ISf@YhAUp@CHkCvGg@lAgBuBmAkAo@s@[c@_@o@Wk@KWS[e@g@c@]e@We@KNqAf@}GLiGAaDKiDYgEMwAu@uFy@kFsCfA{RhFYD]Bc@Ca@Kk@Us@]","length":75},"routeShortName":"200S","routeLongName":"Séminaire - Quartier des Oiseaux","rentedBike":false,"transitLeg":true,"duration":346.0,"steps":[]},{"startTime":1522670976000,"endTime":1522671902000,"departureDelay":0,"arrivalDelay":0,"realTime":false,"distance":1172.348,"pathway":false,"mode":"WALK","route":"","agencyTimeZoneOffset":-14400000,"interlineWithPreviousLeg":false,"from":{"name":"Roitelets / Lorenzo-Genest","stopId":"1:57","stopCode":"57","lon":-71.049399,"lat":48.407447,"arrival":1522670975000,"departure":1522670976000,"zoneId":"NA","stopIndex":13,"stopSequence":14,"vertexType":"TRANSIT"},"to":{"name":"Destination","lon":-71.06000299,"lat":48.409854,"arrival":1522671902000,"orig":"","vertexType":"NORMAL"},"legGeometry":{"points":"sqmfHbzspLlB|@V\\LXFT?hADT@J@FFn@z@pEcA`AgAtAQTOb@aA~Cs@pBk@~AIRO`@GPm@|A]|@O`@M\\fBfBcAvCmA~CsArDDBj@d@cClGkA{A","length":33},"rentedBike":false,"transitLeg":false,"duration":926.0,"steps":[{"distance":64.22,"relativeDirection":"DEPART","streetName":"Rue Des Roitelets","absoluteDirection":"SOUTH","stayOn":false,"area":false,"bogusName":false,"lon":-71.04945884013524,"lat":48.40746167294241,"elevation":[]},{"distance":39.358,"relativeDirection":"SLIGHTLY_RIGHT","streetName":"link","absoluteDirection":"SOUTHWEST","stayOn":false,"area":false,"bogusName":true,"lon":-71.0497603,"lat":48.406919900000005,"elevation":[]},{"distance":146.364,"relativeDirection":"SLIGHTLY_RIGHT","streetName":"Rue Émile-Girardin","absoluteDirection":"WEST","stayOn":false,"area":false,"bogusName":false,"lon":-71.0501541,"lat":48.406688800000005,"elevation":[]},{"distance":421.20200000000006,"relativeDirection":"RIGHT","streetName":"Rue des Champs-Élysées","absoluteDirection":"NORTHWEST","stayOn":false,"area":false,"bogusName":false,"lon":-71.05202630000001,"lat":48.4062974,"elevation":[]},{"distance":69.905,"relativeDirection":"LEFT","streetName":"Rue Plamondon","absoluteDirection":"SOUTHWEST","stayOn":false,"area":false,"bogusName":false,"lon":-71.0563831,"lat":48.4086751,"elevation":[]},{"distance":221.909,"relativeDirection":"RIGHT","streetName":"Rue Plamondon","absoluteDirection":"NORTHWEST","stayOn":true,"area":false,"bogusName":false,"lon":-71.05690750000001,"lat":48.408151600000004,"elevation":[]},{"distance":31.95,"relativeDirection":"LEFT","streetName":"Rue Bizet","absoluteDirection":"SOUTHWEST","stayOn":false,"area":false,"bogusName":false,"lon":-71.0593601,"lat":48.4093053,"elevation":[]},{"distance":123.104,"relativeDirection":"RIGHT","streetName":"Rue Létondal","absoluteDirection":"NORTHWEST","stayOn":false,"area":false,"bogusName":false,"lon":-71.0595787,"lat":48.4090573,"elevation":[]},{"distance":54.336,"relativeDirection":"RIGHT","streetName":"Rue Albani","absoluteDirection":"NORTHEAST","stayOn":false,"area":false,"bogusName":false,"lon":-71.06092220000001,"lat":48.4097133,"elevation":[]}]}],"tooSloped":false},{"duration":1347,"startTime":1522670887000,"endTime":1522672234000,"walkTime":856,"transitTime":489,"waitingTime":2,"walkDistance":1086.6739849529201,"walkLimitExceeded":false,"elevationLost":0.0,"elevationGained":0.0,"transfers":0,"legs":[{"startTime":1522670887000,"endTime":1522671169000,"departureDelay":0,"arrivalDelay":0,"realTime":false,"distance":347.83500000000004,"pathway":false,"mode":"WALK","route":"","agencyTimeZoneOffset":-14400000,"interlineWithPreviousLeg":false,"from":{"name":"Origin","lon":-71.057763,"lat":48.391723,"departure":1522670887000,"orig":"","vertexType":"NORMAL"},"to":{"name":"Roitelets / Colombes","stopId":"1:1544","stopCode":"1544","lon":-71.059204,"lat":48.393412,"arrival":1522671169000,"departure":1522671170000,"zoneId":"NA","stopIndex":3,"stopSequence":4,"vertexType":"TRANSIT"},"legGeometry":{"points":"mpjfHvlupLODKCOGm@N^jC@bCKxBsFm@@]","length":10},"rentedBike":false,"transitLeg":false,"duration":282.0,"steps":[{"distance":51.275000000000006,"relativeDirection":"DEPART","streetName":"Rue des Tourterelles","absoluteDirection":"NORTH","stayOn":false,"area":false,"bogusName":false,"lon":-71.057556,"lat":48.391914,"elevation":[]},{"distance":148.894,"relativeDirection":"LEFT","streetName":"Rue des Hirondelles","absoluteDirection":"WEST","stayOn":false,"area":false,"bogusName":false,"lon":-71.0576073,"lat":48.392360200000006,"elevation":[]},{"distance":136.72,"relativeDirection":"RIGHT","streetName":"Rue des Coulombes","absoluteDirection":"NORTH","stayOn":false,"area":false,"bogusName":false,"lon":-71.05957740000001,"lat":48.392255500000005,"elevation":[]},{"distance":10.946,"relativeDirection":"RIGHT","streetName":"bike path","absoluteDirection":"EAST","stayOn":false,"area":false,"bogusName":true,"lon":-71.0593411,"lat":48.393475,"elevation":[]}]},{"startTime":1522671170000,"endTime":1522671659000,"departureDelay":0,"arrivalDelay":0,"realTime":false,"distance":3156.4129423824543,"pathway":false,"mode":"BUS","route":"15","agencyName":"Société de Transport du Saguenay","agencyUrl":"http://ville.saguenay.ca/fr/services-aux-citoyens/transport-sts","agencyTimeZoneOffset":-14400000,"routeColor":"FF00FF","routeType":3,"routeId":"1:15","routeTextColor":"FFFFFF","interlineWithPreviousLeg":false,"tripBlockId":"30","headsign":"Terminus Chicoutimi","agencyId":"0","tripId":"1:218090","serviceDate":"20180402","from":{"name":"Roitelets / Colombes","stopId":"1:1544","stopCode":"1544","lon":-71.059204,"lat":48.393412,"arrival":1522671169000,"departure":1522671170000,"zoneId":"NA","stopIndex":3,"stopSequence":4,"vertexType":"TRANSIT"},"to":{"name":"Saguenéens / Duchesne","stopId":"1:1598","stopCode":"1598","lon":-71.065637,"lat":48.406803,"arrival":1522671659000,"departure":1522671660000,"zoneId":"NA","stopIndex":15,"stopSequence":16,"vertexType":"TRANSIT"},"legGeometry":{"points":"czjfH~vupLTuGEGVsHPuDLuBXsFDoA?W@]Cu@GcAKu@Q_ASo@a@y@a@o@MOUUeCqBiDsDqE{EiAcAcB_AqBgA_AQaBSaBG_@Bu@FG?h@fNKnDpCfBkAzDgA}@y@q@sDy@GAeGT~@~KKrKyAnL[hBUxAm@nCcAlDeCvGmA|CUr@}@~A_@\\_DvCEZcA|@UP_@d@Yl@oBdF","length":59},"routeShortName":"15","routeLongName":"Term. Chic / Costco","rentedBike":false,"transitLeg":true,"duration":489.0,"steps":[]},{"startTime":1522671660000,"endTime":1522672234000,"departureDelay":0,"arrivalDelay":0,"realTime":false,"distance":738.5450000000001,"pathway":false,"mode":"WALK","route":"","agencyTimeZoneOffset":-14400000,"interlineWithPreviousLeg":false,"from":{"name":"Saguenéens / Duchesne","stopId":"1:1598","stopCode":"1598","lon":-71.065637,"lat":48.406803,"arrival":1522671659000,"departure":1522671660000,"zoneId":"NA","stopIndex":15,"stopSequence":16,"vertexType":"TRANSIT"},"to":{"name":"Destination","lon":-71.06000299,"lat":48.409854,"arrival":1522672234000,"orig":"","vertexType":"NORMAL"},"legGeometry":{"points":"immfHv~vpL_IoFcAbCmAy@_AkGIs@@wAB[aAIk@Qa@UMSA]Ni@xAuDkA{A","length":16},"rentedBike":false,"transitLeg":false,"duration":574.0,"steps":[{"distance":198.532,"relativeDirection":"DEPART","streetName":"service road","absoluteDirection":"NORTHEAST","stayOn":false,"area":false,"bogusName":true,"lon":-71.06555910719396,"lat":48.40677700366448,"elevation":[]},{"distance":61.865,"relativeDirection":"LEFT","streetName":"Rue Don Bosco","absoluteDirection":"NORTHWEST","stayOn":false,"area":false,"bogusName":false,"lon":-71.064351,"lat":48.4083722,"elevation":[]},{"distance":217.031,"relativeDirection":"RIGHT","streetName":"Rue Belleau","absoluteDirection":"NORTHEAST","stayOn":false,"area":false,"bogusName":false,"lon":-71.06501420000001,"lat":48.408712400000006,"elevation":[]},{"distance":206.781,"relativeDirection":"LEFT","streetName":"Rue Létondal","absoluteDirection":"NORTH","stayOn":false,"area":false,"bogusName":false,"lon":-71.0625433,"lat":48.409441300000005,"elevation":[]},{"distance":54.336,"relativeDirection":"LEFT","streetName":"Rue Albani","absoluteDirection":"NORTHEAST","stayOn":false,"area":false,"bogusName":false,"lon":-71.06092220000001,"lat":48.4097133,"elevation":[]}]}],"tooSloped":false}]},"debugOutput":{"precalculationTime":35,"pathCalculationTime":33,"pathTimes":[17,8,8],"renderingTime":1,"totalTime":69,"timedOut":false},"elevationMetadata":{"ellipsoidToGeoidDifference":-28.885904201182168,"geoidElevation":false}}