{"requestParameters":{"date":"2018/04/02","walkSpeed":"1.33","walkReluctance":"2.0","fromPlace":"48.392123,-71.054918","maxWalkDistance":"3000","waitReluctance":"1.0","carSpeed":"33","numItineraries":"3","waitAtBeginningFactor":"0.4","mode":"TRANSIT,WALK","ignoreRealtimeUpdates":"false","stairsReluctance":"2.0","toPlace":"48.420598,-71.02662399","time":"8:0:00"},"plan":{"date":1522670400000,"from":{"name":"Origin","lon":-71.054918,"lat":48.392123,"orig":"","vertexType":"NORMAL"},"to":{"name":"Destination","lon":-71.02662399,"lat":48.420598,"orig":"","vertexType":"NORMAL"},"itineraries":[{"duration":1711,"startTime":1522670446000,"endTime":1522672157000,"walkTime":236,"transitTime":850,"waitingTime":625,"walkDistance":291.1923984927106,"walkLimitExceeded":false,"elevationLost":0.0,"elevationGained":0.0,"transfers":1,"legs":[{"startTime":1522670446000,"endTime":1522670628000,"departureDelay":0,"arrivalDelay":0,"realTime":false,"distance":225.90599999999998,"pathway":false,"mode":"WALK","route":"","agencyTimeZoneOffset":-14400000,"interlineWithPreviousLeg":false,"from":{"name":"Origin","lon":-71.054918,"lat":48.392123,"departure":1522670446000,"orig":"","vertexType":"NORMAL"},"to":{"name":"Roitelets / Faucons","stopId":"1:1545","stopCode":"1545","lon":-71.052988,"lat":48.392905,"arrival":1522670628000,"departure":1522670629000,"zoneId":"NA","stopIndex":5,"stopSequence":6,"vertexType":"TRANSIT"},"legGeometry":{"points":"isjfHt{tpLLuAJcABeFgC^@M","length":6},"rentedBike":false,"transitLeg":false,"duration":182.0,"steps":[{"distance":143.64,"relativeDirection":"DEPART","streetName":"Rue des Hirondelles","absoluteDirection":"EAST","stayOn":false,"area":false,"bogusName":false,"lon":-71.05482706208079,"lat":48.39237273109466,"elevation":[]},{"distance":76.462,"relativeDirection":"LEFT","streetName":"Rue des Faucons","absoluteDirection":"NORTH","stayOn":false,"area":false,"bogusName":false,"lon":-71.0529059,"lat":48.392228800000005,"elevation":[]},{"distance":5.804,"relativeDirection":"RIGHT","streetName":"bike path","absoluteDirection":"EAST","stayOn":false,"area":false,"bogusName":true,"lon":-71.0530677,"lat":48.392908000000006,"elevation":[]}]},{"startTime":1522670629000,"endTime":1522671000000,"departureDelay":0,"arrivalDelay":0,"realTime":false,"distance":2691.9659791535337,"pathway":false,"mode":"BUS","route":"200S","agencyName":"Société de Transport du Saguenay","agencyUrl":"http://ville.saguenay.ca/fr/services-aux-citoyens/transport-sts","agencyTimeZoneOffset":-14400000,"routeColor":"8B0000","routeType":3,"routeId":"1:200S","routeTextColor":"FFFFFF","interlineWithPreviousLeg":false,"tripBlockId":"42","headsign":"Séminaire","agencyId":"0","tripId":"1:218368","serviceDate":"20180402","from":{"name":"Roitelets / Faucons","stopId":"1:1545","stopCode":"1545","lon":-71.052988,"lat":48.392905,"arrival":1522670628000,"departure":1522670629000,"zoneId":"NA","stopIndex":5,"stopSequence":6,"vertexType":"TRANSIT"},"to":{"name":"Sûreté du Québec (Roitelets / Lorenzo-Genest)","stopId":"1:195","stopCode":"195","lon":-71.048189,"lat":48.4095,"arrival":1522671000000,"departure":1522671623000,"zoneId":"NA","stopIndex":14,"stopSequence":15,"vertexType":"TRANSIT"},"legGeometry":{"points":"{vjfHdptpL?G@UCu@GcAKu@Q_ASo@a@y@a@o@MOUUeCqBqCwCk@bBSd@Y^YT]NWqAQe@W_@iCqCy@y@][]YqCdI_BdEkApDhBpBnBpB@@fCnCV\\Vb@^l@W\\Ul@_AfCwC`ISf@YhAUp@CHkCvGg@lAgBuBmAkAo@s@[c@_@o@Wk@KWS[e@g@c@]e@We@KNqAf@}GLiGAaDKiDYgEMwAu@uFy@kFsCfA{RhFYD]Bc@Ca@Kk@Us@]{KkF??","length":77},"routeShortName":"200S","routeLongName":"Séminaire - Quartier des Oiseaux","rentedBike":false,"transitLeg":true,"duration":371.0,"steps":[]},{"startTime":1522671623000,"endTime":1522672102000,"departureDelay":0,"arrivalDelay":0,"realTime":false,"distance":2743.4805472545822,"pathway":false,"mode":"BUS","route":"12","agencyName":"Société de Transport du Saguenay","agencyUrl":"http://ville.saguenay.ca/fr/services-aux-citoyens/transport-sts","agencyTimeZoneOffset":-14400000,"routeColor":"556B2F","routeType":3,"routeId":"1:12","routeTextColor":"FFFFFF","interlineWithPreviousLeg":false,"tripBlockId":"26","headsign":"Terminus Chicoutimi","agencyId":"0","tripId":"1:217967","serviceDate":"20180402","from":{"name":"Sûreté du Québec (Roitelets / Lorenzo-Genest)","stopId":"1:195","stopCode":"195","lon":-71.048189,"lat":48.4095,"arrival":1522671000000,"departure":1522671623000,"zoneId":"NA","stopIndex":16,"stopSequence":17,"vertexType":"TRANSIT"},"to":{"name":"nouveau","stopId":"1:2299","stopCode":"2299","lon":-71.026429,"lat":48.420216,"arrival":1522672102000,"departure":1522672103000,"zoneId":"NA","stopIndex":19,"stopSequence":20,"vertexType":"TRANSIT"},"legGeometry":{"points":"k~mfHdrspLgD_BgAgBn@kFD_NoIgrAmD_WcAaLaDHoDJi`@wVoAbDbA|AnBU|B|AfBlAyLtK","length":17},"routeShortName":"12","routeLongName":"Rivière du Moulin","rentedBike":false,"transitLeg":true,"duration":479.0,"steps":[]},{"startTime":1522672103000,"endTime":1522672157000,"departureDelay":0,"arrivalDelay":0,"realTime":false,"distance":65.17699999999999,"pathway":false,"mode":"WALK","route":"","agencyTimeZoneOffset":-14400000,"interlineWithPreviousLeg":false,"from":{"name":"nouveau","stopId":"1:2299","stopCode":"2299","lon":-71.026429,"lat":48.420216,"arrival":1522672102000,"departure":1522672103000,"zoneId":"NA","stopIndex":19,"stopSequence":20,"vertexType":"TRANSIT"},"to":{"name":"Destination","lon":-71.02662399,"lat":48.420598,"arrival":1522672157000,"orig":"","vertexType":"NORMAL"},"legGeometry":{"points":"{`pfHrjopLCDCJWj@UGOUSG","length":7},"rentedBike":false,"transitLeg":false,"duration":54.0,"steps":[{"distance":28.857,"relativeDirection":"DEPART","streetName":"Rue Desbiens","absoluteDirection":"NORTHWEST","stayOn":false,"area":false,"bogusName":false,"lon":-71.02649344265734,"lat":48.42014958233219,"elevation":[]},{"distance":36.32,"relativeDirection":"RIGHT","streetName":"Rue Fradette","absoluteDirection":"NORTH","stayOn":false,"area":false,"bogusName":false,"lon":-71.0268077,"lat":48.4203035,"elevation":[]}]}],"tooSloped":false},{"duration":2871,"startTime":1522671052000,"endTime":1522673923000,"walkTime":233,"transitTime":2216,"waitingTime":422,"walkDistance":288.0613984927106,"walkLimitExceeded":false,"elevationLost":0.0,"elevationGained":0.0,"transfers":1,"legs":[{"startTime":1522671052000,"endTime":1522671234000,"departureDelay":0,"arrivalDelay":0,"realTime":false,"distance":225.90599999999998,"pathway":false,"mode":"WALK","route":"","agencyTimeZoneOffset":-14400000,"interlineWithPreviousLeg":false,"from":{"name":"Origin","lon":-71.054918,"lat":48.392123,"departure":1522671052000,"orig":"","vertexType":"NORMAL"},"to":{"name":"Roitelets / Faucons","stopId":"1:1545","stopCode":"1545","lon":-71.052988,"lat":48.392905,"arrival":1522671234000,"departure":1522671235000,"zoneId":"NA","stopIndex":4,"stopSequence":5,"vertexType":"TRANSIT"},"legGeometry":{"points":"isjfHt{tpLLuAJcABeFgC^@M","length":6},"rentedBike":false,"transitLeg":false,"duration":182.0,"steps":[{"distance":143.64,"relativeDirection":"DEPART","streetName":"Rue des Hirondelles","absoluteDirection":"EAST","stayOn":false,"area":false,"bogusName":false,"lon":-71.05482706208079,"lat":48.39237273109466,"elevation":[]},{"distance":76.462,"relativeDirection":"LEFT","streetName":"Rue des Faucons","absoluteDirection":"NORTH","stayOn":false,"area":false,"bogusName":false,"lon":-71.0529059,"lat":48.392228800000005,"elevation":[]},{"distance":5.804,"relativeDirection":"RIGHT","streetName":"bike path","absoluteDirection":"EAST","stayOn":false,"area":false,"bogusName":true,"lon":-71.0530677,"lat":48.392908000000006,"elevation":[]}]},{"startTime":1522671235000,"endTime":1522672680000,"departureDelay":0,"arrivalDelay":0,"realTime":false,"distance":7944.997750588074,"pathway":false,"mode":"BUS","route":"15","agencyName":"Société de Transport du Saguenay","agencyUrl":"http://ville.saguenay.ca/fr/services-aux-citoyens/transport-sts","agencyTimeZoneOffset":-14400000,"routeColor":"FF00FF","routeType":3,"routeId":"1:15","routeTextColor":"FFFFFF","interlineWithPreviousLeg":false,"tripBlockId":"30","headsign":"Terminus Chicoutimi","agencyId":"0","tripId":"1:218090","serviceDate":"20180402","from":{"name":"Roitelets / Faucons","stopId":"1:1545","stopCode":"1545","lon":-71.052988,"lat":48.392905,"arrival":1522671234000,"departure":1522671235000,"zoneId":"NA","stopIndex":4,"stopSequence":5,"vertexType":"TRANSIT"},"to":{"name":"Terminus Chicoutimi","stopId":"1:1289","stopCode":"1289","lon":-71.066163,"lat":48.428677,"arrival":1522672680000,"departure":1522673100000,"zoneId":"NA","stopIndex":39,"stopSequence":40,"vertexType":"TRANSIT"},"legGeometry":{"points":"{vjfHdptpL@]Cu@GcAKu@Q_ASo@a@y@a@o@MOUUeCqBiDsDqE{EiAcAcB_AqBgA_AQaBSaBG_@Bu@FG?h@fNKnDpCfBkAzDgA}@y@q@sDy@GAeGT~@~KKrKyAnL[hBUxAm@nCcAlDeCvGmA|CUr@}@~A_@\\_DvCEZcA|@UP_@d@Yl@oBdFeCxG_CfGYVQXS\\dK|HlFZbC\\p@zA\\rB@hBiArG{BNw@FiG}@iDwAECcCcBo@y@sEeGe@o@qAa@m@MoB?C@}BZwAc@oA_Bs@gDCKZ{Di@QECc@_@sAkAoBwB_EcE{A_BoAmAk@o@cCaCkIkIaJaJUUwBaCj@wCjAsCzGoG_CoHL{D_@kAqD{CQr@iAcAy@w@L{@wAuA_B_B_EpLDh@NbBVvCIxBg@`Am@l@Sb@a@rAqDqDmEkE]a@kAqAU|@WnKG|DGxDOdPKvJU|F?XQlJC~@ChAIzEcCOaIi@VwL","length":137},"routeShortName":"15","routeLongName":"Term. Chic / Costco","rentedBike":false,"transitLeg":true,"duration":1445.0,"steps":[]},{"startTime":1522673100000,"endTime":1522673871000,"departureDelay":0,"arrivalDelay":0,"realTime":false,"distance":5082.811890734917,"pathway":false,"mode":"BUS","route":"12","agencyName":"Société de Transport du Saguenay","agencyUrl":"http://ville.saguenay.ca/fr/services-aux-citoyens/transport-sts","agencyTimeZoneOffset":-14400000,"routeColor":"556B2F","routeType":3,"routeId":"1:12","routeTextColor":"FFFFFF","interlineWithPreviousLeg":false,"tripBlockId":"27","headsign":"Terminus UQAC","agencyId":"0","tripId":"1:218004","serviceDate":"20180402","from":{"name":"Terminus Chicoutimi","stopId":"1:1289","stopCode":"1289","lon":-71.066163,"lat":48.428677,"arrival":1522672680000,"departure":1522673100000,"zoneId":"NA","stopIndex":0,"stopSequence":1,"vertexType":"TRANSIT"},"to":{"name":"Desbiens / Fradette","stopId":"1:1534","stopCode":"1534","lon":-71.026592,"lat":48.4201,"arrival":1522673871000,"departure":1522673872000,"zoneId":"NA","stopIndex":22,"stopSequence":23,"vertexType":"TRANSIT"},"legGeometry":{"points":"evqfHpbwpLpFcj@IaKmFy^_DaZz@u]SeV}@aNs@gKToKd@gTnCyHkGuLqFqJ_DeFf@iIvGsKlIrH`JlH`EfDnOdIdGlGjL|B","length":23},"routeShortName":"12","routeLongName":"Rivière du Moulin","rentedBike":false,"transitLeg":true,"duration":771.0,"steps":[]},{"startTime":1522673872000,"endTime":1522673923000,"departureDelay":0,"arrivalDelay":0,"realTime":false,"distance":62.046,"pathway":false,"mode":"WALK","route":"","agencyTimeZoneOffset":-14400000,"interlineWithPreviousLeg":false,"from":{"name":"Desbiens / Fradette","stopId":"1:1534","stopCode":"1534","lon":-71.026592,"lat":48.4201,"arrival":1522673871000,"departure":1522673872000,"zoneId":"NA","stopIndex":22,"stopSequence":23,"vertexType":"TRANSIT"},"to":{"name":"Destination","lon":-71.02662399,"lat":48.420598,"arrival":1522673923000,"orig":"","vertexType":"NORMAL"},"legGeometry":{"points":"_apfHxjopLCJWj@UGOUSG","length":6},"rentedBike":false,"transitLeg":false,"duration":51.0,"steps":[{"distance":25.726,"relativeDirection":"DEPART","streetName":"Rue Desbiens","absoluteDirection":"NORTHWEST","stayOn":false,"area":false,"bogusName":false,"lon":-71.02652910515417,"lat":48.420164822715456,"elevation":[]},{"distance":36.32,"relativeDirection":"RIGHT","streetName":"Rue Fradette","absoluteDirection":"NORTH","stayOn":false,"area":false,"bogusName":false,"lon":-71.0268077,"lat":48.4203035,"elevation":[]}]}],"tooSloped":false},{"duration":2151,"startTime":1522671806000,"endTime":1522673957000,"walkTime":1616,"transitTime":533,"waitingTime":2,"walkDistance":2091.4268420992344,"walkLimitExceeded":false,"elevationLost":0.0,"elevationGained":0.0,"transfers":0,"legs":[{"startTime":1522671806000,"endTime":1522673368000,"departureDelay":0,"arrivalDelay":0,"realTime":false,"distance":2026.0629999999996,"pathway":false,"mode":"WALK","route":"","agencyTimeZoneOffset":-14400000,"interlineWithPreviousLeg":false,"from":{"name":"Origin","lon":-71.054918,"lat":48.392123,"departure":1522671806000,"orig":"","vertexType":"NORMAL"},"to":{"name":"Émile-Girardin / Roitelets","stopId":"1:268","stopCode":"268","lon":-71.050698,"lat":48.406546,"arrival":1522673368000,"departure":1522673369000,"zoneId":"NA","stopIndex":14,"stopSequence":15,"vertexType":"TRANSIT"},"legGeometry":{"points":"isjfHt{tpLLuAJcABeFgC^K?IgDc@qBa@mAO[[q@U]qA}@eBaBsBsBwGaHqAiAq@c@c@UkCw@y@KwAIoA@s@FcALu@PQD{Af@yCtAk@VcDrAqCdA}Cz@C@_@JwErA}A\\cCj@OTMTM`@?fACb@@F","length":44},"rentedBike":false,"transitLeg":false,"duration":1562.0,"steps":[{"distance":143.64,"relativeDirection":"DEPART","streetName":"Rue des Hirondelles","absoluteDirection":"EAST","stayOn":false,"area":false,"bogusName":false,"lon":-71.05482706208079,"lat":48.39237273109466,"elevation":[]},{"distance":83.09,"relativeDirection":"LEFT","streetName":"Rue des Faucons","absoluteDirection":"NORTH","stayOn":false,"area":false,"bogusName":false,"lon":-71.0529059,"lat":48.392228800000005,"elevation":[]},{"distance":1718.4170000000001,"relativeDirection":"RIGHT","streetName":"Rue Des Roitelets","absoluteDirection":"EAST","stayOn":false,"area":false,"bogusName":false,"lon":-71.053066,"lat":48.392967600000006,"elevation":[]},{"distance":38.282,"relativeDirection":"SLIGHTLY_LEFT","streetName":"link","absoluteDirection":"NORTHWEST","stayOn":false,"area":false,"bogusName":true,"lon":-71.0497612,"lat":48.4064046,"elevation":[]},{"distance":42.634,"relativeDirection":"SLIGHTLY_LEFT","streetName":"Rue Émile-Girardin","absoluteDirection":"WEST","stayOn":false,"area":false,"bogusName":false,"lon":-71.0501581,"lat":48.406621400000006,"elevation":[]}]},{"startTime":1522673369000,"endTime":1522673902000,"departureDelay":0,"arrivalDelay":0,"realTime":false,"distance":3127.29152972142,"pathway":false,"mode":"BUS","route":"12","agencyName":"Société de Transport du Saguenay","agencyUrl":"http://ville.saguenay.ca/fr/services-aux-citoyens/transport-sts","agencyTimeZoneOffset":-14400000,"routeColor":"556B2F","routeType":3,"routeId":"1:12","routeTextColor":"FFFFFF","interlineWithPreviousLeg":false,"tripBlockId":"29","headsign":"Terminus Chicoutimi","agencyId":"0","tripId":"1:218056","serviceDate":"20180402","from":{"name":"Émile-Girardin / Roitelets","stopId":"1:268","stopCode":"268","lon":-71.050698,"lat":48.406546,"arrival":1522673368000,"departure":1522673369000,"zoneId":"NA","stopIndex":14,"stopSequence":15,"vertexType":"TRANSIT"},"to":{"name":"nouveau","stopId":"1:2299","stopCode":"2299","lon":-71.026429,"lat":48.420216,"arrival":1522673902000,"departure":1522673903000,"zoneId":"NA","stopIndex":19,"stopSequence":20,"vertexType":"TRANSIT"},"legGeometry":{"points":"ukmfHxatpLYkD}CyA}KmFgD_BgAgBn@kFD_NoIgrAmD_WcAaLaDHoDJi`@wVoAbDbA|AnBU|B|AfBlAyLtK","length":20},"routeShortName":"12","routeLongName":"Rivière du Moulin","rentedBike":false,"transitLeg":true,"duration":533.0,"steps":[]},{"startTime":1522673903000,"endTime":1522673957000,"departureDelay":0,"arrivalDelay":0,"realTime":false,"distance":65.17699999999999,"pathway":false,"mode":"WALK","route":"","agencyTimeZoneOffset":-14400000,"interlineWithPreviousLeg":false,"from":{"name":"nouveau","stopId":"1:2299","stopCode":"2299","lon":-71.026429,"lat":48.420216,"arrival":1522673902000,"departure":1522673903000,"zoneId":"NA","stopIndex":19,"stopSequence":20,"vertexType":"TRANSIT"},"to":{"name":"Destination","lon":-71.02662399,"lat":48.420598,"arrival":1522673957000,"orig":"","vertexType":"NORMAL"},"legGeometry":{"points":"{`pfHrjopLCDCJWj@UGOUSG","length":7},"rentedBike":false,"transitLeg":false,"duration":54.0,"steps":[{"distance":28.857,"relativeDirection":"DEPART","streetName":"Rue Desbiens","absoluteDirection":"NORTHWEST","stayOn":false,"area":false,"bogusName":false,"lon":-71.02649344265734,"lat":48.42014958233219,"elevation":[]},{"distance":36.32,"relativeDirection":"RIGHT","streetName":"Rue Fradette","absoluteDirection":"NORTH","stayOn":false,"area":false,"bogusName":false,"lon":-71.0268077,"lat":48.4203035,"elevation":[]}]}],"tooSloped":false}]},"debugOutput":{"precalculationTime":11,"pathCalculationTime":34,"pathTimes":[16,9,9],"renderingTime":0,"totalTime":45,"timedOut":false},"elevationMetadata":{"ellipsoidToGeoidDifference":-28.885904201182168,"geoidElevation":false}}