{"requestParameters":{"date":"2018/04/02","walkSpeed":"1.33","walkReluctance":"2.0","fromPlace":"48.393389,-71.062927","maxWalkDistance":"3000","waitReluctance":"1.0","carSpeed":"33","numItineraries":"3","waitAtBeginningFactor":"0.4","mode":"TRANSIT,WALK","ignoreRealtimeUpdates":"false","stairsReluctance":"2.0","toPlace":"48.407764,-71.05336099","time":"14:30:00"},"plan":{"date":1522693800000,"from":{"name":"Origin","lon":-71.062927,"lat":48.393389,"orig":"","vertexType":"NORMAL"},"to":{"name":"Destination","lon":-71.05336099,"lat":48.407764,"orig":"","vertexType":"NORMAL"},"itineraries":[{"duration":996,"startTime":1522694487000,"endTime":1522695483000,"walkTime":688,"transitTime":306,"waitingTime":2,"walkDistance":891.527390975624,"walkLimitExceeded":false,"elevationLost":0.0,"elevationGained":0.0,"transfers":0,"legs":[{"startTime":1522694487000,"endTime":1522694540000,"departureDelay":0,"arrivalDelay":0,"realTime":false,"distance":67.563,"pathway":false,"mode":"WALK","route":"","agencyTimeZoneOffset":-14400000,"interlineWithPreviousLeg":false,"from":{"name":"Origin","lon":-71.062927,"lat":48.393389,"departure":1522694487000,"orig":"","vertexType":"NORMAL"},"to":{"name":"Roitelets / Harfangs","stopId":"1:41","stopCode":"41","lon":-71.062016,"lat":48.393522,"arrival":1522694540000,"departure":1522694541000,"zoneId":"NA","stopIndex":2,"stopSequence":3,"vertexType":"TRANSIT"},"legGeometry":{"points":"_{jfHhnvpL?Q?m@BuB","length":4},"rentedBike":false,"transitLeg":false,"duration":53.0,"steps":[{"distance":67.563,"relativeDirection":"DEPART","streetName":"bike path","absoluteDirection":"EAST","stayOn":false,"area":false,"bogusName":false,"lon":-71.06292714346564,"lat":48.393602172064256,"elevation":[]}]},{"startTime":1522694541000,"endTime":1522694847000,"departureDelay":0,"arrivalDelay":0,"realTime":false,"distance":2045.844990047162,"pathway":false,"mode":"BUS","route":"15","agencyName":"Société de Transport du Saguenay","agencyUrl":"http://ville.saguenay.ca/fr/services-aux-citoyens/transport-sts","agencyTimeZoneOffset":-14400000,"routeColor":"FF00FF","routeType":3,"routeId":"1:15","routeTextColor":"FFFFFF","interlineWithPreviousLeg":false,"tripBlockId":"32","headsign":"Terminus Chicoutimi","agencyId":"0","tripId":"1:218163","serviceDate":"20180402","from":{"name":"Roitelets / Harfangs","stopId":"1:41","stopCode":"41","lon":-71.062016,"lat":48.393522,"arrival":1522694540000,"departure":1522694541000,"zoneId":"NA","stopIndex":2,"stopSequence":3,"vertexType":"TRANSIT"},"to":{"name":"Engoulevents / Sternes","stopId":"1:1568","stopCode":"1568","lon":-71.050864,"lat":48.400594,"arrival":1522694847000,"departure":1522694848000,"zoneId":"NA","stopIndex":10,"stopSequence":11,"vertexType":"TRANSIT"},"legGeometry":{"points":"_{jfHrhvpLFuH@i@F[FsC@c@TuGEGVsHPuDLuBXsFDoA?W@]Cu@GcAKu@Q_ASo@a@y@a@o@MOUUeCqBiDsDqE{EiAcAcB_AqBgA_AQaBSaBG_@Bu@FG?h@fNKnDpCfBkAzDgA}@y@q@sDy@","length":43},"routeShortName":"15","routeLongName":"Term. Chic / Costco","rentedBike":false,"transitLeg":true,"duration":306.0,"steps":[]},{"startTime":1522694848000,"endTime":1522695483000,"departureDelay":0,"arrivalDelay":0,"realTime":false,"distance":823.9079999999999,"pathway":false,"mode":"WALK","route":"","agencyTimeZoneOffset":-14400000,"interlineWithPreviousLeg":false,"from":{"name":"Engoulevents / Sternes","stopId":"1:1568","stopCode":"1568","lon":-71.050864,"lat":48.400594,"arrival":1522694847000,"departure":1522694848000,"zoneId":"NA","stopIndex":10,"stopSequence":11,"vertexType":"TRANSIT"},"to":{"name":"Destination","lon":-71.05336099,"lat":48.407764,"arrival":1522695483000,"orig":"","vertexType":"NORMAL"},"legGeometry":{"points":"uflfHjctpLA?}@Eg@E}ANq@TUF_@JkEhAsBl@OFe@L_@DgA?uAK}@M}@Cq@Dm@Pu@\\cA`AgAtAQTOb@q@xB","length":25},"rentedBike":false,"transitLeg":false,"duration":635.0,"steps":[{"distance":152.28900000000002,"relativeDirection":"DEPART","streetName":"Rue des Engoulevents","absoluteDirection":"NORTH","stayOn":false,"area":false,"bogusName":false,"lon":-71.05093708693188,"lat":48.40059768260656,"elevation":[]},{"distance":671.6189999999999,"relativeDirection":"CONTINUE","streetName":"Rue des Champs-Élysées","absoluteDirection":"NORTH","stayOn":false,"area":false,"bogusName":false,"lon":-71.0511074,"lat":48.401948700000005,"elevation":[]}]}],"tooSloped":false},{"duration":1201,"startTime":1522694526000,"endTime":1522695727000,"walkTime":959,"transitTime":240,"waitingTime":2,"walkDistance":1214.9547744260944,"walkLimitExceeded":false,"elevationLost":0.0,"elevationGained":0.0,"transfers":0,"legs":[{"startTime":1522694526000,"endTime":1522695059000,"departureDelay":0,"arrivalDelay":0,"realTime":false,"distance":685.658,"pathway":false,"mode":"WALK","route":"","agencyTimeZoneOffset":-14400000,"interlineWithPreviousLeg":false,"from":{"name":"Origin","lon":-71.062927,"lat":48.393389,"departure":1522694526000,"orig":"","vertexType":"NORMAL"},"to":{"name":"boul. Talbot / boul. Barrette","stopId":"1:49","stopCode":"49","lon":-71.069502,"lat":48.394497,"arrival":1522695059000,"departure":1522695060000,"zoneId":"NA","stopIndex":7,"stopSequence":8,"vertexType":"TRANSIT"},"legGeometry":{"points":"_{jfHhnvpL?rBC`FDpC?DFb@R`Bj@vBFNGHDN`@tAJhAErAOzAWlA[|@W^ADoAzCABGP}BmC","length":23},"rentedBike":false,"transitLeg":false,"duration":533.0,"steps":[{"distance":292.408,"relativeDirection":"DEPART","streetName":"bike path","absoluteDirection":"WEST","stayOn":false,"area":false,"bogusName":false,"lon":-71.06292714346564,"lat":48.393602172064256,"elevation":[]},{"distance":5.699,"relativeDirection":"RIGHT","streetName":"service road","absoluteDirection":"NORTHWEST","stayOn":false,"area":false,"bogusName":true,"lon":-71.0667475,"lat":48.3931922,"elevation":[]},{"distance":299.824,"relativeDirection":"LEFT","streetName":"Rue Des Roitelets","absoluteDirection":"SOUTHWEST","stayOn":false,"area":false,"bogusName":false,"lon":-71.0667954,"lat":48.3932324,"elevation":[]},{"distance":87.727,"relativeDirection":"RIGHT","streetName":"Boulevard Talbot","absoluteDirection":"NORTHEAST","stayOn":false,"area":false,"bogusName":false,"lon":-71.0703318,"lat":48.3939238,"elevation":[]}]},{"startTime":1522695060000,"endTime":1522695300000,"departureDelay":0,"arrivalDelay":0,"realTime":false,"distance":1541.8736553866847,"pathway":false,"mode":"BUS","route":"175","agencyName":"Société de Transport du Saguenay","agencyUrl":"http://ville.saguenay.ca/fr/services-aux-citoyens/transport-sts","agencyTimeZoneOffset":-14400000,"routeColor":"FF00FF","routeType":3,"routeId":"1:175","routeTextColor":"FFFFFF","interlineWithPreviousLeg":false,"tripBlockId":"9","headsign":"Terminus Chicoutimi","agencyId":"0","tripId":"1:217408","serviceDate":"20180402","from":{"name":"boul. Talbot / boul. Barrette","stopId":"1:49","stopCode":"49","lon":-71.069502,"lat":48.394497,"arrival":1522695059000,"departure":1522695060000,"zoneId":"NA","stopIndex":7,"stopSequence":8,"vertexType":"TRANSIT"},"to":{"name":"Place Royaume","stopId":"1:1801","stopCode":"1801","lon":-71.057017,"lat":48.405588,"arrival":1522695300000,"departure":1522695301000,"zoneId":"NA","stopIndex":10,"stopSequence":11,"vertexType":"TRANSIT"},"legGeometry":{"points":"aakfHlxwpLiAoAgEsFkFsHqJ_N}FkImPkOuO{N","length":8},"routeShortName":"175","routeLongName":"Term. Chic / Costco","rentedBike":false,"transitLeg":true,"duration":240.0,"steps":[]},{"startTime":1522695301000,"endTime":1522695727000,"departureDelay":0,"arrivalDelay":0,"realTime":false,"distance":528.987,"pathway":false,"mode":"WALK","route":"","agencyTimeZoneOffset":-14400000,"interlineWithPreviousLeg":false,"from":{"name":"Place Royaume","stopId":"1:1801","stopCode":"1801","lon":-71.057017,"lat":48.405588,"arrival":1522695300000,"departure":1522695301000,"zoneId":"NA","stopIndex":10,"stopSequence":11,"vertexType":"TRANSIT"},"to":{"name":"Destination","lon":-71.05336099,"lat":48.407764,"arrival":1522695727000,"orig":"","vertexType":"NORMAL"},"legGeometry":{"points":"memfHriupL`@{A[Yo@|BEJ}DqDl@}B_FoE_@]r@qBNe@","length":11},"rentedBike":false,"transitLeg":false,"duration":426.0,"steps":[{"distance":56.66,"relativeDirection":"DEPART","streetName":"parking aisle","absoluteDirection":"SOUTHEAST","stayOn":false,"area":false,"bogusName":true,"lon":-71.0570537,"lat":48.405519700000006,"elevation":[]},{"distance":59.3,"relativeDirection":"LEFT","streetName":"service road","absoluteDirection":"NORTHWEST","stayOn":true,"area":false,"bogusName":true,"lon":-71.0564657,"lat":48.405483000000004,"elevation":[]},{"distance":124.52,"relativeDirection":"RIGHT","streetName":"Boulevard Talbot","absoluteDirection":"NORTHEAST","stayOn":false,"area":false,"bogusName":false,"lon":-71.0571583,"lat":48.4057532,"elevation":[]},{"distance":53.12,"relativeDirection":"RIGHT","streetName":"service road","absoluteDirection":"SOUTHEAST","stayOn":false,"area":false,"bogusName":true,"lon":-71.0562666,"lat":48.4067038,"elevation":[]},{"distance":167.27,"relativeDirection":"LEFT","streetName":"parking aisle","absoluteDirection":"NORTHEAST","stayOn":true,"area":false,"bogusName":true,"lon":-71.0556352,"lat":48.4064746,"elevation":[]},{"distance":68.117,"relativeDirection":"RIGHT","streetName":"Rue des Champs-Élysées","absoluteDirection":"SOUTHEAST","stayOn":false,"area":false,"bogusName":false,"lon":-71.0544462,"lat":48.407755200000004,"elevation":[]}]}],"tooSloped":false},{"duration":996,"startTime":1522696287000,"endTime":1522697283000,"walkTime":688,"transitTime":306,"waitingTime":2,"walkDistance":891.527390975624,"walkLimitExceeded":false,"elevationLost":0.0,"elevationGained":0.0,"transfers":0,"legs":[{"startTime":1522696287000,"endTime":1522696340000,"departureDelay":0,"arrivalDelay":0,"realTime":false,"distance":67.563,"pathway":false,"mode":"WALK","route":"","agencyTimeZoneOffset":-14400000,"interlineWithPreviousLeg":false,"from":{"name":"Origin","lon":-71.062927,"lat":48.393389,"departure":1522696287000,"orig":"","vertexType":"NORMAL"},"to":{"name":"Roitelets / Harfangs","stopId":"1:41","stopCode":"41","lon":-71.062016,"lat":48.393522,"arrival":1522696340000,"departure":1522696341000,"zoneId":"NA","stopIndex":2,"stopSequence":3,"vertexType":"TRANSIT"},"legGeometry":{"points":"_{jfHhnvpL?Q?m@BuB","length":4},"rentedBike":false,"transitLeg":false,"duration":53.0,"steps":[{"distance":67.563,"relativeDirection":"DEPART","streetName":"bike path","absoluteDirection":"EAST","stayOn":false,"area":false,"bogusName":false,"lon":-71.06292714346564,"lat":48.393602172064256,"elevation":[]}]},{"startTime":1522696341000,"endTime":1522696647000,"departureDelay":0,"arrivalDelay":0,"realTime":false,"distance":2045.844990047162,"pathway":false,"mode":"BUS","route":"15","agencyName":"Société de Transport du Saguenay","agencyUrl":"http://ville.saguenay.ca/fr/services-aux-citoyens/transport-sts","agencyTimeZoneOffset":-14400000,"routeColor":"FF00FF","routeType":3,"routeId":"1:15","routeTextColor":"FFFFFF","interlineWithPreviousLeg":false,"tripBlockId":"30","headsign":"Terminus Chicoutimi","agencyId":"0","tripId":"1:218104","serviceDate":"20180402","from":{"name":"Roitelets / Harfangs","stopId":"1:41","stopCode":"41","lon":-71.062016,"lat":48.393522,"arrival":1522696340000,"departure":1522696341000,"zoneId":"NA","stopIndex":2,"stopSequence":3,"vertexType":"TRANSIT"},"to":{"name":"Engoulevents / Sternes","stopId":"1:1568","stopCode":"1568","lon":-71.050864,"lat":48.400594,"arrival":1522696647000,"departure":1522696648000,"zoneId":"NA","stopIndex":10,"stopSequence":11,"vertexType":"TRANSIT"},"legGeometry":{"points":"_{jfHrhvpLFuH@i@F[FsC@c@TuGEGVsHPuDLuBXsFDoA?W@]Cu@GcAKu@Q_ASo@a@y@a@o@MOUUeCqBiDsDqE{EiAcAcB_AqBgA_AQaBSaBG_@Bu@FG?h@fNKnDpCfBkAzDgA}@y@q@sDy@","length":43},"routeShortName":"15","routeLongName":"Term. Chic / Costco","rentedBike":false,"transitLeg":true,"duration":306.0,"steps":[]},{"startTime":1522696648000,"endTime":1522697283000,"departureDelay":0,"arrivalDelay":0,"realTime":false,"distance":823.9079999999999,"pathway":false,"mode":"WALK","route":"","agencyTimeZoneOffset":-14400000,"interlineWithPreviousLeg":false,"from":{"name":"Engoulevents / Sternes","stopId":"1:1568","stopCode":"1568","lon":-71.050864,"lat":48.400594,"arrival":1522696647000,"departure":1522696648000,"zoneId":"NA","stopIndex":10,"stopSequence":11,"vertexType":"TRANSIT"},"to":{"name":"Destination","lon":-71.05336099,"lat":48.407764,"arrival":1522697283000,"orig":"","vertexType":"NORMAL"},"legGeometry":{"points":"uflfHjctpLA?}@Eg@E}ANq@TUF_@JkEhAsBl@OFe@L_@DgA?uAK}@M}@Cq@Dm@Pu@\\cA`AgAtAQTOb@q@xB","length":25},"rentedBike":false,"transitLeg":false,"duration":635.0,"steps":[{"distance":152.28900000000002,"relativeDirection":"DEPART","streetName":"Rue des Engoulevents","absoluteDirection":"NORTH","stayOn":false,"area":false,"bogusName":false,"lon":-71.05093708693188,"lat":48.40059768260656,"elevation":[]},{"distance":671.6189999999999,"relativeDirection":"CONTINUE","streetName":"Rue des Champs-Élysées","absoluteDirection":"NORTH","stayOn":false,"area":false,"bogusName":false,"lon":-71.0511074,"lat":48.401948700000005,"elevation":[]}]}],"tooSloped":false}]},"debugOutput":{"precalculationTime":30,"pathCalculationTime":20,"pathTimes":[12,4,4],"renderingTime":1,"totalTime":51,"timedOut":false},"elevationMetadata":{"ellipsoidToGeoidDifference":-28.885904201182168,"geoidElevation":false}}