{"requestParameters":{"date":"2018/04/02","walkSpeed":"1.33","walkReluctance":"2.0","fromPlace":"48.395034,-71.061119","maxWalkDistance":"3000","waitReluctance":"1.0","carSpeed":"33","numItineraries":"3","waitAtBeginningFactor":"0.4","mode":"TRANSIT,WALK","ignoreRealtimeUpdates":"false","stairsReluctance":"2.0","toPlace":"48.407063,-71.054811","time":"9:0:00"},"plan":{"date":1522674000000,"from":{"name":"Origin","lon":-71.061119,"lat":48.395034,"orig":"","vertexType":"NORMAL"},"to":{"name":"Destination","lon":-71.054811,"lat":48.407063,"orig":"","vertexType":"NORMAL"},"itineraries":[{"duration":1195,"startTime":1522674578000,"endTime":1522675773000,"walkTime":749,"transitTime":444,"waitingTime":2,"walkDistance":953.5962180390718,"walkLimitExceeded":false,"elevationLost":0.0,"elevationGained":0.0,"transfers":0,"legs":[{"startTime":1522674578000,"endTime":1522674740000,"departureDelay":0,"arrivalDelay":0,"realTime":false,"distance":196.27400000000003,"pathway":false,"mode":"WALK","route":"","agencyTimeZoneOffset":-14400000,"interlineWithPreviousLeg":false,"from":{"name":"Origin","lon":-71.061119,"lat":48.395034,"departure":1522674578000,"orig":"","vertexType":"NORMAL"},"to":{"name":"Roitelets / Harfangs","stopId":"1:41","stopCode":"41","lon":-71.062016,"lat":48.393522,"arrival":1522674740000,"departure":1522674741000,"zoneId":"NA","stopIndex":2,"stopSequence":3,"vertexType":"TRANSIT"},"legGeometry":{"points":"sckfHdcvpLAJFb@LLz@`A|D@H??j@","length":8},"rentedBike":false,"transitLeg":false,"duration":162.0,"steps":[{"distance":180.29600000000002,"relativeDirection":"DEPART","streetName":"Rue des Harfangs","absoluteDirection":"WEST","stayOn":false,"area":false,"bogusName":false,"lon":-71.06114710328673,"lat":48.394981557369945,"elevation":[]},{"distance":15.978,"relativeDirection":"RIGHT","streetName":"bike path","absoluteDirection":"WEST","stayOn":false,"area":false,"bogusName":true,"lon":-71.0617962,"lat":48.393583,"elevation":[]}]},{"startTime":1522674741000,"endTime":1522675185000,"departureDelay":0,"arrivalDelay":0,"realTime":false,"distance":2878.9128468752824,"pathway":false,"mode":"BUS","route":"15","agencyName":"Société de Transport du Saguenay","agencyUrl":"http://ville.saguenay.ca/fr/services-aux-citoyens/transport-sts","agencyTimeZoneOffset":-14400000,"routeColor":"FF00FF","routeType":3,"routeId":"1:15","routeTextColor":"FFFFFF","interlineWithPreviousLeg":false,"tripBlockId":"30","headsign":"Terminus Chicoutimi","agencyId":"0","tripId":"1:218092","serviceDate":"20180402","from":{"name":"Roitelets / Harfangs","stopId":"1:41","stopCode":"41","lon":-71.062016,"lat":48.393522,"arrival":1522674740000,"departure":1522674741000,"zoneId":"NA","stopIndex":2,"stopSequence":3,"vertexType":"TRANSIT"},"to":{"name":"Saguenéens  / Bach","stopId":"1:575","stopCode":"575","lon":-71.061104,"lat":48.403689,"arrival":1522675185000,"departure":1522675186000,"zoneId":"NA","stopIndex":12,"stopSequence":13,"vertexType":"TRANSIT"},"legGeometry":{"points":"_{jfHrhvpLFuH@i@F[FsC@c@TuGEGVsHPuDLuBXsFDoA?W@]Cu@GcAKu@Q_ASo@a@y@a@o@MOUUeCqBiDsDqE{EiAcAcB_AqBgA_AQaBSaBG_@Bu@FG?h@fNKnDpCfBkAzDgA}@y@q@sDy@GAeGT~@~KKrKyAnL[hBUxAm@nCcAlDeCvG","length":53},"routeShortName":"15","routeLongName":"Term. Chic / Costco","rentedBike":false,"transitLeg":true,"duration":444.0,"steps":[]},{"startTime":1522675186000,"endTime":1522675773000,"departureDelay":0,"arrivalDelay":0,"realTime":false,"distance":757.1350000000001,"pathway":false,"mode":"WALK","route":"","agencyTimeZoneOffset":-14400000,"interlineWithPreviousLeg":false,"from":{"name":"Saguenéens  / Bach","stopId":"1:575","stopCode":"575","lon":-71.061104,"lat":48.403689,"arrival":1522675185000,"departure":1522675186000,"zoneId":"NA","stopIndex":12,"stopSequence":13,"vertexType":"TRANSIT"},"to":{"name":"Destination","lon":-71.054811,"lat":48.407063,"arrival":1522675773000,"orig":"","vertexType":"NORMAL"},"legGeometry":{"points":"wylfHfcvpLxBwFJW@EkBeBiFwEiE_EMK}DqDl@}BeC{B","length":11},"rentedBike":false,"transitLeg":false,"duration":587.0,"steps":[{"distance":126.98400000000001,"relativeDirection":"DEPART","streetName":"Rue des Saguenéens","absoluteDirection":"SOUTHEAST","stayOn":false,"area":false,"bogusName":false,"lon":-71.0611521754673,"lat":48.403646208471976,"elevation":[]},{"distance":489.412,"relativeDirection":"LEFT","streetName":"Boulevard Talbot","absoluteDirection":"NORTHEAST","stayOn":false,"area":false,"bogusName":false,"lon":-71.0597697,"lat":48.402967000000004,"elevation":[]},{"distance":53.12,"relativeDirection":"RIGHT","streetName":"service road","absoluteDirection":"SOUTHEAST","stayOn":false,"area":false,"bogusName":true,"lon":-71.0562666,"lat":48.4067038,"elevation":[]},{"distance":87.619,"relativeDirection":"LEFT","streetName":"parking aisle","absoluteDirection":"NORTHEAST","stayOn":false,"area":false,"bogusName":false,"lon":-71.0556352,"lat":48.4064746,"elevation":[]}]}],"tooSloped":false},{"duration":1287,"startTime":1522674523000,"endTime":1522675810000,"walkTime":1045,"transitTime":240,"waitingTime":2,"walkDistance":1324.8727443496814,"walkLimitExceeded":false,"elevationLost":0.0,"elevationGained":0.0,"transfers":0,"legs":[{"startTime":1522674523000,"endTime":1522675259000,"departureDelay":0,"arrivalDelay":0,"realTime":false,"distance":943.3059999999999,"pathway":false,"mode":"WALK","route":"","agencyTimeZoneOffset":-14400000,"interlineWithPreviousLeg":false,"from":{"name":"Origin","lon":-71.061119,"lat":48.395034,"departure":1522674523000,"orig":"","vertexType":"NORMAL"},"to":{"name":"boul. Talbot / boul. Barrette","stopId":"1:49","stopCode":"49","lon":-71.069502,"lat":48.394497,"arrival":1522675259000,"departure":1522675260000,"zoneId":"NA","stopIndex":7,"stopSequence":8,"vertexType":"TRANSIT"},"legGeometry":{"points":"sckfHdcvpLAJFb@LLz@`A|D@CjE?nDC`E@pC\\lCv@hCDN`@tAJhAErAOzAWlA[|@W^ADoAzCABGP}BmC","length":25},"rentedBike":false,"transitLeg":false,"duration":736.0,"steps":[{"distance":174.901,"relativeDirection":"DEPART","streetName":"Rue des Harfangs","absoluteDirection":"WEST","stayOn":false,"area":false,"bogusName":false,"lon":-71.06114710328673,"lat":48.394981557369945,"elevation":[]},{"distance":680.6780000000001,"relativeDirection":"RIGHT","streetName":"Rue Des Roitelets","absoluteDirection":"WEST","stayOn":false,"area":false,"bogusName":false,"lon":-71.0617939,"lat":48.393631500000005,"elevation":[]},{"distance":87.727,"relativeDirection":"RIGHT","streetName":"Boulevard Talbot","absoluteDirection":"NORTHEAST","stayOn":false,"area":false,"bogusName":false,"lon":-71.0703318,"lat":48.3939238,"elevation":[]}]},{"startTime":1522675260000,"endTime":1522675500000,"departureDelay":0,"arrivalDelay":0,"realTime":false,"distance":1541.8736553866847,"pathway":false,"mode":"BUS","route":"175","agencyName":"Société de Transport du Saguenay","agencyUrl":"http://ville.saguenay.ca/fr/services-aux-citoyens/transport-sts","agencyTimeZoneOffset":-14400000,"routeColor":"FF00FF","routeType":3,"routeId":"1:175","routeTextColor":"FFFFFF","interlineWithPreviousLeg":false,"tripBlockId":"11","headsign":"Terminus Chicoutimi","agencyId":"0","tripId":"1:217467","serviceDate":"20180402","from":{"name":"boul. Talbot / boul. Barrette","stopId":"1:49","stopCode":"49","lon":-71.069502,"lat":48.394497,"arrival":1522675259000,"departure":1522675260000,"zoneId":"NA","stopIndex":7,"stopSequence":8,"vertexType":"TRANSIT"},"to":{"name":"Place Royaume","stopId":"1:1801","stopCode":"1801","lon":-71.057017,"lat":48.405588,"arrival":1522675500000,"departure":1522675501000,"zoneId":"NA","stopIndex":10,"stopSequence":11,"vertexType":"TRANSIT"},"legGeometry":{"points":"aakfHlxwpLiAoAgEsFkFsHqJ_N}FkImPkOuO{N","length":8},"routeShortName":"175","routeLongName":"Term. Chic / Costco","rentedBike":false,"transitLeg":true,"duration":240.0,"steps":[]},{"startTime":1522675501000,"endTime":1522675810000,"departureDelay":0,"arrivalDelay":0,"realTime":false,"distance":381.21899999999994,"pathway":false,"mode":"WALK","route":"","agencyTimeZoneOffset":-14400000,"interlineWithPreviousLeg":false,"from":{"name":"Place Royaume","stopId":"1:1801","stopCode":"1801","lon":-71.057017,"lat":48.405588,"arrival":1522675500000,"departure":1522675501000,"zoneId":"NA","stopIndex":10,"stopSequence":11,"vertexType":"TRANSIT"},"to":{"name":"Destination","lon":-71.054811,"lat":48.407063,"arrival":1522675810000,"orig":"","vertexType":"NORMAL"},"legGeometry":{"points":"memfHriupL`@{A[Yo@|BEJ}DqDl@}BeC{B","length":8},"rentedBike":false,"transitLeg":false,"duration":309.0,"steps":[{"distance":56.66,"relativeDirection":"DEPART","streetName":"parking aisle","absoluteDirection":"SOUTHEAST","stayOn":false,"area":false,"bogusName":true,"lon":-71.0570537,"lat":48.405519700000006,"elevation":[]},{"distance":59.3,"relativeDirection":"LEFT","streetName":"service road","absoluteDirection":"NORTHWEST","stayOn":true,"area":false,"bogusName":true,"lon":-71.0564657,"lat":48.405483000000004,"elevation":[]},{"distance":124.52,"relativeDirection":"RIGHT","streetName":"Boulevard Talbot","absoluteDirection":"NORTHEAST","stayOn":false,"area":false,"bogusName":false,"lon":-71.0571583,"lat":48.4057532,"elevation":[]},{"distance":53.12,"relativeDirection":"RIGHT","streetName":"service road","absoluteDirection":"SOUTHEAST","stayOn":false,"area":false,"bogusName":true,"lon":-71.0562666,"lat":48.4067038,"elevation":[]},{"distance":87.619,"relativeDirection":"LEFT","streetName":"parking aisle","absoluteDirection":"NORTHEAST","stayOn":false,"area":false,"bogusName":false,"lon":-71.0556352,"lat":48.4064746,"elevation":[]}]}],"tooSloped":false},{"duration":1195,"startTime":1522676378000,"endTime":1522677573000,"walkTime":749,"transitTime":444,"waitingTime":2,"walkDistance":953.5962180390718,"walkLimitExceeded":false,"elevationLost":0.0,"elevationGained":0.0,"transfers":0,"legs":[{"startTime":1522676378000,"endTime":1522676540000,"departureDelay":0,"arrivalDelay":0,"realTime":false,"distance":196.27400000000003,"pathway":false,"mode":"WALK","route":"","agencyTimeZoneOffset":-14400000,"interlineWithPreviousLeg":false,"from":{"name":"Origin","lon":-71.061119,"lat":48.395034,"departure":1522676378000,"orig":"","vertexType":"NORMAL"},"to":{"name":"Roitelets / Harfangs","stopId":"1:41","stopCode":"41","lon":-71.062016,"lat":48.393522,"arrival":1522676540000,"departure":1522676541000,"zoneId":"NA","stopIndex":2,"stopSequence":3,"vertexType":"TRANSIT"},"legGeometry":{"points":"sckfHdcvpLAJFb@LLz@`A|D@H??j@","length":8},"rentedBike":false,"transitLeg":false,"duration":162.0,"steps":[{"distance":180.29600000000002,"relativeDirection":"DEPART","streetName":"Rue des Harfangs","absoluteDirection":"WEST","stayOn":false,"area":false,"bogusName":false,"lon":-71.06114710328673,"lat":48.394981557369945,"elevation":[]},{"distance":15.978,"relativeDirection":"RIGHT","streetName":"bike path","absoluteDirection":"WEST","stayOn":false,"area":false,"bogusName":true,"lon":-71.0617962,"lat":48.393583,"elevation":[]}]},{"startTime":1522676541000,"endTime":1522676985000,"departureDelay":0,"arrivalDelay":0,"realTime":false,"distance":2878.9128468752824,"pathway":false,"mode":"BUS","route":"15","agencyName":"Société de Transport du Saguenay","agencyUrl":"http://ville.saguenay.ca/fr/services-aux-citoyens/transport-sts","agencyTimeZoneOffset":-14400000,"routeColor":"FF00FF","routeType":3,"routeId":"1:15","routeTextColor":"FFFFFF","interlineWithPreviousLeg":false,"tripBlockId":"32","headsign":"Terminus Chicoutimi","agencyId":"0","tripId":"1:218153","serviceDate":"20180402","from":{"name":"Roitelets / Harfangs","stopId":"1:41","stopCode":"41","lon":-71.062016,"lat":48.393522,"arrival":1522676540000,"departure":1522676541000,"zoneId":"NA","stopIndex":2,"stopSequence":3,"vertexType":"TRANSIT"},"to":{"name":"Saguenéens  / Bach","stopId":"1:575","stopCode":"575","lon":-71.061104,"lat":48.403689,"arrival":1522676985000,"departure":1522676986000,"zoneId":"NA","stopIndex":12,"stopSequence":13,"vertexType":"TRANSIT"},"legGeometry":{"points":"_{jfHrhvpLFuH@i@F[FsC@c@TuGEGVsHPuDLuBXsFDoA?W@]Cu@GcAKu@Q_ASo@a@y@a@o@MOUUeCqBiDsDqE{EiAcAcB_AqBgA_AQaBSaBG_@Bu@FG?h@fNKnDpCfBkAzDgA}@y@q@sDy@GAeGT~@~KKrKyAnL[hBUxAm@nCcAlDeCvG","length":53},"routeShortName":"15","routeLongName":"Term. Chic / Costco","rentedBike":false,"transitLeg":true,"duration":444.0,"steps":[]},{"startTime":1522676986000,"endTime":1522677573000,"departureDelay":0,"arrivalDelay":0,"realTime":false,"distance":757.1350000000001,"pathway":false,"mode":"WALK","route":"","agencyTimeZoneOffset":-14400000,"interlineWithPreviousLeg":false,"from":{"name":"Saguenéens  / Bach","stopId":"1:575","stopCode":"575","lon":-71.061104,"lat":48.403689,"arrival":1522676985000,"departure":1522676986000,"zoneId":"NA","stopIndex":12,"stopSequence":13,"vertexType":"TRANSIT"},"to":{"name":"Destination","lon":-71.054811,"lat":48.407063,"arrival":1522677573000,"orig":"","vertexType":"NORMAL"},"legGeometry":{"points":"wylfHfcvpLxBwFJW@EkBeBiFwEiE_EMK}DqDl@}BeC{B","length":11},"rentedBike":false,"transitLeg":false,"duration":587.0,"steps":[{"distance":126.98400000000001,"relativeDirection":"DEPART","streetName":"Rue des Saguenéens","absoluteDirection":"SOUTHEAST","stayOn":false,"area":false,"bogusName":false,"lon":-71.0611521754673,"lat":48.403646208471976,"elevation":[]},{"distance":489.412,"relativeDirection":"LEFT","streetName":"Boulevard Talbot","absoluteDirection":"NORTHEAST","stayOn":false,"area":false,"bogusName":false,"lon":-71.0597697,"lat":48.402967000000004,"elevation":[]},{"distance":53.12,"relativeDirection":"RIGHT","streetName":"service road","absoluteDirection":"SOUTHEAST","stayOn":false,"area":false,"bogusName":true,"lon":-71.0562666,"lat":48.4067038,"elevation":[]},{"distance":87.619,"relativeDirection":"LEFT","streetName":"parking aisle","absoluteDirection":"NORTHEAST","stayOn":false,"area":false,"bogusName":false,"lon":-71.0556352,"lat":48.4064746,"elevation":[]}]}],"tooSloped":false}]},"debugOutput":{"precalculationTime":38,"pathCalculationTime":24,"pathTimes":[14,5,5],"renderingTime":0,"totalTime":62,"timedOut":false},"elevationMetadata":{"ellipsoidToGeoidDifference":-28.885904201182168,"geoidElevation":false}}