{"requestParameters":{"date":"2018/04/02","walkSpeed":"1.33","walkReluctance":"2.0","fromPlace":"48.42574,-71.08137","maxWalkDistance":"3000","waitReluctance":"1.0","carSpeed":"33","numItineraries":"3","waitAtBeginningFactor":"0.4","mode":"TRANSIT,WALK","ignoreRealtimeUpdates":"false","stairsReluctance":"2.0","toPlace":"48.423148,-71.052406","time":"18:0:00"},"plan":{"date":1522706400000,"from":{"name":"Origin","lon":-71.08137,"lat":48.42574,"orig":"","vertexType":"NORMAL"},"to":{"name":"Destination","lon":-71.052406,"lat":48.423148,"orig":"","vertexType":"NORMAL"},"itineraries":[{"duration":1964,"startTime":1522706400000,"endTime":1522708364000,"walkTime":1964,"transitTime":0,"waitingTime":0,"walkDistance":2539.989218037458,"walkLimitExceeded":false,"elevationLost":0.0,"elevationGained":0.0,"transfers":0,"legs":[{"startTime":1522706400000,"endTime":1522708364000,"departureDelay":0,"arrivalDelay":0,"realTime":false,"distance":2539.7519999999995,"pathway":false,"mode":"WALK","route":"","agencyTimeZoneOffset":-14400000,"interlineWithPreviousLeg":false,"from":{"name":"Origin","lon":-71.08137,"lat":48.42574,"departure":1522706400000,"orig":"","vertexType":"NORMAL"},"to":{"name":"Destination","lon":-71.052406,"lat":48.423148,"arrival":1522708364000,"orig":"","vertexType":"NORMAL"},"legGeometry":{"points":"_dqfH|azpL[]d@_BcCoCEMASNeB?C?e@YoBOgAUaAQe@oDaEGKCOvDaBh@]d@]^YNKr@s@\\k@R]Rc@XsAFk@Fi@@S?ADcAC[G}@q@iDA[Ec@@_@Bg@?IJmCB}@DoB@_@JmEJ_GDeBDgB@i@Ao@R_IFgD@o@DcBHgED_C@SF_DF{CCeABmCHwFBwCB_B`@kB^iAXa@L@vBJNFDBd@_EJw@NqAVsBBW?o@","length":76},"rentedBike":false,"transitLeg":false,"duration":1964.0,"steps":[{"distance":19.29,"relativeDirection":"DEPART","streetName":"Ruelle Grenon","absoluteDirection":"NORTHEAST","stayOn":false,"area":false,"bogusName":false,"lon":-71.08142674636346,"lat":48.42576569265125,"elevation":[]},{"distance":41.677,"relativeDirection":"RIGHT","streetName":"Côte Fortin","absoluteDirection":"SOUTHEAST","stayOn":false,"area":false,"bogusName":false,"lon":-71.0812794,"lat":48.425909000000004,"elevation":[]},{"distance":407.681,"relativeDirection":"LEFT","streetName":"Rue Dréan","absoluteDirection":"NORTHEAST","stayOn":false,"area":false,"bogusName":false,"lon":-71.08079190000001,"lat":48.4257197,"elevation":[]},{"distance":741.9619999999998,"relativeDirection":"RIGHT","streetName":"Rue Price Ouest","absoluteDirection":"SOUTH","stayOn":false,"area":false,"bogusName":false,"lon":-71.0766335,"lat":48.4276817,"elevation":[]},{"distance":1042.9089999999999,"relativeDirection":"CONTINUE","streetName":"Rue Price Est","absoluteDirection":"EAST","stayOn":false,"area":false,"bogusName":false,"lon":-71.06874640000001,"lat":48.4254073,"elevation":[]},{"distance":7.917,"relativeDirection":"RIGHT","streetName":"Rue Price Est","absoluteDirection":"SOUTH","stayOn":true,"area":false,"bogusName":false,"lon":-71.0548694,"lat":48.4243849,"elevation":[]},{"distance":278.316,"relativeDirection":"CONTINUE","streetName":"service road","absoluteDirection":"SOUTH","stayOn":false,"area":false,"bogusName":true,"lon":-71.0548701,"lat":48.424313700000006,"elevation":[]}]}],"tooSloped":false},{"duration":1413,"startTime":1522707113000,"endTime":1522708526000,"walkTime":980,"transitTime":431,"waitingTime":2,"walkDistance":1241.0432857073713,"walkLimitExceeded":false,"elevationLost":0.0,"elevationGained":0.0,"transfers":0,"legs":[{"startTime":1522707113000,"endTime":1522707912000,"departureDelay":0,"arrivalDelay":0,"realTime":false,"distance":1010.941,"pathway":false,"mode":"WALK","route":"","agencyTimeZoneOffset":-14400000,"interlineWithPreviousLeg":false,"from":{"name":"Origin","lon":-71.08137,"lat":48.42574,"departure":1522707113000,"orig":"","vertexType":"NORMAL"},"to":{"name":"Jolliet / Audet","stopId":"1:522","stopCode":"522","lon":-71.07278,"lat":48.420244,"arrival":1522707912000,"departure":1522707913000,"zoneId":"NA","stopIndex":27,"stopSequence":28,"vertexType":"TRANSIT"},"legGeometry":{"points":"_dqfH|azpL[]d@_Bh@f@rApAZRr@u@pBqB~AqBFKVe@La@f@gAHc@RgAD[NeANu@`@qAvAuDbAkCDIN[BIx@uBf@}AXq@Pa@FEFCDCBG@I@K?MESfA_CNc@`@mA","length":39},"rentedBike":false,"transitLeg":false,"duration":799.0,"steps":[{"distance":19.29,"relativeDirection":"DEPART","streetName":"Ruelle Grenon","absoluteDirection":"NORTHEAST","stayOn":false,"area":false,"bogusName":false,"lon":-71.08142674636346,"lat":48.42576569265125,"elevation":[]},{"distance":41.677,"relativeDirection":"RIGHT","streetName":"Côte Fortin","absoluteDirection":"SOUTHEAST","stayOn":false,"area":false,"bogusName":false,"lon":-71.0812794,"lat":48.425909000000004,"elevation":[]},{"distance":100.732,"relativeDirection":"RIGHT","streetName":"Rue Dréan","absoluteDirection":"SOUTHWEST","stayOn":false,"area":false,"bogusName":false,"lon":-71.08079190000001,"lat":48.4257197,"elevation":[]},{"distance":658.8380000000001,"relativeDirection":"LEFT","streetName":"Rue Dubuc","absoluteDirection":"SOUTHEAST","stayOn":false,"area":false,"bogusName":false,"lon":-71.0815067,"lat":48.424949000000005,"elevation":[]},{"distance":78.343,"relativeDirection":"CONTINUE","streetName":"path","absoluteDirection":"SOUTHEAST","stayOn":false,"area":false,"bogusName":true,"lon":-71.07469880000001,"lat":48.4212916,"elevation":[]},{"distance":112.061,"relativeDirection":"RIGHT","streetName":"Rue Jolliet","absoluteDirection":"SOUTHEAST","stayOn":false,"area":false,"bogusName":false,"lon":-71.07388590000001,"lat":48.420954200000004,"elevation":[]}]},{"startTime":1522707913000,"endTime":1522708344000,"departureDelay":0,"arrivalDelay":0,"realTime":false,"distance":1879.4501712727256,"pathway":false,"mode":"BUS","route":"14","agencyName":"Société de Transport du Saguenay","agencyUrl":"http://ville.saguenay.ca/fr/services-aux-citoyens/transport-sts","agencyTimeZoneOffset":-14400000,"routeColor":"C0C000","routeType":3,"routeId":"1:14","routeTextColor":"000000","interlineWithPreviousLeg":false,"tripBlockId":"31","headsign":"Terminus Chicoutimi","agencyId":"0","tripId":"1:218145","serviceDate":"20180402","from":{"name":"Jolliet / Audet","stopId":"1:522","stopCode":"522","lon":-71.07278,"lat":48.420244,"arrival":1522707912000,"departure":1522707913000,"zoneId":"NA","stopIndex":27,"stopSequence":28,"vertexType":"TRANSIT"},"to":{"name":"Cégep de Chicoutimi (voie réservée)","stopId":"1:65","stopCode":"65","lon":-71.054799,"lat":48.423007,"arrival":1522708344000,"departure":1522708345000,"zoneId":"NA","stopIndex":31,"stopSequence":32,"vertexType":"TRANSIT"},"legGeometry":{"points":"ibpfHdkxpLZeAa@SyEQg@CPcALuCx@{b@t@{[XoDd@sBl@iB~@gA`G{F{A{D_@sBFqDOq@iG{FGIoCkCgBgBsDpLHzBBT","length":25},"routeShortName":"14","routeLongName":"Coopérative","rentedBike":false,"transitLeg":true,"duration":431.0,"steps":[]},{"startTime":1522708345000,"endTime":1522708526000,"departureDelay":0,"arrivalDelay":0,"realTime":false,"distance":229.88799999999998,"pathway":false,"mode":"WALK","route":"","agencyTimeZoneOffset":-14400000,"interlineWithPreviousLeg":false,"from":{"name":"Cégep de Chicoutimi (voie réservée)","stopId":"1:65","stopCode":"65","lon":-71.054799,"lat":48.423007,"arrival":1522708344000,"departure":1522708345000,"zoneId":"NA","stopIndex":31,"stopSequence":32,"vertexType":"TRANSIT"},"to":{"name":"Destination","lon":-71.052406,"lat":48.423148,"arrival":1522708526000,"orig":"","vertexType":"NORMAL"},"legGeometry":{"points":"srpfHl{tpLCSIo@A{@Tu@^iA_B_@VsBBW?o@","length":10},"rentedBike":false,"transitLeg":false,"duration":181.0,"steps":[{"distance":104.179,"relativeDirection":"DEPART","streetName":"bike path","absoluteDirection":"EAST","stayOn":false,"area":false,"bogusName":true,"lon":-71.0547862499772,"lat":48.42298365091458,"elevation":[]},{"distance":54.189,"relativeDirection":"LEFT","streetName":"path","absoluteDirection":"NORTH","stayOn":true,"area":false,"bogusName":true,"lon":-71.053503,"lat":48.4227993,"elevation":[]},{"distance":71.52,"relativeDirection":"RIGHT","streetName":"service road","absoluteDirection":"EAST","stayOn":false,"area":false,"bogusName":false,"lon":-71.05334280000001,"lat":48.4232749,"elevation":[]}]}],"tooSloped":false},{"duration":1496,"startTime":1522708140000,"endTime":1522709636000,"walkTime":509,"transitTime":745,"waitingTime":242,"walkDistance":623.9948496163208,"walkLimitExceeded":false,"elevationLost":0.0,"elevationGained":0.0,"transfers":1,"legs":[{"startTime":1522708140000,"endTime":1522708439000,"departureDelay":0,"arrivalDelay":0,"realTime":false,"distance":367.71899999999994,"pathway":false,"mode":"WALK","route":"","agencyTimeZoneOffset":-14400000,"interlineWithPreviousLeg":false,"from":{"name":"Origin","lon":-71.08137,"lat":48.42574,"departure":1522708140000,"orig":"","vertexType":"NORMAL"},"to":{"name":"ch. de la Réserve / St-Ange","stopId":"1:625","stopCode":"625","lon":-71.083536,"lat":48.42644,"arrival":1522708439000,"departure":1522708440000,"zoneId":"NA","stopIndex":30,"stopSequence":31,"vertexType":"TRANSIT"},"legGeometry":{"points":"_dqfH|azpL[]a@nAe@tA@NFLfCrAi@zAyAfEGOo@_B","length":11},"rentedBike":false,"transitLeg":false,"duration":299.0,"steps":[{"distance":19.29,"relativeDirection":"DEPART","streetName":"Ruelle Grenon","absoluteDirection":"NORTHEAST","stayOn":false,"area":false,"bogusName":false,"lon":-71.08142674636346,"lat":48.42576569265125,"elevation":[]},{"distance":77.92099999999999,"relativeDirection":"LEFT","streetName":"Côte Fortin","absoluteDirection":"NORTHWEST","stayOn":false,"area":false,"bogusName":false,"lon":-71.0812794,"lat":48.425909000000004,"elevation":[]},{"distance":88.317,"relativeDirection":"LEFT","streetName":"Rue Saint-Léon","absoluteDirection":"SOUTHWEST","stayOn":false,"area":false,"bogusName":false,"lon":-71.0821806,"lat":48.426252500000004,"elevation":[]},{"distance":130.527,"relativeDirection":"RIGHT","streetName":"Côte Saint-Ange","absoluteDirection":"NORTHWEST","stayOn":false,"area":false,"bogusName":false,"lon":-71.0826715,"lat":48.425535700000005,"elevation":[]},{"distance":51.664,"relativeDirection":"RIGHT","streetName":"Chemin de la Réserve","absoluteDirection":"NORTHEAST","stayOn":false,"area":false,"bogusName":false,"lon":-71.0841347,"lat":48.426195400000005,"elevation":[]}]},{"startTime":1522708440000,"endTime":1522708860000,"departureDelay":0,"arrivalDelay":0,"realTime":false,"distance":1683.763385147579,"pathway":false,"mode":"BUS","route":"16","agencyName":"Société de Transport du Saguenay","agencyUrl":"http://ville.saguenay.ca/fr/services-aux-citoyens/transport-sts","agencyTimeZoneOffset":-14400000,"routeColor":"00FF00","routeType":3,"routeId":"1:16","routeTextColor":"000000","interlineWithPreviousLeg":false,"tripBlockId":"34","headsign":"Terminus Chicoutimi","agencyId":"0","tripId":"1:218230","serviceDate":"20180402","from":{"name":"ch. de la Réserve / St-Ange","stopId":"1:625","stopCode":"625","lon":-71.083536,"lat":48.42644,"arrival":1522708439000,"departure":1522708440000,"zoneId":"NA","stopIndex":30,"stopSequence":31,"vertexType":"TRANSIT"},"to":{"name":"Terminus Chicoutimi","stopId":"1:1289","stopCode":"1289","lon":-71.066163,"lat":48.428677,"arrival":1522708860000,"departure":1522709100000,"zoneId":"NA","stopIndex":35,"stopSequence":36,"vertexType":"TRANSIT"},"legGeometry":{"points":"ohqfHnozpLeCcGqAwC[g@]a@aAw@[_@cA}A_@w@GU[iDWaDzByCv@cA`@e@TSp@g@nAo@nBm@ZSf@c@PMb@[b@_@b@e@PYP]N_@La@P{@NcB@IBcAG_A{@sEEg@oAP}@DiBDFeBMa@iBCq@FmBPFcEDoBNiHyDWN_HBoA@Y@m@","length":52},"routeShortName":"16","routeLongName":"Côte de la Réserve","rentedBike":false,"transitLeg":true,"duration":420.0,"steps":[]},{"startTime":1522709100000,"endTime":1522709425000,"departureDelay":0,"arrivalDelay":0,"realTime":false,"distance":1375.0407712684532,"pathway":false,"mode":"BUS","route":"14","agencyName":"Société de Transport du Saguenay","agencyUrl":"http://ville.saguenay.ca/fr/services-aux-citoyens/transport-sts","agencyTimeZoneOffset":-14400000,"routeColor":"C0C000","routeType":3,"routeId":"1:14","routeTextColor":"000000","interlineWithPreviousLeg":false,"tripBlockId":"30","headsign":"Talbot / Barrette","agencyId":"0","tripId":"1:218111","serviceDate":"20180402","from":{"name":"Terminus Chicoutimi","stopId":"1:1289","stopCode":"1289","lon":-71.066163,"lat":48.428677,"arrival":1522708860000,"departure":1522709100000,"zoneId":"NA","stopIndex":0,"stopSequence":1,"vertexType":"TRANSIT"},"to":{"name":"Cégep de Chicoutimi (voie réservée)","stopId":"1:75","stopCode":"75","lon":-71.055283,"lat":48.422761,"arrival":1522709425000,"departure":1522709426000,"zoneId":"NA","stopIndex":6,"stopSequence":7,"vertexType":"TRANSIT"},"legGeometry":{"points":"qvqfHnbwpLJkClLh@DsDTmSHwFB{I@m@@eBH_AF}A@w@Dq@@i@B}B@Y@e@D]F_@@SHQCKnBnBvIrIn@n@\\iATg@v@_ATg@LmABg@Is@","length":32},"routeShortName":"14","routeLongName":"Coopérative","rentedBike":false,"transitLeg":true,"duration":325.0,"steps":[]},{"startTime":1522709426000,"endTime":1522709636000,"departureDelay":0,"arrivalDelay":0,"realTime":false,"distance":256.036,"pathway":false,"mode":"WALK","route":"","agencyTimeZoneOffset":-14400000,"interlineWithPreviousLeg":false,"from":{"name":"Cégep de Chicoutimi (voie réservée)","stopId":"1:75","stopCode":"75","lon":-71.055283,"lat":48.422761,"arrival":1522709425000,"departure":1522709426000,"zoneId":"NA","stopIndex":6,"stopSequence":7,"vertexType":"TRANSIT"},"to":{"name":"Destination","lon":-71.052406,"lat":48.423148,"arrival":1522709636000,"orig":"","vertexType":"NORMAL"},"legGeometry":{"points":"mqpfHr~tpLGi@M@[DK@OoCOaAQaANqAVsBBW?o@","length":12},"rentedBike":false,"transitLeg":false,"duration":210.0,"steps":[{"distance":16.607,"relativeDirection":"DEPART","streetName":"Chemin Saint Thomas","absoluteDirection":"EAST","stayOn":false,"area":false,"bogusName":false,"lon":-71.05529730066766,"lat":48.42279572871795,"elevation":[]},{"distance":239.42899999999997,"relativeDirection":"LEFT","streetName":"service road","absoluteDirection":"NORTH","stayOn":false,"area":false,"bogusName":true,"lon":-71.0550802,"lat":48.4228351,"elevation":[]}]}],"tooSloped":false}]},"debugOutput":{"precalculationTime":32,"pathCalculationTime":29,"pathTimes":[16,6,7],"renderingTime":0,"totalTime":61,"timedOut":false},"elevationMetadata":{"ellipsoidToGeoidDifference":-28.885904201182168,"geoidElevation":false}}