{"requestParameters":{"date":"2018/04/02","walkSpeed":"1.33","walkReluctance":"2.0","fromPlace":"48.420413,-71.070738","maxWalkDistance":"3000","waitReluctance":"1.0","carSpeed":"33","numItineraries":"3","waitAtBeginningFactor":"0.4","mode":"TRANSIT,WALK","ignoreRealtimeUpdates":"false","stairsReluctance":"2.0","toPlace":"48.420373,-71.073237","time":"16:0:00"},"plan":{"date":1522699200000,"from":{"name":"Origin","lon":-71.070738,"lat":48.420413,"orig":"","vertexType":"NORMAL"},"to":{"name":"Destination","lon":-71.073237,"lat":48.420373,"orig":"","vertexType":"NORMAL"},"itineraries":[{"duration":183,"startTime":1522699200000,"endTime":1522699383000,"walkTime":183,"transitTime":0,"waitingTime":0,"walkDistance":225.5523608992109,"walkLimitExceeded":false,"elevationLost":0.0,"elevationGained":0.0,"transfers":0,"legs":[{"startTime":1522699200000,"endTime":1522699383000,"departureDelay":0,"arrivalDelay":0,"realTime":false,"distance":225.458,"pathway":false,"mode":"WALK","route":"","agencyTimeZoneOffset":-14400000,"interlineWithPreviousLeg":false,"from":{"name":"Origin","lon":-71.070738,"lat":48.420413,"departure":1522699200000,"orig":"","vertexType":"NORMAL"},"to":{"name":"Destination","lon":-71.073237,"lat":48.420373,"arrival":1522699383000,"orig":"","vertexType":"NORMAL"},"legGeometry":{"points":"qapfHf_xpLOhHXV[|@a@lAOb@^Z","length":7},"rentedBike":false,"transitLeg":false,"duration":183.0,"steps":[{"distance":110.003,"relativeDirection":"DEPART","streetName":"Rue Saint-Dominique Ouest","absoluteDirection":"WEST","stayOn":false,"area":false,"bogusName":false,"lon":-71.07075991420248,"lat":48.42025089790541,"elevation":[]},{"distance":17.097,"relativeDirection":"LEFT","streetName":"Rue Audet","absoluteDirection":"SOUTHWEST","stayOn":false,"area":false,"bogusName":false,"lon":-71.0722446,"lat":48.4203393,"elevation":[]},{"distance":77.854,"relativeDirection":"RIGHT","streetName":"Rue Jolliet","absoluteDirection":"NORTHWEST","stayOn":false,"area":false,"bogusName":false,"lon":-71.07236060000001,"lat":48.4202062,"elevation":[]},{"distance":20.504,"relativeDirection":"LEFT","streetName":"Rue Caron","absoluteDirection":"SOUTHWEST","stayOn":false,"area":false,"bogusName":false,"lon":-71.0732402,"lat":48.4205928,"elevation":[]}]}],"tooSloped":false}]},"debugOutput":{"precalculationTime":41,"pathCalculationTime":27,"pathTimes":[2,17,8],"renderingTime":1,"totalTime":69,"timedOut":false},"elevationMetadata":{"ellipsoidToGeoidDifference":-28.885904201182168,"geoidElevation":false}}