{"requestParameters":{"date":"2018/04/02","walkSpeed":"1.33","walkReluctance":"2.0","fromPlace":"48.420373,-71.073237","maxWalkDistance":"3000","waitReluctance":"1.0","carSpeed":"33","numItineraries":"3","waitAtBeginningFactor":"0.4","mode":"TRANSIT,WALK","ignoreRealtimeUpdates":"false","stairsReluctance":"2.0","toPlace":"48.420413,-71.070738","time":"16:30:00"},"plan":{"date":1522701000000,"from":{"name":"Origin","lon":-71.073237,"lat":48.420373,"orig":"","vertexType":"NORMAL"},"to":{"name":"Destination","lon":-71.070738,"lat":48.420413,"orig":"","vertexType":"NORMAL"},"itineraries":[{"duration":183,"startTime":1522701000000,"endTime":1522701183000,"walkTime":183,"transitTime":0,"waitingTime":0,"walkDistance":225.55236089921087,"walkLimitExceeded":false,"elevationLost":0.0,"elevationGained":0.0,"transfers":0,"legs":[{"startTime":1522701000000,"endTime":1522701183000,"departureDelay":0,"arrivalDelay":0,"realTime":false,"distance":225.45800000000003,"pathway":false,"mode":"WALK","route":"","agencyTimeZoneOffset":-14400000,"interlineWithPreviousLeg":false,"from":{"name":"Origin","lon":-71.073237,"lat":48.420373,"departure":1522701000000,"orig":"","vertexType":"NORMAL"},"to":{"name":"Destination","lon":-71.070738,"lat":48.420413,"arrival":1522701183000,"orig":"","vertexType":"NORMAL"},"legGeometry":{"points":"ubpfHtoxpL_@[Nc@`@mAZ}@YWNiH","length":7},"rentedBike":false,"transitLeg":false,"duration":183.0,"steps":[{"distance":20.504,"relativeDirection":"DEPART","streetName":"Rue Caron","absoluteDirection":"NORTHEAST","stayOn":false,"area":false,"bogusName":false,"lon":-71.07338917048786,"lat":48.42043714410278,"elevation":[]},{"distance":77.854,"relativeDirection":"RIGHT","streetName":"Rue Jolliet","absoluteDirection":"SOUTHEAST","stayOn":false,"area":false,"bogusName":false,"lon":-71.0732402,"lat":48.4205928,"elevation":[]},{"distance":17.097,"relativeDirection":"LEFT","streetName":"Rue Audet","absoluteDirection":"NORTHEAST","stayOn":false,"area":false,"bogusName":false,"lon":-71.07236060000001,"lat":48.4202062,"elevation":[]},{"distance":110.003,"relativeDirection":"RIGHT","streetName":"Rue Saint-Dominique Ouest","absoluteDirection":"EAST","stayOn":false,"area":false,"bogusName":false,"lon":-71.0722446,"lat":48.4203393,"elevation":[]}]}],"tooSloped":false}]},"debugOutput":{"precalculationTime":61,"pathCalculationTime":38,"pathTimes":[2,20,15],"renderingTime":1,"totalTime":100,"timedOut":false},"elevationMetadata":{"ellipsoidToGeoidDifference":-28.885904201182168,"geoidElevation":false}}