{"requestParameters":{"date":"2018/04/02","walkSpeed":"1.33","walkReluctance":"2.0","fromPlace":"48.382739,-71.086723","maxWalkDistance":"3000","waitReluctance":"1.0","carSpeed":"33","numItineraries":"3","waitAtBeginningFactor":"0.4","mode":"TRANSIT,WALK","ignoreRealtimeUpdates":"false","stairsReluctance":"2.0","toPlace":"48.39366,-71.06425799","time":"13:30:00"},"plan":{"date":1522690200000,"from":{"name":"Origin","lon":-71.086723,"lat":48.382739,"orig":"","vertexType":"NORMAL"},"to":{"name":"Destination","lon":-71.06425799,"lat":48.39366,"orig":"","vertexType":"NORMAL"},"itineraries":[{"duration":1011,"startTime":1522690905000,"endTime":1522691916000,"walkTime":649,"transitTime":360,"waitingTime":2,"walkDistance":824.5703909707839,"walkLimitExceeded":false,"elevationLost":0.0,"elevationGained":0.0,"transfers":0,"legs":[{"startTime":1522690905000,"endTime":1522691099000,"departureDelay":0,"arrivalDelay":0,"realTime":false,"distance":237.918,"pathway":false,"mode":"WALK","route":"","agencyTimeZoneOffset":-14400000,"interlineWithPreviousLeg":false,"from":{"name":"Origin","lon":-71.086723,"lat":48.382739,"departure":1522690905000,"orig":"","vertexType":"NORMAL"},"to":{"name":"COSTCO","stopId":"1:1710","stopCode":"1710","lon":-71.085767,"lat":48.382333,"arrival":1522691099000,"departure":1522691100000,"zoneId":"NA","stopIndex":0,"stopSequence":1,"vertexType":"TRANSIT"},"legGeometry":{"points":"mvhfH~c{pLZk@Lt@PZ`@d@nA_DuBaC","length":7},"rentedBike":false,"transitLeg":false,"duration":194.0,"steps":[{"distance":82.838,"relativeDirection":"DEPART","streetName":"service road","absoluteDirection":"SOUTHEAST","stayOn":false,"area":false,"bogusName":false,"lon":-71.08687506276566,"lat":48.38263570446591,"elevation":[]},{"distance":73.854,"relativeDirection":"LEFT","streetName":"Boulevard du Royaume Ouest","absoluteDirection":"SOUTHEAST","stayOn":false,"area":false,"bogusName":false,"lon":-71.0872595,"lat":48.382163600000005,"elevation":[]},{"distance":81.226,"relativeDirection":"LEFT","streetName":"service road","absoluteDirection":"NORTHEAST","stayOn":false,"area":false,"bogusName":true,"lon":-71.0864598,"lat":48.381764800000006,"elevation":[]}]},{"startTime":1522691100000,"endTime":1522691460000,"departureDelay":0,"arrivalDelay":0,"realTime":false,"distance":1990.475444549822,"pathway":false,"mode":"BUS","route":"175","agencyName":"Société de Transport du Saguenay","agencyUrl":"http://ville.saguenay.ca/fr/services-aux-citoyens/transport-sts","agencyTimeZoneOffset":-14400000,"routeColor":"FF00FF","routeType":3,"routeId":"1:175","routeTextColor":"FFFFFF","interlineWithPreviousLeg":false,"tripBlockId":"11","headsign":"Terminus Chicoutimi","agencyId":"0","tripId":"1:217476","serviceDate":"20180402","from":{"name":"COSTCO","stopId":"1:1710","stopCode":"1710","lon":-71.085767,"lat":48.382333,"arrival":1522691099000,"departure":1522691100000,"zoneId":"NA","stopIndex":0,"stopSequence":1,"vertexType":"TRANSIT"},"to":{"name":"boul. Talbot / boul. Barrette","stopId":"1:49","stopCode":"49","lon":-71.069502,"lat":48.394497,"arrival":1522691460000,"departure":1522691461000,"zoneId":"NA","stopIndex":7,"stopSequence":8,"vertexType":"TRANSIT"},"legGeometry":{"points":"euhfHt|zpL_BiBsCoDwCqDrCsGN_@uEoFoEiFUWSUqCwC]a@{ByC{@cAkJuKoAwA_CeCeExJ~AlB`@mAu@k@}@q@|C}Iw@}@aO_QkEsE","length":26},"routeShortName":"175","routeLongName":"Term. Chic / Costco","rentedBike":false,"transitLeg":true,"duration":360.0,"steps":[]},{"startTime":1522691461000,"endTime":1522691916000,"departureDelay":0,"arrivalDelay":0,"realTime":false,"distance":586.446,"pathway":false,"mode":"WALK","route":"","agencyTimeZoneOffset":-14400000,"interlineWithPreviousLeg":false,"from":{"name":"boul. Talbot / boul. Barrette","stopId":"1:49","stopCode":"49","lon":-71.069502,"lat":48.394497,"arrival":1522691460000,"departure":1522691461000,"zoneId":"NA","stopIndex":7,"stopSequence":8,"vertexType":"TRANSIT"},"to":{"name":"Destination","lon":-71.06425799,"lat":48.39366,"arrival":1522691916000,"orig":"","vertexType":"NORMAL"},"legGeometry":{"points":"}`kfHdxwpL|BlCFQ@CnA{C@EV_@Z}@VmAN{ADsAKiAa@uAEOw@iC]mCAqC@qA","length":18},"rentedBike":false,"transitLeg":false,"duration":455.0,"steps":[{"distance":87.727,"relativeDirection":"DEPART","streetName":"Boulevard Talbot","absoluteDirection":"SOUTHWEST","stayOn":false,"area":false,"bogusName":false,"lon":-71.06962085488986,"lat":48.394555935445034,"elevation":[]},{"distance":498.71900000000005,"relativeDirection":"LEFT","streetName":"Rue Des Roitelets","absoluteDirection":"SOUTHEAST","stayOn":false,"area":false,"bogusName":false,"lon":-71.0703318,"lat":48.3939238,"elevation":[]}]}],"tooSloped":false},{"duration":1011,"startTime":1522692705000,"endTime":1522693716000,"walkTime":649,"transitTime":360,"waitingTime":2,"walkDistance":824.5703909707839,"walkLimitExceeded":false,"elevationLost":0.0,"elevationGained":0.0,"transfers":0,"legs":[{"startTime":1522692705000,"endTime":1522692899000,"departureDelay":0,"arrivalDelay":0,"realTime":false,"distance":237.918,"pathway":false,"mode":"WALK","route":"","agencyTimeZoneOffset":-14400000,"interlineWithPreviousLeg":false,"from":{"name":"Origin","lon":-71.086723,"lat":48.382739,"departure":1522692705000,"orig":"","vertexType":"NORMAL"},"to":{"name":"COSTCO","stopId":"1:1710","stopCode":"1710","lon":-71.085767,"lat":48.382333,"arrival":1522692899000,"departure":1522692900000,"zoneId":"NA","stopIndex":0,"stopSequence":1,"vertexType":"TRANSIT"},"legGeometry":{"points":"mvhfH~c{pLZk@Lt@PZ`@d@nA_DuBaC","length":7},"rentedBike":false,"transitLeg":false,"duration":194.0,"steps":[{"distance":82.838,"relativeDirection":"DEPART","streetName":"service road","absoluteDirection":"SOUTHEAST","stayOn":false,"area":false,"bogusName":false,"lon":-71.08687506276566,"lat":48.38263570446591,"elevation":[]},{"distance":73.854,"relativeDirection":"LEFT","streetName":"Boulevard du Royaume Ouest","absoluteDirection":"SOUTHEAST","stayOn":false,"area":false,"bogusName":false,"lon":-71.0872595,"lat":48.382163600000005,"elevation":[]},{"distance":81.226,"relativeDirection":"LEFT","streetName":"service road","absoluteDirection":"NORTHEAST","stayOn":false,"area":false,"bogusName":true,"lon":-71.0864598,"lat":48.381764800000006,"elevation":[]}]},{"startTime":1522692900000,"endTime":1522693260000,"departureDelay":0,"arrivalDelay":0,"realTime":false,"distance":1990.475444549822,"pathway":false,"mode":"BUS","route":"175","agencyName":"Société de Transport du Saguenay","agencyUrl":"http://ville.saguenay.ca/fr/services-aux-citoyens/transport-sts","agencyTimeZoneOffset":-14400000,"routeColor":"FF00FF","routeType":3,"routeId":"1:175","routeTextColor":"FFFFFF","interlineWithPreviousLeg":false,"tripBlockId":"10","headsign":"Terminus Chicoutimi","agencyId":"0","tripId":"1:217442","serviceDate":"20180402","from":{"name":"COSTCO","stopId":"1:1710","stopCode":"1710","lon":-71.085767,"lat":48.382333,"arrival":1522692899000,"departure":1522692900000,"zoneId":"NA","stopIndex":0,"stopSequence":1,"vertexType":"TRANSIT"},"to":{"name":"boul. Talbot / boul. Barrette","stopId":"1:49","stopCode":"49","lon":-71.069502,"lat":48.394497,"arrival":1522693260000,"departure":1522693261000,"zoneId":"NA","stopIndex":7,"stopSequence":8,"vertexType":"TRANSIT"},"legGeometry":{"points":"euhfHt|zpL_BiBsCoDwCqDrCsGN_@uEoFoEiFUWSUqCwC]a@{ByC{@cAkJuKoAwA_CeCeExJ~AlB`@mAu@k@}@q@|C}Iw@}@aO_QkEsE","length":26},"routeShortName":"175","routeLongName":"Term. Chic / Costco","rentedBike":false,"transitLeg":true,"duration":360.0,"steps":[]},{"startTime":1522693261000,"endTime":1522693716000,"departureDelay":0,"arrivalDelay":0,"realTime":false,"distance":586.446,"pathway":false,"mode":"WALK","route":"","agencyTimeZoneOffset":-14400000,"interlineWithPreviousLeg":false,"from":{"name":"boul. Talbot / boul. Barrette","stopId":"1:49","stopCode":"49","lon":-71.069502,"lat":48.394497,"arrival":1522693260000,"departure":1522693261000,"zoneId":"NA","stopIndex":7,"stopSequence":8,"vertexType":"TRANSIT"},"to":{"name":"Destination","lon":-71.06425799,"lat":48.39366,"arrival":1522693716000,"orig":"","vertexType":"NORMAL"},"legGeometry":{"points":"}`kfHdxwpL|BlCFQ@CnA{C@EV_@Z}@VmAN{ADsAKiAa@uAEOw@iC]mCAqC@qA","length":18},"rentedBike":false,"transitLeg":false,"duration":455.0,"steps":[{"distance":87.727,"relativeDirection":"DEPART","streetName":"Boulevard Talbot","absoluteDirection":"SOUTHWEST","stayOn":false,"area":false,"bogusName":false,"lon":-71.06962085488986,"lat":48.394555935445034,"elevation":[]},{"distance":498.71900000000005,"relativeDirection":"LEFT","streetName":"Rue Des Roitelets","absoluteDirection":"SOUTHEAST","stayOn":false,"area":false,"bogusName":false,"lon":-71.0703318,"lat":48.3939238,"elevation":[]}]}],"tooSloped":false},{"duration":1011,"startTime":1522694505000,"endTime":1522695516000,"walkTime":649,"transitTime":360,"waitingTime":2,"walkDistance":824.5703909707839,"walkLimitExceeded":false,"elevationLost":0.0,"elevationGained":0.0,"transfers":0,"legs":[{"startTime":1522694505000,"endTime":1522694699000,"departureDelay":0,"arrivalDelay":0,"realTime":false,"distance":237.918,"pathway":false,"mode":"WALK","route":"","agencyTimeZoneOffset":-14400000,"interlineWithPreviousLeg":false,"from":{"name":"Origin","lon":-71.086723,"lat":48.382739,"departure":1522694505000,"orig":"","vertexType":"NORMAL"},"to":{"name":"COSTCO","stopId":"1:1710","stopCode":"1710","lon":-71.085767,"lat":48.382333,"arrival":1522694699000,"departure":1522694700000,"zoneId":"NA","stopIndex":0,"stopSequence":1,"vertexType":"TRANSIT"},"legGeometry":{"points":"mvhfH~c{pLZk@Lt@PZ`@d@nA_DuBaC","length":7},"rentedBike":false,"transitLeg":false,"duration":194.0,"steps":[{"distance":82.838,"relativeDirection":"DEPART","streetName":"service road","absoluteDirection":"SOUTHEAST","stayOn":false,"area":false,"bogusName":false,"lon":-71.08687506276566,"lat":48.38263570446591,"elevation":[]},{"distance":73.854,"relativeDirection":"LEFT","streetName":"Boulevard du Royaume Ouest","absoluteDirection":"SOUTHEAST","stayOn":false,"area":false,"bogusName":false,"lon":-71.0872595,"lat":48.382163600000005,"elevation":[]},{"distance":81.226,"relativeDirection":"LEFT","streetName":"service road","absoluteDirection":"NORTHEAST","stayOn":false,"area":false,"bogusName":true,"lon":-71.0864598,"lat":48.381764800000006,"elevation":[]}]},{"startTime":1522694700000,"endTime":1522695060000,"departureDelay":0,"arrivalDelay":0,"realTime":false,"distance":1990.475444549822,"pathway":false,"mode":"BUS","route":"175","agencyName":"Société de Transport du Saguenay","agencyUrl":"http://ville.saguenay.ca/fr/services-aux-citoyens/transport-sts","agencyTimeZoneOffset":-14400000,"routeColor":"FF00FF","routeType":3,"routeId":"1:175","routeTextColor":"FFFFFF","interlineWithPreviousLeg":false,"tripBlockId":"9","headsign":"Terminus Chicoutimi","agencyId":"0","tripId":"1:217408","serviceDate":"20180402","from":{"name":"COSTCO","stopId":"1:1710","stopCode":"1710","lon":-71.085767,"lat":48.382333,"arrival":1522694699000,"departure":1522694700000,"zoneId":"NA","stopIndex":0,"stopSequence":1,"vertexType":"TRANSIT"},"to":{"name":"boul. Talbot / boul. Barrette","stopId":"1:49","stopCode":"49","lon":-71.069502,"lat":48.394497,"arrival":1522695060000,"departure":1522695061000,"zoneId":"NA","stopIndex":7,"stopSequence":8,"vertexType":"TRANSIT"},"legGeometry":{"points":"euhfHt|zpL_BiBsCoDwCqDrCsGN_@uEoFoEiFUWSUqCwC]a@{ByC{@cAkJuKoAwA_CeCeExJ~AlB`@mAu@k@}@q@|C}Iw@}@aO_QkEsE","length":26},"routeShortName":"175","routeLongName":"Term. Chic / Costco","rentedBike":false,"transitLeg":true,"duration":360.0,"steps":[]},{"startTime":1522695061000,"endTime":1522695516000,"departureDelay":0,"arrivalDelay":0,"realTime":false,"distance":586.446,"pathway":false,"mode":"WALK","route":"","agencyTimeZoneOffset":-14400000,"interlineWithPreviousLeg":false,"from":{"name":"boul. Talbot / boul. Barrette","stopId":"1:49","stopCode":"49","lon":-71.069502,"lat":48.394497,"arrival":1522695060000,"departure":1522695061000,"zoneId":"NA","stopIndex":7,"stopSequence":8,"vertexType":"TRANSIT"},"to":{"name":"Destination","lon":-71.06425799,"lat":48.39366,"arrival":1522695516000,"orig":"","vertexType":"NORMAL"},"legGeometry":{"points":"}`kfHdxwpL|BlCFQ@CnA{C@EV_@Z}@VmAN{ADsAKiAa@uAEOw@iC]mCAqC@qA","length":18},"rentedBike":false,"transitLeg":false,"duration":455.0,"steps":[{"distance":87.727,"relativeDirection":"DEPART","streetName":"Boulevard Talbot","absoluteDirection":"SOUTHWEST","stayOn":false,"area":false,"bogusName":false,"lon":-71.06962085488986,"lat":48.394555935445034,"elevation":[]},{"distance":498.71900000000005,"relativeDirection":"LEFT","streetName":"Rue Des Roitelets","absoluteDirection":"SOUTHEAST","stayOn":false,"area":false,"bogusName":false,"lon":-71.0703318,"lat":48.3939238,"elevation":[]}]}],"tooSloped":false}]},"debugOutput":{"precalculationTime":15,"pathCalculationTime":12,"pathTimes":[3,6,3],"renderingTime":0,"totalTime":27,"timedOut":false},"elevationMetadata":{"ellipsoidToGeoidDifference":-28.885904201182168,"geoidElevation":false}}