{"requestParameters":{"date":"2018/04/02","walkSpeed":"1.33","walkReluctance":"2.0","fromPlace":"48.40513,-71.06202999","maxWalkDistance":"3000","waitReluctance":"1.0","carSpeed":"33","numItineraries":"3","waitAtBeginningFactor":"0.4","mode":"TRANSIT,WALK","ignoreRealtimeUpdates":"false","stairsReluctance":"2.0","toPlace":"48.429253,-71.054255","time":"15:25:00"},"plan":{"date":1522697100000,"from":{"name":"Origin","lon":-71.06202999,"lat":48.40513,"orig":"","vertexType":"NORMAL"},"to":{"name":"Destination","lon":-71.054255,"lat":48.429253,"orig":"","vertexType":"NORMAL"},"itineraries":[{"duration":1653,"startTime":1522697319000,"endTime":1522698972000,"walkTime":963,"transitTime":688,"waitingTime":2,"walkDistance":1217.260300743158,"walkLimitExceeded":false,"elevationLost":0.0,"elevationGained":0.0,"transfers":0,"legs":[{"startTime":1522697319000,"endTime":1522697999000,"departureDelay":0,"arrivalDelay":0,"realTime":false,"distance":857.3170000000002,"pathway":false,"mode":"WALK","route":"","agencyTimeZoneOffset":-14400000,"interlineWithPreviousLeg":false,"from":{"name":"Origin","lon":-71.06202999,"lat":48.40513,"departure":1522697319000,"orig":"","vertexType":"NORMAL"},"to":{"name":"Place Royaume","stopId":"1:1801","stopCode":"1801","lon":-71.057017,"lat":48.405588,"arrival":1522697999000,"departure":1522698000000,"zoneId":"NA","stopIndex":10,"stopSequence":11,"vertexType":"TRANSIT"},"legGeometry":{"points":"kemfHdfvpL|@aCNa@|EtEfAoCxBwFJW@EkBeBiFwEt@aC[YUU][Y[[YY[[[a@zA","length":19},"rentedBike":false,"transitLeg":false,"duration":680.0,"steps":[{"distance":73.87899999999999,"relativeDirection":"DEPART","streetName":"Rue Des Maristes","absoluteDirection":"SOUTHEAST","stayOn":false,"area":false,"bogusName":false,"lon":-71.06162332321281,"lat":48.40550660167406,"elevation":[]},{"distance":146.751,"relativeDirection":"RIGHT","streetName":"Rue Bach","absoluteDirection":"SOUTHWEST","stayOn":false,"area":false,"bogusName":false,"lon":-71.06080990000001,"lat":48.405119500000005,"elevation":[]},{"distance":193.94000000000003,"relativeDirection":"LEFT","streetName":"Rue des Saguenéens","absoluteDirection":"SOUTHEAST","stayOn":false,"area":false,"bogusName":false,"lon":-71.06187870000001,"lat":48.404006700000004,"elevation":[]},{"distance":223.313,"relativeDirection":"LEFT","streetName":"Boulevard Talbot","absoluteDirection":"NORTHEAST","stayOn":false,"area":false,"bogusName":false,"lon":-71.0597697,"lat":48.402967000000004,"elevation":[]},{"distance":219.43400000000003,"relativeDirection":"RIGHT","streetName":"parking aisle","absoluteDirection":"SOUTHEAST","stayOn":false,"area":false,"bogusName":true,"lon":-71.0581722,"lat":48.4046724,"elevation":[]}]},{"startTime":1522698000000,"endTime":1522698688000,"departureDelay":0,"arrivalDelay":0,"realTime":false,"distance":3267.1548332639504,"pathway":false,"mode":"BUS","route":"175","agencyName":"Société de Transport du Saguenay","agencyUrl":"http://ville.saguenay.ca/fr/services-aux-citoyens/transport-sts","agencyTimeZoneOffset":-14400000,"routeColor":"FF00FF","routeType":3,"routeId":"1:175","routeTextColor":"FFFFFF","interlineWithPreviousLeg":false,"tripBlockId":"80","headsign":"Terminus Chicoutimi","agencyId":"0","tripId":"1:218653","serviceDate":"20180402","from":{"name":"Place Royaume","stopId":"1:1801","stopCode":"1801","lon":-71.057017,"lat":48.405588,"arrival":1522697999000,"departure":1522698000000,"zoneId":"NA","stopIndex":10,"stopSequence":11,"vertexType":"TRANSIT"},"to":{"name":"Hôtel-Dieu / Riverin","stopId":"1:338","stopCode":"338","lon":-71.054073,"lat":48.427466,"arrival":1522698688000,"departure":1522698689000,"zoneId":"NA","stopIndex":21,"stopSequence":22,"vertexType":"TRANSIT"},"legGeometry":{"points":"sfmfH`kupL_U_TcNgNcBcB{E`Jc@x@qG~@{BlAk@XgSrQqB_GAeFiEeEOt@gAeA_A_ATm@yAwAgBeBqDnL@nBF`@f@|C[dCuAfB]xAs@OmCmCmEkE]a@g@i@ZiGTmEl@oLaEe@cFk@?pH?tJDvB","length":39},"routeShortName":"175","routeLongName":"Term. Chic / Costco","rentedBike":false,"transitLeg":true,"duration":688.0,"steps":[]},{"startTime":1522698689000,"endTime":1522698972000,"departureDelay":0,"arrivalDelay":0,"realTime":false,"distance":359.673,"pathway":false,"mode":"WALK","route":"","agencyTimeZoneOffset":-14400000,"interlineWithPreviousLeg":false,"from":{"name":"Hôtel-Dieu / Riverin","stopId":"1:338","stopCode":"338","lon":-71.054073,"lat":48.427466,"arrival":1522698688000,"departure":1522698689000,"zoneId":"NA","stopIndex":21,"stopSequence":22,"vertexType":"TRANSIT"},"to":{"name":"Destination","lon":-71.054255,"lat":48.429253,"arrival":1522698972000,"orig":"","vertexType":"NORMAL"},"legGeometry":{"points":"knqfH|vtpLDdDM@gDz@OF_Cx@QH]uBSkC","length":9},"rentedBike":false,"transitLeg":false,"duration":283.0,"steps":[{"distance":61.3,"relativeDirection":"DEPART","streetName":"Rue de l'Hôtel-Dieu","absoluteDirection":"WEST","stayOn":false,"area":false,"bogusName":false,"lon":-71.05406930388979,"lat":48.42742042441727,"elevation":[]},{"distance":198.817,"relativeDirection":"RIGHT","streetName":"Rue Riverin","absoluteDirection":"NORTH","stayOn":false,"area":false,"bogusName":false,"lon":-71.0548989,"lat":48.427390800000005,"elevation":[]},{"distance":99.556,"relativeDirection":"RIGHT","streetName":"Rue du Havre","absoluteDirection":"EAST","stayOn":false,"area":false,"bogusName":false,"lon":-71.05558330000001,"lat":48.429117600000005,"elevation":[]}]}],"tooSloped":false},{"duration":911,"startTime":1522698609000,"endTime":1522699520000,"walkTime":189,"transitTime":720,"waitingTime":2,"walkDistance":236.1335488699363,"walkLimitExceeded":false,"elevationLost":0.0,"elevationGained":0.0,"transfers":1,"legs":[{"startTime":1522698609000,"endTime":1522698654000,"departureDelay":0,"arrivalDelay":0,"realTime":false,"distance":58.672,"pathway":false,"mode":"WALK","route":"","agencyTimeZoneOffset":-14400000,"interlineWithPreviousLeg":false,"from":{"name":"Origin","lon":-71.06202999,"lat":48.40513,"departure":1522698609000,"orig":"","vertexType":"NORMAL"},"to":{"name":"Maristes / Bach","stopId":"1:1599","stopCode":"1599","lon":-71.061038,"lat":48.405143,"arrival":1522698654000,"departure":1522698655000,"zoneId":"NA","stopIndex":22,"stopSequence":23,"vertexType":"TRANSIT"},"legGeometry":{"points":"kemfHdfvpL|@aC","length":2},"rentedBike":false,"transitLeg":false,"duration":45.0,"steps":[{"distance":58.672,"relativeDirection":"DEPART","streetName":"Rue Des Maristes","absoluteDirection":"SOUTHEAST","stayOn":false,"area":false,"bogusName":false,"lon":-71.06162332321281,"lat":48.40550660167406,"elevation":[]}]},{"startTime":1522698655000,"endTime":1522698900000,"departureDelay":0,"arrivalDelay":0,"realTime":false,"distance":1166.0561418758991,"pathway":false,"mode":"BUS","route":"209S","agencyName":"Société de Transport du Saguenay","agencyUrl":"http://ville.saguenay.ca/fr/services-aux-citoyens/transport-sts","agencyTimeZoneOffset":-14400000,"routeColor":"8B0000","routeType":3,"routeId":"1:209S","routeTextColor":"FFFFFF","interlineWithPreviousLeg":false,"tripBlockId":"51","headsign":"Station / Laure-Conan","agencyId":"0","tripId":"1:218449","serviceDate":"20180402","from":{"name":"Maristes / Bach","stopId":"1:1599","stopCode":"1599","lon":-71.061038,"lat":48.405143,"arrival":1522698654000,"departure":1522698655000,"zoneId":"NA","stopIndex":22,"stopSequence":23,"vertexType":"TRANSIT"},"to":{"name":"Stationnement Laure-Conan (Champs-Élysées)","stopId":"1:2251","stopCode":"2251","lon":-71.06055,"lat":48.414649,"arrival":1522698900000,"departure":1522698900000,"zoneId":"NA","stopIndex":25,"stopSequence":26,"vertexType":"TRANSIT"},"legGeometry":{"points":"icmfHfbvpLJYqDiDgD{C}HeHKKeDtI{As@e@a@SPUJyCf@wNhBq@NcAf@o@r@KRg@QC@CBCBAP","length":22},"routeShortName":"209S","routeLongName":"Victor-Guimond","rentedBike":false,"transitLeg":true,"duration":245.0,"steps":[]},{"startTime":1522698900000,"endTime":1522699375000,"departureDelay":0,"arrivalDelay":0,"realTime":false,"distance":2180.650670589997,"pathway":false,"mode":"BUS","route":"40S","agencyName":"Société de Transport du Saguenay","agencyUrl":"http://ville.saguenay.ca/fr/services-aux-citoyens/transport-sts","agencyTimeZoneOffset":-14400000,"routeColor":"8B0000","routeType":3,"routeId":"1:40S","routeTextColor":"FFFFFF","interlineWithPreviousLeg":false,"tripBlockId":"53","headsign":"Terminus Chicoutimi","agencyId":"0","tripId":"1:218474","serviceDate":"20180402","from":{"name":"Stationnement Laure-Conan (Champs-Élysées)","stopId":"1:2251","stopCode":"2251","lon":-71.06055,"lat":48.414649,"arrival":1522698900000,"departure":1522698900000,"zoneId":"NA","stopIndex":0,"stopSequence":1,"vertexType":"TRANSIT"},"to":{"name":"Racine / Salaberry","stopId":"1:1988","stopCode":"1988","lon":-71.052963,"lat":48.428839,"arrival":1522699375000,"departure":1522699376000,"zoneId":"NA","stopIndex":7,"stopSequence":8,"vertexType":"TRANSIT"},"legGeometry":{"points":"o~nfHn_vpLC`@@FBDNP}C|IUr@Qt@c@nCWlAi@`BaC_CkIkIaJaJWWiCuCSjDsACkKe@wH_@`@kXDo@aC_C]_@QSMi@Ia@AOAOFy@Rs@PcAFiAJeCHmBqKoAgG~@MDFf@NhC","length":40},"routeShortName":"40S","routeLongName":"Laure-Conan - Term. Chic","rentedBike":false,"transitLeg":true,"duration":475.0,"steps":[]},{"startTime":1522699376000,"endTime":1522699520000,"departureDelay":0,"arrivalDelay":0,"realTime":false,"distance":177.392,"pathway":false,"mode":"WALK","route":"","agencyTimeZoneOffset":-14400000,"interlineWithPreviousLeg":false,"from":{"name":"Racine / Salaberry","stopId":"1:1988","stopCode":"1988","lon":-71.052963,"lat":48.428839,"arrival":1522699375000,"departure":1522699376000,"zoneId":"NA","stopIndex":7,"stopSequence":8,"vertexType":"TRANSIT"},"to":{"name":"Destination","lon":-71.054255,"lat":48.429253,"arrival":1522699520000,"orig":"","vertexType":"NORMAL"},"legGeometry":{"points":"qvqfH|otpL@VBj@{C\\VhD?@","length":6},"rentedBike":false,"transitLeg":false,"duration":144.0,"steps":[{"distance":25.38,"relativeDirection":"DEPART","streetName":"Rue Racine Est","absoluteDirection":"WEST","stayOn":false,"area":false,"bogusName":false,"lon":-71.0529433405896,"lat":48.42873811610458,"elevation":[]},{"distance":87.53,"relativeDirection":"RIGHT","streetName":"Rue Salaberry","absoluteDirection":"NORTH","stayOn":false,"area":false,"bogusName":false,"lon":-71.0532845,"lat":48.428708900000004,"elevation":[]},{"distance":64.482,"relativeDirection":"LEFT","streetName":"Rue du Havre","absoluteDirection":"WEST","stayOn":false,"area":false,"bogusName":false,"lon":-71.05343760000001,"lat":48.4294895,"elevation":[]}]}],"tooSloped":false},{"duration":1399,"startTime":1522698459000,"endTime":1522699858000,"walkTime":611,"transitTime":786,"waitingTime":2,"walkDistance":780.9838195447477,"walkLimitExceeded":false,"elevationLost":0.0,"elevationGained":0.0,"transfers":0,"legs":[{"startTime":1522698459000,"endTime":1522698633000,"departureDelay":0,"arrivalDelay":0,"realTime":false,"distance":228.815,"pathway":false,"mode":"WALK","route":"","agencyTimeZoneOffset":-14400000,"interlineWithPreviousLeg":false,"from":{"name":"Origin","lon":-71.06202999,"lat":48.40513,"departure":1522698459000,"orig":"","vertexType":"NORMAL"},"to":{"name":"Saguenéens / Maristes","stopId":"1:1999","stopCode":"1999","lon":-71.06394,"lat":48.405813,"arrival":1522698633000,"departure":1522698634000,"zoneId":"NA","stopIndex":14,"stopSequence":15,"vertexType":"TRANSIT"},"legGeometry":{"points":"kemfHdfvpLcAjCQd@bBlFcA~@","length":5},"rentedBike":false,"transitLeg":false,"duration":174.0,"steps":[{"distance":184.543,"relativeDirection":"DEPART","streetName":"Rue Des Maristes","absoluteDirection":"NORTHWEST","stayOn":false,"area":false,"bogusName":false,"lon":-71.06162332321281,"lat":48.40550660167406,"elevation":[]},{"distance":44.272,"relativeDirection":"RIGHT","streetName":"Rue des Saguenéens","absoluteDirection":"NORTHWEST","stayOn":false,"area":false,"bogusName":false,"lon":-71.0637066,"lat":48.4054395,"elevation":[]}]},{"startTime":1522698634000,"endTime":1522699420000,"departureDelay":0,"arrivalDelay":0,"realTime":false,"distance":4164.126252071357,"pathway":false,"mode":"BUS","route":"15","agencyName":"Société de Transport du Saguenay","agencyUrl":"http://ville.saguenay.ca/fr/services-aux-citoyens/transport-sts","agencyTimeZoneOffset":-14400000,"routeColor":"FF00FF","routeType":3,"routeId":"1:15","routeTextColor":"FFFFFF","interlineWithPreviousLeg":false,"tripBlockId":"32","headsign":"Terminus Chicoutimi","agencyId":"0","tripId":"1:218165","serviceDate":"20180402","from":{"name":"Saguenéens / Maristes","stopId":"1:1999","stopCode":"1999","lon":-71.06394,"lat":48.405813,"arrival":1522698633000,"departure":1522698634000,"zoneId":"NA","stopIndex":14,"stopSequence":15,"vertexType":"TRANSIT"},"to":{"name":"Bégin / Jacques-Cartier","stopId":"1:561","stopCode":"561","lon":-71.05511,"lat":48.425555,"arrival":1522699420000,"departure":1522699421000,"zoneId":"NA","stopIndex":33,"stopSequence":34,"vertexType":"TRANSIT"},"legGeometry":{"points":"_gmfHluvpLUP_@d@Yl@oBdFeCxG_CfGYVQXS\\dK|HlFZbC\\p@zA\\rB@hBiArG{BNw@FiG}@iDwAECcCcBo@y@sEeGe@o@qAa@m@MoB?C@}BZwAc@oA_Bs@gDCKZ{Di@QECc@_@sAkAoBwB_EcE{A_BoAmAk@o@cCaCkIkIaJaJUUwBaCj@wCjAsCzGoG_CoHL{D_@kAqD{CQr@iAcAy@w@L{@wAuA_B_B_EpLDh@NbBVvCIxBg@`Am@l@Sb@a@rAqDqDmEkE]a@","length":75},"routeShortName":"15","routeLongName":"Term. Chic / Costco","rentedBike":false,"transitLeg":true,"duration":786.0,"steps":[]},{"startTime":1522699421000,"endTime":1522699858000,"departureDelay":0,"arrivalDelay":0,"realTime":false,"distance":552.0409999999999,"pathway":false,"mode":"WALK","route":"","agencyTimeZoneOffset":-14400000,"interlineWithPreviousLeg":false,"from":{"name":"Bégin / Jacques-Cartier","stopId":"1:561","stopCode":"561","lon":-71.05511,"lat":48.425555,"arrival":1522699420000,"departure":1522699421000,"zoneId":"NA","stopIndex":33,"stopSequence":34,"vertexType":"TRANSIT"},"to":{"name":"Destination","lon":-71.054255,"lat":48.429253,"arrival":1522699858000,"orig":"","vertexType":"NORMAL"},"legGeometry":{"points":"ybqfHv}tpLa@a@q@q@{@s@[Wi@a@aA}@CCyAuAKCe@BwBJkAFEo@{C\\VhD?@","length":17},"rentedBike":false,"transitLeg":false,"duration":437.0,"steps":[{"distance":381.554,"relativeDirection":"DEPART","streetName":"Rue Bégin","absoluteDirection":"NORTHEAST","stayOn":false,"area":false,"bogusName":false,"lon":-71.05515571766598,"lat":48.425575326522214,"elevation":[]},{"distance":18.475,"relativeDirection":"RIGHT","streetName":"Rue Racine Est","absoluteDirection":"EAST","stayOn":false,"area":false,"bogusName":false,"lon":-71.0535297,"lat":48.4286752,"elevation":[]},{"distance":87.53,"relativeDirection":"LEFT","streetName":"Rue Salaberry","absoluteDirection":"NORTH","stayOn":false,"area":false,"bogusName":false,"lon":-71.0532845,"lat":48.428708900000004,"elevation":[]},{"distance":64.482,"relativeDirection":"LEFT","streetName":"Rue du Havre","absoluteDirection":"WEST","stayOn":false,"area":false,"bogusName":false,"lon":-71.05343760000001,"lat":48.4294895,"elevation":[]}]}],"tooSloped":false}]},"debugOutput":{"precalculationTime":44,"pathCalculationTime":44,"pathTimes":[25,9,10],"renderingTime":1,"totalTime":89,"timedOut":false},"elevationMetadata":{"ellipsoidToGeoidDifference":-28.885904201182168,"geoidElevation":false}}