{"requestParameters":{"date":"2018/04/02","walkSpeed":"1.33","walkReluctance":"2.0","fromPlace":"48.439811,-71.07864399","maxWalkDistance":"3000","waitReluctance":"1.0","carSpeed":"33","numItineraries":"3","waitAtBeginningFactor":"0.4","mode":"TRANSIT,WALK","ignoreRealtimeUpdates":"false","stairsReluctance":"2.0","toPlace":"48.399735,-71.102625","time":"7:8:00"},"plan":{"date":1522667280000,"from":{"name":"Origin","lon":-71.07864399,"lat":48.439811,"orig":"","vertexType":"NORMAL"},"to":{"name":"Destination","lon":-71.102625,"lat":48.399735,"orig":"","vertexType":"NORMAL"},"itineraries":[{"duration":1630,"startTime":1522668890000,"endTime":1522670520000,"walkTime":80,"transitTime":1248,"waitingTime":302,"walkDistance":99.38375187967499,"walkLimitExceeded":false,"elevationLost":0.0,"elevationGained":0.0,"transfers":1,"legs":[{"startTime":1522668890000,"endTime":1522668899000,"departureDelay":0,"arrivalDelay":0,"realTime":false,"distance":10.845,"pathway":false,"mode":"WALK","route":"","agencyTimeZoneOffset":-14400000,"interlineWithPreviousLeg":false,"from":{"name":"Origin","lon":-71.07864399,"lat":48.439811,"departure":1522668890000,"orig":"","vertexType":"NORMAL"},"to":{"name":"Église Sainte-Anne (Roussel / Fabrique)","stopId":"1:701","stopCode":"701","lon":-71.078824,"lat":48.439832,"arrival":1522668899000,"departure":1522668900000,"zoneId":"NA","stopIndex":26,"stopSequence":27,"vertexType":"TRANSIT"},"legGeometry":{"points":"{{sfHlpypLMR","length":2},"rentedBike":false,"transitLeg":false,"duration":9.0,"steps":[{"distance":10.845,"relativeDirection":"DEPART","streetName":"Rue Roussel","absoluteDirection":"NORTHWEST","stayOn":false,"area":false,"bogusName":false,"lon":-71.07862679381552,"lat":48.43982185530306,"elevation":[]}]},{"startTime":1522668900000,"endTime":1522669200000,"departureDelay":0,"arrivalDelay":0,"realTime":false,"distance":2541.017793097814,"pathway":false,"mode":"BUS","route":"20","agencyName":"Société de Transport du Saguenay","agencyUrl":"http://ville.saguenay.ca/fr/services-aux-citoyens/transport-sts","agencyTimeZoneOffset":-14400000,"routeColor":"0000FF","routeType":3,"routeId":"1:20","routeTextColor":"FFFFFF","interlineWithPreviousLeg":false,"tripBlockId":"1","headsign":"Terminus Chicoutimi","agencyId":"0","tripId":"1:217131","serviceDate":"20180402","from":{"name":"Église Sainte-Anne (Roussel / Fabrique)","stopId":"1:701","stopCode":"701","lon":-71.078824,"lat":48.439832,"arrival":1522668899000,"departure":1522668900000,"zoneId":"NA","stopIndex":26,"stopSequence":27,"vertexType":"TRANSIT"},"to":{"name":"Terminus Chicoutimi","stopId":"1:1289","stopCode":"1289","lon":-71.066163,"lat":48.428677,"arrival":1522669200000,"departure":1522669500000,"zoneId":"NA","stopIndex":31,"stopSequence":32,"vertexType":"TRANSIT"},"legGeometry":{"points":"e|sfHdqypL^i@p@kAVc@\\cAr@eBv@aB|B_CJSDKLe@NeAJaAHeBBi@F{AaFe@c@IcDeAWtBOfAERGLIHIFMBa@NOQSOUGOCW?UFMHa@XUHQ?QIQOIM[g@rCmFhHqN~@eBr@cAt@_Av@}@RQPMz@k@tAe@REZG^Af@@X@VF`@Jn@XbClAr@Xt\\`PrAb@pA^hBTjAFj@Pb@JPHLLJNJRFXDT?X?ZEVEVKTMNMHMFOB}DWSGOSYcAN}FFkAF}DJyDPwGj@_QjAN~ALIpBGVITe@@","length":99},"routeShortName":"20","routeLongName":"Sainte-Claire","rentedBike":false,"transitLeg":true,"duration":300.0,"steps":[]},{"startTime":1522669500000,"endTime":1522670448000,"departureDelay":0,"arrivalDelay":0,"realTime":false,"distance":4890.775350185287,"pathway":false,"mode":"BUS","route":"11","agencyName":"Société de Transport du Saguenay","agencyUrl":"http://ville.saguenay.ca/fr/services-aux-citoyens/transport-sts","agencyTimeZoneOffset":-14400000,"routeColor":"FF0000","routeType":3,"routeId":"1:11","routeTextColor":"FFFFFF","interlineWithPreviousLeg":false,"tripBlockId":"35","headsign":"Boul.Royaume/St-Pierre","agencyId":"0","tripId":"1:218244","serviceDate":"20180402","from":{"name":"Terminus Chicoutimi","stopId":"1:1289","stopCode":"1289","lon":-71.066163,"lat":48.428677,"arrival":1522669200000,"departure":1522669500000,"zoneId":"NA","stopIndex":0,"stopSequence":1,"vertexType":"TRANSIT"},"to":{"name":"boul. St-Paul / Actionnaires","stopId":"1:262","stopCode":"262","lon":-71.101542,"lat":48.400192,"arrival":1522670448000,"departure":1522670449000,"zoneId":"NA","stopIndex":18,"stopSequence":19,"vertexType":"TRANSIT"},"legGeometry":{"points":"evqfHzcwpLk@?UhKfIh@dKp@GnDIfDOtEE~@Ff@x@rEF~@CbAALO~ADRNJXBr@DfGRPBPJLN@@FPFTBX?TE`BhBR@?J@NELKFOlAiDL[bA`AfIjIbGdGzDzD`A~An@`ApApBpClEvJrOR\\bAfBLa@t@]LjAVvAVbAVv@^bAXj@b@t@xEtGh@r@n@x@FDjA|AlBpCnJ|NNTX`@V`@eCtHpFjH{FhPcB|Ft@|CEAdCnEdHKrBz@lGiQ|CyI~IrJtAzAmKrWsE`LzJjL|P}d@","length":84},"routeShortName":"11","routeLongName":"Chic/Faubourg via St-Paul","rentedBike":false,"transitLeg":true,"duration":948.0,"steps":[]},{"startTime":1522670449000,"endTime":1522670520000,"departureDelay":0,"arrivalDelay":0,"realTime":false,"distance":88.538,"pathway":false,"mode":"WALK","route":"","agencyTimeZoneOffset":-14400000,"interlineWithPreviousLeg":false,"from":{"name":"boul. St-Paul / Actionnaires","stopId":"1:262","stopCode":"262","lon":-71.101542,"lat":48.400192,"arrival":1522670448000,"departure":1522670449000,"zoneId":"NA","stopIndex":18,"stopSequence":19,"vertexType":"TRANSIT"},"to":{"name":"Destination","lon":-71.102625,"lat":48.399735,"arrival":1522670520000,"orig":"","vertexType":"NORMAL"},"legGeometry":{"points":"wclfHz~}pLd@h@NPPRBDr@v@","length":6},"rentedBike":false,"transitLeg":false,"duration":71.0,"steps":[{"distance":88.538,"relativeDirection":"DEPART","streetName":"Boulevard Saint-Paul","absoluteDirection":"SOUTHWEST","stayOn":false,"area":false,"bogusName":false,"lon":-71.1014117905321,"lat":48.40012934207119,"elevation":[]}]}],"tooSloped":false},{"duration":2600,"startTime":1522669720000,"endTime":1522672320000,"walkTime":1706,"transitTime":892,"waitingTime":2,"walkDistance":2190.5087894667204,"walkLimitExceeded":false,"elevationLost":0.0,"elevationGained":0.0,"transfers":0,"legs":[{"startTime":1522669720000,"endTime":1522671355000,"departureDelay":0,"arrivalDelay":0,"realTime":false,"distance":2101.755,"pathway":false,"mode":"WALK","route":"","agencyTimeZoneOffset":-14400000,"interlineWithPreviousLeg":false,"from":{"name":"Origin","lon":-71.07864399,"lat":48.439811,"departure":1522669720000,"orig":"","vertexType":"NORMAL"},"to":{"name":"Sainte-Anne / Jacques-Cartier","stopId":"1:413","stopCode":"413","lon":-71.068639,"lat":48.427373,"arrival":1522671355000,"departure":1522671356000,"zoneId":"NA","stopIndex":1,"stopSequence":2,"vertexType":"TRANSIT"},"legGeometry":{"points":"{{sfHlpypLNUZ[Vc@DKL]Vo@vAiDXi@HIHM|A}AT[JUJWFQJg@D[Ba@Hw@JuBBW@Q?q@FeB@cA?o@?MAw@Aq@Eo@AI@a@Dg@JmA@QBs@@q@EoACME]IYG]Ge@A[@_@Bi@Fk@h@_DP_BB@DABA@EBE?EvBJZD~@Pb@?DBd@g@VWHFnAQPGLCPtBd]tBD?jABP?HJRBR@hAFdAFZ@rAD|AJf@BF@@?","length":83},"rentedBike":false,"transitLeg":false,"duration":1635.0,"steps":[{"distance":941.4369999999999,"relativeDirection":"DEPART","streetName":"Rue Roussel","absoluteDirection":"SOUTHEAST","stayOn":false,"area":false,"bogusName":false,"lon":-71.07862679381552,"lat":48.43982185530306,"elevation":[]},{"distance":15.767,"relativeDirection":"CIRCLE_COUNTERCLOCKWISE","streetName":"Rue Roussel","absoluteDirection":"SOUTH","exit":"1","stayOn":false,"area":false,"bogusName":false,"lon":-71.0673579,"lat":48.437325900000005,"elevation":[]},{"distance":142.16299999999998,"relativeDirection":"RIGHT","streetName":"Rue du Pont","absoluteDirection":"SOUTH","stayOn":false,"area":false,"bogusName":false,"lon":-71.06725250000001,"lat":48.4372217,"elevation":[]},{"distance":41.536,"relativeDirection":"LEFT","streetName":"link","absoluteDirection":"SOUTHEAST","stayOn":false,"area":false,"bogusName":true,"lon":-71.06745260000001,"lat":48.4359534,"elevation":[]},{"distance":114.291,"relativeDirection":"SLIGHTLY_RIGHT","streetName":"bike path","absoluteDirection":"SOUTH","stayOn":true,"area":false,"bogusName":true,"lon":-71.06713590000001,"lat":48.435644700000005,"elevation":[]},{"distance":542.29,"relativeDirection":"LEFT","streetName":"Pont de Sainte-Anne","absoluteDirection":"SOUTH","stayOn":false,"area":false,"bogusName":false,"lon":-71.0676151,"lat":48.434942,"elevation":[]},{"distance":59.134,"relativeDirection":"CONTINUE","streetName":"path","absoluteDirection":"SOUTH","stayOn":false,"area":false,"bogusName":true,"lon":-71.06820450000001,"lat":48.430080800000006,"elevation":[]},{"distance":245.137,"relativeDirection":"CONTINUE","streetName":"Rue Sainte-Anne","absoluteDirection":"SOUTH","stayOn":false,"area":false,"bogusName":false,"lon":-71.06828730000001,"lat":48.4295678,"elevation":[]}]},{"startTime":1522671356000,"endTime":1522672248000,"departureDelay":0,"arrivalDelay":0,"realTime":false,"distance":4657.5362537188175,"pathway":false,"mode":"BUS","route":"11","agencyName":"Société de Transport du Saguenay","agencyUrl":"http://ville.saguenay.ca/fr/services-aux-citoyens/transport-sts","agencyTimeZoneOffset":-14400000,"routeColor":"FF0000","routeType":3,"routeId":"1:11","routeTextColor":"FFFFFF","interlineWithPreviousLeg":false,"tripBlockId":"37","headsign":"Boul.Royaume/St-Pierre","agencyId":"0","tripId":"1:218306","serviceDate":"20180402","from":{"name":"Sainte-Anne / Jacques-Cartier","stopId":"1:413","stopCode":"413","lon":-71.068639,"lat":48.427373,"arrival":1522671355000,"departure":1522671356000,"zoneId":"NA","stopIndex":1,"stopSequence":2,"vertexType":"TRANSIT"},"to":{"name":"boul. St-Paul / Actionnaires","stopId":"1:262","stopCode":"262","lon":-71.101542,"lat":48.400192,"arrival":1522672248000,"departure":1522672249000,"zoneId":"NA","stopIndex":18,"stopSequence":19,"vertexType":"TRANSIT"},"legGeometry":{"points":"_nqfHnqwpLdKp@GnDIfDOtEE~@Ff@x@rEF~@CbAALO~ADRNJXBr@DfGRPBPJLN@@FPFTBX?TE`BhBR@?J@NELKFOlAiDL[bA`AfIjIbGdGzDzD`A~An@`ApApBpClEvJrOR\\bAfBLa@t@]LjAVvAVbAVv@^bAXj@b@t@xEtGh@r@n@x@FDjA|AlBpCnJ|NNTX`@V`@eCtHpFjH{FhPcB|Ft@|CEAdCnEdHKrBz@lGiQ|CyI~IrJtAzAmKrWsE`LzJjL|P}d@","length":81},"routeShortName":"11","routeLongName":"Chic/Faubourg via St-Paul","rentedBike":false,"transitLeg":true,"duration":892.0,"steps":[]},{"startTime":1522672249000,"endTime":1522672320000,"departureDelay":0,"arrivalDelay":0,"realTime":false,"distance":88.538,"pathway":false,"mode":"WALK","route":"","agencyTimeZoneOffset":-14400000,"interlineWithPreviousLeg":false,"from":{"name":"boul. St-Paul / Actionnaires","stopId":"1:262","stopCode":"262","lon":-71.101542,"lat":48.400192,"arrival":1522672248000,"departure":1522672249000,"zoneId":"NA","stopIndex":18,"stopSequence":19,"vertexType":"TRANSIT"},"to":{"name":"Destination","lon":-71.102625,"lat":48.399735,"arrival":1522672320000,"orig":"","vertexType":"NORMAL"},"legGeometry":{"points":"wclfHz~}pLd@h@NPPRBDr@v@","length":6},"rentedBike":false,"transitLeg":false,"duration":71.0,"steps":[{"distance":88.538,"relativeDirection":"DEPART","streetName":"Boulevard Saint-Paul","absoluteDirection":"SOUTHWEST","stayOn":false,"area":false,"bogusName":false,"lon":-71.1014117905321,"lat":48.40012934207119,"elevation":[]}]}],"tooSloped":false},{"duration":2600,"startTime":1522671520000,"endTime":1522674120000,"walkTime":1706,"transitTime":892,"waitingTime":2,"walkDistance":2190.5087894667204,"walkLimitExceeded":false,"elevationLost":0.0,"elevationGained":0.0,"transfers":0,"legs":[{"startTime":1522671520000,"endTime":1522673155000,"departureDelay":0,"arrivalDelay":0,"realTime":false,"distance":2101.755,"pathway":false,"mode":"WALK","route":"","agencyTimeZoneOffset":-14400000,"interlineWithPreviousLeg":false,"from":{"name":"Origin","lon":-71.07864399,"lat":48.439811,"departure":1522671520000,"orig":"","vertexType":"NORMAL"},"to":{"name":"Sainte-Anne / Jacques-Cartier","stopId":"1:413","stopCode":"413","lon":-71.068639,"lat":48.427373,"arrival":1522673155000,"departure":1522673156000,"zoneId":"NA","stopIndex":1,"stopSequence":2,"vertexType":"TRANSIT"},"legGeometry":{"points":"{{sfHlpypLNUZ[Vc@DKL]Vo@vAiDXi@HIHM|A}AT[JUJWFQJg@D[Ba@Hw@JuBBW@Q?q@FeB@cA?o@?MAw@Aq@Eo@AI@a@Dg@JmA@QBs@@q@EoACME]IYG]Ge@A[@_@Bi@Fk@h@_DP_BB@DABA@EBE?EvBJZD~@Pb@?DBd@g@VWHFnAQPGLCPtBd]tBD?jABP?HJRBR@hAFdAFZ@rAD|AJf@BF@@?","length":83},"rentedBike":false,"transitLeg":false,"duration":1635.0,"steps":[{"distance":941.4369999999999,"relativeDirection":"DEPART","streetName":"Rue Roussel","absoluteDirection":"SOUTHEAST","stayOn":false,"area":false,"bogusName":false,"lon":-71.07862679381552,"lat":48.43982185530306,"elevation":[]},{"distance":15.767,"relativeDirection":"CIRCLE_COUNTERCLOCKWISE","streetName":"Rue Roussel","absoluteDirection":"SOUTH","exit":"1","stayOn":false,"area":false,"bogusName":false,"lon":-71.0673579,"lat":48.437325900000005,"elevation":[]},{"distance":142.16299999999998,"relativeDirection":"RIGHT","streetName":"Rue du Pont","absoluteDirection":"SOUTH","stayOn":false,"area":false,"bogusName":false,"lon":-71.06725250000001,"lat":48.4372217,"elevation":[]},{"distance":41.536,"relativeDirection":"LEFT","streetName":"link","absoluteDirection":"SOUTHEAST","stayOn":false,"area":false,"bogusName":true,"lon":-71.06745260000001,"lat":48.4359534,"elevation":[]},{"distance":114.291,"relativeDirection":"SLIGHTLY_RIGHT","streetName":"bike path","absoluteDirection":"SOUTH","stayOn":true,"area":false,"bogusName":true,"lon":-71.06713590000001,"lat":48.435644700000005,"elevation":[]},{"distance":542.29,"relativeDirection":"LEFT","streetName":"Pont de Sainte-Anne","absoluteDirection":"SOUTH","stayOn":false,"area":false,"bogusName":false,"lon":-71.0676151,"lat":48.434942,"elevation":[]},{"distance":59.134,"relativeDirection":"CONTINUE","streetName":"path","absoluteDirection":"SOUTH","stayOn":false,"area":false,"bogusName":true,"lon":-71.06820450000001,"lat":48.430080800000006,"elevation":[]},{"distance":245.137,"relativeDirection":"CONTINUE","streetName":"Rue Sainte-Anne","absoluteDirection":"SOUTH","stayOn":false,"area":false,"bogusName":false,"lon":-71.06828730000001,"lat":48.4295678,"elevation":[]}]},{"startTime":1522673156000,"endTime":1522674048000,"departureDelay":0,"arrivalDelay":0,"realTime":false,"distance":4657.5362537188175,"pathway":false,"mode":"BUS","route":"11","agencyName":"Société de Transport du Saguenay","agencyUrl":"http://ville.saguenay.ca/fr/services-aux-citoyens/transport-sts","agencyTimeZoneOffset":-14400000,"routeColor":"FF0000","routeType":3,"routeId":"1:11","routeTextColor":"FFFFFF","interlineWithPreviousLeg":false,"tripBlockId":"34","headsign":"Boul.Royaume/St-Pierre","agencyId":"0","tripId":"1:218211","serviceDate":"20180402","from":{"name":"Sainte-Anne / Jacques-Cartier","stopId":"1:413","stopCode":"413","lon":-71.068639,"lat":48.427373,"arrival":1522673155000,"departure":1522673156000,"zoneId":"NA","stopIndex":1,"stopSequence":2,"vertexType":"TRANSIT"},"to":{"name":"boul. St-Paul / Actionnaires","stopId":"1:262","stopCode":"262","lon":-71.101542,"lat":48.400192,"arrival":1522674048000,"departure":1522674049000,"zoneId":"NA","stopIndex":18,"stopSequence":19,"vertexType":"TRANSIT"},"legGeometry":{"points":"_nqfHnqwpLdKp@GnDIfDOtEE~@Ff@x@rEF~@CbAALO~ADRNJXBr@DfGRPBPJLN@@FPFTBX?TE`BhBR@?J@NELKFOlAiDL[bA`AfIjIbGdGzDzD`A~An@`ApApBpClEvJrOR\\bAfBLa@t@]LjAVvAVbAVv@^bAXj@b@t@xEtGh@r@n@x@FDjA|AlBpCnJ|NNTX`@V`@eCtHpFjH{FhPcB|Ft@|CEAdCnEdHKrBz@lGiQ|CyI~IrJtAzAmKrWsE`LzJjL|P}d@","length":81},"routeShortName":"11","routeLongName":"Chic/Faubourg via St-Paul","rentedBike":false,"transitLeg":true,"duration":892.0,"steps":[]},{"startTime":1522674049000,"endTime":1522674120000,"departureDelay":0,"arrivalDelay":0,"realTime":false,"distance":88.538,"pathway":false,"mode":"WALK","route":"","agencyTimeZoneOffset":-14400000,"interlineWithPreviousLeg":false,"from":{"name":"boul. St-Paul / Actionnaires","stopId":"1:262","stopCode":"262","lon":-71.101542,"lat":48.400192,"arrival":1522674048000,"departure":1522674049000,"zoneId":"NA","stopIndex":18,"stopSequence":19,"vertexType":"TRANSIT"},"to":{"name":"Destination","lon":-71.102625,"lat":48.399735,"arrival":1522674120000,"orig":"","vertexType":"NORMAL"},"legGeometry":{"points":"wclfHz~}pLd@h@NPPRBDr@v@","length":6},"rentedBike":false,"transitLeg":false,"duration":71.0,"steps":[{"distance":88.538,"relativeDirection":"DEPART","streetName":"Boulevard Saint-Paul","absoluteDirection":"SOUTHWEST","stayOn":false,"area":false,"bogusName":false,"lon":-71.1014117905321,"lat":48.40012934207119,"elevation":[]}]}],"tooSloped":false}]},"debugOutput":{"precalculationTime":11,"pathCalculationTime":28,"pathTimes":[14,6,8],"renderingTime":0,"totalTime":39,"timedOut":false},"elevationMetadata":{"ellipsoidToGeoidDifference":-28.885904201182168,"geoidElevation":false}}