{"requestParameters":{"date":"2018/04/02","walkSpeed":"1.33","walkReluctance":"2.0","fromPlace":"48.422026,-71.070107","maxWalkDistance":"3000","waitReluctance":"1.0","carSpeed":"33","numItineraries":"3","waitAtBeginningFactor":"0.4","mode":"TRANSIT,WALK","ignoreRealtimeUpdates":"false","stairsReluctance":"2.0","toPlace":"48.425975,-71.04859999","time":"13:30:00"},"plan":{"date":1522690200000,"from":{"name":"Origin","lon":-71.070107,"lat":48.422026,"orig":"","vertexType":"NORMAL"},"to":{"name":"Destination","lon":-71.04859999,"lat":48.425975,"orig":"","vertexType":"NORMAL"},"itineraries":[{"duration":1238,"startTime":1522690399000,"endTime":1522691637000,"walkTime":936,"transitTime":300,"waitingTime":2,"walkDistance":1187.9353533756707,"walkLimitExceeded":false,"elevationLost":0.0,"elevationGained":0.0,"transfers":0,"legs":[{"startTime":1522690399000,"endTime":1522691099000,"departureDelay":0,"arrivalDelay":0,"realTime":false,"distance":901.3359999999999,"pathway":false,"mode":"WALK","route":"","agencyTimeZoneOffset":-14400000,"interlineWithPreviousLeg":false,"from":{"name":"Origin","lon":-71.070107,"lat":48.422026,"departure":1522690399000,"orig":"","vertexType":"NORMAL"},"to":{"name":"Terminus Chicoutimi","stopId":"1:1289","stopCode":"1289","lon":-71.066163,"lat":48.428677,"arrival":1522691099000,"departure":1522691100000,"zoneId":"NA","stopIndex":0,"stopSequence":1,"vertexType":"TRANSIT"},"legGeometry":{"points":"{mpfH`{wpLH}DyAGe@C{BOm@Ec@o@MMi@oAaBuDg@eAo@qBk@g@Ao@QG_@C{BUsAGkCQQAsBIc@MKESAcAK","length":25},"rentedBike":false,"transitLeg":false,"duration":700.0,"steps":[{"distance":70.46,"relativeDirection":"DEPART","streetName":"Rue Saint-Vincent","absoluteDirection":"EAST","stayOn":false,"area":false,"bogusName":false,"lon":-71.07008626242092,"lat":48.42222084560277,"elevation":[]},{"distance":166.284,"relativeDirection":"LEFT","streetName":"Rue Sainte-Anne","absoluteDirection":"NORTH","stayOn":false,"area":false,"bogusName":false,"lon":-71.0691338,"lat":48.4221762,"elevation":[]},{"distance":272.594,"relativeDirection":"SLIGHTLY_RIGHT","streetName":"path","absoluteDirection":"NORTHEAST","stayOn":false,"area":false,"bogusName":true,"lon":-71.06896330000001,"lat":48.423667200000004,"elevation":[]},{"distance":17.515,"relativeDirection":"RIGHT","streetName":"Rue Price Est","absoluteDirection":"EAST","stayOn":false,"area":false,"bogusName":false,"lon":-71.0662212,"lat":48.425276600000004,"elevation":[]},{"distance":374.483,"relativeDirection":"LEFT","streetName":"Rue Morin","absoluteDirection":"NORTH","stayOn":false,"area":false,"bogusName":false,"lon":-71.06598410000001,"lat":48.4252842,"elevation":[]}]},{"startTime":1522691100000,"endTime":1522691400000,"departureDelay":0,"arrivalDelay":0,"realTime":false,"distance":1242.678141622333,"pathway":false,"mode":"BUS","route":"10","agencyName":"Société de Transport du Saguenay","agencyUrl":"http://ville.saguenay.ca/fr/services-aux-citoyens/transport-sts","agencyTimeZoneOffset":-14400000,"routeColor":"0000FF","routeType":3,"routeId":"1:10","routeTextColor":"FFFFFF","interlineWithPreviousLeg":false,"tripBlockId":"26","headsign":"Terminus UQAC","agencyId":"0","tripId":"1:217978","serviceDate":"20180402","from":{"name":"Terminus Chicoutimi","stopId":"1:1289","stopCode":"1289","lon":-71.066163,"lat":48.428677,"arrival":1522691099000,"departure":1522691100000,"zoneId":"NA","stopIndex":0,"stopSequence":1,"vertexType":"TRANSIT"},"to":{"name":"Hôpital de Chicoutimi (Saint-Vallier)","stopId":"1:342","stopCode":"342","lon":-71.050416,"lat":48.426429,"arrival":1522691400000,"departure":1522691401000,"zoneId":"NA","stopIndex":6,"stopSequence":7,"vertexType":"TRANSIT"},"legGeometry":{"points":"svqfHnbwpLDmCdDZ\\kO`@mQBuCD}DQ_ECk@^Cd@QWkL?m@IuF@gA?eH?cAEuEDO^AjD`@","length":21},"routeShortName":"10","routeLongName":"Notre-Dame du Saguenay","rentedBike":false,"transitLeg":true,"duration":300.0,"steps":[]},{"startTime":1522691401000,"endTime":1522691637000,"departureDelay":0,"arrivalDelay":0,"realTime":false,"distance":286.358,"pathway":false,"mode":"WALK","route":"","agencyTimeZoneOffset":-14400000,"interlineWithPreviousLeg":false,"from":{"name":"Hôpital de Chicoutimi (Saint-Vallier)","stopId":"1:342","stopCode":"342","lon":-71.050416,"lat":48.426429,"arrival":1522691400000,"departure":1522691401000,"zoneId":"NA","stopIndex":6,"stopSequence":7,"vertexType":"TRANSIT"},"to":{"name":"Destination","lon":-71.04859999,"lat":48.425975,"arrival":1522691637000,"orig":"","vertexType":"NORMAL"},"legGeometry":{"points":"ahqfHd_tpLF?J_@F?^DhBZP?FOBg@BoADy@D{@AWAUm@kBIFG@EG","length":18},"rentedBike":false,"transitLeg":false,"duration":236.0,"steps":[{"distance":5.013,"relativeDirection":"DEPART","streetName":"Rue Saint-Vallier","absoluteDirection":"SOUTH","stayOn":false,"area":false,"bogusName":false,"lon":-71.05026027647143,"lat":48.426416552989835,"elevation":[]},{"distance":13.926,"relativeDirection":"LEFT","streetName":"path","absoluteDirection":"SOUTHEAST","stayOn":false,"area":false,"bogusName":true,"lon":-71.05026840000001,"lat":48.426371800000005,"elevation":[]},{"distance":99.413,"relativeDirection":"RIGHT","streetName":"service road","absoluteDirection":"SOUTH","stayOn":true,"area":false,"bogusName":true,"lon":-71.0501005,"lat":48.426314600000005,"elevation":[]},{"distance":168.006,"relativeDirection":"LEFT","streetName":"service road","absoluteDirection":"EAST","stayOn":true,"area":false,"bogusName":true,"lon":-71.05019700000001,"lat":48.425456700000005,"elevation":[]}]}],"tooSloped":false},{"duration":1238,"startTime":1522690399000,"endTime":1522691637000,"walkTime":936,"transitTime":300,"waitingTime":2,"walkDistance":1187.9353533756707,"walkLimitExceeded":false,"elevationLost":0.0,"elevationGained":0.0,"transfers":0,"legs":[{"startTime":1522690399000,"endTime":1522691099000,"departureDelay":0,"arrivalDelay":0,"realTime":false,"distance":901.3359999999999,"pathway":false,"mode":"WALK","route":"","agencyTimeZoneOffset":-14400000,"interlineWithPreviousLeg":false,"from":{"name":"Origin","lon":-71.070107,"lat":48.422026,"departure":1522690399000,"orig":"","vertexType":"NORMAL"},"to":{"name":"Terminus Chicoutimi","stopId":"1:1289","stopCode":"1289","lon":-71.066163,"lat":48.428677,"arrival":1522691099000,"departure":1522691100000,"zoneId":"NA","stopIndex":0,"stopSequence":1,"vertexType":"TRANSIT"},"legGeometry":{"points":"{mpfH`{wpLH}DyAGe@C{BOm@Ec@o@MMi@oAaBuDg@eAo@qBk@g@Ao@QG_@C{BUsAGkCQQAsBIc@MKESAcAK","length":25},"rentedBike":false,"transitLeg":false,"duration":700.0,"steps":[{"distance":70.46,"relativeDirection":"DEPART","streetName":"Rue Saint-Vincent","absoluteDirection":"EAST","stayOn":false,"area":false,"bogusName":false,"lon":-71.07008626242092,"lat":48.42222084560277,"elevation":[]},{"distance":166.284,"relativeDirection":"LEFT","streetName":"Rue Sainte-Anne","absoluteDirection":"NORTH","stayOn":false,"area":false,"bogusName":false,"lon":-71.0691338,"lat":48.4221762,"elevation":[]},{"distance":272.594,"relativeDirection":"SLIGHTLY_RIGHT","streetName":"path","absoluteDirection":"NORTHEAST","stayOn":false,"area":false,"bogusName":true,"lon":-71.06896330000001,"lat":48.423667200000004,"elevation":[]},{"distance":17.515,"relativeDirection":"RIGHT","streetName":"Rue Price Est","absoluteDirection":"EAST","stayOn":false,"area":false,"bogusName":false,"lon":-71.0662212,"lat":48.425276600000004,"elevation":[]},{"distance":374.483,"relativeDirection":"LEFT","streetName":"Rue Morin","absoluteDirection":"NORTH","stayOn":false,"area":false,"bogusName":false,"lon":-71.06598410000001,"lat":48.4252842,"elevation":[]}]},{"startTime":1522691100000,"endTime":1522691400000,"departureDelay":0,"arrivalDelay":0,"realTime":false,"distance":1242.678141622333,"pathway":false,"mode":"BUS","route":"175","agencyName":"Société de Transport du Saguenay","agencyUrl":"http://ville.saguenay.ca/fr/services-aux-citoyens/transport-sts","agencyTimeZoneOffset":-14400000,"routeColor":"FF00FF","routeType":3,"routeId":"1:175","routeTextColor":"FFFFFF","interlineWithPreviousLeg":false,"tripBlockId":"8","headsign":"Costco","agencyId":"0","tripId":"1:217371","serviceDate":"20180402","from":{"name":"Terminus Chicoutimi","stopId":"1:1289","stopCode":"1289","lon":-71.066163,"lat":48.428677,"arrival":1522691099000,"departure":1522691100000,"zoneId":"NA","stopIndex":0,"stopSequence":1,"vertexType":"TRANSIT"},"to":{"name":"Hôpital de Chicoutimi (Saint-Vallier)","stopId":"1:342","stopCode":"342","lon":-71.050416,"lat":48.426429,"arrival":1522691400000,"departure":1522691401000,"zoneId":"NA","stopIndex":6,"stopSequence":7,"vertexType":"TRANSIT"},"legGeometry":{"points":"kvqfH~awpL~CgBbAqa@FwCBkAOsHAg@bAYUwMKoE@mB@kJ@iFbEf@","length":14},"routeShortName":"175","routeLongName":"Term. Chic / Costco","rentedBike":false,"transitLeg":true,"duration":300.0,"steps":[]},{"startTime":1522691401000,"endTime":1522691637000,"departureDelay":0,"arrivalDelay":0,"realTime":false,"distance":286.358,"pathway":false,"mode":"WALK","route":"","agencyTimeZoneOffset":-14400000,"interlineWithPreviousLeg":false,"from":{"name":"Hôpital de Chicoutimi (Saint-Vallier)","stopId":"1:342","stopCode":"342","lon":-71.050416,"lat":48.426429,"arrival":1522691400000,"departure":1522691401000,"zoneId":"NA","stopIndex":6,"stopSequence":7,"vertexType":"TRANSIT"},"to":{"name":"Destination","lon":-71.04859999,"lat":48.425975,"arrival":1522691637000,"orig":"","vertexType":"NORMAL"},"legGeometry":{"points":"ahqfHd_tpLF?J_@F?^DhBZP?FOBg@BoADy@D{@AWAUm@kBIFG@EG","length":18},"rentedBike":false,"transitLeg":false,"duration":236.0,"steps":[{"distance":5.013,"relativeDirection":"DEPART","streetName":"Rue Saint-Vallier","absoluteDirection":"SOUTH","stayOn":false,"area":false,"bogusName":false,"lon":-71.05026027647143,"lat":48.426416552989835,"elevation":[]},{"distance":13.926,"relativeDirection":"LEFT","streetName":"path","absoluteDirection":"SOUTHEAST","stayOn":false,"area":false,"bogusName":true,"lon":-71.05026840000001,"lat":48.426371800000005,"elevation":[]},{"distance":99.413,"relativeDirection":"RIGHT","streetName":"service road","absoluteDirection":"SOUTH","stayOn":true,"area":false,"bogusName":true,"lon":-71.0501005,"lat":48.426314600000005,"elevation":[]},{"distance":168.006,"relativeDirection":"LEFT","streetName":"service road","absoluteDirection":"EAST","stayOn":true,"area":false,"bogusName":true,"lon":-71.05019700000001,"lat":48.425456700000005,"elevation":[]}]}],"tooSloped":false},{"duration":1505,"startTime":1522690200000,"endTime":1522691705000,"walkTime":1505,"transitTime":0,"waitingTime":0,"walkDistance":1928.6708420976206,"walkLimitExceeded":false,"elevationLost":0.0,"elevationGained":0.0,"transfers":0,"legs":[{"startTime":1522690200000,"endTime":1522691705000,"departureDelay":0,"arrivalDelay":0,"realTime":false,"distance":1928.4339999999995,"pathway":false,"mode":"WALK","route":"","agencyTimeZoneOffset":-14400000,"interlineWithPreviousLeg":false,"from":{"name":"Origin","lon":-71.070107,"lat":48.422026,"departure":1522690200000,"orig":"","vertexType":"NORMAL"},"to":{"name":"Destination","lon":-71.04859999,"lat":48.425975,"arrival":1522691705000,"orig":"","vertexType":"NORMAL"},"legGeometry":{"points":"{mpfH`{wpLH}DyAGe@C{BOm@Ec@o@MMi@oAaBuDg@eAo@qBk@g@Ao@QGWo@Wo@u@kBcAyBs@qB@WBe@DwB?S@YBeABgB?o@B_D?U@}@?]@SHqEBgB?a@@U?W?KH}DN{H@c@PyADSRw@BI\\iAJc@@GNgB@g@FyAHuBXoHUcABg@BoADy@D{@AWAUm@kBIFG@EG","length":65},"rentedBike":false,"transitLeg":false,"duration":1505.0,"steps":[{"distance":70.46,"relativeDirection":"DEPART","streetName":"Rue Saint-Vincent","absoluteDirection":"EAST","stayOn":false,"area":false,"bogusName":false,"lon":-71.07008626242092,"lat":48.42222084560277,"elevation":[]},{"distance":166.284,"relativeDirection":"LEFT","streetName":"Rue Sainte-Anne","absoluteDirection":"NORTH","stayOn":false,"area":false,"bogusName":false,"lon":-71.0691338,"lat":48.4221762,"elevation":[]},{"distance":272.594,"relativeDirection":"SLIGHTLY_RIGHT","streetName":"path","absoluteDirection":"NORTHEAST","stayOn":false,"area":false,"bogusName":true,"lon":-71.06896330000001,"lat":48.423667200000004,"elevation":[]},{"distance":17.515,"relativeDirection":"RIGHT","streetName":"Rue Price Est","absoluteDirection":"EAST","stayOn":false,"area":false,"bogusName":false,"lon":-71.0662212,"lat":48.425276600000004,"elevation":[]},{"distance":10.208,"relativeDirection":"LEFT","streetName":"Rue Morin","absoluteDirection":"NORTH","stayOn":false,"area":false,"bogusName":false,"lon":-71.06598410000001,"lat":48.4252842,"elevation":[]},{"distance":204.015,"relativeDirection":"SLIGHTLY_RIGHT","streetName":"path","absoluteDirection":"NORTHEAST","stayOn":false,"area":false,"bogusName":true,"lon":-71.0659473,"lat":48.425372700000004,"elevation":[]},{"distance":991.302,"relativeDirection":"RIGHT","streetName":"Rue Jacques-Cartier Est","absoluteDirection":"EAST","stayOn":false,"area":false,"bogusName":false,"lon":-71.0637497,"lat":48.426484800000004,"elevation":[]},{"distance":180.966,"relativeDirection":"SLIGHTLY_LEFT","streetName":"path","absoluteDirection":"NORTHEAST","stayOn":false,"area":false,"bogusName":true,"lon":-71.0505352,"lat":48.4253415,"elevation":[]},{"distance":15.09,"relativeDirection":"LEFT","streetName":"service road","absoluteDirection":"NORTH","stayOn":false,"area":false,"bogusName":false,"lon":-71.04823900000001,"lat":48.425606200000004,"elevation":[]}]}],"tooSloped":false}]},"debugOutput":{"precalculationTime":32,"pathCalculationTime":31,"pathTimes":[20,6,5],"renderingTime":1,"totalTime":64,"timedOut":false},"elevationMetadata":{"ellipsoidToGeoidDifference":-28.885904201182168,"geoidElevation":false}}