{"requestParameters":{"date":"2018/04/02","walkSpeed":"1.33","walkReluctance":"2.0","fromPlace":"48.420855,-71.071557","maxWalkDistance":"3000","waitReluctance":"1.0","carSpeed":"33","numItineraries":"3","waitAtBeginningFactor":"0.4","mode":"TRANSIT,WALK","ignoreRealtimeUpdates":"false","stairsReluctance":"2.0","toPlace":"48.414589,-71.066295","time":"19:0:00"},"plan":{"date":1522710000000,"from":{"name":"Origin","lon":-71.071557,"lat":48.420855,"orig":"","vertexType":"NORMAL"},"to":{"name":"Destination","lon":-71.066295,"lat":48.414589,"orig":"","vertexType":"NORMAL"},"itineraries":[{"duration":820,"startTime":1522710000000,"endTime":1522710820000,"walkTime":820,"transitTime":0,"waitingTime":0,"walkDistance":1058.5750375902728,"walkLimitExceeded":false,"elevationLost":0.0,"elevationGained":0.0,"transfers":0,"legs":[{"startTime":1522710000000,"endTime":1522710820000,"departureDelay":0,"arrivalDelay":0,"realTime":false,"distance":1058.4599999999998,"pathway":false,"mode":"WALK","route":"","agencyTimeZoneOffset":-14400000,"interlineWithPreviousLeg":false,"from":{"name":"Origin","lon":-71.071557,"lat":48.420855,"departure":1522710000000,"orig":"","vertexType":"NORMAL"},"to":{"name":"Destination","lon":-71.066295,"lat":48.414589,"arrival":1522710820000,"orig":"","vertexType":"NORMAL"},"legGeometry":{"points":"}epfHddxpLT_MfCPRB\\EhBNd@Cz@AXKx@WFC\\E^Kn@MXy@d@oBn@oB\\y@dAUt@yBdAwCFSjAeDLNrCpCFFBBv@v@PP","length":29},"rentedBike":false,"transitLeg":false,"duration":820.0,"steps":[{"distance":165.858,"relativeDirection":"DEPART","streetName":"Rue William Ouest","absoluteDirection":"EAST","stayOn":false,"area":false,"bogusName":false,"lon":-71.07154642139082,"lat":48.42095227373049,"elevation":[]},{"distance":232.721,"relativeDirection":"RIGHT","streetName":"Rue Sainte-Anne","absoluteDirection":"SOUTH","stayOn":false,"area":false,"bogusName":false,"lon":-71.0693047,"lat":48.420844900000006,"elevation":[]},{"distance":100.197,"relativeDirection":"CONTINUE","streetName":"Rue Jolliet","absoluteDirection":"SOUTH","stayOn":false,"area":false,"bogusName":false,"lon":-71.0693796,"lat":48.418765,"elevation":[]},{"distance":188.869,"relativeDirection":"LEFT","streetName":"path","absoluteDirection":"SOUTHEAST","stayOn":false,"area":false,"bogusName":true,"lon":-71.069079,"lat":48.417887500000006,"elevation":[]},{"distance":205.419,"relativeDirection":"LEFT","streetName":"Rue Dubé","absoluteDirection":"SOUTHEAST","stayOn":false,"area":false,"bogusName":false,"lon":-71.0672681,"lat":48.416826400000005,"elevation":[]},{"distance":165.396,"relativeDirection":"RIGHT","streetName":"Rue Bégin","absoluteDirection":"SOUTHWEST","stayOn":false,"area":false,"bogusName":false,"lon":-71.06496530000001,"lat":48.4157887,"elevation":[]}]}],"tooSloped":false},{"duration":823,"startTime":1522710792000,"endTime":1522711615000,"walkTime":780,"transitTime":41,"waitingTime":2,"walkDistance":1002.4372706715847,"walkLimitExceeded":false,"elevationLost":0.0,"elevationGained":0.0,"transfers":0,"legs":[{"startTime":1522710792000,"endTime":1522711534000,"departureDelay":0,"arrivalDelay":0,"realTime":false,"distance":953.242,"pathway":false,"mode":"WALK","route":"","agencyTimeZoneOffset":-14400000,"interlineWithPreviousLeg":false,"from":{"name":"Origin","lon":-71.071557,"lat":48.420855,"departure":1522710792000,"orig":"","vertexType":"NORMAL"},"to":{"name":"Bégin (no. 825)","stopId":"1:2005","stopCode":"2005","lon":-71.064205,"lat":48.41684,"arrival":1522711534000,"departure":1522711535000,"zoneId":"NA","stopIndex":10,"stopSequence":11,"vertexType":"TRANSIT"},"legGeometry":{"points":"}epfHddxpLT_MfCPRB\\EhBNd@Cz@AXKx@WFC\\E^Kn@MXy@d@oBQEK]Mq@C_BQWQKUEP]Jg@?[@gABk@Hy@p@gAlAiBzA_B","length":32},"rentedBike":false,"transitLeg":false,"duration":742.0,"steps":[{"distance":165.858,"relativeDirection":"DEPART","streetName":"Rue William Ouest","absoluteDirection":"EAST","stayOn":false,"area":false,"bogusName":false,"lon":-71.07154642139082,"lat":48.42095227373049,"elevation":[]},{"distance":232.721,"relativeDirection":"RIGHT","streetName":"Rue Sainte-Anne","absoluteDirection":"SOUTH","stayOn":false,"area":false,"bogusName":false,"lon":-71.0693047,"lat":48.420844900000006,"elevation":[]},{"distance":100.197,"relativeDirection":"CONTINUE","streetName":"Rue Jolliet","absoluteDirection":"SOUTH","stayOn":false,"area":false,"bogusName":false,"lon":-71.0693796,"lat":48.418765,"elevation":[]},{"distance":454.466,"relativeDirection":"LEFT","streetName":"path","absoluteDirection":"SOUTHEAST","stayOn":false,"area":false,"bogusName":true,"lon":-71.069079,"lat":48.417887500000006,"elevation":[]}]},{"startTime":1522711535000,"endTime":1522711576000,"departureDelay":0,"arrivalDelay":0,"realTime":false,"distance":244.83935870228817,"pathway":false,"mode":"BUS","route":"15","agencyName":"Société de Transport du Saguenay","agencyUrl":"http://ville.saguenay.ca/fr/services-aux-citoyens/transport-sts","agencyTimeZoneOffset":-14400000,"routeColor":"FF00FF","routeType":3,"routeId":"1:15","routeTextColor":"FFFFFF","interlineWithPreviousLeg":false,"tripBlockId":"33","headsign":"Talbot / Barrette","agencyId":"0","tripId":"1:218197","serviceDate":"20180402","from":{"name":"Bégin (no. 825)","stopId":"1:2005","stopCode":"2005","lon":-71.064205,"lat":48.41684,"arrival":1522711534000,"departure":1522711535000,"zoneId":"NA","stopIndex":10,"stopSequence":11,"vertexType":"TRANSIT"},"to":{"name":"Bégin / Youville","stopId":"1:2004","stopCode":"2004","lon":-71.066018,"lat":48.414996,"arrival":1522711576000,"departure":1522711577000,"zoneId":"NA","stopIndex":11,"stopSequence":12,"vertexType":"TRANSIT"},"legGeometry":{"points":"okofHvtvpLlJpJ","length":2},"routeShortName":"15","routeLongName":"Term. Chic / Costco","rentedBike":false,"transitLeg":true,"duration":41.0,"steps":[]},{"startTime":1522711577000,"endTime":1522711615000,"departureDelay":0,"arrivalDelay":0,"realTime":false,"distance":49.037,"pathway":false,"mode":"WALK","route":"","agencyTimeZoneOffset":-14400000,"interlineWithPreviousLeg":false,"from":{"name":"Bégin / Youville","stopId":"1:2004","stopCode":"2004","lon":-71.066018,"lat":48.414996,"arrival":1522711576000,"departure":1522711577000,"zoneId":"NA","stopIndex":11,"stopSequence":12,"vertexType":"TRANSIT"},"to":{"name":"Destination","lon":-71.066295,"lat":48.414589,"arrival":1522711615000,"orig":"","vertexType":"NORMAL"},"legGeometry":{"points":"e`ofHn`wpLv@v@PP","length":3},"rentedBike":false,"transitLeg":false,"duration":38.0,"steps":[{"distance":49.037,"relativeDirection":"DEPART","streetName":"Rue Bégin","absoluteDirection":"SOUTHWEST","stayOn":false,"area":false,"bogusName":false,"lon":-71.06583413783413,"lat":48.4149155049481,"elevation":[]}]}],"tooSloped":false}]},"debugOutput":{"precalculationTime":45,"pathCalculationTime":34,"pathTimes":[15,6,13],"renderingTime":1,"totalTime":80,"timedOut":false},"elevationMetadata":{"ellipsoidToGeoidDifference":-28.885904201182168,"geoidElevation":false}}