{"requestParameters":{"date":"2018/04/02","walkSpeed":"1.33","walkReluctance":"2.0","fromPlace":"48.420772,-71.07085","maxWalkDistance":"3000","waitReluctance":"1.0","carSpeed":"33","numItineraries":"3","waitAtBeginningFactor":"0.4","mode":"TRANSIT,WALK","ignoreRealtimeUpdates":"false","stairsReluctance":"2.0","toPlace":"48.396315,-71.10682699","time":"7:50:00"},"plan":{"date":1522669800000,"from":{"name":"Origin","lon":-71.07085,"lat":48.420772,"orig":"","vertexType":"NORMAL"},"to":{"name":"Destination","lon":-71.10682699,"lat":48.396315,"orig":"","vertexType":"NORMAL"},"itineraries":[{"duration":1093,"startTime":1522671219000,"endTime":1522672312000,"walkTime":329,"transitTime":762,"waitingTime":2,"walkDistance":396.65341352688375,"walkLimitExceeded":false,"elevationLost":0.0,"elevationGained":0.0,"transfers":0,"legs":[{"startTime":1522671219000,"endTime":1522671546000,"departureDelay":0,"arrivalDelay":0,"realTime":false,"distance":393.91200000000003,"pathway":false,"mode":"WALK","route":"","agencyTimeZoneOffset":-14400000,"interlineWithPreviousLeg":false,"from":{"name":"Origin","lon":-71.07085,"lat":48.420772,"departure":1522671219000,"orig":"","vertexType":"NORMAL"},"to":{"name":"Saint-Paul / Dubuc","stopId":"1:420","stopCode":"420","lon":-71.075186,"lat":48.421664,"arrival":1522671546000,"departure":1522671547000,"zoneId":"NA","stopIndex":7,"stopSequence":8,"vertexType":"TRANSIT"},"legGeometry":{"points":"uepfHv_xpLMfGSAAb@QjHLF^BDR?LAJAHCFEBGBGDQ`@Yp@g@|AUW","length":19},"rentedBike":false,"transitLeg":false,"duration":327.0,"steps":[{"distance":97.847,"relativeDirection":"DEPART","streetName":"Rue William Ouest","absoluteDirection":"WEST","stayOn":false,"area":false,"bogusName":false,"lon":-71.07083410552613,"lat":48.420918155301685,"elevation":[]},{"distance":11.534,"relativeDirection":"RIGHT","streetName":"Rue Audet","absoluteDirection":"NORTH","stayOn":false,"area":false,"bogusName":false,"lon":-71.0721566,"lat":48.4209815,"elevation":[]},{"distance":124.437,"relativeDirection":"LEFT","streetName":"Rue Saint-Charles","absoluteDirection":"WEST","stayOn":false,"area":false,"bogusName":false,"lon":-71.0721424,"lat":48.4210848,"elevation":[]},{"distance":26.394,"relativeDirection":"LEFT","streetName":"Rue Saint-Joseph","absoluteDirection":"SOUTH","stayOn":false,"area":false,"bogusName":false,"lon":-71.0738219,"lat":48.421185,"elevation":[]},{"distance":78.343,"relativeDirection":"RIGHT","streetName":"path","absoluteDirection":"WEST","stayOn":false,"area":false,"bogusName":true,"lon":-71.07388590000001,"lat":48.420954200000004,"elevation":[]},{"distance":40.771,"relativeDirection":"CONTINUE","streetName":"Rue Dubuc","absoluteDirection":"NORTHWEST","stayOn":false,"area":false,"bogusName":false,"lon":-71.07469880000001,"lat":48.4212916,"elevation":[]},{"distance":14.586,"relativeDirection":"RIGHT","streetName":"Rue Saint-Paul","absoluteDirection":"NORTHEAST","stayOn":false,"area":false,"bogusName":false,"lon":-71.0751601,"lat":48.4214934,"elevation":[]}]},{"startTime":1522671547000,"endTime":1522672309000,"departureDelay":0,"arrivalDelay":0,"realTime":false,"distance":4256.735478065271,"pathway":false,"mode":"BUS","route":"11","agencyName":"Société de Transport du Saguenay","agencyUrl":"http://ville.saguenay.ca/fr/services-aux-citoyens/transport-sts","agencyTimeZoneOffset":-14400000,"routeColor":"FF0000","routeType":3,"routeId":"1:11","routeTextColor":"FFFFFF","interlineWithPreviousLeg":false,"tripBlockId":"37","headsign":"Boul.Royaume/St-Pierre","agencyId":"0","tripId":"1:218306","serviceDate":"20180402","from":{"name":"Saint-Paul / Dubuc","stopId":"1:420","stopCode":"420","lon":-71.075186,"lat":48.421664,"arrival":1522671546000,"departure":1522671547000,"zoneId":"NA","stopIndex":7,"stopSequence":8,"vertexType":"TRANSIT"},"to":{"name":"Manic / boul. St-Paul","stopId":"1:94","stopCode":"94","lon":-71.107116,"lat":48.396082,"arrival":1522672309000,"departure":1522672310000,"zoneId":"NA","stopIndex":20,"stopSequence":21,"vertexType":"TRANSIT"},"legGeometry":{"points":"ajpfHfzxpLfIjIbGdGzDzD`A~An@`ApApBpClEvJrOR\\bAfBLa@t@]LjAVvAVbAVv@^bAXj@b@t@xEtGh@r@n@x@FDjA|AlBpCnJ|NNTX`@V`@eCtHpFjH{FhPcB|Ft@|CEAdCnEdHKrBz@lGiQ|CyI~IrJtAzAmKrWsE`LzJjL|P}d@Ri@hCpEpBdCHJzPrR_AhC","length":53},"routeShortName":"11","routeLongName":"Chic/Faubourg via St-Paul","rentedBike":false,"transitLeg":true,"duration":762.0,"steps":[]},{"startTime":1522672310000,"endTime":1522672312000,"departureDelay":0,"arrivalDelay":0,"realTime":false,"distance":2.526,"pathway":false,"mode":"WALK","route":"","agencyTimeZoneOffset":-14400000,"interlineWithPreviousLeg":false,"from":{"name":"Manic / boul. St-Paul","stopId":"1:94","stopCode":"94","lon":-71.107116,"lat":48.396082,"arrival":1522672309000,"departure":1522672310000,"zoneId":"NA","stopIndex":20,"stopSequence":21,"vertexType":"TRANSIT"},"to":{"name":"Destination","lon":-71.10682699,"lat":48.396315,"arrival":1522672312000,"orig":"","vertexType":"NORMAL"},"legGeometry":{"points":"ijkfHtb_qLBE","length":2},"rentedBike":false,"transitLeg":false,"duration":2.0,"steps":[{"distance":2.526,"relativeDirection":"DEPART","streetName":"Rue de la Manic","absoluteDirection":"SOUTHEAST","stayOn":false,"area":false,"bogusName":false,"lon":-71.10714766635498,"lat":48.396052147581,"elevation":[]}]}],"tooSloped":false},{"duration":1093,"startTime":1522673019000,"endTime":1522674112000,"walkTime":329,"transitTime":762,"waitingTime":2,"walkDistance":396.65341352688375,"walkLimitExceeded":false,"elevationLost":0.0,"elevationGained":0.0,"transfers":0,"legs":[{"startTime":1522673019000,"endTime":1522673346000,"departureDelay":0,"arrivalDelay":0,"realTime":false,"distance":393.91200000000003,"pathway":false,"mode":"WALK","route":"","agencyTimeZoneOffset":-14400000,"interlineWithPreviousLeg":false,"from":{"name":"Origin","lon":-71.07085,"lat":48.420772,"departure":1522673019000,"orig":"","vertexType":"NORMAL"},"to":{"name":"Saint-Paul / Dubuc","stopId":"1:420","stopCode":"420","lon":-71.075186,"lat":48.421664,"arrival":1522673346000,"departure":1522673347000,"zoneId":"NA","stopIndex":7,"stopSequence":8,"vertexType":"TRANSIT"},"legGeometry":{"points":"uepfHv_xpLMfGSAAb@QjHLF^BDR?LAJAHCFEBGBGDQ`@Yp@g@|AUW","length":19},"rentedBike":false,"transitLeg":false,"duration":327.0,"steps":[{"distance":97.847,"relativeDirection":"DEPART","streetName":"Rue William Ouest","absoluteDirection":"WEST","stayOn":false,"area":false,"bogusName":false,"lon":-71.07083410552613,"lat":48.420918155301685,"elevation":[]},{"distance":11.534,"relativeDirection":"RIGHT","streetName":"Rue Audet","absoluteDirection":"NORTH","stayOn":false,"area":false,"bogusName":false,"lon":-71.0721566,"lat":48.4209815,"elevation":[]},{"distance":124.437,"relativeDirection":"LEFT","streetName":"Rue Saint-Charles","absoluteDirection":"WEST","stayOn":false,"area":false,"bogusName":false,"lon":-71.0721424,"lat":48.4210848,"elevation":[]},{"distance":26.394,"relativeDirection":"LEFT","streetName":"Rue Saint-Joseph","absoluteDirection":"SOUTH","stayOn":false,"area":false,"bogusName":false,"lon":-71.0738219,"lat":48.421185,"elevation":[]},{"distance":78.343,"relativeDirection":"RIGHT","streetName":"path","absoluteDirection":"WEST","stayOn":false,"area":false,"bogusName":true,"lon":-71.07388590000001,"lat":48.420954200000004,"elevation":[]},{"distance":40.771,"relativeDirection":"CONTINUE","streetName":"Rue Dubuc","absoluteDirection":"NORTHWEST","stayOn":false,"area":false,"bogusName":false,"lon":-71.07469880000001,"lat":48.4212916,"elevation":[]},{"distance":14.586,"relativeDirection":"RIGHT","streetName":"Rue Saint-Paul","absoluteDirection":"NORTHEAST","stayOn":false,"area":false,"bogusName":false,"lon":-71.0751601,"lat":48.4214934,"elevation":[]}]},{"startTime":1522673347000,"endTime":1522674109000,"departureDelay":0,"arrivalDelay":0,"realTime":false,"distance":4256.735478065271,"pathway":false,"mode":"BUS","route":"11","agencyName":"Société de Transport du Saguenay","agencyUrl":"http://ville.saguenay.ca/fr/services-aux-citoyens/transport-sts","agencyTimeZoneOffset":-14400000,"routeColor":"FF0000","routeType":3,"routeId":"1:11","routeTextColor":"FFFFFF","interlineWithPreviousLeg":false,"tripBlockId":"34","headsign":"Boul.Royaume/St-Pierre","agencyId":"0","tripId":"1:218211","serviceDate":"20180402","from":{"name":"Saint-Paul / Dubuc","stopId":"1:420","stopCode":"420","lon":-71.075186,"lat":48.421664,"arrival":1522673346000,"departure":1522673347000,"zoneId":"NA","stopIndex":7,"stopSequence":8,"vertexType":"TRANSIT"},"to":{"name":"Manic / boul. St-Paul","stopId":"1:94","stopCode":"94","lon":-71.107116,"lat":48.396082,"arrival":1522674109000,"departure":1522674110000,"zoneId":"NA","stopIndex":20,"stopSequence":21,"vertexType":"TRANSIT"},"legGeometry":{"points":"ajpfHfzxpLfIjIbGdGzDzD`A~An@`ApApBpClEvJrOR\\bAfBLa@t@]LjAVvAVbAVv@^bAXj@b@t@xEtGh@r@n@x@FDjA|AlBpCnJ|NNTX`@V`@eCtHpFjH{FhPcB|Ft@|CEAdCnEdHKrBz@lGiQ|CyI~IrJtAzAmKrWsE`LzJjL|P}d@Ri@hCpEpBdCHJzPrR_AhC","length":53},"routeShortName":"11","routeLongName":"Chic/Faubourg via St-Paul","rentedBike":false,"transitLeg":true,"duration":762.0,"steps":[]},{"startTime":1522674110000,"endTime":1522674112000,"departureDelay":0,"arrivalDelay":0,"realTime":false,"distance":2.526,"pathway":false,"mode":"WALK","route":"","agencyTimeZoneOffset":-14400000,"interlineWithPreviousLeg":false,"from":{"name":"Manic / boul. St-Paul","stopId":"1:94","stopCode":"94","lon":-71.107116,"lat":48.396082,"arrival":1522674109000,"departure":1522674110000,"zoneId":"NA","stopIndex":20,"stopSequence":21,"vertexType":"TRANSIT"},"to":{"name":"Destination","lon":-71.10682699,"lat":48.396315,"arrival":1522674112000,"orig":"","vertexType":"NORMAL"},"legGeometry":{"points":"ijkfHtb_qLBE","length":2},"rentedBike":false,"transitLeg":false,"duration":2.0,"steps":[{"distance":2.526,"relativeDirection":"DEPART","streetName":"Rue de la Manic","absoluteDirection":"SOUTHEAST","stayOn":false,"area":false,"bogusName":false,"lon":-71.10714766635498,"lat":48.396052147581,"elevation":[]}]}],"tooSloped":false},{"duration":1093,"startTime":1522674819000,"endTime":1522675912000,"walkTime":329,"transitTime":762,"waitingTime":2,"walkDistance":396.65341352688375,"walkLimitExceeded":false,"elevationLost":0.0,"elevationGained":0.0,"transfers":0,"legs":[{"startTime":1522674819000,"endTime":1522675146000,"departureDelay":0,"arrivalDelay":0,"realTime":false,"distance":393.91200000000003,"pathway":false,"mode":"WALK","route":"","agencyTimeZoneOffset":-14400000,"interlineWithPreviousLeg":false,"from":{"name":"Origin","lon":-71.07085,"lat":48.420772,"departure":1522674819000,"orig":"","vertexType":"NORMAL"},"to":{"name":"Saint-Paul / Dubuc","stopId":"1:420","stopCode":"420","lon":-71.075186,"lat":48.421664,"arrival":1522675146000,"departure":1522675147000,"zoneId":"NA","stopIndex":7,"stopSequence":8,"vertexType":"TRANSIT"},"legGeometry":{"points":"uepfHv_xpLMfGSAAb@QjHLF^BDR?LAJAHCFEBGBGDQ`@Yp@g@|AUW","length":19},"rentedBike":false,"transitLeg":false,"duration":327.0,"steps":[{"distance":97.847,"relativeDirection":"DEPART","streetName":"Rue William Ouest","absoluteDirection":"WEST","stayOn":false,"area":false,"bogusName":false,"lon":-71.07083410552613,"lat":48.420918155301685,"elevation":[]},{"distance":11.534,"relativeDirection":"RIGHT","streetName":"Rue Audet","absoluteDirection":"NORTH","stayOn":false,"area":false,"bogusName":false,"lon":-71.0721566,"lat":48.4209815,"elevation":[]},{"distance":124.437,"relativeDirection":"LEFT","streetName":"Rue Saint-Charles","absoluteDirection":"WEST","stayOn":false,"area":false,"bogusName":false,"lon":-71.0721424,"lat":48.4210848,"elevation":[]},{"distance":26.394,"relativeDirection":"LEFT","streetName":"Rue Saint-Joseph","absoluteDirection":"SOUTH","stayOn":false,"area":false,"bogusName":false,"lon":-71.0738219,"lat":48.421185,"elevation":[]},{"distance":78.343,"relativeDirection":"RIGHT","streetName":"path","absoluteDirection":"WEST","stayOn":false,"area":false,"bogusName":true,"lon":-71.07388590000001,"lat":48.420954200000004,"elevation":[]},{"distance":40.771,"relativeDirection":"CONTINUE","streetName":"Rue Dubuc","absoluteDirection":"NORTHWEST","stayOn":false,"area":false,"bogusName":false,"lon":-71.07469880000001,"lat":48.4212916,"elevation":[]},{"distance":14.586,"relativeDirection":"RIGHT","streetName":"Rue Saint-Paul","absoluteDirection":"NORTHEAST","stayOn":false,"area":false,"bogusName":false,"lon":-71.0751601,"lat":48.4214934,"elevation":[]}]},{"startTime":1522675147000,"endTime":1522675909000,"departureDelay":0,"arrivalDelay":0,"realTime":false,"distance":4256.735478065271,"pathway":false,"mode":"BUS","route":"11","agencyName":"Société de Transport du Saguenay","agencyUrl":"http://ville.saguenay.ca/fr/services-aux-citoyens/transport-sts","agencyTimeZoneOffset":-14400000,"routeColor":"FF0000","routeType":3,"routeId":"1:11","routeTextColor":"FFFFFF","interlineWithPreviousLeg":false,"tripBlockId":"36","headsign":"Boul.Royaume/St-Pierre","agencyId":"0","tripId":"1:218282","serviceDate":"20180402","from":{"name":"Saint-Paul / Dubuc","stopId":"1:420","stopCode":"420","lon":-71.075186,"lat":48.421664,"arrival":1522675146000,"departure":1522675147000,"zoneId":"NA","stopIndex":7,"stopSequence":8,"vertexType":"TRANSIT"},"to":{"name":"Manic / boul. St-Paul","stopId":"1:94","stopCode":"94","lon":-71.107116,"lat":48.396082,"arrival":1522675909000,"departure":1522675910000,"zoneId":"NA","stopIndex":20,"stopSequence":21,"vertexType":"TRANSIT"},"legGeometry":{"points":"ajpfHfzxpLfIjIbGdGzDzD`A~An@`ApApBpClEvJrOR\\bAfBLa@t@]LjAVvAVbAVv@^bAXj@b@t@xEtGh@r@n@x@FDjA|AlBpCnJ|NNTX`@V`@eCtHpFjH{FhPcB|Ft@|CEAdCnEdHKrBz@lGiQ|CyI~IrJtAzAmKrWsE`LzJjL|P}d@Ri@hCpEpBdCHJzPrR_AhC","length":53},"routeShortName":"11","routeLongName":"Chic/Faubourg via St-Paul","rentedBike":false,"transitLeg":true,"duration":762.0,"steps":[]},{"startTime":1522675910000,"endTime":1522675912000,"departureDelay":0,"arrivalDelay":0,"realTime":false,"distance":2.526,"pathway":false,"mode":"WALK","route":"","agencyTimeZoneOffset":-14400000,"interlineWithPreviousLeg":false,"from":{"name":"Manic / boul. St-Paul","stopId":"1:94","stopCode":"94","lon":-71.107116,"lat":48.396082,"arrival":1522675909000,"departure":1522675910000,"zoneId":"NA","stopIndex":20,"stopSequence":21,"vertexType":"TRANSIT"},"to":{"name":"Destination","lon":-71.10682699,"lat":48.396315,"arrival":1522675912000,"orig":"","vertexType":"NORMAL"},"legGeometry":{"points":"ijkfHtb_qLBE","length":2},"rentedBike":false,"transitLeg":false,"duration":2.0,"steps":[{"distance":2.526,"relativeDirection":"DEPART","streetName":"Rue de la Manic","absoluteDirection":"SOUTHEAST","stayOn":false,"area":false,"bogusName":false,"lon":-71.10714766635498,"lat":48.396052147581,"elevation":[]}]}],"tooSloped":false}]},"debugOutput":{"precalculationTime":25,"pathCalculationTime":45,"pathTimes":[23,6,16],"renderingTime":0,"totalTime":70,"timedOut":false},"elevationMetadata":{"ellipsoidToGeoidDifference":-28.885904201182168,"geoidElevation":false}}