{"requestParameters":{"date":"2018/04/02","walkSpeed":"1.33","walkReluctance":"2.0","fromPlace":"48.422139,-71.021599","maxWalkDistance":"3000","waitReluctance":"1.0","carSpeed":"33","numItineraries":"3","waitAtBeginningFactor":"0.4","mode":"TRANSIT,WALK","ignoreRealtimeUpdates":"false","stairsReluctance":"2.0","toPlace":"48.426905,-71.048929","time":"7:55:00"},"plan":{"date":1522670100000,"from":{"name":"Origin","lon":-71.021599,"lat":48.422139,"orig":"","vertexType":"NORMAL"},"to":{"name":"Destination","lon":-71.048929,"lat":48.426905,"orig":"","vertexType":"NORMAL"},"itineraries":[{"duration":1893,"startTime":1522670728000,"endTime":1522672621000,"walkTime":992,"transitTime":899,"waitingTime":2,"walkDistance":1277.7196165366224,"walkLimitExceeded":false,"elevationLost":0.0,"elevationGained":0.0,"transfers":0,"legs":[{"startTime":1522670728000,"endTime":1522671299000,"departureDelay":0,"arrivalDelay":0,"realTime":false,"distance":738.346,"pathway":false,"mode":"WALK","route":"","agencyTimeZoneOffset":-14400000,"interlineWithPreviousLeg":false,"from":{"name":"Origin","lon":-71.021599,"lat":48.422139,"departure":1522670728000,"orig":"","vertexType":"NORMAL"},"to":{"name":"Chemin du Golf","stopId":"1:108","stopCode":"108","lon":-71.016912,"lat":48.419375,"arrival":1522671299000,"departure":1522671300000,"zoneId":"NA","stopIndex":8,"stopSequence":9,"vertexType":"TRANSIT"},"legGeometry":{"points":"impfH`lnpLJa@FBdAZD@d@RHJDDRx@FVh@u@Za@HM\\g@b@eA`@_BLu@Fe@Ai@Ik@i@k@o@]wAg@LwA\\yAn@qA~DcDbAy@","length":28},"rentedBike":false,"transitLeg":false,"duration":571.0,"steps":[{"distance":13.749,"relativeDirection":"DEPART","streetName":"Rue du Lavandou","absoluteDirection":"SOUTHEAST","stayOn":false,"area":false,"bogusName":false,"lon":-71.02160311594959,"lat":48.42213363939786,"elevation":[]},{"distance":116.00899999999999,"relativeDirection":"RIGHT","streetName":"Rue de Provence","absoluteDirection":"SOUTH","stayOn":false,"area":false,"bogusName":false,"lon":-71.0214371,"lat":48.4220775,"elevation":[]},{"distance":153.133,"relativeDirection":"LEFT","streetName":"Rue de Normandie","absoluteDirection":"SOUTHEAST","stayOn":false,"area":false,"bogusName":false,"lon":-71.0222006,"lat":48.4212402,"elevation":[]},{"distance":177.33200000000002,"relativeDirection":"CONTINUE","streetName":"Rang Saint-Martin","absoluteDirection":"EAST","stayOn":false,"area":false,"bogusName":false,"lon":-71.02066450000001,"lat":48.4203406,"elevation":[]},{"distance":278.123,"relativeDirection":"RIGHT","streetName":"Rue du Chemin du Golf","absoluteDirection":"EAST","stayOn":false,"area":false,"bogusName":false,"lon":-71.0192083,"lat":48.4211899,"elevation":[]}]},{"startTime":1522671300000,"endTime":1522672199000,"departureDelay":0,"arrivalDelay":0,"realTime":false,"distance":5398.900876787376,"pathway":false,"mode":"BUS","route":"13","agencyName":"Société de Transport du Saguenay","agencyUrl":"http://ville.saguenay.ca/fr/services-aux-citoyens/transport-sts","agencyTimeZoneOffset":-14400000,"routeColor":"00FFFF","routeType":3,"routeId":"1:13","routeTextColor":"000000","interlineWithPreviousLeg":false,"tripBlockId":"38","headsign":"Terminus Chicoutimi","agencyId":"0","tripId":"1:218332","serviceDate":"20180402","from":{"name":"Chemin du Golf","stopId":"1:108","stopCode":"108","lon":-71.016912,"lat":48.419375,"arrival":1522671299000,"departure":1522671300000,"zoneId":"NA","stopIndex":8,"stopSequence":9,"vertexType":"TRANSIT"},"to":{"name":"Bégin / Jacques-Cartier","stopId":"1:561","stopCode":"561","lon":-71.05511,"lat":48.425555,"arrival":1522672199000,"departure":1522672200000,"zoneId":"NA","stopIndex":21,"stopSequence":22,"vertexType":"TRANSIT"},"legGeometry":{"points":"i|ofH~mmpLVUlAy@j@a@v@MlAVfAt@tCfGd@nALbAD~AKFCNBXNHLEB[CQMGEaBOcAc@mAyCmGiAu@kAYw@N{A`A{HrGq@tA]vAKrA|Aj@h@Xh@f@LfAWnBdEjCnD|BxFrD`M`IzCTxDi@l@pK|BzNZfBf@vEXfFfBjXhB`X~AtUJtDOpIq@jGStA]lBuB|GiEmEoBmBaDmDCEm@o@_AkAi@{Ao@}@w@kAdAwCb@mBPwAJgBQqBe@cBw@cAsAmA}GwGyIwI`AsAZYJ\\JNN@RGFRDHJ?Pi@@Er@yBO[MAeAlDSBMAKOK][XaArA`B`B??lFlFBDvBrBrBlB@@t@t@rAlAv@bAd@bBPpBO|B?BMz@c@pB{ElNmDzJEPMf@eC`HsDhKuE{EWWcCcC_DnJuAyACEyAuAOL[`Aw@tBU`AcAdD?h@PbBLpANnAAd@QnAM`@cAhAM\\]jAuDoDCCaA}@gDkD","length":144},"routeShortName":"13","routeLongName":"Rang St-Martin / St-Jospeh","rentedBike":false,"transitLeg":true,"duration":899.0,"steps":[]},{"startTime":1522672200000,"endTime":1522672621000,"departureDelay":0,"arrivalDelay":0,"realTime":false,"distance":539.2270000000001,"pathway":false,"mode":"WALK","route":"","agencyTimeZoneOffset":-14400000,"interlineWithPreviousLeg":false,"from":{"name":"Bégin / Jacques-Cartier","stopId":"1:561","stopCode":"561","lon":-71.05511,"lat":48.425555,"arrival":1522672199000,"departure":1522672200000,"zoneId":"NA","stopIndex":21,"stopSequence":22,"vertexType":"TRANSIT"},"to":{"name":"Destination","lon":-71.048929,"lat":48.426905,"arrival":1522672621000,"orig":"","vertexType":"NORMAL"},"legGeometry":{"points":"ybqfHv}tpLa@a@q@q@{@s@[Wi@a@aA}@CCyAuAAkBEsF@sA@wEBKHClAL","length":16},"rentedBike":false,"transitLeg":false,"duration":421.0,"steps":[{"distance":244.06799999999998,"relativeDirection":"DEPART","streetName":"Rue Bégin","absoluteDirection":"NORTHEAST","stayOn":false,"area":false,"bogusName":false,"lon":-71.05515571766598,"lat":48.425575326522214,"elevation":[]},{"distance":245.608,"relativeDirection":"RIGHT","streetName":"Rue de l'Hôtel-Dieu","absoluteDirection":"EAST","stayOn":false,"area":false,"bogusName":false,"lon":-71.0534231,"lat":48.4274435,"elevation":[]},{"distance":49.551,"relativeDirection":"RIGHT","streetName":"Rue Saint-Vallier","absoluteDirection":"SOUTH","stayOn":false,"area":false,"bogusName":false,"lon":-71.0501002,"lat":48.4274445,"elevation":[]}]}],"tooSloped":false},{"duration":1626,"startTime":1522671825000,"endTime":1522673451000,"walkTime":407,"transitTime":1217,"waitingTime":2,"walkDistance":515.7129999967733,"walkLimitExceeded":false,"elevationLost":0.0,"elevationGained":0.0,"transfers":0,"legs":[{"startTime":1522671825000,"endTime":1522672182000,"departureDelay":0,"arrivalDelay":0,"realTime":false,"distance":449.93899999999996,"pathway":false,"mode":"WALK","route":"","agencyTimeZoneOffset":-14400000,"interlineWithPreviousLeg":false,"from":{"name":"Origin","lon":-71.021599,"lat":48.422139,"departure":1522671825000,"orig":"","vertexType":"NORMAL"},"to":{"name":"nouveau","stopId":"1:2300","stopCode":"2300","lon":-71.024659,"lat":48.423249,"arrival":1522672182000,"departure":1522672183000,"zoneId":"NA","stopIndex":20,"stopSequence":21,"vertexType":"TRANSIT"},"legGeometry":{"points":"impfH`lnpLJa@FBdAZD@d@RHJDDRx@FVm@x@]d@a@h@UZW^]^KLIHSVKPGJS\\YVGFWT[Zo@`@a@VX\\","length":29},"rentedBike":false,"transitLeg":false,"duration":357.0,"steps":[{"distance":13.749,"relativeDirection":"DEPART","streetName":"Rue du Lavandou","absoluteDirection":"SOUTHEAST","stayOn":false,"area":false,"bogusName":false,"lon":-71.02160311594959,"lat":48.42213363939786,"elevation":[]},{"distance":116.00899999999999,"relativeDirection":"RIGHT","streetName":"Rue de Provence","absoluteDirection":"SOUTH","stayOn":false,"area":false,"bogusName":false,"lon":-71.0214371,"lat":48.4220775,"elevation":[]},{"distance":301.85499999999996,"relativeDirection":"RIGHT","streetName":"Rue de Normandie","absoluteDirection":"NORTHWEST","stayOn":false,"area":false,"bogusName":false,"lon":-71.0222006,"lat":48.4212402,"elevation":[]},{"distance":18.326,"relativeDirection":"HARD_LEFT","streetName":"Rue Fradette","absoluteDirection":"SOUTHWEST","stayOn":false,"area":false,"bogusName":false,"lon":-71.02459610000001,"lat":48.4234239,"elevation":[]}]},{"startTime":1522672183000,"endTime":1522672860000,"departureDelay":0,"arrivalDelay":0,"realTime":false,"distance":4572.511709905732,"pathway":false,"mode":"BUS","route":"12","agencyName":"Société de Transport du Saguenay","agencyUrl":"http://ville.saguenay.ca/fr/services-aux-citoyens/transport-sts","agencyTimeZoneOffset":-14400000,"routeColor":"556B2F","routeType":3,"routeId":"1:12","routeTextColor":"FFFFFF","interlineWithPreviousLeg":false,"tripBlockId":"26","headsign":"Terminus Chicoutimi","agencyId":"0","tripId":"1:217967","serviceDate":"20180402","from":{"name":"nouveau","stopId":"1:2300","stopCode":"2300","lon":-71.024659,"lat":48.423249,"arrival":1522672182000,"departure":1522672183000,"zoneId":"NA","stopIndex":20,"stopSequence":21,"vertexType":"TRANSIT"},"to":{"name":"Terminus Chicoutimi","stopId":"1:1289","stopCode":"1289","lon":-71.066163,"lat":48.428677,"arrival":1522672860000,"departure":1522673100000,"zoneId":"NA","stopIndex":33,"stopSequence":34,"vertexType":"TRANSIT"},"legGeometry":{"points":"gupfHzaopLkJaHgEoDmDwC_TqQsBeB{HjWfAvAfM|O|FlHmB`IgA|Cy@`UYzHZvMR~Hr@~ZPvHsCrMFxf@|ApJj@nDDl]BvZdCXJhC","length":26},"routeShortName":"12","routeLongName":"Rivière du Moulin","rentedBike":false,"transitLeg":true,"duration":677.0,"steps":[]},{"startTime":1522673100000,"endTime":1522673400000,"departureDelay":0,"arrivalDelay":0,"realTime":false,"distance":1242.678141622333,"pathway":false,"mode":"BUS","route":"10","agencyName":"Société de Transport du Saguenay","agencyUrl":"http://ville.saguenay.ca/fr/services-aux-citoyens/transport-sts","agencyTimeZoneOffset":-14400000,"routeColor":"0000FF","routeType":3,"routeId":"1:10","routeTextColor":"FFFFFF","interlineWithPreviousLeg":true,"tripBlockId":"26","headsign":"Terminus UQAC","agencyId":"0","tripId":"1:217968","serviceDate":"20180402","from":{"name":"Terminus Chicoutimi","stopId":"1:1289","stopCode":"1289","lon":-71.066163,"lat":48.428677,"arrival":1522672860000,"departure":1522673100000,"zoneId":"NA","stopIndex":0,"stopSequence":1,"vertexType":"TRANSIT"},"to":{"name":"Hôpital de Chicoutimi (Saint-Vallier)","stopId":"1:342","stopCode":"342","lon":-71.050416,"lat":48.426429,"arrival":1522673400000,"departure":1522673401000,"zoneId":"NA","stopIndex":6,"stopSequence":7,"vertexType":"TRANSIT"},"legGeometry":{"points":"svqfHnbwpLDmCdDZ\\kO`@mQBuCD}DQ_ECk@^Cd@QWkL?m@IuF@gA?eH?cAEuEDO^AjD`@","length":21},"routeShortName":"10","routeLongName":"Notre-Dame du Saguenay","rentedBike":false,"transitLeg":true,"duration":300.0,"steps":[]},{"startTime":1522673401000,"endTime":1522673451000,"departureDelay":0,"arrivalDelay":0,"realTime":false,"distance":65.674,"pathway":false,"mode":"WALK","route":"","agencyTimeZoneOffset":-14400000,"interlineWithPreviousLeg":false,"from":{"name":"Hôpital de Chicoutimi (Saint-Vallier)","stopId":"1:342","stopCode":"342","lon":-71.050416,"lat":48.426429,"arrival":1522673400000,"departure":1522673401000,"zoneId":"NA","stopIndex":6,"stopSequence":7,"vertexType":"TRANSIT"},"to":{"name":"Destination","lon":-71.048929,"lat":48.426905,"arrival":1522673451000,"orig":"","vertexType":"NORMAL"},"legGeometry":{"points":"ahqfHd_tpLqBUC?","length":3},"rentedBike":false,"transitLeg":false,"duration":50.0,"steps":[{"distance":65.674,"relativeDirection":"DEPART","streetName":"Rue Saint-Vallier","absoluteDirection":"NORTH","stayOn":false,"area":false,"bogusName":false,"lon":-71.05026027647143,"lat":48.426416552989835,"elevation":[]}]}],"tooSloped":false},{"duration":1749,"startTime":1522671823000,"endTime":1522673572000,"walkTime":922,"transitTime":825,"waitingTime":2,"walkDistance":1154.6753232992571,"walkLimitExceeded":false,"elevationLost":0.0,"elevationGained":0.0,"transfers":0,"legs":[{"startTime":1522671823000,"endTime":1522672139000,"departureDelay":0,"arrivalDelay":0,"realTime":false,"distance":398.28499999999997,"pathway":false,"mode":"WALK","route":"","agencyTimeZoneOffset":-14400000,"interlineWithPreviousLeg":false,"from":{"name":"Origin","lon":-71.021599,"lat":48.422139,"departure":1522671823000,"orig":"","vertexType":"NORMAL"},"to":{"name":"Gascogne / Provence","stopId":"1:1536","stopCode":"1536","lon":-71.022239,"lat":48.419203,"arrival":1522672139000,"departure":1522672140000,"zoneId":"NA","stopIndex":24,"stopSequence":25,"vertexType":"TRANSIT"},"legGeometry":{"points":"impfH`lnpLJa@FBdAZD@d@RHJDDRx@FVh@u@Za@HM\\g@NZZn@HPBDTFPGDA`@ODADCPHTLJF\\RNHJB`@N@???","length":33},"rentedBike":false,"transitLeg":false,"duration":316.0,"steps":[{"distance":13.749,"relativeDirection":"DEPART","streetName":"Rue du Lavandou","absoluteDirection":"SOUTHEAST","stayOn":false,"area":false,"bogusName":false,"lon":-71.02160311594959,"lat":48.42213363939786,"elevation":[]},{"distance":116.00899999999999,"relativeDirection":"RIGHT","streetName":"Rue de Provence","absoluteDirection":"SOUTH","stayOn":false,"area":false,"bogusName":false,"lon":-71.0214371,"lat":48.4220775,"elevation":[]},{"distance":79.98,"relativeDirection":"LEFT","streetName":"Rue de Normandie","absoluteDirection":"SOUTHEAST","stayOn":false,"area":false,"bogusName":false,"lon":-71.0222006,"lat":48.4212402,"elevation":[]},{"distance":188.54699999999997,"relativeDirection":"RIGHT","streetName":"Rue de Gascogne","absoluteDirection":"SOUTHWEST","stayOn":false,"area":false,"bogusName":false,"lon":-71.0215,"lat":48.4206914,"elevation":[]}]},{"startTime":1522672140000,"endTime":1522672965000,"departureDelay":0,"arrivalDelay":0,"realTime":false,"distance":5632.791592511545,"pathway":false,"mode":"BUS","route":"12","agencyName":"Société de Transport du Saguenay","agencyUrl":"http://ville.saguenay.ca/fr/services-aux-citoyens/transport-sts","agencyTimeZoneOffset":-14400000,"routeColor":"556B2F","routeType":3,"routeId":"1:12","routeTextColor":"FFFFFF","interlineWithPreviousLeg":false,"tripBlockId":"28","headsign":"Terminus UQAC","agencyId":"0","tripId":"1:218029","serviceDate":"20180402","from":{"name":"Gascogne / Provence","stopId":"1:1536","stopCode":"1536","lon":-71.022239,"lat":48.419203,"arrival":1522672139000,"departure":1522672140000,"zoneId":"NA","stopIndex":24,"stopSequence":25,"vertexType":"TRANSIT"},"to":{"name":"Résidence de l' UQAC","stopId":"1:64","stopCode":"64","lon":-71.052396,"lat":48.421595,"arrival":1522672965000,"departure":1522672966000,"zoneId":"NA","stopIndex":38,"stopSequence":39,"vertexType":"TRANSIT"},"legGeometry":{"points":"_{ofH~onpL`b@fNvVvrCdRvMcAjKcP~b@iHhDaGz@uSl[uCYmIeIeJ_J{J{JwCiThFaQ","length":15},"routeShortName":"12","routeLongName":"Rivière du Moulin","rentedBike":false,"transitLeg":true,"duration":825.0,"steps":[]},{"startTime":1522672966000,"endTime":1522673572000,"departureDelay":0,"arrivalDelay":0,"realTime":false,"distance":756.1110000000001,"pathway":false,"mode":"WALK","route":"","agencyTimeZoneOffset":-14400000,"interlineWithPreviousLeg":false,"from":{"name":"Résidence de l' UQAC","stopId":"1:64","stopCode":"64","lon":-71.052396,"lat":48.421595,"arrival":1522672965000,"departure":1522672966000,"zoneId":"NA","stopIndex":38,"stopSequence":39,"vertexType":"TRANSIT"},"to":{"name":"Destination","lon":-71.048929,"lat":48.426905,"arrival":1522673572000,"orig":"","vertexType":"NORMAL"},"legGeometry":{"points":"wipfHbltpLUUMKUSc@_@SQWQoAmAc@a@[Wi@m@W_@YOKGe@[KIMGq@YCEEcA?_@kA[]GoBYc@EEx@CnACf@GNQ?iB[_@EG?K^G?qBUC?","length":37},"rentedBike":false,"transitLeg":false,"duration":606.0,"steps":[{"distance":61.068,"relativeDirection":"DEPART","streetName":"Chemin Saint Thomas","absoluteDirection":"NORTHEAST","stayOn":false,"area":false,"bogusName":false,"lon":-71.05233952226759,"lat":48.42156846359717,"elevation":[]},{"distance":263.87899999999996,"relativeDirection":"CONTINUE","streetName":"road","absoluteDirection":"NORTHEAST","stayOn":false,"area":false,"bogusName":true,"lon":-71.051902,"lat":48.4220343,"elevation":[]},{"distance":37.224000000000004,"relativeDirection":"RIGHT","streetName":"path","absoluteDirection":"EAST","stayOn":true,"area":false,"bogusName":true,"lon":-71.0501431,"lat":48.4240852,"elevation":[]},{"distance":123.78800000000001,"relativeDirection":"LEFT","streetName":"Chemin Sydenham","absoluteDirection":"NORTH","stayOn":false,"area":false,"bogusName":false,"lon":-71.0496408,"lat":48.424114100000004,"elevation":[]},{"distance":19.537,"relativeDirection":"CONTINUE","streetName":"path","absoluteDirection":"NORTH","stayOn":false,"area":false,"bogusName":true,"lon":-71.04933630000001,"lat":48.425208100000006,"elevation":[]},{"distance":66.589,"relativeDirection":"LEFT","streetName":"service road","absoluteDirection":"WEST","stayOn":true,"area":false,"bogusName":true,"lon":-71.0493017,"lat":48.4253823,"elevation":[]},{"distance":99.413,"relativeDirection":"RIGHT","streetName":"service road","absoluteDirection":"NORTH","stayOn":true,"area":false,"bogusName":true,"lon":-71.05019700000001,"lat":48.425456700000005,"elevation":[]},{"distance":13.926,"relativeDirection":"LEFT","streetName":"path","absoluteDirection":"NORTHWEST","stayOn":true,"area":false,"bogusName":true,"lon":-71.0501005,"lat":48.426314600000005,"elevation":[]},{"distance":70.68700000000001,"relativeDirection":"RIGHT","streetName":"Rue Saint-Vallier","absoluteDirection":"NORTH","stayOn":false,"area":false,"bogusName":false,"lon":-71.05026840000001,"lat":48.426371800000005,"elevation":[]}]}],"tooSloped":false}]},"debugOutput":{"precalculationTime":17,"pathCalculationTime":16,"pathTimes":[10,5,1],"renderingTime":1,"totalTime":34,"timedOut":false},"elevationMetadata":{"ellipsoidToGeoidDifference":-28.885904201182168,"geoidElevation":false}}