{"requestParameters":{"date":"2018/04/02","walkSpeed":"1.33","walkReluctance":"2.0","fromPlace":"48.41803,-71.083128","maxWalkDistance":"3000","waitReluctance":"1.0","carSpeed":"33","numItineraries":"3","waitAtBeginningFactor":"0.4","mode":"TRANSIT,WALK","ignoreRealtimeUpdates":"false","stairsReluctance":"2.0","toPlace":"48.455027,-71.126656","time":"17:20:00"},"plan":{"date":1522704000000,"from":{"name":"Origin","lon":-71.083128,"lat":48.41803,"orig":"","vertexType":"NORMAL"},"to":{"name":"Destination","lon":-71.126656,"lat":48.455027,"orig":"","vertexType":"NORMAL"},"itineraries":[{"duration":2407,"startTime":1522704520000,"endTime":1522706927000,"walkTime":952,"transitTime":1213,"waitingTime":242,"walkDistance":1226.2416165366226,"walkLimitExceeded":false,"elevationLost":0.0,"elevationGained":0.0,"transfers":1,"legs":[{"startTime":1522704520000,"endTime":1522704766000,"departureDelay":0,"arrivalDelay":0,"realTime":false,"distance":314.476,"pathway":false,"mode":"WALK","route":"","agencyTimeZoneOffset":-14400000,"interlineWithPreviousLeg":false,"from":{"name":"Origin","lon":-71.083128,"lat":48.41803,"departure":1522704520000,"orig":"","vertexType":"NORMAL"},"to":{"name":"Saint-Paul / Cimon","stopId":"1:1892","stopCode":"1892","lon":-71.079616,"lat":48.417161,"arrival":1522704766000,"departure":1522704767000,"zoneId":"NA","stopIndex":20,"stopSequence":21,"vertexType":"TRANSIT"},"legGeometry":{"points":"ovofH|jzpLhA{Gj@aDXyAhA}Cf@v@","length":6},"rentedBike":false,"transitLeg":false,"duration":246.0,"steps":[{"distance":284.541,"relativeDirection":"DEPART","streetName":"Rue Cimon","absoluteDirection":"EAST","stayOn":false,"area":false,"bogusName":false,"lon":-71.08286045099662,"lat":48.41848109537543,"elevation":[]},{"distance":29.935,"relativeDirection":"RIGHT","streetName":"Rue Saint-Paul","absoluteDirection":"SOUTHWEST","stayOn":false,"area":false,"bogusName":false,"lon":-71.0793926,"lat":48.417391900000005,"elevation":[]}]},{"startTime":1522704767000,"endTime":1522705260000,"departureDelay":0,"arrivalDelay":0,"realTime":false,"distance":2129.9586378097606,"pathway":false,"mode":"BUS","route":"11","agencyName":"Société de Transport du Saguenay","agencyUrl":"http://ville.saguenay.ca/fr/services-aux-citoyens/transport-sts","agencyTimeZoneOffset":-14400000,"routeColor":"FF0000","routeType":3,"routeId":"1:11","routeTextColor":"FFFFFF","interlineWithPreviousLeg":false,"tripBlockId":"34","headsign":"Terminus Chicoutimi","agencyId":"0","tripId":"1:218228","serviceDate":"20180402","from":{"name":"Saint-Paul / Cimon","stopId":"1:1892","stopCode":"1892","lon":-71.079616,"lat":48.417161,"arrival":1522704766000,"departure":1522704767000,"zoneId":"NA","stopIndex":20,"stopSequence":21,"vertexType":"TRANSIT"},"to":{"name":"Terminus Chicoutimi","stopId":"1:1289","stopCode":"1289","lon":-71.066163,"lat":48.428677,"arrival":1522705260000,"departure":1522705500000,"zoneId":"NA","stopIndex":30,"stopSequence":31,"vertexType":"TRANSIT"},"legGeometry":{"points":"qnofHdwypLc@o@q@gAOWwCyCyGyG_IaIs@rBEHwAtDmBvEOd@[bBK~AIf@YHE@Q@O?OCI_@GMEKI_AB_A?Yo@IKCIEIIKOEKCKe@}BKs@CQAUE_A@yCFcDVsLDaCD_@kBKW?e@Q_BQNuEDuBXmNLgHmKm@}BW{AMCn@o@G??","length":57},"routeShortName":"11","routeLongName":"Chic/Faubourg via St-Paul","rentedBike":false,"transitLeg":true,"duration":493.0,"steps":[]},{"startTime":1522705500000,"endTime":1522706220000,"departureDelay":0,"arrivalDelay":0,"realTime":false,"distance":6337.588775459439,"pathway":false,"mode":"BUS","route":"21","agencyName":"Société de Transport du Saguenay","agencyUrl":"http://ville.saguenay.ca/fr/services-aux-citoyens/transport-sts","agencyTimeZoneOffset":-14400000,"routeColor":"556B2F","routeType":3,"routeId":"1:21","routeTextColor":"FFFFFF","interlineWithPreviousLeg":false,"tripBlockId":"2","headsign":"Terminus Chicoutimi","agencyId":"0","tripId":"1:217178","serviceDate":"20180402","from":{"name":"Terminus Chicoutimi","stopId":"1:1289","stopCode":"1289","lon":-71.066163,"lat":48.428677,"arrival":1522705260000,"departure":1522705500000,"zoneId":"NA","stopIndex":0,"stopSequence":1,"vertexType":"TRANSIT"},"to":{"name":"Élie / Roger","stopId":"1:718","stopCode":"718","lon":-71.119216,"lat":48.45754,"arrival":1522706220000,"departure":1522706221000,"zoneId":"NA","stopIndex":18,"stopSequence":19,"vertexType":"TRANSIT"},"legGeometry":{"points":"kwqfHjbwpLF_CeBSm@rRO\\WjGOfGCRK^KJMHQB_AMg@Gw`@eR}@g@u@Su@Ia@Ck@Dm@HwAf@c@VeAx@iAlAU^[d@eLtTsAvB_CvEuAnCmBlE}@|B_BvFoC`JCD}@hCo@~Aq@pAs@fAWs@IUC[AI?QCeGAs@Gy@Ks@Ou@OcAIcAIgAWgCG_@Og@IQS]UWYQWIUA[Da@P]RSVQ`@Ib@Ef@Et@Gf@Id@I`@Od@cCxFQOgAwA_FqGO[`BcEY_@MOaBtDLTh@bATZpGlIPNa@fAOn@Gd@UtBA^A^R`E^fGRbAVl@P`@BFNb@t@xAiCvCMP}@jAY`@q@jAm@jA}@rBmArD?Tu@|CYzAET{AxOQhBQ~Aa@~DQ~A[xCM~AiAjLo@vGk@tFe@vEu@xHgAdLIl@UhCyAnPQhBK`Ae@fFm@vGS`Co@`HQhBQlBAHo@fHc@fEc@`FiDiAOSIMOQOa@GQ","length":148},"routeShortName":"21","routeLongName":"Boul. Ste-Geneviève/Élie","rentedBike":false,"transitLeg":true,"duration":720.0,"steps":[]},{"startTime":1522706221000,"endTime":1522706927000,"departureDelay":0,"arrivalDelay":0,"realTime":false,"distance":911.619,"pathway":false,"mode":"WALK","route":"","agencyTimeZoneOffset":-14400000,"interlineWithPreviousLeg":false,"from":{"name":"Élie / Roger","stopId":"1:718","stopCode":"718","lon":-71.119216,"lat":48.45754,"arrival":1522706220000,"departure":1522706221000,"zoneId":"NA","stopIndex":18,"stopSequence":19,"vertexType":"TRANSIT"},"to":{"name":"Destination","lon":-71.126656,"lat":48.455027,"arrival":1522706927000,"orig":"","vertexType":"NORMAL"},"legGeometry":{"points":"kjwfHzmaqLDHBFFNDRh@p@vAb@f@Pb@PyAnOGv@u@~Hq@dHMpAxBj@`@FR?RIn@E^H|@d@ZZn@gAXk@DI","length":25},"rentedBike":false,"transitLeg":false,"duration":706.0,"steps":[{"distance":148.474,"relativeDirection":"DEPART","streetName":"Rue Élie","absoluteDirection":"SOUTHWEST","stayOn":false,"area":false,"bogusName":false,"lon":-71.11917277645296,"lat":48.4575007379064,"elevation":[]},{"distance":486.974,"relativeDirection":"RIGHT","streetName":"Route Sainte-Geneviève","absoluteDirection":"WEST","stayOn":false,"area":false,"bogusName":false,"lon":-71.12005640000001,"lat":48.4563549,"elevation":[]},{"distance":211.714,"relativeDirection":"LEFT","streetName":"Rue du Patrimoine","absoluteDirection":"SOUTH","stayOn":false,"area":false,"bogusName":false,"lon":-71.12645690000001,"lat":48.4574329,"elevation":[]},{"distance":64.457,"relativeDirection":"LEFT","streetName":"Rue de la Sablonnière","absoluteDirection":"SOUTHEAST","stayOn":false,"area":false,"bogusName":false,"lon":-71.1270118,"lat":48.455609200000005,"elevation":[]}]}],"tooSloped":false},{"duration":2527,"startTime":1522706320000,"endTime":1522708847000,"walkTime":952,"transitTime":1213,"waitingTime":362,"walkDistance":1226.2416165366226,"walkLimitExceeded":false,"elevationLost":0.0,"elevationGained":0.0,"transfers":1,"legs":[{"startTime":1522706320000,"endTime":1522706566000,"departureDelay":0,"arrivalDelay":0,"realTime":false,"distance":314.476,"pathway":false,"mode":"WALK","route":"","agencyTimeZoneOffset":-14400000,"interlineWithPreviousLeg":false,"from":{"name":"Origin","lon":-71.083128,"lat":48.41803,"departure":1522706320000,"orig":"","vertexType":"NORMAL"},"to":{"name":"Saint-Paul / Cimon","stopId":"1:1892","stopCode":"1892","lon":-71.079616,"lat":48.417161,"arrival":1522706566000,"departure":1522706567000,"zoneId":"NA","stopIndex":20,"stopSequence":21,"vertexType":"TRANSIT"},"legGeometry":{"points":"ovofH|jzpLhA{Gj@aDXyAhA}Cf@v@","length":6},"rentedBike":false,"transitLeg":false,"duration":246.0,"steps":[{"distance":284.541,"relativeDirection":"DEPART","streetName":"Rue Cimon","absoluteDirection":"EAST","stayOn":false,"area":false,"bogusName":false,"lon":-71.08286045099662,"lat":48.41848109537543,"elevation":[]},{"distance":29.935,"relativeDirection":"RIGHT","streetName":"Rue Saint-Paul","absoluteDirection":"SOUTHWEST","stayOn":false,"area":false,"bogusName":false,"lon":-71.0793926,"lat":48.417391900000005,"elevation":[]}]},{"startTime":1522706567000,"endTime":1522707060000,"departureDelay":0,"arrivalDelay":0,"realTime":false,"distance":2129.9586378097606,"pathway":false,"mode":"BUS","route":"11","agencyName":"Société de Transport du Saguenay","agencyUrl":"http://ville.saguenay.ca/fr/services-aux-citoyens/transport-sts","agencyTimeZoneOffset":-14400000,"routeColor":"FF0000","routeType":3,"routeId":"1:11","routeTextColor":"FFFFFF","interlineWithPreviousLeg":false,"tripBlockId":"36","headsign":"Terminus Chicoutimi","agencyId":"0","tripId":"1:218299","serviceDate":"20180402","from":{"name":"Saint-Paul / Cimon","stopId":"1:1892","stopCode":"1892","lon":-71.079616,"lat":48.417161,"arrival":1522706566000,"departure":1522706567000,"zoneId":"NA","stopIndex":20,"stopSequence":21,"vertexType":"TRANSIT"},"to":{"name":"Terminus Chicoutimi","stopId":"1:1289","stopCode":"1289","lon":-71.066163,"lat":48.428677,"arrival":1522707060000,"departure":1522707420000,"zoneId":"NA","stopIndex":30,"stopSequence":31,"vertexType":"TRANSIT"},"legGeometry":{"points":"qnofHdwypLc@o@q@gAOWwCyCyGyG_IaIs@rBEHwAtDmBvEOd@[bBK~AIf@YHE@Q@O?OCI_@GMEKI_AB_A?Yo@IKCIEIIKOEKCKe@}BKs@CQAUE_A@yCFcDVsLDaCD_@kBKW?e@Q_BQNuEDuBXmNLgHmKm@}BW{AMCn@o@G??","length":57},"routeShortName":"11","routeLongName":"Chic/Faubourg via St-Paul","rentedBike":false,"transitLeg":true,"duration":493.0,"steps":[]},{"startTime":1522707420000,"endTime":1522708140000,"departureDelay":0,"arrivalDelay":0,"realTime":false,"distance":6337.588775459439,"pathway":false,"mode":"BUS","route":"21","agencyName":"Société de Transport du Saguenay","agencyUrl":"http://ville.saguenay.ca/fr/services-aux-citoyens/transport-sts","agencyTimeZoneOffset":-14400000,"routeColor":"556B2F","routeType":3,"routeId":"1:21","routeTextColor":"FFFFFF","interlineWithPreviousLeg":false,"tripBlockId":"2","headsign":"Terminus Chicoutimi","agencyId":"0","tripId":"1:217179","serviceDate":"20180402","from":{"name":"Terminus Chicoutimi","stopId":"1:1289","stopCode":"1289","lon":-71.066163,"lat":48.428677,"arrival":1522707060000,"departure":1522707420000,"zoneId":"NA","stopIndex":0,"stopSequence":1,"vertexType":"TRANSIT"},"to":{"name":"Élie / Roger","stopId":"1:718","stopCode":"718","lon":-71.119216,"lat":48.45754,"arrival":1522708140000,"departure":1522708141000,"zoneId":"NA","stopIndex":18,"stopSequence":19,"vertexType":"TRANSIT"},"legGeometry":{"points":"kwqfHjbwpLF_CeBSm@rRO\\WjGOfGCRK^KJMHQB_AMg@Gw`@eR}@g@u@Su@Ia@Ck@Dm@HwAf@c@VeAx@iAlAU^[d@eLtTsAvB_CvEuAnCmBlE}@|B_BvFoC`JCD}@hCo@~Aq@pAs@fAWs@IUC[AI?QCeGAs@Gy@Ks@Ou@OcAIcAIgAWgCG_@Og@IQS]UWYQWIUA[Da@P]RSVQ`@Ib@Ef@Et@Gf@Id@I`@Od@cCxFQOgAwA_FqGO[`BcEY_@MOaBtDLTh@bATZpGlIPNa@fAOn@Gd@UtBA^A^R`E^fGRbAVl@P`@BFNb@t@xAiCvCMP}@jAY`@q@jAm@jA}@rBmArD?Tu@|CYzAET{AxOQhBQ~Aa@~DQ~A[xCM~AiAjLo@vGk@tFe@vEu@xHgAdLIl@UhCyAnPQhBK`Ae@fFm@vGS`Co@`HQhBQlBAHo@fHc@fEc@`FiDiAOSIMOQOa@GQ","length":148},"routeShortName":"21","routeLongName":"Boul. Ste-Geneviève/Élie","rentedBike":false,"transitLeg":true,"duration":720.0,"steps":[]},{"startTime":1522708141000,"endTime":1522708847000,"departureDelay":0,"arrivalDelay":0,"realTime":false,"distance":911.619,"pathway":false,"mode":"WALK","route":"","agencyTimeZoneOffset":-14400000,"interlineWithPreviousLeg":false,"from":{"name":"Élie / Roger","stopId":"1:718","stopCode":"718","lon":-71.119216,"lat":48.45754,"arrival":1522708140000,"departure":1522708141000,"zoneId":"NA","stopIndex":18,"stopSequence":19,"vertexType":"TRANSIT"},"to":{"name":"Destination","lon":-71.126656,"lat":48.455027,"arrival":1522708847000,"orig":"","vertexType":"NORMAL"},"legGeometry":{"points":"kjwfHzmaqLDHBFFNDRh@p@vAb@f@Pb@PyAnOGv@u@~Hq@dHMpAxBj@`@FR?RIn@E^H|@d@ZZn@gAXk@DI","length":25},"rentedBike":false,"transitLeg":false,"duration":706.0,"steps":[{"distance":148.474,"relativeDirection":"DEPART","streetName":"Rue Élie","absoluteDirection":"SOUTHWEST","stayOn":false,"area":false,"bogusName":false,"lon":-71.11917277645296,"lat":48.4575007379064,"elevation":[]},{"distance":486.974,"relativeDirection":"RIGHT","streetName":"Route Sainte-Geneviève","absoluteDirection":"WEST","stayOn":false,"area":false,"bogusName":false,"lon":-71.12005640000001,"lat":48.4563549,"elevation":[]},{"distance":211.714,"relativeDirection":"LEFT","streetName":"Rue du Patrimoine","absoluteDirection":"SOUTH","stayOn":false,"area":false,"bogusName":false,"lon":-71.12645690000001,"lat":48.4574329,"elevation":[]},{"distance":64.457,"relativeDirection":"LEFT","streetName":"Rue de la Sablonnière","absoluteDirection":"SOUTHEAST","stayOn":false,"area":false,"bogusName":false,"lon":-71.1270118,"lat":48.455609200000005,"elevation":[]}]}],"tooSloped":false},{"duration":3088,"startTime":1522709239000,"endTime":1522712327000,"walkTime":2366,"transitTime":720,"waitingTime":2,"walkDistance":3033.8172857009176,"walkLimitExceeded":false,"elevationLost":0.0,"elevationGained":0.0,"transfers":0,"legs":[{"startTime":1522709239000,"endTime":1522710899000,"departureDelay":0,"arrivalDelay":0,"realTime":false,"distance":2121.7840000000006,"pathway":false,"mode":"WALK","route":"","agencyTimeZoneOffset":-14400000,"interlineWithPreviousLeg":false,"from":{"name":"Origin","lon":-71.083128,"lat":48.41803,"departure":1522709239000,"orig":"","vertexType":"NORMAL"},"to":{"name":"Terminus Chicoutimi","stopId":"1:1289","stopCode":"1289","lon":-71.066163,"lat":48.428677,"arrival":1522710899000,"departure":1522710900000,"zoneId":"NA","stopIndex":0,"stopSequence":1,"vertexType":"TRANSIT"},"legGeometry":{"points":"ovofH|jzpLhA{Gj@aD{AaBiCiCeAuC\\gAv@yBwD{DOOi@k@iCkC}B}BUW}@_AGc@YcACe@E}@Ao@?e@S[H]DS^kAJ[ZsAKAs@Cc@AaAACSAUO{@Kk@[W@YBy@AMGQg@oAc@kAi@uAUy@c@o@MMi@oAaBuDg@eAo@qBk@g@Ao@QG_@C{BUsAGkCQQAsBIc@MKESAcAK","length":63},"rentedBike":false,"transitLeg":false,"duration":1660.0,"steps":[{"distance":176.784,"relativeDirection":"DEPART","streetName":"Rue Cimon","absoluteDirection":"EAST","stayOn":false,"area":false,"bogusName":false,"lon":-71.08286045099662,"lat":48.41848109537543,"elevation":[]},{"distance":222.874,"relativeDirection":"LEFT","streetName":"Rue Saint-Jean","absoluteDirection":"NORTHEAST","stayOn":false,"area":false,"bogusName":false,"lon":-71.0806349,"lat":48.41789300000001,"elevation":[]},{"distance":86.137,"relativeDirection":"RIGHT","streetName":"Rue Saint-Henri","absoluteDirection":"SOUTHEAST","stayOn":false,"area":false,"bogusName":false,"lon":-71.07870050000001,"lat":48.419397000000004,"elevation":[]},{"distance":508.621,"relativeDirection":"LEFT","streetName":"Rue Saint-Paul","absoluteDirection":"NORTHEAST","stayOn":false,"area":false,"bogusName":false,"lon":-71.07773680000001,"lat":48.418960000000006,"elevation":[]},{"distance":15.283,"relativeDirection":"LEFT","streetName":"Boulevard Saint-Paul","absoluteDirection":"NORTHEAST","stayOn":false,"area":false,"bogusName":false,"lon":-71.0732783,"lat":48.4221458,"elevation":[]},{"distance":100.87200000000001,"relativeDirection":"RIGHT","streetName":"Boulevard de l'Université","absoluteDirection":"SOUTHEAST","stayOn":false,"area":false,"bogusName":false,"lon":-71.0731375,"lat":48.4222466,"elevation":[]},{"distance":35.173,"relativeDirection":"LEFT","streetName":"sidewalk","absoluteDirection":"NORTH","stayOn":false,"area":false,"bogusName":true,"lon":-71.0719452,"lat":48.4218053,"elevation":[]},{"distance":56.932,"relativeDirection":"CONTINUE","streetName":"Rue Lorne Ouest","absoluteDirection":"NORTH","stayOn":false,"area":false,"bogusName":false,"lon":-71.0719153,"lat":48.422121000000004,"elevation":[]},{"distance":74.692,"relativeDirection":"RIGHT","streetName":"alley","absoluteDirection":"EAST","stayOn":false,"area":false,"bogusName":true,"lon":-71.0718933,"lat":48.4226328,"elevation":[]},{"distance":30.689999999999998,"relativeDirection":"RIGHT","streetName":"Rue Lorne Ouest","absoluteDirection":"EAST","stayOn":false,"area":false,"bogusName":false,"lon":-71.0710413,"lat":48.4229422,"elevation":[]},{"distance":421.72799999999995,"relativeDirection":"SLIGHTLY_LEFT","streetName":"path","absoluteDirection":"NORTHEAST","stayOn":false,"area":false,"bogusName":true,"lon":-71.07062780000001,"lat":48.4229131,"elevation":[]},{"distance":17.515,"relativeDirection":"RIGHT","streetName":"Rue Price Est","absoluteDirection":"EAST","stayOn":false,"area":false,"bogusName":false,"lon":-71.0662212,"lat":48.425276600000004,"elevation":[]},{"distance":374.483,"relativeDirection":"LEFT","streetName":"Rue Morin","absoluteDirection":"NORTH","stayOn":false,"area":false,"bogusName":false,"lon":-71.06598410000001,"lat":48.4252842,"elevation":[]}]},{"startTime":1522710900000,"endTime":1522711620000,"departureDelay":0,"arrivalDelay":0,"realTime":false,"distance":6337.588775459439,"pathway":false,"mode":"BUS","route":"21","agencyName":"Société de Transport du Saguenay","agencyUrl":"http://ville.saguenay.ca/fr/services-aux-citoyens/transport-sts","agencyTimeZoneOffset":-14400000,"routeColor":"556B2F","routeType":3,"routeId":"1:21","routeTextColor":"FFFFFF","interlineWithPreviousLeg":false,"tripBlockId":"2","headsign":"Terminus Chicoutimi","agencyId":"0","tripId":"1:217180","serviceDate":"20180402","from":{"name":"Terminus Chicoutimi","stopId":"1:1289","stopCode":"1289","lon":-71.066163,"lat":48.428677,"arrival":1522710899000,"departure":1522710900000,"zoneId":"NA","stopIndex":0,"stopSequence":1,"vertexType":"TRANSIT"},"to":{"name":"Élie / Roger","stopId":"1:718","stopCode":"718","lon":-71.119216,"lat":48.45754,"arrival":1522711620000,"departure":1522711621000,"zoneId":"NA","stopIndex":18,"stopSequence":19,"vertexType":"TRANSIT"},"legGeometry":{"points":"kwqfHjbwpLF_CeBSm@rRO\\WjGOfGCRK^KJMHQB_AMg@Gw`@eR}@g@u@Su@Ia@Ck@Dm@HwAf@c@VeAx@iAlAU^[d@eLtTsAvB_CvEuAnCmBlE}@|B_BvFoC`JCD}@hCo@~Aq@pAs@fAWs@IUC[AI?QCeGAs@Gy@Ks@Ou@OcAIcAIgAWgCG_@Og@IQS]UWYQWIUA[Da@P]RSVQ`@Ib@Ef@Et@Gf@Id@I`@Od@cCxFQOgAwA_FqGO[`BcEY_@MOaBtDLTh@bATZpGlIPNa@fAOn@Gd@UtBA^A^R`E^fGRbAVl@P`@BFNb@t@xAiCvCMP}@jAY`@q@jAm@jA}@rBmArD?Tu@|CYzAET{AxOQhBQ~Aa@~DQ~A[xCM~AiAjLo@vGk@tFe@vEu@xHgAdLIl@UhCyAnPQhBK`Ae@fFm@vGS`Co@`HQhBQlBAHo@fHc@fEc@`FiDiAOSIMOQOa@GQ","length":148},"routeShortName":"21","routeLongName":"Boul. Ste-Geneviève/Élie","rentedBike":false,"transitLeg":true,"duration":720.0,"steps":[]},{"startTime":1522711621000,"endTime":1522712327000,"departureDelay":0,"arrivalDelay":0,"realTime":false,"distance":911.619,"pathway":false,"mode":"WALK","route":"","agencyTimeZoneOffset":-14400000,"interlineWithPreviousLeg":false,"from":{"name":"Élie / Roger","stopId":"1:718","stopCode":"718","lon":-71.119216,"lat":48.45754,"arrival":1522711620000,"departure":1522711621000,"zoneId":"NA","stopIndex":18,"stopSequence":19,"vertexType":"TRANSIT"},"to":{"name":"Destination","lon":-71.126656,"lat":48.455027,"arrival":1522712327000,"orig":"","vertexType":"NORMAL"},"legGeometry":{"points":"kjwfHzmaqLDHBFFNDRh@p@vAb@f@Pb@PyAnOGv@u@~Hq@dHMpAxBj@`@FR?RIn@E^H|@d@ZZn@gAXk@DI","length":25},"rentedBike":false,"transitLeg":false,"duration":706.0,"steps":[{"distance":148.474,"relativeDirection":"DEPART","streetName":"Rue Élie","absoluteDirection":"SOUTHWEST","stayOn":false,"area":false,"bogusName":false,"lon":-71.11917277645296,"lat":48.4575007379064,"elevation":[]},{"distance":486.974,"relativeDirection":"RIGHT","streetName":"Route Sainte-Geneviève","absoluteDirection":"WEST","stayOn":false,"area":false,"bogusName":false,"lon":-71.12005640000001,"lat":48.4563549,"elevation":[]},{"distance":211.714,"relativeDirection":"LEFT","streetName":"Rue du Patrimoine","absoluteDirection":"SOUTH","stayOn":false,"area":false,"bogusName":false,"lon":-71.12645690000001,"lat":48.4574329,"elevation":[]},{"distance":64.457,"relativeDirection":"LEFT","streetName":"Rue de la Sablonnière","absoluteDirection":"SOUTHEAST","stayOn":false,"area":false,"bogusName":false,"lon":-71.1270118,"lat":48.455609200000005,"elevation":[]}]}],"tooSloped":false}]},"debugOutput":{"precalculationTime":14,"pathCalculationTime":55,"pathTimes":[22,13,20],"renderingTime":1,"totalTime":70,"timedOut":false},"elevationMetadata":{"ellipsoidToGeoidDifference":-28.885904201182168,"geoidElevation":false}}