{"requestParameters":{"date":"2018/04/02","walkSpeed":"1.33","walkReluctance":"2.0","fromPlace":"48.422638,-71.059381","maxWalkDistance":"3000","waitReluctance":"1.0","carSpeed":"33","numItineraries":"3","waitAtBeginningFactor":"0.4","mode":"TRANSIT,WALK","ignoreRealtimeUpdates":"false","stairsReluctance":"2.0","toPlace":"48.41803,-71.083128","time":"13:0:00"},"plan":{"date":1522688400000,"from":{"name":"Origin","lon":-71.059381,"lat":48.422638,"orig":"","vertexType":"NORMAL"},"to":{"name":"Destination","lon":-71.083128,"lat":48.41803,"orig":"","vertexType":"NORMAL"},"itineraries":[{"duration":1467,"startTime":1522688432000,"endTime":1522689899000,"walkTime":1222,"transitTime":243,"waitingTime":2,"walkDistance":1554.9996014959956,"walkLimitExceeded":false,"elevationLost":0.0,"elevationGained":0.0,"transfers":0,"legs":[{"startTime":1522688432000,"endTime":1522689401000,"departureDelay":0,"arrivalDelay":0,"realTime":false,"distance":1231.916,"pathway":false,"mode":"WALK","route":"","agencyTimeZoneOffset":-14400000,"interlineWithPreviousLeg":false,"from":{"name":"Origin","lon":-71.059381,"lat":48.422638,"departure":1522688432000,"orig":"","vertexType":"NORMAL"},"to":{"name":"Price / Ste-Anne","stopId":"1:414","stopCode":"414","lon":-71.069681,"lat":48.425524,"arrival":1522689401000,"departure":1522689402000,"zoneId":"NA","stopIndex":2,"stopSequence":3,"vertexType":"TRANSIT"},"legGeometry":{"points":"_npfHzrupLe@i@WYiAgAaAcASOWWIIKIOl@EdACd@MLSICAOEk@CG?KACTM\\I\\Ax@Al@g@Zy@\\BdAGzCG~CARE~BIfEEbBAn@GfDS~H@n@Ah@EfBEdBK~FKlEKA","length":43},"rentedBike":false,"transitLeg":false,"duration":969.0,"steps":[{"distance":178.78900000000002,"relativeDirection":"DEPART","streetName":"Rue Bégin","absoluteDirection":"NORTHEAST","stayOn":false,"area":false,"bogusName":false,"lon":-71.05853375745859,"lat":48.42224297166872,"elevation":[]},{"distance":127.559,"relativeDirection":"LEFT","streetName":"alley","absoluteDirection":"NORTHWEST","stayOn":false,"area":false,"bogusName":true,"lon":-71.05719760000001,"lat":48.4235836,"elevation":[]},{"distance":131.454,"relativeDirection":"LEFT","streetName":"path","absoluteDirection":"WEST","stayOn":true,"area":false,"bogusName":true,"lon":-71.0579166,"lat":48.424303900000005,"elevation":[]},{"distance":711.1870000000001,"relativeDirection":"LEFT","streetName":"Rue Price Est","absoluteDirection":"WEST","stayOn":false,"area":false,"bogusName":false,"lon":-71.0591387,"lat":48.424959400000006,"elevation":[]},{"distance":75.968,"relativeDirection":"CONTINUE","streetName":"Rue Price Ouest","absoluteDirection":"WEST","stayOn":false,"area":false,"bogusName":false,"lon":-71.06874640000001,"lat":48.4254073,"elevation":[]},{"distance":6.959,"relativeDirection":"RIGHT","streetName":"Rue Petit","absoluteDirection":"NORTH","stayOn":false,"area":false,"bogusName":false,"lon":-71.0697722,"lat":48.4254655,"elevation":[]}]},{"startTime":1522689402000,"endTime":1522689645000,"departureDelay":0,"arrivalDelay":0,"realTime":false,"distance":1401.574314100705,"pathway":false,"mode":"BUS","route":"11","agencyName":"Société de Transport du Saguenay","agencyUrl":"http://ville.saguenay.ca/fr/services-aux-citoyens/transport-sts","agencyTimeZoneOffset":-14400000,"routeColor":"FF0000","routeType":3,"routeId":"1:11","routeTextColor":"FFFFFF","interlineWithPreviousLeg":false,"tripBlockId":"36","headsign":"Boul.Royaume/St-Pierre","agencyId":"0","tripId":"1:218290","serviceDate":"20180402","from":{"name":"Price / Ste-Anne","stopId":"1:414","stopCode":"414","lon":-71.069681,"lat":48.425524,"arrival":1522689401000,"departure":1522689402000,"zoneId":"NA","stopIndex":2,"stopSequence":3,"vertexType":"TRANSIT"},"to":{"name":"Saint-Paul / Cimon","stopId":"1:423","stopCode":"423","lon":-71.079825,"lat":48.41719,"arrival":1522689645000,"departure":1522689646000,"zoneId":"NA","stopIndex":10,"stopSequence":11,"vertexType":"TRANSIT"},"legGeometry":{"points":"abqfHpxwpLIfDOtEE~@Ff@x@rEF~@CbAALO~ADRNJXBr@DfGRPBPJLN@@FPFTBX?TE`BhBR@?J@NELKFOlAiDL[bA`AfIjIbGdGzDzD`A~An@`A","length":38},"routeShortName":"11","routeLongName":"Chic/Faubourg via St-Paul","rentedBike":false,"transitLeg":true,"duration":243.0,"steps":[]},{"startTime":1522689646000,"endTime":1522689899000,"departureDelay":0,"arrivalDelay":0,"realTime":false,"distance":322.843,"pathway":false,"mode":"WALK","route":"","agencyTimeZoneOffset":-14400000,"interlineWithPreviousLeg":false,"from":{"name":"Saint-Paul / Cimon","stopId":"1:423","stopCode":"423","lon":-71.079825,"lat":48.41719,"arrival":1522689645000,"departure":1522689646000,"zoneId":"NA","stopIndex":10,"stopSequence":11,"vertexType":"TRANSIT"},"to":{"name":"Destination","lon":-71.083128,"lat":48.41803,"arrival":1522689899000,"orig":"","vertexType":"NORMAL"},"legGeometry":{"points":"cnofHnwypLIOg@w@iA|CYxAk@`DiAzG","length":7},"rentedBike":false,"transitLeg":false,"duration":253.0,"steps":[{"distance":38.302,"relativeDirection":"DEPART","streetName":"Rue Saint-Paul","absoluteDirection":"NORTHEAST","stayOn":false,"area":false,"bogusName":false,"lon":-71.07975235507416,"lat":48.417143630279,"elevation":[]},{"distance":284.541,"relativeDirection":"LEFT","streetName":"Rue Cimon","absoluteDirection":"NORTHWEST","stayOn":false,"area":false,"bogusName":false,"lon":-71.0793926,"lat":48.417391900000005,"elevation":[]}]}],"tooSloped":false},{"duration":1687,"startTime":1522688400000,"endTime":1522690087000,"walkTime":1687,"transitTime":0,"waitingTime":0,"walkDistance":2183.3059022488337,"walkLimitExceeded":false,"elevationLost":0.0,"elevationGained":0.0,"transfers":0,"legs":[{"startTime":1522688400000,"endTime":1522690087000,"departureDelay":0,"arrivalDelay":0,"realTime":false,"distance":2183.0950000000003,"pathway":false,"mode":"WALK","route":"","agencyTimeZoneOffset":-14400000,"interlineWithPreviousLeg":false,"from":{"name":"Origin","lon":-71.059381,"lat":48.422638,"departure":1522688400000,"orig":"","vertexType":"NORMAL"},"to":{"name":"Destination","lon":-71.083128,"lat":48.41803,"arrival":1522690087000,"orig":"","vertexType":"NORMAL"},"legGeometry":{"points":"_npfHzrupL^`@JHbAdAzBzBRPStDIfEW`IElBAx@OfICtA?TStHI`DCjA?TM|HIdC[~A[rAKZ_@jAERI\\RZ?d@@n@D|@Bd@XbAFb@|@~@TV|B|BhCjCh@j@NNvDzDw@xB]fAdAtChChCzA`Bk@`DiAzG","length":47},"rentedBike":false,"transitLeg":false,"duration":1687.0,"steps":[{"distance":170.343,"relativeDirection":"DEPART","streetName":"Rue Bégin","absoluteDirection":"SOUTHWEST","stayOn":false,"area":false,"bogusName":false,"lon":-71.05853375745859,"lat":48.42224297166872,"elevation":[]},{"distance":1003.053,"relativeDirection":"RIGHT","streetName":"Boulevard de l'Université","absoluteDirection":"WEST","stayOn":false,"area":false,"bogusName":false,"lon":-71.05981580000001,"lat":48.4209693,"elevation":[]},{"distance":15.283,"relativeDirection":"LEFT","streetName":"Boulevard Saint-Paul","absoluteDirection":"SOUTHWEST","stayOn":false,"area":false,"bogusName":false,"lon":-71.0731375,"lat":48.4222466,"elevation":[]},{"distance":508.621,"relativeDirection":"RIGHT","streetName":"Rue Saint-Paul","absoluteDirection":"WEST","stayOn":false,"area":false,"bogusName":false,"lon":-71.0732783,"lat":48.4221458,"elevation":[]},{"distance":86.137,"relativeDirection":"RIGHT","streetName":"Rue Saint-Henri","absoluteDirection":"NORTHWEST","stayOn":false,"area":false,"bogusName":false,"lon":-71.07773680000001,"lat":48.418960000000006,"elevation":[]},{"distance":222.874,"relativeDirection":"LEFT","streetName":"Rue Saint-Jean","absoluteDirection":"SOUTHWEST","stayOn":false,"area":false,"bogusName":false,"lon":-71.07870050000001,"lat":48.419397000000004,"elevation":[]},{"distance":176.784,"relativeDirection":"RIGHT","streetName":"Rue Cimon","absoluteDirection":"WEST","stayOn":false,"area":false,"bogusName":false,"lon":-71.0806349,"lat":48.41789300000001,"elevation":[]}]}],"tooSloped":false},{"duration":1324,"startTime":1522689424000,"endTime":1522690748000,"walkTime":726,"transitTime":596,"waitingTime":2,"walkDistance":926.8350075154731,"walkLimitExceeded":false,"elevationLost":0.0,"elevationGained":0.0,"transfers":0,"legs":[{"startTime":1522689424000,"endTime":1522689582000,"departureDelay":0,"arrivalDelay":0,"realTime":false,"distance":200.53900000000002,"pathway":false,"mode":"WALK","route":"","agencyTimeZoneOffset":-14400000,"interlineWithPreviousLeg":false,"from":{"name":"Origin","lon":-71.059381,"lat":48.422638,"departure":1522689424000,"orig":"","vertexType":"NORMAL"},"to":{"name":"Bégin / Voie Réservé","stopId":"1:74","stopCode":"74","lon":-71.057125,"lat":48.423785,"arrival":1522689582000,"departure":1522689583000,"zoneId":"NA","stopIndex":5,"stopSequence":6,"vertexType":"TRANSIT"},"legGeometry":{"points":"_npfHzrupLe@i@WYiAgAaAcASOWWIIKIEEYW","length":11},"rentedBike":false,"transitLeg":false,"duration":158.0,"steps":[{"distance":200.53900000000002,"relativeDirection":"DEPART","streetName":"Rue Bégin","absoluteDirection":"NORTHEAST","stayOn":false,"area":false,"bogusName":false,"lon":-71.05853375745859,"lat":48.42224297166872,"elevation":[]}]},{"startTime":1522689583000,"endTime":1522690179000,"departureDelay":0,"arrivalDelay":0,"realTime":false,"distance":2413.3591636576552,"pathway":false,"mode":"BUS","route":"14","agencyName":"Société de Transport du Saguenay","agencyUrl":"http://ville.saguenay.ca/fr/services-aux-citoyens/transport-sts","agencyTimeZoneOffset":-14400000,"routeColor":"C0C000","routeType":3,"routeId":"1:14","routeTextColor":"000000","interlineWithPreviousLeg":false,"tripBlockId":"32","headsign":"Talbot / Barrette","agencyId":"0","tripId":"1:218160","serviceDate":"20180402","from":{"name":"Bégin / Voie Réservé","stopId":"1:74","stopCode":"74","lon":-71.057125,"lat":48.423785,"arrival":1522689582000,"departure":1522689583000,"zoneId":"NA","stopIndex":5,"stopSequence":6,"vertexType":"TRANSIT"},"to":{"name":"Carrefour 216","stopId":"1:524","stopCode":"524","lon":-71.076345,"lat":48.417612,"arrival":1522690179000,"departure":1522690180000,"zoneId":"NA","stopIndex":12,"stopSequence":13,"vertexType":"TRANSIT"},"legGeometry":{"points":"gwpfHfiupLn@n@\\iATg@v@_ATg@LmABg@Is@c@iEAm@bAcDTcAtA{DJI|AxAvAvAQv@~@z@dA`ATq@`E~DL`@E`Ex@hDd@`B}FtFaAzAm@xAe@jCa@nDiAbm@SpKM`H]vBhDVzCTcAvCO^bEbEzK`L","length":41},"routeShortName":"14","routeLongName":"Coopérative","rentedBike":false,"transitLeg":true,"duration":596.0,"steps":[]},{"startTime":1522690180000,"endTime":1522690748000,"departureDelay":0,"arrivalDelay":0,"realTime":false,"distance":726.1930000000001,"pathway":false,"mode":"WALK","route":"","agencyTimeZoneOffset":-14400000,"interlineWithPreviousLeg":false,"from":{"name":"Carrefour 216","stopId":"1:524","stopCode":"524","lon":-71.076345,"lat":48.417612,"arrival":1522690179000,"departure":1522690180000,"zoneId":"NA","stopIndex":12,"stopSequence":13,"vertexType":"TRANSIT"},"to":{"name":"Destination","lon":-71.083128,"lat":48.41803,"arrival":1522690748000,"orig":"","vertexType":"NORMAL"},"legGeometry":{"points":"ypofHtaypL{@{@SQSQaAnCITy@`Ck@|Aw@xB]fAdAtChChCzA`Bk@`DiAzG","length":15},"rentedBike":false,"transitLeg":false,"duration":568.0,"steps":[{"distance":65.55199999999999,"relativeDirection":"DEPART","streetName":"Rue Caron","absoluteDirection":"NORTHEAST","stayOn":false,"area":false,"bogusName":false,"lon":-71.07626391976946,"lat":48.41757688506955,"elevation":[]},{"distance":260.983,"relativeDirection":"LEFT","streetName":"Rue Saint-Henri","absoluteDirection":"NORTHWEST","stayOn":false,"area":false,"bogusName":false,"lon":-71.0757816,"lat":48.4180719,"elevation":[]},{"distance":222.874,"relativeDirection":"LEFT","streetName":"Rue Saint-Jean","absoluteDirection":"SOUTHWEST","stayOn":false,"area":false,"bogusName":false,"lon":-71.07870050000001,"lat":48.419397000000004,"elevation":[]},{"distance":176.784,"relativeDirection":"RIGHT","streetName":"Rue Cimon","absoluteDirection":"WEST","stayOn":false,"area":false,"bogusName":false,"lon":-71.0806349,"lat":48.41789300000001,"elevation":[]}]}],"tooSloped":false}]},"debugOutput":{"precalculationTime":30,"pathCalculationTime":44,"pathTimes":[25,7,12],"renderingTime":0,"totalTime":74,"timedOut":false},"elevationMetadata":{"ellipsoidToGeoidDifference":-28.885904201182168,"geoidElevation":false}}