{"requestParameters":{"date":"2018/04/02","walkSpeed":"1.33","walkReluctance":"2.0","fromPlace":"48.413295,-71.049231","maxWalkDistance":"3000","waitReluctance":"1.0","carSpeed":"33","numItineraries":"3","waitAtBeginningFactor":"0.4","mode":"TRANSIT,WALK","ignoreRealtimeUpdates":"false","stairsReluctance":"2.0","toPlace":"48.403952,-71.054642","time":"11:10:00"},"plan":{"date":1522681800000,"from":{"name":"Origin","lon":-71.049231,"lat":48.413295,"orig":"","vertexType":"NORMAL"},"to":{"name":"Destination","lon":-71.054642,"lat":48.403952,"orig":"","vertexType":"NORMAL"},"itineraries":[{"duration":1108,"startTime":1522681800000,"endTime":1522682908000,"walkTime":1108,"transitTime":0,"waitingTime":0,"walkDistance":1415.0834210471978,"walkLimitExceeded":false,"elevationLost":0.0,"elevationGained":0.0,"transfers":0,"legs":[{"startTime":1522681800000,"endTime":1522682908000,"departureDelay":0,"arrivalDelay":0,"realTime":false,"distance":1414.9150000000004,"pathway":false,"mode":"WALK","route":"","agencyTimeZoneOffset":-14400000,"interlineWithPreviousLeg":false,"from":{"name":"Origin","lon":-71.049231,"lat":48.413295,"departure":1522681800000,"orig":"","vertexType":"NORMAL"},"to":{"name":"Destination","lon":-71.054642,"lat":48.403952,"arrival":1522682908000,"orig":"","vertexType":"NORMAL"},"legGeometry":{"points":"awnfH|zspLjGrGTXLJx@|@bDfDjDlDPRp@p@lAhApF`FLAn@MLe@H_@nAmEZe@\\e@b@p@XVZ@d@@b@@J@V?Z@T?FC\\Qf@sAL[FQ\\cAFIRRZXXXXVVTXVPROf@Wt@Xb@R\\T^R\\JL","length":48},"rentedBike":false,"transitLeg":false,"duration":1108.0,"steps":[{"distance":725.6590000000001,"relativeDirection":"DEPART","streetName":"Boulevard Talbot","absoluteDirection":"SOUTHWEST","stayOn":false,"area":false,"bogusName":false,"lon":-71.04958085233693,"lat":48.41345487585925,"elevation":[]},{"distance":34.36,"relativeDirection":"LEFT","streetName":"path","absoluteDirection":"SOUTH","stayOn":false,"area":false,"bogusName":true,"lon":-71.05502820000001,"lat":48.4080238,"elevation":[]},{"distance":426.668,"relativeDirection":"LEFT","streetName":"parking aisle","absoluteDirection":"SOUTHEAST","stayOn":true,"area":false,"bogusName":true,"lon":-71.0549472,"lat":48.407719500000006,"elevation":[]},{"distance":110.87500000000001,"relativeDirection":"RIGHT","streetName":"service road","absoluteDirection":"SOUTHWEST","stayOn":true,"area":false,"bogusName":true,"lon":-71.05245930000001,"lat":48.4049623,"elevation":[]},{"distance":117.35300000000001,"relativeDirection":"RIGHT","streetName":"parking aisle","absoluteDirection":"NORTHWEST","stayOn":true,"area":false,"bogusName":true,"lon":-71.0532652,"lat":48.4041209,"elevation":[]}]}],"tooSloped":false},{"duration":599,"startTime":1522682661000,"endTime":1522683260000,"walkTime":443,"transitTime":154,"waitingTime":2,"walkDistance":551.7974511219968,"walkLimitExceeded":false,"elevationLost":0.0,"elevationGained":0.0,"transfers":0,"legs":[{"startTime":1522682661000,"endTime":1522682882000,"departureDelay":0,"arrivalDelay":0,"realTime":false,"distance":287.543,"pathway":false,"mode":"WALK","route":"","agencyTimeZoneOffset":-14400000,"interlineWithPreviousLeg":false,"from":{"name":"Origin","lon":-71.049231,"lat":48.413295,"departure":1522682661000,"orig":"","vertexType":"NORMAL"},"to":{"name":"boul. Université / Murdock","stopId":"1:80","stopCode":"80","lon":-71.050111,"lat":48.411498,"arrival":1522682882000,"departure":1522682883000,"zoneId":"NA","stopIndex":14,"stopSequence":15,"vertexType":"TRANSIT"},"legGeometry":{"points":"awnfH|zspLjGrGTX|AmE","length":4},"rentedBike":false,"transitLeg":false,"duration":221.0,"steps":[{"distance":196.245,"relativeDirection":"DEPART","streetName":"Boulevard Talbot","absoluteDirection":"SOUTHWEST","stayOn":false,"area":false,"bogusName":false,"lon":-71.04958085233693,"lat":48.41345487585925,"elevation":[]},{"distance":91.298,"relativeDirection":"LEFT","streetName":"Boulevard de l'Université","absoluteDirection":"SOUTHEAST","stayOn":false,"area":false,"bogusName":false,"lon":-71.0510904,"lat":48.412002,"elevation":[]}]},{"startTime":1522682883000,"endTime":1522683037000,"departureDelay":0,"arrivalDelay":0,"realTime":false,"distance":971.509745086079,"pathway":false,"mode":"BUS","route":"175","agencyName":"Société de Transport du Saguenay","agencyUrl":"http://ville.saguenay.ca/fr/services-aux-citoyens/transport-sts","agencyTimeZoneOffset":-14400000,"routeColor":"FF00FF","routeType":3,"routeId":"1:175","routeTextColor":"FFFFFF","interlineWithPreviousLeg":false,"tripBlockId":"6","headsign":"Costco","agencyId":"0","tripId":"1:217294","serviceDate":"20180402","from":{"name":"boul. Université / Murdock","stopId":"1:80","stopCode":"80","lon":-71.050111,"lat":48.411498,"arrival":1522682882000,"departure":1522682883000,"zoneId":"NA","stopIndex":14,"stopSequence":15,"vertexType":"TRANSIT"},"to":{"name":"Champs-Élysées (no. 1415)","stopId":"1:1925","stopCode":"1925","lon":-71.051931,"lat":48.403672,"arrival":1522683037000,"departure":1522683038000,"zoneId":"NA","stopIndex":18,"stopSequence":19,"vertexType":"TRANSIT"},"legGeometry":{"points":"aknfH~}spLr@sBhCsKz@dAjB|@dM`GzCvAXrCr@~Gx@]PEr@ObACn@FrBb@|@Ch@Kx@U","length":18},"routeShortName":"175","routeLongName":"Term. Chic / Costco","rentedBike":false,"transitLeg":true,"duration":154.0,"steps":[]},{"startTime":1522683038000,"endTime":1522683260000,"departureDelay":0,"arrivalDelay":0,"realTime":false,"distance":264.074,"pathway":false,"mode":"WALK","route":"","agencyTimeZoneOffset":-14400000,"interlineWithPreviousLeg":false,"from":{"name":"Champs-Élysées (no. 1415)","stopId":"1:1925","stopCode":"1925","lon":-71.051931,"lat":48.403672,"arrival":1522683037000,"departure":1522683038000,"zoneId":"NA","stopIndex":18,"stopSequence":19,"vertexType":"TRANSIT"},"to":{"name":"Destination","lon":-71.054642,"lat":48.403952,"arrival":1522683260000,"orig":"","vertexType":"NORMAL"},"legGeometry":{"points":"czlfHphtpLOFe@L@zA?p@ELPNk@hBOf@Wt@Xb@R\\T^R\\JL","length":15},"rentedBike":false,"transitLeg":false,"duration":222.0,"steps":[{"distance":31.103,"relativeDirection":"DEPART","streetName":"Rue des Champs-Élysées","absoluteDirection":"NORTH","stayOn":false,"area":false,"bogusName":false,"lon":-71.05176919271997,"lat":48.40370108692007,"elevation":[]},{"distance":232.97099999999998,"relativeDirection":"LEFT","streetName":"parking aisle","absoluteDirection":"WEST","stayOn":false,"area":false,"bogusName":true,"lon":-71.0518792,"lat":48.4039711,"elevation":[]}]}],"tooSloped":false},{"duration":599,"startTime":1522684461000,"endTime":1522685060000,"walkTime":443,"transitTime":154,"waitingTime":2,"walkDistance":551.7974511219968,"walkLimitExceeded":false,"elevationLost":0.0,"elevationGained":0.0,"transfers":0,"legs":[{"startTime":1522684461000,"endTime":1522684682000,"departureDelay":0,"arrivalDelay":0,"realTime":false,"distance":287.543,"pathway":false,"mode":"WALK","route":"","agencyTimeZoneOffset":-14400000,"interlineWithPreviousLeg":false,"from":{"name":"Origin","lon":-71.049231,"lat":48.413295,"departure":1522684461000,"orig":"","vertexType":"NORMAL"},"to":{"name":"boul. Université / Murdock","stopId":"1:80","stopCode":"80","lon":-71.050111,"lat":48.411498,"arrival":1522684682000,"departure":1522684683000,"zoneId":"NA","stopIndex":14,"stopSequence":15,"vertexType":"TRANSIT"},"legGeometry":{"points":"awnfH|zspLjGrGTX|AmE","length":4},"rentedBike":false,"transitLeg":false,"duration":221.0,"steps":[{"distance":196.245,"relativeDirection":"DEPART","streetName":"Boulevard Talbot","absoluteDirection":"SOUTHWEST","stayOn":false,"area":false,"bogusName":false,"lon":-71.04958085233693,"lat":48.41345487585925,"elevation":[]},{"distance":91.298,"relativeDirection":"LEFT","streetName":"Boulevard de l'Université","absoluteDirection":"SOUTHEAST","stayOn":false,"area":false,"bogusName":false,"lon":-71.0510904,"lat":48.412002,"elevation":[]}]},{"startTime":1522684683000,"endTime":1522684837000,"departureDelay":0,"arrivalDelay":0,"realTime":false,"distance":971.509745086079,"pathway":false,"mode":"BUS","route":"175","agencyName":"Société de Transport du Saguenay","agencyUrl":"http://ville.saguenay.ca/fr/services-aux-citoyens/transport-sts","agencyTimeZoneOffset":-14400000,"routeColor":"FF00FF","routeType":3,"routeId":"1:175","routeTextColor":"FFFFFF","interlineWithPreviousLeg":false,"tripBlockId":"7","headsign":"Costco","agencyId":"0","tripId":"1:217331","serviceDate":"20180402","from":{"name":"boul. Université / Murdock","stopId":"1:80","stopCode":"80","lon":-71.050111,"lat":48.411498,"arrival":1522684682000,"departure":1522684683000,"zoneId":"NA","stopIndex":14,"stopSequence":15,"vertexType":"TRANSIT"},"to":{"name":"Champs-Élysées (no. 1415)","stopId":"1:1925","stopCode":"1925","lon":-71.051931,"lat":48.403672,"arrival":1522684837000,"departure":1522684838000,"zoneId":"NA","stopIndex":18,"stopSequence":19,"vertexType":"TRANSIT"},"legGeometry":{"points":"aknfH~}spLr@sBhCsKz@dAjB|@dM`GzCvAXrCr@~Gx@]PEr@ObACn@FrBb@|@Ch@Kx@U","length":18},"routeShortName":"175","routeLongName":"Term. Chic / Costco","rentedBike":false,"transitLeg":true,"duration":154.0,"steps":[]},{"startTime":1522684838000,"endTime":1522685060000,"departureDelay":0,"arrivalDelay":0,"realTime":false,"distance":264.074,"pathway":false,"mode":"WALK","route":"","agencyTimeZoneOffset":-14400000,"interlineWithPreviousLeg":false,"from":{"name":"Champs-Élysées (no. 1415)","stopId":"1:1925","stopCode":"1925","lon":-71.051931,"lat":48.403672,"arrival":1522684837000,"departure":1522684838000,"zoneId":"NA","stopIndex":18,"stopSequence":19,"vertexType":"TRANSIT"},"to":{"name":"Destination","lon":-71.054642,"lat":48.403952,"arrival":1522685060000,"orig":"","vertexType":"NORMAL"},"legGeometry":{"points":"czlfHphtpLOFe@L@zA?p@ELPNk@hBOf@Wt@Xb@R\\T^R\\JL","length":15},"rentedBike":false,"transitLeg":false,"duration":222.0,"steps":[{"distance":31.103,"relativeDirection":"DEPART","streetName":"Rue des Champs-Élysées","absoluteDirection":"NORTH","stayOn":false,"area":false,"bogusName":false,"lon":-71.05176919271997,"lat":48.40370108692007,"elevation":[]},{"distance":232.97099999999998,"relativeDirection":"LEFT","streetName":"parking aisle","absoluteDirection":"WEST","stayOn":false,"area":false,"bogusName":true,"lon":-71.0518792,"lat":48.4039711,"elevation":[]}]}],"tooSloped":false}]},"debugOutput":{"precalculationTime":33,"pathCalculationTime":23,"pathTimes":[14,4,5],"renderingTime":1,"totalTime":57,"timedOut":false},"elevationMetadata":{"ellipsoidToGeoidDifference":-28.885904201182168,"geoidElevation":false}}